{"data": {"bikes": [{"lon": -77.03420316666667, "bike_id": "e828472e245450c2fd1c3c1ffa011fbf", "lat": 38.917924666666664, "fusion_lon": 0.0, "fusion_lat": 0.0, "type": "electric_scooter", "name": "e828472e245450c2fd1c3c1ffa011fbf", "is_disabled": 0, "rental_uris": {"ios": "https://dc.lft.to/lastmile_qr_scan", "android": "https://dc.lft.to/lastmile_qr_scan"}, "is_reserved": 0}, {"lon": -77.05609766666667, "bike_id": "1b8b351ef9beaa65abfa4c182624ed50", "lat": 38.931592333333334, "fusion_lon": 0.0, "fusion_lat": 0.0, "type": "electric_scooter", "name": "1b8b351ef9beaa65abfa4c182624ed50", "is_disabled": 0, "rental_uris": {"ios": "https://dc.lft.to/lastmile_qr_scan", "android": "https://dc.lft.to/lastmile_qr_scan"}, "is_reserved": 0}, {"lon": -77.0033585, "bike_id": "86d0e336345dbdefce1497633430f2ed", "lat": 38.89190716666667, "fusion_lon": 0.0, "fusion_lat": 0.0, "type": "electric_scooter", "name": "86d0e336345dbdefce1497633430f2ed", "is_disabled": 0, "rental_uris": {"ios": "https://dc.lft.to/lastmile_qr_scan", "android": "https://dc.lft.to/lastmile_qr_scan"}, "is_reserved": 0}, {"lon": -76.98375366666667, "bike_id": "d99374693536944edf1c26436e1bc840", "lat": 38.891433166666665, "fusion_lon": 0.0, "fusion_lat": 0.0, "type": "electric_scooter", "name": "d99374693536944edf1c26436e1bc840", "is_disabled": 0, "rental_uris": {"ios": "https://dc.lft.to/lastmile_qr_scan", "android": "https://dc.lft.to/lastmile_qr_scan"}, "is_reserved": 0}, {"lon": -77.00569783333333, "bike_id": "1a9b0727cf09b958aee6a3853dcf6840", "lat": 38.9056295, "fusion_lon": 0.0, "fusion_lat": 0.0, "type": "electric_scooter", "name": "1a9b0727cf09b958aee6a3853dcf6840", "is_disabled": 0, "rental_uris": {"ios": "https://dc.lft.to/lastmile_qr_scan", "android": "https://dc.lft.to/lastmile_qr_scan"}, "is_reserved": 0}, {"lon": -76.98835166666667, "bike_id": "276caabf6c6d55bdfbd66bb76a361104", "lat": 38.90074366666666, "fusion_lon": 0.0, "fusion_lat": 0.0, "type": "electric_scooter", "name": "276caabf6c6d55bdfbd66bb76a361104", "is_disabled": 0, "rental_uris": {"ios": "https://dc.lft.to/lastmile_qr_scan", "android": "https://dc.lft.to/lastmile_qr_scan"}, "is_reserved": 0}, {"lon": -76.99478866666666, "bike_id": "008ae9fd244ec12e980d3034bb73acfe", "lat": 38.862178666666665, "fusion_lon": 0.0, "fusion_lat": 0.0, "type": "electric_scooter", "name": "008ae9fd244ec12e980d3034bb73acfe", "is_disabled": 0, "rental_uris": {"ios": "https://dc.lft.to/lastmile_qr_scan", "android": "https://dc.lft.to/lastmile_qr_scan"}, "is_reserved": 0}, {"lon": -77.024732, "bike_id": "f19a29f7bf1813d929c70f6b37bc451d", "lat": 38.916663, "fusion_lon": 0.0, "fusion_lat": 0.0, "type": "electric_scooter", "name": "f19a29f7bf1813d929c70f6b37bc451d", "is_disabled": 0, "rental_uris": {"ios": "https://dc.lft.to/lastmile_qr_scan", "android": "https://dc.lft.to/lastmile_qr_scan"}, "is_reserved": 0}, {"lon": -77.06092666666666, "bike_id": "8bca9ff0e07ea39c519277afefc3ee15", "lat": 38.943755833333334, "fusion_lon": 0.0, "fusion_lat": 0.0, "type": "electric_scooter", "name": "8bca9ff0e07ea39c519277afefc3ee15", "is_disabled": 0, "rental_uris": {"ios": "https://dc.lft.to/lastmile_qr_scan", "android": "https://dc.lft.to/lastmile_qr_scan"}, "is_reserved": 0}, {"lon": -77.0333625, "bike_id": "f340b65e6c60cc2b7c4f1194b92a682a", "lat": 38.91912716666667, "fusion_lon": 0.0, "fusion_lat": 0.0, "type": "electric_scooter", "name": "f340b65e6c60cc2b7c4f1194b92a682a", "is_disabled": 0, "rental_uris": {"ios": "https://dc.lft.to/lastmile_qr_scan", "android": "https://dc.lft.to/lastmile_qr_scan"}, "is_reserved": 0}, {"lon": -77.02390616666666, "bike_id": "093c599ff9225e941026270d56c39fca", "lat": 38.920075833333335, "fusion_lon": 0.0, "fusion_lat": 0.0, "type": "electric_scooter", "name": "093c599ff9225e941026270d56c39fca", "is_disabled": 0, "rental_uris": {"ios": "https://dc.lft.to/lastmile_qr_scan", "android": "https://dc.lft.to/lastmile_qr_scan"}, "is_reserved": 0}, {"lon": -77.03189683333333, "bike_id": "7bbdc3742a79c5445ee2a731e3428319", "lat": 38.9360895, "fusion_lon": 0.0, "fusion_lat": 0.0, "type": "electric_scooter", "name": "7bbdc3742a79c5445ee2a731e3428319", "is_disabled": 0, "rental_uris": {"ios": "https://dc.lft.to/lastmile_qr_scan", "android": "https://dc.lft.to/lastmile_qr_scan"}, "is_reserved": 0}, {"lon": -77.04233966666666, "bike_id": "8947ad6c85829090c6cc348a23875f68", "lat": 38.9164505, "fusion_lon": 0.0, "fusion_lat": 0.0, "type": "electric_scooter", "name": "8947ad6c85829090c6cc348a23875f68", "is_disabled": 0, "rental_uris": {"ios": "https://dc.lft.to/lastmile_qr_scan", "android": "https://dc.lft.to/lastmile_qr_scan"}, "is_reserved": 0}, {"lon": -77.03145116666667, "bike_id": "ed150f122df3ae11ea4cf059586eb75b", "lat": 38.93252833333333, "fusion_lon": 0.0, "fusion_lat": 0.0, "type": "electric_scooter", "name": "ed150f122df3ae11ea4cf059586eb75b", "is_disabled": 0, "rental_uris": {"ios": "https://dc.lft.to/lastmile_qr_scan", "android": "https://dc.lft.to/lastmile_qr_scan"}, "is_reserved": 0}, {"lon": -77.003825, "bike_id": "80a3220feb4adbf533ba64441df22ebe", "lat": 38.836068, "fusion_lon": 0.0, "fusion_lat": 0.0, "type": "electric_bike", "name": "80a3220feb4adbf533ba64441df22ebe", "is_disabled": 0, "rental_uris": {"ios": "https://dc.lft.to/lastmile_qr_scan", "android": "https://dc.lft.to/lastmile_qr_scan"}, "is_reserved": 0}, {"lon": -77.031805, "bike_id": "6532f01c4d7919d39400f11cec072a5d", "lat": 38.91746916666666, "fusion_lon": 0.0, "fusion_lat": 0.0, "type": "electric_scooter", "name": "6532f01c4d7919d39400f11cec072a5d", "is_disabled": 0, "rental_uris": {"ios": "https://dc.lft.to/lastmile_qr_scan", "android": "https://dc.lft.to/lastmile_qr_scan"}, "is_reserved": 0}, {"lon": -77.04675916666666, "bike_id": "a38bceed8cbe89e5896d9674daa85e00", "lat": 38.907205, "fusion_lon": 0.0, "fusion_lat": 0.0, "type": "electric_scooter", "name": "a38bceed8cbe89e5896d9674daa85e00", "is_disabled": 0, "rental_uris": {"ios": "https://dc.lft.to/lastmile_qr_scan", "android": "https://dc.lft.to/lastmile_qr_scan"}, "is_reserved": 0}, {"lon": -77.03262433333333, "bike_id": "57563beb333740dff8951843668944a2", "lat": 38.93774416666667, "fusion_lon": 0.0, "fusion_lat": 0.0, "type": "electric_scooter", "name": "57563beb333740dff8951843668944a2", "is_disabled": 0, "rental_uris": {"ios": "https://dc.lft.to/lastmile_qr_scan", "android": "https://dc.lft.to/lastmile_qr_scan"}, "is_reserved": 0}, {"lon": -77.0332615, "bike_id": "3218c290cd08c5955a37d5b2b4dd3420", "lat": 38.9471775, "fusion_lon": 0.0, "fusion_lat": 0.0, "type": "electric_scooter", "name": "3218c290cd08c5955a37d5b2b4dd3420", "is_disabled": 0, "rental_uris": {"ios": "https://dc.lft.to/lastmile_qr_scan", "android": "https://dc.lft.to/lastmile_qr_scan"}, "is_reserved": 0}, {"lon": -77.035784, "bike_id": "4db9abc9c065ff98ad14e8833306e384", "lat": 38.910482333333334, "fusion_lon": 0.0, "fusion_lat": 0.0, "type": "electric_scooter", "name": "4db9abc9c065ff98ad14e8833306e384", "is_disabled": 0, "rental_uris": {"ios": "https://dc.lft.to/lastmile_qr_scan", "android": "https://dc.lft.to/lastmile_qr_scan"}, "is_reserved": 0}, {"lon": -77.04209983333334, "bike_id": "e1f34a3b363671b2e25152d8d31fd162", "lat": 38.91353016666667, "fusion_lon": 0.0, "fusion_lat": 0.0, "type": "electric_scooter", "name": "e1f34a3b363671b2e25152d8d31fd162", "is_disabled": 0, "rental_uris": {"ios": "https://dc.lft.to/lastmile_qr_scan", "android": "https://dc.lft.to/lastmile_qr_scan"}, "is_reserved": 0}, {"lon": -77.00744916666666, "bike_id": "2a1e77923a0ac7e86d78591ca0bd64d2", "lat": 38.89784483333333, "fusion_lon": 0.0, "fusion_lat": 0.0, "type": "electric_bike", "name": "2a1e77923a0ac7e86d78591ca0bd64d2", "is_disabled": 0, "rental_uris": {"ios": "https://dc.lft.to/lastmile_qr_scan", "android": "https://dc.lft.to/lastmile_qr_scan"}, "is_reserved": 0}, {"lon": -77.04349383333333, "bike_id": "9dd8cef9b3d6059bb9d3deb2827274ef", "lat": 38.9234595, "fusion_lon": 0.0, "fusion_lat": 0.0, "type": "electric_scooter", "name": "9dd8cef9b3d6059bb9d3deb2827274ef", "is_disabled": 0, "rental_uris": {"ios": "https://dc.lft.to/lastmile_qr_scan", "android": "https://dc.lft.to/lastmile_qr_scan"}, "is_reserved": 0}, {"lon": -76.99289533333334, "bike_id": "00ec0b7eb01cbc82215fc217b449cf78", "lat": 38.898888666666664, "fusion_lon": 0.0, "fusion_lat": 0.0, "type": "electric_scooter", "name": "00ec0b7eb01cbc82215fc217b449cf78", "is_disabled": 0, "rental_uris": {"ios": "https://dc.lft.to/lastmile_qr_scan", "android": "https://dc.lft.to/lastmile_qr_scan"}, "is_reserved": 0}, {"lon": -77.04403383333333, "bike_id": "863f93042f33bb94d7620d6c88d78b14", "lat": 38.911399333333335, "fusion_lon": 0.0, "fusion_lat": 0.0, "type": "electric_scooter", "name": "863f93042f33bb94d7620d6c88d78b14", "is_disabled": 0, "rental_uris": {"ios": "https://dc.lft.to/lastmile_qr_scan", "android": "https://dc.lft.to/lastmile_qr_scan"}, "is_reserved": 0}, {"lon": -77.03187633333333, "bike_id": "3dabc5672b28e3af0835b58846b22984", "lat": 38.918252833333334, "fusion_lon": 0.0, "fusion_lat": 0.0, "type": "electric_scooter", "name": "3dabc5672b28e3af0835b58846b22984", "is_disabled": 0, "rental_uris": {"ios": "https://dc.lft.to/lastmile_qr_scan", "android": "https://dc.lft.to/lastmile_qr_scan"}, "is_reserved": 0}, {"lon": -77.027464, "bike_id": "5925aa4bf0815ea3c7f87906c4c29e09", "lat": 38.917036333333336, "fusion_lon": 0.0, "fusion_lat": 0.0, "type": "electric_scooter", "name": "5925aa4bf0815ea3c7f87906c4c29e09", "is_disabled": 0, "rental_uris": {"ios": "https://dc.lft.to/lastmile_qr_scan", "android": "https://dc.lft.to/lastmile_qr_scan"}, "is_reserved": 0}, {"lon": -77.03263233333334, "bike_id": "89cc0344d036bc5e24afb4199c306e8b", "lat": 38.93207133333333, "fusion_lon": 0.0, "fusion_lat": 0.0, "type": "electric_scooter", "name": "89cc0344d036bc5e24afb4199c306e8b", "is_disabled": 0, "rental_uris": {"ios": "https://dc.lft.to/lastmile_qr_scan", "android": "https://dc.lft.to/lastmile_qr_scan"}, "is_reserved": 0}, {"lon": -77.04161516666667, "bike_id": "de41fa4ea69312c4c665926dbb0e858f", "lat": 38.905414, "fusion_lon": 0.0, "fusion_lat": 0.0, "type": "electric_scooter", "name": "de41fa4ea69312c4c665926dbb0e858f", "is_disabled": 0, "rental_uris": {"ios": "https://dc.lft.to/lastmile_qr_scan", "android": "https://dc.lft.to/lastmile_qr_scan"}, "is_reserved": 0}, {"lon": -77.02171383333334, "bike_id": "4d2f709f7b0864bdb7f3702904e169b2", "lat": 38.93002933333333, "fusion_lon": 0.0, "fusion_lat": 0.0, "type": "electric_scooter", "name": "4d2f709f7b0864bdb7f3702904e169b2", "is_disabled": 0, "rental_uris": {"ios": "https://dc.lft.to/lastmile_qr_scan", "android": "https://dc.lft.to/lastmile_qr_scan"}, "is_reserved": 0}, {"lon": -76.98236733333333, "bike_id": "edf05e86a88ff96685a3df4275680151", "lat": 38.888674333333334, "fusion_lon": 0.0, "fusion_lat": 0.0, "type": "electric_scooter", "name": "edf05e86a88ff96685a3df4275680151", "is_disabled": 0, "rental_uris": {"ios": "https://dc.lft.to/lastmile_qr_scan", "android": "https://dc.lft.to/lastmile_qr_scan"}, "is_reserved": 0}, {"lon": -77.033487, "bike_id": "323148cd28085d31a3512d77bfbd5cee", "lat": 38.92358633333333, "fusion_lon": 0.0, "fusion_lat": 0.0, "type": "electric_scooter", "name": "323148cd28085d31a3512d77bfbd5cee", "is_disabled": 0, "rental_uris": {"ios": "https://dc.lft.to/lastmile_qr_scan", "android": "https://dc.lft.to/lastmile_qr_scan"}, "is_reserved": 0}, {"lon": -77.039373, "bike_id": "ddfd6918d2469921d04872bfd8506043", "lat": 38.91567116666667, "fusion_lon": 0.0, "fusion_lat": 0.0, "type": "electric_scooter", "name": "ddfd6918d2469921d04872bfd8506043", "is_disabled": 0, "rental_uris": {"ios": "https://dc.lft.to/lastmile_qr_scan", "android": "https://dc.lft.to/lastmile_qr_scan"}, "is_reserved": 0}, {"lon": -77.06490066666667, "bike_id": "7ea280f983a315521a15b1836805586f", "lat": 38.9290475, "fusion_lon": 0.0, "fusion_lat": 0.0, "type": "electric_scooter", "name": "7ea280f983a315521a15b1836805586f", "is_disabled": 0, "rental_uris": {"ios": "https://dc.lft.to/lastmile_qr_scan", "android": "https://dc.lft.to/lastmile_qr_scan"}, "is_reserved": 0}, {"lon": -77.0480505, "bike_id": "cee5b52667838bbb05cd81ddddff7fd8", "lat": 38.91407016666667, "fusion_lon": 0.0, "fusion_lat": 0.0, "type": "electric_scooter", "name": "cee5b52667838bbb05cd81ddddff7fd8", "is_disabled": 0, "rental_uris": {"ios": "https://dc.lft.to/lastmile_qr_scan", "android": "https://dc.lft.to/lastmile_qr_scan"}, "is_reserved": 0}, {"lon": -77.02483266666667, "bike_id": "f6668db9ab59a8036829debc368dc807", "lat": 38.88392966666667, "fusion_lon": 0.0, "fusion_lat": 0.0, "type": "electric_scooter", "name": "f6668db9ab59a8036829debc368dc807", "is_disabled": 0, "rental_uris": {"ios": "https://dc.lft.to/lastmile_qr_scan", "android": "https://dc.lft.to/lastmile_qr_scan"}, "is_reserved": 0}, {"lon": -77.003675, "bike_id": "fd1aa4c6c4d02f8a2665f02c36bfba02", "lat": 38.898860166666665, "fusion_lon": 0.0, "fusion_lat": 0.0, "type": "electric_scooter", "name": "fd1aa4c6c4d02f8a2665f02c36bfba02", "is_disabled": 0, "rental_uris": {"ios": "https://dc.lft.to/lastmile_qr_scan", "android": "https://dc.lft.to/lastmile_qr_scan"}, "is_reserved": 0}, {"lon": -77.00886483333333, "bike_id": "0e20ee754f9bcae947c663da182a8466", "lat": 38.91714533333333, "fusion_lon": 0.0, "fusion_lat": 0.0, "type": "electric_scooter", "name": "0e20ee754f9bcae947c663da182a8466", "is_disabled": 0, "rental_uris": {"ios": "https://dc.lft.to/lastmile_qr_scan", "android": "https://dc.lft.to/lastmile_qr_scan"}, "is_reserved": 0}, {"lon": -77.01151666666667, "bike_id": "8b67c4467c5d9fdbfe26aea6a0e830ed", "lat": 38.95688233333333, "fusion_lon": 0.0, "fusion_lat": 0.0, "type": "electric_scooter", "name": "8b67c4467c5d9fdbfe26aea6a0e830ed", "is_disabled": 0, "rental_uris": {"ios": "https://dc.lft.to/lastmile_qr_scan", "android": "https://dc.lft.to/lastmile_qr_scan"}, "is_reserved": 0}, {"lon": -77.03406383333333, "bike_id": "99f5b9b6421ab93d717fd7a5ccddfab0", "lat": 38.93127666666667, "fusion_lon": 0.0, "fusion_lat": 0.0, "type": "electric_scooter", "name": "99f5b9b6421ab93d717fd7a5ccddfab0", "is_disabled": 0, "rental_uris": {"ios": "https://dc.lft.to/lastmile_qr_scan", "android": "https://dc.lft.to/lastmile_qr_scan"}, "is_reserved": 0}, {"lon": -77.04623433333333, "bike_id": "2182918d6fd7b79d618a82b92a9046e8", "lat": 38.9097285, "fusion_lon": 0.0, "fusion_lat": 0.0, "type": "electric_scooter", "name": "2182918d6fd7b79d618a82b92a9046e8", "is_disabled": 0, "rental_uris": {"ios": "https://dc.lft.to/lastmile_qr_scan", "android": "https://dc.lft.to/lastmile_qr_scan"}, "is_reserved": 0}, {"lon": -77.031924, "bike_id": "6789d31b58394dbef3cf1f3f2a38eea3", "lat": 38.897647, "fusion_lon": 0.0, "fusion_lat": 0.0, "type": "electric_scooter", "name": "6789d31b58394dbef3cf1f3f2a38eea3", "is_disabled": 0, "rental_uris": {"ios": "https://dc.lft.to/lastmile_qr_scan", "android": "https://dc.lft.to/lastmile_qr_scan"}, "is_reserved": 0}, {"lon": -77.02257616666667, "bike_id": "5a52aab44471477256b94dd43f3052d0", "lat": 38.907248, "fusion_lon": 0.0, "fusion_lat": 0.0, "type": "electric_scooter", "name": "5a52aab44471477256b94dd43f3052d0", "is_disabled": 0, "rental_uris": {"ios": "https://dc.lft.to/lastmile_qr_scan", "android": "https://dc.lft.to/lastmile_qr_scan"}, "is_reserved": 0}, {"lon": -77.040192, "bike_id": "7ad4c4fae0a37b4d43f98434fb69849e", "lat": 38.903911, "fusion_lon": 0.0, "fusion_lat": 0.0, "type": "electric_scooter", "name": "7ad4c4fae0a37b4d43f98434fb69849e", "is_disabled": 0, "rental_uris": {"ios": "https://dc.lft.to/lastmile_qr_scan", "android": "https://dc.lft.to/lastmile_qr_scan"}, "is_reserved": 0}, {"lon": -77.001982, "bike_id": "26701356e3c9be64d1c46513af6bf485", "lat": 38.900359, "fusion_lon": 0.0, "fusion_lat": 0.0, "type": "electric_scooter", "name": "26701356e3c9be64d1c46513af6bf485", "is_disabled": 0, "rental_uris": {"ios": "https://dc.lft.to/lastmile_qr_scan", "android": "https://dc.lft.to/lastmile_qr_scan"}, "is_reserved": 0}, {"lon": -77.0009785, "bike_id": "5c23904e53c3030a2150f064e5ea16c8", "lat": 38.88123516666667, "fusion_lon": 0.0, "fusion_lat": 0.0, "type": "electric_scooter", "name": "5c23904e53c3030a2150f064e5ea16c8", "is_disabled": 0, "rental_uris": {"ios": "https://dc.lft.to/lastmile_qr_scan", "android": "https://dc.lft.to/lastmile_qr_scan"}, "is_reserved": 0}, {"lon": -77.04161816666667, "bike_id": "cab7f6a1f027faf584a85406373f3a55", "lat": 38.9124915, "fusion_lon": 0.0, "fusion_lat": 0.0, "type": "electric_scooter", "name": "cab7f6a1f027faf584a85406373f3a55", "is_disabled": 0, "rental_uris": {"ios": "https://dc.lft.to/lastmile_qr_scan", "android": "https://dc.lft.to/lastmile_qr_scan"}, "is_reserved": 0}, {"lon": -77.021845, "bike_id": "55663a4f87003357f3ec38061f88c7c5", "lat": 38.90951316666667, "fusion_lon": 0.0, "fusion_lat": 0.0, "type": "electric_scooter", "name": "55663a4f87003357f3ec38061f88c7c5", "is_disabled": 0, "rental_uris": {"ios": "https://dc.lft.to/lastmile_qr_scan", "android": "https://dc.lft.to/lastmile_qr_scan"}, "is_reserved": 0}, {"lon": -77.03585866666667, "bike_id": "784ca30f27b2060d5ede29ae594f19e4", "lat": 38.99225966666667, "fusion_lon": 0.0, "fusion_lat": 0.0, "type": "electric_scooter", "name": "784ca30f27b2060d5ede29ae594f19e4", "is_disabled": 0, "rental_uris": {"ios": "https://dc.lft.to/lastmile_qr_scan", "android": "https://dc.lft.to/lastmile_qr_scan"}, "is_reserved": 0}, {"lon": -77.03521283333333, "bike_id": "326f23e31d9c8bc6584538dc4217a2ff", "lat": 38.927329666666665, "fusion_lon": 0.0, "fusion_lat": 0.0, "type": "electric_scooter", "name": "326f23e31d9c8bc6584538dc4217a2ff", "is_disabled": 0, "rental_uris": {"ios": "https://dc.lft.to/lastmile_qr_scan", "android": "https://dc.lft.to/lastmile_qr_scan"}, "is_reserved": 0}, {"lon": -77.02317116666667, "bike_id": "add082e9c71830a60492e1703db23bf3", "lat": 38.90877616666667, "fusion_lon": 0.0, "fusion_lat": 0.0, "type": "electric_scooter", "name": "add082e9c71830a60492e1703db23bf3", "is_disabled": 0, "rental_uris": {"ios": "https://dc.lft.to/lastmile_qr_scan", "android": "https://dc.lft.to/lastmile_qr_scan"}, "is_reserved": 0}, {"lon": -77.08334083333334, "bike_id": "9f779642e20719f956bba34571e47a6a", "lat": 38.8544215, "fusion_lon": 0.0, "fusion_lat": 0.0, "type": "electric_bike", "name": "9f779642e20719f956bba34571e47a6a", "is_disabled": 0, "rental_uris": {"ios": "https://dc.lft.to/lastmile_qr_scan", "android": "https://dc.lft.to/lastmile_qr_scan"}, "is_reserved": 0}, {"lon": -77.029793, "bike_id": "6a1fcc4456e7fa612ce04644bc1c0bcf", "lat": 38.93501933333334, "fusion_lon": 0.0, "fusion_lat": 0.0, "type": "electric_scooter", "name": "6a1fcc4456e7fa612ce04644bc1c0bcf", "is_disabled": 0, "rental_uris": {"ios": "https://dc.lft.to/lastmile_qr_scan", "android": "https://dc.lft.to/lastmile_qr_scan"}, "is_reserved": 0}, {"lon": -77.00936083333333, "bike_id": "981f0f4dd34c30f6ac594678d536ca0f", "lat": 38.8998085, "fusion_lon": 0.0, "fusion_lat": 0.0, "type": "electric_scooter", "name": "981f0f4dd34c30f6ac594678d536ca0f", "is_disabled": 0, "rental_uris": {"ios": "https://dc.lft.to/lastmile_qr_scan", "android": "https://dc.lft.to/lastmile_qr_scan"}, "is_reserved": 0}, {"lon": -77.0248055, "bike_id": "8680bc24fe6c99b99312df10c9e19d69", "lat": 38.90409233333333, "fusion_lon": 0.0, "fusion_lat": 0.0, "type": "electric_scooter", "name": "8680bc24fe6c99b99312df10c9e19d69", "is_disabled": 0, "rental_uris": {"ios": "https://dc.lft.to/lastmile_qr_scan", "android": "https://dc.lft.to/lastmile_qr_scan"}, "is_reserved": 0}, {"lon": -77.026038, "bike_id": "5e03b99603c9cf3ff5fe0661781b8b7e", "lat": 38.9259345, "fusion_lon": 0.0, "fusion_lat": 0.0, "type": "electric_scooter", "name": "5e03b99603c9cf3ff5fe0661781b8b7e", "is_disabled": 0, "rental_uris": {"ios": "https://dc.lft.to/lastmile_qr_scan", "android": "https://dc.lft.to/lastmile_qr_scan"}, "is_reserved": 0}, {"lon": -76.97828816666667, "bike_id": "793e77db56ad465346c186ae59f1231f", "lat": 38.84371, "fusion_lon": 0.0, "fusion_lat": 0.0, "type": "electric_bike", "name": "793e77db56ad465346c186ae59f1231f", "is_disabled": 0, "rental_uris": {"ios": "https://dc.lft.to/lastmile_qr_scan", "android": "https://dc.lft.to/lastmile_qr_scan"}, "is_reserved": 0}, {"lon": -77.031689, "bike_id": "86c6dcd465804f235f27364982d2e30c", "lat": 38.88741516666666, "fusion_lon": 0.0, "fusion_lat": 0.0, "type": "electric_scooter", "name": "86c6dcd465804f235f27364982d2e30c", "is_disabled": 0, "rental_uris": {"ios": "https://dc.lft.to/lastmile_qr_scan", "android": "https://dc.lft.to/lastmile_qr_scan"}, "is_reserved": 0}, {"lon": -77.01715166666666, "bike_id": "d4067aa9e18d7bd8dce94e838fe2d8c2", "lat": 38.9056545, "fusion_lon": 0.0, "fusion_lat": 0.0, "type": "electric_scooter", "name": "d4067aa9e18d7bd8dce94e838fe2d8c2", "is_disabled": 0, "rental_uris": {"ios": "https://dc.lft.to/lastmile_qr_scan", "android": "https://dc.lft.to/lastmile_qr_scan"}, "is_reserved": 0}, {"lon": -77.0208595, "bike_id": "4f73e7e3c9cc945f116623570c77c7b3", "lat": 38.957459166666666, "fusion_lon": 0.0, "fusion_lat": 0.0, "type": "electric_scooter", "name": "4f73e7e3c9cc945f116623570c77c7b3", "is_disabled": 0, "rental_uris": {"ios": "https://dc.lft.to/lastmile_qr_scan", "android": "https://dc.lft.to/lastmile_qr_scan"}, "is_reserved": 0}, {"lon": -77.02197483333333, "bike_id": "c6aea08df8842858e3e094fba6a35737", "lat": 38.911358, "fusion_lon": 0.0, "fusion_lat": 0.0, "type": "electric_scooter", "name": "c6aea08df8842858e3e094fba6a35737", "is_disabled": 0, "rental_uris": {"ios": "https://dc.lft.to/lastmile_qr_scan", "android": "https://dc.lft.to/lastmile_qr_scan"}, "is_reserved": 0}, {"lon": -77.07123633333333, "bike_id": "873188bc6c711fea590dfb5b6cc637d4", "lat": 38.919708666666665, "fusion_lon": 0.0, "fusion_lat": 0.0, "type": "electric_scooter", "name": "873188bc6c711fea590dfb5b6cc637d4", "is_disabled": 0, "rental_uris": {"ios": "https://dc.lft.to/lastmile_qr_scan", "android": "https://dc.lft.to/lastmile_qr_scan"}, "is_reserved": 0}, {"lon": -76.975216, "bike_id": "a2304e5964762f8bc6fe790e3e5d4eb4", "lat": 38.966970333333336, "fusion_lon": 0.0, "fusion_lat": 0.0, "type": "electric_bike", "name": "a2304e5964762f8bc6fe790e3e5d4eb4", "is_disabled": 0, "rental_uris": {"ios": "https://dc.lft.to/lastmile_qr_scan", "android": "https://dc.lft.to/lastmile_qr_scan"}, "is_reserved": 0}, {"lon": -77.04885383333334, "bike_id": "c549eed6580d30fa446c57eee43ac23d", "lat": 38.9040475, "fusion_lon": 0.0, "fusion_lat": 0.0, "type": "electric_scooter", "name": "c549eed6580d30fa446c57eee43ac23d", "is_disabled": 0, "rental_uris": {"ios": "https://dc.lft.to/lastmile_qr_scan", "android": "https://dc.lft.to/lastmile_qr_scan"}, "is_reserved": 0}, {"lon": -77.04407266666666, "bike_id": "2ae8091d5ef9432bb03bde5036da8cb0", "lat": 38.90892083333333, "fusion_lon": 0.0, "fusion_lat": 0.0, "type": "electric_scooter", "name": "2ae8091d5ef9432bb03bde5036da8cb0", "is_disabled": 0, "rental_uris": {"ios": "https://dc.lft.to/lastmile_qr_scan", "android": "https://dc.lft.to/lastmile_qr_scan"}, "is_reserved": 0}, {"lon": -77.03861016666667, "bike_id": "32c02ff9af827f4588fb14016b929dd1", "lat": 38.91176383333333, "fusion_lon": 0.0, "fusion_lat": 0.0, "type": "electric_scooter", "name": "32c02ff9af827f4588fb14016b929dd1", "is_disabled": 0, "rental_uris": {"ios": "https://dc.lft.to/lastmile_qr_scan", "android": "https://dc.lft.to/lastmile_qr_scan"}, "is_reserved": 0}, {"lon": -77.05048666666667, "bike_id": "1dde6ee4ee5a168b9e7c868215c84ddf", "lat": 38.907213166666665, "fusion_lon": 0.0, "fusion_lat": 0.0, "type": "electric_scooter", "name": "1dde6ee4ee5a168b9e7c868215c84ddf", "is_disabled": 0, "rental_uris": {"ios": "https://dc.lft.to/lastmile_qr_scan", "android": "https://dc.lft.to/lastmile_qr_scan"}, "is_reserved": 0}, {"lon": -77.053105, "bike_id": "77b3ca76654bbe3de0599ab2a0690c63", "lat": 38.9007605, "fusion_lon": 0.0, "fusion_lat": 0.0, "type": "electric_scooter", "name": "77b3ca76654bbe3de0599ab2a0690c63", "is_disabled": 0, "rental_uris": {"ios": "https://dc.lft.to/lastmile_qr_scan", "android": "https://dc.lft.to/lastmile_qr_scan"}, "is_reserved": 0}, {"lon": -77.02360883333333, "bike_id": "0d65e16be0f17bb66fe764ed7c85dd0f", "lat": 38.8922815, "fusion_lon": 0.0, "fusion_lat": 0.0, "type": "electric_scooter", "name": "0d65e16be0f17bb66fe764ed7c85dd0f", "is_disabled": 0, "rental_uris": {"ios": "https://dc.lft.to/lastmile_qr_scan", "android": "https://dc.lft.to/lastmile_qr_scan"}, "is_reserved": 0}, {"lon": -77.01800083333333, "bike_id": "4b520ab2da18d76be0e805f2a8ff4ed1", "lat": 38.97347333333333, "fusion_lon": 0.0, "fusion_lat": 0.0, "type": "electric_bike", "name": "4b520ab2da18d76be0e805f2a8ff4ed1", "is_disabled": 0, "rental_uris": {"ios": "https://dc.lft.to/lastmile_qr_scan", "android": "https://dc.lft.to/lastmile_qr_scan"}, "is_reserved": 0}, {"lon": -77.03383183333334, "bike_id": "9b44126a5510ae82ad1ea8e77fd3ca6d", "lat": 38.90977866666667, "fusion_lon": 0.0, "fusion_lat": 0.0, "type": "electric_scooter", "name": "9b44126a5510ae82ad1ea8e77fd3ca6d", "is_disabled": 0, "rental_uris": {"ios": "https://dc.lft.to/lastmile_qr_scan", "android": "https://dc.lft.to/lastmile_qr_scan"}, "is_reserved": 0}, {"lon": -76.996825, "bike_id": "fbc0498bb9511472dfd40233413215f5", "lat": 38.86025333333333, "fusion_lon": 0.0, "fusion_lat": 0.0, "type": "electric_scooter", "name": "fbc0498bb9511472dfd40233413215f5", "is_disabled": 0, "rental_uris": {"ios": "https://dc.lft.to/lastmile_qr_scan", "android": "https://dc.lft.to/lastmile_qr_scan"}, "is_reserved": 0}, {"lon": -77.026907, "bike_id": "ce968ccccac23454d462a760e0a4a194", "lat": 38.9117135, "fusion_lon": 0.0, "fusion_lat": 0.0, "type": "electric_scooter", "name": "ce968ccccac23454d462a760e0a4a194", "is_disabled": 0, "rental_uris": {"ios": "https://dc.lft.to/lastmile_qr_scan", "android": "https://dc.lft.to/lastmile_qr_scan"}, "is_reserved": 0}, {"lon": -77.02390633333333, "bike_id": "a18e29ee95773ffba318c845d9900864", "lat": 38.91988466666667, "fusion_lon": 0.0, "fusion_lat": 0.0, "type": "electric_scooter", "name": "a18e29ee95773ffba318c845d9900864", "is_disabled": 0, "rental_uris": {"ios": "https://dc.lft.to/lastmile_qr_scan", "android": "https://dc.lft.to/lastmile_qr_scan"}, "is_reserved": 0}, {"lon": -77.019681, "bike_id": "387946b2e9fb7050107b178f829fb57c", "lat": 38.922042833333336, "fusion_lon": 0.0, "fusion_lat": 0.0, "type": "electric_scooter", "name": "387946b2e9fb7050107b178f829fb57c", "is_disabled": 0, "rental_uris": {"ios": "https://dc.lft.to/lastmile_qr_scan", "android": "https://dc.lft.to/lastmile_qr_scan"}, "is_reserved": 0}, {"lon": -77.036586, "bike_id": "4a0ab19284890352b1de00a584865a68", "lat": 38.9391945, "fusion_lon": 0.0, "fusion_lat": 0.0, "type": "electric_bike", "name": "4a0ab19284890352b1de00a584865a68", "is_disabled": 0, "rental_uris": {"ios": "https://dc.lft.to/lastmile_qr_scan", "android": "https://dc.lft.to/lastmile_qr_scan"}, "is_reserved": 0}, {"lon": -76.95188633333333, "bike_id": "0059f59b3e85f581ee3db0dc7c6a7867", "lat": 38.90743166666667, "fusion_lon": 0.0, "fusion_lat": 0.0, "type": "electric_scooter", "name": "0059f59b3e85f581ee3db0dc7c6a7867", "is_disabled": 0, "rental_uris": {"ios": "https://dc.lft.to/lastmile_qr_scan", "android": "https://dc.lft.to/lastmile_qr_scan"}, "is_reserved": 0}, {"lon": -76.98197583333334, "bike_id": "b407c518fae3bdc78e8003ab045bf616", "lat": 38.899455833333334, "fusion_lon": 0.0, "fusion_lat": 0.0, "type": "electric_scooter", "name": "b407c518fae3bdc78e8003ab045bf616", "is_disabled": 0, "rental_uris": {"ios": "https://dc.lft.to/lastmile_qr_scan", "android": "https://dc.lft.to/lastmile_qr_scan"}, "is_reserved": 0}, {"lon": -77.06362383333334, "bike_id": "b07828bbd291915166d81ca4dee8be8e", "lat": 38.90854366666667, "fusion_lon": 0.0, "fusion_lat": 0.0, "type": "electric_bike", "name": "b07828bbd291915166d81ca4dee8be8e", "is_disabled": 0, "rental_uris": {"ios": "https://dc.lft.to/lastmile_qr_scan", "android": "https://dc.lft.to/lastmile_qr_scan"}, "is_reserved": 0}, {"lon": -77.00522233333334, "bike_id": "dd82fdc777150b16d1fb659450632c01", "lat": 38.88065233333333, "fusion_lon": 0.0, "fusion_lat": 0.0, "type": "electric_scooter", "name": "dd82fdc777150b16d1fb659450632c01", "is_disabled": 0, "rental_uris": {"ios": "https://dc.lft.to/lastmile_qr_scan", "android": "https://dc.lft.to/lastmile_qr_scan"}, "is_reserved": 0}, {"lon": -77.01954133333334, "bike_id": "0436220ee97c25868ba0b92308a86052", "lat": 38.922516333333334, "fusion_lon": 0.0, "fusion_lat": 0.0, "type": "electric_scooter", "name": "0436220ee97c25868ba0b92308a86052", "is_disabled": 0, "rental_uris": {"ios": "https://dc.lft.to/lastmile_qr_scan", "android": "https://dc.lft.to/lastmile_qr_scan"}, "is_reserved": 0}, {"lon": -77.02400333333334, "bike_id": "b7fc8323bbf6a3e7fa2f35a2132f0c68", "lat": 38.9064035, "fusion_lon": 0.0, "fusion_lat": 0.0, "type": "electric_scooter", "name": "b7fc8323bbf6a3e7fa2f35a2132f0c68", "is_disabled": 0, "rental_uris": {"ios": "https://dc.lft.to/lastmile_qr_scan", "android": "https://dc.lft.to/lastmile_qr_scan"}, "is_reserved": 0}, {"lon": -77.0279615, "bike_id": "54b75630e75e77cab96b76caaf526b59", "lat": 38.92964333333333, "fusion_lon": 0.0, "fusion_lat": 0.0, "type": "electric_scooter", "name": "54b75630e75e77cab96b76caaf526b59", "is_disabled": 0, "rental_uris": {"ios": "https://dc.lft.to/lastmile_qr_scan", "android": "https://dc.lft.to/lastmile_qr_scan"}, "is_reserved": 0}, {"lon": -76.9826195, "bike_id": "a9e7b8b4ef9c43c76b28cc0bfa4719e5", "lat": 38.908637, "fusion_lon": 0.0, "fusion_lat": 0.0, "type": "electric_scooter", "name": "a9e7b8b4ef9c43c76b28cc0bfa4719e5", "is_disabled": 0, "rental_uris": {"ios": "https://dc.lft.to/lastmile_qr_scan", "android": "https://dc.lft.to/lastmile_qr_scan"}, "is_reserved": 0}, {"lon": -77.0046275, "bike_id": "1ad0130e2eacd746201db25e07f89a12", "lat": 38.914353166666665, "fusion_lon": 0.0, "fusion_lat": 0.0, "type": "electric_scooter", "name": "1ad0130e2eacd746201db25e07f89a12", "is_disabled": 0, "rental_uris": {"ios": "https://dc.lft.to/lastmile_qr_scan", "android": "https://dc.lft.to/lastmile_qr_scan"}, "is_reserved": 0}, {"lon": -76.987173, "bike_id": "febe946c4a049363fd1755e18cb09214", "lat": 38.866269333333335, "fusion_lon": 0.0, "fusion_lat": 0.0, "type": "electric_scooter", "name": "febe946c4a049363fd1755e18cb09214", "is_disabled": 0, "rental_uris": {"ios": "https://dc.lft.to/lastmile_qr_scan", "android": "https://dc.lft.to/lastmile_qr_scan"}, "is_reserved": 0}, {"lon": -76.99754416666667, "bike_id": "ed85422a289185cd8230852db8b49a29", "lat": 38.95011733333333, "fusion_lon": 0.0, "fusion_lat": 0.0, "type": "electric_bike", "name": "ed85422a289185cd8230852db8b49a29", "is_disabled": 0, "rental_uris": {"ios": "https://dc.lft.to/lastmile_qr_scan", "android": "https://dc.lft.to/lastmile_qr_scan"}, "is_reserved": 0}, {"lon": -77.02186133333333, "bike_id": "abb5eaad897d57d91d249a8bb19af788", "lat": 38.914882166666665, "fusion_lon": 0.0, "fusion_lat": 0.0, "type": "electric_scooter", "name": "abb5eaad897d57d91d249a8bb19af788", "is_disabled": 0, "rental_uris": {"ios": "https://dc.lft.to/lastmile_qr_scan", "android": "https://dc.lft.to/lastmile_qr_scan"}, "is_reserved": 0}, {"lon": -77.02324733333333, "bike_id": "02581f68efdd8e9f2d8f97c7fafef605", "lat": 38.93534733333333, "fusion_lon": 0.0, "fusion_lat": 0.0, "type": "electric_scooter", "name": "02581f68efdd8e9f2d8f97c7fafef605", "is_disabled": 0, "rental_uris": {"ios": "https://dc.lft.to/lastmile_qr_scan", "android": "https://dc.lft.to/lastmile_qr_scan"}, "is_reserved": 0}, {"lon": -76.95001483333333, "bike_id": "29901fe47dd6478adae8d6774a79eda5", "lat": 38.893892, "fusion_lon": 0.0, "fusion_lat": 0.0, "type": "electric_scooter", "name": "29901fe47dd6478adae8d6774a79eda5", "is_disabled": 0, "rental_uris": {"ios": "https://dc.lft.to/lastmile_qr_scan", "android": "https://dc.lft.to/lastmile_qr_scan"}, "is_reserved": 0}, {"lon": -77.03255783333333, "bike_id": "2e2560486d1a076839c0200df375c1a4", "lat": 38.93138166666667, "fusion_lon": 0.0, "fusion_lat": 0.0, "type": "electric_scooter", "name": "2e2560486d1a076839c0200df375c1a4", "is_disabled": 0, "rental_uris": {"ios": "https://dc.lft.to/lastmile_qr_scan", "android": "https://dc.lft.to/lastmile_qr_scan"}, "is_reserved": 0}, {"lon": -76.97559933333334, "bike_id": "f62ffe439064b220ee224c15e7ec082c", "lat": 38.924605666666665, "fusion_lon": 0.0, "fusion_lat": 0.0, "type": "electric_bike", "name": "f62ffe439064b220ee224c15e7ec082c", "is_disabled": 0, "rental_uris": {"ios": "https://dc.lft.to/lastmile_qr_scan", "android": "https://dc.lft.to/lastmile_qr_scan"}, "is_reserved": 0}, {"lon": -77.0214315, "bike_id": "41fa93885d34a1d13177b0ab80e2b37b", "lat": 38.91563166666667, "fusion_lon": 0.0, "fusion_lat": 0.0, "type": "electric_scooter", "name": "41fa93885d34a1d13177b0ab80e2b37b", "is_disabled": 0, "rental_uris": {"ios": "https://dc.lft.to/lastmile_qr_scan", "android": "https://dc.lft.to/lastmile_qr_scan"}, "is_reserved": 0}, {"lon": -76.97858433333333, "bike_id": "7d88c6dca59baa972ee1caabc9573ae8", "lat": 38.9072225, "fusion_lon": 0.0, "fusion_lat": 0.0, "type": "electric_scooter", "name": "7d88c6dca59baa972ee1caabc9573ae8", "is_disabled": 0, "rental_uris": {"ios": "https://dc.lft.to/lastmile_qr_scan", "android": "https://dc.lft.to/lastmile_qr_scan"}, "is_reserved": 0}, {"lon": -77.015673, "bike_id": "139c86f16e0d9fbc8f53d7a64351b94a", "lat": 38.883303833333336, "fusion_lon": 0.0, "fusion_lat": 0.0, "type": "electric_scooter", "name": "139c86f16e0d9fbc8f53d7a64351b94a", "is_disabled": 0, "rental_uris": {"ios": "https://dc.lft.to/lastmile_qr_scan", "android": "https://dc.lft.to/lastmile_qr_scan"}, "is_reserved": 0}, {"lon": -77.0209055, "bike_id": "a5d0476555e821aa1d362fec1798017b", "lat": 38.9292025, "fusion_lon": 0.0, "fusion_lat": 0.0, "type": "electric_scooter", "name": "a5d0476555e821aa1d362fec1798017b", "is_disabled": 0, "rental_uris": {"ios": "https://dc.lft.to/lastmile_qr_scan", "android": "https://dc.lft.to/lastmile_qr_scan"}, "is_reserved": 0}, {"lon": -77.03847866666666, "bike_id": "7d03b7fcf4a04019676e19f095591f70", "lat": 38.93245533333333, "fusion_lon": 0.0, "fusion_lat": 0.0, "type": "electric_scooter", "name": "7d03b7fcf4a04019676e19f095591f70", "is_disabled": 0, "rental_uris": {"ios": "https://dc.lft.to/lastmile_qr_scan", "android": "https://dc.lft.to/lastmile_qr_scan"}, "is_reserved": 0}, {"lon": -77.03835616666667, "bike_id": "fc5efabb7ca69c4f09b873af0a20b157", "lat": 38.9116715, "fusion_lon": 0.0, "fusion_lat": 0.0, "type": "electric_scooter", "name": "fc5efabb7ca69c4f09b873af0a20b157", "is_disabled": 0, "rental_uris": {"ios": "https://dc.lft.to/lastmile_qr_scan", "android": "https://dc.lft.to/lastmile_qr_scan"}, "is_reserved": 0}, {"lon": -77.03262083333334, "bike_id": "f711643ec9d5a3273c3348f92b8b5315", "lat": 38.937758333333335, "fusion_lon": 0.0, "fusion_lat": 0.0, "type": "electric_scooter", "name": "f711643ec9d5a3273c3348f92b8b5315", "is_disabled": 0, "rental_uris": {"ios": "https://dc.lft.to/lastmile_qr_scan", "android": "https://dc.lft.to/lastmile_qr_scan"}, "is_reserved": 0}, {"lon": -77.0249385, "bike_id": "e5967bdd0032b7927e5bbc62372e5c26", "lat": 38.92597516666667, "fusion_lon": 0.0, "fusion_lat": 0.0, "type": "electric_scooter", "name": "e5967bdd0032b7927e5bbc62372e5c26", "is_disabled": 0, "rental_uris": {"ios": "https://dc.lft.to/lastmile_qr_scan", "android": "https://dc.lft.to/lastmile_qr_scan"}, "is_reserved": 0}, {"lon": -77.037595, "bike_id": "f336971d173c98c5f9829bb0c79fb1a4", "lat": 38.90778433333333, "fusion_lon": 0.0, "fusion_lat": 0.0, "type": "electric_scooter", "name": "f336971d173c98c5f9829bb0c79fb1a4", "is_disabled": 0, "rental_uris": {"ios": "https://dc.lft.to/lastmile_qr_scan", "android": "https://dc.lft.to/lastmile_qr_scan"}, "is_reserved": 0}, {"lon": -77.033459, "bike_id": "4b27c66afdfa0cf60dae52ef3270080c", "lat": 38.89848116666667, "fusion_lon": 0.0, "fusion_lat": 0.0, "type": "electric_scooter", "name": "4b27c66afdfa0cf60dae52ef3270080c", "is_disabled": 0, "rental_uris": {"ios": "https://dc.lft.to/lastmile_qr_scan", "android": "https://dc.lft.to/lastmile_qr_scan"}, "is_reserved": 0}, {"lon": -77.01342033333333, "bike_id": "2694a91cc1fb14e8c85584aedff138d1", "lat": 38.87815466666667, "fusion_lon": 0.0, "fusion_lat": 0.0, "type": "electric_scooter", "name": "2694a91cc1fb14e8c85584aedff138d1", "is_disabled": 0, "rental_uris": {"ios": "https://dc.lft.to/lastmile_qr_scan", "android": "https://dc.lft.to/lastmile_qr_scan"}, "is_reserved": 0}, {"lon": -77.02288133333333, "bike_id": "7089124dfbc3dcb7e6db53ebe02094fd", "lat": 38.907862, "fusion_lon": 0.0, "fusion_lat": 0.0, "type": "electric_scooter", "name": "7089124dfbc3dcb7e6db53ebe02094fd", "is_disabled": 0, "rental_uris": {"ios": "https://dc.lft.to/lastmile_qr_scan", "android": "https://dc.lft.to/lastmile_qr_scan"}, "is_reserved": 0}, {"lon": -77.02076183333334, "bike_id": "a126ad22189d3a9aa338915278de990a", "lat": 38.881922, "fusion_lon": 0.0, "fusion_lat": 0.0, "type": "electric_scooter", "name": "a126ad22189d3a9aa338915278de990a", "is_disabled": 0, "rental_uris": {"ios": "https://dc.lft.to/lastmile_qr_scan", "android": "https://dc.lft.to/lastmile_qr_scan"}, "is_reserved": 0}, {"lon": -77.02528916666667, "bike_id": "5187ba530cf20b2b2868d37550fe4ab6", "lat": 38.92894233333333, "fusion_lon": 0.0, "fusion_lat": 0.0, "type": "electric_scooter", "name": "5187ba530cf20b2b2868d37550fe4ab6", "is_disabled": 0, "rental_uris": {"ios": "https://dc.lft.to/lastmile_qr_scan", "android": "https://dc.lft.to/lastmile_qr_scan"}, "is_reserved": 0}, {"lon": -77.028419, "bike_id": "d8cf4bf53bd2a84e68e9467f99c6baef", "lat": 38.934212333333335, "fusion_lon": 0.0, "fusion_lat": 0.0, "type": "electric_scooter", "name": "d8cf4bf53bd2a84e68e9467f99c6baef", "is_disabled": 0, "rental_uris": {"ios": "https://dc.lft.to/lastmile_qr_scan", "android": "https://dc.lft.to/lastmile_qr_scan"}, "is_reserved": 0}, {"lon": -77.02871633333334, "bike_id": "26d14a654816f6d47340e21571cb42f7", "lat": 38.91711766666667, "fusion_lon": 0.0, "fusion_lat": 0.0, "type": "electric_scooter", "name": "26d14a654816f6d47340e21571cb42f7", "is_disabled": 0, "rental_uris": {"ios": "https://dc.lft.to/lastmile_qr_scan", "android": "https://dc.lft.to/lastmile_qr_scan"}, "is_reserved": 0}, {"lon": -77.0424345, "bike_id": "646e97786fec6e8613350dbe482149e5", "lat": 38.9093665, "fusion_lon": 0.0, "fusion_lat": 0.0, "type": "electric_scooter", "name": "646e97786fec6e8613350dbe482149e5", "is_disabled": 0, "rental_uris": {"ios": "https://dc.lft.to/lastmile_qr_scan", "android": "https://dc.lft.to/lastmile_qr_scan"}, "is_reserved": 0}, {"lon": -76.96525216666667, "bike_id": "84269424a54f8b314d33871c61e2cc93", "lat": 38.87630466666667, "fusion_lon": 0.0, "fusion_lat": 0.0, "type": "electric_scooter", "name": "84269424a54f8b314d33871c61e2cc93", "is_disabled": 0, "rental_uris": {"ios": "https://dc.lft.to/lastmile_qr_scan", "android": "https://dc.lft.to/lastmile_qr_scan"}, "is_reserved": 0}, {"lon": -77.02096483333334, "bike_id": "c9a30a019b475373ea01fbf9df74a655", "lat": 38.927104666666665, "fusion_lon": 0.0, "fusion_lat": 0.0, "type": "electric_scooter", "name": "c9a30a019b475373ea01fbf9df74a655", "is_disabled": 0, "rental_uris": {"ios": "https://dc.lft.to/lastmile_qr_scan", "android": "https://dc.lft.to/lastmile_qr_scan"}, "is_reserved": 0}, {"lon": -77.01388366666667, "bike_id": "41cb3c3ddf0b03dd42a0c4f63d312388", "lat": 38.92839383333333, "fusion_lon": 0.0, "fusion_lat": 0.0, "type": "electric_scooter", "name": "41cb3c3ddf0b03dd42a0c4f63d312388", "is_disabled": 0, "rental_uris": {"ios": "https://dc.lft.to/lastmile_qr_scan", "android": "https://dc.lft.to/lastmile_qr_scan"}, "is_reserved": 0}, {"lon": -77.030811, "bike_id": "d1214b74baa398e3a5fb0500b7ffcede", "lat": 38.93527183333333, "fusion_lon": 0.0, "fusion_lat": 0.0, "type": "electric_scooter", "name": "d1214b74baa398e3a5fb0500b7ffcede", "is_disabled": 0, "rental_uris": {"ios": "https://dc.lft.to/lastmile_qr_scan", "android": "https://dc.lft.to/lastmile_qr_scan"}, "is_reserved": 0}, {"lon": -76.98714433333333, "bike_id": "6c7033377f1b01816e2def0519168d66", "lat": 38.867045166666664, "fusion_lon": 0.0, "fusion_lat": 0.0, "type": "electric_scooter", "name": "6c7033377f1b01816e2def0519168d66", "is_disabled": 0, "rental_uris": {"ios": "https://dc.lft.to/lastmile_qr_scan", "android": "https://dc.lft.to/lastmile_qr_scan"}, "is_reserved": 0}, {"lon": -77.01232183333333, "bike_id": "6f4ca91fcee21f62a04efeebdf4442d9", "lat": 38.90028083333333, "fusion_lon": 0.0, "fusion_lat": 0.0, "type": "electric_bike", "name": "6f4ca91fcee21f62a04efeebdf4442d9", "is_disabled": 0, "rental_uris": {"ios": "https://dc.lft.to/lastmile_qr_scan", "android": "https://dc.lft.to/lastmile_qr_scan"}, "is_reserved": 0}, {"lon": -77.05482683333334, "bike_id": "00ff0f65221a6135bae25e3dd0af1349", "lat": 38.93554866666667, "fusion_lon": 0.0, "fusion_lat": 0.0, "type": "electric_scooter", "name": "00ff0f65221a6135bae25e3dd0af1349", "is_disabled": 0, "rental_uris": {"ios": "https://dc.lft.to/lastmile_qr_scan", "android": "https://dc.lft.to/lastmile_qr_scan"}, "is_reserved": 0}, {"lon": -77.00152083333333, "bike_id": "78c1712b3dc45093460e37f05ba91221", "lat": 38.84283666666666, "fusion_lon": 0.0, "fusion_lat": 0.0, "type": "electric_scooter", "name": "78c1712b3dc45093460e37f05ba91221", "is_disabled": 0, "rental_uris": {"ios": "https://dc.lft.to/lastmile_qr_scan", "android": "https://dc.lft.to/lastmile_qr_scan"}, "is_reserved": 0}, {"lon": -77.021392, "bike_id": "bfe6f80ba96d7f10b5b9060024787c50", "lat": 38.8950455, "fusion_lon": 0.0, "fusion_lat": 0.0, "type": "electric_scooter", "name": "bfe6f80ba96d7f10b5b9060024787c50", "is_disabled": 0, "rental_uris": {"ios": "https://dc.lft.to/lastmile_qr_scan", "android": "https://dc.lft.to/lastmile_qr_scan"}, "is_reserved": 0}, {"lon": -77.03181266666667, "bike_id": "aecab0ba64b5faaac64026ffc5911a17", "lat": 38.88409466666667, "fusion_lon": 0.0, "fusion_lat": 0.0, "type": "electric_scooter", "name": "aecab0ba64b5faaac64026ffc5911a17", "is_disabled": 0, "rental_uris": {"ios": "https://dc.lft.to/lastmile_qr_scan", "android": "https://dc.lft.to/lastmile_qr_scan"}, "is_reserved": 0}, {"lon": -77.02695766666666, "bike_id": "8bc6171fc9d20d3aae688ad70c5a7c34", "lat": 38.908430833333334, "fusion_lon": 0.0, "fusion_lat": 0.0, "type": "electric_scooter", "name": "8bc6171fc9d20d3aae688ad70c5a7c34", "is_disabled": 0, "rental_uris": {"ios": "https://dc.lft.to/lastmile_qr_scan", "android": "https://dc.lft.to/lastmile_qr_scan"}, "is_reserved": 0}, {"lon": -76.98710233333334, "bike_id": "16ff99c054c7980cc3705158900e2253", "lat": 38.86698233333333, "fusion_lon": 0.0, "fusion_lat": 0.0, "type": "electric_scooter", "name": "16ff99c054c7980cc3705158900e2253", "is_disabled": 0, "rental_uris": {"ios": "https://dc.lft.to/lastmile_qr_scan", "android": "https://dc.lft.to/lastmile_qr_scan"}, "is_reserved": 0}, {"lon": -77.019804, "bike_id": "9a230673d6da2ed35762a08def09a4c9", "lat": 38.9602935, "fusion_lon": 0.0, "fusion_lat": 0.0, "type": "electric_scooter", "name": "9a230673d6da2ed35762a08def09a4c9", "is_disabled": 0, "rental_uris": {"ios": "https://dc.lft.to/lastmile_qr_scan", "android": "https://dc.lft.to/lastmile_qr_scan"}, "is_reserved": 0}, {"lon": -76.99189783333334, "bike_id": "15f810da28246356eb744c076bec819b", "lat": 38.908365, "fusion_lon": 0.0, "fusion_lat": 0.0, "type": "electric_scooter", "name": "15f810da28246356eb744c076bec819b", "is_disabled": 0, "rental_uris": {"ios": "https://dc.lft.to/lastmile_qr_scan", "android": "https://dc.lft.to/lastmile_qr_scan"}, "is_reserved": 0}, {"lon": -77.03179966666667, "bike_id": "73b5a7c0c8b19eb3d148f1aefc281fd3", "lat": 38.887315666666666, "fusion_lon": 0.0, "fusion_lat": 0.0, "type": "electric_scooter", "name": "73b5a7c0c8b19eb3d148f1aefc281fd3", "is_disabled": 0, "rental_uris": {"ios": "https://dc.lft.to/lastmile_qr_scan", "android": "https://dc.lft.to/lastmile_qr_scan"}, "is_reserved": 0}, {"lon": -77.00882766666666, "bike_id": "89e60b804b4b810e434a50a1dea633f8", "lat": 38.91788783333333, "fusion_lon": 0.0, "fusion_lat": 0.0, "type": "electric_scooter", "name": "89e60b804b4b810e434a50a1dea633f8", "is_disabled": 0, "rental_uris": {"ios": "https://dc.lft.to/lastmile_qr_scan", "android": "https://dc.lft.to/lastmile_qr_scan"}, "is_reserved": 0}, {"lon": -76.9317825, "bike_id": "044a3870b6c35485cc6662d49214be85", "lat": 38.89885133333333, "fusion_lon": 0.0, "fusion_lat": 0.0, "type": "electric_scooter", "name": "044a3870b6c35485cc6662d49214be85", "is_disabled": 0, "rental_uris": {"ios": "https://dc.lft.to/lastmile_qr_scan", "android": "https://dc.lft.to/lastmile_qr_scan"}, "is_reserved": 0}, {"lon": -77.03203916666666, "bike_id": "1487be4c1466eb8429378e6e8af1aa56", "lat": 38.93865866666667, "fusion_lon": 0.0, "fusion_lat": 0.0, "type": "electric_scooter", "name": "1487be4c1466eb8429378e6e8af1aa56", "is_disabled": 0, "rental_uris": {"ios": "https://dc.lft.to/lastmile_qr_scan", "android": "https://dc.lft.to/lastmile_qr_scan"}, "is_reserved": 0}, {"lon": -77.007413, "bike_id": "76a274c69c97235c127fe4d22e08987b", "lat": 38.897841166666666, "fusion_lon": 0.0, "fusion_lat": 0.0, "type": "electric_bike", "name": "76a274c69c97235c127fe4d22e08987b", "is_disabled": 0, "rental_uris": {"ios": "https://dc.lft.to/lastmile_qr_scan", "android": "https://dc.lft.to/lastmile_qr_scan"}, "is_reserved": 0}, {"lon": -77.04242316666667, "bike_id": "26575eaaffd8704d838ac1e3eca4e1cd", "lat": 38.909615, "fusion_lon": 0.0, "fusion_lat": 0.0, "type": "electric_scooter", "name": "26575eaaffd8704d838ac1e3eca4e1cd", "is_disabled": 0, "rental_uris": {"ios": "https://dc.lft.to/lastmile_qr_scan", "android": "https://dc.lft.to/lastmile_qr_scan"}, "is_reserved": 0}, {"lon": -76.98944383333334, "bike_id": "ce63de958466c177d5aefe40398f5dfe", "lat": 38.918422, "fusion_lon": 0.0, "fusion_lat": 0.0, "type": "electric_scooter", "name": "ce63de958466c177d5aefe40398f5dfe", "is_disabled": 0, "rental_uris": {"ios": "https://dc.lft.to/lastmile_qr_scan", "android": "https://dc.lft.to/lastmile_qr_scan"}, "is_reserved": 0}, {"lon": -76.9996915, "bike_id": "b0e5c52b7a503ea6fcd62890691d714b", "lat": 38.90853766666667, "fusion_lon": 0.0, "fusion_lat": 0.0, "type": "electric_scooter", "name": "b0e5c52b7a503ea6fcd62890691d714b", "is_disabled": 0, "rental_uris": {"ios": "https://dc.lft.to/lastmile_qr_scan", "android": "https://dc.lft.to/lastmile_qr_scan"}, "is_reserved": 0}, {"lon": -77.0256655, "bike_id": "13f617a881d882c44607f2b6fcf83715", "lat": 38.913435, "fusion_lon": 0.0, "fusion_lat": 0.0, "type": "electric_scooter", "name": "13f617a881d882c44607f2b6fcf83715", "is_disabled": 0, "rental_uris": {"ios": "https://dc.lft.to/lastmile_qr_scan", "android": "https://dc.lft.to/lastmile_qr_scan"}, "is_reserved": 0}, {"lon": -77.0369035, "bike_id": "a68afa2f5baffb4de9e3091f039f3326", "lat": 38.93527183333333, "fusion_lon": 0.0, "fusion_lat": 0.0, "type": "electric_scooter", "name": "a68afa2f5baffb4de9e3091f039f3326", "is_disabled": 0, "rental_uris": {"ios": "https://dc.lft.to/lastmile_qr_scan", "android": "https://dc.lft.to/lastmile_qr_scan"}, "is_reserved": 0}, {"lon": -77.025082, "bike_id": "dd18e6e56a29efdc71f2b58d2f5758f6", "lat": 38.920765333333335, "fusion_lon": 0.0, "fusion_lat": 0.0, "type": "electric_scooter", "name": "dd18e6e56a29efdc71f2b58d2f5758f6", "is_disabled": 0, "rental_uris": {"ios": "https://dc.lft.to/lastmile_qr_scan", "android": "https://dc.lft.to/lastmile_qr_scan"}, "is_reserved": 0}, {"lon": -77.045093, "bike_id": "263953a189b433002a415be6bb0d07c2", "lat": 38.886018166666666, "fusion_lon": 0.0, "fusion_lat": 0.0, "type": "electric_scooter", "name": "263953a189b433002a415be6bb0d07c2", "is_disabled": 0, "rental_uris": {"ios": "https://dc.lft.to/lastmile_qr_scan", "android": "https://dc.lft.to/lastmile_qr_scan"}, "is_reserved": 0}, {"lon": -76.98405883333334, "bike_id": "dc5cfffb37e760b257b6b6c6fc061262", "lat": 38.90629666666667, "fusion_lon": 0.0, "fusion_lat": 0.0, "type": "electric_scooter", "name": "dc5cfffb37e760b257b6b6c6fc061262", "is_disabled": 0, "rental_uris": {"ios": "https://dc.lft.to/lastmile_qr_scan", "android": "https://dc.lft.to/lastmile_qr_scan"}, "is_reserved": 0}, {"lon": -77.03775266666666, "bike_id": "fc0b0348f866573532a1c20b9c01b2a2", "lat": 38.92962166666667, "fusion_lon": 0.0, "fusion_lat": 0.0, "type": "electric_scooter", "name": "fc0b0348f866573532a1c20b9c01b2a2", "is_disabled": 0, "rental_uris": {"ios": "https://dc.lft.to/lastmile_qr_scan", "android": "https://dc.lft.to/lastmile_qr_scan"}, "is_reserved": 0}, {"lon": -76.987666, "bike_id": "b09fbf6ed593f1573d9ac1fe6522f2c2", "lat": 38.86606866666666, "fusion_lon": 0.0, "fusion_lat": 0.0, "type": "electric_bike", "name": "b09fbf6ed593f1573d9ac1fe6522f2c2", "is_disabled": 0, "rental_uris": {"ios": "https://dc.lft.to/lastmile_qr_scan", "android": "https://dc.lft.to/lastmile_qr_scan"}, "is_reserved": 0}, {"lon": -77.02714733333333, "bike_id": "946d1ba4729c535626171bccb57a6774", "lat": 38.924667, "fusion_lon": 0.0, "fusion_lat": 0.0, "type": "electric_scooter", "name": "946d1ba4729c535626171bccb57a6774", "is_disabled": 0, "rental_uris": {"ios": "https://dc.lft.to/lastmile_qr_scan", "android": "https://dc.lft.to/lastmile_qr_scan"}, "is_reserved": 0}, {"lon": -77.0172785, "bike_id": "f3530fe288327cceba3099ab3a8fa802", "lat": 38.89222816666667, "fusion_lon": 0.0, "fusion_lat": 0.0, "type": "electric_scooter", "name": "f3530fe288327cceba3099ab3a8fa802", "is_disabled": 0, "rental_uris": {"ios": "https://dc.lft.to/lastmile_qr_scan", "android": "https://dc.lft.to/lastmile_qr_scan"}, "is_reserved": 0}, {"lon": -76.94596083333333, "bike_id": "fbf9b8821e8962eabc70b21aa3e2d514", "lat": 38.901537166666664, "fusion_lon": 0.0, "fusion_lat": 0.0, "type": "electric_scooter", "name": "fbf9b8821e8962eabc70b21aa3e2d514", "is_disabled": 0, "rental_uris": {"ios": "https://dc.lft.to/lastmile_qr_scan", "android": "https://dc.lft.to/lastmile_qr_scan"}, "is_reserved": 0}, {"lon": -77.08488983333334, "bike_id": "de5edc87f87e56b0b377a455f37874bd", "lat": 38.848511333333335, "fusion_lon": 0.0, "fusion_lat": 0.0, "type": "electric_bike", "name": "de5edc87f87e56b0b377a455f37874bd", "is_disabled": 0, "rental_uris": {"ios": "https://dc.lft.to/lastmile_qr_scan", "android": "https://dc.lft.to/lastmile_qr_scan"}, "is_reserved": 0}, {"lon": -76.93189433333333, "bike_id": "1992db7d0b8fd94153ca93e833db8bc2", "lat": 38.89876566666667, "fusion_lon": 0.0, "fusion_lat": 0.0, "type": "electric_scooter", "name": "1992db7d0b8fd94153ca93e833db8bc2", "is_disabled": 0, "rental_uris": {"ios": "https://dc.lft.to/lastmile_qr_scan", "android": "https://dc.lft.to/lastmile_qr_scan"}, "is_reserved": 0}, {"lon": -77.02157883333334, "bike_id": "96a2198a07ac44feba1ea411ec37dae6", "lat": 38.89736766666667, "fusion_lon": 0.0, "fusion_lat": 0.0, "type": "electric_scooter", "name": "96a2198a07ac44feba1ea411ec37dae6", "is_disabled": 0, "rental_uris": {"ios": "https://dc.lft.to/lastmile_qr_scan", "android": "https://dc.lft.to/lastmile_qr_scan"}, "is_reserved": 0}, {"lon": -77.026922, "bike_id": "f8120648ff401166d60b2d53953a1012", "lat": 38.9043115, "fusion_lon": 0.0, "fusion_lat": 0.0, "type": "electric_scooter", "name": "f8120648ff401166d60b2d53953a1012", "is_disabled": 0, "rental_uris": {"ios": "https://dc.lft.to/lastmile_qr_scan", "android": "https://dc.lft.to/lastmile_qr_scan"}, "is_reserved": 0}, {"lon": -77.040009, "bike_id": "cfac422b1b8411daf198e1b0caa6b7ba", "lat": 38.93432283333333, "fusion_lon": 0.0, "fusion_lat": 0.0, "type": "electric_scooter", "name": "cfac422b1b8411daf198e1b0caa6b7ba", "is_disabled": 0, "rental_uris": {"ios": "https://dc.lft.to/lastmile_qr_scan", "android": "https://dc.lft.to/lastmile_qr_scan"}, "is_reserved": 0}, {"lon": -76.97395333333333, "bike_id": "98b6166b861427435f65d591fbea684e", "lat": 38.90297283333334, "fusion_lon": 0.0, "fusion_lat": 0.0, "type": "electric_scooter", "name": "98b6166b861427435f65d591fbea684e", "is_disabled": 0, "rental_uris": {"ios": "https://dc.lft.to/lastmile_qr_scan", "android": "https://dc.lft.to/lastmile_qr_scan"}, "is_reserved": 0}, {"lon": -77.04209666666667, "bike_id": "c23556a95aa44af0f899bae20fdaf164", "lat": 38.911228666666666, "fusion_lon": 0.0, "fusion_lat": 0.0, "type": "electric_scooter", "name": "c23556a95aa44af0f899bae20fdaf164", "is_disabled": 0, "rental_uris": {"ios": "https://dc.lft.to/lastmile_qr_scan", "android": "https://dc.lft.to/lastmile_qr_scan"}, "is_reserved": 0}, {"lon": -77.02393633333334, "bike_id": "8d019b89dc85f88758c67f9e5ee41261", "lat": 38.9199185, "fusion_lon": 0.0, "fusion_lat": 0.0, "type": "electric_scooter", "name": "8d019b89dc85f88758c67f9e5ee41261", "is_disabled": 0, "rental_uris": {"ios": "https://dc.lft.to/lastmile_qr_scan", "android": "https://dc.lft.to/lastmile_qr_scan"}, "is_reserved": 0}, {"lon": -76.9891595, "bike_id": "0becd9fc8f3bd44b412bf0b2eaa43d37", "lat": 38.864902, "fusion_lon": 0.0, "fusion_lat": 0.0, "type": "electric_scooter", "name": "0becd9fc8f3bd44b412bf0b2eaa43d37", "is_disabled": 0, "rental_uris": {"ios": "https://dc.lft.to/lastmile_qr_scan", "android": "https://dc.lft.to/lastmile_qr_scan"}, "is_reserved": 0}, {"lon": -77.0303935, "bike_id": "4e544d2b2d6fe2e496ea9514da58eb12", "lat": 38.93717083333333, "fusion_lon": 0.0, "fusion_lat": 0.0, "type": "electric_scooter", "name": "4e544d2b2d6fe2e496ea9514da58eb12", "is_disabled": 0, "rental_uris": {"ios": "https://dc.lft.to/lastmile_qr_scan", "android": "https://dc.lft.to/lastmile_qr_scan"}, "is_reserved": 0}, {"lon": -77.04336433333333, "bike_id": "b0dcb5f6bfd5b21ec53c927071921356", "lat": 38.92226566666667, "fusion_lon": 0.0, "fusion_lat": 0.0, "type": "electric_scooter", "name": "b0dcb5f6bfd5b21ec53c927071921356", "is_disabled": 0, "rental_uris": {"ios": "https://dc.lft.to/lastmile_qr_scan", "android": "https://dc.lft.to/lastmile_qr_scan"}, "is_reserved": 0}, {"lon": -77.04705466666667, "bike_id": "846cd5fcafb8b67408d4fe582caaa886", "lat": 38.90323216666667, "fusion_lon": 0.0, "fusion_lat": 0.0, "type": "electric_scooter", "name": "846cd5fcafb8b67408d4fe582caaa886", "is_disabled": 0, "rental_uris": {"ios": "https://dc.lft.to/lastmile_qr_scan", "android": "https://dc.lft.to/lastmile_qr_scan"}, "is_reserved": 0}, {"lon": -77.0446235, "bike_id": "398d0055fbca8f85ec1a6247fed2b21c", "lat": 38.924329, "fusion_lon": 0.0, "fusion_lat": 0.0, "type": "electric_scooter", "name": "398d0055fbca8f85ec1a6247fed2b21c", "is_disabled": 0, "rental_uris": {"ios": "https://dc.lft.to/lastmile_qr_scan", "android": "https://dc.lft.to/lastmile_qr_scan"}, "is_reserved": 0}, {"lon": -77.05815033333333, "bike_id": "e4f2b7f6d2df85c8da1b79209fd1c93d", "lat": 38.935145166666665, "fusion_lon": 0.0, "fusion_lat": 0.0, "type": "electric_scooter", "name": "e4f2b7f6d2df85c8da1b79209fd1c93d", "is_disabled": 0, "rental_uris": {"ios": "https://dc.lft.to/lastmile_qr_scan", "android": "https://dc.lft.to/lastmile_qr_scan"}, "is_reserved": 0}, {"lon": -77.077634, "bike_id": "90e9fceb80d84c2d5121bb196c1f521b", "lat": 38.9256005, "fusion_lon": 0.0, "fusion_lat": 0.0, "type": "electric_scooter", "name": "90e9fceb80d84c2d5121bb196c1f521b", "is_disabled": 0, "rental_uris": {"ios": "https://dc.lft.to/lastmile_qr_scan", "android": "https://dc.lft.to/lastmile_qr_scan"}, "is_reserved": 0}, {"lon": -77.04159766666666, "bike_id": "6826b05dd087b565f378d722c92d004f", "lat": 38.91250816666667, "fusion_lon": 0.0, "fusion_lat": 0.0, "type": "electric_scooter", "name": "6826b05dd087b565f378d722c92d004f", "is_disabled": 0, "rental_uris": {"ios": "https://dc.lft.to/lastmile_qr_scan", "android": "https://dc.lft.to/lastmile_qr_scan"}, "is_reserved": 0}, {"lon": -76.93732566666667, "bike_id": "dbaaf0eace5b0d224a90ecd2b27922c2", "lat": 38.8902435, "fusion_lon": 0.0, "fusion_lat": 0.0, "type": "electric_scooter", "name": "dbaaf0eace5b0d224a90ecd2b27922c2", "is_disabled": 0, "rental_uris": {"ios": "https://dc.lft.to/lastmile_qr_scan", "android": "https://dc.lft.to/lastmile_qr_scan"}, "is_reserved": 0}, {"lon": -77.024992, "bike_id": "7ccf0deae31e258b8549be10b5b14f27", "lat": 38.93094216666667, "fusion_lon": 0.0, "fusion_lat": 0.0, "type": "electric_scooter", "name": "7ccf0deae31e258b8549be10b5b14f27", "is_disabled": 0, "rental_uris": {"ios": "https://dc.lft.to/lastmile_qr_scan", "android": "https://dc.lft.to/lastmile_qr_scan"}, "is_reserved": 0}, {"lon": -77.03341283333333, "bike_id": "41ef8275d0d23a89336bfa2639029c65", "lat": 38.89900933333333, "fusion_lon": 0.0, "fusion_lat": 0.0, "type": "electric_scooter", "name": "41ef8275d0d23a89336bfa2639029c65", "is_disabled": 0, "rental_uris": {"ios": "https://dc.lft.to/lastmile_qr_scan", "android": "https://dc.lft.to/lastmile_qr_scan"}, "is_reserved": 0}, {"lon": -77.04428533333333, "bike_id": "f402f6a08864cea5a8ee6c946f680ec3", "lat": 38.921209833333336, "fusion_lon": 0.0, "fusion_lat": 0.0, "type": "electric_scooter", "name": "f402f6a08864cea5a8ee6c946f680ec3", "is_disabled": 0, "rental_uris": {"ios": "https://dc.lft.to/lastmile_qr_scan", "android": "https://dc.lft.to/lastmile_qr_scan"}, "is_reserved": 0}, {"lon": -77.04380666666667, "bike_id": "e6bc10db761277149803b80a38981082", "lat": 38.92069633333333, "fusion_lon": 0.0, "fusion_lat": 0.0, "type": "electric_scooter", "name": "e6bc10db761277149803b80a38981082", "is_disabled": 0, "rental_uris": {"ios": "https://dc.lft.to/lastmile_qr_scan", "android": "https://dc.lft.to/lastmile_qr_scan"}, "is_reserved": 0}, {"lon": -77.0049615, "bike_id": "c081181af7b52f037de3c667fd154c07", "lat": 38.9057555, "fusion_lon": 0.0, "fusion_lat": 0.0, "type": "electric_scooter", "name": "c081181af7b52f037de3c667fd154c07", "is_disabled": 0, "rental_uris": {"ios": "https://dc.lft.to/lastmile_qr_scan", "android": "https://dc.lft.to/lastmile_qr_scan"}, "is_reserved": 0}, {"lon": -77.01657583333333, "bike_id": "1fa2af1388aae6a12748d489631e39fd", "lat": 38.929014333333335, "fusion_lon": 0.0, "fusion_lat": 0.0, "type": "electric_scooter", "name": "1fa2af1388aae6a12748d489631e39fd", "is_disabled": 0, "rental_uris": {"ios": "https://dc.lft.to/lastmile_qr_scan", "android": "https://dc.lft.to/lastmile_qr_scan"}, "is_reserved": 0}, {"lon": -77.02205416666666, "bike_id": "55a873264a3bc111de7bd5fee62ada19", "lat": 38.90189616666667, "fusion_lon": 0.0, "fusion_lat": 0.0, "type": "electric_scooter", "name": "55a873264a3bc111de7bd5fee62ada19", "is_disabled": 0, "rental_uris": {"ios": "https://dc.lft.to/lastmile_qr_scan", "android": "https://dc.lft.to/lastmile_qr_scan"}, "is_reserved": 0}, {"lon": -77.02793766666667, "bike_id": "fbc3f230fd118e68fa84f7562459e632", "lat": 38.93017066666667, "fusion_lon": 0.0, "fusion_lat": 0.0, "type": "electric_scooter", "name": "fbc3f230fd118e68fa84f7562459e632", "is_disabled": 0, "rental_uris": {"ios": "https://dc.lft.to/lastmile_qr_scan", "android": "https://dc.lft.to/lastmile_qr_scan"}, "is_reserved": 0}, {"lon": -77.03869766666666, "bike_id": "7fa3bda2e47e95cc54f3ba74b844c422", "lat": 38.912016333333334, "fusion_lon": 0.0, "fusion_lat": 0.0, "type": "electric_scooter", "name": "7fa3bda2e47e95cc54f3ba74b844c422", "is_disabled": 0, "rental_uris": {"ios": "https://dc.lft.to/lastmile_qr_scan", "android": "https://dc.lft.to/lastmile_qr_scan"}, "is_reserved": 0}, {"lon": -77.0338005, "bike_id": "b1352679bf961ba294fd4c96d3fad445", "lat": 38.9097975, "fusion_lon": 0.0, "fusion_lat": 0.0, "type": "electric_scooter", "name": "b1352679bf961ba294fd4c96d3fad445", "is_disabled": 0, "rental_uris": {"ios": "https://dc.lft.to/lastmile_qr_scan", "android": "https://dc.lft.to/lastmile_qr_scan"}, "is_reserved": 0}, {"lon": -77.03416616666667, "bike_id": "c8f87475defbb82c16bc9d19a1678fc0", "lat": 38.918002666666666, "fusion_lon": 0.0, "fusion_lat": 0.0, "type": "electric_scooter", "name": "c8f87475defbb82c16bc9d19a1678fc0", "is_disabled": 0, "rental_uris": {"ios": "https://dc.lft.to/lastmile_qr_scan", "android": "https://dc.lft.to/lastmile_qr_scan"}, "is_reserved": 0}, {"lon": -77.04323366666667, "bike_id": "dad8c8c6b114fa0dc6352d97004c5519", "lat": 38.90733916666667, "fusion_lon": 0.0, "fusion_lat": 0.0, "type": "electric_scooter", "name": "dad8c8c6b114fa0dc6352d97004c5519", "is_disabled": 0, "rental_uris": {"ios": "https://dc.lft.to/lastmile_qr_scan", "android": "https://dc.lft.to/lastmile_qr_scan"}, "is_reserved": 0}, {"lon": -77.034445, "bike_id": "76f8f6c882ca0696f0f384f355478df7", "lat": 38.90955016666667, "fusion_lon": 0.0, "fusion_lat": 0.0, "type": "electric_scooter", "name": "76f8f6c882ca0696f0f384f355478df7", "is_disabled": 0, "rental_uris": {"ios": "https://dc.lft.to/lastmile_qr_scan", "android": "https://dc.lft.to/lastmile_qr_scan"}, "is_reserved": 0}, {"lon": -77.02222083333334, "bike_id": "ce059d5da9dacb99fee26f779b474546", "lat": 38.9260725, "fusion_lon": 0.0, "fusion_lat": 0.0, "type": "electric_scooter", "name": "ce059d5da9dacb99fee26f779b474546", "is_disabled": 0, "rental_uris": {"ios": "https://dc.lft.to/lastmile_qr_scan", "android": "https://dc.lft.to/lastmile_qr_scan"}, "is_reserved": 0}, {"lon": -76.955776, "bike_id": "1a2746fa28cab493b4d4b09e95c24ee8", "lat": 38.887679166666665, "fusion_lon": 0.0, "fusion_lat": 0.0, "type": "electric_scooter", "name": "1a2746fa28cab493b4d4b09e95c24ee8", "is_disabled": 0, "rental_uris": {"ios": "https://dc.lft.to/lastmile_qr_scan", "android": "https://dc.lft.to/lastmile_qr_scan"}, "is_reserved": 0}, {"lon": -77.04390366666667, "bike_id": "d7fd0655bb034c08ba13263a20b6d551", "lat": 39.047223333333335, "fusion_lon": 0.0, "fusion_lat": 0.0, "type": "electric_bike", "name": "d7fd0655bb034c08ba13263a20b6d551", "is_disabled": 0, "rental_uris": {"ios": "https://dc.lft.to/lastmile_qr_scan", "android": "https://dc.lft.to/lastmile_qr_scan"}, "is_reserved": 0}, {"lon": -77.02837583333333, "bike_id": "9994734e14ad382d6f5b8eb20816405f", "lat": 38.92573633333333, "fusion_lon": 0.0, "fusion_lat": 0.0, "type": "electric_scooter", "name": "9994734e14ad382d6f5b8eb20816405f", "is_disabled": 0, "rental_uris": {"ios": "https://dc.lft.to/lastmile_qr_scan", "android": "https://dc.lft.to/lastmile_qr_scan"}, "is_reserved": 0}, {"lon": -77.0223325, "bike_id": "f2519c4cc2ba01220dbad58cfebe297f", "lat": 38.96214616666666, "fusion_lon": 0.0, "fusion_lat": 0.0, "type": "electric_bike", "name": "f2519c4cc2ba01220dbad58cfebe297f", "is_disabled": 0, "rental_uris": {"ios": "https://dc.lft.to/lastmile_qr_scan", "android": "https://dc.lft.to/lastmile_qr_scan"}, "is_reserved": 0}, {"lon": -77.052559, "bike_id": "5169a8b74307f4d9889355ea7865a33c", "lat": 38.899947166666664, "fusion_lon": 0.0, "fusion_lat": 0.0, "type": "electric_scooter", "name": "5169a8b74307f4d9889355ea7865a33c", "is_disabled": 0, "rental_uris": {"ios": "https://dc.lft.to/lastmile_qr_scan", "android": "https://dc.lft.to/lastmile_qr_scan"}, "is_reserved": 0}, {"lon": -77.02030933333333, "bike_id": "03799ff3d93666033aefc568543b1f29", "lat": 38.924212, "fusion_lon": 0.0, "fusion_lat": 0.0, "type": "electric_scooter", "name": "03799ff3d93666033aefc568543b1f29", "is_disabled": 0, "rental_uris": {"ios": "https://dc.lft.to/lastmile_qr_scan", "android": "https://dc.lft.to/lastmile_qr_scan"}, "is_reserved": 0}, {"lon": -77.03299633333333, "bike_id": "d98ac21695806f740860792381425359", "lat": 38.90738016666667, "fusion_lon": 0.0, "fusion_lat": 0.0, "type": "electric_scooter", "name": "d98ac21695806f740860792381425359", "is_disabled": 0, "rental_uris": {"ios": "https://dc.lft.to/lastmile_qr_scan", "android": "https://dc.lft.to/lastmile_qr_scan"}, "is_reserved": 0}, {"lon": -76.98923733333334, "bike_id": "a5a899bdec851a98e71c5eda21d01178", "lat": 38.858094333333334, "fusion_lon": 0.0, "fusion_lat": 0.0, "type": "electric_scooter", "name": "a5a899bdec851a98e71c5eda21d01178", "is_disabled": 0, "rental_uris": {"ios": "https://dc.lft.to/lastmile_qr_scan", "android": "https://dc.lft.to/lastmile_qr_scan"}, "is_reserved": 0}, {"lon": -77.0318375, "bike_id": "7860e72b9ffefd50c47e156bceaf7073", "lat": 38.913471333333334, "fusion_lon": 0.0, "fusion_lat": 0.0, "type": "electric_scooter", "name": "7860e72b9ffefd50c47e156bceaf7073", "is_disabled": 0, "rental_uris": {"ios": "https://dc.lft.to/lastmile_qr_scan", "android": "https://dc.lft.to/lastmile_qr_scan"}, "is_reserved": 0}, {"lon": -77.033397, "bike_id": "4d281fed4bf2a4345477375b7d305f2c", "lat": 38.89850216666667, "fusion_lon": 0.0, "fusion_lat": 0.0, "type": "electric_scooter", "name": "4d281fed4bf2a4345477375b7d305f2c", "is_disabled": 0, "rental_uris": {"ios": "https://dc.lft.to/lastmile_qr_scan", "android": "https://dc.lft.to/lastmile_qr_scan"}, "is_reserved": 0}, {"lon": -77.03203516666666, "bike_id": "8bdf925f6278cf4f8b362533bda25167", "lat": 38.93968133333333, "fusion_lon": 0.0, "fusion_lat": 0.0, "type": "electric_scooter", "name": "8bdf925f6278cf4f8b362533bda25167", "is_disabled": 0, "rental_uris": {"ios": "https://dc.lft.to/lastmile_qr_scan", "android": "https://dc.lft.to/lastmile_qr_scan"}, "is_reserved": 0}, {"lon": -77.0092645, "bike_id": "e67bed8bf3e81812374be004ad4d53a8", "lat": 38.89604083333333, "fusion_lon": 0.0, "fusion_lat": 0.0, "type": "electric_scooter", "name": "e67bed8bf3e81812374be004ad4d53a8", "is_disabled": 0, "rental_uris": {"ios": "https://dc.lft.to/lastmile_qr_scan", "android": "https://dc.lft.to/lastmile_qr_scan"}, "is_reserved": 0}, {"lon": -77.005903, "bike_id": "95de9eec2b64e67ba554350c62c46bb7", "lat": 38.90648383333333, "fusion_lon": 0.0, "fusion_lat": 0.0, "type": "electric_scooter", "name": "95de9eec2b64e67ba554350c62c46bb7", "is_disabled": 0, "rental_uris": {"ios": "https://dc.lft.to/lastmile_qr_scan", "android": "https://dc.lft.to/lastmile_qr_scan"}, "is_reserved": 0}, {"lon": -77.03213416666667, "bike_id": "b14ff7db2e77a196ebe2badd4c741568", "lat": 38.91220116666667, "fusion_lon": 0.0, "fusion_lat": 0.0, "type": "electric_scooter", "name": "b14ff7db2e77a196ebe2badd4c741568", "is_disabled": 0, "rental_uris": {"ios": "https://dc.lft.to/lastmile_qr_scan", "android": "https://dc.lft.to/lastmile_qr_scan"}, "is_reserved": 0}, {"lon": -77.02692083333334, "bike_id": "5fd358645615b3e9cebae0326e421401", "lat": 38.906233666666665, "fusion_lon": 0.0, "fusion_lat": 0.0, "type": "electric_scooter", "name": "5fd358645615b3e9cebae0326e421401", "is_disabled": 0, "rental_uris": {"ios": "https://dc.lft.to/lastmile_qr_scan", "android": "https://dc.lft.to/lastmile_qr_scan"}, "is_reserved": 0}, {"lon": -77.0443415, "bike_id": "d3e3fed6d641857eadba10dfdb7e0e5d", "lat": 38.92175366666667, "fusion_lon": 0.0, "fusion_lat": 0.0, "type": "electric_scooter", "name": "d3e3fed6d641857eadba10dfdb7e0e5d", "is_disabled": 0, "rental_uris": {"ios": "https://dc.lft.to/lastmile_qr_scan", "android": "https://dc.lft.to/lastmile_qr_scan"}, "is_reserved": 0}, {"lon": -77.056117, "bike_id": "58aa0a59ca612cc62916df6016839acb", "lat": 38.923321, "fusion_lon": 0.0, "fusion_lat": 0.0, "type": "electric_scooter", "name": "58aa0a59ca612cc62916df6016839acb", "is_disabled": 0, "rental_uris": {"ios": "https://dc.lft.to/lastmile_qr_scan", "android": "https://dc.lft.to/lastmile_qr_scan"}, "is_reserved": 0}, {"lon": -77.0335125, "bike_id": "4abc34c9d47e90475205e8bfded466a2", "lat": 38.88543166666667, "fusion_lon": 0.0, "fusion_lat": 0.0, "type": "electric_scooter", "name": "4abc34c9d47e90475205e8bfded466a2", "is_disabled": 0, "rental_uris": {"ios": "https://dc.lft.to/lastmile_qr_scan", "android": "https://dc.lft.to/lastmile_qr_scan"}, "is_reserved": 0}, {"lon": -76.96261066666666, "bike_id": "a31f18ed7ba03de7def5010d7402679d", "lat": 38.88247533333333, "fusion_lon": 0.0, "fusion_lat": 0.0, "type": "electric_bike", "name": "a31f18ed7ba03de7def5010d7402679d", "is_disabled": 0, "rental_uris": {"ios": "https://dc.lft.to/lastmile_qr_scan", "android": "https://dc.lft.to/lastmile_qr_scan"}, "is_reserved": 0}, {"lon": -77.0065835, "bike_id": "bd06955db3c4f08aafc470aec402c7a7", "lat": 38.94464683333333, "fusion_lon": 0.0, "fusion_lat": 0.0, "type": "electric_scooter", "name": "bd06955db3c4f08aafc470aec402c7a7", "is_disabled": 0, "rental_uris": {"ios": "https://dc.lft.to/lastmile_qr_scan", "android": "https://dc.lft.to/lastmile_qr_scan"}, "is_reserved": 0}, {"lon": -77.03166566666667, "bike_id": "6865fdadaacf15264c80b24cc97c3eec", "lat": 38.936085, "fusion_lon": 0.0, "fusion_lat": 0.0, "type": "electric_scooter", "name": "6865fdadaacf15264c80b24cc97c3eec", "is_disabled": 0, "rental_uris": {"ios": "https://dc.lft.to/lastmile_qr_scan", "android": "https://dc.lft.to/lastmile_qr_scan"}, "is_reserved": 0}, {"lon": -77.03447216666666, "bike_id": "1930ee7bde4f8318e937ec1b01bf8319", "lat": 38.91016916666667, "fusion_lon": 0.0, "fusion_lat": 0.0, "type": "electric_scooter", "name": "1930ee7bde4f8318e937ec1b01bf8319", "is_disabled": 0, "rental_uris": {"ios": "https://dc.lft.to/lastmile_qr_scan", "android": "https://dc.lft.to/lastmile_qr_scan"}, "is_reserved": 0}, {"lon": -76.977314, "bike_id": "50168f31abfd8c48f7b9fc15ccc735c4", "lat": 38.86482, "fusion_lon": 0.0, "fusion_lat": 0.0, "type": "electric_bike", "name": "50168f31abfd8c48f7b9fc15ccc735c4", "is_disabled": 0, "rental_uris": {"ios": "https://dc.lft.to/lastmile_qr_scan", "android": "https://dc.lft.to/lastmile_qr_scan"}, "is_reserved": 0}, {"lon": -77.18560966666666, "bike_id": "a4029e6ea92d586d79cccff31cc0d242", "lat": 39.099781, "fusion_lon": 0.0, "fusion_lat": 0.0, "type": "electric_bike", "name": "a4029e6ea92d586d79cccff31cc0d242", "is_disabled": 0, "rental_uris": {"ios": "https://dc.lft.to/lastmile_qr_scan", "android": "https://dc.lft.to/lastmile_qr_scan"}, "is_reserved": 0}, {"lon": -77.021624, "bike_id": "5fdd4c87461beb0649d5588e969d97d8", "lat": 38.926179, "fusion_lon": 0.0, "fusion_lat": 0.0, "type": "electric_scooter", "name": "5fdd4c87461beb0649d5588e969d97d8", "is_disabled": 0, "rental_uris": {"ios": "https://dc.lft.to/lastmile_qr_scan", "android": "https://dc.lft.to/lastmile_qr_scan"}, "is_reserved": 0}, {"lon": -77.04158683333333, "bike_id": "1382e60e8636d37eb76403cf622c445b", "lat": 38.91251183333333, "fusion_lon": 0.0, "fusion_lat": 0.0, "type": "electric_scooter", "name": "1382e60e8636d37eb76403cf622c445b", "is_disabled": 0, "rental_uris": {"ios": "https://dc.lft.to/lastmile_qr_scan", "android": "https://dc.lft.to/lastmile_qr_scan"}, "is_reserved": 0}, {"lon": -77.01940816666666, "bike_id": "6bc08559637f86e32d81cae78dde1f64", "lat": 38.936906666666665, "fusion_lon": 0.0, "fusion_lat": 0.0, "type": "electric_scooter", "name": "6bc08559637f86e32d81cae78dde1f64", "is_disabled": 0, "rental_uris": {"ios": "https://dc.lft.to/lastmile_qr_scan", "android": "https://dc.lft.to/lastmile_qr_scan"}, "is_reserved": 0}, {"lon": -76.93304366666666, "bike_id": "df068379eb133ed7a3b205a16edbdb38", "lat": 38.894777166666664, "fusion_lon": 0.0, "fusion_lat": 0.0, "type": "electric_scooter", "name": "df068379eb133ed7a3b205a16edbdb38", "is_disabled": 0, "rental_uris": {"ios": "https://dc.lft.to/lastmile_qr_scan", "android": "https://dc.lft.to/lastmile_qr_scan"}, "is_reserved": 0}, {"lon": -77.0317475, "bike_id": "926558bbd0d881e13aa774ad5cafdc0c", "lat": 38.919254333333335, "fusion_lon": 0.0, "fusion_lat": 0.0, "type": "electric_scooter", "name": "926558bbd0d881e13aa774ad5cafdc0c", "is_disabled": 0, "rental_uris": {"ios": "https://dc.lft.to/lastmile_qr_scan", "android": "https://dc.lft.to/lastmile_qr_scan"}, "is_reserved": 0}, {"lon": -76.99535183333333, "bike_id": "6630601bfcd5e466a7a27c9223761130", "lat": 38.8836855, "fusion_lon": 0.0, "fusion_lat": 0.0, "type": "electric_scooter", "name": "6630601bfcd5e466a7a27c9223761130", "is_disabled": 0, "rental_uris": {"ios": "https://dc.lft.to/lastmile_qr_scan", "android": "https://dc.lft.to/lastmile_qr_scan"}, "is_reserved": 0}, {"lon": -77.04337716666667, "bike_id": "933fac4aea5dadc74cd085e99b505bcd", "lat": 38.9110685, "fusion_lon": 0.0, "fusion_lat": 0.0, "type": "electric_scooter", "name": "933fac4aea5dadc74cd085e99b505bcd", "is_disabled": 0, "rental_uris": {"ios": "https://dc.lft.to/lastmile_qr_scan", "android": "https://dc.lft.to/lastmile_qr_scan"}, "is_reserved": 0}, {"lon": -77.05357833333333, "bike_id": "22d3f670b4adf13e29ede48168d38414", "lat": 38.927215, "fusion_lon": 0.0, "fusion_lat": 0.0, "type": "electric_scooter", "name": "22d3f670b4adf13e29ede48168d38414", "is_disabled": 0, "rental_uris": {"ios": "https://dc.lft.to/lastmile_qr_scan", "android": "https://dc.lft.to/lastmile_qr_scan"}, "is_reserved": 0}, {"lon": -77.0385875, "bike_id": "8b72a54a909e129ed4c645f7b657ced3", "lat": 38.91560316666666, "fusion_lon": 0.0, "fusion_lat": 0.0, "type": "electric_scooter", "name": "8b72a54a909e129ed4c645f7b657ced3", "is_disabled": 0, "rental_uris": {"ios": "https://dc.lft.to/lastmile_qr_scan", "android": "https://dc.lft.to/lastmile_qr_scan"}, "is_reserved": 0}, {"lon": -77.04768533333333, "bike_id": "6d0d539cb854c78e0d2b9924b0d8366d", "lat": 38.92143433333333, "fusion_lon": 0.0, "fusion_lat": 0.0, "type": "electric_scooter", "name": "6d0d539cb854c78e0d2b9924b0d8366d", "is_disabled": 0, "rental_uris": {"ios": "https://dc.lft.to/lastmile_qr_scan", "android": "https://dc.lft.to/lastmile_qr_scan"}, "is_reserved": 0}, {"lon": -77.03863116666666, "bike_id": "683b4a7463b2f720cb1b1067fb9692cc", "lat": 38.9178065, "fusion_lon": 0.0, "fusion_lat": 0.0, "type": "electric_scooter", "name": "683b4a7463b2f720cb1b1067fb9692cc", "is_disabled": 0, "rental_uris": {"ios": "https://dc.lft.to/lastmile_qr_scan", "android": "https://dc.lft.to/lastmile_qr_scan"}, "is_reserved": 0}, {"lon": -77.05282183333334, "bike_id": "29e4f7777a9ddd433c063affe424cfc0", "lat": 38.899731333333335, "fusion_lon": 0.0, "fusion_lat": 0.0, "type": "electric_scooter", "name": "29e4f7777a9ddd433c063affe424cfc0", "is_disabled": 0, "rental_uris": {"ios": "https://dc.lft.to/lastmile_qr_scan", "android": "https://dc.lft.to/lastmile_qr_scan"}, "is_reserved": 0}, {"lon": -76.98538383333333, "bike_id": "7a596a71eb2b688ca6e3d1fcc3f35925", "lat": 38.89660533333333, "fusion_lon": 0.0, "fusion_lat": 0.0, "type": "electric_scooter", "name": "7a596a71eb2b688ca6e3d1fcc3f35925", "is_disabled": 0, "rental_uris": {"ios": "https://dc.lft.to/lastmile_qr_scan", "android": "https://dc.lft.to/lastmile_qr_scan"}, "is_reserved": 0}, {"lon": -77.0262825, "bike_id": "58d2743418710e199ca3586c98267344", "lat": 38.9171025, "fusion_lon": 0.0, "fusion_lat": 0.0, "type": "electric_scooter", "name": "58d2743418710e199ca3586c98267344", "is_disabled": 0, "rental_uris": {"ios": "https://dc.lft.to/lastmile_qr_scan", "android": "https://dc.lft.to/lastmile_qr_scan"}, "is_reserved": 0}, {"lon": -76.98932666666667, "bike_id": "2ed9d01c6affb59d9b041c76da037994", "lat": 38.9018825, "fusion_lon": 0.0, "fusion_lat": 0.0, "type": "electric_scooter", "name": "2ed9d01c6affb59d9b041c76da037994", "is_disabled": 0, "rental_uris": {"ios": "https://dc.lft.to/lastmile_qr_scan", "android": "https://dc.lft.to/lastmile_qr_scan"}, "is_reserved": 0}, {"lon": -77.027461, "bike_id": "a168233d7df966bbfa521fda70293686", "lat": 38.897659833333336, "fusion_lon": 0.0, "fusion_lat": 0.0, "type": "electric_scooter", "name": "a168233d7df966bbfa521fda70293686", "is_disabled": 0, "rental_uris": {"ios": "https://dc.lft.to/lastmile_qr_scan", "android": "https://dc.lft.to/lastmile_qr_scan"}, "is_reserved": 0}, {"lon": -77.02164733333333, "bike_id": "60d647d010b84caef493633224a34143", "lat": 38.8975415, "fusion_lon": 0.0, "fusion_lat": 0.0, "type": "electric_scooter", "name": "60d647d010b84caef493633224a34143", "is_disabled": 0, "rental_uris": {"ios": "https://dc.lft.to/lastmile_qr_scan", "android": "https://dc.lft.to/lastmile_qr_scan"}, "is_reserved": 0}, {"lon": -77.04163433333333, "bike_id": "2fd3ec01f9ba365d838e29cfbd81c618", "lat": 38.91250483333334, "fusion_lon": 0.0, "fusion_lat": 0.0, "type": "electric_scooter", "name": "2fd3ec01f9ba365d838e29cfbd81c618", "is_disabled": 0, "rental_uris": {"ios": "https://dc.lft.to/lastmile_qr_scan", "android": "https://dc.lft.to/lastmile_qr_scan"}, "is_reserved": 0}, {"lon": -77.04104666666667, "bike_id": "fa410182b12baa42a52d9aa19907e88b", "lat": 38.92316683333333, "fusion_lon": 0.0, "fusion_lat": 0.0, "type": "electric_scooter", "name": "fa410182b12baa42a52d9aa19907e88b", "is_disabled": 0, "rental_uris": {"ios": "https://dc.lft.to/lastmile_qr_scan", "android": "https://dc.lft.to/lastmile_qr_scan"}, "is_reserved": 0}, {"lon": -76.95748766666667, "bike_id": "36b2306f79263eaede469cc02c44e015", "lat": 38.88427633333333, "fusion_lon": 0.0, "fusion_lat": 0.0, "type": "electric_scooter", "name": "36b2306f79263eaede469cc02c44e015", "is_disabled": 0, "rental_uris": {"ios": "https://dc.lft.to/lastmile_qr_scan", "android": "https://dc.lft.to/lastmile_qr_scan"}, "is_reserved": 0}, {"lon": -76.9855745, "bike_id": "6311781b7e6d6a12252ae596424717e3", "lat": 38.8962, "fusion_lon": 0.0, "fusion_lat": 0.0, "type": "electric_scooter", "name": "6311781b7e6d6a12252ae596424717e3", "is_disabled": 0, "rental_uris": {"ios": "https://dc.lft.to/lastmile_qr_scan", "android": "https://dc.lft.to/lastmile_qr_scan"}, "is_reserved": 0}, {"lon": -77.0568585, "bike_id": "53e7e0c254927df39427720478a7545d", "lat": 38.905159, "fusion_lon": 0.0, "fusion_lat": 0.0, "type": "electric_bike", "name": "53e7e0c254927df39427720478a7545d", "is_disabled": 0, "rental_uris": {"ios": "https://dc.lft.to/lastmile_qr_scan", "android": "https://dc.lft.to/lastmile_qr_scan"}, "is_reserved": 0}, {"lon": -77.05035883333333, "bike_id": "7a86ea1adbeb1f242a4eb1e4d601554c", "lat": 38.90162333333333, "fusion_lon": 0.0, "fusion_lat": 0.0, "type": "electric_scooter", "name": "7a86ea1adbeb1f242a4eb1e4d601554c", "is_disabled": 0, "rental_uris": {"ios": "https://dc.lft.to/lastmile_qr_scan", "android": "https://dc.lft.to/lastmile_qr_scan"}, "is_reserved": 0}, {"lon": -77.01970533333333, "bike_id": "1e6e629c4072583f8d8ce7de982eec25", "lat": 38.9358475, "fusion_lon": 0.0, "fusion_lat": 0.0, "type": "electric_scooter", "name": "1e6e629c4072583f8d8ce7de982eec25", "is_disabled": 0, "rental_uris": {"ios": "https://dc.lft.to/lastmile_qr_scan", "android": "https://dc.lft.to/lastmile_qr_scan"}, "is_reserved": 0}, {"lon": -77.025804, "bike_id": "eea176c4bfdfa4457b41ed568b762a17", "lat": 38.887352166666666, "fusion_lon": 0.0, "fusion_lat": 0.0, "type": "electric_scooter", "name": "eea176c4bfdfa4457b41ed568b762a17", "is_disabled": 0, "rental_uris": {"ios": "https://dc.lft.to/lastmile_qr_scan", "android": "https://dc.lft.to/lastmile_qr_scan"}, "is_reserved": 0}, {"lon": -77.03042216666667, "bike_id": "e6834d8567a63e987df0bb4231e8cafd", "lat": 38.8784205, "fusion_lon": 0.0, "fusion_lat": 0.0, "type": "electric_scooter", "name": "e6834d8567a63e987df0bb4231e8cafd", "is_disabled": 0, "rental_uris": {"ios": "https://dc.lft.to/lastmile_qr_scan", "android": "https://dc.lft.to/lastmile_qr_scan"}, "is_reserved": 0}, {"lon": -77.038617, "bike_id": "437a693965ac6e603ae1946fb8c6da17", "lat": 38.912604333333334, "fusion_lon": 0.0, "fusion_lat": 0.0, "type": "electric_scooter", "name": "437a693965ac6e603ae1946fb8c6da17", "is_disabled": 0, "rental_uris": {"ios": "https://dc.lft.to/lastmile_qr_scan", "android": "https://dc.lft.to/lastmile_qr_scan"}, "is_reserved": 0}, {"lon": -76.93736816666667, "bike_id": "b55eafe8dcbb9d9eb476ac9066059fe0", "lat": 38.8901335, "fusion_lon": 0.0, "fusion_lat": 0.0, "type": "electric_scooter", "name": "b55eafe8dcbb9d9eb476ac9066059fe0", "is_disabled": 0, "rental_uris": {"ios": "https://dc.lft.to/lastmile_qr_scan", "android": "https://dc.lft.to/lastmile_qr_scan"}, "is_reserved": 0}, {"lon": -77.0278165, "bike_id": "0ddf5a8ef686daaf548e0591fb9f522d", "lat": 38.887498666666666, "fusion_lon": 0.0, "fusion_lat": 0.0, "type": "electric_scooter", "name": "0ddf5a8ef686daaf548e0591fb9f522d", "is_disabled": 0, "rental_uris": {"ios": "https://dc.lft.to/lastmile_qr_scan", "android": "https://dc.lft.to/lastmile_qr_scan"}, "is_reserved": 0}, {"lon": -77.03442733333333, "bike_id": "d858e6d84525462f1d008289b6dbaec8", "lat": 38.909792333333336, "fusion_lon": 0.0, "fusion_lat": 0.0, "type": "electric_scooter", "name": "d858e6d84525462f1d008289b6dbaec8", "is_disabled": 0, "rental_uris": {"ios": "https://dc.lft.to/lastmile_qr_scan", "android": "https://dc.lft.to/lastmile_qr_scan"}, "is_reserved": 0}, {"lon": -76.990007, "bike_id": "01854ee05b10bddf957ed58709d3acd2", "lat": 38.86503883333334, "fusion_lon": 0.0, "fusion_lat": 0.0, "type": "electric_scooter", "name": "01854ee05b10bddf957ed58709d3acd2", "is_disabled": 0, "rental_uris": {"ios": "https://dc.lft.to/lastmile_qr_scan", "android": "https://dc.lft.to/lastmile_qr_scan"}, "is_reserved": 0}, {"lon": -77.02911183333333, "bike_id": "46717d6edc899b394a7db2e864d2eff4", "lat": 38.916996166666664, "fusion_lon": 0.0, "fusion_lat": 0.0, "type": "electric_scooter", "name": "46717d6edc899b394a7db2e864d2eff4", "is_disabled": 0, "rental_uris": {"ios": "https://dc.lft.to/lastmile_qr_scan", "android": "https://dc.lft.to/lastmile_qr_scan"}, "is_reserved": 0}, {"lon": -77.07385466666666, "bike_id": "aad96d66ddfa4fc2805220627b4a7108", "lat": 38.96219516666667, "fusion_lon": 0.0, "fusion_lat": 0.0, "type": "electric_scooter", "name": "aad96d66ddfa4fc2805220627b4a7108", "is_disabled": 0, "rental_uris": {"ios": "https://dc.lft.to/lastmile_qr_scan", "android": "https://dc.lft.to/lastmile_qr_scan"}, "is_reserved": 0}, {"lon": -77.1157325, "bike_id": "f288b975f3f255580cacfcf658603309", "lat": 38.99348333333333, "fusion_lon": 0.0, "fusion_lat": 0.0, "type": "electric_bike", "name": "f288b975f3f255580cacfcf658603309", "is_disabled": 0, "rental_uris": {"ios": "https://dc.lft.to/lastmile_qr_scan", "android": "https://dc.lft.to/lastmile_qr_scan"}, "is_reserved": 0}, {"lon": -77.02689616666666, "bike_id": "9fb21473a490f2525affbb301e9a4221", "lat": 38.902689, "fusion_lon": 0.0, "fusion_lat": 0.0, "type": "electric_scooter", "name": "9fb21473a490f2525affbb301e9a4221", "is_disabled": 0, "rental_uris": {"ios": "https://dc.lft.to/lastmile_qr_scan", "android": "https://dc.lft.to/lastmile_qr_scan"}, "is_reserved": 0}, {"lon": -77.02967566666666, "bike_id": "3f7fb219ef121e7b96da699fc5d6bd55", "lat": 38.91661466666667, "fusion_lon": 0.0, "fusion_lat": 0.0, "type": "electric_scooter", "name": "3f7fb219ef121e7b96da699fc5d6bd55", "is_disabled": 0, "rental_uris": {"ios": "https://dc.lft.to/lastmile_qr_scan", "android": "https://dc.lft.to/lastmile_qr_scan"}, "is_reserved": 0}, {"lon": -77.01478933333334, "bike_id": "308d8e7097b2722933cd1fe7a8f404b3", "lat": 38.9586895, "fusion_lon": 0.0, "fusion_lat": 0.0, "type": "electric_scooter", "name": "308d8e7097b2722933cd1fe7a8f404b3", "is_disabled": 0, "rental_uris": {"ios": "https://dc.lft.to/lastmile_qr_scan", "android": "https://dc.lft.to/lastmile_qr_scan"}, "is_reserved": 0}, {"lon": -76.985255, "bike_id": "a382b039dcb365741b08d91acd36e5e8", "lat": 38.8668665, "fusion_lon": 0.0, "fusion_lat": 0.0, "type": "electric_scooter", "name": "a382b039dcb365741b08d91acd36e5e8", "is_disabled": 0, "rental_uris": {"ios": "https://dc.lft.to/lastmile_qr_scan", "android": "https://dc.lft.to/lastmile_qr_scan"}, "is_reserved": 0}, {"lon": -77.034521, "bike_id": "4c89d2381886e4ac6b004443cb5233d6", "lat": 38.93614733333333, "fusion_lon": 0.0, "fusion_lat": 0.0, "type": "electric_scooter", "name": "4c89d2381886e4ac6b004443cb5233d6", "is_disabled": 0, "rental_uris": {"ios": "https://dc.lft.to/lastmile_qr_scan", "android": "https://dc.lft.to/lastmile_qr_scan"}, "is_reserved": 0}, {"lon": -76.91598133333333, "bike_id": "30bf99f12cc76a59e3b96a89e478c0ba", "lat": 38.879838, "fusion_lon": 0.0, "fusion_lat": 0.0, "type": "electric_bike", "name": "30bf99f12cc76a59e3b96a89e478c0ba", "is_disabled": 0, "rental_uris": {"ios": "https://dc.lft.to/lastmile_qr_scan", "android": "https://dc.lft.to/lastmile_qr_scan"}, "is_reserved": 0}, {"lon": -77.04242433333333, "bike_id": "9a6698f6a25cf90e8ab03a40dff338cc", "lat": 38.924279166666665, "fusion_lon": 0.0, "fusion_lat": 0.0, "type": "electric_scooter", "name": "9a6698f6a25cf90e8ab03a40dff338cc", "is_disabled": 0, "rental_uris": {"ios": "https://dc.lft.to/lastmile_qr_scan", "android": "https://dc.lft.to/lastmile_qr_scan"}, "is_reserved": 0}, {"lon": -77.02207533333333, "bike_id": "b11468ad3116ea82c2b2bcd3c5382151", "lat": 38.91064016666667, "fusion_lon": 0.0, "fusion_lat": 0.0, "type": "electric_scooter", "name": "b11468ad3116ea82c2b2bcd3c5382151", "is_disabled": 0, "rental_uris": {"ios": "https://dc.lft.to/lastmile_qr_scan", "android": "https://dc.lft.to/lastmile_qr_scan"}, "is_reserved": 0}, {"lon": -76.995075, "bike_id": "515287534a24479d59ec2d7a135177f5", "lat": 38.883059, "fusion_lon": 0.0, "fusion_lat": 0.0, "type": "electric_scooter", "name": "515287534a24479d59ec2d7a135177f5", "is_disabled": 0, "rental_uris": {"ios": "https://dc.lft.to/lastmile_qr_scan", "android": "https://dc.lft.to/lastmile_qr_scan"}, "is_reserved": 0}, {"lon": -77.02160266666667, "bike_id": "b3588000be316cc57466e319d87897ed", "lat": 38.897521166666664, "fusion_lon": 0.0, "fusion_lat": 0.0, "type": "electric_scooter", "name": "b3588000be316cc57466e319d87897ed", "is_disabled": 0, "rental_uris": {"ios": "https://dc.lft.to/lastmile_qr_scan", "android": "https://dc.lft.to/lastmile_qr_scan"}, "is_reserved": 0}, {"lon": -76.990516, "bike_id": "5d9ce82743cccb038f0f1b9515ede010", "lat": 38.88419716666667, "fusion_lon": 0.0, "fusion_lat": 0.0, "type": "electric_scooter", "name": "5d9ce82743cccb038f0f1b9515ede010", "is_disabled": 0, "rental_uris": {"ios": "https://dc.lft.to/lastmile_qr_scan", "android": "https://dc.lft.to/lastmile_qr_scan"}, "is_reserved": 0}, {"lon": -77.02686633333333, "bike_id": "0f62dc7365089ae4baff2b93e0801ccc", "lat": 38.9004235, "fusion_lon": 0.0, "fusion_lat": 0.0, "type": "electric_scooter", "name": "0f62dc7365089ae4baff2b93e0801ccc", "is_disabled": 0, "rental_uris": {"ios": "https://dc.lft.to/lastmile_qr_scan", "android": "https://dc.lft.to/lastmile_qr_scan"}, "is_reserved": 0}, {"lon": -76.948842, "bike_id": "1c98ab835985fd7f66b9916d3957aa14", "lat": 38.895149, "fusion_lon": 0.0, "fusion_lat": 0.0, "type": "electric_scooter", "name": "1c98ab835985fd7f66b9916d3957aa14", "is_disabled": 0, "rental_uris": {"ios": "https://dc.lft.to/lastmile_qr_scan", "android": "https://dc.lft.to/lastmile_qr_scan"}, "is_reserved": 0}, {"lon": -77.0586195, "bike_id": "3c051c5140436c619786ced5aaf297cc", "lat": 38.93606966666667, "fusion_lon": 0.0, "fusion_lat": 0.0, "type": "electric_scooter", "name": "3c051c5140436c619786ced5aaf297cc", "is_disabled": 0, "rental_uris": {"ios": "https://dc.lft.to/lastmile_qr_scan", "android": "https://dc.lft.to/lastmile_qr_scan"}, "is_reserved": 0}, {"lon": -76.97332433333334, "bike_id": "ac97896234810bb4b50bf1408ad80931", "lat": 38.904852, "fusion_lon": 0.0, "fusion_lat": 0.0, "type": "electric_bike", "name": "ac97896234810bb4b50bf1408ad80931", "is_disabled": 0, "rental_uris": {"ios": "https://dc.lft.to/lastmile_qr_scan", "android": "https://dc.lft.to/lastmile_qr_scan"}, "is_reserved": 0}, {"lon": -77.0339735, "bike_id": "5bf20788cc5657b0c36d2782da5b4a6c", "lat": 38.917211333333334, "fusion_lon": 0.0, "fusion_lat": 0.0, "type": "electric_scooter", "name": "5bf20788cc5657b0c36d2782da5b4a6c", "is_disabled": 0, "rental_uris": {"ios": "https://dc.lft.to/lastmile_qr_scan", "android": "https://dc.lft.to/lastmile_qr_scan"}, "is_reserved": 0}, {"lon": -77.0360695, "bike_id": "c392f9e4ef7e884404868f3d689c9810", "lat": 38.931557166666664, "fusion_lon": 0.0, "fusion_lat": 0.0, "type": "electric_scooter", "name": "c392f9e4ef7e884404868f3d689c9810", "is_disabled": 0, "rental_uris": {"ios": "https://dc.lft.to/lastmile_qr_scan", "android": "https://dc.lft.to/lastmile_qr_scan"}, "is_reserved": 0}, {"lon": -77.023483, "bike_id": "10f9e70c29ee54dafeaec5963bdee530", "lat": 38.922513, "fusion_lon": 0.0, "fusion_lat": 0.0, "type": "electric_scooter", "name": "10f9e70c29ee54dafeaec5963bdee530", "is_disabled": 0, "rental_uris": {"ios": "https://dc.lft.to/lastmile_qr_scan", "android": "https://dc.lft.to/lastmile_qr_scan"}, "is_reserved": 0}, {"lon": -76.9868895, "bike_id": "8a61d129687d1e4cf0cad9777b4f5c46", "lat": 38.912231166666665, "fusion_lon": 0.0, "fusion_lat": 0.0, "type": "electric_scooter", "name": "8a61d129687d1e4cf0cad9777b4f5c46", "is_disabled": 0, "rental_uris": {"ios": "https://dc.lft.to/lastmile_qr_scan", "android": "https://dc.lft.to/lastmile_qr_scan"}, "is_reserved": 0}, {"lon": -77.00491316666667, "bike_id": "0dd7a501effe33919ff334dcd3c4f71f", "lat": 38.90584, "fusion_lon": 0.0, "fusion_lat": 0.0, "type": "electric_scooter", "name": "0dd7a501effe33919ff334dcd3c4f71f", "is_disabled": 0, "rental_uris": {"ios": "https://dc.lft.to/lastmile_qr_scan", "android": "https://dc.lft.to/lastmile_qr_scan"}, "is_reserved": 0}, {"lon": -77.015159, "bike_id": "5bba796a976bf56ae5060c5ac2277d6a", "lat": 38.900215833333334, "fusion_lon": 0.0, "fusion_lat": 0.0, "type": "electric_scooter", "name": "5bba796a976bf56ae5060c5ac2277d6a", "is_disabled": 0, "rental_uris": {"ios": "https://dc.lft.to/lastmile_qr_scan", "android": "https://dc.lft.to/lastmile_qr_scan"}, "is_reserved": 0}, {"lon": -77.0410215, "bike_id": "7ebe70d04f820a2937d85b3d2347548e", "lat": 38.908818833333335, "fusion_lon": 0.0, "fusion_lat": 0.0, "type": "electric_scooter", "name": "7ebe70d04f820a2937d85b3d2347548e", "is_disabled": 0, "rental_uris": {"ios": "https://dc.lft.to/lastmile_qr_scan", "android": "https://dc.lft.to/lastmile_qr_scan"}, "is_reserved": 0}, {"lon": -77.014751, "bike_id": "4e99eedc5ad0887b05315b1246577c8b", "lat": 38.94068866666667, "fusion_lon": 0.0, "fusion_lat": 0.0, "type": "electric_bike", "name": "4e99eedc5ad0887b05315b1246577c8b", "is_disabled": 0, "rental_uris": {"ios": "https://dc.lft.to/lastmile_qr_scan", "android": "https://dc.lft.to/lastmile_qr_scan"}, "is_reserved": 0}, {"lon": -77.0280455, "bike_id": "df1c1f3ef96e7c96d78183bfb0fdb976", "lat": 38.91687233333333, "fusion_lon": 0.0, "fusion_lat": 0.0, "type": "electric_scooter", "name": "df1c1f3ef96e7c96d78183bfb0fdb976", "is_disabled": 0, "rental_uris": {"ios": "https://dc.lft.to/lastmile_qr_scan", "android": "https://dc.lft.to/lastmile_qr_scan"}, "is_reserved": 0}, {"lon": -77.02269966666667, "bike_id": "f3fed83326e49ae46aa3a920a37adb17", "lat": 38.937759666666665, "fusion_lon": 0.0, "fusion_lat": 0.0, "type": "electric_scooter", "name": "f3fed83326e49ae46aa3a920a37adb17", "is_disabled": 0, "rental_uris": {"ios": "https://dc.lft.to/lastmile_qr_scan", "android": "https://dc.lft.to/lastmile_qr_scan"}, "is_reserved": 0}, {"lon": -76.926216, "bike_id": "147a7aa6dc95c831b546e16c935deb1d", "lat": 38.88457533333333, "fusion_lon": 0.0, "fusion_lat": 0.0, "type": "electric_scooter", "name": "147a7aa6dc95c831b546e16c935deb1d", "is_disabled": 0, "rental_uris": {"ios": "https://dc.lft.to/lastmile_qr_scan", "android": "https://dc.lft.to/lastmile_qr_scan"}, "is_reserved": 0}, {"lon": -77.00529433333334, "bike_id": "661f26d54914d1a8f449d9c51f2441a8", "lat": 38.92980933333333, "fusion_lon": 0.0, "fusion_lat": 0.0, "type": "electric_scooter", "name": "661f26d54914d1a8f449d9c51f2441a8", "is_disabled": 0, "rental_uris": {"ios": "https://dc.lft.to/lastmile_qr_scan", "android": "https://dc.lft.to/lastmile_qr_scan"}, "is_reserved": 0}, {"lon": -77.00209183333334, "bike_id": "6193df1f8396fb6f72b7155f47325e45", "lat": 38.895420333333334, "fusion_lon": 0.0, "fusion_lat": 0.0, "type": "electric_scooter", "name": "6193df1f8396fb6f72b7155f47325e45", "is_disabled": 0, "rental_uris": {"ios": "https://dc.lft.to/lastmile_qr_scan", "android": "https://dc.lft.to/lastmile_qr_scan"}, "is_reserved": 0}, {"lon": -77.0217715, "bike_id": "98e8878efbc31fd63bf2a65cec1ac045", "lat": 38.91513466666667, "fusion_lon": 0.0, "fusion_lat": 0.0, "type": "electric_scooter", "name": "98e8878efbc31fd63bf2a65cec1ac045", "is_disabled": 0, "rental_uris": {"ios": "https://dc.lft.to/lastmile_qr_scan", "android": "https://dc.lft.to/lastmile_qr_scan"}, "is_reserved": 0}, {"lon": -77.0541835, "bike_id": "f12c28a94f4e6d597570115fc4102a15", "lat": 38.95049516666667, "fusion_lon": 0.0, "fusion_lat": 0.0, "type": "electric_scooter", "name": "f12c28a94f4e6d597570115fc4102a15", "is_disabled": 0, "rental_uris": {"ios": "https://dc.lft.to/lastmile_qr_scan", "android": "https://dc.lft.to/lastmile_qr_scan"}, "is_reserved": 0}, {"lon": -77.03178416666667, "bike_id": "dac0a78e9ff5972fde9d15da63f78852", "lat": 38.88409516666667, "fusion_lon": 0.0, "fusion_lat": 0.0, "type": "electric_scooter", "name": "dac0a78e9ff5972fde9d15da63f78852", "is_disabled": 0, "rental_uris": {"ios": "https://dc.lft.to/lastmile_qr_scan", "android": "https://dc.lft.to/lastmile_qr_scan"}, "is_reserved": 0}, {"lon": -76.98339183333333, "bike_id": "dcafc7be043fb1422c8db1066d5b7457", "lat": 38.9009895, "fusion_lon": 0.0, "fusion_lat": 0.0, "type": "electric_scooter", "name": "dcafc7be043fb1422c8db1066d5b7457", "is_disabled": 0, "rental_uris": {"ios": "https://dc.lft.to/lastmile_qr_scan", "android": "https://dc.lft.to/lastmile_qr_scan"}, "is_reserved": 0}, {"lon": -77.0203655, "bike_id": "8466a637a24a7cb0fea164eb137694b2", "lat": 38.908682166666665, "fusion_lon": 0.0, "fusion_lat": 0.0, "type": "electric_scooter", "name": "8466a637a24a7cb0fea164eb137694b2", "is_disabled": 0, "rental_uris": {"ios": "https://dc.lft.to/lastmile_qr_scan", "android": "https://dc.lft.to/lastmile_qr_scan"}, "is_reserved": 0}, {"lon": -77.0572975, "bike_id": "9adfbfedf52453759190de3e2f3052cc", "lat": 38.93371333333333, "fusion_lon": 0.0, "fusion_lat": 0.0, "type": "electric_scooter", "name": "9adfbfedf52453759190de3e2f3052cc", "is_disabled": 0, "rental_uris": {"ios": "https://dc.lft.to/lastmile_qr_scan", "android": "https://dc.lft.to/lastmile_qr_scan"}, "is_reserved": 0}, {"lon": -76.995326, "bike_id": "bfb8b29a3e35b235ff6c659d315c8584", "lat": 38.883684833333334, "fusion_lon": 0.0, "fusion_lat": 0.0, "type": "electric_scooter", "name": "bfb8b29a3e35b235ff6c659d315c8584", "is_disabled": 0, "rental_uris": {"ios": "https://dc.lft.to/lastmile_qr_scan", "android": "https://dc.lft.to/lastmile_qr_scan"}, "is_reserved": 0}, {"lon": -77.01872733333333, "bike_id": "cef8e40f67272766a4a94b367b6d1cf6", "lat": 38.9183365, "fusion_lon": 0.0, "fusion_lat": 0.0, "type": "electric_scooter", "name": "cef8e40f67272766a4a94b367b6d1cf6", "is_disabled": 0, "rental_uris": {"ios": "https://dc.lft.to/lastmile_qr_scan", "android": "https://dc.lft.to/lastmile_qr_scan"}, "is_reserved": 0}, {"lon": -76.98229716666667, "bike_id": "8e5f3870db6ee191dadbfc99eba945b1", "lat": 38.886472166666664, "fusion_lon": 0.0, "fusion_lat": 0.0, "type": "electric_scooter", "name": "8e5f3870db6ee191dadbfc99eba945b1", "is_disabled": 0, "rental_uris": {"ios": "https://dc.lft.to/lastmile_qr_scan", "android": "https://dc.lft.to/lastmile_qr_scan"}, "is_reserved": 0}, {"lon": -77.04338533333333, "bike_id": "af066eb8d228de7ecf7477a1f7d5c13c", "lat": 38.92220866666667, "fusion_lon": 0.0, "fusion_lat": 0.0, "type": "electric_scooter", "name": "af066eb8d228de7ecf7477a1f7d5c13c", "is_disabled": 0, "rental_uris": {"ios": "https://dc.lft.to/lastmile_qr_scan", "android": "https://dc.lft.to/lastmile_qr_scan"}, "is_reserved": 0}, {"lon": -77.000602, "bike_id": "6a1ae41403aa749ac1adc5cc1bf9cc4c", "lat": 38.89499, "fusion_lon": 0.0, "fusion_lat": 0.0, "type": "electric_scooter", "name": "6a1ae41403aa749ac1adc5cc1bf9cc4c", "is_disabled": 0, "rental_uris": {"ios": "https://dc.lft.to/lastmile_qr_scan", "android": "https://dc.lft.to/lastmile_qr_scan"}, "is_reserved": 0}, {"lon": -77.0440955, "bike_id": "2cbfa8ef498f26648bde597b5996d7e1", "lat": 38.92135566666666, "fusion_lon": 0.0, "fusion_lat": 0.0, "type": "electric_scooter", "name": "2cbfa8ef498f26648bde597b5996d7e1", "is_disabled": 0, "rental_uris": {"ios": "https://dc.lft.to/lastmile_qr_scan", "android": "https://dc.lft.to/lastmile_qr_scan"}, "is_reserved": 0}, {"lon": -77.10486333333333, "bike_id": "df585146c4cb1fc5c10eb477fdda8d0c", "lat": 38.85604383333333, "fusion_lon": 0.0, "fusion_lat": 0.0, "type": "electric_bike", "name": "df585146c4cb1fc5c10eb477fdda8d0c", "is_disabled": 0, "rental_uris": {"ios": "https://dc.lft.to/lastmile_qr_scan", "android": "https://dc.lft.to/lastmile_qr_scan"}, "is_reserved": 0}, {"lon": -77.03762083333334, "bike_id": "3bc32ee04463a70b8d15361f1f2addbc", "lat": 38.90786333333333, "fusion_lon": 0.0, "fusion_lat": 0.0, "type": "electric_scooter", "name": "3bc32ee04463a70b8d15361f1f2addbc", "is_disabled": 0, "rental_uris": {"ios": "https://dc.lft.to/lastmile_qr_scan", "android": "https://dc.lft.to/lastmile_qr_scan"}, "is_reserved": 0}, {"lon": -77.0427285, "bike_id": "3aec217de7df1ffe3768b3b64f095072", "lat": 38.9073865, "fusion_lon": 0.0, "fusion_lat": 0.0, "type": "electric_scooter", "name": "3aec217de7df1ffe3768b3b64f095072", "is_disabled": 0, "rental_uris": {"ios": "https://dc.lft.to/lastmile_qr_scan", "android": "https://dc.lft.to/lastmile_qr_scan"}, "is_reserved": 0}, {"lon": -77.051559, "bike_id": "1b4e8b74e6d637b472631fd9a12ce1ce", "lat": 39.043232833333334, "fusion_lon": 0.0, "fusion_lat": 0.0, "type": "electric_bike", "name": "1b4e8b74e6d637b472631fd9a12ce1ce", "is_disabled": 0, "rental_uris": {"ios": "https://dc.lft.to/lastmile_qr_scan", "android": "https://dc.lft.to/lastmile_qr_scan"}, "is_reserved": 0}, {"lon": -77.047553, "bike_id": "f5654848935e9b9d296fd42257b3b79a", "lat": 38.905433333333335, "fusion_lon": 0.0, "fusion_lat": 0.0, "type": "electric_scooter", "name": "f5654848935e9b9d296fd42257b3b79a", "is_disabled": 0, "rental_uris": {"ios": "https://dc.lft.to/lastmile_qr_scan", "android": "https://dc.lft.to/lastmile_qr_scan"}, "is_reserved": 0}, {"lon": -77.0317795, "bike_id": "c524dc34ec69e4cd72d3c29badcb9190", "lat": 38.93691783333333, "fusion_lon": 0.0, "fusion_lat": 0.0, "type": "electric_scooter", "name": "c524dc34ec69e4cd72d3c29badcb9190", "is_disabled": 0, "rental_uris": {"ios": "https://dc.lft.to/lastmile_qr_scan", "android": "https://dc.lft.to/lastmile_qr_scan"}, "is_reserved": 0}, {"lon": -77.0120695, "bike_id": "b2dd8f69d43c0bfa35bc19219960ec4c", "lat": 38.921224333333335, "fusion_lon": 0.0, "fusion_lat": 0.0, "type": "electric_scooter", "name": "b2dd8f69d43c0bfa35bc19219960ec4c", "is_disabled": 0, "rental_uris": {"ios": "https://dc.lft.to/lastmile_qr_scan", "android": "https://dc.lft.to/lastmile_qr_scan"}, "is_reserved": 0}, {"lon": -77.05693716666667, "bike_id": "e12c78fef13446147a021d94f6c2207c", "lat": 38.93721166666667, "fusion_lon": 0.0, "fusion_lat": 0.0, "type": "electric_scooter", "name": "e12c78fef13446147a021d94f6c2207c", "is_disabled": 0, "rental_uris": {"ios": "https://dc.lft.to/lastmile_qr_scan", "android": "https://dc.lft.to/lastmile_qr_scan"}, "is_reserved": 0}, {"lon": -77.00620416666666, "bike_id": "18bbaacf20f81dc5bb6501d9ef7fc46e", "lat": 38.9126235, "fusion_lon": 0.0, "fusion_lat": 0.0, "type": "electric_scooter", "name": "18bbaacf20f81dc5bb6501d9ef7fc46e", "is_disabled": 0, "rental_uris": {"ios": "https://dc.lft.to/lastmile_qr_scan", "android": "https://dc.lft.to/lastmile_qr_scan"}, "is_reserved": 0}, {"lon": -76.93002583333333, "bike_id": "2f1efe61850ff4fff8cb2da6de113c5f", "lat": 38.89197766666667, "fusion_lon": 0.0, "fusion_lat": 0.0, "type": "electric_scooter", "name": "2f1efe61850ff4fff8cb2da6de113c5f", "is_disabled": 0, "rental_uris": {"ios": "https://dc.lft.to/lastmile_qr_scan", "android": "https://dc.lft.to/lastmile_qr_scan"}, "is_reserved": 0}, {"lon": -76.97537183333333, "bike_id": "e7d154b83de45ab6df011b7783d7f85c", "lat": 38.8642705, "fusion_lon": 0.0, "fusion_lat": 0.0, "type": "electric_scooter", "name": "e7d154b83de45ab6df011b7783d7f85c", "is_disabled": 0, "rental_uris": {"ios": "https://dc.lft.to/lastmile_qr_scan", "android": "https://dc.lft.to/lastmile_qr_scan"}, "is_reserved": 0}, {"lon": -77.0759245, "bike_id": "9d4fee46bd8b4d7d27df6813b53b3d72", "lat": 38.912194166666666, "fusion_lon": 0.0, "fusion_lat": 0.0, "type": "electric_scooter", "name": "9d4fee46bd8b4d7d27df6813b53b3d72", "is_disabled": 0, "rental_uris": {"ios": "https://dc.lft.to/lastmile_qr_scan", "android": "https://dc.lft.to/lastmile_qr_scan"}, "is_reserved": 0},