{"data": {"bikes": [{"name": "06cd256f5dbe92adeec36add3542320b", "fusion_lat": 0.0, "type": "electric_scooter", "lat": 38.916988833333335, "is_reserved": 0, "is_disabled": 0, "fusion_lon": 0.0, "bike_id": "06cd256f5dbe92adeec36add3542320b", "lon": -77.03147366666667, "rental_uris": {"ios": "https://dc.lft.to/lastmile_qr_scan", "android": "https://dc.lft.to/lastmile_qr_scan"}}, {"name": "c0db479f247370ef9633dcbd6d790f5d", "fusion_lat": 0.0, "type": "electric_scooter", "lat": 38.911382, "is_reserved": 0, "is_disabled": 0, "fusion_lon": 0.0, "bike_id": "c0db479f247370ef9633dcbd6d790f5d", "lon": -77.01982, "rental_uris": {"ios": "https://dc.lft.to/lastmile_qr_scan", "android": "https://dc.lft.to/lastmile_qr_scan"}}, {"name": "38181575b65ad4c3ba41ea4afc1b08a2", "fusion_lat": 0.0, "type": "electric_scooter", "lat": 38.900482333333336, "is_reserved": 0, "is_disabled": 0, "fusion_lon": 0.0, "bike_id": "38181575b65ad4c3ba41ea4afc1b08a2", "lon": -77.02972783333334, "rental_uris": {"ios": "https://dc.lft.to/lastmile_qr_scan", "android": "https://dc.lft.to/lastmile_qr_scan"}}, {"name": "30c37dcb1bdf6751ebd00fa45369bc91", "fusion_lat": 0.0, "type": "electric_scooter", "lat": 38.94119166666667, "is_reserved": 0, "is_disabled": 0, "fusion_lon": 0.0, "bike_id": "30c37dcb1bdf6751ebd00fa45369bc91", "lon": -77.01796783333333, "rental_uris": {"ios": "https://dc.lft.to/lastmile_qr_scan", "android": "https://dc.lft.to/lastmile_qr_scan"}}, {"name": "6c212fe1e4b37774b5d363e243d22407", "fusion_lat": 0.0, "type": "electric_bike", "lat": 38.834391, "is_reserved": 0, "is_disabled": 0, "fusion_lon": 0.0, "bike_id": "6c212fe1e4b37774b5d363e243d22407", "lon": -77.008234, "rental_uris": {"ios": "https://dc.lft.to/lastmile_qr_scan", "android": "https://dc.lft.to/lastmile_qr_scan"}}, {"name": "73770c3f7d1253d31d66ba43e483457f", "fusion_lat": 0.0, "type": "electric_bike", "lat": 38.869098666666666, "is_reserved": 0, "is_disabled": 0, "fusion_lon": 0.0, "bike_id": "73770c3f7d1253d31d66ba43e483457f", "lon": -77.131818, "rental_uris": {"ios": "https://dc.lft.to/lastmile_qr_scan", "android": "https://dc.lft.to/lastmile_qr_scan"}}, {"name": "c248616a6ce4897ca586225d24aac9e5", "fusion_lat": 0.0, "type": "electric_scooter", "lat": 38.909739, "is_reserved": 0, "is_disabled": 0, "fusion_lon": 0.0, "bike_id": "c248616a6ce4897ca586225d24aac9e5", "lon": -77.02180866666667, "rental_uris": {"ios": "https://dc.lft.to/lastmile_qr_scan", "android": "https://dc.lft.to/lastmile_qr_scan"}}, {"name": "56be9bf3dd26f42a4d017bbc7e7159fe", "fusion_lat": 0.0, "type": "electric_bike", "lat": 38.919267, "is_reserved": 0, "is_disabled": 0, "fusion_lon": 0.0, "bike_id": "56be9bf3dd26f42a4d017bbc7e7159fe", "lon": -77.0459335, "rental_uris": {"ios": "https://dc.lft.to/lastmile_qr_scan", "android": "https://dc.lft.to/lastmile_qr_scan"}}, {"name": "1ea38c244ee50090cadc7784a221a4e0", "fusion_lat": 0.0, "type": "electric_bike", "lat": 38.92453283333333, "is_reserved": 0, "is_disabled": 0, "fusion_lon": 0.0, "bike_id": "1ea38c244ee50090cadc7784a221a4e0", "lon": -76.99043216666666, "rental_uris": {"ios": "https://dc.lft.to/lastmile_qr_scan", "android": "https://dc.lft.to/lastmile_qr_scan"}}, {"name": "c34adb42b3c5b17740ceac5d9220185c", "fusion_lat": 0.0, "type": "electric_scooter", "lat": 38.87622483333333, "is_reserved": 0, "is_disabled": 0, "fusion_lon": 0.0, "bike_id": "c34adb42b3c5b17740ceac5d9220185c", "lon": -77.00755116666667, "rental_uris": {"ios": "https://dc.lft.to/lastmile_qr_scan", "android": "https://dc.lft.to/lastmile_qr_scan"}}, {"name": "cdd181aef811ff1b65a6b52b4ef9fce4", "fusion_lat": 0.0, "type": "electric_scooter", "lat": 38.89360083333333, "is_reserved": 0, "is_disabled": 0, "fusion_lon": 0.0, "bike_id": "cdd181aef811ff1b65a6b52b4ef9fce4", "lon": -76.9498755, "rental_uris": {"ios": "https://dc.lft.to/lastmile_qr_scan", "android": "https://dc.lft.to/lastmile_qr_scan"}}, {"name": "84cbbc4c90be103f7197cce6f33d98fc", "fusion_lat": 0.0, "type": "electric_scooter", "lat": 38.910487833333335, "is_reserved": 0, "is_disabled": 0, "fusion_lon": 0.0, "bike_id": "84cbbc4c90be103f7197cce6f33d98fc", "lon": -77.04236316666666, "rental_uris": {"ios": "https://dc.lft.to/lastmile_qr_scan", "android": "https://dc.lft.to/lastmile_qr_scan"}}, {"name": "2a695ea57e3f67d4da87876ec6129217", "fusion_lat": 0.0, "type": "electric_scooter", "lat": 38.91818716666667, "is_reserved": 0, "is_disabled": 0, "fusion_lon": 0.0, "bike_id": "2a695ea57e3f67d4da87876ec6129217", "lon": -77.027963, "rental_uris": {"ios": "https://dc.lft.to/lastmile_qr_scan", "android": "https://dc.lft.to/lastmile_qr_scan"}}, {"name": "925afc7945c6a72606184ffe72599153", "fusion_lat": 0.0, "type": "electric_scooter", "lat": 38.900582, "is_reserved": 0, "is_disabled": 0, "fusion_lon": 0.0, "bike_id": "925afc7945c6a72606184ffe72599153", "lon": -77.033784, "rental_uris": {"ios": "https://dc.lft.to/lastmile_qr_scan", "android": "https://dc.lft.to/lastmile_qr_scan"}}, {"name": "6b62774ab6dfaa1d03332cd3ffafcffe", "fusion_lat": 0.0, "type": "electric_scooter", "lat": 38.844359, "is_reserved": 0, "is_disabled": 0, "fusion_lon": 0.0, "bike_id": "6b62774ab6dfaa1d03332cd3ffafcffe", "lon": -76.99721666666667, "rental_uris": {"ios": "https://dc.lft.to/lastmile_qr_scan", "android": "https://dc.lft.to/lastmile_qr_scan"}}, {"name": "be3c93edec7e3d7683fee343e03a854d", "fusion_lat": 0.0, "type": "electric_scooter", "lat": 38.906912166666665, "is_reserved": 0, "is_disabled": 0, "fusion_lon": 0.0, "bike_id": "be3c93edec7e3d7683fee343e03a854d", "lon": -77.024017, "rental_uris": {"ios": "https://dc.lft.to/lastmile_qr_scan", "android": "https://dc.lft.to/lastmile_qr_scan"}}, {"name": "43b0e324ed6935cb3855f583659f245e", "fusion_lat": 0.0, "type": "electric_scooter", "lat": 38.91703, "is_reserved": 0, "is_disabled": 0, "fusion_lon": 0.0, "bike_id": "43b0e324ed6935cb3855f583659f245e", "lon": -77.03215316666666, "rental_uris": {"ios": "https://dc.lft.to/lastmile_qr_scan", "android": "https://dc.lft.to/lastmile_qr_scan"}}, {"name": "4e5278097fad9f12a04739a2bfe1f98a", "fusion_lat": 0.0, "type": "electric_scooter", "lat": 38.90215766666667, "is_reserved": 0, "is_disabled": 0, "fusion_lon": 0.0, "bike_id": "4e5278097fad9f12a04739a2bfe1f98a", "lon": -77.05123633333334, "rental_uris": {"ios": "https://dc.lft.to/lastmile_qr_scan", "android": "https://dc.lft.to/lastmile_qr_scan"}}, {"name": "25295ffbba4f488702fa773cfea2d130", "fusion_lat": 0.0, "type": "electric_scooter", "lat": 38.93150216666667, "is_reserved": 0, "is_disabled": 0, "fusion_lon": 0.0, "bike_id": "25295ffbba4f488702fa773cfea2d130", "lon": -77.02968866666667, "rental_uris": {"ios": "https://dc.lft.to/lastmile_qr_scan", "android": "https://dc.lft.to/lastmile_qr_scan"}}, {"name": "1b66e1d6ff6108330a620140115a708e", "fusion_lat": 0.0, "type": "electric_scooter", "lat": 38.9306445, "is_reserved": 0, "is_disabled": 0, "fusion_lon": 0.0, "bike_id": "1b66e1d6ff6108330a620140115a708e", "lon": -77.03958433333334, "rental_uris": {"ios": "https://dc.lft.to/lastmile_qr_scan", "android": "https://dc.lft.to/lastmile_qr_scan"}}, {"name": "5933b3f1217cbe967022df9e470caf51", "fusion_lat": 0.0, "type": "electric_scooter", "lat": 38.9030285, "is_reserved": 0, "is_disabled": 0, "fusion_lon": 0.0, "bike_id": "5933b3f1217cbe967022df9e470caf51", "lon": -77.04204766666666, "rental_uris": {"ios": "https://dc.lft.to/lastmile_qr_scan", "android": "https://dc.lft.to/lastmile_qr_scan"}}, {"name": "64eeea456d7dbb8a308a98d9facec9f5", "fusion_lat": 0.0, "type": "electric_scooter", "lat": 38.91334766666667, "is_reserved": 0, "is_disabled": 0, "fusion_lon": 0.0, "bike_id": "64eeea456d7dbb8a308a98d9facec9f5", "lon": -77.0312225, "rental_uris": {"ios": "https://dc.lft.to/lastmile_qr_scan", "android": "https://dc.lft.to/lastmile_qr_scan"}}, {"name": "ccd0aaed55a7139f82a7f530ab812d33", "fusion_lat": 0.0, "type": "electric_scooter", "lat": 38.89609566666667, "is_reserved": 0, "is_disabled": 0, "fusion_lon": 0.0, "bike_id": "ccd0aaed55a7139f82a7f530ab812d33", "lon": -77.0468305, "rental_uris": {"ios": "https://dc.lft.to/lastmile_qr_scan", "android": "https://dc.lft.to/lastmile_qr_scan"}}, {"name": "4e5c7d4235791f1608cf6a4a53c7d9d3", "fusion_lat": 0.0, "type": "electric_bike", "lat": 38.96835983333333, "is_reserved": 0, "is_disabled": 0, "fusion_lon": 0.0, "bike_id": "4e5c7d4235791f1608cf6a4a53c7d9d3", "lon": -77.0333335, "rental_uris": {"ios": "https://dc.lft.to/lastmile_qr_scan", "android": "https://dc.lft.to/lastmile_qr_scan"}}, {"name": "6c1b322a85c587b8d8eeda8c4f996fa6", "fusion_lat": 0.0, "type": "electric_scooter", "lat": 38.9007765, "is_reserved": 0, "is_disabled": 0, "fusion_lon": 0.0, "bike_id": "6c1b322a85c587b8d8eeda8c4f996fa6", "lon": -77.051961, "rental_uris": {"ios": "https://dc.lft.to/lastmile_qr_scan", "android": "https://dc.lft.to/lastmile_qr_scan"}}, {"name": "554c636f122a81df76ec1b5d9e746d6c", "fusion_lat": 0.0, "type": "electric_scooter", "lat": 38.91770316666667, "is_reserved": 0, "is_disabled": 0, "fusion_lon": 0.0, "bike_id": "554c636f122a81df76ec1b5d9e746d6c", "lon": -77.02957566666667, "rental_uris": {"ios": "https://dc.lft.to/lastmile_qr_scan", "android": "https://dc.lft.to/lastmile_qr_scan"}}, {"name": "50e7614aefbd6dcf9a331775560bafad", "fusion_lat": 0.0, "type": "electric_scooter", "lat": 38.89555083333333, "is_reserved": 0, "is_disabled": 0, "fusion_lon": 0.0, "bike_id": "50e7614aefbd6dcf9a331775560bafad", "lon": -77.01092016666666, "rental_uris": {"ios": "https://dc.lft.to/lastmile_qr_scan", "android": "https://dc.lft.to/lastmile_qr_scan"}}, {"name": "77540b0ba4fd99b90f3c421c547b72d6", "fusion_lat": 0.0, "type": "electric_scooter", "lat": 38.87495933333334, "is_reserved": 0, "is_disabled": 0, "fusion_lon": 0.0, "bike_id": "77540b0ba4fd99b90f3c421c547b72d6", "lon": -77.00174133333333, "rental_uris": {"ios": "https://dc.lft.to/lastmile_qr_scan", "android": "https://dc.lft.to/lastmile_qr_scan"}}, {"name": "c1d8a7c77996cf5289f3c50e3d3461f7", "fusion_lat": 0.0, "type": "electric_scooter", "lat": 38.898926833333334, "is_reserved": 0, "is_disabled": 0, "fusion_lon": 0.0, "bike_id": "c1d8a7c77996cf5289f3c50e3d3461f7", "lon": -77.0394165, "rental_uris": {"ios": "https://dc.lft.to/lastmile_qr_scan", "android": "https://dc.lft.to/lastmile_qr_scan"}}, {"name": "81201dde41499202b40939a797ffd8cf", "fusion_lat": 0.0, "type": "electric_scooter", "lat": 38.91218466666667, "is_reserved": 0, "is_disabled": 0, "fusion_lon": 0.0, "bike_id": "81201dde41499202b40939a797ffd8cf", "lon": -77.04502916666667, "rental_uris": {"ios": "https://dc.lft.to/lastmile_qr_scan", "android": "https://dc.lft.to/lastmile_qr_scan"}}, {"name": "4356e5307c49a860d60c29d2ab406ea6", "fusion_lat": 0.0, "type": "electric_scooter", "lat": 38.93208283333333, "is_reserved": 0, "is_disabled": 0, "fusion_lon": 0.0, "bike_id": "4356e5307c49a860d60c29d2ab406ea6", "lon": -77.02739816666667, "rental_uris": {"ios": "https://dc.lft.to/lastmile_qr_scan", "android": "https://dc.lft.to/lastmile_qr_scan"}}, {"name": "895a93d6786a8c470c32a0376558f5cf", "fusion_lat": 0.0, "type": "electric_scooter", "lat": 38.899521, "is_reserved": 0, "is_disabled": 0, "fusion_lon": 0.0, "bike_id": "895a93d6786a8c470c32a0376558f5cf", "lon": -77.03114666666667, "rental_uris": {"ios": "https://dc.lft.to/lastmile_qr_scan", "android": "https://dc.lft.to/lastmile_qr_scan"}}, {"name": "840edf317a1133c6d22d6714e00057fd", "fusion_lat": 0.0, "type": "electric_scooter", "lat": 38.90797083333333, "is_reserved": 0, "is_disabled": 0, "fusion_lon": 0.0, "bike_id": "840edf317a1133c6d22d6714e00057fd", "lon": -77.048147, "rental_uris": {"ios": "https://dc.lft.to/lastmile_qr_scan", "android": "https://dc.lft.to/lastmile_qr_scan"}}, {"name": "356256df02f7a85de56596f41954307a", "fusion_lat": 0.0, "type": "electric_scooter", "lat": 38.9210805, "is_reserved": 0, "is_disabled": 0, "fusion_lon": 0.0, "bike_id": "356256df02f7a85de56596f41954307a", "lon": -77.03178183333333, "rental_uris": {"ios": "https://dc.lft.to/lastmile_qr_scan", "android": "https://dc.lft.to/lastmile_qr_scan"}}, {"name": "746f27a5b53621543f6718b0a01553fc", "fusion_lat": 0.0, "type": "electric_scooter", "lat": 38.87804233333333, "is_reserved": 0, "is_disabled": 0, "fusion_lon": 0.0, "bike_id": "746f27a5b53621543f6718b0a01553fc", "lon": -77.00558, "rental_uris": {"ios": "https://dc.lft.to/lastmile_qr_scan", "android": "https://dc.lft.to/lastmile_qr_scan"}}, {"name": "1c68fd29b5283c6507195994675bf323", "fusion_lat": 0.0, "type": "electric_scooter", "lat": 38.89739633333333, "is_reserved": 0, "is_disabled": 0, "fusion_lon": 0.0, "bike_id": "1c68fd29b5283c6507195994675bf323", "lon": -76.94254483333333, "rental_uris": {"ios": "https://dc.lft.to/lastmile_qr_scan", "android": "https://dc.lft.to/lastmile_qr_scan"}}, {"name": "16500dc8f950855a32070f0378cc5465", "fusion_lat": 0.0, "type": "electric_scooter", "lat": 38.917205333333335, "is_reserved": 0, "is_disabled": 0, "fusion_lon": 0.0, "bike_id": "16500dc8f950855a32070f0378cc5465", "lon": -77.02908383333333, "rental_uris": {"ios": "https://dc.lft.to/lastmile_qr_scan", "android": "https://dc.lft.to/lastmile_qr_scan"}}, {"name": "44966f643c906db5488d8b83d39b2f54", "fusion_lat": 0.0, "type": "electric_scooter", "lat": 38.91992333333334, "is_reserved": 0, "is_disabled": 0, "fusion_lon": 0.0, "bike_id": "44966f643c906db5488d8b83d39b2f54", "lon": -76.973055, "rental_uris": {"ios": "https://dc.lft.to/lastmile_qr_scan", "android": "https://dc.lft.to/lastmile_qr_scan"}}, {"name": "2d6da40b0001c121287fd8ee515254ee", "fusion_lat": 0.0, "type": "electric_bike", "lat": 38.93251383333333, "is_reserved": 0, "is_disabled": 0, "fusion_lon": 0.0, "bike_id": "2d6da40b0001c121287fd8ee515254ee", "lon": -77.0665815, "rental_uris": {"ios": "https://dc.lft.to/lastmile_qr_scan", "android": "https://dc.lft.to/lastmile_qr_scan"}}, {"name": "28f32522c6220b1de1b0610490030c99", "fusion_lat": 0.0, "type": "electric_scooter", "lat": 38.8637315, "is_reserved": 0, "is_disabled": 0, "fusion_lon": 0.0, "bike_id": "28f32522c6220b1de1b0610490030c99", "lon": -77.01367133333333, "rental_uris": {"ios": "https://dc.lft.to/lastmile_qr_scan", "android": "https://dc.lft.to/lastmile_qr_scan"}}, {"name": "1be6ffadaec5899b573a49b3fb0dec69", "fusion_lat": 0.0, "type": "electric_scooter", "lat": 38.93237116666667, "is_reserved": 0, "is_disabled": 0, "fusion_lon": 0.0, "bike_id": "1be6ffadaec5899b573a49b3fb0dec69", "lon": -77.0358965, "rental_uris": {"ios": "https://dc.lft.to/lastmile_qr_scan", "android": "https://dc.lft.to/lastmile_qr_scan"}}, {"name": "b39e0b5a06c7f8b2b0667ccd5c46e6b3", "fusion_lat": 0.0, "type": "electric_bike", "lat": 38.92110483333333, "is_reserved": 0, "is_disabled": 0, "fusion_lon": 0.0, "bike_id": "b39e0b5a06c7f8b2b0667ccd5c46e6b3", "lon": -77.0633115, "rental_uris": {"ios": "https://dc.lft.to/lastmile_qr_scan", "android": "https://dc.lft.to/lastmile_qr_scan"}}, {"name": "d16065dfbd427cc2287453dba74587d8", "fusion_lat": 0.0, "type": "electric_scooter", "lat": 38.94291466666667, "is_reserved": 0, "is_disabled": 0, "fusion_lon": 0.0, "bike_id": "d16065dfbd427cc2287453dba74587d8", "lon": -77.0217735, "rental_uris": {"ios": "https://dc.lft.to/lastmile_qr_scan", "android": "https://dc.lft.to/lastmile_qr_scan"}}, {"name": "12f9c8a2b1b86ee81835634ff8c8f32f", "fusion_lat": 0.0, "type": "electric_scooter", "lat": 38.930081, "is_reserved": 0, "is_disabled": 0, "fusion_lon": 0.0, "bike_id": "12f9c8a2b1b86ee81835634ff8c8f32f", "lon": -77.023097, "rental_uris": {"ios": "https://dc.lft.to/lastmile_qr_scan", "android": "https://dc.lft.to/lastmile_qr_scan"}}, {"name": "59c48ac124406a9739352dbc4d04ecf5", "fusion_lat": 0.0, "type": "electric_scooter", "lat": 38.91873916666667, "is_reserved": 0, "is_disabled": 0, "fusion_lon": 0.0, "bike_id": "59c48ac124406a9739352dbc4d04ecf5", "lon": -77.07347516666667, "rental_uris": {"ios": "https://dc.lft.to/lastmile_qr_scan", "android": "https://dc.lft.to/lastmile_qr_scan"}}, {"name": "c0daa5d83548ccf70cd2f5733eac18c1", "fusion_lat": 0.0, "type": "electric_scooter", "lat": 38.92648883333333, "is_reserved": 0, "is_disabled": 0, "fusion_lon": 0.0, "bike_id": "c0daa5d83548ccf70cd2f5733eac18c1", "lon": -77.0332425, "rental_uris": {"ios": "https://dc.lft.to/lastmile_qr_scan", "android": "https://dc.lft.to/lastmile_qr_scan"}}, {"name": "c6addc039fa13b6ed8ccc634364add10", "fusion_lat": 0.0, "type": "electric_bike", "lat": 38.8707055, "is_reserved": 0, "is_disabled": 0, "fusion_lon": 0.0, "bike_id": "c6addc039fa13b6ed8ccc634364add10", "lon": -77.11066916666667, "rental_uris": {"ios": "https://dc.lft.to/lastmile_qr_scan", "android": "https://dc.lft.to/lastmile_qr_scan"}}, {"name": "7b29fa64ab16a87fd09b6d5fd6b3c736", "fusion_lat": 0.0, "type": "electric_scooter", "lat": 38.91565966666667, "is_reserved": 0, "is_disabled": 0, "fusion_lon": 0.0, "bike_id": "7b29fa64ab16a87fd09b6d5fd6b3c736", "lon": -77.0323425, "rental_uris": {"ios": "https://dc.lft.to/lastmile_qr_scan", "android": "https://dc.lft.to/lastmile_qr_scan"}}, {"name": "0e1a3292067066c2d477cffe229e632a", "fusion_lat": 0.0, "type": "electric_scooter", "lat": 38.887667666666665, "is_reserved": 0, "is_disabled": 0, "fusion_lon": 0.0, "bike_id": "0e1a3292067066c2d477cffe229e632a", "lon": -76.98022733333333, "rental_uris": {"ios": "https://dc.lft.to/lastmile_qr_scan", "android": "https://dc.lft.to/lastmile_qr_scan"}}, {"name": "f08b172f532066f6f406ac7998c8d2de", "fusion_lat": 0.0, "type": "electric_bike", "lat": 38.906886, "is_reserved": 0, "is_disabled": 0, "fusion_lon": 0.0, "bike_id": "f08b172f532066f6f406ac7998c8d2de", "lon": -77.06369283333333, "rental_uris": {"ios": "https://dc.lft.to/lastmile_qr_scan", "android": "https://dc.lft.to/lastmile_qr_scan"}}, {"name": "4f883e686ae68341adbc8143c96687ce", "fusion_lat": 0.0, "type": "electric_bike", "lat": 38.91563566666667, "is_reserved": 0, "is_disabled": 0, "fusion_lon": 0.0, "bike_id": "4f883e686ae68341adbc8143c96687ce", "lon": -76.98354183333333, "rental_uris": {"ios": "https://dc.lft.to/lastmile_qr_scan", "android": "https://dc.lft.to/lastmile_qr_scan"}}, {"name": "cbab0d3afec844f326ef0ef7550e2990", "fusion_lat": 0.0, "type": "electric_bike", "lat": 38.96501933333333, "is_reserved": 0, "is_disabled": 0, "fusion_lon": 0.0, "bike_id": "cbab0d3afec844f326ef0ef7550e2990", "lon": -77.02827583333334, "rental_uris": {"ios": "https://dc.lft.to/lastmile_qr_scan", "android": "https://dc.lft.to/lastmile_qr_scan"}}, {"name": "4126833ffaef77d859c3d2375e213000", "fusion_lat": 0.0, "type": "electric_scooter", "lat": 38.917658833333334, "is_reserved": 0, "is_disabled": 0, "fusion_lon": 0.0, "bike_id": "4126833ffaef77d859c3d2375e213000", "lon": -77.01760266666666, "rental_uris": {"ios": "https://dc.lft.to/lastmile_qr_scan", "android": "https://dc.lft.to/lastmile_qr_scan"}}, {"name": "aa858218083b580e956fb0b3842e9f5d", "fusion_lat": 0.0, "type": "electric_scooter", "lat": 38.905877, "is_reserved": 0, "is_disabled": 0, "fusion_lon": 0.0, "bike_id": "aa858218083b580e956fb0b3842e9f5d", "lon": -77.034244, "rental_uris": {"ios": "https://dc.lft.to/lastmile_qr_scan", "android": "https://dc.lft.to/lastmile_qr_scan"}}, {"name": "e7b10c9e8fbd11fa496e174125acb928", "fusion_lat": 0.0, "type": "electric_scooter", "lat": 38.877523333333336, "is_reserved": 0, "is_disabled": 0, "fusion_lon": 0.0, "bike_id": "e7b10c9e8fbd11fa496e174125acb928", "lon": -76.97239833333333, "rental_uris": {"ios": "https://dc.lft.to/lastmile_qr_scan", "android": "https://dc.lft.to/lastmile_qr_scan"}}, {"name": "ab090b8810d064715bb1af8bec5893d0", "fusion_lat": 0.0, "type": "electric_scooter", "lat": 38.897352833333336, "is_reserved": 0, "is_disabled": 0, "fusion_lon": 0.0, "bike_id": "ab090b8810d064715bb1af8bec5893d0", "lon": -77.0472835, "rental_uris": {"ios": "https://dc.lft.to/lastmile_qr_scan", "android": "https://dc.lft.to/lastmile_qr_scan"}}, {"name": "13fb22341a4524f5da8520618748deb5", "fusion_lat": 0.0, "type": "electric_scooter", "lat": 38.88995283333333, "is_reserved": 0, "is_disabled": 0, "fusion_lon": 0.0, "bike_id": "13fb22341a4524f5da8520618748deb5", "lon": -77.00111183333334, "rental_uris": {"ios": "https://dc.lft.to/lastmile_qr_scan", "android": "https://dc.lft.to/lastmile_qr_scan"}}, {"name": "cec4f6b608362db1509e410a65ae527f", "fusion_lat": 0.0, "type": "electric_scooter", "lat": 38.948383666666665, "is_reserved": 0, "is_disabled": 0, "fusion_lon": 0.0, "bike_id": "cec4f6b608362db1509e410a65ae527f", "lon": -77.025508, "rental_uris": {"ios": "https://dc.lft.to/lastmile_qr_scan", "android": "https://dc.lft.to/lastmile_qr_scan"}}, {"name": "e631f7e62d78e321ac53524324ee112d", "fusion_lat": 0.0, "type": "electric_scooter", "lat": 38.878936833333334, "is_reserved": 0, "is_disabled": 0, "fusion_lon": 0.0, "bike_id": "e631f7e62d78e321ac53524324ee112d", "lon": -77.00557666666667, "rental_uris": {"ios": "https://dc.lft.to/lastmile_qr_scan", "android": "https://dc.lft.to/lastmile_qr_scan"}}, {"name": "b559734f7a4e32cfcd6e12ef80329f7e", "fusion_lat": 0.0, "type": "electric_scooter", "lat": 38.916998166666666, "is_reserved": 0, "is_disabled": 0, "fusion_lon": 0.0, "bike_id": "b559734f7a4e32cfcd6e12ef80329f7e", "lon": -77.01261083333333, "rental_uris": {"ios": "https://dc.lft.to/lastmile_qr_scan", "android": "https://dc.lft.to/lastmile_qr_scan"}}, {"name": "1a37e510330eae3a5c33923b63073a00", "fusion_lat": 0.0, "type": "electric_scooter", "lat": 38.9037985, "is_reserved": 0, "is_disabled": 0, "fusion_lon": 0.0, "bike_id": "1a37e510330eae3a5c33923b63073a00", "lon": -77.04905683333334, "rental_uris": {"ios": "https://dc.lft.to/lastmile_qr_scan", "android": "https://dc.lft.to/lastmile_qr_scan"}}, {"name": "78f1db752c70948ceebc8845662f9ced", "fusion_lat": 0.0, "type": "electric_scooter", "lat": 38.916874666666665, "is_reserved": 0, "is_disabled": 0, "fusion_lon": 0.0, "bike_id": "78f1db752c70948ceebc8845662f9ced", "lon": -77.02978016666667, "rental_uris": {"ios": "https://dc.lft.to/lastmile_qr_scan", "android": "https://dc.lft.to/lastmile_qr_scan"}}, {"name": "bc1e4225c70fcf0068adcabf947c48a3", "fusion_lat": 0.0, "type": "electric_scooter", "lat": 38.90142933333333, "is_reserved": 0, "is_disabled": 0, "fusion_lon": 0.0, "bike_id": "bc1e4225c70fcf0068adcabf947c48a3", "lon": -76.98952283333334, "rental_uris": {"ios": "https://dc.lft.to/lastmile_qr_scan", "android": "https://dc.lft.to/lastmile_qr_scan"}}, {"name": "5cc22194b28ba68f94bf7ff9365b3caf", "fusion_lat": 0.0, "type": "electric_scooter", "lat": 38.9455775, "is_reserved": 0, "is_disabled": 0, "fusion_lon": 0.0, "bike_id": "5cc22194b28ba68f94bf7ff9365b3caf", "lon": -77.07772083333333, "rental_uris": {"ios": "https://dc.lft.to/lastmile_qr_scan", "android": "https://dc.lft.to/lastmile_qr_scan"}}, {"name": "5a008acc9cb3ecc4ac2a31567597b409", "fusion_lat": 0.0, "type": "electric_scooter", "lat": 38.892301333333336, "is_reserved": 0, "is_disabled": 0, "fusion_lon": 0.0, "bike_id": "5a008acc9cb3ecc4ac2a31567597b409", "lon": -77.05002116666667, "rental_uris": {"ios": "https://dc.lft.to/lastmile_qr_scan", "android": "https://dc.lft.to/lastmile_qr_scan"}}, {"name": "eefc4d63c299f8d82c2aef3111370279", "fusion_lat": 0.0, "type": "electric_scooter", "lat": 38.906331, "is_reserved": 0, "is_disabled": 0, "fusion_lon": 0.0, "bike_id": "eefc4d63c299f8d82c2aef3111370279", "lon": -77.04137833333333, "rental_uris": {"ios": "https://dc.lft.to/lastmile_qr_scan", "android": "https://dc.lft.to/lastmile_qr_scan"}}, {"name": "af2acca750c4f5bf1d0dbf857288132e", "fusion_lat": 0.0, "type": "electric_scooter", "lat": 38.877484833333334, "is_reserved": 0, "is_disabled": 0, "fusion_lon": 0.0, "bike_id": "af2acca750c4f5bf1d0dbf857288132e", "lon": -77.02003183333333, "rental_uris": {"ios": "https://dc.lft.to/lastmile_qr_scan", "android": "https://dc.lft.to/lastmile_qr_scan"}}, {"name": "b69177568d1e29cab894a9fb46e091a8", "fusion_lat": 0.0, "type": "electric_bike", "lat": 38.84274283333333, "is_reserved": 0, "is_disabled": 0, "fusion_lon": 0.0, "bike_id": "b69177568d1e29cab894a9fb46e091a8", "lon": -76.98841733333333, "rental_uris": {"ios": "https://dc.lft.to/lastmile_qr_scan", "android": "https://dc.lft.to/lastmile_qr_scan"}}, {"name": "450077fd255ca94874926e2b0a587788", "fusion_lat": 0.0, "type": "electric_scooter", "lat": 38.913953, "is_reserved": 0, "is_disabled": 0, "fusion_lon": 0.0, "bike_id": "450077fd255ca94874926e2b0a587788", "lon": -77.04174383333333, "rental_uris": {"ios": "https://dc.lft.to/lastmile_qr_scan", "android": "https://dc.lft.to/lastmile_qr_scan"}}, {"name": "27413fe8ec17e16279a8555cb334765d", "fusion_lat": 0.0, "type": "electric_scooter", "lat": 38.902767, "is_reserved": 0, "is_disabled": 0, "fusion_lon": 0.0, "bike_id": "27413fe8ec17e16279a8555cb334765d", "lon": -77.06263466666667, "rental_uris": {"ios": "https://dc.lft.to/lastmile_qr_scan", "android": "https://dc.lft.to/lastmile_qr_scan"}}, {"name": "ce2fcc549423f41c0a78520ee5b01460", "fusion_lat": 0.0, "type": "electric_scooter", "lat": 38.905802333333334, "is_reserved": 0, "is_disabled": 0, "fusion_lon": 0.0, "bike_id": "ce2fcc549423f41c0a78520ee5b01460", "lon": -77.0070825, "rental_uris": {"ios": "https://dc.lft.to/lastmile_qr_scan", "android": "https://dc.lft.to/lastmile_qr_scan"}}, {"name": "7380b75d7b69be0b9dbb654a811c2fbd", "fusion_lat": 0.0, "type": "electric_bike", "lat": 38.943646, "is_reserved": 0, "is_disabled": 0, "fusion_lon": 0.0, "bike_id": "7380b75d7b69be0b9dbb654a811c2fbd", "lon": -77.003467, "rental_uris": {"ios": "https://dc.lft.to/lastmile_qr_scan", "android": "https://dc.lft.to/lastmile_qr_scan"}}, {"name": "353cad311bd6fe13c509bf7eaaf7660e", "fusion_lat": 0.0, "type": "electric_scooter", "lat": 38.9053795, "is_reserved": 0, "is_disabled": 0, "fusion_lon": 0.0, "bike_id": "353cad311bd6fe13c509bf7eaaf7660e", "lon": -77.005276, "rental_uris": {"ios": "https://dc.lft.to/lastmile_qr_scan", "android": "https://dc.lft.to/lastmile_qr_scan"}}, {"name": "9dbf9a5c809f2b5d5690c31443a60bcd", "fusion_lat": 0.0, "type": "electric_bike", "lat": 38.94920366666667, "is_reserved": 0, "is_disabled": 0, "fusion_lon": 0.0, "bike_id": "9dbf9a5c809f2b5d5690c31443a60bcd", "lon": -77.00847666666667, "rental_uris": {"ios": "https://dc.lft.to/lastmile_qr_scan", "android": "https://dc.lft.to/lastmile_qr_scan"}}, {"name": "859f7eee52a589d75a704a7b9833a77c", "fusion_lat": 0.0, "type": "electric_scooter", "lat": 38.92356133333333, "is_reserved": 0, "is_disabled": 0, "fusion_lon": 0.0, "bike_id": "859f7eee52a589d75a704a7b9833a77c", "lon": -77.05059816666666, "rental_uris": {"ios": "https://dc.lft.to/lastmile_qr_scan", "android": "https://dc.lft.to/lastmile_qr_scan"}}, {"name": "7b46c8dfd4e711266d8d475925878755", "fusion_lat": 0.0, "type": "electric_scooter", "lat": 38.911957666666666, "is_reserved": 0, "is_disabled": 0, "fusion_lon": 0.0, "bike_id": "7b46c8dfd4e711266d8d475925878755", "lon": -77.0319115, "rental_uris": {"ios": "https://dc.lft.to/lastmile_qr_scan", "android": "https://dc.lft.to/lastmile_qr_scan"}}, {"name": "2ad401b3661ea0830ee58d4f639790a2", "fusion_lat": 0.0, "type": "electric_bike", "lat": 38.992358333333335, "is_reserved": 0, "is_disabled": 0, "fusion_lon": 0.0, "bike_id": "2ad401b3661ea0830ee58d4f639790a2", "lon": -76.8782785, "rental_uris": {"ios": "https://dc.lft.to/lastmile_qr_scan", "android": "https://dc.lft.to/lastmile_qr_scan"}}, {"name": "57448cac3d3e840630fe224ea8987132", "fusion_lat": 0.0, "type": "electric_bike", "lat": 38.884256, "is_reserved": 0, "is_disabled": 0, "fusion_lon": 0.0, "bike_id": "57448cac3d3e840630fe224ea8987132", "lon": -76.9576285, "rental_uris": {"ios": "https://dc.lft.to/lastmile_qr_scan", "android": "https://dc.lft.to/lastmile_qr_scan"}}, {"name": "65eefa7270061488037ddb104f7e9c39", "fusion_lat": 0.0, "type": "electric_scooter", "lat": 38.872660333333336, "is_reserved": 0, "is_disabled": 0, "fusion_lon": 0.0, "bike_id": "65eefa7270061488037ddb104f7e9c39", "lon": -77.01530833333334, "rental_uris": {"ios": "https://dc.lft.to/lastmile_qr_scan", "android": "https://dc.lft.to/lastmile_qr_scan"}}, {"name": "b7884af0383b726a91e3adbe4d3c7970", "fusion_lat": 0.0, "type": "electric_bike", "lat": 38.9052965, "is_reserved": 0, "is_disabled": 0, "fusion_lon": 0.0, "bike_id": "b7884af0383b726a91e3adbe4d3c7970", "lon": -77.07183766666667, "rental_uris": {"ios": "https://dc.lft.to/lastmile_qr_scan", "android": "https://dc.lft.to/lastmile_qr_scan"}}, {"name": "ef704e66acecec33b82e164a29cd0b71", "fusion_lat": 0.0, "type": "electric_scooter", "lat": 38.90346516666666, "is_reserved": 0, "is_disabled": 0, "fusion_lon": 0.0, "bike_id": "ef704e66acecec33b82e164a29cd0b71", "lon": -76.94668666666666, "rental_uris": {"ios": "https://dc.lft.to/lastmile_qr_scan", "android": "https://dc.lft.to/lastmile_qr_scan"}}, {"name": "7963d463eefb97d2ac9262032437ad0a", "fusion_lat": 0.0, "type": "electric_scooter", "lat": 38.927259166666666, "is_reserved": 0, "is_disabled": 0, "fusion_lon": 0.0, "bike_id": "7963d463eefb97d2ac9262032437ad0a", "lon": -77.07143116666667, "rental_uris": {"ios": "https://dc.lft.to/lastmile_qr_scan", "android": "https://dc.lft.to/lastmile_qr_scan"}}, {"name": "c8df86d086ad64825f2eb8c8f3f613a6", "fusion_lat": 0.0, "type": "electric_scooter", "lat": 38.88595316666667, "is_reserved": 0, "is_disabled": 0, "fusion_lon": 0.0, "bike_id": "c8df86d086ad64825f2eb8c8f3f613a6", "lon": -77.02203833333333, "rental_uris": {"ios": "https://dc.lft.to/lastmile_qr_scan", "android": "https://dc.lft.to/lastmile_qr_scan"}}, {"name": "2ad442405d21279c865616517cde59d7", "fusion_lat": 0.0, "type": "electric_scooter", "lat": 38.9289205, "is_reserved": 0, "is_disabled": 0, "fusion_lon": 0.0, "bike_id": "2ad442405d21279c865616517cde59d7", "lon": -77.054498, "rental_uris": {"ios": "https://dc.lft.to/lastmile_qr_scan", "android": "https://dc.lft.to/lastmile_qr_scan"}}, {"name": "0e3e1aff33837f603264d911f0021065", "fusion_lat": 0.0, "type": "electric_scooter", "lat": 38.920097, "is_reserved": 0, "is_disabled": 0, "fusion_lon": 0.0, "bike_id": "0e3e1aff33837f603264d911f0021065", "lon": -77.08195783333333, "rental_uris": {"ios": "https://dc.lft.to/lastmile_qr_scan", "android": "https://dc.lft.to/lastmile_qr_scan"}}, {"name": "d0cca56c4fd4a6f695760a2198537ac9", "fusion_lat": 0.0, "type": "electric_bike", "lat": 38.919118, "is_reserved": 0, "is_disabled": 0, "fusion_lon": 0.0, "bike_id": "d0cca56c4fd4a6f695760a2198537ac9", "lon": -77.00062916666667, "rental_uris": {"ios": "https://dc.lft.to/lastmile_qr_scan", "android": "https://dc.lft.to/lastmile_qr_scan"}}, {"name": "4be5953e0b95a01c4436bb8c5b8e57e6", "fusion_lat": 0.0, "type": "electric_scooter", "lat": 38.893774, "is_reserved": 0, "is_disabled": 0, "fusion_lon": 0.0, "bike_id": "4be5953e0b95a01c4436bb8c5b8e57e6", "lon": -76.9499465, "rental_uris": {"ios": "https://dc.lft.to/lastmile_qr_scan", "android": "https://dc.lft.to/lastmile_qr_scan"}}, {"name": "e3a90d0672b2e8704c7656df8e015510", "fusion_lat": 0.0, "type": "electric_bike", "lat": 38.88351483333334, "is_reserved": 0, "is_disabled": 0, "fusion_lon": 0.0, "bike_id": "e3a90d0672b2e8704c7656df8e015510", "lon": -77.18296183333334, "rental_uris": {"ios": "https://dc.lft.to/lastmile_qr_scan", "android": "https://dc.lft.to/lastmile_qr_scan"}}, {"name": "72bc7b8cc6113529033203f017e3e801", "fusion_lat": 0.0, "type": "electric_bike", "lat": 39.053212, "is_reserved": 0, "is_disabled": 0, "fusion_lon": 0.0, "bike_id": "72bc7b8cc6113529033203f017e3e801", "lon": -77.04773233333333, "rental_uris": {"ios": "https://dc.lft.to/lastmile_qr_scan", "android": "https://dc.lft.to/lastmile_qr_scan"}}, {"name": "a55aae44d025b46d1c43cc4e9b0fc841", "fusion_lat": 0.0, "type": "electric_scooter", "lat": 38.866942, "is_reserved": 0, "is_disabled": 0, "fusion_lon": 0.0, "bike_id": "a55aae44d025b46d1c43cc4e9b0fc841", "lon": -76.98902066666666, "rental_uris": {"ios": "https://dc.lft.to/lastmile_qr_scan", "android": "https://dc.lft.to/lastmile_qr_scan"}}, {"name": "4c542e46ae5104bb3f9072f5a3de6c17", "fusion_lat": 0.0, "type": "electric_scooter", "lat": 38.86539116666667, "is_reserved": 0, "is_disabled": 0, "fusion_lon": 0.0, "bike_id": "4c542e46ae5104bb3f9072f5a3de6c17", "lon": -76.98708066666667, "rental_uris": {"ios": "https://dc.lft.to/lastmile_qr_scan", "android": "https://dc.lft.to/lastmile_qr_scan"}}, {"name": "5ea704cc7bfc2eae335203f221c8bd91", "fusion_lat": 0.0, "type": "electric_scooter", "lat": 38.902714333333336, "is_reserved": 0, "is_disabled": 0, "fusion_lon": 0.0, "bike_id": "5ea704cc7bfc2eae335203f221c8bd91", "lon": -76.98712383333333, "rental_uris": {"ios": "https://dc.lft.to/lastmile_qr_scan", "android": "https://dc.lft.to/lastmile_qr_scan"}}, {"name": "3b4e32b31ba016a3685ba180a6a84f23", "fusion_lat": 0.0, "type": "electric_bike", "lat": 39.0885385, "is_reserved": 0, "is_disabled": 0, "fusion_lon": 0.0, "bike_id": "3b4e32b31ba016a3685ba180a6a84f23", "lon": -77.17843366666666, "rental_uris": {"ios": "https://dc.lft.to/lastmile_qr_scan", "android": "https://dc.lft.to/lastmile_qr_scan"}}, {"name": "ea59bda8565cd8a0087970636989afde", "fusion_lat": 0.0, "type": "electric_bike", "lat": 38.935239333333335, "is_reserved": 0, "is_disabled": 0, "fusion_lon": 0.0, "bike_id": "ea59bda8565cd8a0087970636989afde", "lon": -76.95061783333334, "rental_uris": {"ios": "https://dc.lft.to/lastmile_qr_scan", "android": "https://dc.lft.to/lastmile_qr_scan"}}, {"name": "882db0bde1fa989e5e8cb6985c7a5f3c", "fusion_lat": 0.0, "type": "electric_scooter", "lat": 38.907065833333334, "is_reserved": 0, "is_disabled": 0, "fusion_lon": 0.0, "bike_id": "882db0bde1fa989e5e8cb6985c7a5f3c", "lon": -77.0298635, "rental_uris": {"ios": "https://dc.lft.to/lastmile_qr_scan", "android": "https://dc.lft.to/lastmile_qr_scan"}}, {"name": "069b28489d1a0765578713eae6082f65", "fusion_lat": 0.0, "type": "electric_scooter", "lat": 38.920653333333334, "is_reserved": 0, "is_disabled": 0, "fusion_lon": 0.0, "bike_id": "069b28489d1a0765578713eae6082f65", "lon": -77.04380283333333, "rental_uris": {"ios": "https://dc.lft.to/lastmile_qr_scan", "android": "https://dc.lft.to/lastmile_qr_scan"}}, {"name": "44fb04c11ec62493121de602b89fab43", "fusion_lat": 0.0, "type": "electric_scooter", "lat": 38.91723066666667, "is_reserved": 0, "is_disabled": 0, "fusion_lon": 0.0, "bike_id": "44fb04c11ec62493121de602b89fab43", "lon": -77.028915, "rental_uris": {"ios": "https://dc.lft.to/lastmile_qr_scan", "android": "https://dc.lft.to/lastmile_qr_scan"}}, {"name": "ce5737c0f0e36cd0a7533f42fbe7385a", "fusion_lat": 0.0, "type": "electric_scooter", "lat": 38.920702666666664, "is_reserved": 0, "is_disabled": 0, "fusion_lon": 0.0, "bike_id": "ce5737c0f0e36cd0a7533f42fbe7385a", "lon": -77.0437835, "rental_uris": {"ios": "https://dc.lft.to/lastmile_qr_scan", "android": "https://dc.lft.to/lastmile_qr_scan"}}, {"name": "8c5a9b9405093851f163257a49ee960e", "fusion_lat": 0.0, "type": "electric_scooter", "lat": 38.9335925, "is_reserved": 0, "is_disabled": 0, "fusion_lon": 0.0, "bike_id": "8c5a9b9405093851f163257a49ee960e", "lon": -77.03727, "rental_uris": {"ios": "https://dc.lft.to/lastmile_qr_scan", "android": "https://dc.lft.to/lastmile_qr_scan"}}, {"name": "2013f2cd1d5c306f2b50f78616c36f1f", "fusion_lat": 0.0, "type": "electric_scooter", "lat": 38.916041, "is_reserved": 0, "is_disabled": 0, "fusion_lon": 0.0, "bike_id": "2013f2cd1d5c306f2b50f78616c36f1f", "lon": -77.044921, "rental_uris": {"ios": "https://dc.lft.to/lastmile_qr_scan", "android": "https://dc.lft.to/lastmile_qr_scan"}}, {"name": "7dcdae835cda607f8e73a1f7217f6ecd", "fusion_lat": 0.0, "type": "electric_scooter", "lat": 38.892283166666665, "is_reserved": 0, "is_disabled": 0, "fusion_lon": 0.0, "bike_id": "7dcdae835cda607f8e73a1f7217f6ecd", "lon": -77.02415, "rental_uris": {"ios": "https://dc.lft.to/lastmile_qr_scan", "android": "https://dc.lft.to/lastmile_qr_scan"}}, {"name": "0abd0d3e5cd5402df4e6381d75e2ba79", "fusion_lat": 0.0, "type": "electric_scooter", "lat": 38.9174645, "is_reserved": 0, "is_disabled": 0, "fusion_lon": 0.0, "bike_id": "0abd0d3e5cd5402df4e6381d75e2ba79", "lon": -77.03641783333333, "rental_uris": {"ios": "https://dc.lft.to/lastmile_qr_scan", "android": "https://dc.lft.to/lastmile_qr_scan"}}, {"name": "86d82b2649c3f3e099c1fa2bd7c27357", "fusion_lat": 0.0, "type": "electric_scooter", "lat": 38.906764333333335, "is_reserved": 0, "is_disabled": 0, "fusion_lon": 0.0, "bike_id": "86d82b2649c3f3e099c1fa2bd7c27357", "lon": -76.97813483333333, "rental_uris": {"ios": "https://dc.lft.to/lastmile_qr_scan", "android": "https://dc.lft.to/lastmile_qr_scan"}}, {"name": "12fc657671b4af30babc5893a743a10a", "fusion_lat": 0.0, "type": "electric_bike", "lat": 38.891907833333335, "is_reserved": 0, "is_disabled": 0, "fusion_lon": 0.0, "bike_id": "12fc657671b4af30babc5893a743a10a", "lon": -77.1226325, "rental_uris": {"ios": "https://dc.lft.to/lastmile_qr_scan", "android": "https://dc.lft.to/lastmile_qr_scan"}}, {"name": "bcf6932dba06aeaadef63d2693193922", "fusion_lat": 0.0, "type": "electric_bike", "lat": 38.813046166666666, "is_reserved": 0, "is_disabled": 0, "fusion_lon": 0.0, "bike_id": "bcf6932dba06aeaadef63d2693193922", "lon": -77.11195166666667, "rental_uris": {"ios": "https://dc.lft.to/lastmile_qr_scan", "android": "https://dc.lft.to/lastmile_qr_scan"}}, {"name": "50f82ccb27c55c20f41332644354011a", "fusion_lat": 0.0, "type": "electric_scooter", "lat": 38.888783333333336, "is_reserved": 0, "is_disabled": 0, "fusion_lon": 0.0, "bike_id": "50f82ccb27c55c20f41332644354011a", "lon": -76.9903045, "rental_uris": {"ios": "https://dc.lft.to/lastmile_qr_scan", "android": "https://dc.lft.to/lastmile_qr_scan"}}, {"name": "6b31bfaa4b284ed73d2c4f49f59af699", "fusion_lat": 0.0, "type": "electric_scooter", "lat": 38.92587566666667, "is_reserved": 0, "is_disabled": 0, "fusion_lon": 0.0, "bike_id": "6b31bfaa4b284ed73d2c4f49f59af699", "lon": -77.032222, "rental_uris": {"ios": "https://dc.lft.to/lastmile_qr_scan", "android": "https://dc.lft.to/lastmile_qr_scan"}}, {"name": "7e34ee99bfcfa95ff49c62477bcdf576", "fusion_lat": 0.0, "type": "electric_scooter", "lat": 38.921066, "is_reserved": 0, "is_disabled": 0, "fusion_lon": 0.0, "bike_id": "7e34ee99bfcfa95ff49c62477bcdf576", "lon": -77.01761583333334, "rental_uris": {"ios": "https://dc.lft.to/lastmile_qr_scan", "android": "https://dc.lft.to/lastmile_qr_scan"}}, {"name": "b7f25bbfb7cdd7d110016b5e5c2504cc", "fusion_lat": 0.0, "type": "electric_bike", "lat": 38.955532, "is_reserved": 0, "is_disabled": 0, "fusion_lon": 0.0, "bike_id": "b7f25bbfb7cdd7d110016b5e5c2504cc", "lon": -76.93540716666666, "rental_uris": {"ios": "https://dc.lft.to/lastmile_qr_scan", "android": "https://dc.lft.to/lastmile_qr_scan"}}, {"name": "75c729057d70b1b7b9128e5677f0ad15", "fusion_lat": 0.0, "type": "electric_bike", "lat": 38.83194533333333, "is_reserved": 0, "is_disabled": 0, "fusion_lon": 0.0, "bike_id": "75c729057d70b1b7b9128e5677f0ad15", "lon": -77.07684733333333, "rental_uris": {"ios": "https://dc.lft.to/lastmile_qr_scan", "android": "https://dc.lft.to/lastmile_qr_scan"}}, {"name": "fb5ce260765c09e6ee6930802694b7be", "fusion_lat": 0.0, "type": "electric_scooter", "lat": 38.892337166666664, "is_reserved": 0, "is_disabled": 0, "fusion_lon": 0.0, "bike_id": "fb5ce260765c09e6ee6930802694b7be", "lon": -77.05004883333334, "rental_uris": {"ios": "https://dc.lft.to/lastmile_qr_scan", "android": "https://dc.lft.to/lastmile_qr_scan"}}, {"name": "a25457826434038228fac141f6bb87ba", "fusion_lat": 0.0, "type": "electric_scooter", "lat": 38.91065066666667, "is_reserved": 0, "is_disabled": 0, "fusion_lon": 0.0, "bike_id": "a25457826434038228fac141f6bb87ba", "lon": -77.05326566666666, "rental_uris": {"ios": "https://dc.lft.to/lastmile_qr_scan", "android": "https://dc.lft.to/lastmile_qr_scan"}}, {"name": "9868932aa78b041ec2fd32135e294c17", "fusion_lat": 0.0, "type": "electric_scooter", "lat": 38.90227466666666, "is_reserved": 0, "is_disabled": 0, "fusion_lon": 0.0, "bike_id": "9868932aa78b041ec2fd32135e294c17", "lon": -77.05135416666667, "rental_uris": {"ios": "https://dc.lft.to/lastmile_qr_scan", "android": "https://dc.lft.to/lastmile_qr_scan"}}, {"name": "4fb88d8095770fa0eb7c82a9ccf39c16", "fusion_lat": 0.0, "type": "electric_scooter", "lat": 38.923924666666665, "is_reserved": 0, "is_disabled": 0, "fusion_lon": 0.0, "bike_id": "4fb88d8095770fa0eb7c82a9ccf39c16", "lon": -77.02754, "rental_uris": {"ios": "https://dc.lft.to/lastmile_qr_scan", "android": "https://dc.lft.to/lastmile_qr_scan"}}, {"name": "b36617024b708613c707409b8c420aa6", "fusion_lat": 0.0, "type": "electric_scooter", "lat": 38.9113735, "is_reserved": 0, "is_disabled": 0, "fusion_lon": 0.0, "bike_id": "b36617024b708613c707409b8c420aa6", "lon": -77.04191966666667, "rental_uris": {"ios": "https://dc.lft.to/lastmile_qr_scan", "android": "https://dc.lft.to/lastmile_qr_scan"}}, {"name": "7d827bcf7b31538e6fbfa342bcb2b6a0", "fusion_lat": 0.0, "type": "electric_scooter", "lat": 38.89889816666667, "is_reserved": 0, "is_disabled": 0, "fusion_lon": 0.0, "bike_id": "7d827bcf7b31538e6fbfa342bcb2b6a0", "lon": -76.93303683333333, "rental_uris": {"ios": "https://dc.lft.to/lastmile_qr_scan", "android": "https://dc.lft.to/lastmile_qr_scan"}}, {"name": "e5f09e10981b130185fc1f4390837b61", "fusion_lat": 0.0, "type": "electric_scooter", "lat": 38.936109, "is_reserved": 0, "is_disabled": 0, "fusion_lon": 0.0, "bike_id": "e5f09e10981b130185fc1f4390837b61", "lon": -77.0586015, "rental_uris": {"ios": "https://dc.lft.to/lastmile_qr_scan", "android": "https://dc.lft.to/lastmile_qr_scan"}}, {"name": "ed6630b59f4d51582be4a22f730b04c1", "fusion_lat": 0.0, "type": "electric_scooter", "lat": 38.91662183333333, "is_reserved": 0, "is_disabled": 0, "fusion_lon": 0.0, "bike_id": "ed6630b59f4d51582be4a22f730b04c1", "lon": -77.0955005, "rental_uris": {"ios": "https://dc.lft.to/lastmile_qr_scan", "android": "https://dc.lft.to/lastmile_qr_scan"}}, {"name": "6b23da6f4ba31e89f8a00800fd297405", "fusion_lat": 0.0, "type": "electric_scooter", "lat": 38.90662616666667, "is_reserved": 0, "is_disabled": 0, "fusion_lon": 0.0, "bike_id": "6b23da6f4ba31e89f8a00800fd297405", "lon": -76.985884, "rental_uris": {"ios": "https://dc.lft.to/lastmile_qr_scan", "android": "https://dc.lft.to/lastmile_qr_scan"}}, {"name": "8988df1d6b971c97a51a7c594bcca77a", "fusion_lat": 0.0, "type": "electric_scooter", "lat": 38.9169335, "is_reserved": 0, "is_disabled": 0, "fusion_lon": 0.0, "bike_id": "8988df1d6b971c97a51a7c594bcca77a", "lon": -77.02292416666667, "rental_uris": {"ios": "https://dc.lft.to/lastmile_qr_scan", "android": "https://dc.lft.to/lastmile_qr_scan"}}, {"name": "a8a37a8b0502298aebf38f9ce8ba1bc8", "fusion_lat": 0.0, "type": "electric_scooter", "lat": 38.899598166666664, "is_reserved": 0, "is_disabled": 0, "fusion_lon": 0.0, "bike_id": "a8a37a8b0502298aebf38f9ce8ba1bc8", "lon": -76.985671, "rental_uris": {"ios": "https://dc.lft.to/lastmile_qr_scan", "android": "https://dc.lft.to/lastmile_qr_scan"}}, {"name": "c01ce7d90a58b2e2c762be4a8eda8b89", "fusion_lat": 0.0, "type": "electric_scooter", "lat": 38.932915, "is_reserved": 0, "is_disabled": 0, "fusion_lon": 0.0, "bike_id": "c01ce7d90a58b2e2c762be4a8eda8b89", "lon": -77.03629433333333, "rental_uris": {"ios": "https://dc.lft.to/lastmile_qr_scan", "android": "https://dc.lft.to/lastmile_qr_scan"}}, {"name": "0db9b402d226b2eb0d7c499584c3b67a", "fusion_lat": 0.0, "type": "electric_scooter", "lat": 38.8872805, "is_reserved": 0, "is_disabled": 0, "fusion_lon": 0.0, "bike_id": "0db9b402d226b2eb0d7c499584c3b67a", "lon": -77.02826766666666, "rental_uris": {"ios": "https://dc.lft.to/lastmile_qr_scan", "android": "https://dc.lft.to/lastmile_qr_scan"}}, {"name": "ee048d2c9bbc5aefe524b830f137215b", "fusion_lat": 0.0, "type": "electric_scooter", "lat": 38.909819666666664, "is_reserved": 0, "is_disabled": 0, "fusion_lon": 0.0, "bike_id": "ee048d2c9bbc5aefe524b830f137215b", "lon": -77.01222283333334, "rental_uris": {"ios": "https://dc.lft.to/lastmile_qr_scan", "android": "https://dc.lft.to/lastmile_qr_scan"}}, {"name": "4d0e72c7deb9254b3e68b2c0fc037e8f", "fusion_lat": 0.0, "type": "electric_scooter", "lat": 38.920444833333335, "is_reserved": 0, "is_disabled": 0, "fusion_lon": 0.0, "bike_id": "4d0e72c7deb9254b3e68b2c0fc037e8f", "lon": -77.03020066666667, "rental_uris": {"ios": "https://dc.lft.to/lastmile_qr_scan", "android": "https://dc.lft.to/lastmile_qr_scan"}}, {"name": "4536b462638f9d6bacb4dd90c90107de", "fusion_lat": 0.0, "type": "electric_scooter", "lat": 38.915239, "is_reserved": 0, "is_disabled": 0, "fusion_lon": 0.0, "bike_id": "4536b462638f9d6bacb4dd90c90107de", "lon": -77.01422533333333, "rental_uris": {"ios": "https://dc.lft.to/lastmile_qr_scan", "android": "https://dc.lft.to/lastmile_qr_scan"}}, {"name": "0dadeb12792ac410f8272568446625c3", "fusion_lat": 0.0, "type": "electric_scooter", "lat": 38.903362666666666, "is_reserved": 0, "is_disabled": 0, "fusion_lon": 0.0, "bike_id": "0dadeb12792ac410f8272568446625c3", "lon": -76.98818883333334, "rental_uris": {"ios": "https://dc.lft.to/lastmile_qr_scan", "android": "https://dc.lft.to/lastmile_qr_scan"}}, {"name": "238e1e3f89c5d5d639f1b5f8b7b69218", "fusion_lat": 0.0, "type": "electric_scooter", "lat": 38.87927066666666, "is_reserved": 0, "is_disabled": 0, "fusion_lon": 0.0, "bike_id": "238e1e3f89c5d5d639f1b5f8b7b69218", "lon": -77.02107533333333, "rental_uris": {"ios": "https://dc.lft.to/lastmile_qr_scan", "android": "https://dc.lft.to/lastmile_qr_scan"}}, {"name": "ec857971527a5887fb920c611feea78e", "fusion_lat": 0.0, "type": "electric_scooter", "lat": 38.924929166666665, "is_reserved": 0, "is_disabled": 0, "fusion_lon": 0.0, "bike_id": "ec857971527a5887fb920c611feea78e", "lon": -77.05220016666667, "rental_uris": {"ios": "https://dc.lft.to/lastmile_qr_scan", "android": "https://dc.lft.to/lastmile_qr_scan"}}, {"name": "cace1ca99e567ce487385f493d9b6abe", "fusion_lat": 0.0, "type": "electric_scooter", "lat": 38.9057095, "is_reserved": 0, "is_disabled": 0, "fusion_lon": 0.0, "bike_id": "cace1ca99e567ce487385f493d9b6abe", "lon": -77.05707466666667, "rental_uris": {"ios": "https://dc.lft.to/lastmile_qr_scan", "android": "https://dc.lft.to/lastmile_qr_scan"}}, {"name": "6a7d09fcfd02252409970154fda220f3", "fusion_lat": 0.0, "type": "electric_scooter", "lat": 38.933207333333335, "is_reserved": 0, "is_disabled": 0, "fusion_lon": 0.0, "bike_id": "6a7d09fcfd02252409970154fda220f3", "lon": -77.08212233333333, "rental_uris": {"ios": "https://dc.lft.to/lastmile_qr_scan", "android": "https://dc.lft.to/lastmile_qr_scan"}}, {"name": "4330e5b59b8218d8ab5ba94552b73751", "fusion_lat": 0.0, "type": "electric_scooter", "lat": 38.86914816666667, "is_reserved": 0, "is_disabled": 0, "fusion_lon": 0.0, "bike_id": "4330e5b59b8218d8ab5ba94552b73751", "lon": -76.97503183333333, "rental_uris": {"ios": "https://dc.lft.to/lastmile_qr_scan", "android": "https://dc.lft.to/lastmile_qr_scan"}}, {"name": "6b99dd28b1488a6988f803f1c305df83", "fusion_lat": 0.0, "type": "electric_scooter", "lat": 38.92896416666667, "is_reserved": 0, "is_disabled": 0, "fusion_lon": 0.0, "bike_id": "6b99dd28b1488a6988f803f1c305df83", "lon": -77.00528066666666, "rental_uris": {"ios": "https://dc.lft.to/lastmile_qr_scan", "android": "https://dc.lft.to/lastmile_qr_scan"}}, {"name": "63213adc8e30ff043c77cd8fdb7171ea", "fusion_lat": 0.0, "type": "electric_bike", "lat": 38.94591483333333, "is_reserved": 0, "is_disabled": 0, "fusion_lon": 0.0, "bike_id": "63213adc8e30ff043c77cd8fdb7171ea", "lon": -77.34404966666666, "rental_uris": {"ios": "https://dc.lft.to/lastmile_qr_scan", "android": "https://dc.lft.to/lastmile_qr_scan"}}, {"name": "43693128de8020e7b136652d212ffc5c", "fusion_lat": 0.0, "type": "electric_scooter", "lat": 38.89741033333333, "is_reserved": 0, "is_disabled": 0, "fusion_lon": 0.0, "bike_id": "43693128de8020e7b136652d212ffc5c", "lon": -77.0474605, "rental_uris": {"ios": "https://dc.lft.to/lastmile_qr_scan", "android": "https://dc.lft.to/lastmile_qr_scan"}}, {"name": "541c15e384341b2fea39fcd4f699e351", "fusion_lat": 0.0, "type": "electric_scooter", "lat": 38.899598, "is_reserved": 0, "is_disabled": 0, "fusion_lon": 0.0, "bike_id": "541c15e384341b2fea39fcd4f699e351", "lon": -76.994973, "rental_uris": {"ios": "https://dc.lft.to/lastmile_qr_scan", "android": "https://dc.lft.to/lastmile_qr_scan"}}, {"name": "69c66391649cf0b3cde9809b31a7133b", "fusion_lat": 0.0, "type": "electric_scooter", "lat": 38.898872, "is_reserved": 0, "is_disabled": 0, "fusion_lon": 0.0, "bike_id": "69c66391649cf0b3cde9809b31a7133b", "lon": -76.93176466666667, "rental_uris": {"ios": "https://dc.lft.to/lastmile_qr_scan", "android": "https://dc.lft.to/lastmile_qr_scan"}}, {"name": "22e569e541db4017bc33d6322b1fc555", "fusion_lat": 0.0, "type": "electric_bike", "lat": 38.87755816666667, "is_reserved": 0, "is_disabled": 0, "fusion_lon": 0.0, "bike_id": "22e569e541db4017bc33d6322b1fc555", "lon": -76.97985983333334, "rental_uris": {"ios": "https://dc.lft.to/lastmile_qr_scan", "android": "https://dc.lft.to/lastmile_qr_scan"}}, {"name": "a75e9de7547b5d19081b5a854a38c91e", "fusion_lat": 0.0, "type": "electric_bike", "lat": 38.9269595, "is_reserved": 0, "is_disabled": 0, "fusion_lon": 0.0, "bike_id": "a75e9de7547b5d19081b5a854a38c91e", "lon": -77.00790783333333, "rental_uris": {"ios": "https://dc.lft.to/lastmile_qr_scan", "android": "https://dc.lft.to/lastmile_qr_scan"}}, {"name": "aef686e57c8595e79b6f1fb5803fbf64", "fusion_lat": 0.0, "type": "electric_scooter", "lat": 38.928265, "is_reserved": 0, "is_disabled": 0, "fusion_lon": 0.0, "bike_id": "aef686e57c8595e79b6f1fb5803fbf64", "lon": -77.02259783333334, "rental_uris": {"ios": "https://dc.lft.to/lastmile_qr_scan", "android": "https://dc.lft.to/lastmile_qr_scan"}}, {"name": "c8e1d02ead9f5759d674c1a4c32b1ad3", "fusion_lat": 0.0, "type": "electric_scooter", "lat": 38.935964, "is_reserved": 0, "is_disabled": 0, "fusion_lon": 0.0, "bike_id": "c8e1d02ead9f5759d674c1a4c32b1ad3", "lon": -77.05636833333334, "rental_uris": {"ios": "https://dc.lft.to/lastmile_qr_scan", "android": "https://dc.lft.to/lastmile_qr_scan"}}, {"name": "75610112bb0c6f96f92e0d08c6b0152b", "fusion_lat": 0.0, "type": "electric_scooter", "lat": 38.92355716666667, "is_reserved": 0, "is_disabled": 0, "fusion_lon": 0.0, "bike_id": "75610112bb0c6f96f92e0d08c6b0152b", "lon": -77.05057833333333, "rental_uris": {"ios": "https://dc.lft.to/lastmile_qr_scan", "android": "https://dc.lft.to/lastmile_qr_scan"}}, {"name": "12e520e2baec12e7b9489aa2cd5a9769", "fusion_lat": 0.0, "type": "electric_scooter", "lat": 38.878056, "is_reserved": 0, "is_disabled": 0, "fusion_lon": 0.0, "bike_id": "12e520e2baec12e7b9489aa2cd5a9769", "lon": -77.00559733333333, "rental_uris": {"ios": "https://dc.lft.to/lastmile_qr_scan", "android": "https://dc.lft.to/lastmile_qr_scan"}}, {"name": "1441e588f5fa67c27216929e8491fc37", "fusion_lat": 0.0, "type": "electric_bike", "lat": 38.93955233333333, "is_reserved": 0, "is_disabled": 0, "fusion_lon": 0.0, "bike_id": "1441e588f5fa67c27216929e8491fc37", "lon": -77.36090583333333, "rental_uris": {"ios": "https://dc.lft.to/lastmile_qr_scan", "android": "https://dc.lft.to/lastmile_qr_scan"}}, {"name": "475533cdef2e9dcbf424168b46d5eaa0", "fusion_lat": 0.0, "type": "electric_scooter", "lat": 38.899801, "is_reserved": 0, "is_disabled": 0, "fusion_lon": 0.0, "bike_id": "475533cdef2e9dcbf424168b46d5eaa0", "lon": -77.05568, "rental_uris": {"ios": "https://dc.lft.to/lastmile_qr_scan", "android": "https://dc.lft.to/lastmile_qr_scan"}}, {"name": "d12282880c845e545c6ef109eb034139", "fusion_lat": 0.0, "type": "electric_scooter", "lat": 38.92973583333333, "is_reserved": 0, "is_disabled": 0, "fusion_lon": 0.0, "bike_id": "d12282880c845e545c6ef109eb034139", "lon": -77.02791133333334, "rental_uris": {"ios": "https://dc.lft.to/lastmile_qr_scan", "android": "https://dc.lft.to/lastmile_qr_scan"}}, {"name": "c864e7d244ae05f54762b529f44bb506", "fusion_lat": 0.0, "type": "electric_bike", "lat": 38.959308166666666, "is_reserved": 0, "is_disabled": 0, "fusion_lon": 0.0, "bike_id": "c864e7d244ae05f54762b529f44bb506", "lon": -76.9253865, "rental_uris": {"ios": "https://dc.lft.to/lastmile_qr_scan", "android": "https://dc.lft.to/lastmile_qr_scan"}}, {"name": "ea73a2703d60cf282632e46dd560da68", "fusion_lat": 0.0, "type": "electric_scooter", "lat": 38.91327783333333, "is_reserved": 0, "is_disabled": 0, "fusion_lon": 0.0, "bike_id": "ea73a2703d60cf282632e46dd560da68", "lon": -77.03184, "rental_uris": {"ios": "https://dc.lft.to/lastmile_qr_scan", "android": "https://dc.lft.to/lastmile_qr_scan"}}, {"name": "fc15002ae93045c423a9e6178796df8a", "fusion_lat": 0.0, "type": "electric_scooter", "lat": 38.902782, "is_reserved": 0, "is_disabled": 0, "fusion_lon": 0.0, "bike_id": "fc15002ae93045c423a9e6178796df8a", "lon": -77.036726, "rental_uris": {"ios": "https://dc.lft.to/lastmile_qr_scan", "android": "https://dc.lft.to/lastmile_qr_scan"}}, {"name": "7a2d9c0c3433215ce136d559cff8a710", "fusion_lat": 0.0, "type": "electric_scooter", "lat": 38.9097215, "is_reserved": 0, "is_disabled": 0, "fusion_lon": 0.0, "bike_id": "7a2d9c0c3433215ce136d559cff8a710", "lon": -77.0219245, "rental_uris": {"ios": "https://dc.lft.to/lastmile_qr_scan", "android": "https://dc.lft.to/lastmile_qr_scan"}}, {"name": "8637cce9694e4e3cbb11225eade251ef", "fusion_lat": 0.0, "type": "electric_scooter", "lat": 38.91490966666667, "is_reserved": 0, "is_disabled": 0, "fusion_lon": 0.0, "bike_id": "8637cce9694e4e3cbb11225eade251ef", "lon": -77.040856, "rental_uris": {"ios": "https://dc.lft.to/lastmile_qr_scan", "android": "https://dc.lft.to/lastmile_qr_scan"}}, {"name": "896651b6db602fbd95601d41f4bf16dc", "fusion_lat": 0.0, "type": "electric_scooter", "lat": 38.876931166666665, "is_reserved": 0, "is_disabled": 0, "fusion_lon": 0.0, "bike_id": "896651b6db602fbd95601d41f4bf16dc", "lon": -77.01753966666666, "rental_uris": {"ios": "https://dc.lft.to/lastmile_qr_scan", "android": "https://dc.lft.to/lastmile_qr_scan"}}, {"name": "fae3fd9f5151bde77d2cbb5238c2f804", "fusion_lat": 0.0, "type": "electric_scooter", "lat": 38.900269333333334, "is_reserved": 0, "is_disabled": 0, "fusion_lon": 0.0, "bike_id": "fae3fd9f5151bde77d2cbb5238c2f804", "lon": -77.05322116666666, "rental_uris": {"ios": "https://dc.lft.to/lastmile_qr_scan", "android": "https://dc.lft.to/lastmile_qr_scan"}}, {"name": "ffef3bb37ee98d961cb1211032b48272", "fusion_lat": 0.0, "type": "electric_bike", "lat": 38.84602816666667, "is_reserved": 0, "is_disabled": 0, "fusion_lon": 0.0, "bike_id": "ffef3bb37ee98d961cb1211032b48272", "lon": -76.96886266666667, "rental_uris": {"ios": "https://dc.lft.to/lastmile_qr_scan", "android": "https://dc.lft.to/lastmile_qr_scan"}}, {"name": "619c200956c32c98a60560b1863b7b0a", "fusion_lat": 0.0, "type": "electric_scooter", "lat": 38.91048766666667, "is_reserved": 0, "is_disabled": 0, "fusion_lon": 0.0, "bike_id": "619c200956c32c98a60560b1863b7b0a", "lon": -77.04825216666667, "rental_uris": {"ios": "https://dc.lft.to/lastmile_qr_scan", "android": "https://dc.lft.to/lastmile_qr_scan"}}, {"name": "935ac0cfbe2416bc9cfe55d38e0ae6e6", "fusion_lat": 0.0, "type": "electric_bike", "lat": 38.93973883333334, "is_reserved": 0, "is_disabled": 0, "fusion_lon": 0.0, "bike_id": "935ac0cfbe2416bc9cfe55d38e0ae6e6", "lon": -76.9548665, "rental_uris": {"ios": "https://dc.lft.to/lastmile_qr_scan", "android": "https://dc.lft.to/lastmile_qr_scan"}}, {"name": "ffe46d2a301f794c88583895dc78048b", "fusion_lat": 0.0, "type": "electric_scooter", "lat": 38.86365383333333, "is_reserved": 0, "is_disabled": 0, "fusion_lon": 0.0, "bike_id": "ffe46d2a301f794c88583895dc78048b", "lon": -76.990658, "rental_uris": {"ios": "https://dc.lft.to/lastmile_qr_scan", "android": "https://dc.lft.to/lastmile_qr_scan"}}, {"name": "b5be4b794340a05698e49ad71689a9dc", "fusion_lat": 0.0, "type": "electric_scooter", "lat": 38.94124516666667, "is_reserved": 0, "is_disabled": 0, "fusion_lon": 0.0, "bike_id": "b5be4b794340a05698e49ad71689a9dc", "lon": -77.02052633333334, "rental_uris": {"ios": "https://dc.lft.to/lastmile_qr_scan", "android": "https://dc.lft.to/lastmile_qr_scan"}}, {"name": "fd731543214d921cb07614ba4b094feb", "fusion_lat": 0.0, "type": "electric_scooter", "lat": 38.915508, "is_reserved": 0, "is_disabled": 0, "fusion_lon": 0.0, "bike_id": "fd731543214d921cb07614ba4b094feb", "lon": -77.03837883333334, "rental_uris": {"ios": "https://dc.lft.to/lastmile_qr_scan", "android": "https://dc.lft.to/lastmile_qr_scan"}}, {"name": "cba87a2ed340cf19448540cfc4e44dfb", "fusion_lat": 0.0, "type": "electric_scooter", "lat": 38.96140283333333, "is_reserved": 0, "is_disabled": 0, "fusion_lon": 0.0, "bike_id": "cba87a2ed340cf19448540cfc4e44dfb", "lon": -77.02814566666666, "rental_uris": {"ios": "https://dc.lft.to/lastmile_qr_scan", "android": "https://dc.lft.to/lastmile_qr_scan"}}, {"name": "43304892281c4d93068660f5ffe2acda", "fusion_lat": 0.0, "type": "electric_scooter", "lat": 38.9095945, "is_reserved": 0, "is_disabled": 0, "fusion_lon": 0.0, "bike_id": "43304892281c4d93068660f5ffe2acda", "lon": -77.02383283333333, "rental_uris": {"ios": "https://dc.lft.to/lastmile_qr_scan", "android": "https://dc.lft.to/lastmile_qr_scan"}}, {"name": "dc3f08443b515aa7393ba5fd4eec288b", "fusion_lat": 0.0, "type": "electric_scooter", "lat": 38.90139966666667, "is_reserved": 0, "is_disabled": 0, "fusion_lon": 0.0, "bike_id": "dc3f08443b515aa7393ba5fd4eec288b", "lon": -76.9918275, "rental_uris": {"ios": "https://dc.lft.to/lastmile_qr_scan", "android": "https://dc.lft.to/lastmile_qr_scan"}}, {"name": "38858a3bd5f90ef6c82307f8e549ff12", "fusion_lat": 0.0, "type": "electric_scooter", "lat": 38.89851683333333, "is_reserved": 0, "is_disabled": 0, "fusion_lon": 0.0, "bike_id": "38858a3bd5f90ef6c82307f8e549ff12", "lon": -77.033176, "rental_uris": {"ios": "https://dc.lft.to/lastmile_qr_scan", "android": "https://dc.lft.to/lastmile_qr_scan"}}, {"name": "4be95a824c1dc05d6961bf89309cbeba", "fusion_lat": 0.0, "type": "electric_scooter", "lat": 38.90088983333333, "is_reserved": 0, "is_disabled": 0, "fusion_lon": 0.0, "bike_id": "4be95a824c1dc05d6961bf89309cbeba", "lon": -77.05063, "rental_uris": {"ios": "https://dc.lft.to/lastmile_qr_scan", "android": "https://dc.lft.to/lastmile_qr_scan"}}, {"name": "7e3d16f7f161a2c358103582a5b51ca7", "fusion_lat": 0.0, "type": "electric_scooter", "lat": 38.915667666666664, "is_reserved": 0, "is_disabled": 0, "fusion_lon": 0.0, "bike_id": "7e3d16f7f161a2c358103582a5b51ca7", "lon": -77.01412833333333, "rental_uris": {"ios": "https://dc.lft.to/lastmile_qr_scan", "android": "https://dc.lft.to/lastmile_qr_scan"}}, {"name": "89c90fec2b481115c54309b3ee33d36e", "fusion_lat": 0.0, "type": "electric_scooter", "lat": 38.916477666666665, "is_reserved": 0, "is_disabled": 0, "fusion_lon": 0.0, "bike_id": "89c90fec2b481115c54309b3ee33d36e", "lon": -77.01591233333333, "rental_uris": {"ios": "https://dc.lft.to/lastmile_qr_scan", "android": "https://dc.lft.to/lastmile_qr_scan"}}, {"name": "90455f33ab4a2054dd4cf17b7b170354", "fusion_lat": 0.0, "type": "electric_bike", "lat": 38.862882, "is_reserved": 0, "is_disabled": 0, "fusion_lon": 0.0, "bike_id": "90455f33ab4a2054dd4cf17b7b170354", "lon": -76.980065, "rental_uris": {"ios": "https://dc.lft.to/lastmile_qr_scan", "android": "https://dc.lft.to/lastmile_qr_scan"}}, {"name": "f18849b9ee82ec73391eed85ac7f7f94", "fusion_lat": 0.0, "type": "electric_bike", "lat": 38.927715666666664, "is_reserved": 0, "is_disabled": 0, "fusion_lon": 0.0, "bike_id": "f18849b9ee82ec73391eed85ac7f7f94", "lon": -77.0326395, "rental_uris": {"ios": "https://dc.lft.to/lastmile_qr_scan", "android": "https://dc.lft.to/lastmile_qr_scan"}}, {"name": "3bb00a694aa66ffd373d78ea11d1ae20", "fusion_lat": 0.0, "type": "electric_scooter", "lat": 38.90643716666666, "is_reserved": 0, "is_disabled": 0, "fusion_lon": 0.0, "bike_id": "3bb00a694aa66ffd373d78ea11d1ae20", "lon": -77.02947433333334, "rental_uris": {"ios": "https://dc.lft.to/lastmile_qr_scan", "android": "https://dc.lft.to/lastmile_qr_scan"}}, {"name": "e337250b25b4704ae29145b905097e0d", "fusion_lat": 0.0, "type": "electric_scooter", "lat": 38.9309205, "is_reserved": 0, "is_disabled": 0, "fusion_lon": 0.0, "bike_id": "e337250b25b4704ae29145b905097e0d", "lon": -77.024089, "rental_uris": {"ios": "https://dc.lft.to/lastmile_qr_scan", "android": "https://dc.lft.to/lastmile_qr_scan"}}, {"name": "169f6527359f6a40676adb955cd8d723", "fusion_lat": 0.0, "type": "electric_scooter", "lat": 38.90958216666667, "is_reserved": 0, "is_disabled": 0, "fusion_lon": 0.0, "bike_id": "169f6527359f6a40676adb955cd8d723", "lon": -77.011316, "rental_uris": {"ios": "https://dc.lft.to/lastmile_qr_scan", "android": "https://dc.lft.to/lastmile_qr_scan"}}, {"name": "7134afc6a9ec2953956673ea03d3b0c9", "fusion_lat": 0.0, "type": "electric_scooter", "lat": 38.921257833333335, "is_reserved": 0, "is_disabled": 0, "fusion_lon": 0.0, "bike_id": "7134afc6a9ec2953956673ea03d3b0c9", "lon": -77.04111833333333, "rental_uris": {"ios": "https://dc.lft.to/lastmile_qr_scan", "android": "https://dc.lft.to/lastmile_qr_scan"}}, {"name": "a467dd5beae7f0885267ca68fde965df", "fusion_lat": 0.0, "type": "electric_bike", "lat": 38.964981, "is_reserved": 0, "is_disabled": 0, "fusion_lon": 0.0, "bike_id": "a467dd5beae7f0885267ca68fde965df", "lon": -77.06493, "rental_uris": {"ios": "https://dc.lft.to/lastmile_qr_scan", "android": "https://dc.lft.to/lastmile_qr_scan"}}, {"name": "aaf48b2440d7f6d075287c9f446c41e1", "fusion_lat": 0.0, "type": "electric_scooter", "lat": 38.90700133333333, "is_reserved": 0, "is_disabled": 0, "fusion_lon": 0.0, "bike_id": "aaf48b2440d7f6d075287c9f446c41e1", "lon": -77.04199033333333, "rental_uris": {"ios": "https://dc.lft.to/lastmile_qr_scan", "android": "https://dc.lft.to/lastmile_qr_scan"}}, {"name": "24af648e872eee9931cd6ef6c4293586", "fusion_lat": 0.0, "type": "electric_scooter", "lat": 38.90276333333333, "is_reserved": 0, "is_disabled": 0, "fusion_lon": 0.0, "bike_id": "24af648e872eee9931cd6ef6c4293586", "lon": -76.9985575, "rental_uris": {"ios": "https://dc.lft.to/lastmile_qr_scan", "android": "https://dc.lft.to/lastmile_qr_scan"}}, {"name": "c7fc15eb277eaaaba8983d72398c4bf1", "fusion_lat": 0.0, "type": "electric_scooter", "lat": 38.918538833333336, "is_reserved": 0, "is_disabled": 0, "fusion_lon": 0.0, "bike_id": "c7fc15eb277eaaaba8983d72398c4bf1", "lon": -77.0245235, "rental_uris": {"ios": "https://dc.lft.to/lastmile_qr_scan", "android": "https://dc.lft.to/lastmile_qr_scan"}}, {"name": "ad142e675dce153cf6069fb751cf1198", "fusion_lat": 0.0, "type": "electric_scooter", "lat": 38.94233933333334, "is_reserved": 0, "is_disabled": 0, "fusion_lon": 0.0, "bike_id": "ad142e675dce153cf6069fb751cf1198", "lon": -77.01548466666667, "rental_uris": {"ios": "https://dc.lft.to/lastmile_qr_scan", "android": "https://dc.lft.to/lastmile_qr_scan"}}, {"name": "936dfb9a45521dae094a63eb37d76413", "fusion_lat": 0.0, "type": "electric_scooter", "lat": 38.89793933333333, "is_reserved": 0, "is_disabled": 0, "fusion_lon": 0.0, "bike_id": "936dfb9a45521dae094a63eb37d76413", "lon": -76.94422016666667, "rental_uris": {"ios": "https://dc.lft.to/lastmile_qr_scan", "android": "https://dc.lft.to/lastmile_qr_scan"}}, {"name": "c4892df13c06c3e6453a26e61d67f18d", "fusion_lat": 0.0, "type": "electric_scooter", "lat": 38.935451666666665, "is_reserved": 0, "is_disabled": 0, "fusion_lon": 0.0, "bike_id": "c4892df13c06c3e6453a26e61d67f18d", "lon": -77.03409283333333, "rental_uris": {"ios": "https://dc.lft.to/lastmile_qr_scan", "android": "https://dc.lft.to/lastmile_qr_scan"}}, {"name": "b8441a1976255bbc11cf387699a52c7d", "fusion_lat": 0.0, "type": "electric_scooter", "lat": 38.91240533333333, "is_reserved": 0, "is_disabled": 0, "fusion_lon": 0.0, "bike_id": "b8441a1976255bbc11cf387699a52c7d", "lon": -77.00916466666666, "rental_uris": {"ios": "https://dc.lft.to/lastmile_qr_scan", "android": "https://dc.lft.to/lastmile_qr_scan"}}, {"name": "1b5843170f60fef4c219c9bcdeeb67b9", "fusion_lat": 0.0, "type": "electric_scooter", "lat": 38.905202833333334, "is_reserved": 0, "is_disabled": 0, "fusion_lon": 0.0, "bike_id": "1b5843170f60fef4c219c9bcdeeb67b9", "lon": -77.0501175, "rental_uris": {"ios": "https://dc.lft.to/lastmile_qr_scan", "android": "https://dc.lft.to/lastmile_qr_scan"}}, {"name": "ae224126309fc632d38bb4e5fba55c33", "fusion_lat": 0.0, "type": "electric_scooter", "lat": 38.88996933333333, "is_reserved": 0, "is_disabled": 0, "fusion_lon": 0.0, "bike_id": "ae224126309fc632d38bb4e5fba55c33", "lon": -76.9541285, "rental_uris": {"ios": "https://dc.lft.to/lastmile_qr_scan", "android": "https://dc.lft.to/lastmile_qr_scan"}}, {"name": "d42b80000ee49623439a950e75de6531", "fusion_lat": 0.0, "type": "electric_scooter", "lat": 38.90256316666667, "is_reserved": 0, "is_disabled": 0, "fusion_lon": 0.0, "bike_id": "d42b80000ee49623439a950e75de6531", "lon": -77.043754, "rental_uris": {"ios": "https://dc.lft.to/lastmile_qr_scan", "android": "https://dc.lft.to/lastmile_qr_scan"}}, {"name": "f9101d35d81bdfeb1ec6983903e29e90", "fusion_lat": 0.0, "type": "electric_scooter", "lat": 38.9121325, "is_reserved": 0, "is_disabled": 0, "fusion_lon": 0.0, "bike_id": "f9101d35d81bdfeb1ec6983903e29e90", "lon": -77.076036, "rental_uris": {"ios": "https://dc.lft.to/lastmile_qr_scan", "android": "https://dc.lft.to/lastmile_qr_scan"}}, {"name": "51e2e98bab7b60b45104ded0a89c007b", "fusion_lat": 0.0, "type": "electric_bike", "lat": 38.85588383333333, "is_reserved": 0, "is_disabled": 0, "fusion_lon": 0.0, "bike_id": "51e2e98bab7b60b45104ded0a89c007b", "lon": -77.10712966666667, "rental_uris": {"ios": "https://dc.lft.to/lastmile_qr_scan", "android": "https://dc.lft.to/lastmile_qr_scan"}}, {"name": "b35a1846dd45e67ad6a2b6b003b639e1", "fusion_lat": 0.0, "type": "electric_scooter", "lat": 38.89487483333333, "is_reserved": 0, "is_disabled": 0, "fusion_lon": 0.0, "bike_id": "b35a1846dd45e67ad6a2b6b003b639e1", "lon": -76.9487125, "rental_uris": {"ios": "https://dc.lft.to/lastmile_qr_scan", "android": "https://dc.lft.to/lastmile_qr_scan"}}, {"name": "22943258262dc9528f44b0cc8f2370da", "fusion_lat": 0.0, "type": "electric_bike", "lat": 38.9341555, "is_reserved": 0, "is_disabled": 0, "fusion_lon": 0.0, "bike_id": "22943258262dc9528f44b0cc8f2370da", "lon": -77.02510816666667, "rental_uris": {"ios": "https://dc.lft.to/lastmile_qr_scan", "android": "https://dc.lft.to/lastmile_qr_scan"}}, {"name": "ca7a012fbcc9bec7c2a73886bb91322f", "fusion_lat": 0.0, "type": "electric_scooter", "lat": 38.899145833333336, "is_reserved": 0, "is_disabled": 0, "fusion_lon": 0.0, "bike_id": "ca7a012fbcc9bec7c2a73886bb91322f", "lon": -77.0709665, "rental_uris": {"ios": "https://dc.lft.to/lastmile_qr_scan", "android": "https://dc.lft.to/lastmile_qr_scan"}}, {"name": "972c688c03eb2ef4903136e413d7a09e", "fusion_lat": 0.0, "type": "electric_scooter", "lat": 38.905052833333336, "is_reserved": 0, "is_disabled": 0, "fusion_lon": 0.0, "bike_id": "972c688c03eb2ef4903136e413d7a09e", "lon": -77.05130383333334, "rental_uris": {"ios": "https://dc.lft.to/lastmile_qr_scan", "android": "https://dc.lft.to/lastmile_qr_scan"}}, {"name": "843bb24d4e6b567cdf59ff6b35ec32e4", "fusion_lat": 0.0, "type": "electric_scooter", "lat": 38.911900833333334, "is_reserved": 0, "is_disabled": 0, "fusion_lon": 0.0, "bike_id": "843bb24d4e6b567cdf59ff6b35ec32e4", "lon": -77.06095766666667, "rental_uris": {"ios": "https://dc.lft.to/lastmile_qr_scan", "android": "https://dc.lft.to/lastmile_qr_scan"}}, {"name": "2e3df42e68ae1b6865be6357f4d60594", "fusion_lat": 0.0, "type": "electric_scooter", "lat": 38.917839, "is_reserved": 0, "is_disabled": 0, "fusion_lon": 0.0, "bike_id": "2e3df42e68ae1b6865be6357f4d60594", "lon": -77.02309183333334, "rental_uris": {"ios": "https://dc.lft.to/lastmile_qr_scan", "android": "https://dc.lft.to/lastmile_qr_scan"}}, {"name": "dfa85e1f6c23680db5bd8906e2999885", "fusion_lat": 0.0, "type": "electric_scooter", "lat": 38.89652616666667, "is_reserved": 0, "is_disabled": 0, "fusion_lon": 0.0, "bike_id": "dfa85e1f6c23680db5bd8906e2999885", "lon": -77.0092905, "rental_uris": {"ios": "https://dc.lft.to/lastmile_qr_scan", "android": "https://dc.lft.to/lastmile_qr_scan"}}, {"name": "52284c96d5a4817aee43fdabdeeb9058", "fusion_lat": 0.0, "type": "electric_scooter", "lat": 38.87463316666667, "is_reserved": 0, "is_disabled": 0, "fusion_lon": 0.0, "bike_id": "52284c96d5a4817aee43fdabdeeb9058", "lon": -77.006102, "rental_uris": {"ios": "https://dc.lft.to/lastmile_qr_scan", "android": "https://dc.lft.to/lastmile_qr_scan"}}, {"name": "d52c54e8325650e7e5df3e4a0ab84a74", "fusion_lat": 0.0, "type": "electric_bike", "lat": 38.887982, "is_reserved": 0, "is_disabled": 0, "fusion_lon": 0.0, "bike_id": "d52c54e8325650e7e5df3e4a0ab84a74", "lon": -76.92993166666666, "rental_uris": {"ios": "https://dc.lft.to/lastmile_qr_scan", "android": "https://dc.lft.to/lastmile_qr_scan"}}, {"name": "9c48c8936e95f573d2d975134c444fca", "fusion_lat": 0.0, "type": "electric_scooter", "lat": 38.871150666666665, "is_reserved": 0, "is_disabled": 0, "fusion_lon": 0.0, "bike_id": "9c48c8936e95f573d2d975134c444fca", "lon": -76.96589933333334, "rental_uris": {"ios": "https://dc.lft.to/lastmile_qr_scan", "android": "https://dc.lft.to/lastmile_qr_scan"}}, {"name": "1ddb7ab26d3c96192a1e7debd9353aea", "fusion_lat": 0.0, "type": "electric_scooter", "lat": 38.90352983333333, "is_reserved": 0, "is_disabled": 0, "fusion_lon": 0.0, "bike_id": "1ddb7ab26d3c96192a1e7debd9353aea", "lon": -77.02876816666667, "rental_uris": {"ios": "https://dc.lft.to/lastmile_qr_scan", "android": "https://dc.lft.to/lastmile_qr_scan"}}, {"name": "b6e6969bfefcf2aca2febf96921d79e5", "fusion_lat": 0.0, "type": "electric_bike", "lat": 38.95689316666667, "is_reserved": 0, "is_disabled": 0, "fusion_lon": 0.0, "bike_id": "b6e6969bfefcf2aca2febf96921d79e5", "lon": -77.02225666666666, "rental_uris": {"ios": "https://dc.lft.to/lastmile_qr_scan", "android": "https://dc.lft.to/lastmile_qr_scan"}}, {"name": "b40b97681a9ed02f4ea1edf9f2c4e4d9", "fusion_lat": 0.0, "type": "electric_scooter", "lat": 38.894158, "is_reserved": 0, "is_disabled": 0, "fusion_lon": 0.0, "bike_id": "b40b97681a9ed02f4ea1edf9f2c4e4d9", "lon": -76.9396105, "rental_uris": {"ios": "https://dc.lft.to/lastmile_qr_scan", "android": "https://dc.lft.to/lastmile_qr_scan"}}, {"name": "dc6b7c280e72f70fc2851803677543cf", "fusion_lat": 0.0, "type": "electric_bike", "lat": 38.93676816666667, "is_reserved": 0, "is_disabled": 0, "fusion_lon": 0.0, "bike_id": "dc6b7c280e72f70fc2851803677543cf", "lon": -76.95207033333334, "rental_uris": {"ios": "https://dc.lft.to/lastmile_qr_scan", "android": "https://dc.lft.to/lastmile_qr_scan"}}, {"name": "60e57abda8ea460a5b64bfad82eadde8", "fusion_lat": 0.0, "type": "electric_scooter", "lat": 38.9015855, "is_reserved": 0, "is_disabled": 0, "fusion_lon": 0.0, "bike_id": "60e57abda8ea460a5b64bfad82eadde8", "lon": -77.01617216666666, "rental_uris": {"ios": "https://dc.lft.to/lastmile_qr_scan", "android": "https://dc.lft.to/lastmile_qr_scan"}}, {"name": "cf74f15c0a762d4b3dab7827c49b1681", "fusion_lat": 0.0, "type": "electric_scooter", "lat": 38.920300833333336, "is_reserved": 0, "is_disabled": 0, "fusion_lon": 0.0, "bike_id": "cf74f15c0a762d4b3dab7827c49b1681", "lon": -77.03855966666667, "rental_uris": {"ios": "https://dc.lft.to/lastmile_qr_scan", "android": "https://dc.lft.to/lastmile_qr_scan"}}, {"name": "e529f0ff57576c9d0d61d94b8775a279", "fusion_lat": 0.0, "type": "electric_scooter", "lat": 38.918137333333334, "is_reserved": 0, "is_disabled": 0, "fusion_lon": 0.0, "bike_id": "e529f0ff57576c9d0d61d94b8775a279", "lon": -77.04005983333333, "rental_uris": {"ios": "https://dc.lft.to/lastmile_qr_scan", "android": "https://dc.lft.to/lastmile_qr_scan"}}, {"name": "d72980f06b94c079b1d04a31594174e2", "fusion_lat": 0.0, "type": "electric_scooter", "lat": 38.937023333333336, "is_reserved": 0, "is_disabled": 0, "fusion_lon": 0.0, "bike_id": "d72980f06b94c079b1d04a31594174e2", "lon": -77.05597883333333, "rental_uris": {"ios": "https://dc.lft.to/lastmile_qr_scan", "android": "https://dc.lft.to/lastmile_qr_scan"}}, {"name": "c2192ed84bbfd1999233979a3746b5c3", "fusion_lat": 0.0, "type": "electric_scooter", "lat": 38.908840833333336, "is_reserved": 0, "is_disabled": 0, "fusion_lon": 0.0, "bike_id": "c2192ed84bbfd1999233979a3746b5c3", "lon": -77.00575533333334, "rental_uris": {"ios": "https://dc.lft.to/lastmile_qr_scan", "android": "https://dc.lft.to/lastmile_qr_scan"}}, {"name": "47a5c61354a009f83fc7dbb51cff7284", "fusion_lat": 0.0, "type": "electric_scooter", "lat": 38.914709333333334, "is_reserved": 0, "is_disabled": 0, "fusion_lon": 0.0, "bike_id": "47a5c61354a009f83fc7dbb51cff7284", "lon": -77.03863916666667, "rental_uris": {"ios": "https://dc.lft.to/lastmile_qr_scan", "android": "https://dc.lft.to/lastmile_qr_scan"}}, {"name": "a7ede2428c1a381b88900585801cefd3", "fusion_lat": 0.0, "type": "electric_scooter", "lat": 38.904065833333334, "is_reserved": 0, "is_disabled": 0, "fusion_lon": 0.0, "bike_id": "a7ede2428c1a381b88900585801cefd3", "lon": -77.06403716666667, "rental_uris": {"ios": "https://dc.lft.to/lastmile_qr_scan", "android": "https://dc.lft.to/lastmile_qr_scan"}}, {"name": "4576a8048f36f57aafccac91703a3d25", "fusion_lat": 0.0, "type": "electric_scooter", "lat": 38.9020965, "is_reserved": 0, "is_disabled": 0, "fusion_lon": 0.0, "bike_id": "4576a8048f36f57aafccac91703a3d25", "lon": -77.021763, "rental_uris": {"ios": "https://dc.lft.to/lastmile_qr_scan", "android": "https://dc.lft.to/lastmile_qr_scan"}}, {"name": "44fc9a3bd58e4cf5023e9ad1d474680f", "fusion_lat": 0.0, "type": "electric_scooter", "lat": 38.903211166666665, "is_reserved": 0, "is_disabled": 0, "fusion_lon": 0.0, "bike_id": "44fc9a3bd58e4cf5023e9ad1d474680f", "lon": -76.98156516666667, "rental_uris": {"ios": "https://dc.lft.to/lastmile_qr_scan", "android": "https://dc.lft.to/lastmile_qr_scan"}}, {"name": "8a62deb18ec8399bfde0516d37913032", "fusion_lat": 0.0, "type": "electric_scooter", "lat": 38.93332433333333, "is_reserved": 0, "is_disabled": 0, "fusion_lon": 0.0, "bike_id": "8a62deb18ec8399bfde0516d37913032", "lon": -77.02740716666666, "rental_uris": {"ios": "https://dc.lft.to/lastmile_qr_scan", "android": "https://dc.lft.to/lastmile_qr_scan"}}, {"name": "cd92900b10bdc52705ddf4c5b2cf16f1", "fusion_lat": 0.0, "type": "electric_scooter", "lat": 38.91801666666667, "is_reserved": 0, "is_disabled": 0, "fusion_lon": 0.0, "bike_id": "cd92900b10bdc52705ddf4c5b2cf16f1", "lon": -77.0344075, "rental_uris": {"ios": "https://dc.lft.to/lastmile_qr_scan", "android": "https://dc.lft.to/lastmile_qr_scan"}}, {"name": "ccb4247df6176fb0bad00f5ca263e915", "fusion_lat": 0.0, "type": "electric_scooter", "lat": 38.9311385, "is_reserved": 0, "is_disabled": 0, "fusion_lon": 0.0, "bike_id": "ccb4247df6176fb0bad00f5ca263e915", "lon": -77.023998, "rental_uris": {"ios": "https://dc.lft.to/lastmile_qr_scan", "android": "https://dc.lft.to/lastmile_qr_scan"}}, {"name": "19a3a06e9a064a165d075bf680e3cebe", "fusion_lat": 0.0, "type": "electric_scooter", "lat": 38.8611915, "is_reserved": 0, "is_disabled": 0, "fusion_lon": 0.0, "bike_id": "19a3a06e9a064a165d075bf680e3cebe", "lon": -76.98886583333334, "rental_uris": {"ios": "https://dc.lft.to/lastmile_qr_scan", "android": "https://dc.lft.to/lastmile_qr_scan"}}, {"name": "b382dcd5b4a5fb69648342a60e30c0cf", "fusion_lat": 0.0, "type": "electric_scooter", "lat": 38.900261666666665, "is_reserved": 0, "is_disabled": 0, "fusion_lon": 0.0, "bike_id": "b382dcd5b4a5fb69648342a60e30c0cf", "lon": -76.99057266666667, "rental_uris": {"ios": "https://dc.lft.to/lastmile_qr_scan", "android": "https://dc.lft.to/lastmile_qr_scan"}}, {"name": "3dd5ea9f258fb5a8212bdfbb85f14dca", "fusion_lat": 0.0, "type": "electric_scooter", "lat": 38.902712666666666, "is_reserved": 0, "is_disabled": 0, "fusion_lon": 0.0, "bike_id": "3dd5ea9f258fb5a8212bdfbb85f14dca", "lon": -77.04372683333334, "rental_uris": {"ios": "https://dc.lft.to/lastmile_qr_scan", "android": "https://dc.lft.to/lastmile_qr_scan"}}, {"name": "331c87faad8188c2e4b91ef8ecb096da", "fusion_lat": 0.0, "type": "electric_scooter", "lat": 38.923653, "is_reserved": 0, "is_disabled": 0, "fusion_lon": 0.0, "bike_id": "331c87faad8188c2e4b91ef8ecb096da", "lon": -77.05131866666666, "rental_uris": {"ios": "https://dc.lft.to/lastmile_qr_scan", "android": "https://dc.lft.to/lastmile_qr_scan"}}, {"name": "e5ea22c088377ca6f2c5399002ee72b9", "fusion_lat": 0.0, "type": "electric_scooter", "lat": 38.860741, "is_reserved": 0, "is_disabled": 0, "fusion_lon": 0.0, "bike_id": "e5ea22c088377ca6f2c5399002ee72b9", "lon": -76.967505, "rental_uris": {"ios": "https://dc.lft.to/lastmile_qr_scan", "android": "https://dc.lft.to/lastmile_qr_scan"}}, {"name": "a038666326192412c6585e7aaec6fd54", "fusion_lat": 0.0, "type": "electric_scooter", "lat": 38.9140775, "is_reserved": 0, "is_disabled": 0, "fusion_lon": 0.0, "bike_id": "a038666326192412c6585e7aaec6fd54", "lon": -77.0132355, "rental_uris": {"ios": "https://dc.lft.to/lastmile_qr_scan", "android": "https://dc.lft.to/lastmile_qr_scan"}}, {"name": "779ca33902962cf48969315f2346e499", "fusion_lat": 0.0, "type": "electric_scooter", "lat": 38.92206616666667, "is_reserved": 0, "is_disabled": 0, "fusion_lon": 0.0, "bike_id": "779ca33902962cf48969315f2346e499", "lon": -77.04312583333333, "rental_uris": {"ios": "https://dc.lft.to/lastmile_qr_scan", "android": "https://dc.lft.to/lastmile_qr_scan"}}, {"name": "5dbd61d78afd010e164c20139b5a049b", "fusion_lat": 0.0, "type": "electric_scooter", "lat": 38.91698066666667, "is_reserved": 0, "is_disabled": 0, "fusion_lon": 0.0, "bike_id": "5dbd61d78afd010e164c20139b5a049b", "lon": -77.03144383333333, "rental_uris": {"ios": "https://dc.lft.to/lastmile_qr_scan", "android": "https://dc.lft.to/lastmile_qr_scan"}}, {"name": "49c4493cfdd94284cdd4392f69320505", "fusion_lat": 0.0, "type": "electric_scooter", "lat": 38.932522, "is_reserved": 0, "is_disabled": 0, "fusion_lon": 0.0, "bike_id": "49c4493cfdd94284cdd4392f69320505", "lon": -77.02020766666666, "rental_uris": {"ios": "https://dc.lft.to/lastmile_qr_scan", "android": "https://dc.lft.to/lastmile_qr_scan"}}, {"name": "00bcaf8b635c17babef3edf45dce7ce3", "fusion_lat": 0.0, "type": "electric_scooter", "lat": 38.886011833333335, "is_reserved": 0, "is_disabled": 0, "fusion_lon": 0.0, "bike_id": "00bcaf8b635c17babef3edf45dce7ce3", "lon": -77.022051, "rental_uris": {"ios": "https://dc.lft.to/lastmile_qr_scan", "android": "https://dc.lft.to/lastmile_qr_scan"}}, {"name": "c3ebc0edc49e35adf49179e600fba4cd", "fusion_lat": 0.0, "type": "electric_scooter", "lat": 38.934552333333336, "is_reserved": 0, "is_disabled": 0, "fusion_lon": 0.0, "bike_id": "c3ebc0edc49e35adf49179e600fba4cd", "lon": -77.02916066666667, "rental_uris": {"ios": "https://dc.lft.to/lastmile_qr_scan", "android": "https://dc.lft.to/lastmile_qr_scan"}}, {"name": "f66d18084e910060409a811a8a74687a", "fusion_lat": 0.0, "type": "electric_scooter", "lat": 38.906899833333334, "is_reserved": 0, "is_disabled": 0, "fusion_lon": 0.0, "bike_id": "f66d18084e910060409a811a8a74687a", "lon": -77.03465366666667, "rental_uris": {"ios": "https://dc.lft.to/lastmile_qr_scan", "android": "https://dc.lft.to/lastmile_qr_scan"}}, {"name": "626f75e12fff9e06dadd5d25d0a8dd6b", "fusion_lat": 0.0, "type": "electric_scooter", "lat": 38.873864, "is_reserved": 0, "is_disabled": 0, "fusion_lon": 0.0, "bike_id": "626f75e12fff9e06dadd5d25d0a8dd6b", "lon": -77.0003735, "rental_uris": {"ios": "https://dc.lft.to/lastmile_qr_scan", "android": "https://dc.lft.to/lastmile_qr_scan"}}, {"name": "a5e5948a59b4e72f4a08e4dbacb371a1", "fusion_lat": 0.0, "type": "electric_scooter", "lat": 38.880551, "is_reserved": 0, "is_disabled": 0, "fusion_lon": 0.0, "bike_id": "a5e5948a59b4e72f4a08e4dbacb371a1", "lon": -77.0248285, "rental_uris": {"ios": "https://dc.lft.to/lastmile_qr_scan", "android": "https://dc.lft.to/lastmile_qr_scan"}}, {"name": "b15a6bbb7a0b87424074d4e54e09c5e1", "fusion_lat": 0.0, "type": "electric_bike", "lat": 38.88127866666667, "is_reserved": 0, "is_disabled": 0, "fusion_lon": 0.0, "bike_id": "b15a6bbb7a0b87424074d4e54e09c5e1", "lon": -77.012969, "rental_uris": {"ios": "https://dc.lft.to/lastmile_qr_scan", "android": "https://dc.lft.to/lastmile_qr_scan"}}, {"name": "0635d0bb34967052e167ab1b926b2101", "fusion_lat": 0.0, "type": "electric_scooter", "lat": 38.911976833333334, "is_reserved": 0, "is_disabled": 0, "fusion_lon": 0.0, "bike_id": "0635d0bb34967052e167ab1b926b2101", "lon": -77.0188815, "rental_uris": {"ios": "https://dc.lft.to/lastmile_qr_scan", "android": "https://dc.lft.to/lastmile_qr_scan"}}, {"name": "bdbb5f72ef0c70e515308e358e948aae", "fusion_lat": 0.0, "type": "electric_scooter", "lat": 38.896887, "is_reserved": 0, "is_disabled": 0, "fusion_lon": 0.0, "bike_id": "bdbb5f72ef0c70e515308e358e948aae", "lon": -76.935433, "rental_uris": {"ios": "https://dc.lft.to/lastmile_qr_scan", "android": "https://dc.lft.to/lastmile_qr_scan"}}, {"name": "6a047138ff0ea79aa6495e5ff77b4549", "fusion_lat": 0.0, "type": "electric_scooter", "lat": 38.89361533333334, "is_reserved": 0, "is_disabled": 0, "fusion_lon": 0.0, "bike_id": "6a047138ff0ea79aa6495e5ff77b4549", "lon": -77.0465795, "rental_uris": {"ios": "https://dc.lft.to/lastmile_qr_scan", "android": "https://dc.lft.to/lastmile_qr_scan"}}, {"name": "6c897e4017b0a64fe4f6dc39162d8157", "fusion_lat": 0.0, "type": "electric_scooter", "lat": 38.910611, "is_reserved": 0, "is_disabled": 0, "fusion_lon": 0.0, "bike_id": "6c897e4017b0a64fe4f6dc39162d8157", "lon": -77.04574516666666, "rental_uris": {"ios": "https://dc.lft.to/lastmile_qr_scan", "android": "https://dc.lft.to/lastmile_qr_scan"}}, {"name": "465cd5e19085adce80ab1dcf9aae5979", "fusion_lat": 0.0, "type": "electric_scooter", "lat": 38.91705283333334, "is_reserved": 0, "is_disabled": 0, "fusion_lon": 0.0, "bike_id": "465cd5e19085adce80ab1dcf9aae5979", "lon": -77.03144316666666, "rental_uris": {"ios": "https://dc.lft.to/lastmile_qr_scan", "android": "https://dc.lft.to/lastmile_qr_scan"}}, {"name": "296b3e107cc46325bcf9cc258afd4444", "fusion_lat": 0.0, "type": "electric_scooter", "lat": 38.91880666666667, "is_reserved": 0, "is_disabled": 0, "fusion_lon": 0.0, "bike_id": "296b3e107cc46325bcf9cc258afd4444", "lon": -77.04309516666666, "rental_uris": {"ios": "https://dc.lft.to/lastmile_qr_scan", "android": "https://dc.lft.to/lastmile_qr_scan"}}, {"name": "4c241a471435babf1b55ecea5100610a", "fusion_lat": 0.0, "type": "electric_scooter", "lat": 38.912738166666664, "is_reserved": 0, "is_disabled": 0, "fusion_lon": 0.0, "bike_id": "4c241a471435babf1b55ecea5100610a", "lon": -77.029598, "rental_uris": {"ios": "https://dc.lft.to/lastmile_qr_scan", "android": "https://dc.lft.to/lastmile_qr_scan"}}, {"name": "a469cc254ab739f151090a7e1504ddcf", "fusion_lat": 0.0, "type": "electric_scooter", "lat": 38.896061333333336, "is_reserved": 0, "is_disabled": 0, "fusion_lon": 0.0, "bike_id": "a469cc254ab739f151090a7e1504ddcf", "lon": -77.046683, "rental_uris": {"ios": "https://dc.lft.to/lastmile_qr_scan", "android": "https://dc.lft.to/lastmile_qr_scan"}}, {"name": "5d635472d0855dc65c4718881af0f393", "fusion_lat": 0.0, "type": "electric_scooter", "lat": 38.90240716666667, "is_reserved": 0, "is_disabled": 0, "fusion_lon": 0.0, "bike_id": "5d635472d0855dc65c4718881af0f393", "lon": -77.0456495, "rental_uris": {"ios": "https://dc.lft.to/lastmile_qr_scan", "android": "https://dc.lft.to/lastmile_qr_scan"}}, {"name": "1ff7fe859f3909ba3cc61b9a7c213b5c", "fusion_lat": 0.0, "type": "electric_scooter", "lat": 38.925282333333335, "is_reserved": 0, "is_disabled": 0, "fusion_lon": 0.0, "bike_id": "1ff7fe859f3909ba3cc61b9a7c213b5c", "lon": -77.03220783333333, "rental_uris": {"ios": "https://dc.lft.to/lastmile_qr_scan", "android": "https://dc.lft.to/lastmile_qr_scan"}}, {"name": "794cedec72113fb5754135216e910b23", "fusion_lat": 0.0, "type": "electric_scooter", "lat": 38.936935166666665, "is_reserved": 0, "is_disabled": 0, "fusion_lon": 0.0, "bike_id": "794cedec72113fb5754135216e910b23", "lon": -77.03284316666667, "rental_uris": {"ios": "https://dc.lft.to/lastmile_qr_scan", "android": "https://dc.lft.to/lastmile_qr_scan"}}, {"name": "69b61c2f74be84e74f2378c018cbdda0", "fusion_lat": 0.0, "type": "electric_scooter", "lat": 38.89657533333333, "is_reserved": 0, "is_disabled": 0, "fusion_lon": 0.0, "bike_id": "69b61c2f74be84e74f2378c018cbdda0", "lon": -77.05042183333333, "rental_uris": {"ios": "https://dc.lft.to/lastmile_qr_scan", "android": "https://dc.lft.to/lastmile_qr_scan"}}, {"name": "68259a3c696b6158e5472565f210394e", "fusion_lat": 0.0, "type": "electric_bike", "lat": 38.85063233333333, "is_reserved": 0, "is_disabled": 0, "fusion_lon": 0.0, "bike_id": "68259a3c696b6158e5472565f210394e", "lon": -76.9733065, "rental_uris": {"ios": "https://dc.lft.to/lastmile_qr_scan", "android": "https://dc.lft.to/lastmile_qr_scan"}}, {"name": "79232246da4111e84b6b2931aec9a570", "fusion_lat": 0.0, "type": "electric_scooter", "lat": 38.92013, "is_reserved": 0, "is_disabled": 0, "fusion_lon": 0.0, "bike_id": "79232246da4111e84b6b2931aec9a570", "lon": -77.03486466666666, "rental_uris": {"ios": "https://dc.lft.to/lastmile_qr_scan", "android": "https://dc.lft.to/lastmile_qr_scan"}}, {"name": "dd413b7308e504472fd69296872b0fa9", "fusion_lat": 0.0, "type": "electric_scooter", "lat": 38.96182816666666, "is_reserved": 0, "is_disabled": 0, "fusion_lon": 0.0, "bike_id": "dd413b7308e504472fd69296872b0fa9", "lon": -77.032224, "rental_uris": {"ios": "https://dc.lft.to/lastmile_qr_scan", "android": "https://dc.lft.to/lastmile_qr_scan"}}, {"name": "0a45bb15dd84f2e175effbe902b7e271", "fusion_lat": 0.0, "type": "electric_scooter", "lat": 38.930906666666665, "is_reserved": 0, "is_disabled": 0, "fusion_lon": 0.0, "bike_id": "0a45bb15dd84f2e175effbe902b7e271", "lon": -77.02400933333334, "rental_uris": {"ios": "https://dc.lft.to/lastmile_qr_scan", "android": "https://dc.lft.to/lastmile_qr_scan"}}, {"name": "3a92ca4391ac40337a57546465d8ce88", "fusion_lat": 0.0, "type": "electric_scooter", "lat": 38.918239166666666, "is_reserved": 0, "is_disabled": 0, "fusion_lon": 0.0, "bike_id": "3a92ca4391ac40337a57546465d8ce88", "lon": -77.04016483333334, "rental_uris": {"ios": "https://dc.lft.to/lastmile_qr_scan", "android": "https://dc.lft.to/lastmile_qr_scan"}}, {"name": "d1a14a860ba97bae0f01a702d818f02e", "fusion_lat": 0.0, "type": "electric_scooter", "lat": 38.9180295, "is_reserved": 0, "is_disabled": 0, "fusion_lon": 0.0, "bike_id": "d1a14a860ba97bae0f01a702d818f02e", "lon": -77.02820433333333, "rental_uris": {"ios": "https://dc.lft.to/lastmile_qr_scan", "android": "https://dc.lft.to/lastmile_qr_scan"}}, {"name": "17b6adb29cb55aea43bb27841968debd", "fusion_lat": 0.0, "type": "electric_scooter", "lat": 38.9342395, "is_reserved": 0, "is_disabled": 0, "fusion_lon": 0.0, "bike_id": "17b6adb29cb55aea43bb27841968debd", "lon": -77.04001916666667, "rental_uris": {"ios": "https://dc.lft.to/lastmile_qr_scan", "android": "https://dc.lft.to/lastmile_qr_scan"}}, {"name": "7e3e559d74f276d2af9632756df10d90", "fusion_lat": 0.0, "type": "electric_bike", "lat": 38.838132, "is_reserved": 0, "is_disabled": 0, "fusion_lon": 0.0, "bike_id": "7e3e559d74f276d2af9632756df10d90", "lon": -77.09522516666667, "rental_uris": {"ios": "https://dc.lft.to/lastmile_qr_scan", "android": "https://dc.lft.to/lastmile_qr_scan"}}, {"name": "655845be8b8a02f71293f447be094f58", "fusion_lat": 0.0, "type": "electric_bike", "lat": 38.9732995, "is_reserved": 0, "is_disabled": 0, "fusion_lon": 0.0, "bike_id": "655845be8b8a02f71293f447be094f58", "lon": -77.0214995, "rental_uris": {"ios": "https://dc.lft.to/lastmile_qr_scan", "android": "https://dc.lft.to/lastmile_qr_scan"}}, {"name": "3ba18c0155452bac4b03502de3545579", "fusion_lat": 0.0, "type": "electric_scooter", "lat": 38.87460383333333, "is_reserved": 0, "is_disabled": 0, "fusion_lon": 0.0, "bike_id": "3ba18c0155452bac4b03502de3545579", "lon": -77.001686, "rental_uris": {"ios": "https://dc.lft.to/lastmile_qr_scan", "android": "https://dc.lft.to/lastmile_qr_scan"}}, {"name": "4623336ec3813ca13ee663cafc9f336e", "fusion_lat": 0.0, "type": "electric_scooter", "lat": 38.901426666666666, "is_reserved": 0, "is_disabled": 0, "fusion_lon": 0.0, "bike_id": "4623336ec3813ca13ee663cafc9f336e", "lon": -76.99970516666667, "rental_uris": {"ios": "https://dc.lft.to/lastmile_qr_scan", "android": "https://dc.lft.to/lastmile_qr_scan"}}, {"name": "19cab5169e10edfd6bec747a0ec137fd", "fusion_lat": 0.0, "type": "electric_bike", "lat": 38.9705615, "is_reserved": 0, "is_disabled": 0, "fusion_lon": 0.0, "bike_id": "19cab5169e10edfd6bec747a0ec137fd", "lon": -76.9362205, "rental_uris": {"ios": "https://dc.lft.to/lastmile_qr_scan", "android": "https://dc.lft.to/lastmile_qr_scan"}}, {"name": "bd99a62a67cd97260acc75b4b92dabfc", "fusion_lat": 0.0, "type": "electric_bike", "lat": 38.9029025, "is_reserved": 0, "is_disabled": 0, "fusion_lon": 0.0, "bike_id": "bd99a62a67cd97260acc75b4b92dabfc", "lon": -76.980804, "rental_uris": {"ios": "https://dc.lft.to/lastmile_qr_scan", "android": "https://dc.lft.to/lastmile_qr_scan"}}, {"name": "a7d0ddf0727729f40a9ed61260f5e076", "fusion_lat": 0.0, "type": "electric_scooter", "lat": 38.918175833333336, "is_reserved": 0, "is_disabled": 0, "fusion_lon": 0.0, "bike_id": "a7d0ddf0727729f40a9ed61260f5e076", "lon": -77.01279266666667, "rental_uris": {"ios": "https://dc.lft.to/lastmile_qr_scan", "android": "https://dc.lft.to/lastmile_qr_scan"}}, {"name": "14648da740335733157b4f066362bb9d", "fusion_lat": 0.0, "type": "electric_scooter", "lat": 38.865081333333336, "is_reserved": 0, "is_disabled": 0, "fusion_lon": 0.0, "bike_id": "14648da740335733157b4f066362bb9d", "lon": -76.9900315, "rental_uris": {"ios": "https://dc.lft.to/lastmile_qr_scan", "android": "https://dc.lft.to/lastmile_qr_scan"}}, {"name": "8dfff860ff59a870c223b511dd184e80", "fusion_lat": 0.0, "type": "electric_scooter", "lat": 38.9246885, "is_reserved": 0, "is_disabled": 0, "fusion_lon": 0.0, "bike_id": "8dfff860ff59a870c223b511dd184e80", "lon": -77.02712916666667, "rental_uris": {"ios": "https://dc.lft.to/lastmile_qr_scan", "android": "https://dc.lft.to/lastmile_qr_scan"}}, {"name": "fea3b7f4172bf4bddea5c94e43ae2d9d", "fusion_lat": 0.0, "type": "electric_scooter", "lat": 38.90733916666667, "is_reserved": 0, "is_disabled": 0, "fusion_lon": 0.0, "bike_id": "fea3b7f4172bf4bddea5c94e43ae2d9d", "lon": -77.01071583333334, "rental_uris": {"ios": "https://dc.lft.to/lastmile_qr_scan", "android": "https://dc.lft.to/lastmile_qr_scan"}}, {"name": "3c033659526fdde32199e22a7cc8def5", "fusion_lat": 0.0, "type": "electric_scooter", "lat": 38.901478, "is_reserved": 0, "is_disabled": 0, "fusion_lon": 0.0, "bike_id": "3c033659526fdde32199e22a7cc8def5", "lon": -76.97424816666667, "rental_uris": {"ios": "https://dc.lft.to/lastmile_qr_scan", "android": "https://dc.lft.to/lastmile_qr_scan"}}, {"name": "d02dc221a1649584e11564a629af0a6a", "fusion_lat": 0.0, "type": "electric_scooter", "lat": 38.91824916666667, "is_reserved": 0, "is_disabled": 0, "fusion_lon": 0.0, "bike_id": "d02dc221a1649584e11564a629af0a6a", "lon": -77.02421733333334, "rental_uris": {"ios": "https://dc.lft.to/lastmile_qr_scan", "android": "https://dc.lft.to/lastmile_qr_scan"}}, {"name": "61b6acba2c2d87f690198d79630a8161", "fusion_lat": 0.0, "type": "electric_scooter", "lat": 38.93734366666666, "is_reserved": 0, "is_disabled": 0, "fusion_lon": 0.0, "bike_id": "61b6acba2c2d87f690198d79630a8161", "lon": -77.03262533333333, "rental_uris": {"ios": "https://dc.lft.to/lastmile_qr_scan", "android": "https://dc.lft.to/lastmile_qr_scan"}}, {"name": "a7dfa6152207d1f9b2ec067617d5a049", "fusion_lat": 0.0, "type": "electric_scooter", "lat": 38.91296216666667, "is_reserved": 0, "is_disabled": 0, "fusion_lon": 0.0, "bike_id": "a7dfa6152207d1f9b2ec067617d5a049", "lon": -77.06115516666667, "rental_uris": {"ios": "https://dc.lft.to/lastmile_qr_scan", "android": "https://dc.lft.to/lastmile_qr_scan"}}, {"name": "f702d22178f5853db1c4e7e2b5f27323", "fusion_lat": 0.0, "type": "electric_scooter", "lat": 38.94256633333333, "is_reserved": 0, "is_disabled": 0, "fusion_lon": 0.0, "bike_id": "f702d22178f5853db1c4e7e2b5f27323", "lon": -77.041375, "rental_uris": {"ios": "https://dc.lft.to/lastmile_qr_scan", "android": "https://dc.lft.to/lastmile_qr_scan"}}, {"name": "0e6112aecc47329d2aa93c753e4196ca", "fusion_lat": 0.0, "type": "electric_bike", "lat": 39.033455833333335, "is_reserved": 0, "is_disabled": 0, "fusion_lon": 0.0, "bike_id": "0e6112aecc47329d2aa93c753e4196ca", "lon": -77.049103, "rental_uris": {"ios": "https://dc.lft.to/lastmile_qr_scan", "android": "https://dc.lft.to/lastmile_qr_scan"}}, {"name": "c02b1c7d793852652eae94f7adb26277", "fusion_lat": 0.0, "type": "electric_scooter", "lat": 38.90925433333334, "is_reserved": 0, "is_disabled": 0, "fusion_lon": 0.0, "bike_id": "c02b1c7d793852652eae94f7adb26277", "lon": -77.03865733333333, "rental_uris": {"ios": "https://dc.lft.to/lastmile_qr_scan", "android": "https://dc.lft.to/lastmile_qr_scan"}}, {"name": "18adce0b4e07e5115518b85685749823", "fusion_lat": 0.0, "type": "electric_scooter", "lat": 38.9016145, "is_reserved": 0, "is_disabled": 0, "fusion_lon": 0.0, "bike_id": "18adce0b4e07e5115518b85685749823", "lon": -77.05401533333334, "rental_uris": {"ios": "https://dc.lft.to/lastmile_qr_scan", "android": "https://dc.lft.to/lastmile_qr_scan"}}, {"name": "cc646c15122c9de3525e1a369621bc7b", "fusion_lat": 0.0, "type": "electric_scooter", "lat": 38.93889466666667, "is_reserved": 0, "is_disabled": 0, "fusion_lon": 0.0, "bike_id": "cc646c15122c9de3525e1a369621bc7b", "lon": -77.03265016666667, "rental_uris": {"ios": "https://dc.lft.to/lastmile_qr_scan", "android": "https://dc.lft.to/lastmile_qr_scan"}}, {"name": "4e794043576ffaf71e89424932a69f6c", "fusion_lat": 0.0, "type": "electric_scooter", "lat": 38.9054215, "is_reserved": 0, "is_disabled": 0, "fusion_lon": 0.0, "bike_id": "4e794043576ffaf71e89424932a69f6c", "lon": -77.06268366666667, "rental_uris": {"ios": "https://dc.lft.to/lastmile_qr_scan", "android": "https://dc.lft.to/lastmile_qr_scan"}}, {"name": "36b19afe4d7582b8e1c7843217073716", "fusion_lat": 0.0, "type": "electric_scooter", "lat": 38.91821633333333, "is_reserved": 0, "is_disabled": 0, "fusion_lon": 0.0, "bike_id": "36b19afe4d7582b8e1c7843217073716", "lon": -77.01014433333333, "rental_uris": {"ios": "https://dc.lft.to/lastmile_qr_scan", "android": "https://dc.lft.to/lastmile_qr_scan"}}, {"name": "7dfd48f4179c318237d0e1faa8584a2a", "fusion_lat": 0.0, "type": "electric_scooter", "lat": 38.93902283333333, "is_reserved": 0, "is_disabled": 0, "fusion_lon": 0.0, "bike_id": "7dfd48f4179c318237d0e1faa8584a2a", "lon": -77.06041383333333, "rental_uris": {"ios": "https://dc.lft.to/lastmile_qr_scan", "android": "https://dc.lft.to/lastmile_qr_scan"}}, {"name": "4013f74412dba22e9a8330d56018623d", "fusion_lat": 0.0, "type": "electric_scooter", "lat": 38.88367566666667, "is_reserved": 0, "is_disabled": 0, "fusion_lon": 0.0, "bike_id": "4013f74412dba22e9a8330d56018623d", "lon": -77.03174866666667, "rental_uris": {"ios": "https://dc.lft.to/lastmile_qr_scan", "android": "https://dc.lft.to/lastmile_qr_scan"}}, {"name": "f4b8f14728f14e580720d6d2dc4ba231", "fusion_lat": 0.0, "type": "electric_scooter", "lat": 38.91685283333333, "is_reserved": 0, "is_disabled": 0, "fusion_lon": 0.0, "bike_id": "f4b8f14728f14e580720d6d2dc4ba231", "lon": -77.0297645, "rental_uris": {"ios": "https://dc.lft.to/lastmile_qr_scan", "android": "https://dc.lft.to/lastmile_qr_scan"}}, {"name": "2cf4a95c9e2a804521ebc8ec83068324", "fusion_lat": 0.0, "type": "electric_scooter", "lat": 38.93632933333333, "is_reserved": 0, "is_disabled": 0, "fusion_lon": 0.0, "bike_id": "2cf4a95c9e2a804521ebc8ec83068324", "lon": -77.03663816666666, "rental_uris": {"ios": "https://dc.lft.to/lastmile_qr_scan", "android": "https://dc.lft.to/lastmile_qr_scan"}}, {"name": "ad4d98280328a7a3127bb1f4b67231a9", "fusion_lat": 0.0, "type": "electric_scooter", "lat": 38.912602, "is_reserved": 0, "is_disabled": 0, "fusion_lon": 0.0, "bike_id": "ad4d98280328a7a3127bb1f4b67231a9", "lon": -77.0095385, "rental_uris": {"ios": "https://dc.lft.to/lastmile_qr_scan", "android": "https://dc.lft.to/lastmile_qr_scan"}}, {"name": "ffc4791fcc7c39fa72e0e408e1bdce5f", "fusion_lat": 0.0, "type": "electric_bike", "lat": 38.96623733333333, "is_reserved": 0, "is_disabled": 0, "fusion_lon": 0.0, "bike_id": "ffc4791fcc7c39fa72e0e408e1bdce5f", "lon": -76.97670183333334, "rental_uris": {"ios": "https://dc.lft.to/lastmile_qr_scan", "android": "https://dc.lft.to/lastmile_qr_scan"}}, {"name": "c4fae8d6b94b2e75dadedbfecfdfc805", "fusion_lat": 0.0, "type": "electric_scooter", "lat": 38.9198585, "is_reserved": 0, "is_disabled": 0, "fusion_lon": 0.0, "bike_id": "c4fae8d6b94b2e75dadedbfecfdfc805", "lon": -77.03970083333333, "rental_uris": {"ios": "https://dc.lft.to/lastmile_qr_scan", "android": "https://dc.lft.to/lastmile_qr_scan"}}, {"name": "0693eb13f71f315620eb7452127c9c53", "fusion_lat": 0.0, "type": "electric_scooter", "lat": 38.920226, "is_reserved": 0, "is_disabled": 0, "fusion_lon": 0.0, "bike_id": "0693eb13f71f315620eb7452127c9c53", "lon": -77.01411316666666, "rental_uris": {"ios": "https://dc.lft.to/lastmile_qr_scan", "android": "https://dc.lft.to/lastmile_qr_scan"}}, {"name": "951a868d158c793995a57c1e9afd08c2", "fusion_lat": 0.0, "type": "electric_scooter", "lat": 38.9004685, "is_reserved": 0, "is_disabled": 0, "fusion_lon": 0.0, "bike_id": "951a868d158c793995a57c1e9afd08c2", "lon": -77.03275283333333, "rental_uris": {"ios": "https://dc.lft.to/lastmile_qr_scan", "android": "https://dc.lft.to/lastmile_qr_scan"}}, {"name": "a0e3e11532c48268fa8fb3eab5946035", "fusion_lat": 0.0, "type": "electric_scooter", "lat": 38.934665, "is_reserved": 0, "is_disabled": 0, "fusion_lon": 0.0, "bike_id": "a0e3e11532c48268fa8fb3eab5946035", "lon": -77.03262633333334, "rental_uris": {"ios": "https://dc.lft.to/lastmile_qr_scan", "android": "https://dc.lft.to/lastmile_qr_scan"}}, {"name": "e930cd889cc53cba5adbf0f3ef74d3e5", "fusion_lat": 0.0, "type": "electric_scooter", "lat": 38.90043416666666, "is_reserved": 0, "is_disabled": 0, "fusion_lon": 0.0, "bike_id": "e930cd889cc53cba5adbf0f3ef74d3e5", "lon": -77.029857, "rental_uris": {"ios": "https://dc.lft.to/lastmile_qr_scan", "android": "https://dc.lft.to/lastmile_qr_scan"}}, {"name": "6b180703b935183aed88e13d6a791183", "fusion_lat": 0.0, "type": "electric_scooter", "lat": 38.918173, "is_reserved": 0, "is_disabled": 0, "fusion_lon": 0.0, "bike_id": "6b180703b935183aed88e13d6a791183", "lon": -77.03211233333333, "rental_uris": {"ios": "https://dc.lft.to/lastmile_qr_scan", "android": "https://dc.lft.to/lastmile_qr_scan"}}, {"name": "d3ecfb9d6363c20a2ec881e9d8f59eab", "fusion_lat": 0.0, "type": "electric_scooter", "lat": 38.878068999999996, "is_reserved": 0, "is_disabled": 0, "fusion_lon": 0.0, "bike_id": "d3ecfb9d6363c20a2ec881e9d8f59eab", "lon": -77.0175935, "rental_uris": {"ios": "https://dc.lft.to/lastmile_qr_scan", "android": "https://dc.lft.to/lastmile_qr_scan"}}, {"name": "fa552996f5bec9a10afe229ce544f661", "fusion_lat": 0.0, "type": "electric_scooter", "lat": 38.9070215, "is_reserved": 0, "is_disabled": 0, "fusion_lon": 0.0, "bike_id": "fa552996f5bec9a10afe229ce544f661", "lon": -77.02397383333333, "rental_uris": {"ios": "https://dc.lft.to/lastmile_qr_scan", "android": "https://dc.lft.to/lastmile_qr_scan"}}, {"name": "e82a6bf328fcee071130ee7b1190dac5", "fusion_lat": 0.0, "type": "electric_scooter", "lat": 38.90364133333333, "is_reserved": 0, "is_disabled": 0, "fusion_lon": 0.0, "bike_id": "e82a6bf328fcee071130ee7b1190dac5", "lon": -77.00348233333334, "rental_uris": {"ios": "https://dc.lft.to/lastmile_qr_scan", "android": "https://dc.lft.to/lastmile_qr_scan"}}, {"name": "8fbfd3492a4a0222dea7467402e9db54", "fusion_lat": 0.0, "type": "electric_scooter", "lat": 38.91261083333333, "is_reserved": 0, "is_disabled": 0, "fusion_lon": 0.0, "bike_id": "8fbfd3492a4a0222dea7467402e9db54", "lon": -77.03867883333334, "rental_uris": {"ios": "https://dc.lft.to/lastmile_qr_scan", "android": "https://dc.lft.to/lastmile_qr_scan"}},