{"data": {"bikes": [{"is_reserved": 0, "type": "electric_scooter", "fusion_lat": 0.0, "is_disabled": 0, "rental_uris": {"ios": "https://dc.lft.to/lastmile_qr_scan", "android": "https://dc.lft.to/lastmile_qr_scan"}, "bike_id": "7110fdd627ac8279cc9f425890fc1d93", "lat": 38.93192666666667, "name": "7110fdd627ac8279cc9f425890fc1d93", "lon": -77.03260083333333, "fusion_lon": 0.0}, {"is_reserved": 0, "type": "electric_scooter", "fusion_lat": 0.0, "is_disabled": 0, "rental_uris": {"ios": "https://dc.lft.to/lastmile_qr_scan", "android": "https://dc.lft.to/lastmile_qr_scan"}, "bike_id": "7dd2697108ff6587f7a8ac450f3d24a0", "lat": 38.946802166666664, "name": "7dd2697108ff6587f7a8ac450f3d24a0", "lon": -77.03283333333333, "fusion_lon": 0.0}, {"is_reserved": 0, "type": "electric_scooter", "fusion_lat": 0.0, "is_disabled": 0, "rental_uris": {"ios": "https://dc.lft.to/lastmile_qr_scan", "android": "https://dc.lft.to/lastmile_qr_scan"}, "bike_id": "659cd14b77f78ac846a76f0a38a55c01", "lat": 38.93857283333333, "name": "659cd14b77f78ac846a76f0a38a55c01", "lon": -77.02460333333333, "fusion_lon": 0.0}, {"is_reserved": 0, "type": "electric_scooter", "fusion_lat": 0.0, "is_disabled": 0, "rental_uris": {"ios": "https://dc.lft.to/lastmile_qr_scan", "android": "https://dc.lft.to/lastmile_qr_scan"}, "bike_id": "222104a796c1c16e56c9157da70ef7ec", "lat": 38.9052995, "name": "222104a796c1c16e56c9157da70ef7ec", "lon": -77.03089383333334, "fusion_lon": 0.0}, {"is_reserved": 0, "type": "electric_bike", "fusion_lat": 0.0, "is_disabled": 0, "rental_uris": {"ios": "https://dc.lft.to/lastmile_qr_scan", "android": "https://dc.lft.to/lastmile_qr_scan"}, "bike_id": "8be63de729b41c62b720c71a8142ff38", "lat": 38.961257, "name": "8be63de729b41c62b720c71a8142ff38", "lon": -77.03271916666667, "fusion_lon": 0.0}, {"is_reserved": 0, "type": "electric_scooter", "fusion_lat": 0.0, "is_disabled": 0, "rental_uris": {"ios": "https://dc.lft.to/lastmile_qr_scan", "android": "https://dc.lft.to/lastmile_qr_scan"}, "bike_id": "38efeb36cc82d3801208b5a3152fec5b", "lat": 38.922891666666665, "name": "38efeb36cc82d3801208b5a3152fec5b", "lon": -77.02068466666667, "fusion_lon": 0.0}, {"is_reserved": 0, "type": "electric_scooter", "fusion_lat": 0.0, "is_disabled": 0, "rental_uris": {"ios": "https://dc.lft.to/lastmile_qr_scan", "android": "https://dc.lft.to/lastmile_qr_scan"}, "bike_id": "0d8de261b5bb30c333703ab009a70100", "lat": 38.88125316666667, "name": "0d8de261b5bb30c333703ab009a70100", "lon": -77.02271616666667, "fusion_lon": 0.0}, {"is_reserved": 0, "type": "electric_bike", "fusion_lat": 0.0, "is_disabled": 0, "rental_uris": {"ios": "https://dc.lft.to/lastmile_qr_scan", "android": "https://dc.lft.to/lastmile_qr_scan"}, "bike_id": "74bcd11b325775d960600256110d152b", "lat": 38.813255, "name": "74bcd11b325775d960600256110d152b", "lon": -77.050893, "fusion_lon": 0.0}, {"is_reserved": 0, "type": "electric_scooter", "fusion_lat": 0.0, "is_disabled": 0, "rental_uris": {"ios": "https://dc.lft.to/lastmile_qr_scan", "android": "https://dc.lft.to/lastmile_qr_scan"}, "bike_id": "888e9bd2d10818d781a97b6131033a85", "lat": 38.88448666666667, "name": "888e9bd2d10818d781a97b6131033a85", "lon": -76.95094683333333, "fusion_lon": 0.0}, {"is_reserved": 0, "type": "electric_scooter", "fusion_lat": 0.0, "is_disabled": 0, "rental_uris": {"ios": "https://dc.lft.to/lastmile_qr_scan", "android": "https://dc.lft.to/lastmile_qr_scan"}, "bike_id": "8da959821364e738034b24aaed44b86c", "lat": 38.887252833333335, "name": "8da959821364e738034b24aaed44b86c", "lon": -76.98376666666667, "fusion_lon": 0.0}, {"is_reserved": 0, "type": "electric_scooter", "fusion_lat": 0.0, "is_disabled": 0, "rental_uris": {"ios": "https://dc.lft.to/lastmile_qr_scan", "android": "https://dc.lft.to/lastmile_qr_scan"}, "bike_id": "1da8e374e294c7f4a538d12f76b160ed", "lat": 38.918065166666665, "name": "1da8e374e294c7f4a538d12f76b160ed", "lon": -77.03331283333333, "fusion_lon": 0.0}, {"is_reserved": 0, "type": "electric_scooter", "fusion_lat": 0.0, "is_disabled": 0, "rental_uris": {"ios": "https://dc.lft.to/lastmile_qr_scan", "android": "https://dc.lft.to/lastmile_qr_scan"}, "bike_id": "0a561b7d9ed0a60f87349e08ce56ae0b", "lat": 38.87926616666667, "name": "0a561b7d9ed0a60f87349e08ce56ae0b", "lon": -77.00604016666666, "fusion_lon": 0.0}, {"is_reserved": 0, "type": "electric_scooter", "fusion_lat": 0.0, "is_disabled": 0, "rental_uris": {"ios": "https://dc.lft.to/lastmile_qr_scan", "android": "https://dc.lft.to/lastmile_qr_scan"}, "bike_id": "8e2fe1c4d16df2a06734936f1849f9fe", "lat": 38.95623783333333, "name": "8e2fe1c4d16df2a06734936f1849f9fe", "lon": -77.0223795, "fusion_lon": 0.0}, {"is_reserved": 0, "type": "electric_scooter", "fusion_lat": 0.0, "is_disabled": 0, "rental_uris": {"ios": "https://dc.lft.to/lastmile_qr_scan", "android": "https://dc.lft.to/lastmile_qr_scan"}, "bike_id": "94b58e5e395ce363d4d72e22f0e38177", "lat": 38.87558816666667, "name": "94b58e5e395ce363d4d72e22f0e38177", "lon": -77.005937, "fusion_lon": 0.0}, {"is_reserved": 0, "type": "electric_scooter", "fusion_lat": 0.0, "is_disabled": 0, "rental_uris": {"ios": "https://dc.lft.to/lastmile_qr_scan", "android": "https://dc.lft.to/lastmile_qr_scan"}, "bike_id": "275762b71a5ce97f43a79c9e997f39f9", "lat": 38.93242033333333, "name": "275762b71a5ce97f43a79c9e997f39f9", "lon": -77.04074833333334, "fusion_lon": 0.0}, {"is_reserved": 0, "type": "electric_scooter", "fusion_lat": 0.0, "is_disabled": 0, "rental_uris": {"ios": "https://dc.lft.to/lastmile_qr_scan", "android": "https://dc.lft.to/lastmile_qr_scan"}, "bike_id": "1bfeed1ebcc28ae449d5f33335288f51", "lat": 38.899532666666666, "name": "1bfeed1ebcc28ae449d5f33335288f51", "lon": -77.04752533333334, "fusion_lon": 0.0}, {"is_reserved": 0, "type": "electric_scooter", "fusion_lat": 0.0, "is_disabled": 0, "rental_uris": {"ios": "https://dc.lft.to/lastmile_qr_scan", "android": "https://dc.lft.to/lastmile_qr_scan"}, "bike_id": "ab5a7fd8fe6423655ecaca7a4d25fac7", "lat": 38.893631666666664, "name": "ab5a7fd8fe6423655ecaca7a4d25fac7", "lon": -77.01961716666666, "fusion_lon": 0.0}, {"is_reserved": 0, "type": "electric_scooter", "fusion_lat": 0.0, "is_disabled": 0, "rental_uris": {"ios": "https://dc.lft.to/lastmile_qr_scan", "android": "https://dc.lft.to/lastmile_qr_scan"}, "bike_id": "0396a975eba2c26b17088dedc5b01503", "lat": 38.889860666666664, "name": "0396a975eba2c26b17088dedc5b01503", "lon": -76.9881335, "fusion_lon": 0.0}, {"is_reserved": 0, "type": "electric_bike", "fusion_lat": 0.0, "is_disabled": 0, "rental_uris": {"ios": "https://dc.lft.to/lastmile_qr_scan", "android": "https://dc.lft.to/lastmile_qr_scan"}, "bike_id": "30a4bdf4166e1d74b051f3f614ced49b", "lat": 38.94835466666667, "name": "30a4bdf4166e1d74b051f3f614ced49b", "lon": -77.054245, "fusion_lon": 0.0}, {"is_reserved": 0, "type": "electric_scooter", "fusion_lat": 0.0, "is_disabled": 0, "rental_uris": {"ios": "https://dc.lft.to/lastmile_qr_scan", "android": "https://dc.lft.to/lastmile_qr_scan"}, "bike_id": "d148cab5cb0489413b04a24244c405d8", "lat": 38.921240166666664, "name": "d148cab5cb0489413b04a24244c405d8", "lon": -77.04427633333333, "fusion_lon": 0.0}, {"is_reserved": 0, "type": "electric_scooter", "fusion_lat": 0.0, "is_disabled": 0, "rental_uris": {"ios": "https://dc.lft.to/lastmile_qr_scan", "android": "https://dc.lft.to/lastmile_qr_scan"}, "bike_id": "b407aae774c6782e247f28237440ed99", "lat": 38.92152933333333, "name": "b407aae774c6782e247f28237440ed99", "lon": -77.0346435, "fusion_lon": 0.0}, {"is_reserved": 0, "type": "electric_bike", "fusion_lat": 0.0, "is_disabled": 0, "rental_uris": {"ios": "https://dc.lft.to/lastmile_qr_scan", "android": "https://dc.lft.to/lastmile_qr_scan"}, "bike_id": "5ac03e214eb5a7bc6979cacc7e12f439", "lat": 38.88595483333334, "name": "5ac03e214eb5a7bc6979cacc7e12f439", "lon": -77.00079, "fusion_lon": 0.0}, {"is_reserved": 0, "type": "electric_scooter", "fusion_lat": 0.0, "is_disabled": 0, "rental_uris": {"ios": "https://dc.lft.to/lastmile_qr_scan", "android": "https://dc.lft.to/lastmile_qr_scan"}, "bike_id": "c0d74a47893088ae09f70fd3dde6ced4", "lat": 38.91404816666667, "name": "c0d74a47893088ae09f70fd3dde6ced4", "lon": -77.03332466666667, "fusion_lon": 0.0}, {"is_reserved": 0, "type": "electric_scooter", "fusion_lat": 0.0, "is_disabled": 0, "rental_uris": {"ios": "https://dc.lft.to/lastmile_qr_scan", "android": "https://dc.lft.to/lastmile_qr_scan"}, "bike_id": "a96243db7ed82571e5830eda34d69f87", "lat": 38.876057, "name": "a96243db7ed82571e5830eda34d69f87", "lon": -77.00573683333333, "fusion_lon": 0.0}, {"is_reserved": 0, "type": "electric_scooter", "fusion_lat": 0.0, "is_disabled": 0, "rental_uris": {"ios": "https://dc.lft.to/lastmile_qr_scan", "android": "https://dc.lft.to/lastmile_qr_scan"}, "bike_id": "87f8fdd8ee6020ebbcaf06852b19db54", "lat": 38.911587833333336, "name": "87f8fdd8ee6020ebbcaf06852b19db54", "lon": -77.04481066666666, "fusion_lon": 0.0}, {"is_reserved": 0, "type": "electric_scooter", "fusion_lat": 0.0, "is_disabled": 0, "rental_uris": {"ios": "https://dc.lft.to/lastmile_qr_scan", "android": "https://dc.lft.to/lastmile_qr_scan"}, "bike_id": "9c517f1d556a891e9700108158142d49", "lat": 38.8857955, "name": "9c517f1d556a891e9700108158142d49", "lon": -77.01225116666667, "fusion_lon": 0.0}, {"is_reserved": 0, "type": "electric_bike", "fusion_lat": 0.0, "is_disabled": 0, "rental_uris": {"ios": "https://dc.lft.to/lastmile_qr_scan", "android": "https://dc.lft.to/lastmile_qr_scan"}, "bike_id": "cd392fee631a510910349ea29b4ad77e", "lat": 38.865623166666666, "name": "cd392fee631a510910349ea29b4ad77e", "lon": -76.974803, "fusion_lon": 0.0}, {"is_reserved": 0, "type": "electric_scooter", "fusion_lat": 0.0, "is_disabled": 0, "rental_uris": {"ios": "https://dc.lft.to/lastmile_qr_scan", "android": "https://dc.lft.to/lastmile_qr_scan"}, "bike_id": "3ccc3fcd73f232a5a82c02299d7df1f0", "lat": 38.89832233333333, "name": "3ccc3fcd73f232a5a82c02299d7df1f0", "lon": -77.00216266666666, "fusion_lon": 0.0}, {"is_reserved": 0, "type": "electric_scooter", "fusion_lat": 0.0, "is_disabled": 0, "rental_uris": {"ios": "https://dc.lft.to/lastmile_qr_scan", "android": "https://dc.lft.to/lastmile_qr_scan"}, "bike_id": "9166117e0008a7c73ed003522a2a69e3", "lat": 38.900692166666666, "name": "9166117e0008a7c73ed003522a2a69e3", "lon": -77.013252, "fusion_lon": 0.0}, {"is_reserved": 0, "type": "electric_bike", "fusion_lat": 0.0, "is_disabled": 0, "rental_uris": {"ios": "https://dc.lft.to/lastmile_qr_scan", "android": "https://dc.lft.to/lastmile_qr_scan"}, "bike_id": "ce72a09f2d910e92d74d5fd80e51abce", "lat": 38.82429, "name": "ce72a09f2d910e92d74d5fd80e51abce", "lon": -77.120392, "fusion_lon": 0.0}, {"is_reserved": 0, "type": "electric_scooter", "fusion_lat": 0.0, "is_disabled": 0, "rental_uris": {"ios": "https://dc.lft.to/lastmile_qr_scan", "android": "https://dc.lft.to/lastmile_qr_scan"}, "bike_id": "8d7ce5aed695d1aef9c329e9d3df881b", "lat": 38.91041716666667, "name": "8d7ce5aed695d1aef9c329e9d3df881b", "lon": -77.01024016666666, "fusion_lon": 0.0}, {"is_reserved": 0, "type": "electric_scooter", "fusion_lat": 0.0, "is_disabled": 0, "rental_uris": {"ios": "https://dc.lft.to/lastmile_qr_scan", "android": "https://dc.lft.to/lastmile_qr_scan"}, "bike_id": "aed449229b95148d6e188d4987d539ab", "lat": 38.9305805, "name": "aed449229b95148d6e188d4987d539ab", "lon": -77.0366755, "fusion_lon": 0.0}, {"is_reserved": 0, "type": "electric_scooter", "fusion_lat": 0.0, "is_disabled": 0, "rental_uris": {"ios": "https://dc.lft.to/lastmile_qr_scan", "android": "https://dc.lft.to/lastmile_qr_scan"}, "bike_id": "baa5707ea4a715e0cfd935a6385f61af", "lat": 38.89468166666666, "name": "baa5707ea4a715e0cfd935a6385f61af", "lon": -77.02196516666666, "fusion_lon": 0.0}, {"is_reserved": 0, "type": "electric_scooter", "fusion_lat": 0.0, "is_disabled": 0, "rental_uris": {"ios": "https://dc.lft.to/lastmile_qr_scan", "android": "https://dc.lft.to/lastmile_qr_scan"}, "bike_id": "6c4bab523ea02e6e48b615f1f09719a7", "lat": 38.88612916666666, "name": "6c4bab523ea02e6e48b615f1f09719a7", "lon": -77.02204166666667, "fusion_lon": 0.0}, {"is_reserved": 0, "type": "electric_scooter", "fusion_lat": 0.0, "is_disabled": 0, "rental_uris": {"ios": "https://dc.lft.to/lastmile_qr_scan", "android": "https://dc.lft.to/lastmile_qr_scan"}, "bike_id": "8790ddf8ea3b5c5f43a4a9abcd2238ff", "lat": 38.90298633333333, "name": "8790ddf8ea3b5c5f43a4a9abcd2238ff", "lon": -76.99837966666666, "fusion_lon": 0.0}, {"is_reserved": 0, "type": "electric_scooter", "fusion_lat": 0.0, "is_disabled": 0, "rental_uris": {"ios": "https://dc.lft.to/lastmile_qr_scan", "android": "https://dc.lft.to/lastmile_qr_scan"}, "bike_id": "aa0aaca00a880c81d888341d63439c4e", "lat": 38.87288233333334, "name": "aa0aaca00a880c81d888341d63439c4e", "lon": -77.00985433333334, "fusion_lon": 0.0}, {"is_reserved": 0, "type": "electric_scooter", "fusion_lat": 0.0, "is_disabled": 0, "rental_uris": {"ios": "https://dc.lft.to/lastmile_qr_scan", "android": "https://dc.lft.to/lastmile_qr_scan"}, "bike_id": "ee4028a0f3af622a3ccf7e52fbbe170c", "lat": 38.91663633333334, "name": "ee4028a0f3af622a3ccf7e52fbbe170c", "lon": -77.02298533333334, "fusion_lon": 0.0}, {"is_reserved": 0, "type": "electric_scooter", "fusion_lat": 0.0, "is_disabled": 0, "rental_uris": {"ios": "https://dc.lft.to/lastmile_qr_scan", "android": "https://dc.lft.to/lastmile_qr_scan"}, "bike_id": "ccdd36a987323c61b029816829aa8396", "lat": 38.917350166666665, "name": "ccdd36a987323c61b029816829aa8396", "lon": -77.06899816666666, "fusion_lon": 0.0}, {"is_reserved": 0, "type": "electric_scooter", "fusion_lat": 0.0, "is_disabled": 0, "rental_uris": {"ios": "https://dc.lft.to/lastmile_qr_scan", "android": "https://dc.lft.to/lastmile_qr_scan"}, "bike_id": "fc40272a412386a6246e8aa54473008e", "lat": 38.898464, "name": "fc40272a412386a6246e8aa54473008e", "lon": -76.99486316666666, "fusion_lon": 0.0}, {"is_reserved": 0, "type": "electric_scooter", "fusion_lat": 0.0, "is_disabled": 0, "rental_uris": {"ios": "https://dc.lft.to/lastmile_qr_scan", "android": "https://dc.lft.to/lastmile_qr_scan"}, "bike_id": "81c1ee089e06290f2c894f566152218e", "lat": 38.90569983333334, "name": "81c1ee089e06290f2c894f566152218e", "lon": -77.02762866666667, "fusion_lon": 0.0}, {"is_reserved": 0, "type": "electric_scooter", "fusion_lat": 0.0, "is_disabled": 0, "rental_uris": {"ios": "https://dc.lft.to/lastmile_qr_scan", "android": "https://dc.lft.to/lastmile_qr_scan"}, "bike_id": "e9fd095c4dd2f4bf8cd455c2905cc5b4", "lat": 38.92143083333333, "name": "e9fd095c4dd2f4bf8cd455c2905cc5b4", "lon": -77.04588366666667, "fusion_lon": 0.0}, {"is_reserved": 0, "type": "electric_scooter", "fusion_lat": 0.0, "is_disabled": 0, "rental_uris": {"ios": "https://dc.lft.to/lastmile_qr_scan", "android": "https://dc.lft.to/lastmile_qr_scan"}, "bike_id": "9c57efd979dfa0fb9d97c5ca7d081831", "lat": 38.896726, "name": "9c57efd979dfa0fb9d97c5ca7d081831", "lon": -76.9491415, "fusion_lon": 0.0}, {"is_reserved": 0, "type": "electric_scooter", "fusion_lat": 0.0, "is_disabled": 0, "rental_uris": {"ios": "https://dc.lft.to/lastmile_qr_scan", "android": "https://dc.lft.to/lastmile_qr_scan"}, "bike_id": "5dce658054c092a105b59510c82bd28e", "lat": 38.887173, "name": "5dce658054c092a105b59510c82bd28e", "lon": -77.0220265, "fusion_lon": 0.0}, {"is_reserved": 0, "type": "electric_scooter", "fusion_lat": 0.0, "is_disabled": 0, "rental_uris": {"ios": "https://dc.lft.to/lastmile_qr_scan", "android": "https://dc.lft.to/lastmile_qr_scan"}, "bike_id": "2973dc72eea772b9dc2817acb04448ce", "lat": 38.9177595, "name": "2973dc72eea772b9dc2817acb04448ce", "lon": -77.02305633333333, "fusion_lon": 0.0}, {"is_reserved": 0, "type": "electric_scooter", "fusion_lat": 0.0, "is_disabled": 0, "rental_uris": {"ios": "https://dc.lft.to/lastmile_qr_scan", "android": "https://dc.lft.to/lastmile_qr_scan"}, "bike_id": "11da4c0a5081b376b74d8f109fce7fae", "lat": 38.905873666666665, "name": "11da4c0a5081b376b74d8f109fce7fae", "lon": -77.072738, "fusion_lon": 0.0}, {"is_reserved": 0, "type": "electric_scooter", "fusion_lat": 0.0, "is_disabled": 0, "rental_uris": {"ios": "https://dc.lft.to/lastmile_qr_scan", "android": "https://dc.lft.to/lastmile_qr_scan"}, "bike_id": "aa9ea8a2ef76664d37ca4f75f738b4b7", "lat": 38.90515833333333, "name": "aa9ea8a2ef76664d37ca4f75f738b4b7", "lon": -77.00051683333334, "fusion_lon": 0.0}, {"is_reserved": 0, "type": "electric_scooter", "fusion_lat": 0.0, "is_disabled": 0, "rental_uris": {"ios": "https://dc.lft.to/lastmile_qr_scan", "android": "https://dc.lft.to/lastmile_qr_scan"}, "bike_id": "3b17b7ef3f03a0a11551505b57d38cad", "lat": 38.92229583333334, "name": "3b17b7ef3f03a0a11551505b57d38cad", "lon": -76.98846033333334, "fusion_lon": 0.0}, {"is_reserved": 0, "type": "electric_scooter", "fusion_lat": 0.0, "is_disabled": 0, "rental_uris": {"ios": "https://dc.lft.to/lastmile_qr_scan", "android": "https://dc.lft.to/lastmile_qr_scan"}, "bike_id": "6d0ac418f29d6cfc08cf372e447f8d63", "lat": 38.923679166666666, "name": "6d0ac418f29d6cfc08cf372e447f8d63", "lon": -77.02748, "fusion_lon": 0.0}, {"is_reserved": 0, "type": "electric_scooter", "fusion_lat": 0.0, "is_disabled": 0, "rental_uris": {"ios": "https://dc.lft.to/lastmile_qr_scan", "android": "https://dc.lft.to/lastmile_qr_scan"}, "bike_id": "f310164124d0d9a6c93ebda8dec184ff", "lat": 38.915003666666664, "name": "f310164124d0d9a6c93ebda8dec184ff", "lon": -77.02182583333334, "fusion_lon": 0.0}, {"is_reserved": 0, "type": "electric_bike", "fusion_lat": 0.0, "is_disabled": 0, "rental_uris": {"ios": "https://dc.lft.to/lastmile_qr_scan", "android": "https://dc.lft.to/lastmile_qr_scan"}, "bike_id": "60016eb8e2d0d3442df2f4fade47170d", "lat": 38.9003695, "name": "60016eb8e2d0d3442df2f4fade47170d", "lon": -77.055721, "fusion_lon": 0.0}, {"is_reserved": 0, "type": "electric_scooter", "fusion_lat": 0.0, "is_disabled": 0, "rental_uris": {"ios": "https://dc.lft.to/lastmile_qr_scan", "android": "https://dc.lft.to/lastmile_qr_scan"}, "bike_id": "de391d863d33b983a3bfd89c64fd1d51", "lat": 38.95428833333333, "name": "de391d863d33b983a3bfd89c64fd1d51", "lon": -77.01850283333333, "fusion_lon": 0.0}, {"is_reserved": 0, "type": "electric_scooter", "fusion_lat": 0.0, "is_disabled": 0, "rental_uris": {"ios": "https://dc.lft.to/lastmile_qr_scan", "android": "https://dc.lft.to/lastmile_qr_scan"}, "bike_id": "2f5126bba7e28e1611cc397825a5e062", "lat": 38.9141175, "name": "2f5126bba7e28e1611cc397825a5e062", "lon": -77.037473, "fusion_lon": 0.0}, {"is_reserved": 0, "type": "electric_scooter", "fusion_lat": 0.0, "is_disabled": 0, "rental_uris": {"ios": "https://dc.lft.to/lastmile_qr_scan", "android": "https://dc.lft.to/lastmile_qr_scan"}, "bike_id": "0fbc89b35a643311fa051b2437d15767", "lat": 38.8961595, "name": "0fbc89b35a643311fa051b2437d15767", "lon": -77.02654283333334, "fusion_lon": 0.0}, {"is_reserved": 0, "type": "electric_scooter", "fusion_lat": 0.0, "is_disabled": 0, "rental_uris": {"ios": "https://dc.lft.to/lastmile_qr_scan", "android": "https://dc.lft.to/lastmile_qr_scan"}, "bike_id": "c4053430096878b3d008acbe0e449df4", "lat": 38.905561666666664, "name": "c4053430096878b3d008acbe0e449df4", "lon": -77.02654166666666, "fusion_lon": 0.0}, {"is_reserved": 0, "type": "electric_scooter", "fusion_lat": 0.0, "is_disabled": 0, "rental_uris": {"ios": "https://dc.lft.to/lastmile_qr_scan", "android": "https://dc.lft.to/lastmile_qr_scan"}, "bike_id": "6f26679441c7f60cbfea20ae155bb388", "lat": 38.921671333333336, "name": "6f26679441c7f60cbfea20ae155bb388", "lon": -77.04021066666667, "fusion_lon": 0.0}, {"is_reserved": 0, "type": "electric_bike", "fusion_lat": 0.0, "is_disabled": 0, "rental_uris": {"ios": "https://dc.lft.to/lastmile_qr_scan", "android": "https://dc.lft.to/lastmile_qr_scan"}, "bike_id": "25f8dee5898697daba51d1e0f924e962", "lat": 38.983664, "name": "25f8dee5898697daba51d1e0f924e962", "lon": -76.98846783333333, "fusion_lon": 0.0}, {"is_reserved": 0, "type": "electric_scooter", "fusion_lat": 0.0, "is_disabled": 0, "rental_uris": {"ios": "https://dc.lft.to/lastmile_qr_scan", "android": "https://dc.lft.to/lastmile_qr_scan"}, "bike_id": "3c5a466872f13f65f1a21fce662ba62d", "lat": 38.88431, "name": "3c5a466872f13f65f1a21fce662ba62d", "lon": -77.03034533333333, "fusion_lon": 0.0}, {"is_reserved": 0, "type": "electric_scooter", "fusion_lat": 0.0, "is_disabled": 0, "rental_uris": {"ios": "https://dc.lft.to/lastmile_qr_scan", "android": "https://dc.lft.to/lastmile_qr_scan"}, "bike_id": "8af5e651bb1ac7da844b5b59890040b0", "lat": 38.88770783333333, "name": "8af5e651bb1ac7da844b5b59890040b0", "lon": -76.93261783333334, "fusion_lon": 0.0}, {"is_reserved": 0, "type": "electric_scooter", "fusion_lat": 0.0, "is_disabled": 0, "rental_uris": {"ios": "https://dc.lft.to/lastmile_qr_scan", "android": "https://dc.lft.to/lastmile_qr_scan"}, "bike_id": "99b84c40ddeec05da4aacf2e40d0d662", "lat": 38.895534166666664, "name": "99b84c40ddeec05da4aacf2e40d0d662", "lon": -77.00915066666667, "fusion_lon": 0.0}, {"is_reserved": 0, "type": "electric_bike", "fusion_lat": 0.0, "is_disabled": 0, "rental_uris": {"ios": "https://dc.lft.to/lastmile_qr_scan", "android": "https://dc.lft.to/lastmile_qr_scan"}, "bike_id": "6563a4e19d4a26b04420b014ae93d22d", "lat": 38.86751, "name": "6563a4e19d4a26b04420b014ae93d22d", "lon": -76.9453475, "fusion_lon": 0.0}, {"is_reserved": 0, "type": "electric_scooter", "fusion_lat": 0.0, "is_disabled": 0, "rental_uris": {"ios": "https://dc.lft.to/lastmile_qr_scan", "android": "https://dc.lft.to/lastmile_qr_scan"}, "bike_id": "c2190e8d6b28bc7ffdfc10c90ccced06", "lat": 38.87828316666667, "name": "c2190e8d6b28bc7ffdfc10c90ccced06", "lon": -77.0089625, "fusion_lon": 0.0}, {"is_reserved": 0, "type": "electric_scooter", "fusion_lat": 0.0, "is_disabled": 0, "rental_uris": {"ios": "https://dc.lft.to/lastmile_qr_scan", "android": "https://dc.lft.to/lastmile_qr_scan"}, "bike_id": "0ea689c3672e1002a9fb3dc75de36f4a", "lat": 38.9206685, "name": "0ea689c3672e1002a9fb3dc75de36f4a", "lon": -77.00053066666666, "fusion_lon": 0.0}, {"is_reserved": 0, "type": "electric_bike", "fusion_lat": 0.0, "is_disabled": 0, "rental_uris": {"ios": "https://dc.lft.to/lastmile_qr_scan", "android": "https://dc.lft.to/lastmile_qr_scan"}, "bike_id": "5f793eca366a6ffbccf1ab21ddc12ac8", "lat": 38.81934416666667, "name": "5f793eca366a6ffbccf1ab21ddc12ac8", "lon": -77.00201966666667, "fusion_lon": 0.0}, {"is_reserved": 0, "type": "electric_scooter", "fusion_lat": 0.0, "is_disabled": 0, "rental_uris": {"ios": "https://dc.lft.to/lastmile_qr_scan", "android": "https://dc.lft.to/lastmile_qr_scan"}, "bike_id": "3ba873d11f20f598cc8cbbd6bf38960d", "lat": 38.93530883333333, "name": "3ba873d11f20f598cc8cbbd6bf38960d", "lon": -77.02350266666667, "fusion_lon": 0.0}, {"is_reserved": 0, "type": "electric_scooter", "fusion_lat": 0.0, "is_disabled": 0, "rental_uris": {"ios": "https://dc.lft.to/lastmile_qr_scan", "android": "https://dc.lft.to/lastmile_qr_scan"}, "bike_id": "f48858b6d4b2dd64b269a9f5b2779dfe", "lat": 38.9244675, "name": "f48858b6d4b2dd64b269a9f5b2779dfe", "lon": -77.0203755, "fusion_lon": 0.0}, {"is_reserved": 0, "type": "electric_scooter", "fusion_lat": 0.0, "is_disabled": 0, "rental_uris": {"ios": "https://dc.lft.to/lastmile_qr_scan", "android": "https://dc.lft.to/lastmile_qr_scan"}, "bike_id": "1349f1339a342b9efad7086657b1d9a3", "lat": 38.93229183333333, "name": "1349f1339a342b9efad7086657b1d9a3", "lon": -77.02965466666667, "fusion_lon": 0.0}, {"is_reserved": 0, "type": "electric_scooter", "fusion_lat": 0.0, "is_disabled": 0, "rental_uris": {"ios": "https://dc.lft.to/lastmile_qr_scan", "android": "https://dc.lft.to/lastmile_qr_scan"}, "bike_id": "3844de6973b41595968ee7437ab4505c", "lat": 38.944598, "name": "3844de6973b41595968ee7437ab4505c", "lon": -77.00655333333333, "fusion_lon": 0.0}, {"is_reserved": 0, "type": "electric_scooter", "fusion_lat": 0.0, "is_disabled": 0, "rental_uris": {"ios": "https://dc.lft.to/lastmile_qr_scan", "android": "https://dc.lft.to/lastmile_qr_scan"}, "bike_id": "22342e475f34618218f43e0c1850236b", "lat": 38.881364, "name": "22342e475f34618218f43e0c1850236b", "lon": -76.99617683333334, "fusion_lon": 0.0}, {"is_reserved": 0, "type": "electric_scooter", "fusion_lat": 0.0, "is_disabled": 0, "rental_uris": {"ios": "https://dc.lft.to/lastmile_qr_scan", "android": "https://dc.lft.to/lastmile_qr_scan"}, "bike_id": "bfa501cccc8f92f51f619fca61d8bb6f", "lat": 38.89816483333333, "name": "bfa501cccc8f92f51f619fca61d8bb6f", "lon": -76.998392, "fusion_lon": 0.0}, {"is_reserved": 0, "type": "electric_scooter", "fusion_lat": 0.0, "is_disabled": 0, "rental_uris": {"ios": "https://dc.lft.to/lastmile_qr_scan", "android": "https://dc.lft.to/lastmile_qr_scan"}, "bike_id": "751d84bcfe118f38fd0c1ee418ca9f55", "lat": 38.8961805, "name": "751d84bcfe118f38fd0c1ee418ca9f55", "lon": -77.01084033333333, "fusion_lon": 0.0}, {"is_reserved": 0, "type": "electric_scooter", "fusion_lat": 0.0, "is_disabled": 0, "rental_uris": {"ios": "https://dc.lft.to/lastmile_qr_scan", "android": "https://dc.lft.to/lastmile_qr_scan"}, "bike_id": "109cb93bff05f7a2949e465f05801833", "lat": 38.898534166666664, "name": "109cb93bff05f7a2949e465f05801833", "lon": -76.9875, "fusion_lon": 0.0}, {"is_reserved": 0, "type": "electric_scooter", "fusion_lat": 0.0, "is_disabled": 0, "rental_uris": {"ios": "https://dc.lft.to/lastmile_qr_scan", "android": "https://dc.lft.to/lastmile_qr_scan"}, "bike_id": "b9e92d047f399d3a76e018e19af35377", "lat": 38.91706383333333, "name": "b9e92d047f399d3a76e018e19af35377", "lon": -77.0240635, "fusion_lon": 0.0}, {"is_reserved": 0, "type": "electric_scooter", "fusion_lat": 0.0, "is_disabled": 0, "rental_uris": {"ios": "https://dc.lft.to/lastmile_qr_scan", "android": "https://dc.lft.to/lastmile_qr_scan"}, "bike_id": "95fdea3e2138ee1663c1d5fca8fac401", "lat": 38.92104716666667, "name": "95fdea3e2138ee1663c1d5fca8fac401", "lon": -77.03048133333333, "fusion_lon": 0.0}, {"is_reserved": 0, "type": "electric_scooter", "fusion_lat": 0.0, "is_disabled": 0, "rental_uris": {"ios": "https://dc.lft.to/lastmile_qr_scan", "android": "https://dc.lft.to/lastmile_qr_scan"}, "bike_id": "93b1383efa57ae80b04f72244c079a87", "lat": 38.917055833333336, "name": "93b1383efa57ae80b04f72244c079a87", "lon": -77.02403783333334, "fusion_lon": 0.0}, {"is_reserved": 0, "type": "electric_scooter", "fusion_lat": 0.0, "is_disabled": 0, "rental_uris": {"ios": "https://dc.lft.to/lastmile_qr_scan", "android": "https://dc.lft.to/lastmile_qr_scan"}, "bike_id": "c06c316f4b69ec68a8f065501b31a2bb", "lat": 38.915011666666665, "name": "c06c316f4b69ec68a8f065501b31a2bb", "lon": -77.03211516666667, "fusion_lon": 0.0}, {"is_reserved": 0, "type": "electric_scooter", "fusion_lat": 0.0, "is_disabled": 0, "rental_uris": {"ios": "https://dc.lft.to/lastmile_qr_scan", "android": "https://dc.lft.to/lastmile_qr_scan"}, "bike_id": "5ec597082fcd23a17a707fc4f9d3115c", "lat": 38.909712999999996, "name": "5ec597082fcd23a17a707fc4f9d3115c", "lon": -77.0329805, "fusion_lon": 0.0}, {"is_reserved": 0, "type": "electric_scooter", "fusion_lat": 0.0, "is_disabled": 0, "rental_uris": {"ios": "https://dc.lft.to/lastmile_qr_scan", "android": "https://dc.lft.to/lastmile_qr_scan"}, "bike_id": "ad16e45b459938e47f494ad2b4ee46fe", "lat": 38.91709516666667, "name": "ad16e45b459938e47f494ad2b4ee46fe", "lon": -77.034942, "fusion_lon": 0.0}, {"is_reserved": 0, "type": "electric_scooter", "fusion_lat": 0.0, "is_disabled": 0, "rental_uris": {"ios": "https://dc.lft.to/lastmile_qr_scan", "android": "https://dc.lft.to/lastmile_qr_scan"}, "bike_id": "38f368d1889024d93f3390422867f670", "lat": 38.909684166666665, "name": "38f368d1889024d93f3390422867f670", "lon": -77.02207166666666, "fusion_lon": 0.0}, {"is_reserved": 0, "type": "electric_scooter", "fusion_lat": 0.0, "is_disabled": 0, "rental_uris": {"ios": "https://dc.lft.to/lastmile_qr_scan", "android": "https://dc.lft.to/lastmile_qr_scan"}, "bike_id": "5da55e27d3b527125a3ac42977b16cc3", "lat": 38.9274305, "name": "5da55e27d3b527125a3ac42977b16cc3", "lon": -77.02608083333334, "fusion_lon": 0.0}, {"is_reserved": 0, "type": "electric_scooter", "fusion_lat": 0.0, "is_disabled": 0, "rental_uris": {"ios": "https://dc.lft.to/lastmile_qr_scan", "android": "https://dc.lft.to/lastmile_qr_scan"}, "bike_id": "b8745c62733bc2d548130fab9a8a303d", "lat": 38.92317966666667, "name": "b8745c62733bc2d548130fab9a8a303d", "lon": -77.01951266666667, "fusion_lon": 0.0}, {"is_reserved": 0, "type": "electric_scooter", "fusion_lat": 0.0, "is_disabled": 0, "rental_uris": {"ios": "https://dc.lft.to/lastmile_qr_scan", "android": "https://dc.lft.to/lastmile_qr_scan"}, "bike_id": "9992852b913972f2ba9defa1bfb8fcb8", "lat": 38.90245066666667, "name": "9992852b913972f2ba9defa1bfb8fcb8", "lon": -77.02775616666666, "fusion_lon": 0.0}, {"is_reserved": 0, "type": "electric_scooter", "fusion_lat": 0.0, "is_disabled": 0, "rental_uris": {"ios": "https://dc.lft.to/lastmile_qr_scan", "android": "https://dc.lft.to/lastmile_qr_scan"}, "bike_id": "5be2f691c18a5077b72daa408f570f4f", "lat": 38.923186, "name": "5be2f691c18a5077b72daa408f570f4f", "lon": -77.0451105, "fusion_lon": 0.0}, {"is_reserved": 0, "type": "electric_scooter", "fusion_lat": 0.0, "is_disabled": 0, "rental_uris": {"ios": "https://dc.lft.to/lastmile_qr_scan", "android": "https://dc.lft.to/lastmile_qr_scan"}, "bike_id": "d45fcc3841eacc930092a37c4bfb3d62", "lat": 38.91916966666667, "name": "d45fcc3841eacc930092a37c4bfb3d62", "lon": -77.048057, "fusion_lon": 0.0}, {"is_reserved": 0, "type": "electric_scooter", "fusion_lat": 0.0, "is_disabled": 0, "rental_uris": {"ios": "https://dc.lft.to/lastmile_qr_scan", "android": "https://dc.lft.to/lastmile_qr_scan"}, "bike_id": "7a545f9e896903da4bf15e11e64834ad", "lat": 38.88360133333333, "name": "7a545f9e896903da4bf15e11e64834ad", "lon": -76.927907, "fusion_lon": 0.0}, {"is_reserved": 0, "type": "electric_scooter", "fusion_lat": 0.0, "is_disabled": 0, "rental_uris": {"ios": "https://dc.lft.to/lastmile_qr_scan", "android": "https://dc.lft.to/lastmile_qr_scan"}, "bike_id": "1e8e9c7d4201c9b4c9ca4e0d42defb0c", "lat": 38.930115, "name": "1e8e9c7d4201c9b4c9ca4e0d42defb0c", "lon": -77.04050666666667, "fusion_lon": 0.0}, {"is_reserved": 0, "type": "electric_scooter", "fusion_lat": 0.0, "is_disabled": 0, "rental_uris": {"ios": "https://dc.lft.to/lastmile_qr_scan", "android": "https://dc.lft.to/lastmile_qr_scan"}, "bike_id": "7007e95bd0d55f0c841e55f076b56688", "lat": 38.87654916666666, "name": "7007e95bd0d55f0c841e55f076b56688", "lon": -77.01575316666667, "fusion_lon": 0.0}, {"is_reserved": 0, "type": "electric_bike", "fusion_lat": 0.0, "is_disabled": 0, "rental_uris": {"ios": "https://dc.lft.to/lastmile_qr_scan", "android": "https://dc.lft.to/lastmile_qr_scan"}, "bike_id": "a9f1735bfcb54edcea4c68649bd5fe4b", "lat": 38.97343583333333, "name": "a9f1735bfcb54edcea4c68649bd5fe4b", "lon": -77.01793966666666, "fusion_lon": 0.0}, {"is_reserved": 0, "type": "electric_scooter", "fusion_lat": 0.0, "is_disabled": 0, "rental_uris": {"ios": "https://dc.lft.to/lastmile_qr_scan", "android": "https://dc.lft.to/lastmile_qr_scan"}, "bike_id": "0ef5b9c60c57a21f5cf58ba95ef98a79", "lat": 38.91648983333333, "name": "0ef5b9c60c57a21f5cf58ba95ef98a79", "lon": -77.02179133333334, "fusion_lon": 0.0}, {"is_reserved": 0, "type": "electric_bike", "fusion_lat": 0.0, "is_disabled": 0, "rental_uris": {"ios": "https://dc.lft.to/lastmile_qr_scan", "android": "https://dc.lft.to/lastmile_qr_scan"}, "bike_id": "f94f22c4f850c3397a24bef34a8f7480", "lat": 38.94732533333333, "name": "f94f22c4f850c3397a24bef34a8f7480", "lon": -76.9958715, "fusion_lon": 0.0}, {"is_reserved": 0, "type": "electric_scooter", "fusion_lat": 0.0, "is_disabled": 0, "rental_uris": {"ios": "https://dc.lft.to/lastmile_qr_scan", "android": "https://dc.lft.to/lastmile_qr_scan"}, "bike_id": "0b41601b64a3a59fd4e75d2defd6f512", "lat": 38.89837416666667, "name": "0b41601b64a3a59fd4e75d2defd6f512", "lon": -77.05001833333333, "fusion_lon": 0.0}, {"is_reserved": 0, "type": "electric_scooter", "fusion_lat": 0.0, "is_disabled": 0, "rental_uris": {"ios": "https://dc.lft.to/lastmile_qr_scan", "android": "https://dc.lft.to/lastmile_qr_scan"}, "bike_id": "517a35a552f653b03cfb54fe81c5d5da", "lat": 38.90190033333333, "name": "517a35a552f653b03cfb54fe81c5d5da", "lon": -76.93462483333333, "fusion_lon": 0.0}, {"is_reserved": 0, "type": "electric_scooter", "fusion_lat": 0.0, "is_disabled": 0, "rental_uris": {"ios": "https://dc.lft.to/lastmile_qr_scan", "android": "https://dc.lft.to/lastmile_qr_scan"}, "bike_id": "b510dff8edc822f91e47dc8bda33fef0", "lat": 38.930777666666664, "name": "b510dff8edc822f91e47dc8bda33fef0", "lon": -77.07765466666666, "fusion_lon": 0.0}, {"is_reserved": 0, "type": "electric_scooter", "fusion_lat": 0.0, "is_disabled": 0, "rental_uris": {"ios": "https://dc.lft.to/lastmile_qr_scan", "android": "https://dc.lft.to/lastmile_qr_scan"}, "bike_id": "380468c5315b2052e3fef1b895b0ed7b", "lat": 38.92476833333333, "name": "380468c5315b2052e3fef1b895b0ed7b", "lon": -77.02625533333334, "fusion_lon": 0.0}, {"is_reserved": 0, "type": "electric_scooter", "fusion_lat": 0.0, "is_disabled": 0, "rental_uris": {"ios": "https://dc.lft.to/lastmile_qr_scan", "android": "https://dc.lft.to/lastmile_qr_scan"}, "bike_id": "94f65bc5dec26f09f46ee43edda125d9", "lat": 38.89971233333333, "name": "94f65bc5dec26f09f46ee43edda125d9", "lon": -77.01599433333334, "fusion_lon": 0.0}, {"is_reserved": 0, "type": "electric_scooter", "fusion_lat": 0.0, "is_disabled": 0, "rental_uris": {"ios": "https://dc.lft.to/lastmile_qr_scan", "android": "https://dc.lft.to/lastmile_qr_scan"}, "bike_id": "b2b952f9c8db3466db9083844d7d98b8", "lat": 38.915616, "name": "b2b952f9c8db3466db9083844d7d98b8", "lon": -77.0367185, "fusion_lon": 0.0}, {"is_reserved": 0, "type": "electric_scooter", "fusion_lat": 0.0, "is_disabled": 0, "rental_uris": {"ios": "https://dc.lft.to/lastmile_qr_scan", "android": "https://dc.lft.to/lastmile_qr_scan"}, "bike_id": "323c58da730a63599451925a51273e87", "lat": 38.936592833333336, "name": "323c58da730a63599451925a51273e87", "lon": -77.06606716666667, "fusion_lon": 0.0}, {"is_reserved": 0, "type": "electric_bike", "fusion_lat": 0.0, "is_disabled": 0, "rental_uris": {"ios": "https://dc.lft.to/lastmile_qr_scan", "android": "https://dc.lft.to/lastmile_qr_scan"}, "bike_id": "0ae690b31b73b46c08e31c9bac86ef77", "lat": 38.925283666666665, "name": "0ae690b31b73b46c08e31c9bac86ef77", "lon": -77.07328133333333, "fusion_lon": 0.0}, {"is_reserved": 0, "type": "electric_scooter", "fusion_lat": 0.0, "is_disabled": 0, "rental_uris": {"ios": "https://dc.lft.to/lastmile_qr_scan", "android": "https://dc.lft.to/lastmile_qr_scan"}, "bike_id": "540bed27ec81f697ef63ba7b7f8241d0", "lat": 38.902441333333336, "name": "540bed27ec81f697ef63ba7b7f8241d0", "lon": -77.01750966666667, "fusion_lon": 0.0}, {"is_reserved": 0, "type": "electric_scooter", "fusion_lat": 0.0, "is_disabled": 0, "rental_uris": {"ios": "https://dc.lft.to/lastmile_qr_scan", "android": "https://dc.lft.to/lastmile_qr_scan"}, "bike_id": "147f177de5f2f4b3d0feb791362c27e1", "lat": 38.90725116666667, "name": "147f177de5f2f4b3d0feb791362c27e1", "lon": -77.00062416666667, "fusion_lon": 0.0}, {"is_reserved": 0, "type": "electric_scooter", "fusion_lat": 0.0, "is_disabled": 0, "rental_uris": {"ios": "https://dc.lft.to/lastmile_qr_scan", "android": "https://dc.lft.to/lastmile_qr_scan"}, "bike_id": "23927d9c915e96cd4297c8f606b2c744", "lat": 38.923171833333335, "name": "23927d9c915e96cd4297c8f606b2c744", "lon": -76.99906016666667, "fusion_lon": 0.0}, {"is_reserved": 0, "type": "electric_scooter", "fusion_lat": 0.0, "is_disabled": 0, "rental_uris": {"ios": "https://dc.lft.to/lastmile_qr_scan", "android": "https://dc.lft.to/lastmile_qr_scan"}, "bike_id": "2191f4d83cb9b809df1386254beb8d9a", "lat": 38.9265275, "name": "2191f4d83cb9b809df1386254beb8d9a", "lon": -77.024308, "fusion_lon": 0.0}, {"is_reserved": 0, "type": "electric_bike", "fusion_lat": 0.0, "is_disabled": 0, "rental_uris": {"ios": "https://dc.lft.to/lastmile_qr_scan", "android": "https://dc.lft.to/lastmile_qr_scan"}, "bike_id": "59f8b30e4f8d3f61080593275d341acd", "lat": 38.964348333333334, "name": "59f8b30e4f8d3f61080593275d341acd", "lon": -77.03186833333334, "fusion_lon": 0.0}, {"is_reserved": 0, "type": "electric_scooter", "fusion_lat": 0.0, "is_disabled": 0, "rental_uris": {"ios": "https://dc.lft.to/lastmile_qr_scan", "android": "https://dc.lft.to/lastmile_qr_scan"}, "bike_id": "ff9410a15a9676d781ba5c92d7e3ea95", "lat": 38.90266333333334, "name": "ff9410a15a9676d781ba5c92d7e3ea95", "lon": -77.02723866666666, "fusion_lon": 0.0}, {"is_reserved": 0, "type": "electric_scooter", "fusion_lat": 0.0, "is_disabled": 0, "rental_uris": {"ios": "https://dc.lft.to/lastmile_qr_scan", "android": "https://dc.lft.to/lastmile_qr_scan"}, "bike_id": "d220b00e6d707d38d0f9357654bd4c66", "lat": 38.91484033333333, "name": "d220b00e6d707d38d0f9357654bd4c66", "lon": -77.04079266666666, "fusion_lon": 0.0}, {"is_reserved": 0, "type": "electric_scooter", "fusion_lat": 0.0, "is_disabled": 0, "rental_uris": {"ios": "https://dc.lft.to/lastmile_qr_scan", "android": "https://dc.lft.to/lastmile_qr_scan"}, "bike_id": "56727c20c28b97975ad14c38d7305414", "lat": 38.905899, "name": "56727c20c28b97975ad14c38d7305414", "lon": -77.0628525, "fusion_lon": 0.0}, {"is_reserved": 0, "type": "electric_scooter", "fusion_lat": 0.0, "is_disabled": 0, "rental_uris": {"ios": "https://dc.lft.to/lastmile_qr_scan", "android": "https://dc.lft.to/lastmile_qr_scan"}, "bike_id": "1f7ff9ec9302ed32b29c0bec1f221b9e", "lat": 38.92458466666667, "name": "1f7ff9ec9302ed32b29c0bec1f221b9e", "lon": -77.03784866666666, "fusion_lon": 0.0}, {"is_reserved": 0, "type": "electric_bike", "fusion_lat": 0.0, "is_disabled": 0, "rental_uris": {"ios": "https://dc.lft.to/lastmile_qr_scan", "android": "https://dc.lft.to/lastmile_qr_scan"}, "bike_id": "b60c32356e9210f45713b74c8194fc88", "lat": 38.990943, "name": "b60c32356e9210f45713b74c8194fc88", "lon": -76.9937225, "fusion_lon": 0.0}, {"is_reserved": 0, "type": "electric_scooter", "fusion_lat": 0.0, "is_disabled": 0, "rental_uris": {"ios": "https://dc.lft.to/lastmile_qr_scan", "android": "https://dc.lft.to/lastmile_qr_scan"}, "bike_id": "867bf943a580a34abf39ae1e57f9e302", "lat": 38.87913616666667, "name": "867bf943a580a34abf39ae1e57f9e302", "lon": -76.9448055, "fusion_lon": 0.0}, {"is_reserved": 0, "type": "electric_scooter", "fusion_lat": 0.0, "is_disabled": 0, "rental_uris": {"ios": "https://dc.lft.to/lastmile_qr_scan", "android": "https://dc.lft.to/lastmile_qr_scan"}, "bike_id": "d9edaa0b68441d4dd81a435e562c1a68", "lat": 38.9143515, "name": "d9edaa0b68441d4dd81a435e562c1a68", "lon": -77.02288083333333, "fusion_lon": 0.0}, {"is_reserved": 0, "type": "electric_scooter", "fusion_lat": 0.0, "is_disabled": 0, "rental_uris": {"ios": "https://dc.lft.to/lastmile_qr_scan", "android": "https://dc.lft.to/lastmile_qr_scan"}, "bike_id": "a6e7a49e3fde63124be71ee230389b26", "lat": 38.905804333333336, "name": "a6e7a49e3fde63124be71ee230389b26", "lon": -77.00564783333333, "fusion_lon": 0.0}, {"is_reserved": 0, "type": "electric_bike", "fusion_lat": 0.0, "is_disabled": 0, "rental_uris": {"ios": "https://dc.lft.to/lastmile_qr_scan", "android": "https://dc.lft.to/lastmile_qr_scan"}, "bike_id": "1fb4dea0b7c154bfa50f777a6b580f8f", "lat": 38.85451833333333, "name": "1fb4dea0b7c154bfa50f777a6b580f8f", "lon": -76.97231916666667, "fusion_lon": 0.0}, {"is_reserved": 0, "type": "electric_bike", "fusion_lat": 0.0, "is_disabled": 0, "rental_uris": {"ios": "https://dc.lft.to/lastmile_qr_scan", "android": "https://dc.lft.to/lastmile_qr_scan"}, "bike_id": "91985d3ccef7a52be395d69bac585162", "lat": 38.866232833333335, "name": "91985d3ccef7a52be395d69bac585162", "lon": -76.98996383333333, "fusion_lon": 0.0}, {"is_reserved": 0, "type": "electric_scooter", "fusion_lat": 0.0, "is_disabled": 0, "rental_uris": {"ios": "https://dc.lft.to/lastmile_qr_scan", "android": "https://dc.lft.to/lastmile_qr_scan"}, "bike_id": "d77176ef0bfcb66dec4b1eaebbee1538", "lat": 38.906056, "name": "d77176ef0bfcb66dec4b1eaebbee1538", "lon": -76.98980566666667, "fusion_lon": 0.0}, {"is_reserved": 0, "type": "electric_scooter", "fusion_lat": 0.0, "is_disabled": 0, "rental_uris": {"ios": "https://dc.lft.to/lastmile_qr_scan", "android": "https://dc.lft.to/lastmile_qr_scan"}, "bike_id": "354eb96749bb00465ff311f695ba8845", "lat": 38.929130666666666, "name": "354eb96749bb00465ff311f695ba8845", "lon": -77.03746666666666, "fusion_lon": 0.0}, {"is_reserved": 0, "type": "electric_scooter", "fusion_lat": 0.0, "is_disabled": 0, "rental_uris": {"ios": "https://dc.lft.to/lastmile_qr_scan", "android": "https://dc.lft.to/lastmile_qr_scan"}, "bike_id": "3b9cc12d5230744ab667680f82430a1d", "lat": 38.89400216666667, "name": "3b9cc12d5230744ab667680f82430a1d", "lon": -77.05000033333333, "fusion_lon": 0.0}, {"is_reserved": 0, "type": "electric_scooter", "fusion_lat": 0.0, "is_disabled": 0, "rental_uris": {"ios": "https://dc.lft.to/lastmile_qr_scan", "android": "https://dc.lft.to/lastmile_qr_scan"}, "bike_id": "b117c113f1a644869f0029f045738b24", "lat": 38.899637, "name": "b117c113f1a644869f0029f045738b24", "lon": -77.04713583333333, "fusion_lon": 0.0}, {"is_reserved": 0, "type": "electric_scooter", "fusion_lat": 0.0, "is_disabled": 0, "rental_uris": {"ios": "https://dc.lft.to/lastmile_qr_scan", "android": "https://dc.lft.to/lastmile_qr_scan"}, "bike_id": "0ece162398bf08fd12e9a80199cd85bb", "lat": 38.90547933333333, "name": "0ece162398bf08fd12e9a80199cd85bb", "lon": -77.06267633333333, "fusion_lon": 0.0}, {"is_reserved": 0, "type": "electric_scooter", "fusion_lat": 0.0, "is_disabled": 0, "rental_uris": {"ios": "https://dc.lft.to/lastmile_qr_scan", "android": "https://dc.lft.to/lastmile_qr_scan"}, "bike_id": "d25e98836c20d84e636a61b5a9bef540", "lat": 38.920420666666665, "name": "d25e98836c20d84e636a61b5a9bef540", "lon": -77.01679016666667, "fusion_lon": 0.0}, {"is_reserved": 0, "type": "electric_scooter", "fusion_lat": 0.0, "is_disabled": 0, "rental_uris": {"ios": "https://dc.lft.to/lastmile_qr_scan", "android": "https://dc.lft.to/lastmile_qr_scan"}, "bike_id": "b388982d5500c45af2e66e8673790ace", "lat": 38.87169083333333, "name": "b388982d5500c45af2e66e8673790ace", "lon": -77.00623616666667, "fusion_lon": 0.0}, {"is_reserved": 0, "type": "electric_scooter", "fusion_lat": 0.0, "is_disabled": 0, "rental_uris": {"ios": "https://dc.lft.to/lastmile_qr_scan", "android": "https://dc.lft.to/lastmile_qr_scan"}, "bike_id": "a2f3b26017d177f5602d54c00abcad8a", "lat": 38.9041365, "name": "a2f3b26017d177f5602d54c00abcad8a", "lon": -76.98531983333334, "fusion_lon": 0.0}, {"is_reserved": 0, "type": "electric_scooter", "fusion_lat": 0.0, "is_disabled": 0, "rental_uris": {"ios": "https://dc.lft.to/lastmile_qr_scan", "android": "https://dc.lft.to/lastmile_qr_scan"}, "bike_id": "a19c862e351a5468a59cc7bde7389fdb", "lat": 38.899690666666665, "name": "a19c862e351a5468a59cc7bde7389fdb", "lon": -77.01619466666666, "fusion_lon": 0.0}, {"is_reserved": 0, "type": "electric_scooter", "fusion_lat": 0.0, "is_disabled": 0, "rental_uris": {"ios": "https://dc.lft.to/lastmile_qr_scan", "android": "https://dc.lft.to/lastmile_qr_scan"}, "bike_id": "dcdb4def89b318d756aaca2aaae50aa6", "lat": 38.9026415, "name": "dcdb4def89b318d756aaca2aaae50aa6", "lon": -77.01756133333333, "fusion_lon": 0.0}, {"is_reserved": 0, "type": "electric_scooter", "fusion_lat": 0.0, "is_disabled": 0, "rental_uris": {"ios": "https://dc.lft.to/lastmile_qr_scan", "android": "https://dc.lft.to/lastmile_qr_scan"}, "bike_id": "cb7268b6a2d0d9f75ec156b6aa646fc3", "lat": 38.90113633333333, "name": "cb7268b6a2d0d9f75ec156b6aa646fc3", "lon": -77.03445216666667, "fusion_lon": 0.0}, {"is_reserved": 0, "type": "electric_scooter", "fusion_lat": 0.0, "is_disabled": 0, "rental_uris": {"ios": "https://dc.lft.to/lastmile_qr_scan", "android": "https://dc.lft.to/lastmile_qr_scan"}, "bike_id": "278f026e28e3b5cdc8db301ed4121ed3", "lat": 38.93320533333333, "name": "278f026e28e3b5cdc8db301ed4121ed3", "lon": -77.0239465, "fusion_lon": 0.0}, {"is_reserved": 0, "type": "electric_scooter", "fusion_lat": 0.0, "is_disabled": 0, "rental_uris": {"ios": "https://dc.lft.to/lastmile_qr_scan", "android": "https://dc.lft.to/lastmile_qr_scan"}, "bike_id": "64680d36cd4619358113b7fed85eb9ef", "lat": 38.94488466666667, "name": "64680d36cd4619358113b7fed85eb9ef", "lon": -77.00737633333334, "fusion_lon": 0.0}, {"is_reserved": 0, "type": "electric_scooter", "fusion_lat": 0.0, "is_disabled": 0, "rental_uris": {"ios": "https://dc.lft.to/lastmile_qr_scan", "android": "https://dc.lft.to/lastmile_qr_scan"}, "bike_id": "8c8bc30287f55e45387ce8207582c002", "lat": 38.901746, "name": "8c8bc30287f55e45387ce8207582c002", "lon": -76.92946816666667, "fusion_lon": 0.0}, {"is_reserved": 0, "type": "electric_scooter", "fusion_lat": 0.0, "is_disabled": 0, "rental_uris": {"ios": "https://dc.lft.to/lastmile_qr_scan", "android": "https://dc.lft.to/lastmile_qr_scan"}, "bike_id": "811e1020c095ef68e50addeba5b33ae9", "lat": 38.899666333333336, "name": "811e1020c095ef68e50addeba5b33ae9", "lon": -77.0161595, "fusion_lon": 0.0}, {"is_reserved": 0, "type": "electric_scooter", "fusion_lat": 0.0, "is_disabled": 0, "rental_uris": {"ios": "https://dc.lft.to/lastmile_qr_scan", "android": "https://dc.lft.to/lastmile_qr_scan"}, "bike_id": "02e2f4c494e586c1dda1baca3ec4d1f4", "lat": 38.922094666666666, "name": "02e2f4c494e586c1dda1baca3ec4d1f4", "lon": -77.0184585, "fusion_lon": 0.0}, {"is_reserved": 0, "type": "electric_scooter", "fusion_lat": 0.0, "is_disabled": 0, "rental_uris": {"ios": "https://dc.lft.to/lastmile_qr_scan", "android": "https://dc.lft.to/lastmile_qr_scan"}, "bike_id": "23b8b39f7bc4fe7ccf3aa8d84f20fdd7", "lat": 38.89968733333333, "name": "23b8b39f7bc4fe7ccf3aa8d84f20fdd7", "lon": -77.01609466666666, "fusion_lon": 0.0}, {"is_reserved": 0, "type": "electric_scooter", "fusion_lat": 0.0, "is_disabled": 0, "rental_uris": {"ios": "https://dc.lft.to/lastmile_qr_scan", "android": "https://dc.lft.to/lastmile_qr_scan"}, "bike_id": "a708df952af70a6926102c5d91cc8903", "lat": 38.9026035, "name": "a708df952af70a6926102c5d91cc8903", "lon": -77.03932183333333, "fusion_lon": 0.0}, {"is_reserved": 0, "type": "electric_scooter", "fusion_lat": 0.0, "is_disabled": 0, "rental_uris": {"ios": "https://dc.lft.to/lastmile_qr_scan", "android": "https://dc.lft.to/lastmile_qr_scan"}, "bike_id": "e6221d72c905da6a6b714636a41f0bf2", "lat": 38.904628833333334, "name": "e6221d72c905da6a6b714636a41f0bf2", "lon": -77.0486165, "fusion_lon": 0.0}, {"is_reserved": 0, "type": "electric_scooter", "fusion_lat": 0.0, "is_disabled": 0, "rental_uris": {"ios": "https://dc.lft.to/lastmile_qr_scan", "android": "https://dc.lft.to/lastmile_qr_scan"}, "bike_id": "2af4138a53de57c7dc99256e305515d7", "lat": 38.935214, "name": "2af4138a53de57c7dc99256e305515d7", "lon": -77.054522, "fusion_lon": 0.0}, {"is_reserved": 0, "type": "electric_scooter", "fusion_lat": 0.0, "is_disabled": 0, "rental_uris": {"ios": "https://dc.lft.to/lastmile_qr_scan", "android": "https://dc.lft.to/lastmile_qr_scan"}, "bike_id": "e6d97185b39d9fee29f8c016a5a7379b", "lat": 38.92236483333333, "name": "e6d97185b39d9fee29f8c016a5a7379b", "lon": -77.028168, "fusion_lon": 0.0}, {"is_reserved": 0, "type": "electric_scooter", "fusion_lat": 0.0, "is_disabled": 0, "rental_uris": {"ios": "https://dc.lft.to/lastmile_qr_scan", "android": "https://dc.lft.to/lastmile_qr_scan"}, "bike_id": "4e25b56bdb976f66e570c2b92ac406be", "lat": 38.870721333333336, "name": "4e25b56bdb976f66e570c2b92ac406be", "lon": -76.981248, "fusion_lon": 0.0}, {"is_reserved": 0, "type": "electric_scooter", "fusion_lat": 0.0, "is_disabled": 0, "rental_uris": {"ios": "https://dc.lft.to/lastmile_qr_scan", "android": "https://dc.lft.to/lastmile_qr_scan"}, "bike_id": "01069af0414fd0e0c4456cf9178ac0c0", "lat": 38.9075105, "name": "01069af0414fd0e0c4456cf9178ac0c0", "lon": -76.99909183333334, "fusion_lon": 0.0}, {"is_reserved": 0, "type": "electric_scooter", "fusion_lat": 0.0, "is_disabled": 0, "rental_uris": {"ios": "https://dc.lft.to/lastmile_qr_scan", "android": "https://dc.lft.to/lastmile_qr_scan"}, "bike_id": "1d433f990ab97008bf6a5e652eef98bb", "lat": 38.899617, "name": "1d433f990ab97008bf6a5e652eef98bb", "lon": -77.04819933333333, "fusion_lon": 0.0}, {"is_reserved": 0, "type": "electric_scooter", "fusion_lat": 0.0, "is_disabled": 0, "rental_uris": {"ios": "https://dc.lft.to/lastmile_qr_scan", "android": "https://dc.lft.to/lastmile_qr_scan"}, "bike_id": "6406b43550c1e71c01817d8c93ccb714", "lat": 38.91362616666667, "name": "6406b43550c1e71c01817d8c93ccb714", "lon": -77.04659683333334, "fusion_lon": 0.0}, {"is_reserved": 0, "type": "electric_scooter", "fusion_lat": 0.0, "is_disabled": 0, "rental_uris": {"ios": "https://dc.lft.to/lastmile_qr_scan", "android": "https://dc.lft.to/lastmile_qr_scan"}, "bike_id": "d814be897481b47765eced413d6bd5f7", "lat": 38.909584833333334, "name": "d814be897481b47765eced413d6bd5f7", "lon": -77.0238455, "fusion_lon": 0.0}, {"is_reserved": 0, "type": "electric_scooter", "fusion_lat": 0.0, "is_disabled": 0, "rental_uris": {"ios": "https://dc.lft.to/lastmile_qr_scan", "android": "https://dc.lft.to/lastmile_qr_scan"}, "bike_id": "cc7cd4ab38baa773cdf0c36f996d01fa", "lat": 38.91702866666667, "name": "cc7cd4ab38baa773cdf0c36f996d01fa", "lon": -77.02403683333333, "fusion_lon": 0.0}, {"is_reserved": 0, "type": "electric_scooter", "fusion_lat": 0.0, "is_disabled": 0, "rental_uris": {"ios": "https://dc.lft.to/lastmile_qr_scan", "android": "https://dc.lft.to/lastmile_qr_scan"}, "bike_id": "265e1c3626d3a011023f13eb00490f42", "lat": 38.905693666666664, "name": "265e1c3626d3a011023f13eb00490f42", "lon": -76.97626583333333, "fusion_lon": 0.0}, {"is_reserved": 0, "type": "electric_scooter", "fusion_lat": 0.0, "is_disabled": 0, "rental_uris": {"ios": "https://dc.lft.to/lastmile_qr_scan", "android": "https://dc.lft.to/lastmile_qr_scan"}, "bike_id": "b2ef6ff187c950aa162c4a27fc21e9d1", "lat": 38.91816166666667, "name": "b2ef6ff187c950aa162c4a27fc21e9d1", "lon": -77.0248115, "fusion_lon": 0.0}, {"is_reserved": 0, "type": "electric_scooter", "fusion_lat": 0.0, "is_disabled": 0, "rental_uris": {"ios": "https://dc.lft.to/lastmile_qr_scan", "android": "https://dc.lft.to/lastmile_qr_scan"}, "bike_id": "12efdbc1b2beafb6bd1f40efaa47c6a0", "lat": 38.935111166666665, "name": "12efdbc1b2beafb6bd1f40efaa47c6a0", "lon": -77.056904, "fusion_lon": 0.0}, {"is_reserved": 0, "type": "electric_scooter", "fusion_lat": 0.0, "is_disabled": 0, "rental_uris": {"ios": "https://dc.lft.to/lastmile_qr_scan", "android": "https://dc.lft.to/lastmile_qr_scan"}, "bike_id": "a202fdbf2b2d5eeccba0c7680d7dba59", "lat": 38.921699, "name": "a202fdbf2b2d5eeccba0c7680d7dba59", "lon": -77.04021783333333, "fusion_lon": 0.0}, {"is_reserved": 0, "type": "electric_scooter", "fusion_lat": 0.0, "is_disabled": 0, "rental_uris": {"ios": "https://dc.lft.to/lastmile_qr_scan", "android": "https://dc.lft.to/lastmile_qr_scan"}, "bike_id": "4d63712aa30b2cbe23a8f7eb43b10cbb", "lat": 38.87472366666667, "name": "4d63712aa30b2cbe23a8f7eb43b10cbb", "lon": -77.0048965, "fusion_lon": 0.0}, {"is_reserved": 0, "type": "electric_scooter", "fusion_lat": 0.0, "is_disabled": 0, "rental_uris": {"ios": "https://dc.lft.to/lastmile_qr_scan", "android": "https://dc.lft.to/lastmile_qr_scan"}, "bike_id": "98cd42cafa9aca1430fd79ccfabbde52", "lat": 38.923409, "name": "98cd42cafa9aca1430fd79ccfabbde52", "lon": -77.05783033333333, "fusion_lon": 0.0}, {"is_reserved": 0, "type": "electric_scooter", "fusion_lat": 0.0, "is_disabled": 0, "rental_uris": {"ios": "https://dc.lft.to/lastmile_qr_scan", "android": "https://dc.lft.to/lastmile_qr_scan"}, "bike_id": "4dcc53ae188e9a77b2f0bb4823aa72ad", "lat": 38.9091015, "name": "4dcc53ae188e9a77b2f0bb4823aa72ad", "lon": -77.0351125, "fusion_lon": 0.0}, {"is_reserved": 0, "type": "electric_scooter", "fusion_lat": 0.0, "is_disabled": 0, "rental_uris": {"ios": "https://dc.lft.to/lastmile_qr_scan", "android": "https://dc.lft.to/lastmile_qr_scan"}, "bike_id": "a6fc4d55a041db3c750a094fa7c260f3", "lat": 38.909747833333334, "name": "a6fc4d55a041db3c750a094fa7c260f3", "lon": -77.02286483333333, "fusion_lon": 0.0}, {"is_reserved": 0, "type": "electric_scooter", "fusion_lat": 0.0, "is_disabled": 0, "rental_uris": {"ios": "https://dc.lft.to/lastmile_qr_scan", "android": "https://dc.lft.to/lastmile_qr_scan"}, "bike_id": "ecb47e8edba6aa11d47c1b0355a02120", "lat": 38.876385, "name": "ecb47e8edba6aa11d47c1b0355a02120", "lon": -76.9929175, "fusion_lon": 0.0}, {"is_reserved": 0, "type": "electric_scooter", "fusion_lat": 0.0, "is_disabled": 0, "rental_uris": {"ios": "https://dc.lft.to/lastmile_qr_scan", "android": "https://dc.lft.to/lastmile_qr_scan"}, "bike_id": "dff1100f65c097bc7db4e7ffca8a93a4", "lat": 38.91739066666667, "name": "dff1100f65c097bc7db4e7ffca8a93a4", "lon": -77.01770816666667, "fusion_lon": 0.0}, {"is_reserved": 0, "type": "electric_bike", "fusion_lat": 0.0, "is_disabled": 0, "rental_uris": {"ios": "https://dc.lft.to/lastmile_qr_scan", "android": "https://dc.lft.to/lastmile_qr_scan"}, "bike_id": "4f08ddf4979cc53322f5040a1a25faa0", "lat": 38.831573666666664, "name": "4f08ddf4979cc53322f5040a1a25faa0", "lon": -76.99588183333333, "fusion_lon": 0.0}, {"is_reserved": 0, "type": "electric_scooter", "fusion_lat": 0.0, "is_disabled": 0, "rental_uris": {"ios": "https://dc.lft.to/lastmile_qr_scan", "android": "https://dc.lft.to/lastmile_qr_scan"}, "bike_id": "6d402999f978862daf5f004295cb9159", "lat": 38.92088783333333, "name": "6d402999f978862daf5f004295cb9159", "lon": -76.99484883333334, "fusion_lon": 0.0}, {"is_reserved": 0, "type": "electric_bike", "fusion_lat": 0.0, "is_disabled": 0, "rental_uris": {"ios": "https://dc.lft.to/lastmile_qr_scan", "android": "https://dc.lft.to/lastmile_qr_scan"}, "bike_id": "7ec0de59ef55fda2a140a24e76588c60", "lat": 38.952482833333335, "name": "7ec0de59ef55fda2a140a24e76588c60", "lon": -77.09619983333333, "fusion_lon": 0.0}, {"is_reserved": 0, "type": "electric_bike", "fusion_lat": 0.0, "is_disabled": 0, "rental_uris": {"ios": "https://dc.lft.to/lastmile_qr_scan", "android": "https://dc.lft.to/lastmile_qr_scan"}, "bike_id": "61f9dbdf5501f70955554c6c118a25e2", "lat": 38.972821833333334, "name": "61f9dbdf5501f70955554c6c118a25e2", "lon": -77.0362315, "fusion_lon": 0.0}, {"is_reserved": 0, "type": "electric_scooter", "fusion_lat": 0.0, "is_disabled": 0, "rental_uris": {"ios": "https://dc.lft.to/lastmile_qr_scan", "android": "https://dc.lft.to/lastmile_qr_scan"}, "bike_id": "a5409e0e3e15eb36fa744ff4ed19414f", "lat": 38.925025166666664, "name": "a5409e0e3e15eb36fa744ff4ed19414f", "lon": -77.05109916666666, "fusion_lon": 0.0}, {"is_reserved": 0, "type": "electric_scooter", "fusion_lat": 0.0, "is_disabled": 0, "rental_uris": {"ios": "https://dc.lft.to/lastmile_qr_scan", "android": "https://dc.lft.to/lastmile_qr_scan"}, "bike_id": "f58899dbfbab3dfe816566ec143c9399", "lat": 38.90280383333333, "name": "f58899dbfbab3dfe816566ec143c9399", "lon": -77.04521916666667, "fusion_lon": 0.0}, {"is_reserved": 0, "type": "electric_scooter", "fusion_lat": 0.0, "is_disabled": 0, "rental_uris": {"ios": "https://dc.lft.to/lastmile_qr_scan", "android": "https://dc.lft.to/lastmile_qr_scan"}, "bike_id": "ee0422208f9946c6959748504638c985", "lat": 38.90842133333334, "name": "ee0422208f9946c6959748504638c985", "lon": -77.01250633333333, "fusion_lon": 0.0}, {"is_reserved": 0, "type": "electric_scooter", "fusion_lat": 0.0, "is_disabled": 0, "rental_uris": {"ios": "https://dc.lft.to/lastmile_qr_scan", "android": "https://dc.lft.to/lastmile_qr_scan"}, "bike_id": "1907fb013394627d03a0232eaaa9d272", "lat": 38.87827883333333, "name": "1907fb013394627d03a0232eaaa9d272", "lon": -77.0085745, "fusion_lon": 0.0}, {"is_reserved": 0, "type": "electric_scooter", "fusion_lat": 0.0, "is_disabled": 0, "rental_uris": {"ios": "https://dc.lft.to/lastmile_qr_scan", "android": "https://dc.lft.to/lastmile_qr_scan"}, "bike_id": "16badba65101d2fc5b31264a41de6a20", "lat": 38.89463283333333, "name": "16badba65101d2fc5b31264a41de6a20", "lon": -77.02733783333333, "fusion_lon": 0.0}, {"is_reserved": 0, "type": "electric_scooter", "fusion_lat": 0.0, "is_disabled": 0, "rental_uris": {"ios": "https://dc.lft.to/lastmile_qr_scan", "android": "https://dc.lft.to/lastmile_qr_scan"}, "bike_id": "cdde110028b739e628cd7b0c85d3c29b", "lat": 38.9022915, "name": "cdde110028b739e628cd7b0c85d3c29b", "lon": -76.99030583333334, "fusion_lon": 0.0}, {"is_reserved": 0, "type": "electric_scooter", "fusion_lat": 0.0, "is_disabled": 0, "rental_uris": {"ios": "https://dc.lft.to/lastmile_qr_scan", "android": "https://dc.lft.to/lastmile_qr_scan"}, "bike_id": "49a1e7805f04b131ae1318f4026236a8", "lat": 38.91824883333334, "name": "49a1e7805f04b131ae1318f4026236a8", "lon": -77.02720183333334, "fusion_lon": 0.0}, {"is_reserved": 0, "type": "electric_scooter", "fusion_lat": 0.0, "is_disabled": 0, "rental_uris": {"ios": "https://dc.lft.to/lastmile_qr_scan", "android": "https://dc.lft.to/lastmile_qr_scan"}, "bike_id": "8307db1b3b582fba5f727096fd38576e", "lat": 38.9232955, "name": "8307db1b3b582fba5f727096fd38576e", "lon": -77.037809, "fusion_lon": 0.0}, {"is_reserved": 0, "type": "electric_bike", "fusion_lat": 0.0, "is_disabled": 0, "rental_uris": {"ios": "https://dc.lft.to/lastmile_qr_scan", "android": "https://dc.lft.to/lastmile_qr_scan"}, "bike_id": "3c99c4d68a6457fb6827c7b4ed762d02", "lat": 38.842962, "name": "3c99c4d68a6457fb6827c7b4ed762d02", "lon": -77.06377783333333, "fusion_lon": 0.0}, {"is_reserved": 0, "type": "electric_bike", "fusion_lat": 0.0, "is_disabled": 0, "rental_uris": {"ios": "https://dc.lft.to/lastmile_qr_scan", "android": "https://dc.lft.to/lastmile_qr_scan"}, "bike_id": "22ae47e96df035e46ccddf94f636ec9c", "lat": 38.830160666666664, "name": "22ae47e96df035e46ccddf94f636ec9c", "lon": -77.00837366666667, "fusion_lon": 0.0}, {"is_reserved": 0, "type": "electric_scooter", "fusion_lat": 0.0, "is_disabled": 0, "rental_uris": {"ios": "https://dc.lft.to/lastmile_qr_scan", "android": "https://dc.lft.to/lastmile_qr_scan"}, "bike_id": "1f29c4caf9bde33c52e989340fe456ec", "lat": 38.898414, "name": "1f29c4caf9bde33c52e989340fe456ec", "lon": -77.02849, "fusion_lon": 0.0}, {"is_reserved": 0, "type": "electric_scooter", "fusion_lat": 0.0, "is_disabled": 0, "rental_uris": {"ios": "https://dc.lft.to/lastmile_qr_scan", "android": "https://dc.lft.to/lastmile_qr_scan"}, "bike_id": "a7652050c1d5a1c6c00c1b4e6ce5d0e3", "lat": 38.88317333333333, "name": "a7652050c1d5a1c6c00c1b4e6ce5d0e3", "lon": -76.93153866666667, "fusion_lon": 0.0}, {"is_reserved": 0, "type": "electric_scooter", "fusion_lat": 0.0, "is_disabled": 0, "rental_uris": {"ios": "https://dc.lft.to/lastmile_qr_scan", "android": "https://dc.lft.to/lastmile_qr_scan"}, "bike_id": "2ff8e1a817e1ef967ed238e5d1d72c89", "lat": 38.93269166666666, "name": "2ff8e1a817e1ef967ed238e5d1d72c89", "lon": -77.03077833333333, "fusion_lon": 0.0}, {"is_reserved": 0, "type": "electric_scooter", "fusion_lat": 0.0, "is_disabled": 0, "rental_uris": {"ios": "https://dc.lft.to/lastmile_qr_scan", "android": "https://dc.lft.to/lastmile_qr_scan"}, "bike_id": "fc33da2f1a92f833c4c59501d9a6a185", "lat": 38.935350666666665, "name": "fc33da2f1a92f833c4c59501d9a6a185", "lon": -77.023492, "fusion_lon": 0.0}, {"is_reserved": 0, "type": "electric_scooter", "fusion_lat": 0.0, "is_disabled": 0, "rental_uris": {"ios": "https://dc.lft.to/lastmile_qr_scan", "android": "https://dc.lft.to/lastmile_qr_scan"}, "bike_id": "203b552af42921354bd52e7030732ad4", "lat": 38.903486, "name": "203b552af42921354bd52e7030732ad4", "lon": -77.01105383333334, "fusion_lon": 0.0}, {"is_reserved": 0, "type": "electric_scooter", "fusion_lat": 0.0, "is_disabled": 0, "rental_uris": {"ios": "https://dc.lft.to/lastmile_qr_scan", "android": "https://dc.lft.to/lastmile_qr_scan"}, "bike_id": "9f72053f46de2cec17b22669a2fd5fdb", "lat": 38.90520866666667, "name": "9f72053f46de2cec17b22669a2fd5fdb", "lon": -77.06781966666667, "fusion_lon": 0.0}, {"is_reserved": 0, "type": "electric_scooter", "fusion_lat": 0.0, "is_disabled": 0, "rental_uris": {"ios": "https://dc.lft.to/lastmile_qr_scan", "android": "https://dc.lft.to/lastmile_qr_scan"}, "bike_id": "9b332446c74516b0a82dc3477323ac2d", "lat": 38.891966333333336, "name": "9b332446c74516b0a82dc3477323ac2d", "lon": -77.02217816666666, "fusion_lon": 0.0}, {"is_reserved": 0, "type": "electric_scooter", "fusion_lat": 0.0, "is_disabled": 0, "rental_uris": {"ios": "https://dc.lft.to/lastmile_qr_scan", "android": "https://dc.lft.to/lastmile_qr_scan"}, "bike_id": "ac27f8bc3e569e02a79eda2bd141fcc6", "lat": 38.89960633333333, "name": "ac27f8bc3e569e02a79eda2bd141fcc6", "lon": -76.9376155, "fusion_lon": 0.0}, {"is_reserved": 0, "type": "electric_bike", "fusion_lat": 0.0, "is_disabled": 0, "rental_uris": {"ios": "https://dc.lft.to/lastmile_qr_scan", "android": "https://dc.lft.to/lastmile_qr_scan"}, "bike_id": "0a15811fa52fc0f476403b463f87f853", "lat": 38.8462875, "name": "0a15811fa52fc0f476403b463f87f853", "lon": -77.06936233333333, "fusion_lon": 0.0}, {"is_reserved": 0, "type": "electric_scooter", "fusion_lat": 0.0, "is_disabled": 0, "rental_uris": {"ios": "https://dc.lft.to/lastmile_qr_scan", "android": "https://dc.lft.to/lastmile_qr_scan"}, "bike_id": "378d088bbdceab7cc5f91a4a30893670", "lat": 38.8864315, "name": "378d088bbdceab7cc5f91a4a30893670", "lon": -77.01227116666666, "fusion_lon": 0.0}, {"is_reserved": 0, "type": "electric_scooter", "fusion_lat": 0.0, "is_disabled": 0, "rental_uris": {"ios": "https://dc.lft.to/lastmile_qr_scan", "android": "https://dc.lft.to/lastmile_qr_scan"}, "bike_id": "464657c375ae4ea3a4127a03f0e03b1c", "lat": 38.91613816666667, "name": "464657c375ae4ea3a4127a03f0e03b1c", "lon": -77.03212616666667, "fusion_lon": 0.0}, {"is_reserved": 0, "type": "electric_scooter", "fusion_lat": 0.0, "is_disabled": 0, "rental_uris": {"ios": "https://dc.lft.to/lastmile_qr_scan", "android": "https://dc.lft.to/lastmile_qr_scan"}, "bike_id": "64d79fa532d41ce142113fcb7c284866", "lat": 38.89967933333333, "name": "64d79fa532d41ce142113fcb7c284866", "lon": -77.04718166666666, "fusion_lon": 0.0}, {"is_reserved": 0, "type": "electric_scooter", "fusion_lat": 0.0, "is_disabled": 0, "rental_uris": {"ios": "https://dc.lft.to/lastmile_qr_scan", "android": "https://dc.lft.to/lastmile_qr_scan"}, "bike_id": "fb994f6d5d81907979f8050ca78e631a", "lat": 38.917140833333335, "name": "fb994f6d5d81907979f8050ca78e631a", "lon": -77.038572, "fusion_lon": 0.0}, {"is_reserved": 0, "type": "electric_scooter", "fusion_lat": 0.0, "is_disabled": 0, "rental_uris": {"ios": "https://dc.lft.to/lastmile_qr_scan", "android": "https://dc.lft.to/lastmile_qr_scan"}, "bike_id": "5ebde86acaf5885c0d0b0539418b0633", "lat": 38.894810666666665, "name": "5ebde86acaf5885c0d0b0539418b0633", "lon": -77.02175216666667, "fusion_lon": 0.0}, {"is_reserved": 0, "type": "electric_scooter", "fusion_lat": 0.0, "is_disabled": 0, "rental_uris": {"ios": "https://dc.lft.to/lastmile_qr_scan", "android": "https://dc.lft.to/lastmile_qr_scan"}, "bike_id": "ad3234b12f14f9cb4ef161c1843431d7", "lat": 38.9246925, "name": "ad3234b12f14f9cb4ef161c1843431d7", "lon": -77.0221585, "fusion_lon": 0.0}, {"is_reserved": 0, "type": "electric_scooter", "fusion_lat": 0.0, "is_disabled": 0, "rental_uris": {"ios": "https://dc.lft.to/lastmile_qr_scan", "android": "https://dc.lft.to/lastmile_qr_scan"}, "bike_id": "844a204b2fd64a0717c95a4cb1ee0116", "lat": 38.917021166666665, "name": "844a204b2fd64a0717c95a4cb1ee0116", "lon": -77.02298483333334, "fusion_lon": 0.0}, {"is_reserved": 0, "type": "electric_scooter", "fusion_lat": 0.0, "is_disabled": 0, "rental_uris": {"ios": "https://dc.lft.to/lastmile_qr_scan", "android": "https://dc.lft.to/lastmile_qr_scan"}, "bike_id": "ec6130442bc5fdf3114a02cf7cae2d1f", "lat": 38.887099666666664, "name": "ec6130442bc5fdf3114a02cf7cae2d1f", "lon": -76.98340116666667, "fusion_lon": 0.0}, {"is_reserved": 0, "type": "electric_scooter", "fusion_lat": 0.0, "is_disabled": 0, "rental_uris": {"ios": "https://dc.lft.to/lastmile_qr_scan", "android": "https://dc.lft.to/lastmile_qr_scan"}, "bike_id": "41034592c6e8ff13862e2ffa77ad57ae", "lat": 38.901195666666666, "name": "41034592c6e8ff13862e2ffa77ad57ae", "lon": -76.995063, "fusion_lon": 0.0}, {"is_reserved": 0, "type": "electric_scooter", "fusion_lat": 0.0, "is_disabled": 0, "rental_uris": {"ios": "https://dc.lft.to/lastmile_qr_scan", "android": "https://dc.lft.to/lastmile_qr_scan"}, "bike_id": "e74e880e25a18a6cd10c71583f26ae91", "lat": 38.88573133333333, "name": "e74e880e25a18a6cd10c71583f26ae91", "lon": -77.01207516666666, "fusion_lon": 0.0}, {"is_reserved": 0, "type": "electric_scooter", "fusion_lat": 0.0, "is_disabled": 0, "rental_uris": {"ios": "https://dc.lft.to/lastmile_qr_scan", "android": "https://dc.lft.to/lastmile_qr_scan"}, "bike_id": "c684b6e08c5c741b7360faa5152ab967", "lat": 38.917834, "name": "c684b6e08c5c741b7360faa5152ab967", "lon": -77.02398233333334, "fusion_lon": 0.0}, {"is_reserved": 0, "type": "electric_scooter", "fusion_lat": 0.0, "is_disabled": 0, "rental_uris": {"ios": "https://dc.lft.to/lastmile_qr_scan", "android": "https://dc.lft.to/lastmile_qr_scan"}, "bike_id": "393d871b6ed619b750b17e456097327a", "lat": 38.913767666666665, "name": "393d871b6ed619b750b17e456097327a", "lon": -77.06427316666667, "fusion_lon": 0.0}, {"is_reserved": 0, "type": "electric_scooter", "fusion_lat": 0.0, "is_disabled": 0, "rental_uris": {"ios": "https://dc.lft.to/lastmile_qr_scan", "android": "https://dc.lft.to/lastmile_qr_scan"}, "bike_id": "e1fc6dbd652ab0a5668974c5536101f5", "lat": 38.903777, "name": "e1fc6dbd652ab0a5668974c5536101f5", "lon": -77.04028483333333, "fusion_lon": 0.0}, {"is_reserved": 0, "type": "electric_scooter", "fusion_lat": 0.0, "is_disabled": 0, "rental_uris": {"ios": "https://dc.lft.to/lastmile_qr_scan", "android": "https://dc.lft.to/lastmile_qr_scan"}, "bike_id": "a82a0d9c68ab486eb890d655ffe8851b", "lat": 38.9155435, "name": "a82a0d9c68ab486eb890d655ffe8851b", "lon": -76.98501433333334, "fusion_lon": 0.0}, {"is_reserved": 0, "type": "electric_scooter", "fusion_lat": 0.0, "is_disabled": 0, "rental_uris": {"ios": "https://dc.lft.to/lastmile_qr_scan", "android": "https://dc.lft.to/lastmile_qr_scan"}, "bike_id": "d34d1921cdc9b1b05423f59d2dfbad1a", "lat": 38.90815166666667, "name": "d34d1921cdc9b1b05423f59d2dfbad1a", "lon": -77.08426966666667, "fusion_lon": 0.0}, {"is_reserved": 0, "type": "electric_scooter", "fusion_lat": 0.0, "is_disabled": 0, "rental_uris": {"ios": "https://dc.lft.to/lastmile_qr_scan", "android": "https://dc.lft.to/lastmile_qr_scan"}, "bike_id": "06432f84914e0f8fb75afe211876d869", "lat": 38.900992333333335, "name": "06432f84914e0f8fb75afe211876d869", "lon": -77.02313, "fusion_lon": 0.0}, {"is_reserved": 0, "type": "electric_bike", "fusion_lat": 0.0, "is_disabled": 0, "rental_uris": {"ios": "https://dc.lft.to/lastmile_qr_scan", "android": "https://dc.lft.to/lastmile_qr_scan"}, "bike_id": "c575e159bfd661f3d0badd7b42402f26", "lat": 38.84616316666666, "name": "c575e159bfd661f3d0badd7b42402f26", "lon": -76.978397, "fusion_lon": 0.0}, {"is_reserved": 0, "type": "electric_scooter", "fusion_lat": 0.0, "is_disabled": 0, "rental_uris": {"ios": "https://dc.lft.to/lastmile_qr_scan", "android": "https://dc.lft.to/lastmile_qr_scan"}, "bike_id": "c387c750fccdc38640dc364e46b06b00", "lat": 38.90865316666667, "name": "c387c750fccdc38640dc364e46b06b00", "lon": -77.02667283333334, "fusion_lon": 0.0}, {"is_reserved": 0, "type": "electric_scooter", "fusion_lat": 0.0, "is_disabled": 0, "rental_uris": {"ios": "https://dc.lft.to/lastmile_qr_scan", "android": "https://dc.lft.to/lastmile_qr_scan"}, "bike_id": "6108279a73cea8f68f2261dc02488d45", "lat": 38.93506516666667, "name": "6108279a73cea8f68f2261dc02488d45", "lon": -77.0366845, "fusion_lon": 0.0}, {"is_reserved": 0, "type": "electric_scooter", "fusion_lat": 0.0, "is_disabled": 0, "rental_uris": {"ios": "https://dc.lft.to/lastmile_qr_scan", "android": "https://dc.lft.to/lastmile_qr_scan"}, "bike_id": "0d22b93e1f1b59c513f3bbf4e406b7c5", "lat": 38.95100816666667, "name": "0d22b93e1f1b59c513f3bbf4e406b7c5", "lon": -77.02195816666666, "fusion_lon": 0.0}, {"is_reserved": 0, "type": "electric_scooter", "fusion_lat": 0.0, "is_disabled": 0, "rental_uris": {"ios": "https://dc.lft.to/lastmile_qr_scan", "android": "https://dc.lft.to/lastmile_qr_scan"}, "bike_id": "927d20c17964d50055a7024d41ef3b7a", "lat": 38.90041033333333, "name": "927d20c17964d50055a7024d41ef3b7a", "lon": -77.012404, "fusion_lon": 0.0}, {"is_reserved": 0, "type": "electric_scooter", "fusion_lat": 0.0, "is_disabled": 0, "rental_uris": {"ios": "https://dc.lft.to/lastmile_qr_scan", "android": "https://dc.lft.to/lastmile_qr_scan"}, "bike_id": "6ffe774015dab63da59e3270278ee508", "lat": 38.912947, "name": "6ffe774015dab63da59e3270278ee508", "lon": -77.04554083333333, "fusion_lon": 0.0}, {"is_reserved": 0, "type": "electric_scooter", "fusion_lat": 0.0, "is_disabled": 0, "rental_uris": {"ios": "https://dc.lft.to/lastmile_qr_scan", "android": "https://dc.lft.to/lastmile_qr_scan"}, "bike_id": "caef34d8d2cbc5b2b15d59aa56a72616", "lat": 38.924108833333335, "name": "caef34d8d2cbc5b2b15d59aa56a72616", "lon": -77.0363725, "fusion_lon": 0.0}, {"is_reserved": 0, "type": "electric_scooter", "fusion_lat": 0.0, "is_disabled": 0, "rental_uris": {"ios": "https://dc.lft.to/lastmile_qr_scan", "android": "https://dc.lft.to/lastmile_qr_scan"}, "bike_id": "e7d2eab6165858c9ce2e2ce639b299bb", "lat": 38.90378166666667, "name": "e7d2eab6165858c9ce2e2ce639b299bb", "lon": -77.0507775, "fusion_lon": 0.0}, {"is_reserved": 0, "type": "electric_scooter", "fusion_lat": 0.0, "is_disabled": 0, "rental_uris": {"ios": "https://dc.lft.to/lastmile_qr_scan", "android": "https://dc.lft.to/lastmile_qr_scan"}, "bike_id": "fb0f490f052d031821f1f1e2540fb684", "lat": 38.93109783333333, "name": "fb0f490f052d031821f1f1e2540fb684", "lon": -77.03807183333333, "fusion_lon": 0.0}, {"is_reserved": 0, "type": "electric_scooter", "fusion_lat": 0.0, "is_disabled": 0, "rental_uris": {"ios": "https://dc.lft.to/lastmile_qr_scan", "android": "https://dc.lft.to/lastmile_qr_scan"}, "bike_id": "c8c7fed14e55443b248f5befc471446f", "lat": 38.918816166666666, "name": "c8c7fed14e55443b248f5befc471446f", "lon": -77.02304733333334, "fusion_lon": 0.0}, {"is_reserved": 0, "type": "electric_scooter", "fusion_lat": 0.0, "is_disabled": 0, "rental_uris": {"ios": "https://dc.lft.to/lastmile_qr_scan", "android": "https://dc.lft.to/lastmile_qr_scan"}, "bike_id": "e1fad916fc61e985e9ea68cf73a92d73", "lat": 38.91679383333334, "name": "e1fad916fc61e985e9ea68cf73a92d73", "lon": -77.02286916666667, "fusion_lon": 0.0}, {"is_reserved": 0, "type": "electric_scooter", "fusion_lat": 0.0, "is_disabled": 0, "rental_uris": {"ios": "https://dc.lft.to/lastmile_qr_scan", "android": "https://dc.lft.to/lastmile_qr_scan"}, "bike_id": "c90a9502c48ba00bc1957ecf053a4778", "lat": 38.85559816666667, "name": "c90a9502c48ba00bc1957ecf053a4778", "lon": -76.99073966666667, "fusion_lon": 0.0}, {"is_reserved": 0, "type": "electric_scooter", "fusion_lat": 0.0, "is_disabled": 0, "rental_uris": {"ios": "https://dc.lft.to/lastmile_qr_scan", "android": "https://dc.lft.to/lastmile_qr_scan"}, "bike_id": "af95ce8f7a2a7ce4494b4b47d7f80071", "lat": 38.89364233333333, "name": "af95ce8f7a2a7ce4494b4b47d7f80071", "lon": -77.02054233333334, "fusion_lon": 0.0}, {"is_reserved": 0, "type": "electric_scooter", "fusion_lat": 0.0, "is_disabled": 0, "rental_uris": {"ios": "https://dc.lft.to/lastmile_qr_scan", "android": "https://dc.lft.to/lastmile_qr_scan"}, "bike_id": "5821b4678b5c2b64bf99594d47932bd9", "lat": 38.929083, "name": "5821b4678b5c2b64bf99594d47932bd9", "lon": -77.020844, "fusion_lon": 0.0}, {"is_reserved": 0, "type": "electric_scooter", "fusion_lat": 0.0, "is_disabled": 0, "rental_uris": {"ios": "https://dc.lft.to/lastmile_qr_scan", "android": "https://dc.lft.to/lastmile_qr_scan"}, "bike_id": "e59b2ea4f61d19ddf4d6fa98efc0d721", "lat": 38.931153, "name": "e59b2ea4f61d19ddf4d6fa98efc0d721", "lon": -77.02094983333333, "fusion_lon": 0.0}, {"is_reserved": 0, "type": "electric_scooter", "fusion_lat": 0.0, "is_disabled": 0, "rental_uris": {"ios": "https://dc.lft.to/lastmile_qr_scan", "android": "https://dc.lft.to/lastmile_qr_scan"}, "bike_id": "72061a9c5621eda2184f33e2d2865cbe", "lat": 38.917676, "name": "72061a9c5621eda2184f33e2d2865cbe", "lon": -77.02311866666666, "fusion_lon": 0.0}, {"is_reserved": 0, "type": "electric_scooter", "fusion_lat": 0.0, "is_disabled": 0, "rental_uris": {"ios": "https://dc.lft.to/lastmile_qr_scan", "android": "https://dc.lft.to/lastmile_qr_scan"}, "bike_id": "275ed1d0dd64b6e5bb2e324dd87aa132", "lat": 38.90351116666667, "name": "275ed1d0dd64b6e5bb2e324dd87aa132", "lon": -77.02602283333333, "fusion_lon": 0.0}, {"is_reserved": 0, "type": "electric_scooter", "fusion_lat": 0.0, "is_disabled": 0, "rental_uris": {"ios": "https://dc.lft.to/lastmile_qr_scan", "android": "https://dc.lft.to/lastmile_qr_scan"}, "bike_id": "4ab32a2b8e6bb6ff8ed74baa41ce16b7", "lat": 38.8756445, "name": "4ab32a2b8e6bb6ff8ed74baa41ce16b7", "lon": -77.0059125, "fusion_lon": 0.0}, {"is_reserved": 0, "type": "electric_scooter", "fusion_lat": 0.0, "is_disabled": 0, "rental_uris": {"ios": "https://dc.lft.to/lastmile_qr_scan", "android": "https://dc.lft.to/lastmile_qr_scan"}, "bike_id": "03000b4c5a2d3d394c8bdd6fdb3e2753", "lat": 38.936035833333335, "name": "03000b4c5a2d3d394c8bdd6fdb3e2753", "lon": -77.02418583333333, "fusion_lon": 0.0}, {"is_reserved": 0, "type": "electric_scooter", "fusion_lat": 0.0, "is_disabled": 0, "rental_uris": {"ios": "https://dc.lft.to/lastmile_qr_scan", "android": "https://dc.lft.to/lastmile_qr_scan"}, "bike_id": "e8cc1bda158cb6b858e4e0391328ec5c", "lat": 38.882381333333335, "name": "e8cc1bda158cb6b858e4e0391328ec5c", "lon": -76.93343566666667, "fusion_lon": 0.0}, {"is_reserved": 0, "type": "electric_scooter", "fusion_lat": 0.0, "is_disabled": 0, "rental_uris": {"ios": "https://dc.lft.to/lastmile_qr_scan", "android": "https://dc.lft.to/lastmile_qr_scan"}, "bike_id": "f96dd0cfe977c66f4e986a6c903a0b6f", "lat": 38.9110415, "name": "f96dd0cfe977c66f4e986a6c903a0b6f", "lon": -77.00363816666666, "fusion_lon": 0.0}, {"is_reserved": 0, "type": "electric_scooter", "fusion_lat": 0.0, "is_disabled": 0, "rental_uris": {"ios": "https://dc.lft.to/lastmile_qr_scan", "android": "https://dc.lft.to/lastmile_qr_scan"}, "bike_id": "a4cbdd3ab70fb87e088bd7bd937cee26", "lat": 38.91782516666667, "name": "a4cbdd3ab70fb87e088bd7bd937cee26", "lon": -77.023941, "fusion_lon": 0.0}, {"is_reserved": 0, "type": "electric_scooter", "fusion_lat": 0.0, "is_disabled": 0, "rental_uris": {"ios": "https://dc.lft.to/lastmile_qr_scan", "android": "https://dc.lft.to/lastmile_qr_scan"}, "bike_id": "de589692ee264448dbb16ce44e6ba93b", "lat": 38.915427, "name": "de589692ee264448dbb16ce44e6ba93b", "lon": -77.0297035, "fusion_lon": 0.0}, {"is_reserved": 0, "type": "electric_scooter", "fusion_lat": 0.0, "is_disabled": 0, "rental_uris": {"ios": "https://dc.lft.to/lastmile_qr_scan", "android": "https://dc.lft.to/lastmile_qr_scan"}, "bike_id": "e83f152690af6fff916bf5c45e413491", "lat": 38.905103833333335, "name": "e83f152690af6fff916bf5c45e413491", "lon": -77.04339983333334, "fusion_lon": 0.0}, {"is_reserved": 0, "type": "electric_scooter", "fusion_lat": 0.0, "is_disabled": 0, "rental_uris": {"ios": "https://dc.lft.to/lastmile_qr_scan", "android": "https://dc.lft.to/lastmile_qr_scan"}, "bike_id": "89ed3c0d7482c78548a5d44ea9508eb0", "lat": 38.8736815, "name": "89ed3c0d7482c78548a5d44ea9508eb0", "lon": -77.00122266666666, "fusion_lon": 0.0}, {"is_reserved": 0, "type": "electric_scooter", "fusion_lat": 0.0, "is_disabled": 0, "rental_uris": {"ios": "https://dc.lft.to/lastmile_qr_scan", "android": "https://dc.lft.to/lastmile_qr_scan"}, "bike_id": "11672948191029dbe24ea25b25259cb7", "lat": 38.9337435, "name": "11672948191029dbe24ea25b25259cb7", "lon": -77.07247966666667, "fusion_lon": 0.0}, {"is_reserved": 0, "type": "electric_scooter", "fusion_lat": 0.0, "is_disabled": 0, "rental_uris": {"ios": "https://dc.lft.to/lastmile_qr_scan", "android": "https://dc.lft.to/lastmile_qr_scan"}, "bike_id": "0c575e88bc67fd0ca67055e047c16efb", "lat": 38.944616, "name": "0c575e88bc67fd0ca67055e047c16efb", "lon": -77.00657233333334, "fusion_lon": 0.0}, {"is_reserved": 0, "type": "electric_scooter", "fusion_lat": 0.0, "is_disabled": 0, "rental_uris": {"ios": "https://dc.lft.to/lastmile_qr_scan", "android": "https://dc.lft.to/lastmile_qr_scan"}, "bike_id": "129e52b9b7a4079861f167e30dd801f0", "lat": 38.92047916666667, "name": "129e52b9b7a4079861f167e30dd801f0", "lon": -77.03393466666667, "fusion_lon": 0.0}, {"is_reserved": 0, "type": "electric_scooter", "fusion_lat": 0.0, "is_disabled": 0, "rental_uris": {"ios": "https://dc.lft.to/lastmile_qr_scan", "android": "https://dc.lft.to/lastmile_qr_scan"}, "bike_id": "81aeb3373eb3be15d70b2b5e7aa40644", "lat": 38.90266583333333, "name": "81aeb3373eb3be15d70b2b5e7aa40644", "lon": -76.98982733333334, "fusion_lon": 0.0}, {"is_reserved": 0, "type": "electric_scooter", "fusion_lat": 0.0, "is_disabled": 0, "rental_uris": {"ios": "https://dc.lft.to/lastmile_qr_scan", "android": "https://dc.lft.to/lastmile_qr_scan"}, "bike_id": "a913fe732e64b36e797fc5c8c373c24e", "lat": 38.91214566666667, "name": "a913fe732e64b36e797fc5c8c373c24e", "lon": -77.00659266666666, "fusion_lon": 0.0}, {"is_reserved": 0, "type": "electric_scooter", "fusion_lat": 0.0, "is_disabled": 0, "rental_uris": {"ios": "https://dc.lft.to/lastmile_qr_scan", "android": "https://dc.lft.to/lastmile_qr_scan"}, "bike_id": "dcc49d3a74b0a580cf34f844686c6015", "lat": 38.907785833333335, "name": "dcc49d3a74b0a580cf34f844686c6015", "lon": -77.0725395, "fusion_lon": 0.0}, {"is_reserved": 0, "type": "electric_scooter", "fusion_lat": 0.0, "is_disabled": 0, "rental_uris": {"ios": "https://dc.lft.to/lastmile_qr_scan", "android": "https://dc.lft.to/lastmile_qr_scan"}, "bike_id": "bf5ca6f5e70c11465c5f7cbcfdab7e10", "lat": 38.876548, "name": "bf5ca6f5e70c11465c5f7cbcfdab7e10", "lon": -77.0008505, "fusion_lon": 0.0}, {"is_reserved": 0, "type": "electric_scooter", "fusion_lat": 0.0, "is_disabled": 0, "rental_uris": {"ios": "https://dc.lft.to/lastmile_qr_scan", "android": "https://dc.lft.to/lastmile_qr_scan"}, "bike_id": "e9628d7b970a015d5e368080955db4fc", "lat": 38.88132216666666, "name": "e9628d7b970a015d5e368080955db4fc", "lon": -77.02009383333333, "fusion_lon": 0.0}, {"is_reserved": 0, "type": "electric_scooter", "fusion_lat": 0.0, "is_disabled": 0, "rental_uris": {"ios": "https://dc.lft.to/lastmile_qr_scan", "android": "https://dc.lft.to/lastmile_qr_scan"}, "bike_id": "3b3faad212bf56c2e8f4f8d8a777b714", "lat": 38.891981333333334, "name": "3b3faad212bf56c2e8f4f8d8a777b714", "lon": -77.01548433333333, "fusion_lon": 0.0}, {"is_reserved": 0, "type": "electric_scooter", "fusion_lat": 0.0, "is_disabled": 0, "rental_uris": {"ios": "https://dc.lft.to/lastmile_qr_scan", "android": "https://dc.lft.to/lastmile_qr_scan"}, "bike_id": "ba19da661c27c679a4a152c07d83b95e", "lat": 38.91796683333333, "name": "ba19da661c27c679a4a152c07d83b95e", "lon": -77.04441733333333, "fusion_lon": 0.0}, {"is_reserved": 0, "type": "electric_scooter", "fusion_lat": 0.0, "is_disabled": 0, "rental_uris": {"ios": "https://dc.lft.to/lastmile_qr_scan", "android": "https://dc.lft.to/lastmile_qr_scan"}, "bike_id": "53cc7bb74318b43ea5cc9050d689baf4", "lat": 38.92412916666667, "name": "53cc7bb74318b43ea5cc9050d689baf4", "lon": -77.02126666666666, "fusion_lon": 0.0}, {"is_reserved": 0, "type": "electric_scooter", "fusion_lat": 0.0, "is_disabled": 0, "rental_uris": {"ios": "https://dc.lft.to/lastmile_qr_scan", "android": "https://dc.lft.to/lastmile_qr_scan"}, "bike_id": "56bdaf4d4319e041085112ea18949072", "lat": 38.902351333333336, "name": "56bdaf4d4319e041085112ea18949072", "lon": -77.00058866666667, "fusion_lon": 0.0}, {"is_reserved": 0, "type": "electric_bike", "fusion_lat": 0.0, "is_disabled": 0, "rental_uris": {"ios": "https://dc.lft.to/lastmile_qr_scan", "android": "https://dc.lft.to/lastmile_qr_scan"}, "bike_id": "65ab2164c57e07a4c4c72f7ac8c6be32", "lat": 38.81334533333333, "name": "65ab2164c57e07a4c4c72f7ac8c6be32", "lon": -77.05114683333333, "fusion_lon": 0.0}, {"is_reserved": 0, "type": "electric_scooter", "fusion_lat": 0.0, "is_disabled": 0, "rental_uris": {"ios": "https://dc.lft.to/lastmile_qr_scan", "android": "https://dc.lft.to/lastmile_qr_scan"}, "bike_id": "ccc62630a4d51cd4e25f737da3a3fd6d", "lat": 38.89987333333333, "name": "ccc62630a4d51cd4e25f737da3a3fd6d", "lon": -77.0448965, "fusion_lon": 0.0}, {"is_reserved": 0, "type": "electric_scooter", "fusion_lat": 0.0, "is_disabled": 0, "rental_uris": {"ios": "https://dc.lft.to/lastmile_qr_scan", "android": "https://dc.lft.to/lastmile_qr_scan"}, "bike_id": "a6073268acddfaf87bc482200c2afbb9", "lat": 38.948217666666665, "name": "a6073268acddfaf87bc482200c2afbb9", "lon": -77.02610416666667, "fusion_lon": 0.0}, {"is_reserved": 0, "type": "electric_scooter", "fusion_lat": 0.0, "is_disabled": 0, "rental_uris": {"ios": "https://dc.lft.to/lastmile_qr_scan", "android": "https://dc.lft.to/lastmile_qr_scan"}, "bike_id": "9be0a510b1cd1f1bdfbbdbb94ba37b21", "lat": 38.876315, "name": "9be0a510b1cd1f1bdfbbdbb94ba37b21", "lon": -77.009599, "fusion_lon": 0.0}, {"is_reserved": 0, "type": "electric_scooter", "fusion_lat": 0.0, "is_disabled": 0, "rental_uris": {"ios": "https://dc.lft.to/lastmile_qr_scan", "android": "https://dc.lft.to/lastmile_qr_scan"}, "bike_id": "5b9b076523912e61366b8a71221de910", "lat": 38.902358, "name": "5b9b076523912e61366b8a71221de910", "lon": -77.01791883333334, "fusion_lon": 0.0}, {"is_reserved": 0, "type": "electric_scooter", "fusion_lat": 0.0, "is_disabled": 0, "rental_uris": {"ios": "https://dc.lft.to/lastmile_qr_scan", "android": "https://dc.lft.to/lastmile_qr_scan"}, "bike_id": "d5fb33ffb6d6e8aa2e4d0eb726028e2e", "lat": 38.88662133333333, "name": "d5fb33ffb6d6e8aa2e4d0eb726028e2e", "lon": -76.985614, "fusion_lon": 0.0}, {"is_reserved": 0, "type": "electric_scooter", "fusion_lat": 0.0, "is_disabled": 0, "rental_uris": {"ios": "https://dc.lft.to/lastmile_qr_scan", "android": "https://dc.lft.to/lastmile_qr_scan"}, "bike_id": "00836ec3205817b00ce5b25baed43711", "lat": 38.906118, "name": "00836ec3205817b00ce5b25baed43711", "lon": -77.02101633333334, "fusion_lon": 0.0}, {"is_reserved": 0, "type": "electric_scooter", "fusion_lat": 0.0, "is_disabled": 0, "rental_uris": {"ios": "https://dc.lft.to/lastmile_qr_scan", "android": "https://dc.lft.to/lastmile_qr_scan"}, "bike_id": "233e8a2fcd741f609357f00d0e40ae45", "lat": 38.855194833333336, "name": "233e8a2fcd741f609357f00d0e40ae45", "lon": -76.991445, "fusion_lon": 0.0}, {"is_reserved": 0, "type": "electric_scooter", "fusion_lat": 0.0, "is_disabled": 0, "rental_uris": {"ios": "https://dc.lft.to/lastmile_qr_scan", "android": "https://dc.lft.to/lastmile_qr_scan"}, "bike_id": "8cf0c87b4e0e883fb8ab4ec6f02229e8", "lat": 38.917147666666665, "name": "8cf0c87b4e0e883fb8ab4ec6f02229e8", "lon": -77.038594, "fusion_lon": 0.0}, {"is_reserved": 0, "type": "electric_scooter", "fusion_lat": 0.0, "is_disabled": 0, "rental_uris": {"ios": "https://dc.lft.to/lastmile_qr_scan", "android": "https://dc.lft.to/lastmile_qr_scan"}, "bike_id": "03d51a9662fb52d69b30cd935a043c75", "lat": 38.90198783333334, "name": "03d51a9662fb52d69b30cd935a043c75", "lon": -77.02373233333333, "fusion_lon": 0.0}, {"is_reserved": 0, "type": "electric_scooter", "fusion_lat": 0.0, "is_disabled": 0, "rental_uris": {"ios": "https://dc.lft.to/lastmile_qr_scan", "android": "https://dc.lft.to/lastmile_qr_scan"}, "bike_id": "1bfabdb6a10ccf32812a143427356874", "lat": 38.934203833333335, "name": "1bfabdb6a10ccf32812a143427356874", "lon": -77.04407233333333, "fusion_lon": 0.0}, {"is_reserved": 0, "type": "electric_scooter", "fusion_lat": 0.0, "is_disabled": 0, "rental_uris": {"ios": "https://dc.lft.to/lastmile_qr_scan", "android": "https://dc.lft.to/lastmile_qr_scan"}, "bike_id": "45e048bcbbcec55c80d7ac213696a98d", "lat": 38.894725333333334, "name": "45e048bcbbcec55c80d7ac213696a98d", "lon": -76.993567, "fusion_lon": 0.0}, {"is_reserved": 0, "type": "electric_scooter", "fusion_lat": 0.0, "is_disabled": 0, "rental_uris": {"ios": "https://dc.lft.to/lastmile_qr_scan", "android": "https://dc.lft.to/lastmile_qr_scan"}, "bike_id": "f910243f72fe6ffab9d4aae26bc3d64e", "lat": 38.922122333333334, "name": "f910243f72fe6ffab9d4aae26bc3d64e", "lon": -77.032902, "fusion_lon": 0.0}, {"is_reserved": 0, "type": "electric_scooter", "fusion_lat": 0.0, "is_disabled": 0, "rental_uris": {"ios": "https://dc.lft.to/lastmile_qr_scan", "android": "https://dc.lft.to/lastmile_qr_scan"}, "bike_id": "1a92683754ed953598cc2f2d9c09c385", "lat": 38.907395333333334, "name": "1a92683754ed953598cc2f2d9c09c385", "lon": -77.0030315, "fusion_lon": 0.0}, {"is_reserved": 0, "type": "electric_scooter", "fusion_lat": 0.0, "is_disabled": 0, "rental_uris": {"ios": "https://dc.lft.to/lastmile_qr_scan", "android": "https://dc.lft.to/lastmile_qr_scan"}, "bike_id": "62fd0dfad1a6eb410559dfcf255cde10", "lat": 38.89831, "name": "62fd0dfad1a6eb410559dfcf255cde10", "lon": -76.94631333333334, "fusion_lon": 0.0}, {"is_reserved": 0, "type": "electric_scooter", "fusion_lat": 0.0, "is_disabled": 0, "rental_uris": {"ios": "https://dc.lft.to/lastmile_qr_scan", "android": "https://dc.lft.to/lastmile_qr_scan"}, "bike_id": "81c4ffc1acebbf4d3b686017ac5018ea", "lat": 38.898515, "name": "81c4ffc1acebbf4d3b686017ac5018ea", "lon": -77.03960933333333, "fusion_lon": 0.0}, {"is_reserved": 0, "type": "electric_scooter", "fusion_lat": 0.0, "is_disabled": 0, "rental_uris": {"ios": "https://dc.lft.to/lastmile_qr_scan", "android": "https://dc.lft.to/lastmile_qr_scan"}, "bike_id": "64930cde1fd8be67f0db7f3478c6fc25", "lat": 38.9228545, "name": "64930cde1fd8be67f0db7f3478c6fc25", "lon": -77.0199125, "fusion_lon": 0.0}, {"is_reserved": 0, "type": "electric_scooter", "fusion_lat": 0.0, "is_disabled": 0, "rental_uris": {"ios": "https://dc.lft.to/lastmile_qr_scan", "android": "https://dc.lft.to/lastmile_qr_scan"}, "bike_id": "d379e7df9fe689b879446d1b30716678", "lat": 38.9047895, "name": "d379e7df9fe689b879446d1b30716678", "lon": -77.02798183333333, "fusion_lon": 0.0}, {"is_reserved": 0, "type": "electric_scooter", "fusion_lat": 0.0, "is_disabled": 0, "rental_uris": {"ios": "https://dc.lft.to/lastmile_qr_scan", "android": "https://dc.lft.to/lastmile_qr_scan"}, "bike_id": "50330f87a42b1d7ec1aa196236ec3582", "lat": 38.92829366666667, "name": "50330f87a42b1d7ec1aa196236ec3582", "lon": -77.0370215, "fusion_lon": 0.0}, {"is_reserved": 0, "type": "electric_bike", "fusion_lat": 0.0, "is_disabled": 0, "rental_uris": {"ios": "https://dc.lft.to/lastmile_qr_scan", "android": "https://dc.lft.to/lastmile_qr_scan"}, "bike_id": "e5bd3b056d37d0642b11863d719b83b9", "lat": 38.813304, "name": "e5bd3b056d37d0642b11863d719b83b9", "lon": -77.050873, "fusion_lon": 0.0}, {"is_reserved": 0, "type": "electric_scooter", "fusion_lat": 0.0, "is_disabled": 0, "rental_uris": {"ios": "https://dc.lft.to/lastmile_qr_scan", "android": "https://dc.lft.to/lastmile_qr_scan"}, "bike_id": "8044682fa8b981ea92f66da7868d8055", "lat": 38.892224, "name": "8044682fa8b981ea92f66da7868d8055", "lon": -77.04641483333333, "fusion_lon": 0.0}, {"is_reserved": 0, "type": "electric_bike", "fusion_lat": 0.0, "is_disabled": 0, "rental_uris": {"ios": "https://dc.lft.to/lastmile_qr_scan", "android": "https://dc.lft.to/lastmile_qr_scan"}, "bike_id": "06dfa5975bad003f828939eab6cd7442", "lat": 38.90691133333333, "name": "06dfa5975bad003f828939eab6cd7442", "lon": -76.9525375, "fusion_lon": 0.0}, {"is_reserved": 0, "type": "electric_scooter", "fusion_lat": 0.0, "is_disabled": 0, "rental_uris": {"ios": "https://dc.lft.to/lastmile_qr_scan", "android": "https://dc.lft.to/lastmile_qr_scan"}, "bike_id": "f5f8b7a1c50a59b1ff3b18bd8d872b92", "lat": 38.917358666666665, "name": "f5f8b7a1c50a59b1ff3b18bd8d872b92", "lon": -77.03608033333333, "fusion_lon": 0.0}, {"is_reserved": 0, "type": "electric_scooter", "fusion_lat": 0.0, "is_disabled": 0, "rental_uris": {"ios": "https://dc.lft.to/lastmile_qr_scan", "android": "https://dc.lft.to/lastmile_qr_scan"}, "bike_id": "ae3935f3aa36dfeb95ab6caedd7e65f6", "lat": 38.921774666666664, "name": "ae3935f3aa36dfeb95ab6caedd7e65f6", "lon": -77.04597316666667, "fusion_lon": 0.0}, {"is_reserved": 0, "type": "electric_scooter", "fusion_lat": 0.0, "is_disabled": 0, "rental_uris": {"ios": "https://dc.lft.to/lastmile_qr_scan", "android": "https://dc.lft.to/lastmile_qr_scan"}, "bike_id": "42af8c952d7b0e7bf0e26e0738df4d50", "lat": 38.897700666666665, "name": "42af8c952d7b0e7bf0e26e0738df4d50", "lon": -77.04782083333333, "fusion_lon": 0.0}, {"is_reserved": 0, "type": "electric_scooter", "fusion_lat": 0.0, "is_disabled": 0, "rental_uris": {"ios": "https://dc.lft.to/lastmile_qr_scan", "android": "https://dc.lft.to/lastmile_qr_scan"}, "bike_id": "0eaa3e98739ccf02c1820454660b7891", "lat": 38.912465833333336, "name": "0eaa3e98739ccf02c1820454660b7891", "lon": -76.98668566666667, "fusion_lon": 0.0}, {"is_reserved": 0, "type": "electric_scooter", "fusion_lat": 0.0, "is_disabled": 0, "rental_uris": {"ios": "https://dc.lft.to/lastmile_qr_scan", "android": "https://dc.lft.to/lastmile_qr_scan"}, "bike_id": "432bf24969d04e3119ca360cee41b9e1", "lat": 38.91659883333333, "name": "432bf24969d04e3119ca360cee41b9e1", "lon": -77.022992, "fusion_lon": 0.0}, {"is_reserved": 0, "type": "electric_bike", "fusion_lat": 0.0, "is_disabled": 0, "rental_uris": {"ios": "https://dc.lft.to/lastmile_qr_scan", "android": "https://dc.lft.to/lastmile_qr_scan"}, "bike_id": "8f51191cb12b48b8da9b3941ede6c299", "lat": 38.805202666666666, "name": "8f51191cb12b48b8da9b3941ede6c299", "lon": -77.04335183333333, "fusion_lon": 0.0}, {"is_reserved": 0, "type": "electric_scooter", "fusion_lat": 0.0, "is_disabled": 0, "rental_uris": {"ios": "https://dc.lft.to/lastmile_qr_scan", "android": "https://dc.lft.to/lastmile_qr_scan"}, "bike_id": "2a5f723e59435b811b181b97156ce424", "lat": 38.91069, "name": "2a5f723e59435b811b181b97156ce424", "lon": -77.01609083333334, "fusion_lon": 0.0}, {"is_reserved": 0, "type": "electric_scooter", "fusion_lat": 0.0, "is_disabled": 0, "rental_uris": {"ios": "https://dc.lft.to/lastmile_qr_scan", "android": "https://dc.lft.to/lastmile_qr_scan"}, "bike_id": "eb9391e678864c5c0f30e48aa3d42265", "lat": 38.93181116666667, "name": "eb9391e678864c5c0f30e48aa3d42265", "lon": -77.03156133333333, "fusion_lon": 0.0}, {"is_reserved": 0, "type": "electric_scooter", "fusion_lat": 0.0, "is_disabled": 0, "rental_uris": {"ios": "https://dc.lft.to/lastmile_qr_scan", "android": "https://dc.lft.to/lastmile_qr_scan"}, "bike_id": "28846b1604414399be87bdf0cdbef748", "lat": 38.90137983333334, "name": "28846b1604414399be87bdf0cdbef748", "lon": -76.93159983333334, "fusion_lon": 0.0}, {"is_reserved": 0, "type": "electric_scooter", "fusion_lat": 0.0, "is_disabled": 0, "rental_uris": {"ios": "https://dc.lft.to/lastmile_qr_scan", "android": "https://dc.lft.to/lastmile_qr_scan"}, "bike_id": "d3b6b7fbd8e850b8b405445d3135e0d4", "lat": 38.974957, "name": "d3b6b7fbd8e850b8b405445d3135e0d4", "lon": -77.0169715, "fusion_lon": 0.0}, {"is_reserved": 0, "type": "electric_scooter", "fusion_lat": 0.0, "is_disabled": 0, "rental_uris": {"ios": "https://dc.lft.to/lastmile_qr_scan", "android": "https://dc.lft.to/lastmile_qr_scan"}, "bike_id": "57bf14246834d31d63765bfced3bf0cd", "lat": 38.921692666666665, "name": "57bf14246834d31d63765bfced3bf0cd", "lon": -77.03826616666667, "fusion_lon": 0.0}, {"is_reserved": 0, "type": "electric_bike", "fusion_lat": 0.0, "is_disabled": 0, "rental_uris": {"ios": "https://dc.lft.to/lastmile_qr_scan", "android": "https://dc.lft.to/lastmile_qr_scan"}, "bike_id": "454aa3d92e1b1fd97f99c5d7aaf63bfa", "lat": 38.865487333333334, "name": "454aa3d92e1b1fd97f99c5d7aaf63bfa", "lon": -76.94149616666667, "fusion_lon": 0.0}, {"is_reserved": 0, "type": "electric_scooter", "fusion_lat": 0.0, "is_disabled": 0, "rental_uris": {"ios": "https://dc.lft.to/lastmile_qr_scan", "android": "https://dc.lft.to/lastmile_qr_scan"}, "bike_id": "d031845298cd1a4ffa0238816bce7b5f", "lat": 38.901005833333336, "name": "d031845298cd1a4ffa0238816bce7b5f", "lon": -77.01813566666667, "fusion_lon": 0.0}, {"is_reserved": 0, "type": "electric_scooter", "fusion_lat": 0.0, "is_disabled": 0, "rental_uris": {"ios": "https://dc.lft.to/lastmile_qr_scan", "android": "https://dc.lft.to/lastmile_qr_scan"}, "bike_id": "ae23583c8efb17c852056e80eded1227", "lat": 38.901464833333335, "name": "ae23583c8efb17c852056e80eded1227", "lon": -77.01519533333334, "fusion_lon": 0.0}, {"is_reserved": 0, "type": "electric_scooter", "fusion_lat": 0.0, "is_disabled": 0, "rental_uris": {"ios": "https://dc.lft.to/lastmile_qr_scan", "android": "https://dc.lft.to/lastmile_qr_scan"}, "bike_id": "2bfa1acd6b200f7d777d920d1b07ee65", "lat": 38.90645266666667, "name": "2bfa1acd6b200f7d777d920d1b07ee65", "lon": -77.02489266666667, "fusion_lon": 0.0}, {"is_reserved": 0, "type": "electric_bike", "fusion_lat": 0.0, "is_disabled": 0, "rental_uris": {"ios": "https://dc.lft.to/lastmile_qr_scan", "android": "https://dc.lft.to/lastmile_qr_scan"}, "bike_id": "c43130096724cde27d8b41bf9665efca", "lat": 38.9524415, "name": "c43130096724cde27d8b41bf9665efca", "lon": -76.98250566666667, "fusion_lon": 0.0}, {"is_reserved": 0, "type": "electric_scooter", "fusion_lat": 0.0, "is_disabled": 0, "rental_uris": {"ios": "https://dc.lft.to/lastmile_qr_scan", "android": "https://dc.lft.to/lastmile_qr_scan"}, "bike_id": "290409fc959367723925e29c920f8b75", "lat": 38.90390583333333, "name": "290409fc959367723925e29c920f8b75", "lon": -76.990024, "fusion_lon": 0.0}, {"is_reserved": 0, "type": "electric_bike", "fusion_lat": 0.0, "is_disabled": 0, "rental_uris": {"ios": "https://dc.lft.to/lastmile_qr_scan", "android": "https://dc.lft.to/lastmile_qr_scan"}, "bike_id": "796ab2538817ab5d340a218c0ce99aa7", "lat": 38.9588085, "name": "796ab2538817ab5d340a218c0ce99aa7", "lon": -76.9705435, "fusion_lon": 0.0}, {"is_reserved": 0, "type": "electric_scooter", "fusion_lat": 0.0, "is_disabled": 0, "rental_uris": {"ios": "https://dc.lft.to/lastmile_qr_scan", "android": "https://dc.lft.to/lastmile_qr_scan"}, "bike_id": "fbd9ad9f1fd8e4ad49d6f6baf1b9bb09", "lat": 38.920523333333335, "name": "fbd9ad9f1fd8e4ad49d6f6baf1b9bb09", "lon": -77.0229545, "fusion_lon": 0.0}, {"is_reserved": 0, "type": "electric_scooter", "fusion_lat": 0.0, "is_disabled": 0, "rental_uris": {"ios": "https://dc.lft.to/lastmile_qr_scan", "android": "https://dc.lft.to/lastmile_qr_scan"}, "bike_id": "32dc477e280314c653f2891f6a0e0c90", "lat": 38.92786816666667, "name": "32dc477e280314c653f2891f6a0e0c90", "lon": -77.02128916666666, "fusion_lon": 0.0}, {"is_reserved": 0, "type": "electric_scooter", "fusion_lat": 0.0, "is_disabled": 0, "rental_uris": {"ios": "https://dc.lft.to/lastmile_qr_scan", "android": "https://dc.lft.to/lastmile_qr_scan"}, "bike_id": "ae7ebeae2f23a92f59deec0e10be302f", "lat": 38.921313166666664, "name": "ae7ebeae2f23a92f59deec0e10be302f", "lon": -77.00399383333334, "fusion_lon": 0.0}, {"is_reserved": 0, "type": "electric_scooter", "fusion_lat": 0.0, "is_disabled": 0, "rental_uris": {"ios": "https://dc.lft.to/lastmile_qr_scan", "android": "https://dc.lft.to/lastmile_qr_scan"}, "bike_id": "d45348804ce772a5e846ddd923875734", "lat": 38.90603766666667, "name": "d45348804ce772a5e846ddd923875734", "lon": -77.0630065, "fusion_lon": 0.0}, {"is_reserved": 0, "type": "electric_scooter", "fusion_lat": 0.0, "is_disabled": 0, "rental_uris": {"ios": "https://dc.lft.to/lastmile_qr_scan", "android": "https://dc.lft.to/lastmile_qr_scan"}, "bike_id": "8c6eee5aed8c2ebda2479a6faf7877ed", "lat": 38.8922945, "name": "8c6eee5aed8c2ebda2479a6faf7877ed", "lon": -77.02574133333333, "fusion_lon": 0.0}, {"is_reserved": 0, "type": "electric_scooter", "fusion_lat": 0.0, "is_disabled": 0, "rental_uris": {"ios": "https://dc.lft.to/lastmile_qr_scan", "android": "https://dc.lft.to/lastmile_qr_scan"}, "bike_id": "22dab01314780e8b8ffff7f5c929dcb3", "lat": 38.8998685, "name": "22dab01314780e8b8ffff7f5c929dcb3", "lon": -77.009284, "fusion_lon": 0.0}, {"is_reserved": 0, "type": "electric_scooter", "fusion_lat": 0.0, "is_disabled": 0, "rental_uris": {"ios": "https://dc.lft.to/lastmile_qr_scan", "android": "https://dc.lft.to/lastmile_qr_scan"}, "bike_id": "bf955ee582aad904d94e68284a0b8db1", "lat": 38.904214333333336, "name": "bf955ee582aad904d94e68284a0b8db1", "lon": -77.05134566666666, "fusion_lon": 0.0}, {"is_reserved": 0, "type": "electric_scooter", "fusion_lat": 0.0, "is_disabled": 0, "rental_uris": {"ios": "https://dc.lft.to/lastmile_qr_scan", "android": "https://dc.lft.to/lastmile_qr_scan"}, "bike_id": "16b553b90b35a04dfaa28dd4653317b2", "lat": 38.921323, "name": "16b553b90b35a04dfaa28dd4653317b2", "lon": -77.0039765, "fusion_lon": 0.0}, {"is_reserved": 0, "type": "electric_bike", "fusion_lat": 0.0, "is_disabled": 0, "rental_uris": {"ios": "https://dc.lft.to/lastmile_qr_scan", "android": "https://dc.lft.to/lastmile_qr_scan"}, "bike_id": "d44b520473f04cc8ee1f02d497f0a484", "lat": 38.936242166666666, "name": "d44b520473f04cc8ee1f02d497f0a484", "lon": -77.06346383333333, "fusion_lon": 0.0}, {"is_reserved": 0, "type": "electric_bike", "fusion_lat": 0.0, "is_disabled": 0, "rental_uris": {"ios": "https://dc.lft.to/lastmile_qr_scan", "android": "https://dc.lft.to/lastmile_qr_scan"}, "bike_id": "ef67ed9c13b94b49f0942d9462ebe9bc", "lat": 38.836028666666664, "name": "ef67ed9c13b94b49f0942d9462ebe9bc", "lon": -77.00373433333333, "fusion_lon": 0.0}, {"is_reserved": 0, "type": "electric_bike", "fusion_lat": 0.0, "is_disabled": 0, "rental_uris": {"ios": "https://dc.lft.to/lastmile_qr_scan", "android": "https://dc.lft.to/lastmile_qr_scan"}, "bike_id": "064ddc1a0c2e30d4ed5950b2fdcfd60f", "lat": 38.926431666666666, "name": "064ddc1a0c2e30d4ed5950b2fdcfd60f", "lon": -77.02840916666666, "fusion_lon": 0.0}, {"is_reserved": 0, "type": "electric_scooter", "fusion_lat": 0.0, "is_disabled": 0, "rental_uris": {"ios": "https://dc.lft.to/lastmile_qr_scan", "android": "https://dc.lft.to/lastmile_qr_scan"}, "bike_id": "8d012ee57a794c034b20faea65ea91c8", "lat": 38.89526, "name": "8d012ee57a794c034b20faea65ea91c8", "lon": -77.02680066666667, "fusion_lon": 0.0}, {"is_reserved": 0, "type": "electric_bike", "fusion_lat": 0.0, "is_disabled": 0, "rental_uris": {"ios": "https://dc.lft.to/lastmile_qr_scan", "android": "https://dc.lft.to/lastmile_qr_scan"}, "bike_id": "b07efc8527c715ce742becc4358b2f1e", "lat": 38.8578665, "name": "b07efc8527c715ce742becc4358b2f1e", "lon": -76.98755216666666, "fusion_lon": 0.0}, {"is_reserved": 0, "type": "electric_scooter", "fusion_lat": 0.0, "is_disabled": 0, "rental_uris": {"ios": "https://dc.lft.to/lastmile_qr_scan", "android": "https://dc.lft.to/lastmile_qr_scan"}, "bike_id": "9783047e9babdf5d9e2e97a132a29ea2", "lat": 38.833799, "name": "9783047e9babdf5d9e2e97a132a29ea2", "lon": -77.00298716666667, "fusion_lon": 0.0}, {"is_reserved": 0, "type": "electric_scooter", "fusion_lat": 0.0, "is_disabled": 0, "rental_uris": {"ios": "https://dc.lft.to/lastmile_qr_scan", "android": "https://dc.lft.to/lastmile_qr_scan"}, "bike_id": "415b1e8cef1968334edcaf58123ca778", "lat": 38.88229583333333, "name": "415b1e8cef1968334edcaf58123ca778", "lon": -76.99092033333334, "fusion_lon": 0.0}, {"is_reserved": 0, "type": "electric_scooter", "fusion_lat": 0.0, "is_disabled": 0, "rental_uris": {"ios": "https://dc.lft.to/lastmile_qr_scan", "android": "https://dc.lft.to/lastmile_qr_scan"}, "bike_id": "a0d4e7ccec8e86f4d0b3d6d22a629408", "lat": 38.93130583333333, "name": "a0d4e7ccec8e86f4d0b3d6d22a629408", "lon": -77.02172116666667, "fusion_lon": 0.0}, {"is_reserved": 0, "type": "electric_scooter", "fusion_lat": 0.0, "is_disabled": 0, "rental_uris": {"ios": "https://dc.lft.to/lastmile_qr_scan", "android": "https://dc.lft.to/lastmile_qr_scan"}, "bike_id": "4d3975a71e0ebae0f4f86b1f4d72761a", "lat": 38.93318266666667, "name": "4d3975a71e0ebae0f4f86b1f4d72761a", "lon": -77.0325195, "fusion_lon": 0.0},