{"data": {"bikes": [{"is_disabled": 0, "rental_uris": {"android": "https://dc.lft.to/lastmile_qr_scan", "ios": "https://dc.lft.to/lastmile_qr_scan"}, "is_reserved": 0, "name": "406db033ba9570f9c66be1dc4e204c9b", "lon": -77.09695, "type": "electric_bike", "bike_id": "406db033ba9570f9c66be1dc4e204c9b", "fusion_lon": 0.0, "lat": 38.884734, "fusion_lat": 0.0}, {"is_disabled": 0, "rental_uris": {"android": "https://dc.lft.to/lastmile_qr_scan", "ios": "https://dc.lft.to/lastmile_qr_scan"}, "is_reserved": 0, "name": "e8d04252c8805ed8bb1f789cf812e357", "lon": -77.03839433333333, "type": "electric_scooter", "bike_id": "e8d04252c8805ed8bb1f789cf812e357", "fusion_lon": 0.0, "lat": 38.911342166666664, "fusion_lat": 0.0}, {"is_disabled": 0, "rental_uris": {"android": "https://dc.lft.to/lastmile_qr_scan", "ios": "https://dc.lft.to/lastmile_qr_scan"}, "is_reserved": 0, "name": "2f876476125577a5a3109a0bcf109bd5", "lon": -77.02982133333333, "type": "electric_scooter", "bike_id": "2f876476125577a5a3109a0bcf109bd5", "fusion_lon": 0.0, "lat": 38.90385366666667, "fusion_lat": 0.0}, {"is_disabled": 0, "rental_uris": {"android": "https://dc.lft.to/lastmile_qr_scan", "ios": "https://dc.lft.to/lastmile_qr_scan"}, "is_reserved": 0, "name": "411f42aacf20647b3b7298c688d324fb", "lon": -77.0221135, "type": "electric_scooter", "bike_id": "411f42aacf20647b3b7298c688d324fb", "fusion_lon": 0.0, "lat": 38.887412166666664, "fusion_lat": 0.0}, {"is_disabled": 0, "rental_uris": {"android": "https://dc.lft.to/lastmile_qr_scan", "ios": "https://dc.lft.to/lastmile_qr_scan"}, "is_reserved": 0, "name": "abc3609c38a7644cf666f54c1065dcf8", "lon": -76.93147416666666, "type": "electric_scooter", "bike_id": "abc3609c38a7644cf666f54c1065dcf8", "fusion_lon": 0.0, "lat": 38.898480666666664, "fusion_lat": 0.0}, {"is_disabled": 0, "rental_uris": {"android": "https://dc.lft.to/lastmile_qr_scan", "ios": "https://dc.lft.to/lastmile_qr_scan"}, "is_reserved": 0, "name": "6f1efb32ca76c1fb8a6c750068312d45", "lon": -77.02905533333333, "type": "electric_scooter", "bike_id": "6f1efb32ca76c1fb8a6c750068312d45", "fusion_lon": 0.0, "lat": 38.89848166666667, "fusion_lat": 0.0}, {"is_disabled": 0, "rental_uris": {"android": "https://dc.lft.to/lastmile_qr_scan", "ios": "https://dc.lft.to/lastmile_qr_scan"}, "is_reserved": 0, "name": "1b9288ff5adecc35ac5979ff979db6cc", "lon": -76.987328, "type": "electric_scooter", "bike_id": "1b9288ff5adecc35ac5979ff979db6cc", "fusion_lon": 0.0, "lat": 38.867097333333334, "fusion_lat": 0.0}, {"is_disabled": 0, "rental_uris": {"android": "https://dc.lft.to/lastmile_qr_scan", "ios": "https://dc.lft.to/lastmile_qr_scan"}, "is_reserved": 0, "name": "15c99d6168e410b303016ee6466d2052", "lon": -77.025078, "type": "electric_scooter", "bike_id": "15c99d6168e410b303016ee6466d2052", "fusion_lon": 0.0, "lat": 38.93874916666667, "fusion_lat": 0.0}, {"is_disabled": 0, "rental_uris": {"android": "https://dc.lft.to/lastmile_qr_scan", "ios": "https://dc.lft.to/lastmile_qr_scan"}, "is_reserved": 0, "name": "1cdbb7515da06af4f94ea0ace9727b31", "lon": -77.0414125, "type": "electric_scooter", "bike_id": "1cdbb7515da06af4f94ea0ace9727b31", "fusion_lon": 0.0, "lat": 38.92243916666666, "fusion_lat": 0.0}, {"is_disabled": 0, "rental_uris": {"android": "https://dc.lft.to/lastmile_qr_scan", "ios": "https://dc.lft.to/lastmile_qr_scan"}, "is_reserved": 0, "name": "943d62ac8fcc2f88e28fd08631c10783", "lon": -76.98711966666667, "type": "electric_scooter", "bike_id": "943d62ac8fcc2f88e28fd08631c10783", "fusion_lon": 0.0, "lat": 38.866983833333336, "fusion_lat": 0.0}, {"is_disabled": 0, "rental_uris": {"android": "https://dc.lft.to/lastmile_qr_scan", "ios": "https://dc.lft.to/lastmile_qr_scan"}, "is_reserved": 0, "name": "21a42e41c4bc89329803b081342fdb31", "lon": -77.02239133333333, "type": "electric_scooter", "bike_id": "21a42e41c4bc89329803b081342fdb31", "fusion_lon": 0.0, "lat": 38.916493833333334, "fusion_lat": 0.0}, {"is_disabled": 0, "rental_uris": {"android": "https://dc.lft.to/lastmile_qr_scan", "ios": "https://dc.lft.to/lastmile_qr_scan"}, "is_reserved": 0, "name": "96ab848c53230c3efcc094f6a21d59ba", "lon": -77.0297145, "type": "electric_scooter", "bike_id": "96ab848c53230c3efcc094f6a21d59ba", "fusion_lon": 0.0, "lat": 38.916807166666665, "fusion_lat": 0.0}, {"is_disabled": 0, "rental_uris": {"android": "https://dc.lft.to/lastmile_qr_scan", "ios": "https://dc.lft.to/lastmile_qr_scan"}, "is_reserved": 0, "name": "a92721abf50ce26af7a89986de12f23f", "lon": -77.0503215, "type": "electric_scooter", "bike_id": "a92721abf50ce26af7a89986de12f23f", "fusion_lon": 0.0, "lat": 38.8930445, "fusion_lat": 0.0}, {"is_disabled": 0, "rental_uris": {"android": "https://dc.lft.to/lastmile_qr_scan", "ios": "https://dc.lft.to/lastmile_qr_scan"}, "is_reserved": 0, "name": "0e723cdaaad9dc71fd16e1a6659a5176", "lon": -77.0062475, "type": "electric_scooter", "bike_id": "0e723cdaaad9dc71fd16e1a6659a5176", "fusion_lon": 0.0, "lat": 38.8717355, "fusion_lat": 0.0}, {"is_disabled": 0, "rental_uris": {"android": "https://dc.lft.to/lastmile_qr_scan", "ios": "https://dc.lft.to/lastmile_qr_scan"}, "is_reserved": 0, "name": "0db39036be227bf7965c478542554bbc", "lon": -77.06678216666667, "type": "electric_scooter", "bike_id": "0db39036be227bf7965c478542554bbc", "fusion_lon": 0.0, "lat": 38.949472166666666, "fusion_lat": 0.0}, {"is_disabled": 0, "rental_uris": {"android": "https://dc.lft.to/lastmile_qr_scan", "ios": "https://dc.lft.to/lastmile_qr_scan"}, "is_reserved": 0, "name": "3e1bfed69cfa75be53685b3fac1c7100", "lon": -76.98829483333333, "type": "electric_scooter", "bike_id": "3e1bfed69cfa75be53685b3fac1c7100", "fusion_lon": 0.0, "lat": 38.9003045, "fusion_lat": 0.0}, {"is_disabled": 0, "rental_uris": {"android": "https://dc.lft.to/lastmile_qr_scan", "ios": "https://dc.lft.to/lastmile_qr_scan"}, "is_reserved": 0, "name": "0e88cebc681928391f65e09e16868c4c", "lon": -77.0055455, "type": "electric_scooter", "bike_id": "0e88cebc681928391f65e09e16868c4c", "fusion_lon": 0.0, "lat": 38.8753215, "fusion_lat": 0.0}, {"is_disabled": 0, "rental_uris": {"android": "https://dc.lft.to/lastmile_qr_scan", "ios": "https://dc.lft.to/lastmile_qr_scan"}, "is_reserved": 0, "name": "e79cd9a2aef1cd2c6369bd378deb98b1", "lon": -76.93198133333334, "type": "electric_bike", "bike_id": "e79cd9a2aef1cd2c6369bd378deb98b1", "fusion_lon": 0.0, "lat": 38.87235116666667, "fusion_lat": 0.0}, {"is_disabled": 0, "rental_uris": {"android": "https://dc.lft.to/lastmile_qr_scan", "ios": "https://dc.lft.to/lastmile_qr_scan"}, "is_reserved": 0, "name": "a99245e2525a9f9c5a563ac7454cba78", "lon": -77.0184785, "type": "electric_scooter", "bike_id": "a99245e2525a9f9c5a563ac7454cba78", "fusion_lon": 0.0, "lat": 38.954349, "fusion_lat": 0.0}, {"is_disabled": 0, "rental_uris": {"android": "https://dc.lft.to/lastmile_qr_scan", "ios": "https://dc.lft.to/lastmile_qr_scan"}, "is_reserved": 0, "name": "e575f4deacd92bb604a7f8f91d0890ee", "lon": -77.0324615, "type": "electric_scooter", "bike_id": "e575f4deacd92bb604a7f8f91d0890ee", "fusion_lon": 0.0, "lat": 38.921080333333336, "fusion_lat": 0.0}, {"is_disabled": 0, "rental_uris": {"android": "https://dc.lft.to/lastmile_qr_scan", "ios": "https://dc.lft.to/lastmile_qr_scan"}, "is_reserved": 0, "name": "00139c44557bb43c337bf3cfdb9bf3a3", "lon": -77.04328183333334, "type": "electric_scooter", "bike_id": "00139c44557bb43c337bf3cfdb9bf3a3", "fusion_lon": 0.0, "lat": 38.9233865, "fusion_lat": 0.0}, {"is_disabled": 0, "rental_uris": {"android": "https://dc.lft.to/lastmile_qr_scan", "ios": "https://dc.lft.to/lastmile_qr_scan"}, "is_reserved": 0, "name": "f7de53e21a1749e78916fc8559916315", "lon": -77.02368916666667, "type": "electric_scooter", "bike_id": "f7de53e21a1749e78916fc8559916315", "fusion_lon": 0.0, "lat": 38.919096833333334, "fusion_lat": 0.0}, {"is_disabled": 0, "rental_uris": {"android": "https://dc.lft.to/lastmile_qr_scan", "ios": "https://dc.lft.to/lastmile_qr_scan"}, "is_reserved": 0, "name": "bb915f18c0fe250a7c015271824cda9e", "lon": -76.98333733333334, "type": "electric_scooter", "bike_id": "bb915f18c0fe250a7c015271824cda9e", "fusion_lon": 0.0, "lat": 38.887537, "fusion_lat": 0.0}, {"is_disabled": 0, "rental_uris": {"android": "https://dc.lft.to/lastmile_qr_scan", "ios": "https://dc.lft.to/lastmile_qr_scan"}, "is_reserved": 0, "name": "e4435e86e98a3fc0ae00d81bf226dc4c", "lon": -76.97631933333334, "type": "electric_scooter", "bike_id": "e4435e86e98a3fc0ae00d81bf226dc4c", "fusion_lon": 0.0, "lat": 38.902914333333335, "fusion_lat": 0.0}, {"is_disabled": 0, "rental_uris": {"android": "https://dc.lft.to/lastmile_qr_scan", "ios": "https://dc.lft.to/lastmile_qr_scan"}, "is_reserved": 0, "name": "2483836ace1623c7cb5bf78333e53b70", "lon": -77.01890266666666, "type": "electric_scooter", "bike_id": "2483836ace1623c7cb5bf78333e53b70", "fusion_lon": 0.0, "lat": 38.92948416666667, "fusion_lat": 0.0}, {"is_disabled": 0, "rental_uris": {"android": "https://dc.lft.to/lastmile_qr_scan", "ios": "https://dc.lft.to/lastmile_qr_scan"}, "is_reserved": 0, "name": "07ebdd02adce4d77412dda93b86810ac", "lon": -77.00875516666666, "type": "electric_scooter", "bike_id": "07ebdd02adce4d77412dda93b86810ac", "fusion_lon": 0.0, "lat": 38.905772666666664, "fusion_lat": 0.0}, {"is_disabled": 0, "rental_uris": {"android": "https://dc.lft.to/lastmile_qr_scan", "ios": "https://dc.lft.to/lastmile_qr_scan"}, "is_reserved": 0, "name": "4438a2a4f279b07b1e2ff8785b8f3d4a", "lon": -77.01226833333334, "type": "electric_scooter", "bike_id": "4438a2a4f279b07b1e2ff8785b8f3d4a", "fusion_lon": 0.0, "lat": 38.90719716666667, "fusion_lat": 0.0}, {"is_disabled": 0, "rental_uris": {"android": "https://dc.lft.to/lastmile_qr_scan", "ios": "https://dc.lft.to/lastmile_qr_scan"}, "is_reserved": 0, "name": "88fe912a59190d9e34293ee19cc307d2", "lon": -76.98069966666667, "type": "electric_scooter", "bike_id": "88fe912a59190d9e34293ee19cc307d2", "fusion_lon": 0.0, "lat": 38.9193715, "fusion_lat": 0.0}, {"is_disabled": 0, "rental_uris": {"android": "https://dc.lft.to/lastmile_qr_scan", "ios": "https://dc.lft.to/lastmile_qr_scan"}, "is_reserved": 0, "name": "b6dfbcc356884bc3f25b87a1a03e451c", "lon": -77.00811183333333, "type": "electric_scooter", "bike_id": "b6dfbcc356884bc3f25b87a1a03e451c", "fusion_lon": 0.0, "lat": 38.883358, "fusion_lat": 0.0}, {"is_disabled": 0, "rental_uris": {"android": "https://dc.lft.to/lastmile_qr_scan", "ios": "https://dc.lft.to/lastmile_qr_scan"}, "is_reserved": 0, "name": "baa5f92b324bca553ca832a81b1f66de", "lon": -77.00588683333334, "type": "electric_scooter", "bike_id": "baa5f92b324bca553ca832a81b1f66de", "fusion_lon": 0.0, "lat": 38.927598333333336, "fusion_lat": 0.0}, {"is_disabled": 0, "rental_uris": {"android": "https://dc.lft.to/lastmile_qr_scan", "ios": "https://dc.lft.to/lastmile_qr_scan"}, "is_reserved": 0, "name": "e6e09cb244428cac5087921ebcb96b0f", "lon": -77.033111, "type": "electric_scooter", "bike_id": "e6e09cb244428cac5087921ebcb96b0f", "fusion_lon": 0.0, "lat": 38.91635816666667, "fusion_lat": 0.0}, {"is_disabled": 0, "rental_uris": {"android": "https://dc.lft.to/lastmile_qr_scan", "ios": "https://dc.lft.to/lastmile_qr_scan"}, "is_reserved": 0, "name": "a79e83ff8c0ae9394725527044921e47", "lon": -76.99934066666667, "type": "electric_scooter", "bike_id": "a79e83ff8c0ae9394725527044921e47", "fusion_lon": 0.0, "lat": 38.93231883333333, "fusion_lat": 0.0}, {"is_disabled": 0, "rental_uris": {"android": "https://dc.lft.to/lastmile_qr_scan", "ios": "https://dc.lft.to/lastmile_qr_scan"}, "is_reserved": 0, "name": "7536af02baf1c96385d6aed154655dc3", "lon": -77.024798, "type": "electric_scooter", "bike_id": "7536af02baf1c96385d6aed154655dc3", "fusion_lon": 0.0, "lat": 38.8849085, "fusion_lat": 0.0}, {"is_disabled": 0, "rental_uris": {"android": "https://dc.lft.to/lastmile_qr_scan", "ios": "https://dc.lft.to/lastmile_qr_scan"}, "is_reserved": 0, "name": "442735b62f42a90098a4ad5d782a964e", "lon": -77.03301616666667, "type": "electric_scooter", "bike_id": "442735b62f42a90098a4ad5d782a964e", "fusion_lon": 0.0, "lat": 38.909734, "fusion_lat": 0.0}, {"is_disabled": 0, "rental_uris": {"android": "https://dc.lft.to/lastmile_qr_scan", "ios": "https://dc.lft.to/lastmile_qr_scan"}, "is_reserved": 0, "name": "8807d300f2cdb5bc14994270c8c38b2d", "lon": -76.98797483333334, "type": "electric_bike", "bike_id": "8807d300f2cdb5bc14994270c8c38b2d", "fusion_lon": 0.0, "lat": 38.92210766666667, "fusion_lat": 0.0}, {"is_disabled": 0, "rental_uris": {"android": "https://dc.lft.to/lastmile_qr_scan", "ios": "https://dc.lft.to/lastmile_qr_scan"}, "is_reserved": 0, "name": "c00cd9822036c69ebb8b1994c3c1b756", "lon": -77.13232083333334, "type": "electric_bike", "bike_id": "c00cd9822036c69ebb8b1994c3c1b756", "fusion_lon": 0.0, "lat": 38.869746666666664, "fusion_lat": 0.0}, {"is_disabled": 0, "rental_uris": {"android": "https://dc.lft.to/lastmile_qr_scan", "ios": "https://dc.lft.to/lastmile_qr_scan"}, "is_reserved": 0, "name": "0095cb060dca0dafbc9786a8cc307517", "lon": -77.02991533333334, "type": "electric_scooter", "bike_id": "0095cb060dca0dafbc9786a8cc307517", "fusion_lon": 0.0, "lat": 38.91700766666666, "fusion_lat": 0.0}, {"is_disabled": 0, "rental_uris": {"android": "https://dc.lft.to/lastmile_qr_scan", "ios": "https://dc.lft.to/lastmile_qr_scan"}, "is_reserved": 0, "name": "b1a4a50fe22600d095d0c3e7e90d1519", "lon": -77.02171433333334, "type": "electric_scooter", "bike_id": "b1a4a50fe22600d095d0c3e7e90d1519", "fusion_lon": 0.0, "lat": 38.942936, "fusion_lat": 0.0}, {"is_disabled": 0, "rental_uris": {"android": "https://dc.lft.to/lastmile_qr_scan", "ios": "https://dc.lft.to/lastmile_qr_scan"}, "is_reserved": 0, "name": "0dc37ca6924ed8f9fd50005e07e57903", "lon": -77.0057325, "type": "electric_scooter", "bike_id": "0dc37ca6924ed8f9fd50005e07e57903", "fusion_lon": 0.0, "lat": 38.87886266666667, "fusion_lat": 0.0}, {"is_disabled": 0, "rental_uris": {"android": "https://dc.lft.to/lastmile_qr_scan", "ios": "https://dc.lft.to/lastmile_qr_scan"}, "is_reserved": 0, "name": "dd06932c147467ead9a6ab293c6cb77b", "lon": -77.00055783333333, "type": "electric_scooter", "bike_id": "dd06932c147467ead9a6ab293c6cb77b", "fusion_lon": 0.0, "lat": 38.92075766666667, "fusion_lat": 0.0}, {"is_disabled": 0, "rental_uris": {"android": "https://dc.lft.to/lastmile_qr_scan", "ios": "https://dc.lft.to/lastmile_qr_scan"}, "is_reserved": 0, "name": "17408db6cb86d9299422c6ed5dafd339", "lon": -77.03995866666666, "type": "electric_scooter", "bike_id": "17408db6cb86d9299422c6ed5dafd339", "fusion_lon": 0.0, "lat": 38.89540683333333, "fusion_lat": 0.0}, {"is_disabled": 0, "rental_uris": {"android": "https://dc.lft.to/lastmile_qr_scan", "ios": "https://dc.lft.to/lastmile_qr_scan"}, "is_reserved": 0, "name": "3380ac723cbd50d191cd1886a520bad3", "lon": -77.036654, "type": "electric_scooter", "bike_id": "3380ac723cbd50d191cd1886a520bad3", "fusion_lon": 0.0, "lat": 38.92259033333333, "fusion_lat": 0.0}, {"is_disabled": 0, "rental_uris": {"android": "https://dc.lft.to/lastmile_qr_scan", "ios": "https://dc.lft.to/lastmile_qr_scan"}, "is_reserved": 0, "name": "c54899294b7159b317c8df730c3f1a57", "lon": -76.9520945, "type": "electric_scooter", "bike_id": "c54899294b7159b317c8df730c3f1a57", "fusion_lon": 0.0, "lat": 38.892539166666666, "fusion_lat": 0.0}, {"is_disabled": 0, "rental_uris": {"android": "https://dc.lft.to/lastmile_qr_scan", "ios": "https://dc.lft.to/lastmile_qr_scan"}, "is_reserved": 0, "name": "24cfd66c2083b61109f073dc2fcfc913", "lon": -77.07902266666666, "type": "electric_bike", "bike_id": "24cfd66c2083b61109f073dc2fcfc913", "fusion_lon": 0.0, "lat": 38.8393645, "fusion_lat": 0.0}, {"is_disabled": 0, "rental_uris": {"android": "https://dc.lft.to/lastmile_qr_scan", "ios": "https://dc.lft.to/lastmile_qr_scan"}, "is_reserved": 0, "name": "3d3194a39a26a14c0aee006bbe89f74c", "lon": -77.04339666666667, "type": "electric_scooter", "bike_id": "3d3194a39a26a14c0aee006bbe89f74c", "fusion_lon": 0.0, "lat": 38.898186, "fusion_lat": 0.0}, {"is_disabled": 0, "rental_uris": {"android": "https://dc.lft.to/lastmile_qr_scan", "ios": "https://dc.lft.to/lastmile_qr_scan"}, "is_reserved": 0, "name": "fbd4800540368753bc811c531ffa220b", "lon": -77.03468483333333, "type": "electric_scooter", "bike_id": "fbd4800540368753bc811c531ffa220b", "fusion_lon": 0.0, "lat": 38.921537, "fusion_lat": 0.0}, {"is_disabled": 0, "rental_uris": {"android": "https://dc.lft.to/lastmile_qr_scan", "ios": "https://dc.lft.to/lastmile_qr_scan"}, "is_reserved": 0, "name": "8f13b0203945c589802d0c15f4fbf24d", "lon": -76.99902233333333, "type": "electric_scooter", "bike_id": "8f13b0203945c589802d0c15f4fbf24d", "fusion_lon": 0.0, "lat": 38.90030483333334, "fusion_lat": 0.0}, {"is_disabled": 0, "rental_uris": {"android": "https://dc.lft.to/lastmile_qr_scan", "ios": "https://dc.lft.to/lastmile_qr_scan"}, "is_reserved": 0, "name": "b26d9495cea0445a1bdb6dc850619a9f", "lon": -76.98375383333334, "type": "electric_scooter", "bike_id": "b26d9495cea0445a1bdb6dc850619a9f", "fusion_lon": 0.0, "lat": 38.91494183333333, "fusion_lat": 0.0}, {"is_disabled": 0, "rental_uris": {"android": "https://dc.lft.to/lastmile_qr_scan", "ios": "https://dc.lft.to/lastmile_qr_scan"}, "is_reserved": 0, "name": "44d2d87f38c4d31d4f3dade36e3f8590", "lon": -77.04009216666667, "type": "electric_scooter", "bike_id": "44d2d87f38c4d31d4f3dade36e3f8590", "fusion_lon": 0.0, "lat": 38.92085183333333, "fusion_lat": 0.0}, {"is_disabled": 0, "rental_uris": {"android": "https://dc.lft.to/lastmile_qr_scan", "ios": "https://dc.lft.to/lastmile_qr_scan"}, "is_reserved": 0, "name": "6508f4523774f3bd17f48dc887d85f70", "lon": -76.960888, "type": "electric_bike", "bike_id": "6508f4523774f3bd17f48dc887d85f70", "fusion_lon": 0.0, "lat": 38.91854583333333, "fusion_lat": 0.0}, {"is_disabled": 0, "rental_uris": {"android": "https://dc.lft.to/lastmile_qr_scan", "ios": "https://dc.lft.to/lastmile_qr_scan"}, "is_reserved": 0, "name": "c82aacc89381d8f8a834b43191f5ce25", "lon": -77.04660983333333, "type": "electric_scooter", "bike_id": "c82aacc89381d8f8a834b43191f5ce25", "fusion_lon": 0.0, "lat": 38.90493216666667, "fusion_lat": 0.0}, {"is_disabled": 0, "rental_uris": {"android": "https://dc.lft.to/lastmile_qr_scan", "ios": "https://dc.lft.to/lastmile_qr_scan"}, "is_reserved": 0, "name": "090a9972c24a4985d2ecd8ecc68e98cf", "lon": -77.003372, "type": "electric_scooter", "bike_id": "090a9972c24a4985d2ecd8ecc68e98cf", "fusion_lon": 0.0, "lat": 38.90457333333333, "fusion_lat": 0.0}, {"is_disabled": 0, "rental_uris": {"android": "https://dc.lft.to/lastmile_qr_scan", "ios": "https://dc.lft.to/lastmile_qr_scan"}, "is_reserved": 0, "name": "342cb11d5e6845102761e4f62a2b8144", "lon": -77.02481816666666, "type": "electric_scooter", "bike_id": "342cb11d5e6845102761e4f62a2b8144", "fusion_lon": 0.0, "lat": 38.938835833333336, "fusion_lat": 0.0}, {"is_disabled": 0, "rental_uris": {"android": "https://dc.lft.to/lastmile_qr_scan", "ios": "https://dc.lft.to/lastmile_qr_scan"}, "is_reserved": 0, "name": "9f57a19db21884ea45e658b6fd93c050", "lon": -77.02296566666666, "type": "electric_bike", "bike_id": "9f57a19db21884ea45e658b6fd93c050", "fusion_lon": 0.0, "lat": 38.92312416666667, "fusion_lat": 0.0}, {"is_disabled": 0, "rental_uris": {"android": "https://dc.lft.to/lastmile_qr_scan", "ios": "https://dc.lft.to/lastmile_qr_scan"}, "is_reserved": 0, "name": "c29b53443ba7cb984e693484872a8bf0", "lon": -77.03819316666667, "type": "electric_scooter", "bike_id": "c29b53443ba7cb984e693484872a8bf0", "fusion_lon": 0.0, "lat": 38.9068565, "fusion_lat": 0.0}, {"is_disabled": 0, "rental_uris": {"android": "https://dc.lft.to/lastmile_qr_scan", "ios": "https://dc.lft.to/lastmile_qr_scan"}, "is_reserved": 0, "name": "bdc26712921fc0ddf4cd065f5ec75652", "lon": -77.00198016666667, "type": "electric_scooter", "bike_id": "bdc26712921fc0ddf4cd065f5ec75652", "fusion_lon": 0.0, "lat": 38.916387, "fusion_lat": 0.0}, {"is_disabled": 0, "rental_uris": {"android": "https://dc.lft.to/lastmile_qr_scan", "ios": "https://dc.lft.to/lastmile_qr_scan"}, "is_reserved": 0, "name": "f6ae806e59c4160b23670fdc5ab1801a", "lon": -77.03154816666667, "type": "electric_scooter", "bike_id": "f6ae806e59c4160b23670fdc5ab1801a", "fusion_lon": 0.0, "lat": 38.909615, "fusion_lat": 0.0}, {"is_disabled": 0, "rental_uris": {"android": "https://dc.lft.to/lastmile_qr_scan", "ios": "https://dc.lft.to/lastmile_qr_scan"}, "is_reserved": 0, "name": "9902e55331fa7ff47e55199d00e27394", "lon": -77.01177183333333, "type": "electric_scooter", "bike_id": "9902e55331fa7ff47e55199d00e27394", "fusion_lon": 0.0, "lat": 38.870833833333336, "fusion_lat": 0.0}, {"is_disabled": 0, "rental_uris": {"android": "https://dc.lft.to/lastmile_qr_scan", "ios": "https://dc.lft.to/lastmile_qr_scan"}, "is_reserved": 0, "name": "7f2f2f0c2efad12b51820ac8873aa314", "lon": -76.96173783333333, "type": "electric_bike", "bike_id": "7f2f2f0c2efad12b51820ac8873aa314", "fusion_lon": 0.0, "lat": 38.91859866666667, "fusion_lat": 0.0}, {"is_disabled": 0, "rental_uris": {"android": "https://dc.lft.to/lastmile_qr_scan", "ios": "https://dc.lft.to/lastmile_qr_scan"}, "is_reserved": 0, "name": "c2d406475b3a3b88ea3a322e20e519a9", "lon": -77.026733, "type": "electric_scooter", "bike_id": "c2d406475b3a3b88ea3a322e20e519a9", "fusion_lon": 0.0, "lat": 38.97612383333333, "fusion_lat": 0.0}, {"is_disabled": 0, "rental_uris": {"android": "https://dc.lft.to/lastmile_qr_scan", "ios": "https://dc.lft.to/lastmile_qr_scan"}, "is_reserved": 0, "name": "e8ff6e9e43e5881674eb961b3d292f74", "lon": -77.024934, "type": "electric_scooter", "bike_id": "e8ff6e9e43e5881674eb961b3d292f74", "fusion_lon": 0.0, "lat": 38.90247316666667, "fusion_lat": 0.0}, {"is_disabled": 0, "rental_uris": {"android": "https://dc.lft.to/lastmile_qr_scan", "ios": "https://dc.lft.to/lastmile_qr_scan"}, "is_reserved": 0, "name": "072d140eb0acb039fab5ceb791ae8c16", "lon": -76.9294115, "type": "electric_bike", "bike_id": "072d140eb0acb039fab5ceb791ae8c16", "fusion_lon": 0.0, "lat": 38.9028865, "fusion_lat": 0.0}, {"is_disabled": 0, "rental_uris": {"android": "https://dc.lft.to/lastmile_qr_scan", "ios": "https://dc.lft.to/lastmile_qr_scan"}, "is_reserved": 0, "name": "a1873219e6e92e40f8b5b6f6ff7d82d8", "lon": -76.9879645, "type": "electric_scooter", "bike_id": "a1873219e6e92e40f8b5b6f6ff7d82d8", "fusion_lon": 0.0, "lat": 38.892102666666666, "fusion_lat": 0.0}, {"is_disabled": 0, "rental_uris": {"android": "https://dc.lft.to/lastmile_qr_scan", "ios": "https://dc.lft.to/lastmile_qr_scan"}, "is_reserved": 0, "name": "9faf7ee9d15299c17e537a2b463bc879", "lon": -77.03094016666667, "type": "electric_scooter", "bike_id": "9faf7ee9d15299c17e537a2b463bc879", "fusion_lon": 0.0, "lat": 38.93540933333333, "fusion_lat": 0.0}, {"is_disabled": 0, "rental_uris": {"android": "https://dc.lft.to/lastmile_qr_scan", "ios": "https://dc.lft.to/lastmile_qr_scan"}, "is_reserved": 0, "name": "ad91d14313daef1513620c3271295e0b", "lon": -77.00586816666667, "type": "electric_bike", "bike_id": "ad91d14313daef1513620c3271295e0b", "fusion_lon": 0.0, "lat": 38.836964, "fusion_lat": 0.0}, {"is_disabled": 0, "rental_uris": {"android": "https://dc.lft.to/lastmile_qr_scan", "ios": "https://dc.lft.to/lastmile_qr_scan"}, "is_reserved": 0, "name": "c8e11a0d3bb0263205c58150096bde27", "lon": -77.03121283333333, "type": "electric_scooter", "bike_id": "c8e11a0d3bb0263205c58150096bde27", "fusion_lon": 0.0, "lat": 38.9237755, "fusion_lat": 0.0}, {"is_disabled": 0, "rental_uris": {"android": "https://dc.lft.to/lastmile_qr_scan", "ios": "https://dc.lft.to/lastmile_qr_scan"}, "is_reserved": 0, "name": "8f634b33066d67c7e440fa2ed82fab74", "lon": -76.9339005, "type": "electric_scooter", "bike_id": "8f634b33066d67c7e440fa2ed82fab74", "fusion_lon": 0.0, "lat": 38.899106833333335, "fusion_lat": 0.0}, {"is_disabled": 0, "rental_uris": {"android": "https://dc.lft.to/lastmile_qr_scan", "ios": "https://dc.lft.to/lastmile_qr_scan"}, "is_reserved": 0, "name": "b1abdd76e661d5570fc10a2f4a89b18e", "lon": -77.005821, "type": "electric_scooter", "bike_id": "b1abdd76e661d5570fc10a2f4a89b18e", "fusion_lon": 0.0, "lat": 38.905577, "fusion_lat": 0.0}, {"is_disabled": 0, "rental_uris": {"android": "https://dc.lft.to/lastmile_qr_scan", "ios": "https://dc.lft.to/lastmile_qr_scan"}, "is_reserved": 0, "name": "2558c126f5f5794b892665f249e4831a", "lon": -77.02346966666667, "type": "electric_scooter", "bike_id": "2558c126f5f5794b892665f249e4831a", "fusion_lon": 0.0, "lat": 38.92266333333333, "fusion_lat": 0.0}, {"is_disabled": 0, "rental_uris": {"android": "https://dc.lft.to/lastmile_qr_scan", "ios": "https://dc.lft.to/lastmile_qr_scan"}, "is_reserved": 0, "name": "753221cc80ae19b2b1de23b1670ee15b", "lon": -77.005914, "type": "electric_scooter", "bike_id": "753221cc80ae19b2b1de23b1670ee15b", "fusion_lon": 0.0, "lat": 38.905616, "fusion_lat": 0.0}, {"is_disabled": 0, "rental_uris": {"android": "https://dc.lft.to/lastmile_qr_scan", "ios": "https://dc.lft.to/lastmile_qr_scan"}, "is_reserved": 0, "name": "e0847665c2b78c056d1115e177bf3c62", "lon": -77.043437, "type": "electric_scooter", "bike_id": "e0847665c2b78c056d1115e177bf3c62", "fusion_lon": 0.0, "lat": 38.89811783333333, "fusion_lat": 0.0}, {"is_disabled": 0, "rental_uris": {"android": "https://dc.lft.to/lastmile_qr_scan", "ios": "https://dc.lft.to/lastmile_qr_scan"}, "is_reserved": 0, "name": "77ddfe6b44cc2357f5d49483e8d34d2a", "lon": -77.0281665, "type": "electric_scooter", "bike_id": "77ddfe6b44cc2357f5d49483e8d34d2a", "fusion_lon": 0.0, "lat": 38.9317045, "fusion_lat": 0.0}, {"is_disabled": 0, "rental_uris": {"android": "https://dc.lft.to/lastmile_qr_scan", "ios": "https://dc.lft.to/lastmile_qr_scan"}, "is_reserved": 0, "name": "c064d2e4b6bcadb14c5fd5005284a704", "lon": -76.9520475, "type": "electric_bike", "bike_id": "c064d2e4b6bcadb14c5fd5005284a704", "fusion_lon": 0.0, "lat": 38.9366775, "fusion_lat": 0.0}, {"is_disabled": 0, "rental_uris": {"android": "https://dc.lft.to/lastmile_qr_scan", "ios": "https://dc.lft.to/lastmile_qr_scan"}, "is_reserved": 0, "name": "f0ac9f0e9404a141d7cd90fe66d18a3d", "lon": -77.023899, "type": "electric_scooter", "bike_id": "f0ac9f0e9404a141d7cd90fe66d18a3d", "fusion_lon": 0.0, "lat": 38.91674283333333, "fusion_lat": 0.0}, {"is_disabled": 0, "rental_uris": {"android": "https://dc.lft.to/lastmile_qr_scan", "ios": "https://dc.lft.to/lastmile_qr_scan"}, "is_reserved": 0, "name": "850db33469c42d71a55df8502c7ca5fa", "lon": -77.055542, "type": "electric_scooter", "bike_id": "850db33469c42d71a55df8502c7ca5fa", "fusion_lon": 0.0, "lat": 38.93019266666667, "fusion_lat": 0.0}, {"is_disabled": 0, "rental_uris": {"android": "https://dc.lft.to/lastmile_qr_scan", "ios": "https://dc.lft.to/lastmile_qr_scan"}, "is_reserved": 0, "name": "99628a76d962b6c2017ef5f29dcb4d27", "lon": -77.07524433333333, "type": "electric_scooter", "bike_id": "99628a76d962b6c2017ef5f29dcb4d27", "fusion_lon": 0.0, "lat": 38.9087895, "fusion_lat": 0.0}, {"is_disabled": 0, "rental_uris": {"android": "https://dc.lft.to/lastmile_qr_scan", "ios": "https://dc.lft.to/lastmile_qr_scan"}, "is_reserved": 0, "name": "8ab26d40429494913773c44e9c66cb03", "lon": -77.02396216666666, "type": "electric_scooter", "bike_id": "8ab26d40429494913773c44e9c66cb03", "fusion_lon": 0.0, "lat": 38.930937166666666, "fusion_lat": 0.0}, {"is_disabled": 0, "rental_uris": {"android": "https://dc.lft.to/lastmile_qr_scan", "ios": "https://dc.lft.to/lastmile_qr_scan"}, "is_reserved": 0, "name": "92869a890cfebad3b73d0c284d411eac", "lon": -77.0198445, "type": "electric_scooter", "bike_id": "92869a890cfebad3b73d0c284d411eac", "fusion_lon": 0.0, "lat": 38.877881333333335, "fusion_lat": 0.0}, {"is_disabled": 0, "rental_uris": {"android": "https://dc.lft.to/lastmile_qr_scan", "ios": "https://dc.lft.to/lastmile_qr_scan"}, "is_reserved": 0, "name": "0f919dd7bb3079d5f449750f459384f6", "lon": -76.98735516666666, "type": "electric_scooter", "bike_id": "0f919dd7bb3079d5f449750f459384f6", "fusion_lon": 0.0, "lat": 38.86709, "fusion_lat": 0.0}, {"is_disabled": 0, "rental_uris": {"android": "https://dc.lft.to/lastmile_qr_scan", "ios": "https://dc.lft.to/lastmile_qr_scan"}, "is_reserved": 0, "name": "8c960a9bacd5c7a7668b79f5bfadb7b5", "lon": -77.0198635, "type": "electric_scooter", "bike_id": "8c960a9bacd5c7a7668b79f5bfadb7b5", "fusion_lon": 0.0, "lat": 38.885509166666665, "fusion_lat": 0.0}, {"is_disabled": 0, "rental_uris": {"android": "https://dc.lft.to/lastmile_qr_scan", "ios": "https://dc.lft.to/lastmile_qr_scan"}, "is_reserved": 0, "name": "189faf012a2b4056ef391cc51bea29f6", "lon": -77.01647583333333, "type": "electric_scooter", "bike_id": "189faf012a2b4056ef391cc51bea29f6", "fusion_lon": 0.0, "lat": 38.92897383333333, "fusion_lat": 0.0}, {"is_disabled": 0, "rental_uris": {"android": "https://dc.lft.to/lastmile_qr_scan", "ios": "https://dc.lft.to/lastmile_qr_scan"}, "is_reserved": 0, "name": "2e7522220648dcee096319e3356c8db9", "lon": -77.01476666666667, "type": "electric_scooter", "bike_id": "2e7522220648dcee096319e3356c8db9", "fusion_lon": 0.0, "lat": 38.87633483333333, "fusion_lat": 0.0}, {"is_disabled": 0, "rental_uris": {"android": "https://dc.lft.to/lastmile_qr_scan", "ios": "https://dc.lft.to/lastmile_qr_scan"}, "is_reserved": 0, "name": "59bc916997e225d33f3aa420ebb12715", "lon": -77.02400416666667, "type": "electric_scooter", "bike_id": "59bc916997e225d33f3aa420ebb12715", "fusion_lon": 0.0, "lat": 38.89247266666667, "fusion_lat": 0.0}, {"is_disabled": 0, "rental_uris": {"android": "https://dc.lft.to/lastmile_qr_scan", "ios": "https://dc.lft.to/lastmile_qr_scan"}, "is_reserved": 0, "name": "f6200f3a176e36e0442099be93d5dd98", "lon": -76.96386266666667, "type": "electric_bike", "bike_id": "f6200f3a176e36e0442099be93d5dd98", "fusion_lon": 0.0, "lat": 38.97580033333333, "fusion_lat": 0.0}, {"is_disabled": 0, "rental_uris": {"android": "https://dc.lft.to/lastmile_qr_scan", "ios": "https://dc.lft.to/lastmile_qr_scan"}, "is_reserved": 0, "name": "0c940bad82d78cb165038ea3d132010f", "lon": -77.03855816666666, "type": "electric_scooter", "bike_id": "0c940bad82d78cb165038ea3d132010f", "fusion_lon": 0.0, "lat": 38.916049666666666, "fusion_lat": 0.0}, {"is_disabled": 0, "rental_uris": {"android": "https://dc.lft.to/lastmile_qr_scan", "ios": "https://dc.lft.to/lastmile_qr_scan"}, "is_reserved": 0, "name": "c9db86b397f265e242f65924898003e6", "lon": -76.87776066666666, "type": "electric_bike", "bike_id": "c9db86b397f265e242f65924898003e6", "fusion_lon": 0.0, "lat": 38.992396666666664, "fusion_lat": 0.0}, {"is_disabled": 0, "rental_uris": {"android": "https://dc.lft.to/lastmile_qr_scan", "ios": "https://dc.lft.to/lastmile_qr_scan"}, "is_reserved": 0, "name": "b7f3389a58104023066c3d501c4137c3", "lon": -76.9486295, "type": "electric_bike", "bike_id": "b7f3389a58104023066c3d501c4137c3", "fusion_lon": 0.0, "lat": 38.8896875, "fusion_lat": 0.0}, {"is_disabled": 0, "rental_uris": {"android": "https://dc.lft.to/lastmile_qr_scan", "ios": "https://dc.lft.to/lastmile_qr_scan"}, "is_reserved": 0, "name": "49c09945ccef0d06e66e4d8a3693b90c", "lon": -77.0130655, "type": "electric_scooter", "bike_id": "49c09945ccef0d06e66e4d8a3693b90c", "fusion_lon": 0.0, "lat": 38.9013665, "fusion_lat": 0.0}, {"is_disabled": 0, "rental_uris": {"android": "https://dc.lft.to/lastmile_qr_scan", "ios": "https://dc.lft.to/lastmile_qr_scan"}, "is_reserved": 0, "name": "1db8611042e515b5b33956059107c8fd", "lon": -76.9837815, "type": "electric_scooter", "bike_id": "1db8611042e515b5b33956059107c8fd", "fusion_lon": 0.0, "lat": 38.844447833333334, "fusion_lat": 0.0}, {"is_disabled": 0, "rental_uris": {"android": "https://dc.lft.to/lastmile_qr_scan", "ios": "https://dc.lft.to/lastmile_qr_scan"}, "is_reserved": 0, "name": "c1dae2c549c0e55be71488b99aed6351", "lon": -77.0128505, "type": "electric_bike", "bike_id": "c1dae2c549c0e55be71488b99aed6351", "fusion_lon": 0.0, "lat": 38.9515525, "fusion_lat": 0.0}, {"is_disabled": 0, "rental_uris": {"android": "https://dc.lft.to/lastmile_qr_scan", "ios": "https://dc.lft.to/lastmile_qr_scan"}, "is_reserved": 0, "name": "8c41432403c70df85bbb190e51ad2345", "lon": -77.0281625, "type": "electric_scooter", "bike_id": "8c41432403c70df85bbb190e51ad2345", "fusion_lon": 0.0, "lat": 38.904660166666666, "fusion_lat": 0.0}, {"is_disabled": 0, "rental_uris": {"android": "https://dc.lft.to/lastmile_qr_scan", "ios": "https://dc.lft.to/lastmile_qr_scan"}, "is_reserved": 0, "name": "8ab260e80b276185112995a82d5636a2", "lon": -77.03827533333333, "type": "electric_scooter", "bike_id": "8ab260e80b276185112995a82d5636a2", "fusion_lon": 0.0, "lat": 38.914841, "fusion_lat": 0.0}, {"is_disabled": 0, "rental_uris": {"android": "https://dc.lft.to/lastmile_qr_scan", "ios": "https://dc.lft.to/lastmile_qr_scan"}, "is_reserved": 0, "name": "f05a2cb806ee8e704c7de91d1ecc2780", "lon": -77.02156133333334, "type": "electric_scooter", "bike_id": "f05a2cb806ee8e704c7de91d1ecc2780", "fusion_lon": 0.0, "lat": 38.9260725, "fusion_lat": 0.0}, {"is_disabled": 0, "rental_uris": {"android": "https://dc.lft.to/lastmile_qr_scan", "ios": "https://dc.lft.to/lastmile_qr_scan"}, "is_reserved": 0, "name": "96faa615297d05bd0f5b077c35715e91", "lon": -77.0280955, "type": "electric_scooter", "bike_id": "96faa615297d05bd0f5b077c35715e91", "fusion_lon": 0.0, "lat": 38.9621255, "fusion_lat": 0.0}, {"is_disabled": 0, "rental_uris": {"android": "https://dc.lft.to/lastmile_qr_scan", "ios": "https://dc.lft.to/lastmile_qr_scan"}, "is_reserved": 0, "name": "bcf535efe090d44650d4f9a3f2bcca33", "lon": -77.00527583333333, "type": "electric_scooter", "bike_id": "bcf535efe090d44650d4f9a3f2bcca33", "fusion_lon": 0.0, "lat": 38.880475833333335, "fusion_lat": 0.0}, {"is_disabled": 0, "rental_uris": {"android": "https://dc.lft.to/lastmile_qr_scan", "ios": "https://dc.lft.to/lastmile_qr_scan"}, "is_reserved": 0, "name": "75391855e64c54e3af7c4420171e535c", "lon": -77.10028383333334, "type": "electric_bike", "bike_id": "75391855e64c54e3af7c4420171e535c", "fusion_lon": 0.0, "lat": 38.9906385, "fusion_lat": 0.0}, {"is_disabled": 0, "rental_uris": {"android": "https://dc.lft.to/lastmile_qr_scan", "ios": "https://dc.lft.to/lastmile_qr_scan"}, "is_reserved": 0, "name": "bb594731404edfd034a76676502ddea7", "lon": -76.9462705, "type": "electric_scooter", "bike_id": "bb594731404edfd034a76676502ddea7", "fusion_lon": 0.0, "lat": 38.90254633333333, "fusion_lat": 0.0}, {"is_disabled": 0, "rental_uris": {"android": "https://dc.lft.to/lastmile_qr_scan", "ios": "https://dc.lft.to/lastmile_qr_scan"}, "is_reserved": 0, "name": "12124fd66a6ef5d707a8ddd322db18fd", "lon": -77.03911933333333, "type": "electric_scooter", "bike_id": "12124fd66a6ef5d707a8ddd322db18fd", "fusion_lon": 0.0, "lat": 38.903899, "fusion_lat": 0.0}, {"is_disabled": 0, "rental_uris": {"android": "https://dc.lft.to/lastmile_qr_scan", "ios": "https://dc.lft.to/lastmile_qr_scan"}, "is_reserved": 0, "name": "41816ce5338ba1ef8c4a0d392ce5db50", "lon": -76.87493983333333, "type": "electric_bike", "bike_id": "41816ce5338ba1ef8c4a0d392ce5db50", "fusion_lon": 0.0, "lat": 38.990904666666665, "fusion_lat": 0.0}, {"is_disabled": 0, "rental_uris": {"android": "https://dc.lft.to/lastmile_qr_scan", "ios": "https://dc.lft.to/lastmile_qr_scan"}, "is_reserved": 0, "name": "0db0664edd850fd6a3556ea83ea07ae1", "lon": -77.02504616666667, "type": "electric_scooter", "bike_id": "0db0664edd850fd6a3556ea83ea07ae1", "fusion_lon": 0.0, "lat": 38.90401683333333, "fusion_lat": 0.0}, {"is_disabled": 0, "rental_uris": {"android": "https://dc.lft.to/lastmile_qr_scan", "ios": "https://dc.lft.to/lastmile_qr_scan"}, "is_reserved": 0, "name": "946fa2eff01094bd7ca59d3e33f54608", "lon": -77.03528883333334, "type": "electric_scooter", "bike_id": "946fa2eff01094bd7ca59d3e33f54608", "fusion_lon": 0.0, "lat": 38.921192166666664, "fusion_lat": 0.0}, {"is_disabled": 0, "rental_uris": {"android": "https://dc.lft.to/lastmile_qr_scan", "ios": "https://dc.lft.to/lastmile_qr_scan"}, "is_reserved": 0, "name": "8863773353442c5f65d538b55990b7c7", "lon": -77.038715, "type": "electric_scooter", "bike_id": "8863773353442c5f65d538b55990b7c7", "fusion_lon": 0.0, "lat": 38.92152083333333, "fusion_lat": 0.0}, {"is_disabled": 0, "rental_uris": {"android": "https://dc.lft.to/lastmile_qr_scan", "ios": "https://dc.lft.to/lastmile_qr_scan"}, "is_reserved": 0, "name": "7da4efef44cbce489bfd752840fba0d3", "lon": -77.01407366666666, "type": "electric_scooter", "bike_id": "7da4efef44cbce489bfd752840fba0d3", "fusion_lon": 0.0, "lat": 38.928062, "fusion_lat": 0.0}, {"is_disabled": 0, "rental_uris": {"android": "https://dc.lft.to/lastmile_qr_scan", "ios": "https://dc.lft.to/lastmile_qr_scan"}, "is_reserved": 0, "name": "38b5784635438327676e80f7d9df5648", "lon": -77.03207416666666, "type": "electric_scooter", "bike_id": "38b5784635438327676e80f7d9df5648", "fusion_lon": 0.0, "lat": 38.918156833333335, "fusion_lat": 0.0}, {"is_disabled": 0, "rental_uris": {"android": "https://dc.lft.to/lastmile_qr_scan", "ios": "https://dc.lft.to/lastmile_qr_scan"}, "is_reserved": 0, "name": "38fdd821f75f4575f0775bb89c9a003a", "lon": -77.02279916666667, "type": "electric_scooter", "bike_id": "38fdd821f75f4575f0775bb89c9a003a", "fusion_lon": 0.0, "lat": 38.909664166666666, "fusion_lat": 0.0}, {"is_disabled": 0, "rental_uris": {"android": "https://dc.lft.to/lastmile_qr_scan", "ios": "https://dc.lft.to/lastmile_qr_scan"}, "is_reserved": 0, "name": "bb62b7e348c007059ba206d5b6073e0f", "lon": -77.04901283333334, "type": "electric_bike", "bike_id": "bb62b7e348c007059ba206d5b6073e0f", "fusion_lon": 0.0, "lat": 38.87495916666666, "fusion_lat": 0.0}, {"is_disabled": 0, "rental_uris": {"android": "https://dc.lft.to/lastmile_qr_scan", "ios": "https://dc.lft.to/lastmile_qr_scan"}, "is_reserved": 0, "name": "1ee1596d2d988ee08b3073b29e60b570", "lon": -77.05511933333334, "type": "electric_scooter", "bike_id": "1ee1596d2d988ee08b3073b29e60b570", "fusion_lon": 0.0, "lat": 38.92980266666667, "fusion_lat": 0.0}, {"is_disabled": 0, "rental_uris": {"android": "https://dc.lft.to/lastmile_qr_scan", "ios": "https://dc.lft.to/lastmile_qr_scan"}, "is_reserved": 0, "name": "220a5594dfb9423f4871eccabfebe564", "lon": -77.04407416666666, "type": "electric_scooter", "bike_id": "220a5594dfb9423f4871eccabfebe564", "fusion_lon": 0.0, "lat": 38.907185, "fusion_lat": 0.0}, {"is_disabled": 0, "rental_uris": {"android": "https://dc.lft.to/lastmile_qr_scan", "ios": "https://dc.lft.to/lastmile_qr_scan"}, "is_reserved": 0, "name": "bdc6cf27dc6600a4defe31e7356dcb35", "lon": -76.98709716666667, "type": "electric_scooter", "bike_id": "bdc6cf27dc6600a4defe31e7356dcb35", "fusion_lon": 0.0, "lat": 38.86700283333333, "fusion_lat": 0.0}, {"is_disabled": 0, "rental_uris": {"android": "https://dc.lft.to/lastmile_qr_scan", "ios": "https://dc.lft.to/lastmile_qr_scan"}, "is_reserved": 0, "name": "ea15776c9e37debaf71662a947aad121", "lon": -77.04155266666666, "type": "electric_scooter", "bike_id": "ea15776c9e37debaf71662a947aad121", "fusion_lon": 0.0, "lat": 38.91035333333333, "fusion_lat": 0.0}, {"is_disabled": 0, "rental_uris": {"android": "https://dc.lft.to/lastmile_qr_scan", "ios": "https://dc.lft.to/lastmile_qr_scan"}, "is_reserved": 0, "name": "7e671eabbcda31d5bca829912d4fa854", "lon": -77.03134366666667, "type": "electric_scooter", "bike_id": "7e671eabbcda31d5bca829912d4fa854", "fusion_lon": 0.0, "lat": 38.92017833333333, "fusion_lat": 0.0}, {"is_disabled": 0, "rental_uris": {"android": "https://dc.lft.to/lastmile_qr_scan", "ios": "https://dc.lft.to/lastmile_qr_scan"}, "is_reserved": 0, "name": "ae8c3c544be6a0dcef8de9669b110b0b", "lon": -77.04355833333334, "type": "electric_scooter", "bike_id": "ae8c3c544be6a0dcef8de9669b110b0b", "fusion_lon": 0.0, "lat": 38.921441, "fusion_lat": 0.0}, {"is_disabled": 0, "rental_uris": {"android": "https://dc.lft.to/lastmile_qr_scan", "ios": "https://dc.lft.to/lastmile_qr_scan"}, "is_reserved": 0, "name": "463cf53aa62c659477a844820b5472a3", "lon": -77.03274733333333, "type": "electric_scooter", "bike_id": "463cf53aa62c659477a844820b5472a3", "fusion_lon": 0.0, "lat": 38.933257166666664, "fusion_lat": 0.0}, {"is_disabled": 0, "rental_uris": {"android": "https://dc.lft.to/lastmile_qr_scan", "ios": "https://dc.lft.to/lastmile_qr_scan"}, "is_reserved": 0, "name": "a9dab45d60d0a1754051cf915db2d184", "lon": -77.0092035, "type": "electric_scooter", "bike_id": "a9dab45d60d0a1754051cf915db2d184", "fusion_lon": 0.0, "lat": 38.89786733333333, "fusion_lat": 0.0}, {"is_disabled": 0, "rental_uris": {"android": "https://dc.lft.to/lastmile_qr_scan", "ios": "https://dc.lft.to/lastmile_qr_scan"}, "is_reserved": 0, "name": "5af66e48bd194ecdd8c8805d4ed1c467", "lon": -77.04203616666666, "type": "electric_scooter", "bike_id": "5af66e48bd194ecdd8c8805d4ed1c467", "fusion_lon": 0.0, "lat": 38.929665666666665, "fusion_lat": 0.0}, {"is_disabled": 0, "rental_uris": {"android": "https://dc.lft.to/lastmile_qr_scan", "ios": "https://dc.lft.to/lastmile_qr_scan"}, "is_reserved": 0, "name": "81b665d13770a98825c0493c18704e03", "lon": -77.00733666666666, "type": "electric_bike", "bike_id": "81b665d13770a98825c0493c18704e03", "fusion_lon": 0.0, "lat": 38.87705116666667, "fusion_lat": 0.0}, {"is_disabled": 0, "rental_uris": {"android": "https://dc.lft.to/lastmile_qr_scan", "ios": "https://dc.lft.to/lastmile_qr_scan"}, "is_reserved": 0, "name": "09c42d45d3b58aa28ae0a0a7b4116bbd", "lon": -77.0402955, "type": "electric_scooter", "bike_id": "09c42d45d3b58aa28ae0a0a7b4116bbd", "fusion_lon": 0.0, "lat": 38.917106833333335, "fusion_lat": 0.0}, {"is_disabled": 0, "rental_uris": {"android": "https://dc.lft.to/lastmile_qr_scan", "ios": "https://dc.lft.to/lastmile_qr_scan"}, "is_reserved": 0, "name": "a0589681d152d1cc97ab1eaa08dd16f2", "lon": -77.026191, "type": "electric_scooter", "bike_id": "a0589681d152d1cc97ab1eaa08dd16f2", "fusion_lon": 0.0, "lat": 38.89630966666667, "fusion_lat": 0.0}, {"is_disabled": 0, "rental_uris": {"android": "https://dc.lft.to/lastmile_qr_scan", "ios": "https://dc.lft.to/lastmile_qr_scan"}, "is_reserved": 0, "name": "7bda213e9ca31de365f2645b049d97fe", "lon": -77.02156383333333, "type": "electric_scooter", "bike_id": "7bda213e9ca31de365f2645b049d97fe", "fusion_lon": 0.0, "lat": 38.92604683333333, "fusion_lat": 0.0}, {"is_disabled": 0, "rental_uris": {"android": "https://dc.lft.to/lastmile_qr_scan", "ios": "https://dc.lft.to/lastmile_qr_scan"}, "is_reserved": 0, "name": "c22dea51e06b1a53a83027e2ddd8f9be", "lon": -77.02601183333333, "type": "electric_scooter", "bike_id": "c22dea51e06b1a53a83027e2ddd8f9be", "fusion_lon": 0.0, "lat": 38.91690333333333, "fusion_lat": 0.0}, {"is_disabled": 0, "rental_uris": {"android": "https://dc.lft.to/lastmile_qr_scan", "ios": "https://dc.lft.to/lastmile_qr_scan"}, "is_reserved": 0, "name": "6affc44ef9240a05970f8a86e48b60c7", "lon": -77.04522466666667, "type": "electric_scooter", "bike_id": "6affc44ef9240a05970f8a86e48b60c7", "fusion_lon": 0.0, "lat": 38.906634333333336, "fusion_lat": 0.0}, {"is_disabled": 0, "rental_uris": {"android": "https://dc.lft.to/lastmile_qr_scan", "ios": "https://dc.lft.to/lastmile_qr_scan"}, "is_reserved": 0, "name": "eb91823d856a9754b1b03b8f5b24536a", "lon": -76.99565583333333, "type": "electric_bike", "bike_id": "eb91823d856a9754b1b03b8f5b24536a", "fusion_lon": 0.0, "lat": 39.00786733333333, "fusion_lat": 0.0}, {"is_disabled": 0, "rental_uris": {"android": "https://dc.lft.to/lastmile_qr_scan", "ios": "https://dc.lft.to/lastmile_qr_scan"}, "is_reserved": 0, "name": "aaf6b1ca279a3c690aabf9786be26c6c", "lon": -76.987104, "type": "electric_scooter", "bike_id": "aaf6b1ca279a3c690aabf9786be26c6c", "fusion_lon": 0.0, "lat": 38.8669775, "fusion_lat": 0.0}, {"is_disabled": 0, "rental_uris": {"android": "https://dc.lft.to/lastmile_qr_scan", "ios": "https://dc.lft.to/lastmile_qr_scan"}, "is_reserved": 0, "name": "fe095dc276b6f925ab8a35414d48fe9c", "lon": -77.03212633333334, "type": "electric_scooter", "bike_id": "fe095dc276b6f925ab8a35414d48fe9c", "fusion_lon": 0.0, "lat": 38.91964683333333, "fusion_lat": 0.0}, {"is_disabled": 0, "rental_uris": {"android": "https://dc.lft.to/lastmile_qr_scan", "ios": "https://dc.lft.to/lastmile_qr_scan"}, "is_reserved": 0, "name": "4e254df6fed92bed08322542ae6d46a3", "lon": -76.98876633333333, "type": "electric_scooter", "bike_id": "4e254df6fed92bed08322542ae6d46a3", "fusion_lon": 0.0, "lat": 38.892045333333336, "fusion_lat": 0.0}, {"is_disabled": 0, "rental_uris": {"android": "https://dc.lft.to/lastmile_qr_scan", "ios": "https://dc.lft.to/lastmile_qr_scan"}, "is_reserved": 0, "name": "664ae5c6a7beb73279aba932ec74fee2", "lon": -77.02954466666667, "type": "electric_scooter", "bike_id": "664ae5c6a7beb73279aba932ec74fee2", "fusion_lon": 0.0, "lat": 38.91774233333334, "fusion_lat": 0.0}, {"is_disabled": 0, "rental_uris": {"android": "https://dc.lft.to/lastmile_qr_scan", "ios": "https://dc.lft.to/lastmile_qr_scan"}, "is_reserved": 0, "name": "f6a8a05c59627e44f6d3d8e2f10278ec", "lon": -77.03209333333334, "type": "electric_scooter", "bike_id": "f6a8a05c59627e44f6d3d8e2f10278ec", "fusion_lon": 0.0, "lat": 38.9258945, "fusion_lat": 0.0}, {"is_disabled": 0, "rental_uris": {"android": "https://dc.lft.to/lastmile_qr_scan", "ios": "https://dc.lft.to/lastmile_qr_scan"}, "is_reserved": 0, "name": "4b05002735676e85613e99c6cf987080", "lon": -77.016984, "type": "electric_scooter", "bike_id": "4b05002735676e85613e99c6cf987080", "fusion_lon": 0.0, "lat": 38.902320333333336, "fusion_lat": 0.0}, {"is_disabled": 0, "rental_uris": {"android": "https://dc.lft.to/lastmile_qr_scan", "ios": "https://dc.lft.to/lastmile_qr_scan"}, "is_reserved": 0, "name": "ac3275e5b235beb74110d5fa1eda096a", "lon": -77.0387885, "type": "electric_scooter", "bike_id": "ac3275e5b235beb74110d5fa1eda096a", "fusion_lon": 0.0, "lat": 38.915655666666666, "fusion_lat": 0.0}, {"is_disabled": 0, "rental_uris": {"android": "https://dc.lft.to/lastmile_qr_scan", "ios": "https://dc.lft.to/lastmile_qr_scan"}, "is_reserved": 0, "name": "96a98955a0be31454b837b9531befe0c", "lon": -77.02963666666666, "type": "electric_scooter", "bike_id": "96a98955a0be31454b837b9531befe0c", "fusion_lon": 0.0, "lat": 38.922489666666664, "fusion_lat": 0.0}, {"is_disabled": 0, "rental_uris": {"android": "https://dc.lft.to/lastmile_qr_scan", "ios": "https://dc.lft.to/lastmile_qr_scan"}, "is_reserved": 0, "name": "0ba6917a27eb814d8b8674660b972801", "lon": -76.92914833333333, "type": "electric_bike", "bike_id": "0ba6917a27eb814d8b8674660b972801", "fusion_lon": 0.0, "lat": 38.980268, "fusion_lat": 0.0}, {"is_disabled": 0, "rental_uris": {"android": "https://dc.lft.to/lastmile_qr_scan", "ios": "https://dc.lft.to/lastmile_qr_scan"}, "is_reserved": 0, "name": "0ff1e963e891bdf0acbb5e2eff0cf80b", "lon": -77.02661316666666, "type": "electric_scooter", "bike_id": "0ff1e963e891bdf0acbb5e2eff0cf80b", "fusion_lon": 0.0, "lat": 38.896028666666666, "fusion_lat": 0.0}, {"is_disabled": 0, "rental_uris": {"android": "https://dc.lft.to/lastmile_qr_scan", "ios": "https://dc.lft.to/lastmile_qr_scan"}, "is_reserved": 0, "name": "864da8dc7b892b74fd84ecaf06a0d01c", "lon": -77.01931783333333, "type": "electric_scooter", "bike_id": "864da8dc7b892b74fd84ecaf06a0d01c", "fusion_lon": 0.0, "lat": 38.876681166666664, "fusion_lat": 0.0}, {"is_disabled": 0, "rental_uris": {"android": "https://dc.lft.to/lastmile_qr_scan", "ios": "https://dc.lft.to/lastmile_qr_scan"}, "is_reserved": 0, "name": "7bf3ab614821a1f5c604fecf9b36c51f", "lon": -77.0006115, "type": "electric_scooter", "bike_id": "7bf3ab614821a1f5c604fecf9b36c51f", "fusion_lon": 0.0, "lat": 38.8886055, "fusion_lat": 0.0}, {"is_disabled": 0, "rental_uris": {"android": "https://dc.lft.to/lastmile_qr_scan", "ios": "https://dc.lft.to/lastmile_qr_scan"}, "is_reserved": 0, "name": "34440f0461de1cbf9dec71104d665387", "lon": -77.02543116666666, "type": "electric_scooter", "bike_id": "34440f0461de1cbf9dec71104d665387", "fusion_lon": 0.0, "lat": 38.92402283333333, "fusion_lat": 0.0}, {"is_disabled": 0, "rental_uris": {"android": "https://dc.lft.to/lastmile_qr_scan", "ios": "https://dc.lft.to/lastmile_qr_scan"}, "is_reserved": 0, "name": "c0d3c527c8bdec679b6f3205cb78e498", "lon": -77.01738316666666, "type": "electric_scooter", "bike_id": "c0d3c527c8bdec679b6f3205cb78e498", "fusion_lon": 0.0, "lat": 38.911152, "fusion_lat": 0.0}, {"is_disabled": 0, "rental_uris": {"android": "https://dc.lft.to/lastmile_qr_scan", "ios": "https://dc.lft.to/lastmile_qr_scan"}, "is_reserved": 0, "name": "45be1dc391005f4f5b1e85f212d94755", "lon": -77.02494316666667, "type": "electric_scooter", "bike_id": "45be1dc391005f4f5b1e85f212d94755", "fusion_lon": 0.0, "lat": 38.941836, "fusion_lat": 0.0}, {"is_disabled": 0, "rental_uris": {"android": "https://dc.lft.to/lastmile_qr_scan", "ios": "https://dc.lft.to/lastmile_qr_scan"}, "is_reserved": 0, "name": "df8a0ee464c779e9b7b6852f8cbeb968", "lon": -77.0410855, "type": "electric_scooter", "bike_id": "df8a0ee464c779e9b7b6852f8cbeb968", "fusion_lon": 0.0, "lat": 38.916996, "fusion_lat": 0.0}, {"is_disabled": 0, "rental_uris": {"android": "https://dc.lft.to/lastmile_qr_scan", "ios": "https://dc.lft.to/lastmile_qr_scan"}, "is_reserved": 0, "name": "44a223e81b3f31c0e1159d8ee8c9177b", "lon": -76.93184233333334, "type": "electric_scooter", "bike_id": "44a223e81b3f31c0e1159d8ee8c9177b", "fusion_lon": 0.0, "lat": 38.898768833333335, "fusion_lat": 0.0}, {"is_disabled": 0, "rental_uris": {"android": "https://dc.lft.to/lastmile_qr_scan", "ios": "https://dc.lft.to/lastmile_qr_scan"}, "is_reserved": 0, "name": "812ac272ec7ac583e67b5d674fb2f465", "lon": -77.0277865, "type": "electric_scooter", "bike_id": "812ac272ec7ac583e67b5d674fb2f465", "fusion_lon": 0.0, "lat": 38.917114166666664, "fusion_lat": 0.0}, {"is_disabled": 0, "rental_uris": {"android": "https://dc.lft.to/lastmile_qr_scan", "ios": "https://dc.lft.to/lastmile_qr_scan"}, "is_reserved": 0, "name": "9b47a543de85fe81170261c7795f4dd4", "lon": -77.02877533333333, "type": "electric_scooter", "bike_id": "9b47a543de85fe81170261c7795f4dd4", "fusion_lon": 0.0, "lat": 38.91716183333333, "fusion_lat": 0.0}, {"is_disabled": 0, "rental_uris": {"android": "https://dc.lft.to/lastmile_qr_scan", "ios": "https://dc.lft.to/lastmile_qr_scan"}, "is_reserved": 0, "name": "8c9051f8e3b6204b5c45f351df0ec6fe", "lon": -77.0040655, "type": "electric_scooter", "bike_id": "8c9051f8e3b6204b5c45f351df0ec6fe", "fusion_lon": 0.0, "lat": 38.89559116666667, "fusion_lat": 0.0}, {"is_disabled": 0, "rental_uris": {"android": "https://dc.lft.to/lastmile_qr_scan", "ios": "https://dc.lft.to/lastmile_qr_scan"}, "is_reserved": 0, "name": "1f7b180668fa5f888c9ac8524907ff8c", "lon": -77.03198266666666, "type": "electric_scooter", "bike_id": "1f7b180668fa5f888c9ac8524907ff8c", "fusion_lon": 0.0, "lat": 38.90947366666666, "fusion_lat": 0.0}, {"is_disabled": 0, "rental_uris": {"android": "https://dc.lft.to/lastmile_qr_scan", "ios": "https://dc.lft.to/lastmile_qr_scan"}, "is_reserved": 0, "name": "a81d2f6842b8faa05177ce0357ef8fb8", "lon": -77.05043583333334, "type": "electric_scooter", "bike_id": "a81d2f6842b8faa05177ce0357ef8fb8", "fusion_lon": 0.0, "lat": 38.90075066666667, "fusion_lat": 0.0}, {"is_disabled": 0, "rental_uris": {"android": "https://dc.lft.to/lastmile_qr_scan", "ios": "https://dc.lft.to/lastmile_qr_scan"}, "is_reserved": 0, "name": "ea59b1d124c644a9d5472c6ae988657b", "lon": -77.04765883333333, "type": "electric_scooter", "bike_id": "ea59b1d124c644a9d5472c6ae988657b", "fusion_lon": 0.0, "lat": 38.91251833333333, "fusion_lat": 0.0}, {"is_disabled": 0, "rental_uris": {"android": "https://dc.lft.to/lastmile_qr_scan", "ios": "https://dc.lft.to/lastmile_qr_scan"}, "is_reserved": 0, "name": "e486ec7aa1ffe25be39fe7c46d476b74", "lon": -76.94639933333333, "type": "electric_scooter", "bike_id": "e486ec7aa1ffe25be39fe7c46d476b74", "fusion_lon": 0.0, "lat": 38.89847283333334, "fusion_lat": 0.0}, {"is_disabled": 0, "rental_uris": {"android": "https://dc.lft.to/lastmile_qr_scan", "ios": "https://dc.lft.to/lastmile_qr_scan"}, "is_reserved": 0, "name": "ed08e4e7ab8e640e83d2ca33425749ee", "lon": -77.048031, "type": "electric_scooter", "bike_id": "ed08e4e7ab8e640e83d2ca33425749ee", "fusion_lon": 0.0, "lat": 38.904633, "fusion_lat": 0.0}, {"is_disabled": 0, "rental_uris": {"android": "https://dc.lft.to/lastmile_qr_scan", "ios": "https://dc.lft.to/lastmile_qr_scan"}, "is_reserved": 0, "name": "52027866668f2faf52292fdf3899cb83", "lon": -77.040899, "type": "electric_scooter", "bike_id": "52027866668f2faf52292fdf3899cb83", "fusion_lon": 0.0, "lat": 38.90802, "fusion_lat": 0.0}, {"is_disabled": 0, "rental_uris": {"android": "https://dc.lft.to/lastmile_qr_scan", "ios": "https://dc.lft.to/lastmile_qr_scan"}, "is_reserved": 0, "name": "6bb8e364baca03adc848f400c685d78a", "lon": -77.02798183333333, "type": "electric_scooter", "bike_id": "6bb8e364baca03adc848f400c685d78a", "fusion_lon": 0.0, "lat": 38.91250266666667, "fusion_lat": 0.0}, {"is_disabled": 0, "rental_uris": {"android": "https://dc.lft.to/lastmile_qr_scan", "ios": "https://dc.lft.to/lastmile_qr_scan"}, "is_reserved": 0, "name": "0b526e8ef389851f1e48726fd93d828f", "lon": -76.965252, "type": "electric_scooter", "bike_id": "0b526e8ef389851f1e48726fd93d828f", "fusion_lon": 0.0, "lat": 38.876302, "fusion_lat": 0.0}, {"is_disabled": 0, "rental_uris": {"android": "https://dc.lft.to/lastmile_qr_scan", "ios": "https://dc.lft.to/lastmile_qr_scan"}, "is_reserved": 0, "name": "879a6735b32441bbc5385acd257ae1b5", "lon": -77.03471966666666, "type": "electric_scooter", "bike_id": "879a6735b32441bbc5385acd257ae1b5", "fusion_lon": 0.0, "lat": 38.9170865, "fusion_lat": 0.0}, {"is_disabled": 0, "rental_uris": {"android": "https://dc.lft.to/lastmile_qr_scan", "ios": "https://dc.lft.to/lastmile_qr_scan"}, "is_reserved": 0, "name": "6835480180340dbc1536be9d7ce4df6b", "lon": -77.02069416666667, "type": "electric_scooter", "bike_id": "6835480180340dbc1536be9d7ce4df6b", "fusion_lon": 0.0, "lat": 38.93119866666667, "fusion_lat": 0.0}, {"is_disabled": 0, "rental_uris": {"android": "https://dc.lft.to/lastmile_qr_scan", "ios": "https://dc.lft.to/lastmile_qr_scan"}, "is_reserved": 0, "name": "6e92747c39fd6fe36b832c78c60a1b5e", "lon": -76.96559733333333, "type": "electric_bike", "bike_id": "6e92747c39fd6fe36b832c78c60a1b5e", "fusion_lon": 0.0, "lat": 38.950904, "fusion_lat": 0.0}, {"is_disabled": 0, "rental_uris": {"android": "https://dc.lft.to/lastmile_qr_scan", "ios": "https://dc.lft.to/lastmile_qr_scan"}, "is_reserved": 0, "name": "aa575d4c571801c500ba615f68aad08b", "lon": -77.01939466666667, "type": "electric_scooter", "bike_id": "aa575d4c571801c500ba615f68aad08b", "fusion_lon": 0.0, "lat": 38.947044, "fusion_lat": 0.0}, {"is_disabled": 0, "rental_uris": {"android": "https://dc.lft.to/lastmile_qr_scan", "ios": "https://dc.lft.to/lastmile_qr_scan"}, "is_reserved": 0, "name": "a22984b4b06f0ad7f93d0865f9aecdd0", "lon": -77.03445366666666, "type": "electric_scooter", "bike_id": "a22984b4b06f0ad7f93d0865f9aecdd0", "fusion_lon": 0.0, "lat": 38.914975166666665, "fusion_lat": 0.0}, {"is_disabled": 0, "rental_uris": {"android": "https://dc.lft.to/lastmile_qr_scan", "ios": "https://dc.lft.to/lastmile_qr_scan"}, "is_reserved": 0, "name": "dbc444950785f0f397e3b9e266ce53b0", "lon": -77.03740166666667, "type": "electric_scooter", "bike_id": "dbc444950785f0f397e3b9e266ce53b0", "fusion_lon": 0.0, "lat": 38.91197666666667, "fusion_lat": 0.0}, {"is_disabled": 0, "rental_uris": {"android": "https://dc.lft.to/lastmile_qr_scan", "ios": "https://dc.lft.to/lastmile_qr_scan"}, "is_reserved": 0, "name": "f383a0adfcc8f0afbda7418c92406478", "lon": -77.0163355, "type": "electric_scooter", "bike_id": "f383a0adfcc8f0afbda7418c92406478", "fusion_lon": 0.0, "lat": 38.88317216666667, "fusion_lat": 0.0}, {"is_disabled": 0, "rental_uris": {"android": "https://dc.lft.to/lastmile_qr_scan", "ios": "https://dc.lft.to/lastmile_qr_scan"}, "is_reserved": 0, "name": "97c1f1451a9ff7152dd26ab4d26eb122", "lon": -76.9081615, "type": "electric_bike", "bike_id": "97c1f1451a9ff7152dd26ab4d26eb122", "fusion_lon": 0.0, "lat": 38.994554666666666, "fusion_lat": 0.0}, {"is_disabled": 0, "rental_uris": {"android": "https://dc.lft.to/lastmile_qr_scan", "ios": "https://dc.lft.to/lastmile_qr_scan"}, "is_reserved": 0, "name": "f96e87573cd88fe2f3adc0d04308a6c6", "lon": -76.997582, "type": "electric_scooter", "bike_id": "f96e87573cd88fe2f3adc0d04308a6c6", "fusion_lon": 0.0, "lat": 38.921972333333336, "fusion_lat": 0.0}, {"is_disabled": 0, "rental_uris": {"android": "https://dc.lft.to/lastmile_qr_scan", "ios": "https://dc.lft.to/lastmile_qr_scan"}, "is_reserved": 0, "name": "7f6f1f4cf49aba199af54cf671ee8265", "lon": -76.9798045, "type": "electric_scooter", "bike_id": "7f6f1f4cf49aba199af54cf671ee8265", "fusion_lon": 0.0, "lat": 38.870691666666666, "fusion_lat": 0.0}, {"is_disabled": 0, "rental_uris": {"android": "https://dc.lft.to/lastmile_qr_scan", "ios": "https://dc.lft.to/lastmile_qr_scan"}, "is_reserved": 0, "name": "c719d1441a6a143e84812ac66ff746d6", "lon": -77.00768833333333, "type": "electric_scooter", "bike_id": "c719d1441a6a143e84812ac66ff746d6", "fusion_lon": 0.0, "lat": 38.87113683333333, "fusion_lat": 0.0}, {"is_disabled": 0, "rental_uris": {"android": "https://dc.lft.to/lastmile_qr_scan", "ios": "https://dc.lft.to/lastmile_qr_scan"}, "is_reserved": 0, "name": "099bef9145e6516b689eb7f847b8c914", "lon": -76.97901616666667, "type": "electric_bike", "bike_id": "099bef9145e6516b689eb7f847b8c914", "fusion_lon": 0.0, "lat": 38.85491433333333, "fusion_lat": 0.0}, {"is_disabled": 0, "rental_uris": {"android": "https://dc.lft.to/lastmile_qr_scan", "ios": "https://dc.lft.to/lastmile_qr_scan"}, "is_reserved": 0, "name": "8abd4b9b7567798cc41a2802286ea593", "lon": -76.99534383333334, "type": "electric_scooter", "bike_id": "8abd4b9b7567798cc41a2802286ea593", "fusion_lon": 0.0, "lat": 38.862537833333334, "fusion_lat": 0.0}, {"is_disabled": 0, "rental_uris": {"android": "https://dc.lft.to/lastmile_qr_scan", "ios": "https://dc.lft.to/lastmile_qr_scan"}, "is_reserved": 0, "name": "f7fc7bbc14903a3ac73bb67e590b84c2", "lon": -76.915948, "type": "electric_bike", "bike_id": "f7fc7bbc14903a3ac73bb67e590b84c2", "fusion_lon": 0.0, "lat": 38.88011183333333, "fusion_lat": 0.0}, {"is_disabled": 0, "rental_uris": {"android": "https://dc.lft.to/lastmile_qr_scan", "ios": "https://dc.lft.to/lastmile_qr_scan"}, "is_reserved": 0, "name": "d3787cd4a1c8c5712b251ae609cda56f", "lon": -77.00336633333333, "type": "electric_scooter", "bike_id": "d3787cd4a1c8c5712b251ae609cda56f", "fusion_lon": 0.0, "lat": 38.883197, "fusion_lat": 0.0}, {"is_disabled": 0, "rental_uris": {"android": "https://dc.lft.to/lastmile_qr_scan", "ios": "https://dc.lft.to/lastmile_qr_scan"}, "is_reserved": 0, "name": "a4744698b762838bb6602ecd6c5ffb4b", "lon": -77.04027, "type": "electric_scooter", "bike_id": "a4744698b762838bb6602ecd6c5ffb4b", "fusion_lon": 0.0, "lat": 38.924169666666664, "fusion_lat": 0.0}, {"is_disabled": 0, "rental_uris": {"android": "https://dc.lft.to/lastmile_qr_scan", "ios": "https://dc.lft.to/lastmile_qr_scan"}, "is_reserved": 0, "name": "9c120dfc01b8aaa922f3e5db81b23163", "lon": -77.01599233333333, "type": "electric_scooter", "bike_id": "9c120dfc01b8aaa922f3e5db81b23163", "fusion_lon": 0.0, "lat": 38.884959333333335, "fusion_lat": 0.0}, {"is_disabled": 0, "rental_uris": {"android": "https://dc.lft.to/lastmile_qr_scan", "ios": "https://dc.lft.to/lastmile_qr_scan"}, "is_reserved": 0, "name": "5f378c9dd28fab6760a6e7321272294b", "lon": -76.97806483333333, "type": "electric_scooter", "bike_id": "5f378c9dd28fab6760a6e7321272294b", "fusion_lon": 0.0, "lat": 38.920624833333335, "fusion_lat": 0.0}, {"is_disabled": 0, "rental_uris": {"android": "https://dc.lft.to/lastmile_qr_scan", "ios": "https://dc.lft.to/lastmile_qr_scan"}, "is_reserved": 0, "name": "e60834264716bdbfb5a7c0d577142d44", "lon": -77.01411766666666, "type": "electric_scooter", "bike_id": "e60834264716bdbfb5a7c0d577142d44", "fusion_lon": 0.0, "lat": 38.928628333333336, "fusion_lat": 0.0}, {"is_disabled": 0, "rental_uris": {"android": "https://dc.lft.to/lastmile_qr_scan", "ios": "https://dc.lft.to/lastmile_qr_scan"}, "is_reserved": 0, "name": "0da6f233c2768c70f4eb5b1dec1990af", "lon": -77.03068633333334, "type": "electric_bike", "bike_id": "0da6f233c2768c70f4eb5b1dec1990af", "fusion_lon": 0.0, "lat": 38.88364333333333, "fusion_lat": 0.0}, {"is_disabled": 0, "rental_uris": {"android": "https://dc.lft.to/lastmile_qr_scan", "ios": "https://dc.lft.to/lastmile_qr_scan"}, "is_reserved": 0, "name": "6e06b72f4667c68a5baa5bb208b7cadb", "lon": -77.03257066666667, "type": "electric_scooter", "bike_id": "6e06b72f4667c68a5baa5bb208b7cadb", "fusion_lon": 0.0, "lat": 38.90971866666667, "fusion_lat": 0.0}, {"is_disabled": 0, "rental_uris": {"android": "https://dc.lft.to/lastmile_qr_scan", "ios": "https://dc.lft.to/lastmile_qr_scan"}, "is_reserved": 0, "name": "078c9af7a9508143fde69e7705db3e2a", "lon": -77.01759816666667, "type": "electric_scooter", "bike_id": "078c9af7a9508143fde69e7705db3e2a", "fusion_lon": 0.0, "lat": 38.8831075, "fusion_lat": 0.0}, {"is_disabled": 0, "rental_uris": {"android": "https://dc.lft.to/lastmile_qr_scan", "ios": "https://dc.lft.to/lastmile_qr_scan"}, "is_reserved": 0, "name": "e5d4933157fe4a889349ae5b577d5109", "lon": -76.99653483333333, "type": "electric_scooter", "bike_id": "e5d4933157fe4a889349ae5b577d5109", "fusion_lon": 0.0, "lat": 38.88614116666667, "fusion_lat": 0.0}, {"is_disabled": 0, "rental_uris": {"android": "https://dc.lft.to/lastmile_qr_scan", "ios": "https://dc.lft.to/lastmile_qr_scan"}, "is_reserved": 0, "name": "e3196641d37c0276eb10a9606fc901e4", "lon": -76.965481, "type": "electric_scooter", "bike_id": "e3196641d37c0276eb10a9606fc901e4", "fusion_lon": 0.0, "lat": 38.9183525, "fusion_lat": 0.0}, {"is_disabled": 0, "rental_uris": {"android": "https://dc.lft.to/lastmile_qr_scan", "ios": "https://dc.lft.to/lastmile_qr_scan"}, "is_reserved": 0, "name": "d02d07af951461c855eb60d87b1945a5", "lon": -76.96883933333334, "type": "electric_bike", "bike_id": "d02d07af951461c855eb60d87b1945a5", "fusion_lon": 0.0, "lat": 38.84603366666666, "fusion_lat": 0.0}, {"is_disabled": 0, "rental_uris": {"android": "https://dc.lft.to/lastmile_qr_scan", "ios": "https://dc.lft.to/lastmile_qr_scan"}, "is_reserved": 0, "name": "a0cd16a9c88126ec97c3b849e9b8b3ed", "lon": -77.00347316666667, "type": "electric_scooter", "bike_id": "a0cd16a9c88126ec97c3b849e9b8b3ed", "fusion_lon": 0.0, "lat": 38.90080433333333, "fusion_lat": 0.0}, {"is_disabled": 0, "rental_uris": {"android": "https://dc.lft.to/lastmile_qr_scan", "ios": "https://dc.lft.to/lastmile_qr_scan"}, "is_reserved": 0, "name": "4150bbad590cba537cd3b2c206dcef63", "lon": -77.03899083333333, "type": "electric_scooter", "bike_id": "4150bbad590cba537cd3b2c206dcef63", "fusion_lon": 0.0, "lat": 38.91422716666667, "fusion_lat": 0.0}, {"is_disabled": 0, "rental_uris": {"android": "https://dc.lft.to/lastmile_qr_scan", "ios": "https://dc.lft.to/lastmile_qr_scan"}, "is_reserved": 0, "name": "71c42cdfb5b4fff431fd3600bf917d11", "lon": -77.00733866666667, "type": "electric_bike", "bike_id": "71c42cdfb5b4fff431fd3600bf917d11", "fusion_lon": 0.0, "lat": 38.8765775, "fusion_lat": 0.0}, {"is_disabled": 0, "rental_uris": {"android": "https://dc.lft.to/lastmile_qr_scan", "ios": "https://dc.lft.to/lastmile_qr_scan"}, "is_reserved": 0, "name": "8229058ef0791f27f98d501399997f1a", "lon": -77.02490516666667, "type": "electric_scooter", "bike_id": "8229058ef0791f27f98d501399997f1a", "fusion_lon": 0.0, "lat": 38.9175145, "fusion_lat": 0.0}, {"is_disabled": 0, "rental_uris": {"android": "https://dc.lft.to/lastmile_qr_scan", "ios": "https://dc.lft.to/lastmile_qr_scan"}, "is_reserved": 0, "name": "677dfd0b8e5f3c4d6e768221a17bba25", "lon": -77.00565966666667, "type": "electric_scooter", "bike_id": "677dfd0b8e5f3c4d6e768221a17bba25", "fusion_lon": 0.0, "lat": 38.885046, "fusion_lat": 0.0}, {"is_disabled": 0, "rental_uris": {"android": "https://dc.lft.to/lastmile_qr_scan", "ios": "https://dc.lft.to/lastmile_qr_scan"}, "is_reserved": 0, "name": "68d9131a6ef805ee6fdac316d0e039b8", "lon": -77.02918583333333, "type": "electric_bike", "bike_id": "68d9131a6ef805ee6fdac316d0e039b8", "fusion_lon": 0.0, "lat": 38.998361, "fusion_lat": 0.0}, {"is_disabled": 0, "rental_uris": {"android": "https://dc.lft.to/lastmile_qr_scan", "ios": "https://dc.lft.to/lastmile_qr_scan"}, "is_reserved": 0, "name": "05489fd939d14747b5060e4fb67fc678", "lon": -76.91657666666667, "type": "electric_bike", "bike_id": "05489fd939d14747b5060e4fb67fc678", "fusion_lon": 0.0, "lat": 38.86859883333333, "fusion_lat": 0.0}, {"is_disabled": 0, "rental_uris": {"android": "https://dc.lft.to/lastmile_qr_scan", "ios": "https://dc.lft.to/lastmile_qr_scan"}, "is_reserved": 0, "name": "c477bcd6c68c840d8d8cb50fda6e6c7e", "lon": -77.00776733333333, "type": "electric_scooter", "bike_id": "c477bcd6c68c840d8d8cb50fda6e6c7e", "fusion_lon": 0.0, "lat": 38.897368, "fusion_lat": 0.0}, {"is_disabled": 0, "rental_uris": {"android": "https://dc.lft.to/lastmile_qr_scan", "ios": "https://dc.lft.to/lastmile_qr_scan"}, "is_reserved": 0, "name": "fb5c3289c29a6db2757d816a651e7aca", "lon": -77.22931416666667, "type": "electric_bike", "bike_id": "fb5c3289c29a6db2757d816a651e7aca", "fusion_lon": 0.0, "lat": 38.9319245, "fusion_lat": 0.0}, {"is_disabled": 0, "rental_uris": {"android": "https://dc.lft.to/lastmile_qr_scan", "ios": "https://dc.lft.to/lastmile_qr_scan"}, "is_reserved": 0, "name": "f75c7470a77a07f52ab99103bde1df41", "lon": -77.03211433333334, "type": "electric_scooter", "bike_id": "f75c7470a77a07f52ab99103bde1df41", "fusion_lon": 0.0, "lat": 38.90130333333333, "fusion_lat": 0.0}, {"is_disabled": 0, "rental_uris": {"android": "https://dc.lft.to/lastmile_qr_scan", "ios": "https://dc.lft.to/lastmile_qr_scan"}, "is_reserved": 0, "name": "d81221cf300aa27760440a4a87e06cd1", "lon": -77.0383255, "type": "electric_scooter", "bike_id": "d81221cf300aa27760440a4a87e06cd1", "fusion_lon": 0.0, "lat": 38.91115933333333, "fusion_lat": 0.0}, {"is_disabled": 0, "rental_uris": {"android": "https://dc.lft.to/lastmile_qr_scan", "ios": "https://dc.lft.to/lastmile_qr_scan"}, "is_reserved": 0, "name": "1edb58860f1b652626c58e2136553753", "lon": -76.94633133333333, "type": "electric_scooter", "bike_id": "1edb58860f1b652626c58e2136553753", "fusion_lon": 0.0, "lat": 38.8983925, "fusion_lat": 0.0}, {"is_disabled": 0, "rental_uris": {"android": "https://dc.lft.to/lastmile_qr_scan", "ios": "https://dc.lft.to/lastmile_qr_scan"}, "is_reserved": 0, "name": "56515f0654a51ee5f356d7cd82c6f31c", "lon": -77.03170883333334, "type": "electric_scooter", "bike_id": "56515f0654a51ee5f356d7cd82c6f31c", "fusion_lon": 0.0, "lat": 38.911111, "fusion_lat": 0.0}, {"is_disabled": 0, "rental_uris": {"android": "https://dc.lft.to/lastmile_qr_scan", "ios": "https://dc.lft.to/lastmile_qr_scan"}, "is_reserved": 0, "name": "81a6851c8b6b7a07f85978d379001819", "lon": -77.03949366666667, "type": "electric_scooter", "bike_id": "81a6851c8b6b7a07f85978d379001819", "fusion_lon": 0.0, "lat": 38.92481316666667, "fusion_lat": 0.0}, {"is_disabled": 0, "rental_uris": {"android": "https://dc.lft.to/lastmile_qr_scan", "ios": "https://dc.lft.to/lastmile_qr_scan"}, "is_reserved": 0, "name": "e006d9f7aa7d58d4ffddd60f737e263b", "lon": -77.02813216666667, "type": "electric_scooter", "bike_id": "e006d9f7aa7d58d4ffddd60f737e263b", "fusion_lon": 0.0, "lat": 38.904618, "fusion_lat": 0.0}, {"is_disabled": 0, "rental_uris": {"android": "https://dc.lft.to/lastmile_qr_scan", "ios": "https://dc.lft.to/lastmile_qr_scan"}, "is_reserved": 0, "name": "a37f78004ab1fb59f181a5b8ff690519", "lon": -77.0280415, "type": "electric_scooter", "bike_id": "a37f78004ab1fb59f181a5b8ff690519", "fusion_lon": 0.0, "lat": 38.90395616666667, "fusion_lat": 0.0}, {"is_disabled": 0, "rental_uris": {"android": "https://dc.lft.to/lastmile_qr_scan", "ios": "https://dc.lft.to/lastmile_qr_scan"}, "is_reserved": 0, "name": "c09a176dbcb4a1e0ae3fc0007fa8c2be", "lon": -76.97149583333334, "type": "electric_bike", "bike_id": "c09a176dbcb4a1e0ae3fc0007fa8c2be", "fusion_lon": 0.0, "lat": 38.915904, "fusion_lat": 0.0}, {"is_disabled": 0, "rental_uris": {"android": "https://dc.lft.to/lastmile_qr_scan", "ios": "https://dc.lft.to/lastmile_qr_scan"}, "is_reserved": 0, "name": "19cad203a30c0a3952e7606218acf594", "lon": -77.0206505, "type": "electric_scooter", "bike_id": "19cad203a30c0a3952e7606218acf594", "fusion_lon": 0.0, "lat": 38.88474983333333, "fusion_lat": 0.0}, {"is_disabled": 0, "rental_uris": {"android": "https://dc.lft.to/lastmile_qr_scan", "ios": "https://dc.lft.to/lastmile_qr_scan"}, "is_reserved": 0, "name": "0d576ff66a63685004d6f561293b9948", "lon": -77.131812, "type": "electric_bike", "bike_id": "0d576ff66a63685004d6f561293b9948", "fusion_lon": 0.0, "lat": 38.86909883333333, "fusion_lat": 0.0}, {"is_disabled": 0, "rental_uris": {"android": "https://dc.lft.to/lastmile_qr_scan", "ios": "https://dc.lft.to/lastmile_qr_scan"}, "is_reserved": 0, "name": "4d7bbef0f6a955d7263610869f448fef", "lon": -77.02945616666666, "type": "electric_scooter", "bike_id": "4d7bbef0f6a955d7263610869f448fef", "fusion_lon": 0.0, "lat": 38.899422666666666, "fusion_lat": 0.0}, {"is_disabled": 0, "rental_uris": {"android": "https://dc.lft.to/lastmile_qr_scan", "ios": "https://dc.lft.to/lastmile_qr_scan"}, "is_reserved": 0, "name": "2c109953fcef1c746ec8c4dae768d4c2", "lon": -77.029806, "type": "electric_scooter", "bike_id": "2c109953fcef1c746ec8c4dae768d4c2", "fusion_lon": 0.0, "lat": 38.9170545, "fusion_lat": 0.0}, {"is_disabled": 0, "rental_uris": {"android": "https://dc.lft.to/lastmile_qr_scan", "ios": "https://dc.lft.to/lastmile_qr_scan"}, "is_reserved": 0, "name": "ed0cfa65e0744b724593fda4df7080da", "lon": -77.03399266666666, "type": "electric_scooter", "bike_id": "ed0cfa65e0744b724593fda4df7080da", "fusion_lon": 0.0, "lat": 38.90877733333333, "fusion_lat": 0.0}, {"is_disabled": 0, "rental_uris": {"android": "https://dc.lft.to/lastmile_qr_scan", "ios": "https://dc.lft.to/lastmile_qr_scan"}, "is_reserved": 0, "name": "2236981be8d7b4e506726fa96458c909", "lon": -77.015308, "type": "electric_scooter", "bike_id": "2236981be8d7b4e506726fa96458c909", "fusion_lon": 0.0, "lat": 38.8874265, "fusion_lat": 0.0}, {"is_disabled": 0, "rental_uris": {"android": "https://dc.lft.to/lastmile_qr_scan", "ios": "https://dc.lft.to/lastmile_qr_scan"}, "is_reserved": 0, "name": "dddccd4102a6cbab1ca47741ea6cdcc9", "lon": -77.03227783333334, "type": "electric_scooter", "bike_id": "dddccd4102a6cbab1ca47741ea6cdcc9", "fusion_lon": 0.0, "lat": 38.93873283333333, "fusion_lat": 0.0}, {"is_disabled": 0, "rental_uris": {"android": "https://dc.lft.to/lastmile_qr_scan", "ios": "https://dc.lft.to/lastmile_qr_scan"}, "is_reserved": 0, "name": "bb8b50f271bdd5cc2e7cd47c8ef7b05e", "lon": -77.04163433333333, "type": "electric_scooter", "bike_id": "bb8b50f271bdd5cc2e7cd47c8ef7b05e", "fusion_lon": 0.0, "lat": 38.901222, "fusion_lat": 0.0}, {"is_disabled": 0, "rental_uris": {"android": "https://dc.lft.to/lastmile_qr_scan", "ios": "https://dc.lft.to/lastmile_qr_scan"}, "is_reserved": 0, "name": "f59bc07808846f97ec1721ab32acfa87", "lon": -77.0162585, "type": "electric_scooter", "bike_id": "f59bc07808846f97ec1721ab32acfa87", "fusion_lon": 0.0, "lat": 38.89540316666667, "fusion_lat": 0.0}, {"is_disabled": 0, "rental_uris": {"android": "https://dc.lft.to/lastmile_qr_scan", "ios": "https://dc.lft.to/lastmile_qr_scan"}, "is_reserved": 0, "name": "3d7d27b21eb7f88bfa89726c000a9305", "lon": -76.99005633333333, "type": "electric_scooter", "bike_id": "3d7d27b21eb7f88bfa89726c000a9305", "fusion_lon": 0.0, "lat": 38.86509216666666, "fusion_lat": 0.0}, {"is_disabled": 0, "rental_uris": {"android": "https://dc.lft.to/lastmile_qr_scan", "ios": "https://dc.lft.to/lastmile_qr_scan"}, "is_reserved": 0, "name": "32882649d0bd63747fa41dd42cb18f2b", "lon": -77.03469416666667, "type": "electric_scooter", "bike_id": "32882649d0bd63747fa41dd42cb18f2b", "fusion_lon": 0.0, "lat": 38.914826166666664, "fusion_lat": 0.0}, {"is_disabled": 0, "rental_uris": {"android": "https://dc.lft.to/lastmile_qr_scan", "ios": "https://dc.lft.to/lastmile_qr_scan"}, "is_reserved": 0, "name": "1714a0638e0a127a13e8575b4495c301", "lon": -76.988845, "type": "electric_scooter", "bike_id": "1714a0638e0a127a13e8575b4495c301", "fusion_lon": 0.0, "lat": 38.86675483333333, "fusion_lat": 0.0}, {"is_disabled": 0, "rental_uris": {"android": "https://dc.lft.to/lastmile_qr_scan", "ios": "https://dc.lft.to/lastmile_qr_scan"}, "is_reserved": 0, "name": "c9f354db7d6d1d02d9dad23a10c0c5f4", "lon": -77.032684, "type": "electric_scooter", "bike_id": "c9f354db7d6d1d02d9dad23a10c0c5f4", "fusion_lon": 0.0, "lat": 38.91336533333333, "fusion_lat": 0.0}, {"is_disabled": 0, "rental_uris": {"android": "https://dc.lft.to/lastmile_qr_scan", "ios": "https://dc.lft.to/lastmile_qr_scan"}, "is_reserved": 0, "name": "c848b8738031fa9e7b3188bf51a9115a", "lon": -77.17798516666667, "type": "electric_bike", "bike_id": "c848b8738031fa9e7b3188bf51a9115a", "fusion_lon": 0.0, "lat": 39.088454666666664, "fusion_lat": 0.0}, {"is_disabled": 0, "rental_uris": {"android": "https://dc.lft.to/lastmile_qr_scan", "ios": "https://dc.lft.to/lastmile_qr_scan"}, "is_reserved": 0, "name": "b4682a3c11ddc77a96e7cc23b6ee32bb", "lon": -77.028312, "type": "electric_scooter", "bike_id": "b4682a3c11ddc77a96e7cc23b6ee32bb", "fusion_lon": 0.0, "lat": 38.931916666666666, "fusion_lat": 0.0}, {"is_disabled": 0, "rental_uris": {"android": "https://dc.lft.to/lastmile_qr_scan", "ios": "https://dc.lft.to/lastmile_qr_scan"}, "is_reserved": 0, "name": "b49f9d9b93d3eb72bf3f95666ab98668", "lon": -77.04317666666667, "type": "electric_scooter", "bike_id": "b49f9d9b93d3eb72bf3f95666ab98668", "fusion_lon": 0.0, "lat": 38.898233, "fusion_lat": 0.0}, {"is_disabled": 0, "rental_uris": {"android": "https://dc.lft.to/lastmile_qr_scan", "ios": "https://dc.lft.to/lastmile_qr_scan"}, "is_reserved": 0, "name": "f175fe5d89b6a3d9bb32663b273f546a", "lon": -77.03830366666666, "type": "electric_scooter", "bike_id": "f175fe5d89b6a3d9bb32663b273f546a", "fusion_lon": 0.0, "lat": 38.911914833333334, "fusion_lat": 0.0}, {"is_disabled": 0, "rental_uris": {"android": "https://dc.lft.to/lastmile_qr_scan", "ios": "https://dc.lft.to/lastmile_qr_scan"}, "is_reserved": 0, "name": "2c593fbd07c69c8b43cd903eea85856b", "lon": -77.01511866666667, "type": "electric_scooter", "bike_id": "2c593fbd07c69c8b43cd903eea85856b", "fusion_lon": 0.0, "lat": 38.91047733333333, "fusion_lat": 0.0}, {"is_disabled": 0, "rental_uris": {"android": "https://dc.lft.to/lastmile_qr_scan", "ios": "https://dc.lft.to/lastmile_qr_scan"}, "is_reserved": 0, "name": "942ca34d182f469b9ffc9348efbcce08", "lon": -77.05099933333334, "type": "electric_scooter", "bike_id": "942ca34d182f469b9ffc9348efbcce08", "fusion_lon": 0.0, "lat": 38.89786933333333, "fusion_lat": 0.0}, {"is_disabled": 0, "rental_uris": {"android": "https://dc.lft.to/lastmile_qr_scan", "ios": "https://dc.lft.to/lastmile_qr_scan"}, "is_reserved": 0, "name": "2051319cece423a6653abf3a703c7111", "lon": -76.95409066666667, "type": "electric_scooter", "bike_id": "2051319cece423a6653abf3a703c7111", "fusion_lon": 0.0, "lat": 38.88401983333333, "fusion_lat": 0.0}, {"is_disabled": 0, "rental_uris": {"android": "https://dc.lft.to/lastmile_qr_scan", "ios": "https://dc.lft.to/lastmile_qr_scan"}, "is_reserved": 0, "name": "66b09e35da74f21a5d07b5cb40498f48", "lon": -77.03631116666666, "type": "electric_scooter", "bike_id": "66b09e35da74f21a5d07b5cb40498f48", "fusion_lon": 0.0, "lat": 38.9561005, "fusion_lat": 0.0}, {"is_disabled": 0, "rental_uris": {"android": "https://dc.lft.to/lastmile_qr_scan", "ios": "https://dc.lft.to/lastmile_qr_scan"}, "is_reserved": 0, "name": "326bdf0027abee359835467ffdbb221f", "lon": -77.07748783333334, "type": "electric_bike", "bike_id": "326bdf0027abee359835467ffdbb221f", "fusion_lon": 0.0, "lat": 38.84191716666667, "fusion_lat": 0.0}, {"is_disabled": 0, "rental_uris": {"android": "https://dc.lft.to/lastmile_qr_scan", "ios": "https://dc.lft.to/lastmile_qr_scan"}, "is_reserved": 0, "name": "2d325c81b8e967fb4a8bcee69980aac2", "lon": -77.0479215, "type": "electric_bike", "bike_id": "2d325c81b8e967fb4a8bcee69980aac2", "fusion_lon": 0.0, "lat": 38.9193625, "fusion_lat": 0.0}, {"is_disabled": 0, "rental_uris": {"android": "https://dc.lft.to/lastmile_qr_scan", "ios": "https://dc.lft.to/lastmile_qr_scan"}, "is_reserved": 0, "name": "b13e9e59c5db8391e988fad1df4ab9d9", "lon": -76.9959245, "type": "electric_scooter", "bike_id": "b13e9e59c5db8391e988fad1df4ab9d9", "fusion_lon": 0.0, "lat": 38.900174, "fusion_lat": 0.0}, {"is_disabled": 0, "rental_uris": {"android": "https://dc.lft.to/lastmile_qr_scan", "ios": "https://dc.lft.to/lastmile_qr_scan"}, "is_reserved": 0, "name": "8c8d4df641af65b995ba9dafb0d4b60f", "lon": -76.94886133333333, "type": "electric_scooter", "bike_id": "8c8d4df641af65b995ba9dafb0d4b60f", "fusion_lon": 0.0, "lat": 38.89513816666667, "fusion_lat": 0.0}, {"is_disabled": 0, "rental_uris": {"android": "https://dc.lft.to/lastmile_qr_scan", "ios": "https://dc.lft.to/lastmile_qr_scan"}, "is_reserved": 0, "name": "cc3e4b0d4ef34918c3ae8a6d552fafa2", "lon": -76.99686616666666, "type": "electric_scooter", "bike_id": "cc3e4b0d4ef34918c3ae8a6d552fafa2", "fusion_lon": 0.0, "lat": 38.860407333333335, "fusion_lat": 0.0}, {"is_disabled": 0, "rental_uris": {"android": "https://dc.lft.to/lastmile_qr_scan", "ios": "https://dc.lft.to/lastmile_qr_scan"}, "is_reserved": 0, "name": "abdd6aacd4c5002811edbef1e52bd593", "lon": -77.02581566666667, "type": "electric_scooter", "bike_id": "abdd6aacd4c5002811edbef1e52bd593", "fusion_lon": 0.0, "lat": 38.8993995, "fusion_lat": 0.0}, {"is_disabled": 0, "rental_uris": {"android": "https://dc.lft.to/lastmile_qr_scan", "ios": "https://dc.lft.to/lastmile_qr_scan"}, "is_reserved": 0, "name": "d21ed019519b1a7cae41a46d2c3e4d1a", "lon": -77.00255166666666, "type": "electric_scooter", "bike_id": "d21ed019519b1a7cae41a46d2c3e4d1a", "fusion_lon": 0.0, "lat": 38.9118865, "fusion_lat": 0.0}, {"is_disabled": 0, "rental_uris": {"android": "https://dc.lft.to/lastmile_qr_scan", "ios": "https://dc.lft.to/lastmile_qr_scan"}, "is_reserved": 0, "name": "ff59eefc32825c36ad3752e85bf23742", "lon": -77.14776416666666, "type": "electric_bike", "bike_id": "ff59eefc32825c36ad3752e85bf23742", "fusion_lon": 0.0, "lat": 39.0959395, "fusion_lat": 0.0}, {"is_disabled": 0, "rental_uris": {"android": "https://dc.lft.to/lastmile_qr_scan", "ios": "https://dc.lft.to/lastmile_qr_scan"}, "is_reserved": 0, "name": "4a4be2dcefc8145b18e65d2454e0b431", "lon": -77.03611383333333, "type": "electric_scooter", "bike_id": "4a4be2dcefc8145b18e65d2454e0b431", "fusion_lon": 0.0, "lat": 38.93149116666667, "fusion_lat": 0.0}, {"is_disabled": 0, "rental_uris": {"android": "https://dc.lft.to/lastmile_qr_scan", "ios": "https://dc.lft.to/lastmile_qr_scan"}, "is_reserved": 0, "name": "7b16f211358b50724d4f1506488658ee", "lon": -77.0012395, "type": "electric_bike", "bike_id": "7b16f211358b50724d4f1506488658ee", "fusion_lon": 0.0, "lat": 38.99933516666667, "fusion_lat": 0.0}, {"is_disabled": 0, "rental_uris": {"android": "https://dc.lft.to/lastmile_qr_scan", "ios": "https://dc.lft.to/lastmile_qr_scan"}, "is_reserved": 0, "name": "e8dba6f13299de1481ce2e1d35e49b9b", "lon": -77.01825166666667, "type": "electric_scooter", "bike_id": "e8dba6f13299de1481ce2e1d35e49b9b", "fusion_lon": 0.0, "lat": 38.904060666666666, "fusion_lat": 0.0}, {"is_disabled": 0, "rental_uris": {"android": "https://dc.lft.to/lastmile_qr_scan", "ios": "https://dc.lft.to/lastmile_qr_scan"}, "is_reserved": 0, "name": "1f9294120ff3401a7846784ca19597be", "lon": -76.94701516666666, "type": "electric_scooter", "bike_id": "1f9294120ff3401a7846784ca19597be", "fusion_lon": 0.0, "lat": 38.897368666666665, "fusion_lat": 0.0}, {"is_disabled": 0, "rental_uris": {"android": "https://dc.lft.to/lastmile_qr_scan", "ios": "https://dc.lft.to/lastmile_qr_scan"}, "is_reserved": 0, "name": "5e51ba315369182b20b452e1bbbee5f1", "lon": -77.05211133333333, "type": "electric_scooter", "bike_id": "5e51ba315369182b20b452e1bbbee5f1", "fusion_lon": 0.0, "lat": 38.897998, "fusion_lat": 0.0}, {"is_disabled": 0, "rental_uris": {"android": "https://dc.lft.to/lastmile_qr_scan", "ios": "https://dc.lft.to/lastmile_qr_scan"}, "is_reserved": 0, "name": "5c7bb996e84214103396079931d74d1b", "lon": -76.9673645, "type": "electric_bike", "bike_id": "5c7bb996e84214103396079931d74d1b", "fusion_lon": 0.0, "lat": 38.95059333333333, "fusion_lat": 0.0}, {"is_disabled": 0, "rental_uris": {"android": "https://dc.lft.to/lastmile_qr_scan", "ios": "https://dc.lft.to/lastmile_qr_scan"}, "is_reserved": 0, "name": "17680dabb411b608e8116f56aa97675e", "lon": -76.9888595, "type": "electric_scooter", "bike_id": "17680dabb411b608e8116f56aa97675e", "fusion_lon": 0.0, "lat": 38.866724, "fusion_lat": 0.0}, {"is_disabled": 0, "rental_uris": {"android": "https://dc.lft.to/lastmile_qr_scan", "ios": "https://dc.lft.to/lastmile_qr_scan"}, "is_reserved": 0, "name": "2b0f6a6dfe6775130a545216dc8ea3f5", "lon": -77.029487, "type": "electric_scooter", "bike_id": "2b0f6a6dfe6775130a545216dc8ea3f5", "fusion_lon": 0.0, "lat": 38.90465966666667, "fusion_lat": 0.0}, {"is_disabled": 0, "rental_uris": {"android": "https://dc.lft.to/lastmile_qr_scan", "ios": "https://dc.lft.to/lastmile_qr_scan"}, "is_reserved": 0, "name": "15ef21741b9bc22fd613159e7e5137dd", "lon": -76.967868, "type": "electric_scooter", "bike_id": "15ef21741b9bc22fd613159e7e5137dd", "fusion_lon": 0.0, "lat": 38.873370666666666, "fusion_lat": 0.0}, {"is_disabled": 0, "rental_uris": {"android": "https://dc.lft.to/lastmile_qr_scan", "ios": "https://dc.lft.to/lastmile_qr_scan"}, "is_reserved": 0, "name": "089f20ada66d547b2b4216b02d055dce", "lon": -77.03050066666667, "type": "electric_scooter", "bike_id": "089f20ada66d547b2b4216b02d055dce", "fusion_lon": 0.0, "lat": 38.9012915, "fusion_lat": 0.0}, {"is_disabled": 0, "rental_uris": {"android": "https://dc.lft.to/lastmile_qr_scan", "ios": "https://dc.lft.to/lastmile_qr_scan"}, "is_reserved": 0, "name": "ec9f733b91a240e183583ca0fe64ec9e", "lon": -77.0084425, "type": "electric_scooter", "bike_id": "ec9f733b91a240e183583ca0fe64ec9e", "fusion_lon": 0.0, "lat": 38.8850655, "fusion_lat": 0.0}, {"is_disabled": 0, "rental_uris": {"android": "https://dc.lft.to/lastmile_qr_scan", "ios": "https://dc.lft.to/lastmile_qr_scan"}, "is_reserved": 0, "name": "f6abe334fb97a98345b4f6ee89175b4a", "lon": -77.00200483333333, "type": "electric_bike", "bike_id": "f6abe334fb97a98345b4f6ee89175b4a", "fusion_lon": 0.0, "lat": 38.819399833333335, "fusion_lat": 0.0}, {"is_disabled": 0, "rental_uris": {"android": "https://dc.lft.to/lastmile_qr_scan", "ios": "https://dc.lft.to/lastmile_qr_scan"}, "is_reserved": 0, "name": "867e5f16a47aa5bcb07624b7ec17b3d1", "lon": -77.01050633333334, "type": "electric_scooter", "bike_id": "867e5f16a47aa5bcb07624b7ec17b3d1", "fusion_lon": 0.0, "lat": 38.866630666666666, "fusion_lat": 0.0}, {"is_disabled": 0, "rental_uris": {"android": "https://dc.lft.to/lastmile_qr_scan", "ios": "https://dc.lft.to/lastmile_qr_scan"}, "is_reserved": 0, "name": "16b6dddb0e22828ba06bca8e5973593a", "lon": -77.06703433333334, "type": "electric_scooter", "bike_id": "16b6dddb0e22828ba06bca8e5973593a", "fusion_lon": 0.0, "lat": 38.95593266666667, "fusion_lat": 0.0}, {"is_disabled": 0, "rental_uris": {"android": "https://dc.lft.to/lastmile_qr_scan", "ios": "https://dc.lft.to/lastmile_qr_scan"}, "is_reserved": 0, "name": "874268539784d7c6f01b93e609259c81", "lon": -77.0308175, "type": "electric_scooter", "bike_id": "874268539784d7c6f01b93e609259c81", "fusion_lon": 0.0, "lat": 38.92249833333333, "fusion_lat": 0.0}, {"is_disabled": 0, "rental_uris": {"android": "https://dc.lft.to/lastmile_qr_scan", "ios": "https://dc.lft.to/lastmile_qr_scan"}, "is_reserved": 0, "name": "528d66aefef7b6155195abc6fe620e4e", "lon": -76.96089783333333, "type": "electric_bike", "bike_id": "528d66aefef7b6155195abc6fe620e4e", "fusion_lon": 0.0, "lat": 38.91852766666667, "fusion_lat": 0.0}, {"is_disabled": 0, "rental_uris": {"android": "https://dc.lft.to/lastmile_qr_scan", "ios": "https://dc.lft.to/lastmile_qr_scan"}, "is_reserved": 0, "name": "bfd39f027657c3d906cd3f7f3429e87b", "lon": -77.06379383333334, "type": "electric_bike", "bike_id": "bfd39f027657c3d906cd3f7f3429e87b", "fusion_lon": 0.0, "lat": 39.017300666666664, "fusion_lat": 0.0}, {"is_disabled": 0, "rental_uris": {"android": "https://dc.lft.to/lastmile_qr_scan", "ios": "https://dc.lft.to/lastmile_qr_scan"}, "is_reserved": 0, "name": "665613b033a3d0227cdbb3d466282341", "lon": -76.99538433333333, "type": "electric_scooter", "bike_id": "665613b033a3d0227cdbb3d466282341", "fusion_lon": 0.0, "lat": 38.862561166666666, "fusion_lat": 0.0}, {"is_disabled": 0, "rental_uris": {"android": "https://dc.lft.to/lastmile_qr_scan", "ios": "https://dc.lft.to/lastmile_qr_scan"}, "is_reserved": 0, "name": "6c3a6505c435ffe29eeec573cd620471", "lon": -77.00416883333334, "type": "electric_bike", "bike_id": "6c3a6505c435ffe29eeec573cd620471", "fusion_lon": 0.0, "lat": 38.87654366666666, "fusion_lat": 0.0}, {"is_disabled": 0, "rental_uris": {"android": "https://dc.lft.to/lastmile_qr_scan", "ios": "https://dc.lft.to/lastmile_qr_scan"}, "is_reserved": 0, "name": "277c1d1719a200ad96c192f879dd5ad1", "lon": -77.03990066666667, "type": "electric_scooter", "bike_id": "277c1d1719a200ad96c192f879dd5ad1", "fusion_lon": 0.0, "lat": 38.907380833333335, "fusion_lat": 0.0}, {"is_disabled": 0, "rental_uris": {"android": "https://dc.lft.to/lastmile_qr_scan", "ios": "https://dc.lft.to/lastmile_qr_scan"}, "is_reserved": 0, "name": "5e9f621eafdff5560537cb965da14365", "lon": -77.0153795, "type": "electric_scooter", "bike_id": "5e9f621eafdff5560537cb965da14365", "fusion_lon": 0.0, "lat": 38.88741983333333, "fusion_lat": 0.0}, {"is_disabled": 0, "rental_uris": {"android": "https://dc.lft.to/lastmile_qr_scan", "ios": "https://dc.lft.to/lastmile_qr_scan"}, "is_reserved": 0, "name": "8139e7da3ca91e5664f9132c7d40d184", "lon": -77.00160533333333, "type": "electric_scooter", "bike_id": "8139e7da3ca91e5664f9132c7d40d184", "fusion_lon": 0.0, "lat": 38.90791633333333, "fusion_lat": 0.0}, {"is_disabled": 0, "rental_uris": {"android": "https://dc.lft.to/lastmile_qr_scan", "ios": "https://dc.lft.to/lastmile_qr_scan"}, "is_reserved": 0, "name": "0ce91e052d8329f80f3809b66038c539", "lon": -77.02415716666667, "type": "electric_scooter", "bike_id": "0ce91e052d8329f80f3809b66038c539", "fusion_lon": 0.0, "lat": 38.934818, "fusion_lat": 0.0}, {"is_disabled": 0, "rental_uris": {"android": "https://dc.lft.to/lastmile_qr_scan", "ios": "https://dc.lft.to/lastmile_qr_scan"}, "is_reserved": 0, "name": "3ae23b0420933c756c0b88e7d0e9f0cf", "lon": -77.02999783333334, "type": "electric_scooter", "bike_id": "3ae23b0420933c756c0b88e7d0e9f0cf", "fusion_lon": 0.0, "lat": 38.924823333333336, "fusion_lat": 0.0}, {"is_disabled": 0, "rental_uris": {"android": "https://dc.lft.to/lastmile_qr_scan", "ios": "https://dc.lft.to/lastmile_qr_scan"}, "is_reserved": 0, "name": "72c3690b2951d1e0af1f2d3ae89595e8", "lon": -77.0398875, "type": "electric_bike", "bike_id": "72c3690b2951d1e0af1f2d3ae89595e8", "fusion_lon": 0.0, "lat": 38.802958, "fusion_lat": 0.0}, {"is_disabled": 0, "rental_uris": {"android": "https://dc.lft.to/lastmile_qr_scan", "ios": "https://dc.lft.to/lastmile_qr_scan"}, "is_reserved": 0, "name": "f5079ee417598f86a31e607be2675250", "lon": -77.01784266666667, "type": "electric_scooter", "bike_id": "f5079ee417598f86a31e607be2675250", "fusion_lon": 0.0, "lat": 38.88305033333334, "fusion_lat": 0.0}, {"is_disabled": 0, "rental_uris": {"android": "https://dc.lft.to/lastmile_qr_scan", "ios": "https://dc.lft.to/lastmile_qr_scan"}, "is_reserved": 0, "name": "726c3cd1610c5d5b3ba8750a9ba06e9d", "lon": -77.019087, "type": "electric_scooter", "bike_id": "726c3cd1610c5d5b3ba8750a9ba06e9d", "fusion_lon": 0.0, "lat": 38.904010666666665, "fusion_lat": 0.0}, {"is_disabled": 0, "rental_uris": {"android": "https://dc.lft.to/lastmile_qr_scan", "ios": "https://dc.lft.to/lastmile_qr_scan"}, "is_reserved": 0, "name": "a99c35ca0f7deecec58b3efc06c28196", "lon": -77.09568416666667, "type": "electric_bike", "bike_id": "a99c35ca0f7deecec58b3efc06c28196", "fusion_lon": 0.0, "lat": 38.91687, "fusion_lat": 0.0}, {"is_disabled": 0, "rental_uris": {"android": "https://dc.lft.to/lastmile_qr_scan", "ios": "https://dc.lft.to/lastmile_qr_scan"}, "is_reserved": 0, "name": "dc7e8cd6ffdb3099914066b5970d1b55", "lon": -77.02419616666667, "type": "electric_scooter", "bike_id": "dc7e8cd6ffdb3099914066b5970d1b55", "fusion_lon": 0.0, "lat": 38.90873216666667, "fusion_lat": 0.0}, {"is_disabled": 0, "rental_uris": {"android": "https://dc.lft.to/lastmile_qr_scan", "ios": "https://dc.lft.to/lastmile_qr_scan"}, "is_reserved": 0, "name": "f94978e1402a216337bacac52bf215a1", "lon": -76.9836895, "type": "electric_scooter", "bike_id": "f94978e1402a216337bacac52bf215a1", "fusion_lon": 0.0, "lat": 38.91538283333333, "fusion_lat": 0.0}, {"is_disabled": 0, "rental_uris": {"android": "https://dc.lft.to/lastmile_qr_scan", "ios": "https://dc.lft.to/lastmile_qr_scan"}, "is_reserved": 0, "name": "37a0fcc471b3fc1a9732cbe005c27c22", "lon": -77.00708883333333, "type": "electric_scooter", "bike_id": "37a0fcc471b3fc1a9732cbe005c27c22", "fusion_lon": 0.0, "lat": 38.88498116666667, "fusion_lat": 0.0}, {"is_disabled": 0, "rental_uris": {"android": "https://dc.lft.to/lastmile_qr_scan", "ios": "https://dc.lft.to/lastmile_qr_scan"}, "is_reserved": 0, "name": "5f43aae738af4418ab5a69044f5b1f32", "lon": -77.04064, "type": "electric_scooter", "bike_id": "5f43aae738af4418ab5a69044f5b1f32", "fusion_lon": 0.0, "lat": 38.9003625, "fusion_lat": 0.0}, {"is_disabled": 0, "rental_uris": {"android": "https://dc.lft.to/lastmile_qr_scan", "ios": "https://dc.lft.to/lastmile_qr_scan"}, "is_reserved": 0, "name": "ed74dd037fc9b3e53ecb059228ab2919", "lon": -77.03906933333333, "type": "electric_scooter", "bike_id": "ed74dd037fc9b3e53ecb059228ab2919", "fusion_lon": 0.0, "lat": 38.90248716666667, "fusion_lat": 0.0}, {"is_disabled": 0, "rental_uris": {"android": "https://dc.lft.to/lastmile_qr_scan", "ios": "https://dc.lft.to/lastmile_qr_scan"}, "is_reserved": 0, "name": "4c493fbe5e855e889fc5de9837b0760e", "lon": -76.99503483333334, "type": "electric_scooter", "bike_id": "4c493fbe5e855e889fc5de9837b0760e", "fusion_lon": 0.0, "lat": 38.88611566666667, "fusion_lat": 0.0}, {"is_disabled": 0, "rental_uris": {"android": "https://dc.lft.to/lastmile_qr_scan", "ios": "https://dc.lft.to/lastmile_qr_scan"}, "is_reserved": 0, "name": "9b2c17ae9533a7c87c6f1fac4ffcda09", "lon": -76.99961616666667, "type": "electric_scooter", "bike_id": "9b2c17ae9533a7c87c6f1fac4ffcda09", "fusion_lon": 0.0, "lat": 38.8428615, "fusion_lat": 0.0}, {"is_disabled": 0, "rental_uris": {"android": "https://dc.lft.to/lastmile_qr_scan", "ios": "https://dc.lft.to/lastmile_qr_scan"}, "is_reserved": 0, "name": "cf84feedf353ee1397d840a31b355116", "lon": -77.016289, "type": "electric_scooter", "bike_id": "cf84feedf353ee1397d840a31b355116", "fusion_lon": 0.0, "lat": 38.8723575, "fusion_lat": 0.0}, {"is_disabled": 0, "rental_uris": {"android": "https://dc.lft.to/lastmile_qr_scan", "ios": "https://dc.lft.to/lastmile_qr_scan"}, "is_reserved": 0, "name": "147f1c5ebeffde60686aa18c3b33f353", "lon": -76.94956133333334, "type": "electric_bike", "bike_id": "147f1c5ebeffde60686aa18c3b33f353", "fusion_lon": 0.0, "lat": 38.93502066666667, "fusion_lat": 0.0}, {"is_disabled": 0, "rental_uris": {"android": "https://dc.lft.to/lastmile_qr_scan", "ios": "https://dc.lft.to/lastmile_qr_scan"}, "is_reserved": 0, "name": "2fd38295d4b791be6e33b3ec439dcfd0", "lon": -77.00433666666666, "type": "electric_scooter", "bike_id": "2fd38295d4b791be6e33b3ec439dcfd0", "fusion_lon": 0.0, "lat": 38.8381225, "fusion_lat": 0.0}, {"is_disabled": 0, "rental_uris": {"android": "https://dc.lft.to/lastmile_qr_scan", "ios": "https://dc.lft.to/lastmile_qr_scan"}, "is_reserved": 0, "name": "e30908bf8fd95488cb6e8c5ad12b86c7", "lon": -77.0314665, "type": "electric_scooter", "bike_id": "e30908bf8fd95488cb6e8c5ad12b86c7", "fusion_lon": 0.0, "lat": 38.9162165, "fusion_lat": 0.0}, {"is_disabled": 0, "rental_uris": {"android": "https://dc.lft.to/lastmile_qr_scan", "ios": "https://dc.lft.to/lastmile_qr_scan"}, "is_reserved": 0, "name": "1289bcee763d1bbf9f75b18ccb34ac9c", "lon": -77.09114633333333, "type": "electric_bike", "bike_id": "1289bcee763d1bbf9f75b18ccb34ac9c", "fusion_lon": 0.0, "lat": 38.888463, "fusion_lat": 0.0}, {"is_disabled": 0, "rental_uris": {"android": "https://dc.lft.to/lastmile_qr_scan", "ios": "https://dc.lft.to/lastmile_qr_scan"}, "is_reserved": 0, "name": "d8b4c4e24c03a6a40ebee74338dcfd48", "lon": -77.03969816666667, "type": "electric_scooter", "bike_id": "d8b4c4e24c03a6a40ebee74338dcfd48", "fusion_lon": 0.0, "lat": 38.902399333333335, "fusion_lat": 0.0}, {"is_disabled": 0, "rental_uris": {"android": "https://dc.lft.to/lastmile_qr_scan", "ios": "https://dc.lft.to/lastmile_qr_scan"}, "is_reserved": 0, "name": "4e39f17df9fae713c0db59f34bf8556a", "lon": -76.98966, "type": "electric_scooter", "bike_id": "4e39f17df9fae713c0db59f34bf8556a", "fusion_lon": 0.0, "lat": 38.9025005, "fusion_lat": 0.0}, {"is_disabled": 0, "rental_uris": {"android": "https://dc.lft.to/lastmile_qr_scan", "ios": "https://dc.lft.to/lastmile_qr_scan"}, "is_reserved": 0, "name": "5181a69ab7cb8b7f16f128a5b7d4c2a1", "lon": -76.94884466666667, "type": "electric_scooter", "bike_id": "5181a69ab7cb8b7f16f128a5b7d4c2a1", "fusion_lon": 0.0, "lat": 38.89510633333333, "fusion_lat": 0.0}, {"is_disabled": 0, "rental_uris": {"android": "https://dc.lft.to/lastmile_qr_scan", "ios": "https://dc.lft.to/lastmile_qr_scan"}, "is_reserved": 0, "name": "a84090a6a43e1456760c7872edcecf5e", "lon": -77.03292833333333, "type": "electric_scooter", "bike_id": "a84090a6a43e1456760c7872edcecf5e", "fusion_lon": 0.0, "lat": 38.90845516666667, "fusion_lat": 0.0}, {"is_disabled": 0, "rental_uris": {"android": "https://dc.lft.to/lastmile_qr_scan", "ios": "https://dc.lft.to/lastmile_qr_scan"}, "is_reserved": 0, "name": "887f42bd1007d1580b9bb3f33755e329", "lon": -77.04345166666667, "type": "electric_scooter", "bike_id": "887f42bd1007d1580b9bb3f33755e329", "fusion_lon": 0.0, "lat": 38.910462833333334, "fusion_lat": 0.0}, {"is_disabled": 0, "rental_uris": {"android": "https://dc.lft.to/lastmile_qr_scan", "ios": "https://dc.lft.to/lastmile_qr_scan"}, "is_reserved": 0, "name": "6bc797ae2e607c6d15e426def8ff522e", "lon": -76.99398833333333, "type": "electric_scooter", "bike_id": "6bc797ae2e607c6d15e426def8ff522e", "fusion_lon": 0.0, "lat": 38.92167833333333, "fusion_lat": 0.0}, {"is_disabled": 0, "rental_uris": {"android": "https://dc.lft.to/lastmile_qr_scan", "ios": "https://dc.lft.to/lastmile_qr_scan"}, "is_reserved": 0, "name": "786052abb34765489d2a3cff20f55dc2", "lon": -77.02709883333333, "type": "electric_scooter", "bike_id": "786052abb34765489d2a3cff20f55dc2", "fusion_lon": 0.0, "lat": 38.9110005, "fusion_lat": 0.0}, {"is_disabled": 0, "rental_uris": {"android": "https://dc.lft.to/lastmile_qr_scan", "ios": "https://dc.lft.to/lastmile_qr_scan"}, "is_reserved": 0, "name": "a52602daa49e45360777698df81098c2", "lon": -77.0222215, "type": "electric_scooter", "bike_id": "a52602daa49e45360777698df81098c2", "fusion_lon": 0.0, "lat": 38.914177, "fusion_lat": 0.0}, {"is_disabled": 0, "rental_uris": {"android": "https://dc.lft.to/lastmile_qr_scan", "ios": "https://dc.lft.to/lastmile_qr_scan"}, "is_reserved": 0, "name": "e6dae6da0029711c0fcc42b912a158e0", "lon": -77.00199366666666, "type": "electric_scooter", "bike_id": "e6dae6da0029711c0fcc42b912a158e0", "fusion_lon": 0.0, "lat": 38.902366, "fusion_lat": 0.0}, {"is_disabled": 0, "rental_uris": {"android": "https://dc.lft.to/lastmile_qr_scan", "ios": "https://dc.lft.to/lastmile_qr_scan"}, "is_reserved": 0, "name": "c40ed7e4b4e170a00bc6ee6bcb24ac40", "lon": -77.0455805, "type": "electric_scooter", "bike_id": "c40ed7e4b4e170a00bc6ee6bcb24ac40", "fusion_lon": 0.0, "lat": 38.924233, "fusion_lat": 0.0}, {"is_disabled": 0, "rental_uris": {"android": "https://dc.lft.to/lastmile_qr_scan", "ios": "https://dc.lft.to/lastmile_qr_scan"}, "is_reserved": 0, "name": "cef48eac44ab0168711f68db080dcabd", "lon": -77.00733783333334, "type": "electric_scooter", "bike_id": "cef48eac44ab0168711f68db080dcabd", "fusion_lon": 0.0, "lat": 38.89850716666667, "fusion_lat": 0.0}, {"is_disabled": 0, "rental_uris": {"android": "https://dc.lft.to/lastmile_qr_scan", "ios": "https://dc.lft.to/lastmile_qr_scan"}, "is_reserved": 0, "name": "57d3ba78dd01e028d7036b06c2b139a2", "lon": -77.03193566666667, "type": "electric_scooter", "bike_id": "57d3ba78dd01e028d7036b06c2b139a2", "fusion_lon": 0.0, "lat": 38.93067716666667, "fusion_lat": 0.0}, {"is_disabled": 0, "rental_uris": {"android": "https://dc.lft.to/lastmile_qr_scan", "ios": "https://dc.lft.to/lastmile_qr_scan"}, "is_reserved": 0, "name": "cc5491ec29e27544c5cf830495ce7da2", "lon": -77.0284545, "type": "electric_scooter", "bike_id": "cc5491ec29e27544c5cf830495ce7da2", "fusion_lon": 0.0, "lat": 38.9024645, "fusion_lat": 0.0}, {"is_disabled": 0, "rental_uris": {"android": "https://dc.lft.to/lastmile_qr_scan", "ios": "https://dc.lft.to/lastmile_qr_scan"}, "is_reserved": 0, "name": "61e719f84e2f5eb51dc06b46de755a49", "lon": -77.03275083333334, "type": "electric_scooter", "bike_id": "61e719f84e2f5eb51dc06b46de755a49", "fusion_lon": 0.0, "lat": 38.932526, "fusion_lat": 0.0}, {"is_disabled": 0, "rental_uris": {"android": "https://dc.lft.to/lastmile_qr_scan", "ios": "https://dc.lft.to/lastmile_qr_scan"}, "is_reserved": 0, "name": "0a54d280988467fbc147dc7292aa5e21", "lon": -77.01982766666667, "type": "electric_scooter", "bike_id": "0a54d280988467fbc147dc7292aa5e21", "fusion_lon": 0.0, "lat": 38.8950415, "fusion_lat": 0.0}, {"is_disabled": 0, "rental_uris": {"android": "https://dc.lft.to/lastmile_qr_scan", "ios": "https://dc.lft.to/lastmile_qr_scan"}, "is_reserved": 0, "name": "1dedcaba50e6427d9294c691378f2794", "lon": -77.05082016666667, "type": "electric_scooter", "bike_id": "1dedcaba50e6427d9294c691378f2794", "fusion_lon": 0.0, "lat": 38.90537116666667, "fusion_lat": 0.0}, {"is_disabled": 0, "rental_uris": {"android": "https://dc.lft.to/lastmile_qr_scan", "ios": "https://dc.lft.to/lastmile_qr_scan"}, "is_reserved": 0, "name": "b30e1e34e88f534e40c901e5a0171084", "lon": -76.987816, "type": "electric_scooter", "bike_id": "b30e1e34e88f534e40c901e5a0171084", "fusion_lon": 0.0, "lat": 38.84469633333333, "fusion_lat": 0.0}, {"is_disabled": 0, "rental_uris": {"android": "https://dc.lft.to/lastmile_qr_scan", "ios": "https://dc.lft.to/lastmile_qr_scan"}, "is_reserved": 0, "name": "348dadd0929c5879d60a4b17ae0c89e0", "lon": -77.02743533333333, "type": "electric_scooter", "bike_id": "348dadd0929c5879d60a4b17ae0c89e0", "fusion_lon": 0.0, "lat": 38.943058666666666, "fusion_lat": 0.0}, {"is_disabled": 0, "rental_uris": {"android": "https://dc.lft.to/lastmile_qr_scan", "ios": "https://dc.lft.to/lastmile_qr_scan"}, "is_reserved": 0, "name": "9c2ec9f0c70d36c7f0cc2052b2011539", "lon": -77.01295716666667, "type": "electric_scooter", "bike_id": "9c2ec9f0c70d36c7f0cc2052b2011539", "fusion_lon": 0.0, "lat": 38.90075983333333, "fusion_lat": 0.0}, {"is_disabled": 0, "rental_uris": {"android": "https://dc.lft.to/lastmile_qr_scan", "ios": "https://dc.lft.to/lastmile_qr_scan"}, "is_reserved": 0, "name": "6fe3878ca8c6bc6a7f80dc0eef53da35", "lon": -76.988296, "type": "electric_bike", "bike_id": "6fe3878ca8c6bc6a7f80dc0eef53da35", "fusion_lon": 0.0, "lat": 38.9856425, "fusion_lat": 0.0}, {"is_disabled": 0, "rental_uris": {"android": "https://dc.lft.to/lastmile_qr_scan", "ios": "https://dc.lft.to/lastmile_qr_scan"}, "is_reserved": 0, "name": "01d29965dc2c0ad199d51e5ecb7f1a39", "lon": -76.9807245, "type": "electric_scooter", "bike_id": "01d29965dc2c0ad199d51e5ecb7f1a39", "fusion_lon": 0.0, "lat": 38.91677416666667, "fusion_lat": 0.0}, {"is_disabled": 0, "rental_uris": {"android": "https://dc.lft.to/lastmile_qr_scan", "ios": "https://dc.lft.to/lastmile_qr_scan"},