{"data": {"bikes": [{"lon": -77.04675833333333, "lat": 38.907319333333334, "name": "c16e8487cda1bf1679f0d49e90c6613a", "fusion_lat": 0.0, "fusion_lon": 0.0, "rental_uris": {"android": "https://dc.lft.to/lastmile_qr_scan", "ios": "https://dc.lft.to/lastmile_qr_scan"}, "is_reserved": 0, "is_disabled": 0, "type": "electric_scooter", "bike_id": "c16e8487cda1bf1679f0d49e90c6613a"}, {"lon": -77.0532455, "lat": 38.904953166666665, "name": "9884a10f1877120e15b94a620d302fe2", "fusion_lat": 0.0, "fusion_lon": 0.0, "rental_uris": {"android": "https://dc.lft.to/lastmile_qr_scan", "ios": "https://dc.lft.to/lastmile_qr_scan"}, "is_reserved": 0, "is_disabled": 0, "type": "electric_scooter", "bike_id": "9884a10f1877120e15b94a620d302fe2"}, {"lon": -76.97954916666667, "lat": 38.90379866666667, "name": "3b66704a104f00505e95f005b04f4e30", "fusion_lat": 0.0, "fusion_lon": 0.0, "rental_uris": {"android": "https://dc.lft.to/lastmile_qr_scan", "ios": "https://dc.lft.to/lastmile_qr_scan"}, "is_reserved": 0, "is_disabled": 0, "type": "electric_scooter", "bike_id": "3b66704a104f00505e95f005b04f4e30"}, {"lon": -77.04170883333333, "lat": 38.916095166666665, "name": "5244372c5e27cfdcb791ba9f6db3775f", "fusion_lat": 0.0, "fusion_lon": 0.0, "rental_uris": {"android": "https://dc.lft.to/lastmile_qr_scan", "ios": "https://dc.lft.to/lastmile_qr_scan"}, "is_reserved": 0, "is_disabled": 0, "type": "electric_scooter", "bike_id": "5244372c5e27cfdcb791ba9f6db3775f"}, {"lon": -77.00292416666667, "lat": 38.9058435, "name": "4dd15d0f7485e5cd2372195e71a1879f", "fusion_lat": 0.0, "fusion_lon": 0.0, "rental_uris": {"android": "https://dc.lft.to/lastmile_qr_scan", "ios": "https://dc.lft.to/lastmile_qr_scan"}, "is_reserved": 0, "is_disabled": 0, "type": "electric_scooter", "bike_id": "4dd15d0f7485e5cd2372195e71a1879f"}, {"lon": -77.032875, "lat": 38.9103885, "name": "a1fb0e4e28bff8066c79d125dde865ab", "fusion_lat": 0.0, "fusion_lon": 0.0, "rental_uris": {"android": "https://dc.lft.to/lastmile_qr_scan", "ios": "https://dc.lft.to/lastmile_qr_scan"}, "is_reserved": 0, "is_disabled": 0, "type": "electric_scooter", "bike_id": "a1fb0e4e28bff8066c79d125dde865ab"}, {"lon": -76.98685833333333, "lat": 38.88221816666667, "name": "b75e70d5d220024c82c191b69a490be6", "fusion_lat": 0.0, "fusion_lon": 0.0, "rental_uris": {"android": "https://dc.lft.to/lastmile_qr_scan", "ios": "https://dc.lft.to/lastmile_qr_scan"}, "is_reserved": 0, "is_disabled": 0, "type": "electric_scooter", "bike_id": "b75e70d5d220024c82c191b69a490be6"}, {"lon": -77.028556, "lat": 38.965011, "name": "a9eecf02e25be65c0dc724a56b98e250", "fusion_lat": 0.0, "fusion_lon": 0.0, "rental_uris": {"android": "https://dc.lft.to/lastmile_qr_scan", "ios": "https://dc.lft.to/lastmile_qr_scan"}, "is_reserved": 0, "is_disabled": 0, "type": "electric_scooter", "bike_id": "a9eecf02e25be65c0dc724a56b98e250"}, {"lon": -77.0327865, "lat": 38.93986233333333, "name": "c1fb5376f2fd4bf7d1a9390516d5728e", "fusion_lat": 0.0, "fusion_lon": 0.0, "rental_uris": {"android": "https://dc.lft.to/lastmile_qr_scan", "ios": "https://dc.lft.to/lastmile_qr_scan"}, "is_reserved": 0, "is_disabled": 0, "type": "electric_scooter", "bike_id": "c1fb5376f2fd4bf7d1a9390516d5728e"}, {"lon": -76.99354283333334, "lat": 38.845077, "name": "d3d39c7612a06747f8c33b8e8c54e40e", "fusion_lat": 0.0, "fusion_lon": 0.0, "rental_uris": {"android": "https://dc.lft.to/lastmile_qr_scan", "ios": "https://dc.lft.to/lastmile_qr_scan"}, "is_reserved": 0, "is_disabled": 0, "type": "electric_bike", "bike_id": "d3d39c7612a06747f8c33b8e8c54e40e"}, {"lon": -77.05285416666666, "lat": 38.92607433333333, "name": "2b5ff3e6041da3928f58251ad69e5c1a", "fusion_lat": 0.0, "fusion_lon": 0.0, "rental_uris": {"android": "https://dc.lft.to/lastmile_qr_scan", "ios": "https://dc.lft.to/lastmile_qr_scan"}, "is_reserved": 0, "is_disabled": 0, "type": "electric_scooter", "bike_id": "2b5ff3e6041da3928f58251ad69e5c1a"}, {"lon": -77.03353216666666, "lat": 38.88507166666667, "name": "a9fb6ca5aad82d7f04fd3b71df01f6fa", "fusion_lat": 0.0, "fusion_lon": 0.0, "rental_uris": {"android": "https://dc.lft.to/lastmile_qr_scan", "ios": "https://dc.lft.to/lastmile_qr_scan"}, "is_reserved": 0, "is_disabled": 0, "type": "electric_scooter", "bike_id": "a9fb6ca5aad82d7f04fd3b71df01f6fa"}, {"lon": -77.02181683333333, "lat": 38.9148185, "name": "fea5ecaf3b46e97282916b383a48730f", "fusion_lat": 0.0, "fusion_lon": 0.0, "rental_uris": {"android": "https://dc.lft.to/lastmile_qr_scan", "ios": "https://dc.lft.to/lastmile_qr_scan"}, "is_reserved": 0, "is_disabled": 0, "type": "electric_scooter", "bike_id": "fea5ecaf3b46e97282916b383a48730f"}, {"lon": -76.9317745, "lat": 38.898847333333336, "name": "299981f050edfdf5b0d3042d5bad7ee7", "fusion_lat": 0.0, "fusion_lon": 0.0, "rental_uris": {"android": "https://dc.lft.to/lastmile_qr_scan", "ios": "https://dc.lft.to/lastmile_qr_scan"}, "is_reserved": 0, "is_disabled": 0, "type": "electric_scooter", "bike_id": "299981f050edfdf5b0d3042d5bad7ee7"}, {"lon": -76.94842033333333, "lat": 38.89482666666667, "name": "1616aa85b0832e1f229c8fb2d884b0ec", "fusion_lat": 0.0, "fusion_lon": 0.0, "rental_uris": {"android": "https://dc.lft.to/lastmile_qr_scan", "ios": "https://dc.lft.to/lastmile_qr_scan"}, "is_reserved": 0, "is_disabled": 0, "type": "electric_scooter", "bike_id": "1616aa85b0832e1f229c8fb2d884b0ec"}, {"lon": -76.9927, "lat": 38.89691283333333, "name": "a9f72168581f65b70b910365757514f8", "fusion_lat": 0.0, "fusion_lon": 0.0, "rental_uris": {"android": "https://dc.lft.to/lastmile_qr_scan", "ios": "https://dc.lft.to/lastmile_qr_scan"}, "is_reserved": 0, "is_disabled": 0, "type": "electric_scooter", "bike_id": "a9f72168581f65b70b910365757514f8"}, {"lon": -77.04165183333333, "lat": 38.907333666666666, "name": "185de9a20421d8c8163f7eae55fa36c5", "fusion_lat": 0.0, "fusion_lon": 0.0, "rental_uris": {"android": "https://dc.lft.to/lastmile_qr_scan", "ios": "https://dc.lft.to/lastmile_qr_scan"}, "is_reserved": 0, "is_disabled": 0, "type": "electric_scooter", "bike_id": "185de9a20421d8c8163f7eae55fa36c5"}, {"lon": -77.03283233333333, "lat": 38.938790833333336, "name": "b536aa654fcb03639fd31a145460d7b7", "fusion_lat": 0.0, "fusion_lon": 0.0, "rental_uris": {"android": "https://dc.lft.to/lastmile_qr_scan", "ios": "https://dc.lft.to/lastmile_qr_scan"}, "is_reserved": 0, "is_disabled": 0, "type": "electric_scooter", "bike_id": "b536aa654fcb03639fd31a145460d7b7"}, {"lon": -76.99320533333334, "lat": 38.857603166666664, "name": "258daac15e426655bbfb3e12ddc09c18", "fusion_lat": 0.0, "fusion_lon": 0.0, "rental_uris": {"android": "https://dc.lft.to/lastmile_qr_scan", "ios": "https://dc.lft.to/lastmile_qr_scan"}, "is_reserved": 0, "is_disabled": 0, "type": "electric_scooter", "bike_id": "258daac15e426655bbfb3e12ddc09c18"}, {"lon": -76.94853733333333, "lat": 38.88299466666667, "name": "15a306642042a96271f1d2a63d8648f5", "fusion_lat": 0.0, "fusion_lon": 0.0, "rental_uris": {"android": "https://dc.lft.to/lastmile_qr_scan", "ios": "https://dc.lft.to/lastmile_qr_scan"}, "is_reserved": 0, "is_disabled": 0, "type": "electric_scooter", "bike_id": "15a306642042a96271f1d2a63d8648f5"}, {"lon": -76.995159, "lat": 38.894812, "name": "caf536b337a84633628198930832494b", "fusion_lat": 0.0, "fusion_lon": 0.0, "rental_uris": {"android": "https://dc.lft.to/lastmile_qr_scan", "ios": "https://dc.lft.to/lastmile_qr_scan"}, "is_reserved": 0, "is_disabled": 0, "type": "electric_scooter", "bike_id": "caf536b337a84633628198930832494b"}, {"lon": -77.065328, "lat": 38.91128633333334, "name": "540b70d5a6b29ed8e491ac139c611cb0", "fusion_lat": 0.0, "fusion_lon": 0.0, "rental_uris": {"android": "https://dc.lft.to/lastmile_qr_scan", "ios": "https://dc.lft.to/lastmile_qr_scan"}, "is_reserved": 0, "is_disabled": 0, "type": "electric_scooter", "bike_id": "540b70d5a6b29ed8e491ac139c611cb0"}, {"lon": -77.03423483333333, "lat": 38.910369833333334, "name": "74168e097a3ce1a2af82abeb5a1383e5", "fusion_lat": 0.0, "fusion_lon": 0.0, "rental_uris": {"android": "https://dc.lft.to/lastmile_qr_scan", "ios": "https://dc.lft.to/lastmile_qr_scan"}, "is_reserved": 0, "is_disabled": 0, "type": "electric_scooter", "bike_id": "74168e097a3ce1a2af82abeb5a1383e5"}, {"lon": -77.03965233333334, "lat": 38.90266966666667, "name": "100c4379f90f10e9a127079cab3b0913", "fusion_lat": 0.0, "fusion_lon": 0.0, "rental_uris": {"android": "https://dc.lft.to/lastmile_qr_scan", "ios": "https://dc.lft.to/lastmile_qr_scan"}, "is_reserved": 0, "is_disabled": 0, "type": "electric_scooter", "bike_id": "100c4379f90f10e9a127079cab3b0913"}, {"lon": -77.02584116666667, "lat": 38.8924055, "name": "557665f81ec8eeee223d85450a3fa05f", "fusion_lat": 0.0, "fusion_lon": 0.0, "rental_uris": {"android": "https://dc.lft.to/lastmile_qr_scan", "ios": "https://dc.lft.to/lastmile_qr_scan"}, "is_reserved": 0, "is_disabled": 0, "type": "electric_scooter", "bike_id": "557665f81ec8eeee223d85450a3fa05f"}, {"lon": -77.03944766666666, "lat": 38.90816183333333, "name": "834194b9bc793f441df198be5f641874", "fusion_lat": 0.0, "fusion_lon": 0.0, "rental_uris": {"android": "https://dc.lft.to/lastmile_qr_scan", "ios": "https://dc.lft.to/lastmile_qr_scan"}, "is_reserved": 0, "is_disabled": 0, "type": "electric_scooter", "bike_id": "834194b9bc793f441df198be5f641874"}, {"lon": -76.98772116666666, "lat": 38.91173716666667, "name": "512d2062395fd2e11165f7f93175890e", "fusion_lat": 0.0, "fusion_lon": 0.0, "rental_uris": {"android": "https://dc.lft.to/lastmile_qr_scan", "ios": "https://dc.lft.to/lastmile_qr_scan"}, "is_reserved": 0, "is_disabled": 0, "type": "electric_scooter", "bike_id": "512d2062395fd2e11165f7f93175890e"}, {"lon": -77.02687016666667, "lat": 38.92479933333333, "name": "e159318dafd866259308d7f81e16c639", "fusion_lat": 0.0, "fusion_lon": 0.0, "rental_uris": {"android": "https://dc.lft.to/lastmile_qr_scan", "ios": "https://dc.lft.to/lastmile_qr_scan"}, "is_reserved": 0, "is_disabled": 0, "type": "electric_scooter", "bike_id": "e159318dafd866259308d7f81e16c639"}, {"lon": -76.9412025, "lat": 38.90789183333333, "name": "116901eed1c83ae7fbe01621eef575f0", "fusion_lat": 0.0, "fusion_lon": 0.0, "rental_uris": {"android": "https://dc.lft.to/lastmile_qr_scan", "ios": "https://dc.lft.to/lastmile_qr_scan"}, "is_reserved": 0, "is_disabled": 0, "type": "electric_scooter", "bike_id": "116901eed1c83ae7fbe01621eef575f0"}, {"lon": -76.93155783333333, "lat": 38.898849, "name": "e717e4251190f9e45a3d0228752d99b1", "fusion_lat": 0.0, "fusion_lon": 0.0, "rental_uris": {"android": "https://dc.lft.to/lastmile_qr_scan", "ios": "https://dc.lft.to/lastmile_qr_scan"}, "is_reserved": 0, "is_disabled": 0, "type": "electric_scooter", "bike_id": "e717e4251190f9e45a3d0228752d99b1"}, {"lon": -77.03835433333333, "lat": 38.9111195, "name": "9d15f60ffa1e22b37ae08fb948656cf1", "fusion_lat": 0.0, "fusion_lon": 0.0, "rental_uris": {"android": "https://dc.lft.to/lastmile_qr_scan", "ios": "https://dc.lft.to/lastmile_qr_scan"}, "is_reserved": 0, "is_disabled": 0, "type": "electric_scooter", "bike_id": "9d15f60ffa1e22b37ae08fb948656cf1"}, {"lon": -77.04673933333333, "lat": 38.90425833333333, "name": "5e3e092a4f0b7957f4099e5727fd9fe0", "fusion_lat": 0.0, "fusion_lon": 0.0, "rental_uris": {"android": "https://dc.lft.to/lastmile_qr_scan", "ios": "https://dc.lft.to/lastmile_qr_scan"}, "is_reserved": 0, "is_disabled": 0, "type": "electric_scooter", "bike_id": "5e3e092a4f0b7957f4099e5727fd9fe0"}, {"lon": -77.0524075, "lat": 38.924679166666664, "name": "310c133140d1ab0b282c71fe09d315c9", "fusion_lat": 0.0, "fusion_lon": 0.0, "rental_uris": {"android": "https://dc.lft.to/lastmile_qr_scan", "ios": "https://dc.lft.to/lastmile_qr_scan"}, "is_reserved": 0, "is_disabled": 0, "type": "electric_scooter", "bike_id": "310c133140d1ab0b282c71fe09d315c9"}, {"lon": -77.046769, "lat": 38.895582166666664, "name": "8bb9da9a4d96f2faf7fc124c2236c6c2", "fusion_lat": 0.0, "fusion_lon": 0.0, "rental_uris": {"android": "https://dc.lft.to/lastmile_qr_scan", "ios": "https://dc.lft.to/lastmile_qr_scan"}, "is_reserved": 0, "is_disabled": 0, "type": "electric_scooter", "bike_id": "8bb9da9a4d96f2faf7fc124c2236c6c2"}, {"lon": -76.93661366666667, "lat": 38.90288233333333, "name": "353e953873befe9627d472c477467359", "fusion_lat": 0.0, "fusion_lon": 0.0, "rental_uris": {"android": "https://dc.lft.to/lastmile_qr_scan", "ios": "https://dc.lft.to/lastmile_qr_scan"}, "is_reserved": 0, "is_disabled": 0, "type": "electric_scooter", "bike_id": "353e953873befe9627d472c477467359"}, {"lon": -77.023953, "lat": 38.887364833333336, "name": "0b17f43304cfe9376029a54de7217304", "fusion_lat": 0.0, "fusion_lon": 0.0, "rental_uris": {"android": "https://dc.lft.to/lastmile_qr_scan", "ios": "https://dc.lft.to/lastmile_qr_scan"}, "is_reserved": 0, "is_disabled": 0, "type": "electric_scooter", "bike_id": "0b17f43304cfe9376029a54de7217304"}, {"lon": -77.04283883333333, "lat": 38.91103866666667, "name": "1eeb88ac8692c9eb95d4c591df98601c", "fusion_lat": 0.0, "fusion_lon": 0.0, "rental_uris": {"android": "https://dc.lft.to/lastmile_qr_scan", "ios": "https://dc.lft.to/lastmile_qr_scan"}, "is_reserved": 0, "is_disabled": 0, "type": "electric_scooter", "bike_id": "1eeb88ac8692c9eb95d4c591df98601c"}, {"lon": -77.1274205, "lat": 38.888206, "name": "e6ea79da034429c1ea4f6d647c5f9dab", "fusion_lat": 0.0, "fusion_lon": 0.0, "rental_uris": {"android": "https://dc.lft.to/lastmile_qr_scan", "ios": "https://dc.lft.to/lastmile_qr_scan"}, "is_reserved": 0, "is_disabled": 0, "type": "electric_bike", "bike_id": "e6ea79da034429c1ea4f6d647c5f9dab"}, {"lon": -77.00824033333333, "lat": 38.904718333333335, "name": "9cdd3152bc9604513bfffdea974c1495", "fusion_lat": 0.0, "fusion_lon": 0.0, "rental_uris": {"android": "https://dc.lft.to/lastmile_qr_scan", "ios": "https://dc.lft.to/lastmile_qr_scan"}, "is_reserved": 0, "is_disabled": 0, "type": "electric_scooter", "bike_id": "9cdd3152bc9604513bfffdea974c1495"}, {"lon": -77.06162733333333, "lat": 38.94229083333333, "name": "2fa7dbaf4c2a9c1080ee3e7fc4dba2f5", "fusion_lat": 0.0, "fusion_lon": 0.0, "rental_uris": {"android": "https://dc.lft.to/lastmile_qr_scan", "ios": "https://dc.lft.to/lastmile_qr_scan"}, "is_reserved": 0, "is_disabled": 0, "type": "electric_scooter", "bike_id": "2fa7dbaf4c2a9c1080ee3e7fc4dba2f5"}, {"lon": -77.04872483333334, "lat": 38.901071, "name": "2e80a2f8e7206ae4b86e17785014d6dc", "fusion_lat": 0.0, "fusion_lon": 0.0, "rental_uris": {"android": "https://dc.lft.to/lastmile_qr_scan", "ios": "https://dc.lft.to/lastmile_qr_scan"}, "is_reserved": 0, "is_disabled": 0, "type": "electric_scooter", "bike_id": "2e80a2f8e7206ae4b86e17785014d6dc"}, {"lon": -77.04784166666667, "lat": 38.902408, "name": "5abb8e7b81afdd3ec9bee5d6bca62277", "fusion_lat": 0.0, "fusion_lon": 0.0, "rental_uris": {"android": "https://dc.lft.to/lastmile_qr_scan", "ios": "https://dc.lft.to/lastmile_qr_scan"}, "is_reserved": 0, "is_disabled": 0, "type": "electric_scooter", "bike_id": "5abb8e7b81afdd3ec9bee5d6bca62277"}, {"lon": -77.07357016666667, "lat": 38.9335245, "name": "515ff0a3be6ba875289d7d55fbafeb61", "fusion_lat": 0.0, "fusion_lon": 0.0, "rental_uris": {"android": "https://dc.lft.to/lastmile_qr_scan", "ios": "https://dc.lft.to/lastmile_qr_scan"}, "is_reserved": 0, "is_disabled": 0, "type": "electric_scooter", "bike_id": "515ff0a3be6ba875289d7d55fbafeb61"}, {"lon": -77.03569416666667, "lat": 38.95720083333333, "name": "667a6db9ee28b4a09c27283e1489cb57", "fusion_lat": 0.0, "fusion_lon": 0.0, "rental_uris": {"android": "https://dc.lft.to/lastmile_qr_scan", "ios": "https://dc.lft.to/lastmile_qr_scan"}, "is_reserved": 0, "is_disabled": 0, "type": "electric_scooter", "bike_id": "667a6db9ee28b4a09c27283e1489cb57"}, {"lon": -77.03453233333333, "lat": 38.90290983333333, "name": "3eb40079ea4c19968f2ec59e3ca1469b", "fusion_lat": 0.0, "fusion_lon": 0.0, "rental_uris": {"android": "https://dc.lft.to/lastmile_qr_scan", "ios": "https://dc.lft.to/lastmile_qr_scan"}, "is_reserved": 0, "is_disabled": 0, "type": "electric_scooter", "bike_id": "3eb40079ea4c19968f2ec59e3ca1469b"}, {"lon": -76.93541183333333, "lat": 38.95547633333334, "name": "ead8685a8affaab9ac90d9c695aa8e99", "fusion_lat": 0.0, "fusion_lon": 0.0, "rental_uris": {"android": "https://dc.lft.to/lastmile_qr_scan", "ios": "https://dc.lft.to/lastmile_qr_scan"}, "is_reserved": 0, "is_disabled": 0, "type": "electric_bike", "bike_id": "ead8685a8affaab9ac90d9c695aa8e99"}, {"lon": -77.01216666666667, "lat": 38.91890316666667, "name": "fe0f6a5d7be3797d855c48524fe36ea6", "fusion_lat": 0.0, "fusion_lon": 0.0, "rental_uris": {"android": "https://dc.lft.to/lastmile_qr_scan", "ios": "https://dc.lft.to/lastmile_qr_scan"}, "is_reserved": 0, "is_disabled": 0, "type": "electric_scooter", "bike_id": "fe0f6a5d7be3797d855c48524fe36ea6"}, {"lon": -76.9873385, "lat": 38.94427533333333, "name": "b3600b0eb9c9c5244a77999c68cd6fcc", "fusion_lat": 0.0, "fusion_lon": 0.0, "rental_uris": {"android": "https://dc.lft.to/lastmile_qr_scan", "ios": "https://dc.lft.to/lastmile_qr_scan"}, "is_reserved": 0, "is_disabled": 0, "type": "electric_bike", "bike_id": "b3600b0eb9c9c5244a77999c68cd6fcc"}, {"lon": -77.0476595, "lat": 38.902572, "name": "1d14b78aecc4f0d2ff8d197285edc67f", "fusion_lat": 0.0, "fusion_lon": 0.0, "rental_uris": {"android": "https://dc.lft.to/lastmile_qr_scan", "ios": "https://dc.lft.to/lastmile_qr_scan"}, "is_reserved": 0, "is_disabled": 0, "type": "electric_scooter", "bike_id": "1d14b78aecc4f0d2ff8d197285edc67f"}, {"lon": -77.01091883333333, "lat": 38.9055745, "name": "e761ef01378ac90d896272e8f9937b56", "fusion_lat": 0.0, "fusion_lon": 0.0, "rental_uris": {"android": "https://dc.lft.to/lastmile_qr_scan", "ios": "https://dc.lft.to/lastmile_qr_scan"}, "is_reserved": 0, "is_disabled": 0, "type": "electric_scooter", "bike_id": "e761ef01378ac90d896272e8f9937b56"}, {"lon": -77.02423416666667, "lat": 38.90147016666667, "name": "22399657edc6d817d6101dc95cc6b4a6", "fusion_lat": 0.0, "fusion_lon": 0.0, "rental_uris": {"android": "https://dc.lft.to/lastmile_qr_scan", "ios": "https://dc.lft.to/lastmile_qr_scan"}, "is_reserved": 0, "is_disabled": 0, "type": "electric_scooter", "bike_id": "22399657edc6d817d6101dc95cc6b4a6"}, {"lon": -77.03634883333334, "lat": 38.955976, "name": "9357578559646df43b4637dc1d578baa", "fusion_lat": 0.0, "fusion_lon": 0.0, "rental_uris": {"android": "https://dc.lft.to/lastmile_qr_scan", "ios": "https://dc.lft.to/lastmile_qr_scan"}, "is_reserved": 0, "is_disabled": 0, "type": "electric_scooter", "bike_id": "9357578559646df43b4637dc1d578baa"}, {"lon": -77.00551266666666, "lat": 38.87680116666667, "name": "2fb89b81498cbb5dc0f3cc5160f4b0bd", "fusion_lat": 0.0, "fusion_lon": 0.0, "rental_uris": {"android": "https://dc.lft.to/lastmile_qr_scan", "ios": "https://dc.lft.to/lastmile_qr_scan"}, "is_reserved": 0, "is_disabled": 0, "type": "electric_scooter", "bike_id": "2fb89b81498cbb5dc0f3cc5160f4b0bd"}, {"lon": -77.00152983333334, "lat": 38.90005883333333, "name": "286958d6433517c7d60fa4333912d8b9", "fusion_lat": 0.0, "fusion_lon": 0.0, "rental_uris": {"android": "https://dc.lft.to/lastmile_qr_scan", "ios": "https://dc.lft.to/lastmile_qr_scan"}, "is_reserved": 0, "is_disabled": 0, "type": "electric_scooter", "bike_id": "286958d6433517c7d60fa4333912d8b9"}, {"lon": -77.06755883333334, "lat": 38.947853333333335, "name": "72dcb4c685c247b4300163e9c7cfb008", "fusion_lat": 0.0, "fusion_lon": 0.0, "rental_uris": {"android": "https://dc.lft.to/lastmile_qr_scan", "ios": "https://dc.lft.to/lastmile_qr_scan"}, "is_reserved": 0, "is_disabled": 0, "type": "electric_scooter", "bike_id": "72dcb4c685c247b4300163e9c7cfb008"}, {"lon": -77.1226175, "lat": 38.891924, "name": "e5b2948a2a6e9fe0fe967168eeca75e2", "fusion_lat": 0.0, "fusion_lon": 0.0, "rental_uris": {"android": "https://dc.lft.to/lastmile_qr_scan", "ios": "https://dc.lft.to/lastmile_qr_scan"}, "is_reserved": 0, "is_disabled": 0, "type": "electric_bike", "bike_id": "e5b2948a2a6e9fe0fe967168eeca75e2"}, {"lon": -77.11224266666666, "lat": 38.82876183333333, "name": "fee9ef83452e4271e4653aa7b60347ac", "fusion_lat": 0.0, "fusion_lon": 0.0, "rental_uris": {"android": "https://dc.lft.to/lastmile_qr_scan", "ios": "https://dc.lft.to/lastmile_qr_scan"}, "is_reserved": 0, "is_disabled": 0, "type": "electric_bike", "bike_id": "fee9ef83452e4271e4653aa7b60347ac"}, {"lon": -77.0564115, "lat": 38.92422166666667, "name": "c2b01f2a05f8022749f3bc769dec2540", "fusion_lat": 0.0, "fusion_lon": 0.0, "rental_uris": {"android": "https://dc.lft.to/lastmile_qr_scan", "ios": "https://dc.lft.to/lastmile_qr_scan"}, "is_reserved": 0, "is_disabled": 0, "type": "electric_scooter", "bike_id": "c2b01f2a05f8022749f3bc769dec2540"}, {"lon": -77.0308145, "lat": 38.9202615, "name": "a5e2ab6a4bb9a0a2102f3ca7839a06df", "fusion_lat": 0.0, "fusion_lon": 0.0, "rental_uris": {"android": "https://dc.lft.to/lastmile_qr_scan", "ios": "https://dc.lft.to/lastmile_qr_scan"}, "is_reserved": 0, "is_disabled": 0, "type": "electric_scooter", "bike_id": "a5e2ab6a4bb9a0a2102f3ca7839a06df"}, {"lon": -77.076848, "lat": 38.831933166666666, "name": "354f60af30b1d90e13ef35b60108466c", "fusion_lat": 0.0, "fusion_lon": 0.0, "rental_uris": {"android": "https://dc.lft.to/lastmile_qr_scan", "ios": "https://dc.lft.to/lastmile_qr_scan"}, "is_reserved": 0, "is_disabled": 0, "type": "electric_bike", "bike_id": "354f60af30b1d90e13ef35b60108466c"}, {"lon": -77.00341866666666, "lat": 38.895288, "name": "3f9528b31cf04aec85bb7601346175a6", "fusion_lat": 0.0, "fusion_lon": 0.0, "rental_uris": {"android": "https://dc.lft.to/lastmile_qr_scan", "ios": "https://dc.lft.to/lastmile_qr_scan"}, "is_reserved": 0, "is_disabled": 0, "type": "electric_scooter", "bike_id": "3f9528b31cf04aec85bb7601346175a6"}, {"lon": -77.050044, "lat": 38.89230766666667, "name": "67aaeda13472d4d312e37c52f90e0a7f", "fusion_lat": 0.0, "fusion_lon": 0.0, "rental_uris": {"android": "https://dc.lft.to/lastmile_qr_scan", "ios": "https://dc.lft.to/lastmile_qr_scan"}, "is_reserved": 0, "is_disabled": 0, "type": "electric_scooter", "bike_id": "67aaeda13472d4d312e37c52f90e0a7f"}, {"lon": -77.027264, "lat": 38.940852666666665, "name": "fc9767993ea9b3b02b7442f473e1ce2d", "fusion_lat": 0.0, "fusion_lon": 0.0, "rental_uris": {"android": "https://dc.lft.to/lastmile_qr_scan", "ios": "https://dc.lft.to/lastmile_qr_scan"}, "is_reserved": 0, "is_disabled": 0, "type": "electric_scooter", "bike_id": "fc9767993ea9b3b02b7442f473e1ce2d"}, {"lon": -76.98344266666666, "lat": 38.91523933333333, "name": "65837f049b21b8c3005ad5fd95a95613", "fusion_lat": 0.0, "fusion_lon": 0.0, "rental_uris": {"android": "https://dc.lft.to/lastmile_qr_scan", "ios": "https://dc.lft.to/lastmile_qr_scan"}, "is_reserved": 0, "is_disabled": 0, "type": "electric_scooter", "bike_id": "65837f049b21b8c3005ad5fd95a95613"}, {"lon": -77.05928633333333, "lat": 38.936664666666665, "name": "538ae7de9dd1cfac823ad45770dc0a3a", "fusion_lat": 0.0, "fusion_lon": 0.0, "rental_uris": {"android": "https://dc.lft.to/lastmile_qr_scan", "ios": "https://dc.lft.to/lastmile_qr_scan"}, "is_reserved": 0, "is_disabled": 0, "type": "electric_scooter", "bike_id": "538ae7de9dd1cfac823ad45770dc0a3a"}, {"lon": -77.03739783333333, "lat": 38.922044666666665, "name": "13f78cb3ffa834f7010403a4ff059a6b", "fusion_lat": 0.0, "fusion_lon": 0.0, "rental_uris": {"android": "https://dc.lft.to/lastmile_qr_scan", "ios": "https://dc.lft.to/lastmile_qr_scan"}, "is_reserved": 0, "is_disabled": 0, "type": "electric_scooter", "bike_id": "13f78cb3ffa834f7010403a4ff059a6b"}, {"lon": -77.03374783333334, "lat": 38.898393666666664, "name": "57f074ac8a04feb8f849759b6575db40", "fusion_lat": 0.0, "fusion_lon": 0.0, "rental_uris": {"android": "https://dc.lft.to/lastmile_qr_scan", "ios": "https://dc.lft.to/lastmile_qr_scan"}, "is_reserved": 0, "is_disabled": 0, "type": "electric_scooter", "bike_id": "57f074ac8a04feb8f849759b6575db40"}, {"lon": -77.02826916666666, "lat": 38.887437166666665, "name": "6734587bcdb7b259ef8435aee2d6dcc3", "fusion_lat": 0.0, "fusion_lon": 0.0, "rental_uris": {"android": "https://dc.lft.to/lastmile_qr_scan", "ios": "https://dc.lft.to/lastmile_qr_scan"}, "is_reserved": 0, "is_disabled": 0, "type": "electric_scooter", "bike_id": "6734587bcdb7b259ef8435aee2d6dcc3"}, {"lon": -77.04540733333333, "lat": 38.894813, "name": "9f87ba11794ba39fab5dc36af9985201", "fusion_lat": 0.0, "fusion_lon": 0.0, "rental_uris": {"android": "https://dc.lft.to/lastmile_qr_scan", "ios": "https://dc.lft.to/lastmile_qr_scan"}, "is_reserved": 0, "is_disabled": 0, "type": "electric_scooter", "bike_id": "9f87ba11794ba39fab5dc36af9985201"}, {"lon": -77.01899, "lat": 38.9391575, "name": "d9d3c5f30af4b56ca8d2affc6feee627", "fusion_lat": 0.0, "fusion_lon": 0.0, "rental_uris": {"android": "https://dc.lft.to/lastmile_qr_scan", "ios": "https://dc.lft.to/lastmile_qr_scan"}, "is_reserved": 0, "is_disabled": 0, "type": "electric_scooter", "bike_id": "d9d3c5f30af4b56ca8d2affc6feee627"}, {"lon": -76.9477775, "lat": 38.8963015, "name": "64fe72f70508e16b2223fe52bbc40178", "fusion_lat": 0.0, "fusion_lon": 0.0, "rental_uris": {"android": "https://dc.lft.to/lastmile_qr_scan", "ios": "https://dc.lft.to/lastmile_qr_scan"}, "is_reserved": 0, "is_disabled": 0, "type": "electric_bike", "bike_id": "64fe72f70508e16b2223fe52bbc40178"}, {"lon": -77.0320905, "lat": 38.90039316666667, "name": "df83d9c8fc5f63efcbb48d7516f706cc", "fusion_lat": 0.0, "fusion_lon": 0.0, "rental_uris": {"android": "https://dc.lft.to/lastmile_qr_scan", "ios": "https://dc.lft.to/lastmile_qr_scan"}, "is_reserved": 0, "is_disabled": 0, "type": "electric_scooter", "bike_id": "df83d9c8fc5f63efcbb48d7516f706cc"}, {"lon": -76.99076716666667, "lat": 38.84281633333333, "name": "0c7e271045761f228db220ebc8cf1864", "fusion_lat": 0.0, "fusion_lon": 0.0, "rental_uris": {"android": "https://dc.lft.to/lastmile_qr_scan", "ios": "https://dc.lft.to/lastmile_qr_scan"}, "is_reserved": 0, "is_disabled": 0, "type": "electric_scooter", "bike_id": "0c7e271045761f228db220ebc8cf1864"}, {"lon": -77.02699766666667, "lat": 38.909394166666665, "name": "788b1d099b9336033f41436ec7f02747", "fusion_lat": 0.0, "fusion_lon": 0.0, "rental_uris": {"android": "https://dc.lft.to/lastmile_qr_scan", "ios": "https://dc.lft.to/lastmile_qr_scan"}, "is_reserved": 0, "is_disabled": 0, "type": "electric_scooter", "bike_id": "788b1d099b9336033f41436ec7f02747"}, {"lon": -77.02968083333333, "lat": 38.911317, "name": "fd6432eb4b6e1fce89d240dba89f6383", "fusion_lat": 0.0, "fusion_lon": 0.0, "rental_uris": {"android": "https://dc.lft.to/lastmile_qr_scan", "ios": "https://dc.lft.to/lastmile_qr_scan"}, "is_reserved": 0, "is_disabled": 0, "type": "electric_scooter", "bike_id": "fd6432eb4b6e1fce89d240dba89f6383"}, {"lon": -76.97021533333333, "lat": 38.9203275, "name": "1bf49739101e85c5537daf1578374dd8", "fusion_lat": 0.0, "fusion_lon": 0.0, "rental_uris": {"android": "https://dc.lft.to/lastmile_qr_scan", "ios": "https://dc.lft.to/lastmile_qr_scan"}, "is_reserved": 0, "is_disabled": 0, "type": "electric_scooter", "bike_id": "1bf49739101e85c5537daf1578374dd8"}, {"lon": -77.05330316666667, "lat": 38.9049645, "name": "62efa507056ea7cd472dda619e39472b", "fusion_lat": 0.0, "fusion_lon": 0.0, "rental_uris": {"android": "https://dc.lft.to/lastmile_qr_scan", "ios": "https://dc.lft.to/lastmile_qr_scan"}, "is_reserved": 0, "is_disabled": 0, "type": "electric_scooter", "bike_id": "62efa507056ea7cd472dda619e39472b"}, {"lon": -76.98397033333333, "lat": 38.9220175, "name": "ddd60c1aa5e68f570b6a0d98bb145d47", "fusion_lat": 0.0, "fusion_lon": 0.0, "rental_uris": {"android": "https://dc.lft.to/lastmile_qr_scan", "ios": "https://dc.lft.to/lastmile_qr_scan"}, "is_reserved": 0, "is_disabled": 0, "type": "electric_bike", "bike_id": "ddd60c1aa5e68f570b6a0d98bb145d47"}, {"lon": -77.12628166666667, "lat": 39.0581565, "name": "b086c8f1d29f7a4bc14c5cdb59c8c9d8", "fusion_lat": 0.0, "fusion_lon": 0.0, "rental_uris": {"android": "https://dc.lft.to/lastmile_qr_scan", "ios": "https://dc.lft.to/lastmile_qr_scan"}, "is_reserved": 0, "is_disabled": 0, "type": "electric_bike", "bike_id": "b086c8f1d29f7a4bc14c5cdb59c8c9d8"}, {"lon": -77.03221933333333, "lat": 38.892206333333334, "name": "be051d24974918259fd7779c7f663713", "fusion_lat": 0.0, "fusion_lon": 0.0, "rental_uris": {"android": "https://dc.lft.to/lastmile_qr_scan", "ios": "https://dc.lft.to/lastmile_qr_scan"}, "is_reserved": 0, "is_disabled": 0, "type": "electric_scooter", "bike_id": "be051d24974918259fd7779c7f663713"}, {"lon": -77.04342666666666, "lat": 38.903587, "name": "1c8666c27ca1f121769c4ec6a65bf4e8", "fusion_lat": 0.0, "fusion_lon": 0.0, "rental_uris": {"android": "https://dc.lft.to/lastmile_qr_scan", "ios": "https://dc.lft.to/lastmile_qr_scan"}, "is_reserved": 0, "is_disabled": 0, "type": "electric_scooter", "bike_id": "1c8666c27ca1f121769c4ec6a65bf4e8"}, {"lon": -77.03279383333333, "lat": 38.89902683333333, "name": "15337fbc652db8edfab86f60657a08a6", "fusion_lat": 0.0, "fusion_lon": 0.0, "rental_uris": {"android": "https://dc.lft.to/lastmile_qr_scan", "ios": "https://dc.lft.to/lastmile_qr_scan"}, "is_reserved": 0, "is_disabled": 0, "type": "electric_scooter", "bike_id": "15337fbc652db8edfab86f60657a08a6"}, {"lon": -77.03188516666667, "lat": 38.91920533333333, "name": "9c05f59b5779530be04301aba092c3cd", "fusion_lat": 0.0, "fusion_lon": 0.0, "rental_uris": {"android": "https://dc.lft.to/lastmile_qr_scan", "ios": "https://dc.lft.to/lastmile_qr_scan"}, "is_reserved": 0, "is_disabled": 0, "type": "electric_scooter", "bike_id": "9c05f59b5779530be04301aba092c3cd"}, {"lon": -77.02958133333334, "lat": 38.892246166666666, "name": "bae88e30b0a75910454f2d3e743c887b", "fusion_lat": 0.0, "fusion_lon": 0.0, "rental_uris": {"android": "https://dc.lft.to/lastmile_qr_scan", "ios": "https://dc.lft.to/lastmile_qr_scan"}, "is_reserved": 0, "is_disabled": 0, "type": "electric_scooter", "bike_id": "bae88e30b0a75910454f2d3e743c887b"}, {"lon": -76.998266, "lat": 38.844188833333334, "name": "3bce0eedefd415938630b2bda6d70408", "fusion_lat": 0.0, "fusion_lon": 0.0, "rental_uris": {"android": "https://dc.lft.to/lastmile_qr_scan", "ios": "https://dc.lft.to/lastmile_qr_scan"}, "is_reserved": 0, "is_disabled": 0, "type": "electric_scooter", "bike_id": "3bce0eedefd415938630b2bda6d70408"}, {"lon": -77.0364935, "lat": 38.955927333333335, "name": "2bda4547fb41f837347beef9e5e8a0c2", "fusion_lat": 0.0, "fusion_lon": 0.0, "rental_uris": {"android": "https://dc.lft.to/lastmile_qr_scan", "ios": "https://dc.lft.to/lastmile_qr_scan"}, "is_reserved": 0, "is_disabled": 0, "type": "electric_scooter", "bike_id": "2bda4547fb41f837347beef9e5e8a0c2"}, {"lon": -77.031813, "lat": 38.91623216666667, "name": "335141804a2c29ede8e497f4b9ea0f46", "fusion_lat": 0.0, "fusion_lon": 0.0, "rental_uris": {"android": "https://dc.lft.to/lastmile_qr_scan", "ios": "https://dc.lft.to/lastmile_qr_scan"}, "is_reserved": 0, "is_disabled": 0, "type": "electric_scooter", "bike_id": "335141804a2c29ede8e497f4b9ea0f46"}, {"lon": -77.03149616666667, "lat": 38.910354, "name": "7fc59db6b7b7c668748fe4f6e592dab5", "fusion_lat": 0.0, "fusion_lon": 0.0, "rental_uris": {"android": "https://dc.lft.to/lastmile_qr_scan", "ios": "https://dc.lft.to/lastmile_qr_scan"}, "is_reserved": 0, "is_disabled": 0, "type": "electric_scooter", "bike_id": "7fc59db6b7b7c668748fe4f6e592dab5"}, {"lon": -76.98742216666666, "lat": 38.85790016666667, "name": "30400076dd2cf742c87a1c3da137cbed", "fusion_lat": 0.0, "fusion_lon": 0.0, "rental_uris": {"android": "https://dc.lft.to/lastmile_qr_scan", "ios": "https://dc.lft.to/lastmile_qr_scan"}, "is_reserved": 0, "is_disabled": 0, "type": "electric_bike", "bike_id": "30400076dd2cf742c87a1c3da137cbed"}, {"lon": -76.996017, "lat": 38.885488, "name": "5584cde1f70c45cb46dbf293ab768580", "fusion_lat": 0.0, "fusion_lon": 0.0, "rental_uris": {"android": "https://dc.lft.to/lastmile_qr_scan", "ios": "https://dc.lft.to/lastmile_qr_scan"}, "is_reserved": 0, "is_disabled": 0, "type": "electric_scooter", "bike_id": "5584cde1f70c45cb46dbf293ab768580"}, {"lon": -77.05383, "lat": 38.910503, "name": "50ffeb26c45f0735198c7a69eb7f0b75", "fusion_lat": 0.0, "fusion_lon": 0.0, "rental_uris": {"android": "https://dc.lft.to/lastmile_qr_scan", "ios": "https://dc.lft.to/lastmile_qr_scan"}, "is_reserved": 0, "is_disabled": 0, "type": "electric_scooter", "bike_id": "50ffeb26c45f0735198c7a69eb7f0b75"}, {"lon": -76.9872455, "lat": 38.8670725, "name": "7da09cda1a4740b2963072458bd9ad96", "fusion_lat": 0.0, "fusion_lon": 0.0, "rental_uris": {"android": "https://dc.lft.to/lastmile_qr_scan", "ios": "https://dc.lft.to/lastmile_qr_scan"}, "is_reserved": 0, "is_disabled": 0, "type": "electric_scooter", "bike_id": "7da09cda1a4740b2963072458bd9ad96"}, {"lon": -77.01637133333334, "lat": 38.89981383333333, "name": "65bca86506f515e1992e7c65ca81896f", "fusion_lat": 0.0, "fusion_lon": 0.0, "rental_uris": {"android": "https://dc.lft.to/lastmile_qr_scan", "ios": "https://dc.lft.to/lastmile_qr_scan"}, "is_reserved": 0, "is_disabled": 0, "type": "electric_scooter", "bike_id": "65bca86506f515e1992e7c65ca81896f"}, {"lon": -76.98950383333333, "lat": 38.9073365, "name": "139491e65392cb39dde874505f7dab43", "fusion_lat": 0.0, "fusion_lon": 0.0, "rental_uris": {"android": "https://dc.lft.to/lastmile_qr_scan", "ios": "https://dc.lft.to/lastmile_qr_scan"}, "is_reserved": 0, "is_disabled": 0, "type": "electric_scooter", "bike_id": "139491e65392cb39dde874505f7dab43"}, {"lon": -77.05735833333334, "lat": 38.933707, "name": "483447604ba2e7580daad2054d2b9b7d", "fusion_lat": 0.0, "fusion_lon": 0.0, "rental_uris": {"android": "https://dc.lft.to/lastmile_qr_scan", "ios": "https://dc.lft.to/lastmile_qr_scan"}, "is_reserved": 0, "is_disabled": 0, "type": "electric_scooter", "bike_id": "483447604ba2e7580daad2054d2b9b7d"}, {"lon": -77.02297616666667, "lat": 38.90972283333333, "name": "5b4619563eb4dbcba4313e80d7dc48a6", "fusion_lat": 0.0, "fusion_lon": 0.0, "rental_uris": {"android": "https://dc.lft.to/lastmile_qr_scan", "ios": "https://dc.lft.to/lastmile_qr_scan"}, "is_reserved": 0, "is_disabled": 0, "type": "electric_scooter", "bike_id": "5b4619563eb4dbcba4313e80d7dc48a6"}, {"lon": -77.04055683333333, "lat": 38.917691166666664, "name": "d95f7988f5e42726020a37fca0b409bf", "fusion_lat": 0.0, "fusion_lon": 0.0, "rental_uris": {"android": "https://dc.lft.to/lastmile_qr_scan", "ios": "https://dc.lft.to/lastmile_qr_scan"}, "is_reserved": 0, "is_disabled": 0, "type": "electric_scooter", "bike_id": "d95f7988f5e42726020a37fca0b409bf"}, {"lon": -77.0450735, "lat": 38.9127745, "name": "d353370f129458bfc3d8685700dd5c5c", "fusion_lat": 0.0, "fusion_lon": 0.0, "rental_uris": {"android": "https://dc.lft.to/lastmile_qr_scan", "ios": "https://dc.lft.to/lastmile_qr_scan"}, "is_reserved": 0, "is_disabled": 0, "type": "electric_scooter", "bike_id": "d353370f129458bfc3d8685700dd5c5c"}, {"lon": -77.011123, "lat": 38.870778, "name": "35bab6a6825fb1a38af25521928108bc", "fusion_lat": 0.0, "fusion_lon": 0.0, "rental_uris": {"android": "https://dc.lft.to/lastmile_qr_scan", "ios": "https://dc.lft.to/lastmile_qr_scan"}, "is_reserved": 0, "is_disabled": 0, "type": "electric_scooter", "bike_id": "35bab6a6825fb1a38af25521928108bc"}, {"lon": -77.11237833333334, "lat": 38.856038166666664, "name": "7661cfac9e4cf81cfde7e52365d96207", "fusion_lat": 0.0, "fusion_lon": 0.0, "rental_uris": {"android": "https://dc.lft.to/lastmile_qr_scan", "ios": "https://dc.lft.to/lastmile_qr_scan"}, "is_reserved": 0, "is_disabled": 0, "type": "electric_bike", "bike_id": "7661cfac9e4cf81cfde7e52365d96207"}, {"lon": -77.02589016666667, "lat": 38.8924175, "name": "7eb41e188df8cdc1f49db4fc4b015280", "fusion_lat": 0.0, "fusion_lon": 0.0, "rental_uris": {"android": "https://dc.lft.to/lastmile_qr_scan", "ios": "https://dc.lft.to/lastmile_qr_scan"}, "is_reserved": 0, "is_disabled": 0, "type": "electric_scooter", "bike_id": "7eb41e188df8cdc1f49db4fc4b015280"}, {"lon": -77.03484, "lat": 38.907158833333334, "name": "b1ea8710efb440508ce44a516b8a5816", "fusion_lat": 0.0, "fusion_lon": 0.0, "rental_uris": {"android": "https://dc.lft.to/lastmile_qr_scan", "ios": "https://dc.lft.to/lastmile_qr_scan"}, "is_reserved": 0, "is_disabled": 0, "type": "electric_scooter", "bike_id": "b1ea8710efb440508ce44a516b8a5816"}, {"lon": -77.04879366666667, "lat": 38.904841166666664, "name": "1a61fbbb873731e13c90326e85daee1d", "fusion_lat": 0.0, "fusion_lon": 0.0, "rental_uris": {"android": "https://dc.lft.to/lastmile_qr_scan", "ios": "https://dc.lft.to/lastmile_qr_scan"}, "is_reserved": 0, "is_disabled": 0, "type": "electric_scooter", "bike_id": "1a61fbbb873731e13c90326e85daee1d"}, {"lon": -77.02288083333333, "lat": 38.916962833333336, "name": "e4fb1fd1272b071d85f3f5e7f283823e", "fusion_lat": 0.0, "fusion_lon": 0.0, "rental_uris": {"android": "https://dc.lft.to/lastmile_qr_scan", "ios": "https://dc.lft.to/lastmile_qr_scan"}, "is_reserved": 0, "is_disabled": 0, "type": "electric_scooter", "bike_id": "e4fb1fd1272b071d85f3f5e7f283823e"}, {"lon": -76.984362, "lat": 38.91424933333333, "name": "41fa1d5a49805c413422fdccb1e9b5b1", "fusion_lat": 0.0, "fusion_lon": 0.0, "rental_uris": {"android": "https://dc.lft.to/lastmile_qr_scan", "ios": "https://dc.lft.to/lastmile_qr_scan"}, "is_reserved": 0, "is_disabled": 0, "type": "electric_scooter", "bike_id": "41fa1d5a49805c413422fdccb1e9b5b1"}, {"lon": -77.05733133333334, "lat": 38.9336555, "name": "e18b5e88f4aaa49bb4c3caa551733292", "fusion_lat": 0.0, "fusion_lon": 0.0, "rental_uris": {"android": "https://dc.lft.to/lastmile_qr_scan", "ios": "https://dc.lft.to/lastmile_qr_scan"}, "is_reserved": 0, "is_disabled": 0, "type": "electric_scooter", "bike_id": "e18b5e88f4aaa49bb4c3caa551733292"}, {"lon": -77.04817366666667, "lat": 38.913302333333334, "name": "240d28908376d5f9f34e11e473f8cf58", "fusion_lat": 0.0, "fusion_lon": 0.0, "rental_uris": {"android": "https://dc.lft.to/lastmile_qr_scan", "ios": "https://dc.lft.to/lastmile_qr_scan"}, "is_reserved": 0, "is_disabled": 0, "type": "electric_scooter", "bike_id": "240d28908376d5f9f34e11e473f8cf58"}, {"lon": -76.90815416666666, "lat": 38.99457316666667, "name": "3fccd0f861415bf35366da4189f7c965", "fusion_lat": 0.0, "fusion_lon": 0.0, "rental_uris": {"android": "https://dc.lft.to/lastmile_qr_scan", "ios": "https://dc.lft.to/lastmile_qr_scan"}, "is_reserved": 0, "is_disabled": 0, "type": "electric_bike", "bike_id": "3fccd0f861415bf35366da4189f7c965"}, {"lon": -77.03199883333333, "lat": 38.929871166666665, "name": "12f3c0cf725fac435f0938b89be00404", "fusion_lat": 0.0, "fusion_lon": 0.0, "rental_uris": {"android": "https://dc.lft.to/lastmile_qr_scan", "ios": "https://dc.lft.to/lastmile_qr_scan"}, "is_reserved": 0, "is_disabled": 0, "type": "electric_scooter", "bike_id": "12f3c0cf725fac435f0938b89be00404"}, {"lon": -77.0652895, "lat": 38.9347145, "name": "29d95dd6df7436a7445b340359031f42", "fusion_lat": 0.0, "fusion_lon": 0.0, "rental_uris": {"android": "https://dc.lft.to/lastmile_qr_scan", "ios": "https://dc.lft.to/lastmile_qr_scan"}, "is_reserved": 0, "is_disabled": 0, "type": "electric_scooter", "bike_id": "29d95dd6df7436a7445b340359031f42"}, {"lon": -77.02694133333334, "lat": 38.915920166666666, "name": "6b2ac3878af9b7954707b734bb415f41", "fusion_lat": 0.0, "fusion_lon": 0.0, "rental_uris": {"android": "https://dc.lft.to/lastmile_qr_scan", "ios": "https://dc.lft.to/lastmile_qr_scan"}, "is_reserved": 0, "is_disabled": 0, "type": "electric_scooter", "bike_id": "6b2ac3878af9b7954707b734bb415f41"}, {"lon": -77.04193783333334, "lat": 38.901449166666666, "name": "9dff0ae2f1da2be9c7598c49efa6a88f", "fusion_lat": 0.0, "fusion_lon": 0.0, "rental_uris": {"android": "https://dc.lft.to/lastmile_qr_scan", "ios": "https://dc.lft.to/lastmile_qr_scan"}, "is_reserved": 0, "is_disabled": 0, "type": "electric_scooter", "bike_id": "9dff0ae2f1da2be9c7598c49efa6a88f"}, {"lon": -77.02480566666667, "lat": 38.926504, "name": "a98cacb8f113e07ca7a95ebd02ed8429", "fusion_lat": 0.0, "fusion_lon": 0.0, "rental_uris": {"android": "https://dc.lft.to/lastmile_qr_scan", "ios": "https://dc.lft.to/lastmile_qr_scan"}, "is_reserved": 0, "is_disabled": 0, "type": "electric_scooter", "bike_id": "a98cacb8f113e07ca7a95ebd02ed8429"}, {"lon": -76.94862683333334, "lat": 38.8959375, "name": "253b4a43fb1dcab78e1a17f12ced357c", "fusion_lat": 0.0, "fusion_lon": 0.0, "rental_uris": {"android": "https://dc.lft.to/lastmile_qr_scan", "ios": "https://dc.lft.to/lastmile_qr_scan"}, "is_reserved": 0, "is_disabled": 0, "type": "electric_scooter", "bike_id": "253b4a43fb1dcab78e1a17f12ced357c"}, {"lon": -77.04226133333333, "lat": 38.90110583333333, "name": "2d796d2dda68e221b6c246c94caf5bf5", "fusion_lat": 0.0, "fusion_lon": 0.0, "rental_uris": {"android": "https://dc.lft.to/lastmile_qr_scan", "ios": "https://dc.lft.to/lastmile_qr_scan"}, "is_reserved": 0, "is_disabled": 0, "type": "electric_scooter", "bike_id": "2d796d2dda68e221b6c246c94caf5bf5"}, {"lon": -77.03355916666666, "lat": 38.887591, "name": "f5aa9e0439e00da9522759af32aad160", "fusion_lat": 0.0, "fusion_lon": 0.0, "rental_uris": {"android": "https://dc.lft.to/lastmile_qr_scan", "ios": "https://dc.lft.to/lastmile_qr_scan"}, "is_reserved": 0, "is_disabled": 0, "type": "electric_scooter", "bike_id": "f5aa9e0439e00da9522759af32aad160"}, {"lon": -77.03190883333333, "lat": 38.89345633333333, "name": "3c187e18c9a672ccd0cb391db3c5f4d1", "fusion_lat": 0.0, "fusion_lon": 0.0, "rental_uris": {"android": "https://dc.lft.to/lastmile_qr_scan", "ios": "https://dc.lft.to/lastmile_qr_scan"}, "is_reserved": 0, "is_disabled": 0, "type": "electric_scooter", "bike_id": "3c187e18c9a672ccd0cb391db3c5f4d1"}, {"lon": -77.023801, "lat": 38.911595, "name": "3249aff23516fa120a1cfe7688c4d623", "fusion_lat": 0.0, "fusion_lon": 0.0, "rental_uris": {"android": "https://dc.lft.to/lastmile_qr_scan", "ios": "https://dc.lft.to/lastmile_qr_scan"}, "is_reserved": 0, "is_disabled": 0, "type": "electric_scooter", "bike_id": "3249aff23516fa120a1cfe7688c4d623"}, {"lon": -77.02225066666666, "lat": 38.886248333333334, "name": "70dbdecf2114750eadf8023ea9a26351", "fusion_lat": 0.0, "fusion_lon": 0.0, "rental_uris": {"android": "https://dc.lft.to/lastmile_qr_scan", "ios": "https://dc.lft.to/lastmile_qr_scan"}, "is_reserved": 0, "is_disabled": 0, "type": "electric_scooter", "bike_id": "70dbdecf2114750eadf8023ea9a26351"}, {"lon": -77.0436195, "lat": 38.9103755, "name": "4c7ea31aa485a0aa881ec7c53b103440", "fusion_lat": 0.0, "fusion_lon": 0.0, "rental_uris": {"android": "https://dc.lft.to/lastmile_qr_scan", "ios": "https://dc.lft.to/lastmile_qr_scan"}, "is_reserved": 0, "is_disabled": 0, "type": "electric_scooter", "bike_id": "4c7ea31aa485a0aa881ec7c53b103440"}, {"lon": -77.09959866666667, "lat": 38.9224155, "name": "e7f0dbaffeb6db71761d1ba28d86a872", "fusion_lat": 0.0, "fusion_lon": 0.0, "rental_uris": {"android": "https://dc.lft.to/lastmile_qr_scan", "ios": "https://dc.lft.to/lastmile_qr_scan"}, "is_reserved": 0, "is_disabled": 0, "type": "electric_scooter", "bike_id": "e7f0dbaffeb6db71761d1ba28d86a872"}, {"lon": -77.03476266666667, "lat": 38.91705533333333, "name": "d1f13999eab836104dceb37700fcb3a0", "fusion_lat": 0.0, "fusion_lon": 0.0, "rental_uris": {"android": "https://dc.lft.to/lastmile_qr_scan", "ios": "https://dc.lft.to/lastmile_qr_scan"}, "is_reserved": 0, "is_disabled": 0, "type": "electric_scooter", "bike_id": "d1f13999eab836104dceb37700fcb3a0"}, {"lon": -77.04153816666667, "lat": 38.916619, "name": "303ec980f7e25de104ce48b79ed2a0fb", "fusion_lat": 0.0, "fusion_lon": 0.0, "rental_uris": {"android": "https://dc.lft.to/lastmile_qr_scan", "ios": "https://dc.lft.to/lastmile_qr_scan"}, "is_reserved": 0, "is_disabled": 0, "type": "electric_scooter", "bike_id": "303ec980f7e25de104ce48b79ed2a0fb"}, {"lon": -77.03210516666667, "lat": 38.91427266666667, "name": "587f025103e15ff22ad91178217915b2", "fusion_lat": 0.0, "fusion_lon": 0.0, "rental_uris": {"android": "https://dc.lft.to/lastmile_qr_scan", "ios": "https://dc.lft.to/lastmile_qr_scan"}, "is_reserved": 0, "is_disabled": 0, "type": "electric_scooter", "bike_id": "587f025103e15ff22ad91178217915b2"}, {"lon": -77.07832683333334, "lat": 38.926694833333336, "name": "9495d0d10586c64183c7add439a9d156", "fusion_lat": 0.0, "fusion_lon": 0.0, "rental_uris": {"android": "https://dc.lft.to/lastmile_qr_scan", "ios": "https://dc.lft.to/lastmile_qr_scan"}, "is_reserved": 0, "is_disabled": 0, "type": "electric_scooter", "bike_id": "9495d0d10586c64183c7add439a9d156"}, {"lon": -77.02229033333333, "lat": 38.8874525, "name": "699c6546c4cb878a22a339f6ab4ac7c9", "fusion_lat": 0.0, "fusion_lon": 0.0, "rental_uris": {"android": "https://dc.lft.to/lastmile_qr_scan", "ios": "https://dc.lft.to/lastmile_qr_scan"}, "is_reserved": 0, "is_disabled": 0, "type": "electric_scooter", "bike_id": "699c6546c4cb878a22a339f6ab4ac7c9"}, {"lon": -77.02382233333333, "lat": 38.909741, "name": "10ef93d161d1a07efe69c76364fa35a8", "fusion_lat": 0.0, "fusion_lon": 0.0, "rental_uris": {"android": "https://dc.lft.to/lastmile_qr_scan", "ios": "https://dc.lft.to/lastmile_qr_scan"}, "is_reserved": 0, "is_disabled": 0, "type": "electric_scooter", "bike_id": "10ef93d161d1a07efe69c76364fa35a8"}, {"lon": -77.03498516666667, "lat": 38.9234185, "name": "b100d327da7813f05eaaa5684e10a1b8", "fusion_lat": 0.0, "fusion_lon": 0.0, "rental_uris": {"android": "https://dc.lft.to/lastmile_qr_scan", "ios": "https://dc.lft.to/lastmile_qr_scan"}, "is_reserved": 0, "is_disabled": 0, "type": "electric_scooter", "bike_id": "b100d327da7813f05eaaa5684e10a1b8"}, {"lon": -76.96627983333333, "lat": 38.94206883333333, "name": "244dc0a09fcc8001be196b4007e752a3", "fusion_lat": 0.0, "fusion_lon": 0.0, "rental_uris": {"android": "https://dc.lft.to/lastmile_qr_scan", "ios": "https://dc.lft.to/lastmile_qr_scan"}, "is_reserved": 0, "is_disabled": 0, "type": "electric_bike", "bike_id": "244dc0a09fcc8001be196b4007e752a3"}, {"lon": -77.0455195, "lat": 38.920661, "name": "c09f56b29b3456caedaa7a9cd4f74e6b", "fusion_lat": 0.0, "fusion_lon": 0.0, "rental_uris": {"android": "https://dc.lft.to/lastmile_qr_scan", "ios": "https://dc.lft.to/lastmile_qr_scan"}, "is_reserved": 0, "is_disabled": 0, "type": "electric_scooter", "bike_id": "c09f56b29b3456caedaa7a9cd4f74e6b"}, {"lon": -76.98702433333334, "lat": 38.900183166666665, "name": "d06237c2632a57da751b5d93d3c74560", "fusion_lat": 0.0, "fusion_lon": 0.0, "rental_uris": {"android": "https://dc.lft.to/lastmile_qr_scan", "ios": "https://dc.lft.to/lastmile_qr_scan"}, "is_reserved": 0, "is_disabled": 0, "type": "electric_scooter", "bike_id": "d06237c2632a57da751b5d93d3c74560"}, {"lon": -77.02651183333333, "lat": 38.938583666666666, "name": "1bcadf8c795086fa78b007639101b1e3", "fusion_lat": 0.0, "fusion_lon": 0.0, "rental_uris": {"android": "https://dc.lft.to/lastmile_qr_scan", "ios": "https://dc.lft.to/lastmile_qr_scan"}, "is_reserved": 0, "is_disabled": 0, "type": "electric_scooter", "bike_id": "1bcadf8c795086fa78b007639101b1e3"}, {"lon": -77.03863166666666, "lat": 38.9125445, "name": "155c1040958b20776fc0278efc52efbb", "fusion_lat": 0.0, "fusion_lon": 0.0, "rental_uris": {"android": "https://dc.lft.to/lastmile_qr_scan", "ios": "https://dc.lft.to/lastmile_qr_scan"}, "is_reserved": 0, "is_disabled": 0, "type": "electric_scooter", "bike_id": "155c1040958b20776fc0278efc52efbb"}, {"lon": -76.99873916666667, "lat": 38.907518333333336, "name": "ff77fc303b28a6897d5075d734386e4a", "fusion_lat": 0.0, "fusion_lon": 0.0, "rental_uris": {"android": "https://dc.lft.to/lastmile_qr_scan", "ios": "https://dc.lft.to/lastmile_qr_scan"}, "is_reserved": 0, "is_disabled": 0, "type": "electric_scooter", "bike_id": "ff77fc303b28a6897d5075d734386e4a"}, {"lon": -77.03459183333334, "lat": 38.9046155, "name": "a5654e8e3bc4ac7d12ad404e3ac8ce84", "fusion_lat": 0.0, "fusion_lon": 0.0, "rental_uris": {"android": "https://dc.lft.to/lastmile_qr_scan", "ios": "https://dc.lft.to/lastmile_qr_scan"}, "is_reserved": 0, "is_disabled": 0, "type": "electric_scooter", "bike_id": "a5654e8e3bc4ac7d12ad404e3ac8ce84"}, {"lon": -76.99168833333333, "lat": 38.87925416666667, "name": "818592770fc9b1c7352bb5d507d0d1bc", "fusion_lat": 0.0, "fusion_lon": 0.0, "rental_uris": {"android": "https://dc.lft.to/lastmile_qr_scan", "ios": "https://dc.lft.to/lastmile_qr_scan"}, "is_reserved": 0, "is_disabled": 0, "type": "electric_scooter", "bike_id": "818592770fc9b1c7352bb5d507d0d1bc"}, {"lon": -77.031656, "lat": 38.914130666666665, "name": "bcb0b78f0764605f3193fdc070986934", "fusion_lat": 0.0, "fusion_lon": 0.0, "rental_uris": {"android": "https://dc.lft.to/lastmile_qr_scan", "ios": "https://dc.lft.to/lastmile_qr_scan"}, "is_reserved": 0, "is_disabled": 0, "type": "electric_scooter", "bike_id": "bcb0b78f0764605f3193fdc070986934"}, {"lon": -77.02426183333333, "lat": 38.90204083333333, "name": "fb8892faaf0891ad143cfa735a8528cd", "fusion_lat": 0.0, "fusion_lon": 0.0, "rental_uris": {"android": "https://dc.lft.to/lastmile_qr_scan", "ios": "https://dc.lft.to/lastmile_qr_scan"}, "is_reserved": 0, "is_disabled": 0, "type": "electric_scooter", "bike_id": "fb8892faaf0891ad143cfa735a8528cd"}, {"lon": -77.06472433333333, "lat": 38.97379766666667, "name": "9648a4b47e978b71b58a7e037a8df1ac", "fusion_lat": 0.0, "fusion_lon": 0.0, "rental_uris": {"android": "https://dc.lft.to/lastmile_qr_scan", "ios": "https://dc.lft.to/lastmile_qr_scan"}, "is_reserved": 0, "is_disabled": 0, "type": "electric_bike", "bike_id": "9648a4b47e978b71b58a7e037a8df1ac"}, {"lon": -77.02810533333333, "lat": 38.892426666666665, "name": "e05e8eba081072d963537e126d44cc74", "fusion_lat": 0.0, "fusion_lon": 0.0, "rental_uris": {"android": "https://dc.lft.to/lastmile_qr_scan", "ios": "https://dc.lft.to/lastmile_qr_scan"}, "is_reserved": 0, "is_disabled": 0, "type": "electric_scooter", "bike_id": "e05e8eba081072d963537e126d44cc74"}, {"lon": -77.0339655, "lat": 38.921556833333334, "name": "d5bd8f13f20ec5333d2e7b9314f6093b", "fusion_lat": 0.0, "fusion_lon": 0.0, "rental_uris": {"android": "https://dc.lft.to/lastmile_qr_scan", "ios": "https://dc.lft.to/lastmile_qr_scan"}, "is_reserved": 0, "is_disabled": 0, "type": "electric_scooter", "bike_id": "d5bd8f13f20ec5333d2e7b9314f6093b"}, {"lon": -77.01823, "lat": 38.90258216666667, "name": "486806ec04d4c13bf3c593ffa4997018", "fusion_lat": 0.0, "fusion_lon": 0.0, "rental_uris": {"android": "https://dc.lft.to/lastmile_qr_scan", "ios": "https://dc.lft.to/lastmile_qr_scan"}, "is_reserved": 0, "is_disabled": 0, "type": "electric_scooter", "bike_id": "486806ec04d4c13bf3c593ffa4997018"}, {"lon": -77.002146, "lat": 38.9050865, "name": "301f70187cf31ed2196ca221036a7e0d", "fusion_lat": 0.0, "fusion_lon": 0.0, "rental_uris": {"android": "https://dc.lft.to/lastmile_qr_scan", "ios": "https://dc.lft.to/lastmile_qr_scan"}, "is_reserved": 0, "is_disabled": 0, "type": "electric_scooter", "bike_id": "301f70187cf31ed2196ca221036a7e0d"}, {"lon": -77.02060383333334, "lat": 38.92016116666667, "name": "4ce258381cf9d5872b5c36e4ff7052ba", "fusion_lat": 0.0, "fusion_lon": 0.0, "rental_uris": {"android": "https://dc.lft.to/lastmile_qr_scan", "ios": "https://dc.lft.to/lastmile_qr_scan"}, "is_reserved": 0, "is_disabled": 0, "type": "electric_scooter", "bike_id": "4ce258381cf9d5872b5c36e4ff7052ba"}, {"lon": -77.03865933333333, "lat": 38.912536833333334, "name": "49d16c465c8742301bc1bb3353003241", "fusion_lat": 0.0, "fusion_lon": 0.0, "rental_uris": {"android": "https://dc.lft.to/lastmile_qr_scan", "ios": "https://dc.lft.to/lastmile_qr_scan"}, "is_reserved": 0, "is_disabled": 0, "type": "electric_scooter", "bike_id": "49d16c465c8742301bc1bb3353003241"}, {"lon": -77.01508633333333, "lat": 38.91345166666667, "name": "789f016bf531836ab701ef64c3b26a33", "fusion_lat": 0.0, "fusion_lon": 0.0, "rental_uris": {"android": "https://dc.lft.to/lastmile_qr_scan", "ios": "https://dc.lft.to/lastmile_qr_scan"}, "is_reserved": 0, "is_disabled": 0, "type": "electric_scooter", "bike_id": "789f016bf531836ab701ef64c3b26a33"}, {"lon": -77.02699933333334, "lat": 38.915207333333335, "name": "b861e26abe35f357adac11fd8e2bfef6", "fusion_lat": 0.0, "fusion_lon": 0.0, "rental_uris": {"android": "https://dc.lft.to/lastmile_qr_scan", "ios": "https://dc.lft.to/lastmile_qr_scan"}, "is_reserved": 0, "is_disabled": 0, "type": "electric_scooter", "bike_id": "b861e26abe35f357adac11fd8e2bfef6"}, {"lon": -77.0293995, "lat": 38.9037215, "name": "a24d91d146deee9e36f0918f834edcea", "fusion_lat": 0.0, "fusion_lon": 0.0, "rental_uris": {"android": "https://dc.lft.to/lastmile_qr_scan", "ios": "https://dc.lft.to/lastmile_qr_scan"}, "is_reserved": 0, "is_disabled": 0, "type": "electric_scooter", "bike_id": "a24d91d146deee9e36f0918f834edcea"}, {"lon": -76.95409083333334, "lat": 38.89160566666666, "name": "d7f47de7dbbadb5a826ab5fe5bbe0109", "fusion_lat": 0.0, "fusion_lon": 0.0, "rental_uris": {"android": "https://dc.lft.to/lastmile_qr_scan", "ios": "https://dc.lft.to/lastmile_qr_scan"}, "is_reserved": 0, "is_disabled": 0, "type": "electric_scooter", "bike_id": "d7f47de7dbbadb5a826ab5fe5bbe0109"}, {"lon": -77.0318675, "lat": 38.919153666666666, "name": "1e31f7e1e2d85005a1c73f18410ea5b4", "fusion_lat": 0.0, "fusion_lon": 0.0, "rental_uris": {"android": "https://dc.lft.to/lastmile_qr_scan", "ios": "https://dc.lft.to/lastmile_qr_scan"}, "is_reserved": 0, "is_disabled": 0, "type": "electric_scooter", "bike_id": "1e31f7e1e2d85005a1c73f18410ea5b4"}, {"lon": -77.1076945, "lat": 38.892245833333334, "name": "e08443f6668d1757f5bc74bde8d13286", "fusion_lat": 0.0, "fusion_lon": 0.0, "rental_uris": {"android": "https://dc.lft.to/lastmile_qr_scan", "ios": "https://dc.lft.to/lastmile_qr_scan"}, "is_reserved": 0, "is_disabled": 0, "type": "electric_bike", "bike_id": "e08443f6668d1757f5bc74bde8d13286"}, {"lon": -77.0499775, "lat": 38.9010955, "name": "6e9479510212d34524859acb251529e1", "fusion_lat": 0.0, "fusion_lon": 0.0, "rental_uris": {"android": "https://dc.lft.to/lastmile_qr_scan", "ios": "https://dc.lft.to/lastmile_qr_scan"}, "is_reserved": 0, "is_disabled": 0, "type": "electric_bike", "bike_id": "6e9479510212d34524859acb251529e1"}, {"lon": -76.9165485, "lat": 38.86858683333333, "name": "cea5289fd25bcb7c0f65827d88bc9ec6", "fusion_lat": 0.0, "fusion_lon": 0.0, "rental_uris": {"android": "https://dc.lft.to/lastmile_qr_scan", "ios": "https://dc.lft.to/lastmile_qr_scan"}, "is_reserved": 0, "is_disabled": 0, "type": "electric_bike", "bike_id": "cea5289fd25bcb7c0f65827d88bc9ec6"}, {"lon": -77.02976616666666, "lat": 38.922509166666664, "name": "23f00a96c35deb2528e934991d3d3594", "fusion_lat": 0.0, "fusion_lon": 0.0, "rental_uris": {"android": "https://dc.lft.to/lastmile_qr_scan", "ios": "https://dc.lft.to/lastmile_qr_scan"}, "is_reserved": 0, "is_disabled": 0, "type": "electric_scooter", "bike_id": "23f00a96c35deb2528e934991d3d3594"}, {"lon": -77.01742533333334, "lat": 38.902546, "name": "3fae869e9f9e0357893cf708b795e405", "fusion_lat": 0.0, "fusion_lon": 0.0, "rental_uris": {"android": "https://dc.lft.to/lastmile_qr_scan", "ios": "https://dc.lft.to/lastmile_qr_scan"}, "is_reserved": 0, "is_disabled": 0, "type": "electric_scooter", "bike_id": "3fae869e9f9e0357893cf708b795e405"}, {"lon": -77.043903, "lat": 38.90395983333333, "name": "8aaff3e553600aeab2eae13f96ef32da", "fusion_lat": 0.0, "fusion_lon": 0.0, "rental_uris": {"android": "https://dc.lft.to/lastmile_qr_scan", "ios": "https://dc.lft.to/lastmile_qr_scan"}, "is_reserved": 0, "is_disabled": 0, "type": "electric_scooter", "bike_id": "8aaff3e553600aeab2eae13f96ef32da"}, {"lon": -77.00214133333333, "lat": 38.90223616666667, "name": "9b1b87c3a7a0e5684a08d346584c82ae", "fusion_lat": 0.0, "fusion_lon": 0.0, "rental_uris": {"android": "https://dc.lft.to/lastmile_qr_scan", "ios": "https://dc.lft.to/lastmile_qr_scan"}, "is_reserved": 0, "is_disabled": 0, "type": "electric_scooter", "bike_id": "9b1b87c3a7a0e5684a08d346584c82ae"}, {"lon": -77.01784, "lat": 38.90038283333333, "name": "21c151dcff3be792d8379a9de7bf4439", "fusion_lat": 0.0, "fusion_lon": 0.0, "rental_uris": {"android": "https://dc.lft.to/lastmile_qr_scan", "ios": "https://dc.lft.to/lastmile_qr_scan"}, "is_reserved": 0, "is_disabled": 0, "type": "electric_scooter", "bike_id": "21c151dcff3be792d8379a9de7bf4439"}, {"lon": -77.02697683333334, "lat": 38.91824, "name": "c85d7a006cb6f168cf69681068f2cf23", "fusion_lat": 0.0, "fusion_lon": 0.0, "rental_uris": {"android": "https://dc.lft.to/lastmile_qr_scan", "ios": "https://dc.lft.to/lastmile_qr_scan"}, "is_reserved": 0, "is_disabled": 0, "type": "electric_scooter", "bike_id": "c85d7a006cb6f168cf69681068f2cf23"}, {"lon": -77.02608366666666, "lat": 38.904667833333335, "name": "066b4805dc0a270a185258592ee04302", "fusion_lat": 0.0, "fusion_lon": 0.0, "rental_uris": {"android": "https://dc.lft.to/lastmile_qr_scan", "ios": "https://dc.lft.to/lastmile_qr_scan"}, "is_reserved": 0, "is_disabled": 0, "type": "electric_scooter", "bike_id": "066b4805dc0a270a185258592ee04302"}, {"lon": -76.976258, "lat": 38.89281666666667, "name": "dc0e8d53366c8854116c8e9e4eaf7f76", "fusion_lat": 0.0, "fusion_lon": 0.0, "rental_uris": {"android": "https://dc.lft.to/lastmile_qr_scan", "ios": "https://dc.lft.to/lastmile_qr_scan"}, "is_reserved": 0, "is_disabled": 0, "type": "electric_bike", "bike_id": "dc0e8d53366c8854116c8e9e4eaf7f76"}, {"lon": -76.99860716666667, "lat": 38.9001565, "name": "4407d05856618c0dbb19c1cf91f6838d", "fusion_lat": 0.0, "fusion_lon": 0.0, "rental_uris": {"android": "https://dc.lft.to/lastmile_qr_scan", "ios": "https://dc.lft.to/lastmile_qr_scan"}, "is_reserved": 0, "is_disabled": 0, "type": "electric_scooter", "bike_id": "4407d05856618c0dbb19c1cf91f6838d"}, {"lon": -77.0415175, "lat": 38.919781666666665, "name": "733eb5833e490efb72b360080da9eba8", "fusion_lat": 0.0, "fusion_lon": 0.0, "rental_uris": {"android": "https://dc.lft.to/lastmile_qr_scan", "ios": "https://dc.lft.to/lastmile_qr_scan"}, "is_reserved": 0, "is_disabled": 0, "type": "electric_scooter", "bike_id": "733eb5833e490efb72b360080da9eba8"}, {"lon": -77.00399366666667, "lat": 38.87662483333333, "name": "13e6f3fca2a8e67c4f684dafbb72efb0", "fusion_lat": 0.0, "fusion_lon": 0.0, "rental_uris": {"android": "https://dc.lft.to/lastmile_qr_scan", "ios": "https://dc.lft.to/lastmile_qr_scan"}, "is_reserved": 0, "is_disabled": 0, "type": "electric_scooter", "bike_id": "13e6f3fca2a8e67c4f684dafbb72efb0"}, {"lon": -77.06390583333334, "lat": 38.929106, "name": "ba9c726c487171ecc7bc8e050b20c006", "fusion_lat": 0.0, "fusion_lon": 0.0, "rental_uris": {"android": "https://dc.lft.to/lastmile_qr_scan", "ios": "https://dc.lft.to/lastmile_qr_scan"}, "is_reserved": 0, "is_disabled": 0, "type": "electric_scooter", "bike_id": "ba9c726c487171ecc7bc8e050b20c006"}, {"lon": -77.027715, "lat": 38.891937, "name": "a0fc247fe1644272b80384e6306259a2", "fusion_lat": 0.0, "fusion_lon": 0.0, "rental_uris": {"android": "https://dc.lft.to/lastmile_qr_scan", "ios": "https://dc.lft.to/lastmile_qr_scan"}, "is_reserved": 0, "is_disabled": 0, "type": "electric_scooter", "bike_id": "a0fc247fe1644272b80384e6306259a2"}, {"lon": -77.05293666666667, "lat": 38.898821833333336, "name": "941e9b33dcc1b15ee2cbb2b80e391e92", "fusion_lat": 0.0, "fusion_lon": 0.0, "rental_uris": {"android": "https://dc.lft.to/lastmile_qr_scan", "ios": "https://dc.lft.to/lastmile_qr_scan"}, "is_reserved": 0, "is_disabled": 0, "type": "electric_scooter", "bike_id": "941e9b33dcc1b15ee2cbb2b80e391e92"}, {"lon": -77.03725883333334, "lat": 38.933742, "name": "8940241accb2c8d64fd2e8191c5f9053", "fusion_lat": 0.0, "fusion_lon": 0.0, "rental_uris": {"android": "https://dc.lft.to/lastmile_qr_scan", "ios": "https://dc.lft.to/lastmile_qr_scan"}, "is_reserved": 0, "is_disabled": 0, "type": "electric_scooter", "bike_id": "8940241accb2c8d64fd2e8191c5f9053"}, {"lon": -77.03788166666666, "lat": 38.926258, "name": "8f8edf72f649ec4277c60bd8e48c4970", "fusion_lat": 0.0, "fusion_lon": 0.0, "rental_uris": {"android": "https://dc.lft.to/lastmile_qr_scan", "ios": "https://dc.lft.to/lastmile_qr_scan"}, "is_reserved": 0, "is_disabled": 0, "type": "electric_scooter", "bike_id": "8f8edf72f649ec4277c60bd8e48c4970"}, {"lon": -77.10710816666666, "lat": 38.855572, "name": "85ca6e347fd60e002fe865a7f33ffda9", "fusion_lat": 0.0, "fusion_lon": 0.0, "rental_uris": {"android": "https://dc.lft.to/lastmile_qr_scan", "ios": "https://dc.lft.to/lastmile_qr_scan"}, "is_reserved": 0, "is_disabled": 0, "type": "electric_bike", "bike_id": "85ca6e347fd60e002fe865a7f33ffda9"}, {"lon": -76.94872416666666, "lat": 38.88960516666667, "name": "40111568256831dbc4051d8591427bab", "fusion_lat": 0.0, "fusion_lon": 0.0, "rental_uris": {"android": "https://dc.lft.to/lastmile_qr_scan", "ios": "https://dc.lft.to/lastmile_qr_scan"}, "is_reserved": 0, "is_disabled": 0, "type": "electric_bike", "bike_id": "40111568256831dbc4051d8591427bab"}, {"lon": -76.97749933333333, "lat": 38.90010516666667, "name": "3cffd17ae515b536155083c80d6cfd21", "fusion_lat": 0.0, "fusion_lon": 0.0, "rental_uris": {"android": "https://dc.lft.to/lastmile_qr_scan", "ios": "https://dc.lft.to/lastmile_qr_scan"}, "is_reserved": 0, "is_disabled": 0, "type": "electric_scooter", "bike_id": "3cffd17ae515b536155083c80d6cfd21"}, {"lon": -77.01990483333333, "lat": 38.89941, "name": "f5eb7bb4ea4ebe2dcfc1f226201f1ac9", "fusion_lat": 0.0, "fusion_lon": 0.0, "rental_uris": {"android": "https://dc.lft.to/lastmile_qr_scan", "ios": "https://dc.lft.to/lastmile_qr_scan"}, "is_reserved": 0, "is_disabled": 0, "type": "electric_scooter", "bike_id": "f5eb7bb4ea4ebe2dcfc1f226201f1ac9"}, {"lon": -76.87822883333334, "lat": 38.99233733333333, "name": "9b220921c0874d8f76fbe549d5df13d8", "fusion_lat": 0.0, "fusion_lon": 0.0, "rental_uris": {"android": "https://dc.lft.to/lastmile_qr_scan", "ios": "https://dc.lft.to/lastmile_qr_scan"}, "is_reserved": 0, "is_disabled": 0, "type": "electric_bike", "bike_id": "9b220921c0874d8f76fbe549d5df13d8"}, {"lon": -76.98230233333334, "lat": 38.92504866666667, "name": "28e63cdff80abfc50de726f0bc6a54b4", "fusion_lat": 0.0, "fusion_lon": 0.0, "rental_uris": {"android": "https://dc.lft.to/lastmile_qr_scan", "ios": "https://dc.lft.to/lastmile_qr_scan"}, "is_reserved": 0, "is_disabled": 0, "type": "electric_bike", "bike_id": "28e63cdff80abfc50de726f0bc6a54b4"}, {"lon": -77.055068, "lat": 38.89928483333333, "name": "921555ea394d54aea815276819a65ea1", "fusion_lat": 0.0, "fusion_lon": 0.0, "rental_uris": {"android": "https://dc.lft.to/lastmile_qr_scan", "ios": "https://dc.lft.to/lastmile_qr_scan"}, "is_reserved": 0, "is_disabled": 0, "type": "electric_scooter", "bike_id": "921555ea394d54aea815276819a65ea1"}, {"lon": -76.98175716666667, "lat": 38.900419, "name": "7bf848faa7d9b13131b95d9dc95bef36", "fusion_lat": 0.0, "fusion_lon": 0.0, "rental_uris": {"android": "https://dc.lft.to/lastmile_qr_scan", "ios": "https://dc.lft.to/lastmile_qr_scan"}, "is_reserved": 0, "is_disabled": 0, "type": "electric_scooter", "bike_id": "7bf848faa7d9b13131b95d9dc95bef36"}, {"lon": -77.04300966666666, "lat": 38.90727833333333, "name": "edfe3c945d3f4b5202f581dd3baa0852", "fusion_lat": 0.0, "fusion_lon": 0.0, "rental_uris": {"android": "https://dc.lft.to/lastmile_qr_scan", "ios": "https://dc.lft.to/lastmile_qr_scan"}, "is_reserved": 0, "is_disabled": 0, "type": "electric_scooter", "bike_id": "edfe3c945d3f4b5202f581dd3baa0852"}, {"lon": -77.02923283333334, "lat": 38.93061816666667, "name": "05e2a3e5242aafc244af6ce95ffa16da", "fusion_lat": 0.0, "fusion_lon": 0.0, "rental_uris": {"android": "https://dc.lft.to/lastmile_qr_scan", "ios": "https://dc.lft.to/lastmile_qr_scan"}, "is_reserved": 0, "is_disabled": 0, "type": "electric_scooter", "bike_id": "05e2a3e5242aafc244af6ce95ffa16da"}, {"lon": -77.0321985, "lat": 38.91999083333333, "name": "6b5ecf536308f112b2e98d38481b3400", "fusion_lat": 0.0, "fusion_lon": 0.0, "rental_uris": {"android": "https://dc.lft.to/lastmile_qr_scan", "ios": "https://dc.lft.to/lastmile_qr_scan"}, "is_reserved": 0, "is_disabled": 0, "type": "electric_scooter", "bike_id": "6b5ecf536308f112b2e98d38481b3400"}, {"lon": -77.03659583333334, "lat": 38.922805333333336, "name": "00ed2044b62d88d7909410c8fded4917", "fusion_lat": 0.0, "fusion_lon": 0.0, "rental_uris": {"android": "https://dc.lft.to/lastmile_qr_scan", "ios": "https://dc.lft.to/lastmile_qr_scan"}, "is_reserved": 0, "is_disabled": 0, "type": "electric_scooter", "bike_id": "00ed2044b62d88d7909410c8fded4917"}, {"lon": -77.034141, "lat": 38.929504333333334, "name": "80a5bef39c69fa80394804978ab05f88", "fusion_lat": 0.0, "fusion_lon": 0.0, "rental_uris": {"android": "https://dc.lft.to/lastmile_qr_scan", "ios": "https://dc.lft.to/lastmile_qr_scan"}, "is_reserved": 0, "is_disabled": 0, "type": "electric_scooter", "bike_id": "80a5bef39c69fa80394804978ab05f88"}, {"lon": -77.03843033333334, "lat": 38.91190266666667, "name": "de249a6827c7bf4f64125c94a05e187d", "fusion_lat": 0.0, "fusion_lon": 0.0, "rental_uris": {"android": "https://dc.lft.to/lastmile_qr_scan", "ios": "https://dc.lft.to/lastmile_qr_scan"}, "is_reserved": 0, "is_disabled": 0, "type": "electric_scooter", "bike_id": "de249a6827c7bf4f64125c94a05e187d"}, {"lon": -77.0296805, "lat": 38.9226715, "name": "2e5a2fe5cb51b8e5ea9a0c8efd09a9d2", "fusion_lat": 0.0, "fusion_lon": 0.0, "rental_uris": {"android": "https://dc.lft.to/lastmile_qr_scan", "ios": "https://dc.lft.to/lastmile_qr_scan"}, "is_reserved": 0, "is_disabled": 0, "type": "electric_scooter", "bike_id": "2e5a2fe5cb51b8e5ea9a0c8efd09a9d2"}, {"lon": -77.04452866666666, "lat": 38.90081283333333, "name": "c0c625066dcbe93a8ae6590a3f1d9339", "fusion_lat": 0.0, "fusion_lon": 0.0, "rental_uris": {"android": "https://dc.lft.to/lastmile_qr_scan", "ios": "https://dc.lft.to/lastmile_qr_scan"}, "is_reserved": 0, "is_disabled": 0, "type": "electric_scooter", "bike_id": "c0c625066dcbe93a8ae6590a3f1d9339"}, {"lon": -77.03671683333333, "lat": 38.9084545, "name": "cec50062796474a947dbe40bcdf9de99", "fusion_lat": 0.0, "fusion_lon": 0.0, "rental_uris": {"android": "https://dc.lft.to/lastmile_qr_scan", "ios": "https://dc.lft.to/lastmile_qr_scan"}, "is_reserved": 0, "is_disabled": 0, "type": "electric_scooter", "bike_id": "cec50062796474a947dbe40bcdf9de99"}, {"lon": -76.99867983333333, "lat": 38.90022366666667, "name": "e8d0481555a1a3d18aefc997f59c6ca7", "fusion_lat": 0.0, "fusion_lon": 0.0, "rental_uris": {"android": "https://dc.lft.to/lastmile_qr_scan", "ios": "https://dc.lft.to/lastmile_qr_scan"}, "is_reserved": 0, "is_disabled": 0, "type": "electric_scooter", "bike_id": "e8d0481555a1a3d18aefc997f59c6ca7"}, {"lon": -76.936652, "lat": 38.88026216666667, "name": "b11fda4f6aa00d8467b02eb5839b522a", "fusion_lat": 0.0, "fusion_lon": 0.0, "rental_uris": {"android": "https://dc.lft.to/lastmile_qr_scan", "ios": "https://dc.lft.to/lastmile_qr_scan"}, "is_reserved": 0, "is_disabled": 0, "type": "electric_scooter", "bike_id": "b11fda4f6aa00d8467b02eb5839b522a"}, {"lon": -77.0467635, "lat": 38.91566816666667, "name": "ea6609bb617009f0f46eba55431df553", "fusion_lat": 0.0, "fusion_lon": 0.0, "rental_uris": {"android": "https://dc.lft.to/lastmile_qr_scan", "ios": "https://dc.lft.to/lastmile_qr_scan"}, "is_reserved": 0, "is_disabled": 0, "type": "electric_scooter", "bike_id": "ea6609bb617009f0f46eba55431df553"}, {"lon": -77.03066683333333, "lat": 38.88045183333333, "name": "81e563cddcea04fa61961ba5eaab38b0", "fusion_lat": 0.0, "fusion_lon": 0.0, "rental_uris": {"android": "https://dc.lft.to/lastmile_qr_scan", "ios": "https://dc.lft.to/lastmile_qr_scan"}, "is_reserved": 0, "is_disabled": 0, "type": "electric_scooter", "bike_id": "81e563cddcea04fa61961ba5eaab38b0"}, {"lon": -77.1317985, "lat": 38.869089833333334, "name": "7ba122f00cef9af7a8b92c0408373d90", "fusion_lat": 0.0, "fusion_lon": 0.0, "rental_uris": {"android": "https://dc.lft.to/lastmile_qr_scan", "ios": "https://dc.lft.to/lastmile_qr_scan"}, "is_reserved": 0, "is_disabled": 0, "type": "electric_bike", "bike_id": "7ba122f00cef9af7a8b92c0408373d90"}, {"lon": -77.03803166666667, "lat": 38.996730166666666, "name": "2f3549e5b498ae4b8f0a26ed71a6c9e9", "fusion_lat": 0.0, "fusion_lon": 0.0, "rental_uris": {"android": "https://dc.lft.to/lastmile_qr_scan", "ios": "https://dc.lft.to/lastmile_qr_scan"}, "is_reserved": 0, "is_disabled": 0, "type": "electric_bike", "bike_id": "2f3549e5b498ae4b8f0a26ed71a6c9e9"}, {"lon": -77.01926, "lat": 38.916599, "name": "af5d24e11528a60a10f05585623681d2", "fusion_lat": 0.0, "fusion_lon": 0.0, "rental_uris": {"android": "https://dc.lft.to/lastmile_qr_scan", "ios": "https://dc.lft.to/lastmile_qr_scan"}, "is_reserved": 0, "is_disabled": 0, "type": "electric_scooter", "bike_id": "af5d24e11528a60a10f05585623681d2"}, {"lon": -77.0281965, "lat": 38.88508733333333, "name": "5143929bb0646490a62cbe8f52b84822", "fusion_lat": 0.0, "fusion_lon": 0.0, "rental_uris": {"android": "https://dc.lft.to/lastmile_qr_scan", "ios": "https://dc.lft.to/lastmile_qr_scan"}, "is_reserved": 0, "is_disabled": 0, "type": "electric_scooter", "bike_id": "5143929bb0646490a62cbe8f52b84822"}, {"lon": -77.02411133333334, "lat": 38.90960233333333, "name": "16177a5dace35a1b4563e34f76ef9b52", "fusion_lat": 0.0, "fusion_lon": 0.0, "rental_uris": {"android": "https://dc.lft.to/lastmile_qr_scan", "ios": "https://dc.lft.to/lastmile_qr_scan"}, "is_reserved": 0, "is_disabled": 0, "type": "electric_scooter", "bike_id": "16177a5dace35a1b4563e34f76ef9b52"}, {"lon": -77.027087, "lat": 38.89976083333333, "name": "6f7d8d26a0b05e45c69537556ed8405d", "fusion_lat": 0.0, "fusion_lon": 0.0, "rental_uris": {"android": "https://dc.lft.to/lastmile_qr_scan", "ios": "https://dc.lft.to/lastmile_qr_scan"}, "is_reserved": 0, "is_disabled": 0, "type": "electric_scooter", "bike_id": "6f7d8d26a0b05e45c69537556ed8405d"}, {"lon": -77.0224965, "lat": 38.92487416666667, "name": "0c94122a43ad9b60ce75b360b2359f60", "fusion_lat": 0.0, "fusion_lon": 0.0, "rental_uris": {"android": "https://dc.lft.to/lastmile_qr_scan", "ios": "https://dc.lft.to/lastmile_qr_scan"}, "is_reserved": 0, "is_disabled": 0, "type": "electric_scooter", "bike_id": "0c94122a43ad9b60ce75b360b2359f60"}, {"lon": -77.01387016666666, "lat": 38.928600833333334, "name": "867dd8237b3485c4d958b42d67b04760", "fusion_lat": 0.0, "fusion_lon": 0.0, "rental_uris": {"android": "https://dc.lft.to/lastmile_qr_scan", "ios": "https://dc.lft.to/lastmile_qr_scan"}, "is_reserved": 0, "is_disabled": 0, "type": "electric_scooter", "bike_id": "867dd8237b3485c4d958b42d67b04760"}, {"lon": -77.03503066666667, "lat": 38.921501166666665, "name": "d119d6d445a738d4ef04f8edefd4ad09", "fusion_lat": 0.0, "fusion_lon": 0.0, "rental_uris": {"android": "https://dc.lft.to/lastmile_qr_scan", "ios": "https://dc.lft.to/lastmile_qr_scan"}, "is_reserved": 0, "is_disabled": 0, "type": "electric_scooter", "bike_id": "d119d6d445a738d4ef04f8edefd4ad09"}, {"lon": -77.014492, "lat": 38.91201016666667, "name": "10bf2f187282346e80152543ab5da4bc", "fusion_lat": 0.0, "fusion_lon": 0.0, "rental_uris": {"android": "https://dc.lft.to/lastmile_qr_scan", "ios": "https://dc.lft.to/lastmile_qr_scan"}, "is_reserved": 0, "is_disabled": 0, "type": "electric_scooter", "bike_id": "10bf2f187282346e80152543ab5da4bc"}, {"lon": -77.03416733333333, "lat": 38.90246033333333, "name": "6bdbc93e302ba5e33b767dac5d25be91", "fusion_lat": 0.0, "fusion_lon": 0.0, "rental_uris": {"android": "https://dc.lft.to/lastmile_qr_scan", "ios": "https://dc.lft.to/lastmile_qr_scan"}, "is_reserved": 0, "is_disabled": 0, "type": "electric_scooter", "bike_id": "6bdbc93e302ba5e33b767dac5d25be91"}, {"lon": -77.03757283333333, "lat": 38.90864166666667, "name": "93099c56b5db5bdae099076169f34050", "fusion_lat": 0.0, "fusion_lon": 0.0, "rental_uris": {"android": "https://dc.lft.to/lastmile_qr_scan", "ios": "https://dc.lft.to/lastmile_qr_scan"}, "is_reserved": 0, "is_disabled": 0, "type": "electric_scooter", "bike_id": "93099c56b5db5bdae099076169f34050"}, {"lon": -77.01769366666667, "lat": 38.90257583333333, "name": "af353bab54755b2e9fd72d0522ff4b3e", "fusion_lat": 0.0, "fusion_lon": 0.0, "rental_uris": {"android": "https://dc.lft.to/lastmile_qr_scan", "ios": "https://dc.lft.to/lastmile_qr_scan"}, "is_reserved": 0, "is_disabled": 0, "type": "electric_scooter", "bike_id": "af353bab54755b2e9fd72d0522ff4b3e"}, {"lon": -76.96519066666667, "lat": 38.87480333333333, "name": "47ccd73f517e3bda27c39afc4dcb56bc", "fusion_lat": 0.0, "fusion_lon": 0.0, "rental_uris": {"android": "https://dc.lft.to/lastmile_qr_scan", "ios": "https://dc.lft.to/lastmile_qr_scan"}, "is_reserved": 0, "is_disabled": 0, "type": "electric_scooter", "bike_id": "47ccd73f517e3bda27c39afc4dcb56bc"}, {"lon": -77.027106, "lat": 38.949997833333335, "name": "a4c0d0df8f9301e24c85196cf47ccaa2", "fusion_lat": 0.0, "fusion_lon": 0.0, "rental_uris": {"android": "https://dc.lft.to/lastmile_qr_scan", "ios": "https://dc.lft.to/lastmile_qr_scan"}, "is_reserved": 0, "is_disabled": 0, "type": "electric_scooter", "bike_id": "a4c0d0df8f9301e24c85196cf47ccaa2"}, {"lon": -77.03276266666667, "lat": 38.93339783333333, "name": "03999fd7d3a8c51903ba163522f4ccfb", "fusion_lat": 0.0, "fusion_lon": 0.0, "rental_uris": {"android": "https://dc.lft.to/lastmile_qr_scan", "ios": "https://dc.lft.to/lastmile_qr_scan"}, "is_reserved": 0, "is_disabled": 0, "type": "electric_scooter", "bike_id": "03999fd7d3a8c51903ba163522f4ccfb"}, {"lon": -77.01245966666667, "lat": 38.908674500000004, "name": "efb0f22b4eacbe30cc6b410d6b8292b5", "fusion_lat": 0.0, "fusion_lon": 0.0, "rental_uris": {"android": "https://dc.lft.to/lastmile_qr_scan", "ios": "https://dc.lft.to/lastmile_qr_scan"}, "is_reserved": 0, "is_disabled": 0, "type": "electric_scooter", "bike_id": "efb0f22b4eacbe30cc6b410d6b8292b5"}, {"lon": -77.0180915, "lat": 38.914324666666666, "name": "be658497d72efe234df78d7be4f7e1ff", "fusion_lat": 0.0, "fusion_lon": 0.0, "rental_uris": {"android": "https://dc.lft.to/lastmile_qr_scan", "ios": "https://dc.lft.to/lastmile_qr_scan"}, "is_reserved": 0, "is_disabled": 0, "type": "electric_scooter", "bike_id": "be658497d72efe234df78d7be4f7e1ff"}, {"lon": -77.0430755, "lat": 38.923343833333334, "name": "11d7a4162b0ba5a0c8ece266fab996be", "fusion_lat": 0.0, "fusion_lon": 0.0, "rental_uris": {"android": "https://dc.lft.to/lastmile_qr_scan", "ios": "https://dc.lft.to/lastmile_qr_scan"}, "is_reserved": 0, "is_disabled": 0, "type": "electric_scooter", "bike_id": "11d7a4162b0ba5a0c8ece266fab996be"}, {"lon": -76.98840366666667, "lat": 38.89956766666667, "name": "9ae639e4db75fbc4045bdc4b6bb0fc62", "fusion_lat": 0.0, "fusion_lon": 0.0, "rental_uris": {"android": "https://dc.lft.to/lastmile_qr_scan", "ios": "https://dc.lft.to/lastmile_qr_scan"}, "is_reserved": 0, "is_disabled": 0, "type": "electric_scooter", "bike_id": "9ae639e4db75fbc4045bdc4b6bb0fc62"}, {"lon": -77.02710733333333, "lat": 38.950027, "name": "b7b0318ee6f4a85885490ca8709096c5", "fusion_lat": 0.0, "fusion_lon": 0.0, "rental_uris": {"android": "https://dc.lft.to/lastmile_qr_scan", "ios": "https://dc.lft.to/lastmile_qr_scan"}, "is_reserved": 0, "is_disabled": 0, "type": "electric_scooter", "bike_id": "b7b0318ee6f4a85885490ca8709096c5"}, {"lon": -77.03295833333334, "lat": 38.956479333333334, "name": "f73200d63f793d969a55bc967a8a2444", "fusion_lat": 0.0, "fusion_lon": 0.0, "rental_uris": {"android": "https://dc.lft.to/lastmile_qr_scan", "ios": "https://dc.lft.to/lastmile_qr_scan"}, "is_reserved": 0, "is_disabled": 0, "type": "electric_scooter", "bike_id": "f73200d63f793d969a55bc967a8a2444"}, {"lon": -76.99378783333333, "lat": 38.900503, "name": "699c4c9d3a9135f1e37a2ffd3dd17caf", "fusion_lat": 0.0, "fusion_lon": 0.0, "rental_uris": {"android": "https://dc.lft.to/lastmile_qr_scan", "ios": "https://dc.lft.to/lastmile_qr_scan"}, "is_reserved": 0, "is_disabled": 0, "type": "electric_scooter", "bike_id": "699c4c9d3a9135f1e37a2ffd3dd17caf"}, {"lon": -77.08938266666667, "lat": 38.84101483333333, "name": "42784febf6db0370bf125460b40dfaf1", "fusion_lat": 0.0, "fusion_lon": 0.0, "rental_uris": {"android": "https://dc.lft.to/lastmile_qr_scan", "ios": "https://dc.lft.to/lastmile_qr_scan"}, "is_reserved": 0, "is_disabled": 0, "type": "electric_bike", "bike_id": "42784febf6db0370bf125460b40dfaf1"}, {"lon": -77.02986633333333, "lat": 38.956291, "name": "bf2c0b26c410668a45d55e2bbbbfc99c", "fusion_lat": 0.0, "fusion_lon": 0.0, "rental_uris": {"android": "https://dc.lft.to/lastmile_qr_scan", "ios": "https://dc.lft.to/lastmile_qr_scan"}, "is_reserved": 0, "is_disabled": 0, "type": "electric_scooter", "bike_id": "bf2c0b26c410668a45d55e2bbbbfc99c"}, {"lon": -77.038403, "lat": 38.904743333333336, "name": "3b2744d76d149b63df6463c9052902f7", "fusion_lat": 0.0, "fusion_lon": 0.0, "rental_uris": {"android": "https://dc.lft.to/lastmile_qr_scan", "ios": "https://dc.lft.to/lastmile_qr_scan"}, "is_reserved": 0, "is_disabled": 0, "type": "electric_scooter", "bike_id": "3b2744d76d149b63df6463c9052902f7"}, {"lon": -77.03870983333333, "lat": 38.9324465, "name": "8571fbfc6c5989ec7d8798a604f8fa73", "fusion_lat": 0.0, "fusion_lon": 0.0, "rental_uris": {"android": "https://dc.lft.to/lastmile_qr_scan", "ios": "https://dc.lft.to/lastmile_qr_scan"}, "is_reserved": 0, "is_disabled": 0, "type": "electric_scooter", "bike_id": "8571fbfc6c5989ec7d8798a604f8fa73"}, {"lon": -77.01922483333334, "lat": 38.917276666666666, "name": "03127c707bb31b20422bb570c587ad29", "fusion_lat": 0.0, "fusion_lon": 0.0, "rental_uris": {"android": "https://dc.lft.to/lastmile_qr_scan", "ios": "https://dc.lft.to/lastmile_qr_scan"}, "is_reserved": 0, "is_disabled": 0, "type": "electric_scooter", "bike_id": "03127c707bb31b20422bb570c587ad29"}, {"lon": -77.0406945, "lat": 38.81233, "name": "5c80c73f64f43291d268a53feb5141f2", "fusion_lat": 0.0, "fusion_lon": 0.0, "rental_uris": {"android": "https://dc.lft.to/lastmile_qr_scan", "ios": "https://dc.lft.to/lastmile_qr_scan"}, "is_reserved": 0, "is_disabled": 0, "type": "electric_bike", "bike_id": "5c80c73f64f43291d268a53feb5141f2"}, {"lon": -77.022523, "lat": 38.92499883333333, "name": "08f6dcdbc319ba8f2308404cafdd1214", "fusion_lat": 0.0, "fusion_lon": 0.0, "rental_uris": {"android": "https://dc.lft.to/lastmile_qr_scan", "ios": "https://dc.lft.to/lastmile_qr_scan"}, "is_reserved": 0, "is_disabled": 0, "type": "electric_scooter", "bike_id": "08f6dcdbc319ba8f2308404cafdd1214"}, {"lon": -77.03278, "lat": 38.936861666666665, "name": "20a047f102a4c0baf6c9d49f7e8b9422", "fusion_lat": 0.0, "fusion_lon": 0.0, "rental_uris": {"android": "https://dc.lft.to/lastmile_qr_scan", "ios": "https://dc.lft.to/lastmile_qr_scan"}, "is_reserved": 0, "is_disabled": 0, "type": "electric_scooter", "bike_id": "20a047f102a4c0baf6c9d49f7e8b9422"}, {"lon": -76.998285, "lat": 38.885327, "name": "93122664c067a326d81aaf5bafd90055", "fusion_lat": 0.0, "fusion_lon": 0.0, "rental_uris": {"android": "https://dc.lft.to/lastmile_qr_scan", "ios": "https://dc.lft.to/lastmile_qr_scan"}, "is_reserved": 0, "is_disabled": 0, "type": "electric_scooter", "bike_id": "93122664c067a326d81aaf5bafd90055"}, {"lon": -76.93199433333334, "lat": 38.8723195, "name": "c4ba07ad5cf140b4f3c1a22948ae3569", "fusion_lat": 0.0, "fusion_lon": 0.0, "rental_uris": {"android": "https://dc.lft.to/lastmile_qr_scan", "ios": "https://dc.lft.to/lastmile_qr_scan"}, "is_reserved": 0, "is_disabled": 0, "type": "electric_bike", "bike_id": "c4ba07ad5cf140b4f3c1a22948ae3569"}, {"lon": -77.03193133333333, "lat": 38.8998345, "name": "e8bfae93c076d9fed6947a23cd6dae40", "fusion_lat": 0.0, "fusion_lon": 0.0, "rental_uris": {"android": "https://dc.lft.to/lastmile_qr_scan", "ios": "https://dc.lft.to/lastmile_qr_scan"}, "is_reserved": 0, "is_disabled": 0, "type": "electric_scooter", "bike_id": "e8bfae93c076d9fed6947a23cd6dae40"}, {"lon": -77.02806933333333, "lat": 38.92356, "name": "ac62ed7b45c3ffb96462cdccf7880cb3", "fusion_lat": 0.0, "fusion_lon": 0.0, "rental_uris": {"android": "https://dc.lft.to/lastmile_qr_scan", "ios": "https://dc.lft.to/lastmile_qr_scan"}, "is_reserved": 0, "is_disabled": 0, "type": "electric_scooter", "bike_id": "ac62ed7b45c3ffb96462cdccf7880cb3"}, {"lon": -77.0198405, "lat": 38.902289833333334, "name": "8433be405f289aaea5f9cb8c05690fc9", "fusion_lat": 0.0, "fusion_lon": 0.0, "rental_uris": {"android": "https://dc.lft.to/lastmile_qr_scan", "ios": "https://dc.lft.to/lastmile_qr_scan"}, "is_reserved": 0, "is_disabled": 0, "type": "electric_scooter", "bike_id": "8433be405f289aaea5f9cb8c05690fc9"}, {"lon": -77.0416475, "lat": 38.916519, "name": "409b51e7bffa1bb3383a4b70610bce92", "fusion_lat": 0.0, "fusion_lon": 0.0, "rental_uris": {"android": "https://dc.lft.to/lastmile_qr_scan", "ios": "https://dc.lft.to/lastmile_qr_scan"}, "is_reserved": 0, "is_disabled": 0, "type": "electric_scooter", "bike_id": "409b51e7bffa1bb3383a4b70610bce92"}, {"lon": -77.03627433333334, "lat": 38.9179225, "name": "b392eaa6345fbd0d5eecfe556937b4a6", "fusion_lat": 0.0, "fusion_lon": 0.0, "rental_uris": {"android": "https://dc.lft.to/lastmile_qr_scan", "ios": "https://dc.lft.to/lastmile_qr_scan"}, "is_reserved": 0, "is_disabled": 0, "type": "electric_scooter", "bike_id": "b392eaa6345fbd0d5eecfe556937b4a6"}, {"lon": -77.04515283333333, "lat": 38.892204166666666, "name": "af6cb1a6d4229b8f6a9e0fce879294dc", "fusion_lat": 0.0, "fusion_lon": 0.0, "rental_uris": {"android": "https://dc.lft.to/lastmile_qr_scan", "ios": "https://dc.lft.to/lastmile_qr_scan"}, "is_reserved": 0, "is_disabled": 0, "type": "electric_scooter", "bike_id": "af6cb1a6d4229b8f6a9e0fce879294dc"}, {"lon": -76.98310283333333, "lat": 38.8688885, "name": "92608ae5c95b19fac63a20a9e1ad400b", "fusion_lat": 0.0, "fusion_lon": 0.0, "rental_uris": {"android": "https://dc.lft.to/lastmile_qr_scan", "ios": "https://dc.lft.to/lastmile_qr_scan"}, "is_reserved": 0, "is_disabled": 0, "type": "electric_scooter", "bike_id": "92608ae5c95b19fac63a20a9e1ad400b"}, {"lon": -77.02467566666667, "lat": 38.93849516666667, "name": "452bd9de8426df756ff49701ea38d7a9", "fusion_lat": 0.0, "fusion_lon": 0.0, "rental_uris": {"android": "https://dc.lft.to/lastmile_qr_scan", "ios": "https://dc.lft.to/lastmile_qr_scan"}, "is_reserved": 0, "is_disabled": 0, "type": "electric_scooter", "bike_id": "452bd9de8426df756ff49701ea38d7a9"}, {"lon": -77.038508, "lat": 38.93248833333333, "name": "bd2eab99c26db5d0f187ed80425cca29", "fusion_lat": 0.0, "fusion_lon": 0.0, "rental_uris": {"android": "https://dc.lft.to/lastmile_qr_scan", "ios": "https://dc.lft.to/lastmile_qr_scan"}, "is_reserved": 0, "is_disabled": 0, "type": "electric_scooter", "bike_id": "bd2eab99c26db5d0f187ed80425cca29"}, {"lon": -77.02835016666667, "lat": 38.887682166666664, "name": "41f0789d70020f9487b89cd3c3768782", "fusion_lat": 0.0, "fusion_lon": 0.0, "rental_uris": {"android": "https://dc.lft.to/lastmile_qr_scan", "ios": "https://dc.lft.to/lastmile_qr_scan"}, "is_reserved": 0, "is_disabled": 0, "type": "electric_scooter", "bike_id": "41f0789d70020f9487b89cd3c3768782"}, {"lon": -77.03179966666667, "lat": 38.89728066666667, "name": "67a83af5a63b402825ee38729e620fed", "fusion_lat": 0.0, "fusion_lon": 0.0, "rental_uris": {"android": "https://dc.lft.to/lastmile_qr_scan", "ios": "https://dc.lft.to/lastmile_qr_scan"}, "is_reserved": 0, "is_disabled": 0, "type": "electric_scooter", "bike_id": "67a83af5a63b402825ee38729e620fed"}, {"lon": -77.0627035, "lat": 38.90594, "name": "f0d338cfaf070bfefb17346e6faccd12", "fusion_lat": 0.0, "fusion_lon": 0.0, "rental_uris": {"android": "https://dc.lft.to/lastmile_qr_scan", "ios": "https://dc.lft.to/lastmile_qr_scan"}, "is_reserved": 0, "is_disabled": 0, "type": "electric_scooter", "bike_id": "f0d338cfaf070bfefb17346e6faccd12"}, {"lon": -77.00721383333334, "lat": 38.876923, "name": "5ac3fcbc6988a2724536a51679744314", "fusion_lat": 0.0, "fusion_lon": 0.0, "rental_uris": {"android": "https://dc.lft.to/lastmile_qr_scan", "ios": "https://dc.lft.to/lastmile_qr_scan"}, "is_reserved": 0, "is_disabled": 0, "type": "electric_scooter", "bike_id": "5ac3fcbc6988a2724536a51679744314"}, {"lon": -77.03409583333334, "lat": 38.91924016666667, "name": "96ec3cecc187fc4f412db591dbdb8217", "fusion_lat": 0.0, "fusion_lon": 0.0, "rental_uris": {"android": "https://dc.lft.to/lastmile_qr_scan", "ios": "https://dc.lft.to/lastmile_qr_scan"}, "is_reserved": 0, "is_disabled": 0, "type": "electric_scooter", "bike_id": "96ec3cecc187fc4f412db591dbdb8217"}, {"lon": -76.99918583333333, "lat": 38.9094585, "name": "693baf9909228c9014934ae3a7240bf5", "fusion_lat": 0.0, "fusion_lon": 0.0, "rental_uris": {"android": "https://dc.lft.to/lastmile_qr_scan", "ios": "https://dc.lft.to/lastmile_qr_scan"}, "is_reserved": 0, "is_disabled": 0, "type": "electric_scooter", "bike_id": "693baf9909228c9014934ae3a7240bf5"}, {"lon": -77.0382015, "lat": 38.93125766666667, "name": "1633a5d0c1907fc695d85b4f3d759134", "fusion_lat": 0.0, "fusion_lon": 0.0, "rental_uris": {"android": "https://dc.lft.to/lastmile_qr_scan", "ios": "https://dc.lft.to/lastmile_qr_scan"}, "is_reserved": 0, "is_disabled": 0, "type": "electric_scooter", "bike_id": "1633a5d0c1907fc695d85b4f3d759134"}, {"lon": -77.017672, "lat": 38.912643, "name": "46a50e55e0a9eba48e4721aa92da87be", "fusion_lat": 0.0, "fusion_lon": 0.0, "rental_uris": {"android": "https://dc.lft.to/lastmile_qr_scan", "ios": "https://dc.lft.to/lastmile_qr_scan"}, "is_reserved": 0, "is_disabled": 0, "type": "electric_scooter", "bike_id": "46a50e55e0a9eba48e4721aa92da87be"}, {"lon": -77.13092716666667, "lat": 38.86164466666666, "name": "658aefab012c5dac8189d92e4f6eb6cd", "fusion_lat": 0.0, "fusion_lon": 0.0, "rental_uris": {"android": "https://dc.lft.to/lastmile_qr_scan", "ios": "https://dc.lft.to/lastmile_qr_scan"}, "is_reserved": 0, "is_disabled": 0, "type": "electric_bike", "bike_id": "658aefab012c5dac8189d92e4f6eb6cd"}, {"lon": -77.0230105, "lat": 38.91836716666667, "name": "d1cc1c680c5d5afe627ac02fbb5e3fb4", "fusion_lat": 0.0, "fusion_lon": 0.0, "rental_uris": {"android": "https://dc.lft.to/lastmile_qr_scan", "ios": "https://dc.lft.to/lastmile_qr_scan"}, "is_reserved": 0, "is_disabled": 0, "type": "electric_scooter", "bike_id": "d1cc1c680c5d5afe627ac02fbb5e3fb4"}, {"lon": -77.04096616666666, "lat": 38.918425, "name": "902efc102e164c9edff00993dee356d1", "fusion_lat": 0.0, "fusion_lon": 0.0, "rental_uris": {"android": "https://dc.lft.to/lastmile_qr_scan", "ios": "https://dc.lft.to/lastmile_qr_scan"}, "is_reserved": 0, "is_disabled": 0, "type": "electric_scooter", "bike_id": "902efc102e164c9edff00993dee356d1"}, {"lon": -76.98345333333333, "lat": 38.9152795, "name": "013ffa167c4d0871f86efe200a908ed4", "fusion_lat": 0.0, "fusion_lon": 0.0, "rental_uris": {"android": "https://dc.lft.to/lastmile_qr_scan", "ios": "https://dc.lft.to/lastmile_qr_scan"}, "is_reserved": 0, "is_disabled": 0, "type": "electric_scooter", "bike_id": "013ffa167c4d0871f86efe200a908ed4"}, {"lon": -77.02121033333333, "lat": 38.92396433333333, "name": "cf5dcc84902d0468851a43b636dbae88", "fusion_lat": 0.0, "fusion_lon": 0.0, "rental_uris": {"android": "https://dc.lft.to/lastmile_qr_scan", "ios": "https://dc.lft.to/lastmile_qr_scan"}, "is_reserved": 0, "is_disabled": 0, "type": "electric_scooter", "bike_id": "cf5dcc84902d0468851a43b636dbae88"}, {"lon": -77.03319666666667, "lat": 38.89875983333334, "name": "0be25af8dbd6d5842b46382de7334c09", "fusion_lat": 0.0, "fusion_lon": 0.0, "rental_uris": {"android": "https://dc.lft.to/lastmile_qr_scan", "ios": "https://dc.lft.to/lastmile_qr_scan"}, "is_reserved": 0, "is_disabled": 0, "type": "electric_scooter", "bike_id": "0be25af8dbd6d5842b46382de7334c09"}, {"lon": -77.0513155, "lat": 38.906280833333334, "name": "b5f679abc154585d89f37010e78018f7", "fusion_lat": 0.0, "fusion_lon": 0.0, "rental_uris": {"android": "https://dc.lft.to/lastmile_qr_scan", "ios": "https://dc.lft.to/lastmile_qr_scan"}, "is_reserved": 0, "is_disabled": 0, "type": "electric_scooter", "bike_id": "b5f679abc154585d89f37010e78018f7"}, {"lon": -77.00288916666666, "lat": 38.909015833333335, "name": "54a766a64c929a5210736a553ef62282", "fusion_lat": 0.0, "fusion_lon": 0.0, "rental_uris": {"android": "https://dc.lft.to/lastmile_qr_scan", "ios": "https://dc.lft.to/lastmile_qr_scan"}, "is_reserved": 0, "is_disabled": 0, "type": "electric_scooter", "bike_id": "54a766a64c929a5210736a553ef62282"}, {"lon": -77.024059, "lat": 38.919062333333336, "name": "758b67e235e33b9eed53dae08e2022d6", "fusion_lat": 0.0, "fusion_lon": 0.0, "rental_uris": {"android": "https://dc.lft.to/lastmile_qr_scan", "ios": "https://dc.lft.to/lastmile_qr_scan"}, "is_reserved": 0, "is_disabled": 0, "type": "electric_scooter", "bike_id": "758b67e235e33b9eed53dae08e2022d6"}, {"lon": -76.933522, "lat": 38.8990485, "name": "bdf08afd6413d9073ec655a846b03f23", "fusion_lat": 0.0, "fusion_lon": 0.0, "rental_uris": {"android": "https://dc.lft.to/lastmile_qr_scan", "ios": "https://dc.lft.to/lastmile_qr_scan"}, "is_reserved": 0, "is_disabled": 0, "type": "electric_scooter", "bike_id": "bdf08afd6413d9073ec655a846b03f23"}, {"lon": -77.06025033333333, "lat": 38.939435833333334, "name": "10964f2489b4a633198df27295a8abee", "fusion_lat": 0.0, "fusion_lon": 0.0, "rental_uris": {"android": "https://dc.lft.to/lastmile_qr_scan", "ios": "https://dc.lft.to/lastmile_qr_scan"}, "is_reserved": 0, "is_disabled": 0, "type": "electric_scooter", "bike_id": "10964f2489b4a633198df27295a8abee"}, {"lon": -77.02175283333334, "lat": 38.909794833333336, "name": "cb06524751dc596b7965d28cd2b06fbd", "fusion_lat": 0.0, "fusion_lon": 0.0, "rental_uris": {"android": "https://dc.lft.to/lastmile_qr_scan", "ios": "https://dc.lft.to/lastmile_qr_scan"}, "is_reserved": 0, "is_disabled": 0, "type": "electric_scooter", "bike_id": "cb06524751dc596b7965d28cd2b06fbd"}, {"lon": -77.02828566666666, "lat": 38.892258166666664, "name": "1ce0a7e97ad05c3a63c44d018a4f7a08", "fusion_lat": 0.0, "fusion_lon": 0.0, "rental_uris": {"android": "https://dc.lft.to/lastmile_qr_scan", "ios": "https://dc.lft.to/lastmile_qr_scan"}, "is_reserved": 0, "is_disabled": 0, "type": "electric_scooter", "bike_id": "1ce0a7e97ad05c3a63c44d018a4f7a08"}, {"lon": -76.98041266666667, "lat": 38.8896635, "name": "26eef6d6b92b9537d20551c52d9591b2", "fusion_lat": 0.0, "fusion_lon": 0.0, "rental_uris": {"android": "https://dc.lft.to/lastmile_qr_scan", "ios": "https://dc.lft.to/lastmile_qr_scan"}, "is_reserved": 0, "is_disabled": 0, "type": "electric_scooter", "bike_id": "26eef6d6b92b9537d20551c52d9591b2"}, {"lon": -77.045223, "lat": 38.90967966666667, "name": "2260f89fcacb79752de335dd5e4b362d", "fusion_lat": 0.0, "fusion_lon": 0.0, "rental_uris": {"android": "https://dc.lft.to/lastmile_qr_scan", "ios": "https://dc.lft.to/lastmile_qr_scan"}, "is_reserved": 0, "is_disabled": 0, "type": "electric_scooter", "bike_id": "2260f89fcacb79752de335dd5e4b362d"}, {"lon": -77.02816216666666, "lat": 38.893309, "name": "ddf084a85655055d11e18cd1897d69b2", "fusion_lat": 0.0, "fusion_lon": 0.0, "rental_uris": {"android": "https://dc.lft.to/lastmile_qr_scan", "ios": "https://dc.lft.to/lastmile_qr_scan"}, "is_reserved": 0, "is_disabled": 0, "type": "electric_scooter", "bike_id": "ddf084a85655055d11e18cd1897d69b2"}, {"lon": -77.0307815, "lat": 38.92237733333333, "name": "f38636cdc949cce07f04975f20157de1", "fusion_lat": 0.0, "fusion_lon": 0.0, "rental_uris": {"android": "https://dc.lft.to/lastmile_qr_scan", "ios": "https://dc.lft.to/lastmile_qr_scan"}, "is_reserved": 0, "is_disabled": 0, "type": "electric_scooter", "bike_id": "f38636cdc949cce07f04975f20157de1"}, {"lon": -77.0345485, "lat": 38.91817016666667, "name": "5aa425b69deff87a66bbc1fe5702d6f5", "fusion_lat": 0.0, "fusion_lon": 0.0, "rental_uris": {"android": "https://dc.lft.to/lastmile_qr_scan", "ios": "https://dc.lft.to/lastmile_qr_scan"}, "is_reserved": 0, "is_disabled": 0, "type": "electric_scooter", "bike_id": "5aa425b69deff87a66bbc1fe5702d6f5"}, {"lon": -76.9581835, "lat": 38.890559, "name": "94bca3d4607e1b390485b84de4f5aadd", "fusion_lat": 0.0, "fusion_lon": 0.0, "rental_uris": {"android": "https://dc.lft.to/lastmile_qr_scan", "ios": "https://dc.lft.to/lastmile_qr_scan"}, "is_reserved": 0, "is_disabled": 0, "type": "electric_scooter", "bike_id": "94bca3d4607e1b390485b84de4f5aadd"}, {"lon": -77.09524483333334, "lat": 38.838125166666664, "name": "4d89c0a4a49d745a4e9cc2593ce6d7c6", "fusion_lat": 0.0, "fusion_lon": 0.0, "rental_uris": {"android": "https://dc.lft.to/lastmile_qr_scan", "ios": "https://dc.lft.to/lastmile_qr_scan"}, "is_reserved": 0, "is_disabled": 0, "type": "electric_bike", "bike_id": "4d89c0a4a49d745a4e9cc2593ce6d7c6"}, {"lon": -77.05240683333334, "lat": 38.9246825, "name": "897c779981195c5418b4932ecc1c44af", "fusion_lat": 0.0, "fusion_lon": 0.0, "rental_uris": {"android": "https://dc.lft.to/lastmile_qr_scan", "ios": "https://dc.lft.to/lastmile_qr_scan"}, "is_reserved": 0, "is_disabled": 0, "type": "electric_scooter", "bike_id": "897c779981195c5418b4932ecc1c44af"}, {"lon": -77.03840233333334, "lat": 38.910871666666665, "name": "9b42adc8fcc9e9ae5f4ab91b35a1b8dc", "fusion_lat": 0.0, "fusion_lon": 0.0, "rental_uris": {"android": "https://dc.lft.to/lastmile_qr_scan", "ios": "https://dc.lft.to/lastmile_qr_scan"}, "is_reserved": 0, "is_disabled": 0, "type": "electric_scooter", "bike_id": "9b42adc8fcc9e9ae5f4ab91b35a1b8dc"}, {"lon": -77.03363716666667, "lat": 38.88507633333333, "name": "1171ed67d35bc12d07876b5f2d8dbeec", "fusion_lat": 0.0, "fusion_lon": 0.0, "rental_uris": {"android": "https://dc.lft.to/lastmile_qr_scan", "ios": "https://dc.lft.to/lastmile_qr_scan"}, "is_reserved": 0, "is_disabled": 0, "type": "electric_scooter", "bike_id": "1171ed67d35bc12d07876b5f2d8dbeec"}, {"lon": -77.04375833333333, "lat": 38.89223166666667, "name": "d68c95cc624ae19d5480ea32e1cbb606", "fusion_lat": 0.0, "fusion_lon": 0.0, "rental_uris": {"android": "https://dc.lft.to/lastmile_qr_scan", "ios": "https://dc.lft.to/lastmile_qr_scan"}, "is_reserved": 0, "is_disabled": 0, "type": "electric_scooter", "bike_id": "d68c95cc624ae19d5480ea32e1cbb606"}, {"lon": -77.03819533333333, "lat": 38.92049083333333, "name": "f33925b69cf1bd2249973e93679a64bf", "fusion_lat": 0.0, "fusion_lon": 0.0, "rental_uris": {"android": "https://dc.lft.to/lastmile_qr_scan", "ios": "https://dc.lft.to/lastmile_qr_scan"}, "is_reserved": 0, "is_disabled": 0, "type": "electric_scooter", "bike_id": "f33925b69cf1bd2249973e93679a64bf"}, {"lon": -77.0558405, "lat": 38.92780916666667, "name": "455e3339647fdaa13184a64fff0d208c", "fusion_lat": 0.0, "fusion_lon": 0.0, "rental_uris": {"android": "https://dc.lft.to/lastmile_qr_scan", "ios": "https://dc.lft.to/lastmile_qr_scan"}, "is_reserved": 0, "is_disabled": 0, "type": "electric_scooter", "bike_id": "455e3339647fdaa13184a64fff0d208c"}, {"lon": -77.03827616666666, "lat": 38.931399, "name": "c532f0110cb8a7cad432ecc76e3d8943", "fusion_lat": 0.0, "fusion_lon": 0.0, "rental_uris": {"android": "https://dc.lft.to/lastmile_qr_scan", "ios": "https://dc.lft.to/lastmile_qr_scan"}, "is_reserved": 0, "is_disabled": 0, "type": "electric_scooter", "bike_id": "c532f0110cb8a7cad432ecc76e3d8943"}, {"lon": -77.00831516666666, "lat": 38.91374233333333, "name": "baad587296f897320244132552d4c0d6", "fusion_lat": 0.0, "fusion_lon": 0.0, "rental_uris": {"android": "https://dc.lft.to/lastmile_qr_scan", "ios": "https://dc.lft.to/lastmile_qr_scan"}, "is_reserved": 0, "is_disabled": 0, "type": "electric_scooter", "bike_id": "baad587296f897320244132552d4c0d6"}, {"lon": -77.00934016666666, "lat": 38.8963015, "name": "5512267d0f67e4e31f6ecffdc3de7c48", "fusion_lat": 0.0, "fusion_lon": 0.0, "rental_uris": {"android": "https://dc.lft.to/lastmile_qr_scan", "ios": "https://dc.lft.to/lastmile_qr_scan"}, "is_reserved": 0, "is_disabled": 0, "type": "electric_scooter", "bike_id": "5512267d0f67e4e31f6ecffdc3de7c48"}, {"lon": -77.02725266666667, "lat": 38.9512835, "name": "e2fdda4bcad5d347fcffae83ee1c6d42", "fusion_lat": 0.0, "fusion_lon": 0.0, "rental_uris": {"android": "https://dc.lft.to/lastmile_qr_scan", "ios": "https://dc.lft.to/lastmile_qr_scan"}, "is_reserved": 0, "is_disabled": 0, "type": "electric_scooter", "bike_id": "e2fdda4bcad5d347fcffae83ee1c6d42"}, {"lon": -76.9885745, "lat": 38.90023633333333, "name": "602d92633edf180042fd0428c1f2e24f", "fusion_lat": 0.0, "fusion_lon": 0.0, "rental_uris": {"android": "https://dc.lft.to/lastmile_qr_scan", "ios": "https://dc.lft.to/lastmile_qr_scan"}, "is_reserved": 0, "is_disabled": 0, "type": "electric_scooter", "bike_id": "602d92633edf180042fd0428c1f2e24f"}, {"lon": -77.35308683333334, "lat": 38.950018666666665, "name": "c85dd1f2e0a91cfce94e007952ee5078", "fusion_lat": 0.0, "fusion_lon": 0.0, "rental_uris": {"android": "https://dc.lft.to/lastmile_qr_scan", "ios": "https://dc.lft.to/lastmile_qr_scan"}, "is_reserved": 0, "is_disabled": 0, "type": "electric_bike", "bike_id": "c85dd1f2e0a91cfce94e007952ee5078"}, {"lon": -77.03446766666667, "lat": 38.902719833333336, "name": "ccf247e20f292230be61b63582ddf767", "fusion_lat": 0.0, "fusion_lon": 0.0, "rental_uris": {"android": "https://dc.lft.to/lastmile_qr_scan", "ios": "https://dc.lft.to/lastmile_qr_scan"}, "is_reserved": 0, "is_disabled": 0, "type": "electric_scooter", "bike_id": "ccf247e20f292230be61b63582ddf767"}, {"lon": -77.0075785, "lat": 38.87118266666667, "name": "c0fb170a47b074cbf89e0f190271a2b1", "fusion_lat": 0.0, "fusion_lon": 0.0, "rental_uris": {"android": "https://dc.lft.to/lastmile_qr_scan", "ios": "https://dc.lft.to/lastmile_qr_scan"}, "is_reserved": 0, "is_disabled": 0, "type": "electric_scooter", "bike_id": "c0fb170a47b074cbf89e0f190271a2b1"}, {"lon": -77.01385116666667, "lat": 38.928542666666665, "name": "6d09e0a2006506250fc4183fc229e4d8", "fusion_lat": 0.0, "fusion_lon": 0.0, "rental_uris": {"android": "https://dc.lft.to/lastmile_qr_scan", "ios": "https://dc.lft.to/lastmile_qr_scan"}, "is_reserved": 0, "is_disabled": 0, "type": "electric_scooter", "bike_id": "6d09e0a2006506250fc4183fc229e4d8"}, {"lon": -77.02837166666667, "lat": 38.88768833333334, "name": "70df843373a0923614306ecea732d4aa", "fusion_lat": 0.0, "fusion_lon": 0.0, "rental_uris": {"android": "https://dc.lft.to/lastmile_qr_scan", "ios": "https://dc.lft.to/lastmile_qr_scan"}, "is_reserved": 0, "is_disabled": 0, "type": "electric_scooter", "bike_id": "70df843373a0923614306ecea732d4aa"}, {"lon": -77.037, "lat": 38.92820783333333, "name": "ac623e7ba1a2ec8557cee73030fbbb6a", "fusion_lat": 0.0, "fusion_lon": 0.0, "rental_uris": {"android": "https://dc.lft.to/lastmile_qr_scan", "ios": "https://dc.lft.to/lastmile_qr_scan"}, "is_reserved": 0, "is_disabled": 0, "type": "electric_scooter", "bike_id": "ac623e7ba1a2ec8557cee73030fbbb6a"}, {"lon": -77.04238016666666, "lat": 38.909341833333336, "name": "ae42af58a33f1903dcf68fee41cf07ff", "fusion_lat": 0.0, "fusion_lon": 0.0, "rental_uris": {"android": "https://dc.lft.to/lastmile_qr_scan", "ios": "https://dc.lft.to/lastmile_qr_scan"}, "is_reserved": 0, "is_disabled": 0, "type": "electric_scooter", "bike_id": "ae42af58a33f1903dcf68fee41cf07ff"}, {"lon": -77.02695833333334, "lat": 38.912711, "name": "12c58522693eedb586dc3c8a970a720b", "fusion_lat": 0.0, "fusion_lon": 0.0, "rental_uris": {"android": "https://dc.lft.to/lastmile_qr_scan", "ios": "https://dc.lft.to/lastmile_qr_scan"}, "is_reserved": 0, "is_disabled": 0, "type": "electric_scooter", "bike_id": "12c58522693eedb586dc3c8a970a720b"}, {"lon": -77.02405133333333, "lat": 38.91102566666667, "name": "9ccd08c2edafa3eedcb9c027861ce158", "fusion_lat": 0.0, "fusion_lon": 0.0, "rental_uris": {"android": "https://dc.lft.to/lastmile_qr_scan", "ios": "https://dc.lft.to/lastmile_qr_scan"}, "is_reserved": 0, "is_disabled": 0, "type": "electric_scooter", "bike_id": "9ccd08c2edafa3eedcb9c027861ce158"}, {"lon": -77.01697716666666, "lat": 38.920133, "name": "f4007d6bda8783797dd663c7f4e0676a", "fusion_lat": 0.0, "fusion_lon": 0.0, "rental_uris": {"android": "https://dc.lft.to/lastmile_qr_scan", "ios": "https://dc.lft.to/lastmile_qr_scan"}, "is_reserved": 0, "is_disabled": 0, "type": "electric_scooter", "bike_id": "f4007d6bda8783797dd663c7f4e0676a"}, {"lon": -77.00144116666667, "lat": 38.900143166666666, "name": "61ef1f7ea8bca8f0b79584a59a32d495", "fusion_lat": 0.0, "fusion_lon": 0.0, "rental_uris": {"android": "https://dc.lft.to/lastmile_qr_scan", "ios": "https://dc.lft.to/lastmile_qr_scan"}, "is_reserved": 0, "is_disabled": 0, "type": "electric_scooter", "bike_id": "61ef1f7ea8bca8f0b79584a59a32d495"},