{"data": {"bikes": [{"bike_id": "c0cc0e0560e0c8a64596406b3a68f748", "type": "electric_scooter", "is_disabled": 0, "lat": 38.86244683333334, "rental_uris": {"ios": "https://dc.lft.to/lastmile_qr_scan", "android": "https://dc.lft.to/lastmile_qr_scan"}, "is_reserved": 0, "fusion_lon": 0.0, "fusion_lat": 0.0, "lon": -76.9950325, "name": "c0cc0e0560e0c8a64596406b3a68f748"}, {"bike_id": "1704523e31087013ee71609b21d579a1", "type": "electric_scooter", "is_disabled": 0, "lat": 38.90670316666667, "rental_uris": {"ios": "https://dc.lft.to/lastmile_qr_scan", "android": "https://dc.lft.to/lastmile_qr_scan"}, "is_reserved": 0, "fusion_lon": 0.0, "fusion_lat": 0.0, "lon": -77.07178066666667, "name": "1704523e31087013ee71609b21d579a1"}, {"bike_id": "0c49958e10438b62852f5fe9ce3890c5", "type": "electric_scooter", "is_disabled": 0, "lat": 38.933686, "rental_uris": {"ios": "https://dc.lft.to/lastmile_qr_scan", "android": "https://dc.lft.to/lastmile_qr_scan"}, "is_reserved": 0, "fusion_lon": 0.0, "fusion_lat": 0.0, "lon": -77.03987316666667, "name": "0c49958e10438b62852f5fe9ce3890c5"}, {"bike_id": "d32028851aa9c1fc541885bc2955a286", "type": "electric_scooter", "is_disabled": 0, "lat": 38.91731266666667, "rental_uris": {"ios": "https://dc.lft.to/lastmile_qr_scan", "android": "https://dc.lft.to/lastmile_qr_scan"}, "is_reserved": 0, "fusion_lon": 0.0, "fusion_lat": 0.0, "lon": -77.03634966666667, "name": "d32028851aa9c1fc541885bc2955a286"}, {"bike_id": "0bf9b1fd9c468afb04ba046067181d3c", "type": "electric_bike", "is_disabled": 0, "lat": 38.900817333333336, "rental_uris": {"ios": "https://dc.lft.to/lastmile_qr_scan", "android": "https://dc.lft.to/lastmile_qr_scan"}, "is_reserved": 0, "fusion_lon": 0.0, "fusion_lat": 0.0, "lon": -77.0392075, "name": "0bf9b1fd9c468afb04ba046067181d3c"}, {"bike_id": "47ec9d7c9cb030568c6e2a4e08a9754a", "type": "electric_scooter", "is_disabled": 0, "lat": 38.880484833333334, "rental_uris": {"ios": "https://dc.lft.to/lastmile_qr_scan", "android": "https://dc.lft.to/lastmile_qr_scan"}, "is_reserved": 0, "fusion_lon": 0.0, "fusion_lat": 0.0, "lon": -76.93210766666667, "name": "47ec9d7c9cb030568c6e2a4e08a9754a"}, {"bike_id": "530f396c9c6e8749aedb4e821d0a94e3", "type": "electric_scooter", "is_disabled": 0, "lat": 38.91701533333333, "rental_uris": {"ios": "https://dc.lft.to/lastmile_qr_scan", "android": "https://dc.lft.to/lastmile_qr_scan"}, "is_reserved": 0, "fusion_lon": 0.0, "fusion_lat": 0.0, "lon": -77.01071066666667, "name": "530f396c9c6e8749aedb4e821d0a94e3"}, {"bike_id": "e3ab75845c860a3665f6ce72e0204d20", "type": "electric_scooter", "is_disabled": 0, "lat": 38.954009166666665, "rental_uris": {"ios": "https://dc.lft.to/lastmile_qr_scan", "android": "https://dc.lft.to/lastmile_qr_scan"}, "is_reserved": 0, "fusion_lon": 0.0, "fusion_lat": 0.0, "lon": -76.9985265, "name": "e3ab75845c860a3665f6ce72e0204d20"}, {"bike_id": "1f7f35159dd37b600df335781458d13a", "type": "electric_scooter", "is_disabled": 0, "lat": 38.93331633333333, "rental_uris": {"ios": "https://dc.lft.to/lastmile_qr_scan", "android": "https://dc.lft.to/lastmile_qr_scan"}, "is_reserved": 0, "fusion_lon": 0.0, "fusion_lat": 0.0, "lon": -77.03892266666666, "name": "1f7f35159dd37b600df335781458d13a"}, {"bike_id": "a2be1dca7e6049c81833833a8b2cccaf", "type": "electric_scooter", "is_disabled": 0, "lat": 38.926580666666666, "rental_uris": {"ios": "https://dc.lft.to/lastmile_qr_scan", "android": "https://dc.lft.to/lastmile_qr_scan"}, "is_reserved": 0, "fusion_lon": 0.0, "fusion_lat": 0.0, "lon": -77.03733516666667, "name": "a2be1dca7e6049c81833833a8b2cccaf"}, {"bike_id": "8fd1ef335a015577363f08c2e22b2b05", "type": "electric_scooter", "is_disabled": 0, "lat": 38.920198666666664, "rental_uris": {"ios": "https://dc.lft.to/lastmile_qr_scan", "android": "https://dc.lft.to/lastmile_qr_scan"}, "is_reserved": 0, "fusion_lon": 0.0, "fusion_lat": 0.0, "lon": -77.028131, "name": "8fd1ef335a015577363f08c2e22b2b05"}, {"bike_id": "7ac01ee21cdb1f95c4cedf8fdbe6b184", "type": "electric_scooter", "is_disabled": 0, "lat": 38.91557733333333, "rental_uris": {"ios": "https://dc.lft.to/lastmile_qr_scan", "android": "https://dc.lft.to/lastmile_qr_scan"}, "is_reserved": 0, "fusion_lon": 0.0, "fusion_lat": 0.0, "lon": -77.03135883333333, "name": "7ac01ee21cdb1f95c4cedf8fdbe6b184"}, {"bike_id": "ba9223d74fd7d71abe3766b19e8c5977", "type": "electric_bike", "is_disabled": 0, "lat": 38.91015133333333, "rental_uris": {"ios": "https://dc.lft.to/lastmile_qr_scan", "android": "https://dc.lft.to/lastmile_qr_scan"}, "is_reserved": 0, "fusion_lon": 0.0, "fusion_lat": 0.0, "lon": -77.02717566666666, "name": "ba9223d74fd7d71abe3766b19e8c5977"}, {"bike_id": "25e8d8159f44a90c0babf9f3cc3ca7d5", "type": "electric_scooter", "is_disabled": 0, "lat": 38.956586, "rental_uris": {"ios": "https://dc.lft.to/lastmile_qr_scan", "android": "https://dc.lft.to/lastmile_qr_scan"}, "is_reserved": 0, "fusion_lon": 0.0, "fusion_lat": 0.0, "lon": -77.01036683333334, "name": "25e8d8159f44a90c0babf9f3cc3ca7d5"}, {"bike_id": "9447ad5fc903d93eb51c392d1252fd09", "type": "electric_scooter", "is_disabled": 0, "lat": 38.90686183333333, "rental_uris": {"ios": "https://dc.lft.to/lastmile_qr_scan", "android": "https://dc.lft.to/lastmile_qr_scan"}, "is_reserved": 0, "fusion_lon": 0.0, "fusion_lat": 0.0, "lon": -77.05322483333333, "name": "9447ad5fc903d93eb51c392d1252fd09"}, {"bike_id": "e4fe596d34bcc57c845f56c510a95909", "type": "electric_scooter", "is_disabled": 0, "lat": 38.901479333333334, "rental_uris": {"ios": "https://dc.lft.to/lastmile_qr_scan", "android": "https://dc.lft.to/lastmile_qr_scan"}, "is_reserved": 0, "fusion_lon": 0.0, "fusion_lat": 0.0, "lon": -77.01508766666667, "name": "e4fe596d34bcc57c845f56c510a95909"}, {"bike_id": "36afce580fcb1ab73e5a7df6c3d56f8a", "type": "electric_scooter", "is_disabled": 0, "lat": 38.911161666666665, "rental_uris": {"ios": "https://dc.lft.to/lastmile_qr_scan", "android": "https://dc.lft.to/lastmile_qr_scan"}, "is_reserved": 0, "fusion_lon": 0.0, "fusion_lat": 0.0, "lon": -77.02231683333333, "name": "36afce580fcb1ab73e5a7df6c3d56f8a"}, {"bike_id": "e67ef11ac243aec058ab81310fc76053", "type": "electric_scooter", "is_disabled": 0, "lat": 38.917836, "rental_uris": {"ios": "https://dc.lft.to/lastmile_qr_scan", "android": "https://dc.lft.to/lastmile_qr_scan"}, "is_reserved": 0, "fusion_lon": 0.0, "fusion_lat": 0.0, "lon": -77.023218, "name": "e67ef11ac243aec058ab81310fc76053"}, {"bike_id": "7556de801df1a1fe8285e15389642a29", "type": "electric_bike", "is_disabled": 0, "lat": 38.8090305, "rental_uris": {"ios": "https://dc.lft.to/lastmile_qr_scan", "android": "https://dc.lft.to/lastmile_qr_scan"}, "is_reserved": 0, "fusion_lon": 0.0, "fusion_lat": 0.0, "lon": -77.0865715, "name": "7556de801df1a1fe8285e15389642a29"}, {"bike_id": "a2b730128f4ec5b4af0b26d8dafbca40", "type": "electric_scooter", "is_disabled": 0, "lat": 38.92342716666667, "rental_uris": {"ios": "https://dc.lft.to/lastmile_qr_scan", "android": "https://dc.lft.to/lastmile_qr_scan"}, "is_reserved": 0, "fusion_lon": 0.0, "fusion_lat": 0.0, "lon": -77.019879, "name": "a2b730128f4ec5b4af0b26d8dafbca40"}, {"bike_id": "4a7f369ef95761366d62fb35bd831801", "type": "electric_scooter", "is_disabled": 0, "lat": 38.921512166666666, "rental_uris": {"ios": "https://dc.lft.to/lastmile_qr_scan", "android": "https://dc.lft.to/lastmile_qr_scan"}, "is_reserved": 0, "fusion_lon": 0.0, "fusion_lat": 0.0, "lon": -77.03532233333334, "name": "4a7f369ef95761366d62fb35bd831801"}, {"bike_id": "26d67011e953aff8f339cd04ab45f453", "type": "electric_scooter", "is_disabled": 0, "lat": 38.928526, "rental_uris": {"ios": "https://dc.lft.to/lastmile_qr_scan", "android": "https://dc.lft.to/lastmile_qr_scan"}, "is_reserved": 0, "fusion_lon": 0.0, "fusion_lat": 0.0, "lon": -77.01949116666667, "name": "26d67011e953aff8f339cd04ab45f453"}, {"bike_id": "dcbf2e11143617da40702d07e69a0497", "type": "electric_scooter", "is_disabled": 0, "lat": 38.92083183333333, "rental_uris": {"ios": "https://dc.lft.to/lastmile_qr_scan", "android": "https://dc.lft.to/lastmile_qr_scan"}, "is_reserved": 0, "fusion_lon": 0.0, "fusion_lat": 0.0, "lon": -77.0252905, "name": "dcbf2e11143617da40702d07e69a0497"}, {"bike_id": "97b3e4315a68a4de1a8bc444e2b01197", "type": "electric_scooter", "is_disabled": 0, "lat": 38.934532, "rental_uris": {"ios": "https://dc.lft.to/lastmile_qr_scan", "android": "https://dc.lft.to/lastmile_qr_scan"}, "is_reserved": 0, "fusion_lon": 0.0, "fusion_lat": 0.0, "lon": -77.0726375, "name": "97b3e4315a68a4de1a8bc444e2b01197"}, {"bike_id": "de2ec753b324715ed7db46138744d53f", "type": "electric_scooter", "is_disabled": 0, "lat": 38.902821333333335, "rental_uris": {"ios": "https://dc.lft.to/lastmile_qr_scan", "android": "https://dc.lft.to/lastmile_qr_scan"}, "is_reserved": 0, "fusion_lon": 0.0, "fusion_lat": 0.0, "lon": -77.00337, "name": "de2ec753b324715ed7db46138744d53f"}, {"bike_id": "495098066f97d591f9b1979172b0d3d7", "type": "electric_bike", "is_disabled": 0, "lat": 38.85890883333333, "rental_uris": {"ios": "https://dc.lft.to/lastmile_qr_scan", "android": "https://dc.lft.to/lastmile_qr_scan"}, "is_reserved": 0, "fusion_lon": 0.0, "fusion_lat": 0.0, "lon": -77.11863966666667, "name": "495098066f97d591f9b1979172b0d3d7"}, {"bike_id": "69280df0a987d1d7c0ea0ba792f40ce5", "type": "electric_scooter", "is_disabled": 0, "lat": 38.94555916666667, "rental_uris": {"ios": "https://dc.lft.to/lastmile_qr_scan", "android": "https://dc.lft.to/lastmile_qr_scan"}, "is_reserved": 0, "fusion_lon": 0.0, "fusion_lat": 0.0, "lon": -77.07127583333333, "name": "69280df0a987d1d7c0ea0ba792f40ce5"}, {"bike_id": "a256d01e13a0f427e792ac85aa110325", "type": "electric_scooter", "is_disabled": 0, "lat": 38.88448016666667, "rental_uris": {"ios": "https://dc.lft.to/lastmile_qr_scan", "android": "https://dc.lft.to/lastmile_qr_scan"}, "is_reserved": 0, "fusion_lon": 0.0, "fusion_lat": 0.0, "lon": -76.95098766666666, "name": "a256d01e13a0f427e792ac85aa110325"}, {"bike_id": "c8e25d10bbbb65f1d3652359aaf1a595", "type": "electric_scooter", "is_disabled": 0, "lat": 38.92329083333333, "rental_uris": {"ios": "https://dc.lft.to/lastmile_qr_scan", "android": "https://dc.lft.to/lastmile_qr_scan"}, "is_reserved": 0, "fusion_lon": 0.0, "fusion_lat": 0.0, "lon": -77.0537045, "name": "c8e25d10bbbb65f1d3652359aaf1a595"}, {"bike_id": "e2062f86767c3303dee22abcef0b6f08", "type": "electric_scooter", "is_disabled": 0, "lat": 38.917880833333335, "rental_uris": {"ios": "https://dc.lft.to/lastmile_qr_scan", "android": "https://dc.lft.to/lastmile_qr_scan"}, "is_reserved": 0, "fusion_lon": 0.0, "fusion_lat": 0.0, "lon": -77.027102, "name": "e2062f86767c3303dee22abcef0b6f08"}, {"bike_id": "97ec2a9b55128e6c6f9e98d02c7e4537", "type": "electric_scooter", "is_disabled": 0, "lat": 38.9106105, "rental_uris": {"ios": "https://dc.lft.to/lastmile_qr_scan", "android": "https://dc.lft.to/lastmile_qr_scan"}, "is_reserved": 0, "fusion_lon": 0.0, "fusion_lat": 0.0, "lon": -77.030914, "name": "97ec2a9b55128e6c6f9e98d02c7e4537"}, {"bike_id": "0d6110709701061a756eba35dbb0e0c3", "type": "electric_scooter", "is_disabled": 0, "lat": 38.92961716666667, "rental_uris": {"ios": "https://dc.lft.to/lastmile_qr_scan", "android": "https://dc.lft.to/lastmile_qr_scan"}, "is_reserved": 0, "fusion_lon": 0.0, "fusion_lat": 0.0, "lon": -77.037769, "name": "0d6110709701061a756eba35dbb0e0c3"}, {"bike_id": "552069b85003d14fe772ade129a30dcf", "type": "electric_scooter", "is_disabled": 0, "lat": 38.906058, "rental_uris": {"ios": "https://dc.lft.to/lastmile_qr_scan", "android": "https://dc.lft.to/lastmile_qr_scan"}, "is_reserved": 0, "fusion_lon": 0.0, "fusion_lat": 0.0, "lon": -76.9927395, "name": "552069b85003d14fe772ade129a30dcf"}, {"bike_id": "7f3850d6c8f6a7acdf5e4b4cff40bd4d", "type": "electric_scooter", "is_disabled": 0, "lat": 38.899912, "rental_uris": {"ios": "https://dc.lft.to/lastmile_qr_scan", "android": "https://dc.lft.to/lastmile_qr_scan"}, "is_reserved": 0, "fusion_lon": 0.0, "fusion_lat": 0.0, "lon": -77.002105, "name": "7f3850d6c8f6a7acdf5e4b4cff40bd4d"}, {"bike_id": "d5889fb7ad6c602b32b2ae50b5379ceb", "type": "electric_scooter", "is_disabled": 0, "lat": 38.903155, "rental_uris": {"ios": "https://dc.lft.to/lastmile_qr_scan", "android": "https://dc.lft.to/lastmile_qr_scan"}, "is_reserved": 0, "fusion_lon": 0.0, "fusion_lat": 0.0, "lon": -76.97802516666667, "name": "d5889fb7ad6c602b32b2ae50b5379ceb"}, {"bike_id": "864f03eb411bfc393b2ee8eaa1693764", "type": "electric_scooter", "is_disabled": 0, "lat": 38.8920525, "rental_uris": {"ios": "https://dc.lft.to/lastmile_qr_scan", "android": "https://dc.lft.to/lastmile_qr_scan"}, "is_reserved": 0, "fusion_lon": 0.0, "fusion_lat": 0.0, "lon": -76.999443, "name": "864f03eb411bfc393b2ee8eaa1693764"}, {"bike_id": "7a1591f5ccbe45d9487db22817379d0b", "type": "electric_scooter", "is_disabled": 0, "lat": 38.91464116666667, "rental_uris": {"ios": "https://dc.lft.to/lastmile_qr_scan", "android": "https://dc.lft.to/lastmile_qr_scan"}, "is_reserved": 0, "fusion_lon": 0.0, "fusion_lat": 0.0, "lon": -77.002128, "name": "7a1591f5ccbe45d9487db22817379d0b"}, {"bike_id": "9473b41c61b2bc1b4db5c78eb710d490", "type": "electric_scooter", "is_disabled": 0, "lat": 38.908528833333335, "rental_uris": {"ios": "https://dc.lft.to/lastmile_qr_scan", "android": "https://dc.lft.to/lastmile_qr_scan"}, "is_reserved": 0, "fusion_lon": 0.0, "fusion_lat": 0.0, "lon": -77.04767333333334, "name": "9473b41c61b2bc1b4db5c78eb710d490"}, {"bike_id": "1b9838a8c2097b76fde48b71d54e4fdd", "type": "electric_scooter", "is_disabled": 0, "lat": 38.902358666666665, "rental_uris": {"ios": "https://dc.lft.to/lastmile_qr_scan", "android": "https://dc.lft.to/lastmile_qr_scan"}, "is_reserved": 0, "fusion_lon": 0.0, "fusion_lat": 0.0, "lon": -77.00200566666666, "name": "1b9838a8c2097b76fde48b71d54e4fdd"}, {"bike_id": "d06fa3411ea1a2a71dc5fd0072b511e1", "type": "electric_scooter", "is_disabled": 0, "lat": 38.899665, "rental_uris": {"ios": "https://dc.lft.to/lastmile_qr_scan", "android": "https://dc.lft.to/lastmile_qr_scan"}, "is_reserved": 0, "fusion_lon": 0.0, "fusion_lat": 0.0, "lon": -76.98299566666667, "name": "d06fa3411ea1a2a71dc5fd0072b511e1"}, {"bike_id": "6f3ad71861576b44e88b5a5c08fb521d", "type": "electric_bike", "is_disabled": 0, "lat": 38.870966333333335, "rental_uris": {"ios": "https://dc.lft.to/lastmile_qr_scan", "android": "https://dc.lft.to/lastmile_qr_scan"}, "is_reserved": 0, "fusion_lon": 0.0, "fusion_lat": 0.0, "lon": -77.01200016666667, "name": "6f3ad71861576b44e88b5a5c08fb521d"}, {"bike_id": "2804b9148d870eb0dcbd24b91eed11fc", "type": "electric_scooter", "is_disabled": 0, "lat": 38.86371416666667, "rental_uris": {"ios": "https://dc.lft.to/lastmile_qr_scan", "android": "https://dc.lft.to/lastmile_qr_scan"}, "is_reserved": 0, "fusion_lon": 0.0, "fusion_lat": 0.0, "lon": -76.9906, "name": "2804b9148d870eb0dcbd24b91eed11fc"}, {"bike_id": "f71ae21da8f12d1e654f9b81a39733ad", "type": "electric_scooter", "is_disabled": 0, "lat": 38.86685266666667, "rental_uris": {"ios": "https://dc.lft.to/lastmile_qr_scan", "android": "https://dc.lft.to/lastmile_qr_scan"}, "is_reserved": 0, "fusion_lon": 0.0, "fusion_lat": 0.0, "lon": -76.98555783333333, "name": "f71ae21da8f12d1e654f9b81a39733ad"}, {"bike_id": "dd5524b3be1a0dc3b0e7fc73c70966fb", "type": "electric_scooter", "is_disabled": 0, "lat": 38.88376216666666, "rental_uris": {"ios": "https://dc.lft.to/lastmile_qr_scan", "android": "https://dc.lft.to/lastmile_qr_scan"}, "is_reserved": 0, "fusion_lon": 0.0, "fusion_lat": 0.0, "lon": -77.026063, "name": "dd5524b3be1a0dc3b0e7fc73c70966fb"}, {"bike_id": "71303a9ad63dcef4024e508a5ab989c7", "type": "electric_scooter", "is_disabled": 0, "lat": 38.90356216666667, "rental_uris": {"ios": "https://dc.lft.to/lastmile_qr_scan", "android": "https://dc.lft.to/lastmile_qr_scan"}, "is_reserved": 0, "fusion_lon": 0.0, "fusion_lat": 0.0, "lon": -77.060172, "name": "71303a9ad63dcef4024e508a5ab989c7"}, {"bike_id": "453b92a8581265af87640d5ea2d903d8", "type": "electric_scooter", "is_disabled": 0, "lat": 38.91924133333333, "rental_uris": {"ios": "https://dc.lft.to/lastmile_qr_scan", "android": "https://dc.lft.to/lastmile_qr_scan"}, "is_reserved": 0, "fusion_lon": 0.0, "fusion_lat": 0.0, "lon": -77.04246116666667, "name": "453b92a8581265af87640d5ea2d903d8"}, {"bike_id": "85ce3eff9d889e977c513b75db0d809a", "type": "electric_scooter", "is_disabled": 0, "lat": 38.898429, "rental_uris": {"ios": "https://dc.lft.to/lastmile_qr_scan", "android": "https://dc.lft.to/lastmile_qr_scan"}, "is_reserved": 0, "fusion_lon": 0.0, "fusion_lat": 0.0, "lon": -76.9463575, "name": "85ce3eff9d889e977c513b75db0d809a"}, {"bike_id": "bc8f4eb7c118eb3ceaa9ccc2da8e1682", "type": "electric_scooter", "is_disabled": 0, "lat": 38.92028033333333, "rental_uris": {"ios": "https://dc.lft.to/lastmile_qr_scan", "android": "https://dc.lft.to/lastmile_qr_scan"}, "is_reserved": 0, "fusion_lon": 0.0, "fusion_lat": 0.0, "lon": -77.03128483333333, "name": "bc8f4eb7c118eb3ceaa9ccc2da8e1682"}, {"bike_id": "84bcb9456706d1b50e5021b6304be4f5", "type": "electric_scooter", "is_disabled": 0, "lat": 38.8641305, "rental_uris": {"ios": "https://dc.lft.to/lastmile_qr_scan", "android": "https://dc.lft.to/lastmile_qr_scan"}, "is_reserved": 0, "fusion_lon": 0.0, "fusion_lat": 0.0, "lon": -76.980432, "name": "84bcb9456706d1b50e5021b6304be4f5"}, {"bike_id": "24942be3a10140f192cdd7e156891c94", "type": "electric_scooter", "is_disabled": 0, "lat": 38.91907416666667, "rental_uris": {"ios": "https://dc.lft.to/lastmile_qr_scan", "android": "https://dc.lft.to/lastmile_qr_scan"}, "is_reserved": 0, "fusion_lon": 0.0, "fusion_lat": 0.0, "lon": -77.03441266666667, "name": "24942be3a10140f192cdd7e156891c94"}, {"bike_id": "add4a15855a760316de96343f4f700fa", "type": "electric_scooter", "is_disabled": 0, "lat": 38.91636833333333, "rental_uris": {"ios": "https://dc.lft.to/lastmile_qr_scan", "android": "https://dc.lft.to/lastmile_qr_scan"}, "is_reserved": 0, "fusion_lon": 0.0, "fusion_lat": 0.0, "lon": -77.02556583333333, "name": "add4a15855a760316de96343f4f700fa"}, {"bike_id": "7af4f068ebf68dd9f43166e4fcab6361", "type": "electric_scooter", "is_disabled": 0, "lat": 38.9027135, "rental_uris": {"ios": "https://dc.lft.to/lastmile_qr_scan", "android": "https://dc.lft.to/lastmile_qr_scan"}, "is_reserved": 0, "fusion_lon": 0.0, "fusion_lat": 0.0, "lon": -77.04375016666667, "name": "7af4f068ebf68dd9f43166e4fcab6361"}, {"bike_id": "a400a1e988bea86948b27914e56de849", "type": "electric_scooter", "is_disabled": 0, "lat": 38.903873833333336, "rental_uris": {"ios": "https://dc.lft.to/lastmile_qr_scan", "android": "https://dc.lft.to/lastmile_qr_scan"}, "is_reserved": 0, "fusion_lon": 0.0, "fusion_lat": 0.0, "lon": -76.98203883333333, "name": "a400a1e988bea86948b27914e56de849"}, {"bike_id": "25ca59b8bfa31b9eb4cffd14bab064e4", "type": "electric_scooter", "is_disabled": 0, "lat": 38.93272983333333, "rental_uris": {"ios": "https://dc.lft.to/lastmile_qr_scan", "android": "https://dc.lft.to/lastmile_qr_scan"}, "is_reserved": 0, "fusion_lon": 0.0, "fusion_lat": 0.0, "lon": -77.045376, "name": "25ca59b8bfa31b9eb4cffd14bab064e4"}, {"bike_id": "f930ed6e191fa0be397456a413b66cd3", "type": "electric_bike", "is_disabled": 0, "lat": 38.83786683333334, "rental_uris": {"ios": "https://dc.lft.to/lastmile_qr_scan", "android": "https://dc.lft.to/lastmile_qr_scan"}, "is_reserved": 0, "fusion_lon": 0.0, "fusion_lat": 0.0, "lon": -77.09347083333333, "name": "f930ed6e191fa0be397456a413b66cd3"}, {"bike_id": "7afc34ccc414b1c5aac3825022a7fce9", "type": "electric_scooter", "is_disabled": 0, "lat": 38.90079733333334, "rental_uris": {"ios": "https://dc.lft.to/lastmile_qr_scan", "android": "https://dc.lft.to/lastmile_qr_scan"}, "is_reserved": 0, "fusion_lon": 0.0, "fusion_lat": 0.0, "lon": -77.00922966666667, "name": "7afc34ccc414b1c5aac3825022a7fce9"}, {"bike_id": "2bf1320aadbfbfd322e47262c978231d", "type": "electric_scooter", "is_disabled": 0, "lat": 38.89220133333333, "rental_uris": {"ios": "https://dc.lft.to/lastmile_qr_scan", "android": "https://dc.lft.to/lastmile_qr_scan"}, "is_reserved": 0, "fusion_lon": 0.0, "fusion_lat": 0.0, "lon": -77.04866333333334, "name": "2bf1320aadbfbfd322e47262c978231d"}, {"bike_id": "c855d96569408a206a2e147280411d64", "type": "electric_bike", "is_disabled": 0, "lat": 38.873024666666666, "rental_uris": {"ios": "https://dc.lft.to/lastmile_qr_scan", "android": "https://dc.lft.to/lastmile_qr_scan"}, "is_reserved": 0, "fusion_lon": 0.0, "fusion_lat": 0.0, "lon": -77.13923433333333, "name": "c855d96569408a206a2e147280411d64"}, {"bike_id": "ce913645582c45cee2356102713d33dc", "type": "electric_scooter", "is_disabled": 0, "lat": 38.92398083333333, "rental_uris": {"ios": "https://dc.lft.to/lastmile_qr_scan", "android": "https://dc.lft.to/lastmile_qr_scan"}, "is_reserved": 0, "fusion_lon": 0.0, "fusion_lat": 0.0, "lon": -76.99365066666667, "name": "ce913645582c45cee2356102713d33dc"}, {"bike_id": "ed5473f61925da1897615bef7856108a", "type": "electric_scooter", "is_disabled": 0, "lat": 38.94203733333333, "rental_uris": {"ios": "https://dc.lft.to/lastmile_qr_scan", "android": "https://dc.lft.to/lastmile_qr_scan"}, "is_reserved": 0, "fusion_lon": 0.0, "fusion_lat": 0.0, "lon": -77.01735166666667, "name": "ed5473f61925da1897615bef7856108a"}, {"bike_id": "221b5e5696f11d1d84f30b2d61fa9c5f", "type": "electric_scooter", "is_disabled": 0, "lat": 38.9225905, "rental_uris": {"ios": "https://dc.lft.to/lastmile_qr_scan", "android": "https://dc.lft.to/lastmile_qr_scan"}, "is_reserved": 0, "fusion_lon": 0.0, "fusion_lat": 0.0, "lon": -77.03888066666667, "name": "221b5e5696f11d1d84f30b2d61fa9c5f"}, {"bike_id": "efb3581eb21fe3d6e836a1b96c6a431f", "type": "electric_scooter", "is_disabled": 0, "lat": 38.8777785, "rental_uris": {"ios": "https://dc.lft.to/lastmile_qr_scan", "android": "https://dc.lft.to/lastmile_qr_scan"}, "is_reserved": 0, "fusion_lon": 0.0, "fusion_lat": 0.0, "lon": -77.0174315, "name": "efb3581eb21fe3d6e836a1b96c6a431f"}, {"bike_id": "d484dca1de0d205ea9028f3e48400d25", "type": "electric_scooter", "is_disabled": 0, "lat": 38.91929533333333, "rental_uris": {"ios": "https://dc.lft.to/lastmile_qr_scan", "android": "https://dc.lft.to/lastmile_qr_scan"}, "is_reserved": 0, "fusion_lon": 0.0, "fusion_lat": 0.0, "lon": -77.0139265, "name": "d484dca1de0d205ea9028f3e48400d25"}, {"bike_id": "3b96899fd98e74bc3059671af4a4c387", "type": "electric_scooter", "is_disabled": 0, "lat": 38.899994, "rental_uris": {"ios": "https://dc.lft.to/lastmile_qr_scan", "android": "https://dc.lft.to/lastmile_qr_scan"}, "is_reserved": 0, "fusion_lon": 0.0, "fusion_lat": 0.0, "lon": -77.00201933333334, "name": "3b96899fd98e74bc3059671af4a4c387"}, {"bike_id": "6d8fd85dda60b42a8007a1514d7fdc02", "type": "electric_scooter", "is_disabled": 0, "lat": 38.9055465, "rental_uris": {"ios": "https://dc.lft.to/lastmile_qr_scan", "android": "https://dc.lft.to/lastmile_qr_scan"}, "is_reserved": 0, "fusion_lon": 0.0, "fusion_lat": 0.0, "lon": -77.00594566666666, "name": "6d8fd85dda60b42a8007a1514d7fdc02"}, {"bike_id": "58481653935d17fda2033117d2e02dfa", "type": "electric_scooter", "is_disabled": 0, "lat": 38.94345216666667, "rental_uris": {"ios": "https://dc.lft.to/lastmile_qr_scan", "android": "https://dc.lft.to/lastmile_qr_scan"}, "is_reserved": 0, "fusion_lon": 0.0, "fusion_lat": 0.0, "lon": -77.06125983333334, "name": "58481653935d17fda2033117d2e02dfa"}, {"bike_id": "a836269c729ba25ca883c9c10f508418", "type": "electric_scooter", "is_disabled": 0, "lat": 38.9278135, "rental_uris": {"ios": "https://dc.lft.to/lastmile_qr_scan", "android": "https://dc.lft.to/lastmile_qr_scan"}, "is_reserved": 0, "fusion_lon": 0.0, "fusion_lat": 0.0, "lon": -77.05262883333333, "name": "a836269c729ba25ca883c9c10f508418"}, {"bike_id": "5802224df75f0f0834bb55e51a5bec65", "type": "electric_scooter", "is_disabled": 0, "lat": 38.911067, "rental_uris": {"ios": "https://dc.lft.to/lastmile_qr_scan", "android": "https://dc.lft.to/lastmile_qr_scan"}, "is_reserved": 0, "fusion_lon": 0.0, "fusion_lat": 0.0, "lon": -77.02448983333333, "name": "5802224df75f0f0834bb55e51a5bec65"}, {"bike_id": "27976a22125b8f767e9fa4d66d0fa1cc", "type": "electric_scooter", "is_disabled": 0, "lat": 38.86694333333333, "rental_uris": {"ios": "https://dc.lft.to/lastmile_qr_scan", "android": "https://dc.lft.to/lastmile_qr_scan"}, "is_reserved": 0, "fusion_lon": 0.0, "fusion_lat": 0.0, "lon": -76.98712566666667, "name": "27976a22125b8f767e9fa4d66d0fa1cc"}, {"bike_id": "77d2527fa9c43f5178277286d3762052", "type": "electric_scooter", "is_disabled": 0, "lat": 38.947102666666666, "rental_uris": {"ios": "https://dc.lft.to/lastmile_qr_scan", "android": "https://dc.lft.to/lastmile_qr_scan"}, "is_reserved": 0, "fusion_lon": 0.0, "fusion_lat": 0.0, "lon": -77.02778116666667, "name": "77d2527fa9c43f5178277286d3762052"}, {"bike_id": "bb826394963477f77e1c3270a595b97f", "type": "electric_scooter", "is_disabled": 0, "lat": 38.913348, "rental_uris": {"ios": "https://dc.lft.to/lastmile_qr_scan", "android": "https://dc.lft.to/lastmile_qr_scan"}, "is_reserved": 0, "fusion_lon": 0.0, "fusion_lat": 0.0, "lon": -77.031666, "name": "bb826394963477f77e1c3270a595b97f"}, {"bike_id": "b5dded86e5fd4d04c15fd730181d4d82", "type": "electric_scooter", "is_disabled": 0, "lat": 38.907307, "rental_uris": {"ios": "https://dc.lft.to/lastmile_qr_scan", "android": "https://dc.lft.to/lastmile_qr_scan"}, "is_reserved": 0, "fusion_lon": 0.0, "fusion_lat": 0.0, "lon": -77.04349033333334, "name": "b5dded86e5fd4d04c15fd730181d4d82"}, {"bike_id": "ca7142ce16307afcf08120fb71f7e35e", "type": "electric_scooter", "is_disabled": 0, "lat": 38.923611333333334, "rental_uris": {"ios": "https://dc.lft.to/lastmile_qr_scan", "android": "https://dc.lft.to/lastmile_qr_scan"}, "is_reserved": 0, "fusion_lon": 0.0, "fusion_lat": 0.0, "lon": -77.05130833333334, "name": "ca7142ce16307afcf08120fb71f7e35e"}, {"bike_id": "28324c96fcd4f5ef02a3ebbf41dbe6ba", "type": "electric_scooter", "is_disabled": 0, "lat": 38.866741166666664, "rental_uris": {"ios": "https://dc.lft.to/lastmile_qr_scan", "android": "https://dc.lft.to/lastmile_qr_scan"}, "is_reserved": 0, "fusion_lon": 0.0, "fusion_lat": 0.0, "lon": -76.98536566666667, "name": "28324c96fcd4f5ef02a3ebbf41dbe6ba"}, {"bike_id": "4218cf228434303325bac603c3152887", "type": "electric_scooter", "is_disabled": 0, "lat": 38.939278, "rental_uris": {"ios": "https://dc.lft.to/lastmile_qr_scan", "android": "https://dc.lft.to/lastmile_qr_scan"}, "is_reserved": 0, "fusion_lon": 0.0, "fusion_lat": 0.0, "lon": -77.03685983333334, "name": "4218cf228434303325bac603c3152887"}, {"bike_id": "d5e97b8b8afdcca5f8c0fefd1bcd7def", "type": "electric_scooter", "is_disabled": 0, "lat": 38.90721, "rental_uris": {"ios": "https://dc.lft.to/lastmile_qr_scan", "android": "https://dc.lft.to/lastmile_qr_scan"}, "is_reserved": 0, "fusion_lon": 0.0, "fusion_lat": 0.0, "lon": -77.00967933333334, "name": "d5e97b8b8afdcca5f8c0fefd1bcd7def"}, {"bike_id": "c37022cced851932d3bdb14f3577d5de", "type": "electric_scooter", "is_disabled": 0, "lat": 38.92020816666667, "rental_uris": {"ios": "https://dc.lft.to/lastmile_qr_scan", "android": "https://dc.lft.to/lastmile_qr_scan"}, "is_reserved": 0, "fusion_lon": 0.0, "fusion_lat": 0.0, "lon": -77.03126483333334, "name": "c37022cced851932d3bdb14f3577d5de"}, {"bike_id": "49c1003990a440876c3ea96c03c99b89", "type": "electric_scooter", "is_disabled": 0, "lat": 38.88258283333333, "rental_uris": {"ios": "https://dc.lft.to/lastmile_qr_scan", "android": "https://dc.lft.to/lastmile_qr_scan"}, "is_reserved": 0, "fusion_lon": 0.0, "fusion_lat": 0.0, "lon": -76.99507533333333, "name": "49c1003990a440876c3ea96c03c99b89"}, {"bike_id": "aec440bc41583ae82e461555199ad5ea", "type": "electric_bike", "is_disabled": 0, "lat": 38.89286833333333, "rental_uris": {"ios": "https://dc.lft.to/lastmile_qr_scan", "android": "https://dc.lft.to/lastmile_qr_scan"}, "is_reserved": 0, "fusion_lon": 0.0, "fusion_lat": 0.0, "lon": -76.9761715, "name": "aec440bc41583ae82e461555199ad5ea"}, {"bike_id": "e4fac29b9c833f4591e4a8b9e2818812", "type": "electric_scooter", "is_disabled": 0, "lat": 38.927709666666665, "rental_uris": {"ios": "https://dc.lft.to/lastmile_qr_scan", "android": "https://dc.lft.to/lastmile_qr_scan"}, "is_reserved": 0, "fusion_lon": 0.0, "fusion_lat": 0.0, "lon": -77.054073, "name": "e4fac29b9c833f4591e4a8b9e2818812"}, {"bike_id": "81b1108f7a69802cf46d735e3119c97d", "type": "electric_scooter", "is_disabled": 0, "lat": 38.918296833333336, "rental_uris": {"ios": "https://dc.lft.to/lastmile_qr_scan", "android": "https://dc.lft.to/lastmile_qr_scan"}, "is_reserved": 0, "fusion_lon": 0.0, "fusion_lat": 0.0, "lon": -77.04563116666667, "name": "81b1108f7a69802cf46d735e3119c97d"}, {"bike_id": "10345739da0519fbe591b88d956b89df", "type": "electric_scooter", "is_disabled": 0, "lat": 38.86202883333333, "rental_uris": {"ios": "https://dc.lft.to/lastmile_qr_scan", "android": "https://dc.lft.to/lastmile_qr_scan"}, "is_reserved": 0, "fusion_lon": 0.0, "fusion_lat": 0.0, "lon": -76.99466466666667, "name": "10345739da0519fbe591b88d956b89df"}, {"bike_id": "3dc8237a70486a5b5d86468c17d65e4a", "type": "electric_scooter", "is_disabled": 0, "lat": 38.926266166666665, "rental_uris": {"ios": "https://dc.lft.to/lastmile_qr_scan", "android": "https://dc.lft.to/lastmile_qr_scan"}, "is_reserved": 0, "fusion_lon": 0.0, "fusion_lat": 0.0, "lon": -77.02147416666666, "name": "3dc8237a70486a5b5d86468c17d65e4a"}, {"bike_id": "97193f168f6c5452e4f9bbd502fa6374", "type": "electric_scooter", "is_disabled": 0, "lat": 38.907703833333336, "rental_uris": {"ios": "https://dc.lft.to/lastmile_qr_scan", "android": "https://dc.lft.to/lastmile_qr_scan"}, "is_reserved": 0, "fusion_lon": 0.0, "fusion_lat": 0.0, "lon": -77.038581, "name": "97193f168f6c5452e4f9bbd502fa6374"}, {"bike_id": "af427bb78788df765b86fd188a14de5a", "type": "electric_scooter", "is_disabled": 0, "lat": 38.93657566666667, "rental_uris": {"ios": "https://dc.lft.to/lastmile_qr_scan", "android": "https://dc.lft.to/lastmile_qr_scan"}, "is_reserved": 0, "fusion_lon": 0.0, "fusion_lat": 0.0, "lon": -77.05496, "name": "af427bb78788df765b86fd188a14de5a"}, {"bike_id": "5bf3d08ac7a9952459c6f1ce967028de", "type": "electric_scooter", "is_disabled": 0, "lat": 38.906805166666665, "rental_uris": {"ios": "https://dc.lft.to/lastmile_qr_scan", "android": "https://dc.lft.to/lastmile_qr_scan"}, "is_reserved": 0, "fusion_lon": 0.0, "fusion_lat": 0.0, "lon": -77.02696483333334, "name": "5bf3d08ac7a9952459c6f1ce967028de"}, {"bike_id": "8598ea3d249eb09d1d54832865b835bb", "type": "electric_scooter", "is_disabled": 0, "lat": 38.91553283333333, "rental_uris": {"ios": "https://dc.lft.to/lastmile_qr_scan", "android": "https://dc.lft.to/lastmile_qr_scan"}, "is_reserved": 0, "fusion_lon": 0.0, "fusion_lat": 0.0, "lon": -77.03510933333334, "name": "8598ea3d249eb09d1d54832865b835bb"}, {"bike_id": "c8ed6c51bd0a03aa6f216ac855af440e", "type": "electric_scooter", "is_disabled": 0, "lat": 38.9010745, "rental_uris": {"ios": "https://dc.lft.to/lastmile_qr_scan", "android": "https://dc.lft.to/lastmile_qr_scan"}, "is_reserved": 0, "fusion_lon": 0.0, "fusion_lat": 0.0, "lon": -77.05146483333333, "name": "c8ed6c51bd0a03aa6f216ac855af440e"}, {"bike_id": "a12d19cb5feed2fc2948a32ada7615a6", "type": "electric_scooter", "is_disabled": 0, "lat": 38.922458166666665, "rental_uris": {"ios": "https://dc.lft.to/lastmile_qr_scan", "android": "https://dc.lft.to/lastmile_qr_scan"}, "is_reserved": 0, "fusion_lon": 0.0, "fusion_lat": 0.0, "lon": -77.03905616666667, "name": "a12d19cb5feed2fc2948a32ada7615a6"}, {"bike_id": "bcf9155b91043d120bf42f0e43dce17a", "type": "electric_scooter", "is_disabled": 0, "lat": 38.92861933333333, "rental_uris": {"ios": "https://dc.lft.to/lastmile_qr_scan", "android": "https://dc.lft.to/lastmile_qr_scan"}, "is_reserved": 0, "fusion_lon": 0.0, "fusion_lat": 0.0, "lon": -77.03219833333333, "name": "bcf9155b91043d120bf42f0e43dce17a"}, {"bike_id": "1f402113d91e4ad530aadb4786494242", "type": "electric_scooter", "is_disabled": 0, "lat": 38.93129116666667, "rental_uris": {"ios": "https://dc.lft.to/lastmile_qr_scan", "android": "https://dc.lft.to/lastmile_qr_scan"}, "is_reserved": 0, "fusion_lon": 0.0, "fusion_lat": 0.0, "lon": -77.02345616666666, "name": "1f402113d91e4ad530aadb4786494242"}, {"bike_id": "aa75b2d7a6bedcfbdaf964eea4622251", "type": "electric_scooter", "is_disabled": 0, "lat": 38.92993833333333, "rental_uris": {"ios": "https://dc.lft.to/lastmile_qr_scan", "android": "https://dc.lft.to/lastmile_qr_scan"}, "is_reserved": 0, "fusion_lon": 0.0, "fusion_lat": 0.0, "lon": -77.0235185, "name": "aa75b2d7a6bedcfbdaf964eea4622251"}, {"bike_id": "8e9ecbf319874906ffb73a9bf799cc48", "type": "electric_scooter", "is_disabled": 0, "lat": 38.906846, "rental_uris": {"ios": "https://dc.lft.to/lastmile_qr_scan", "android": "https://dc.lft.to/lastmile_qr_scan"}, "is_reserved": 0, "fusion_lon": 0.0, "fusion_lat": 0.0, "lon": -77.06542183333333, "name": "8e9ecbf319874906ffb73a9bf799cc48"}, {"bike_id": "6eb7d52e9ffca2750c08a15ed3da5c04", "type": "electric_bike", "is_disabled": 0, "lat": 38.857603, "rental_uris": {"ios": "https://dc.lft.to/lastmile_qr_scan", "android": "https://dc.lft.to/lastmile_qr_scan"}, "is_reserved": 0, "fusion_lon": 0.0, "fusion_lat": 0.0, "lon": -76.98761983333333, "name": "6eb7d52e9ffca2750c08a15ed3da5c04"}, {"bike_id": "4f71527bf77676cba53db6ba79e1203b", "type": "electric_bike", "is_disabled": 0, "lat": 38.93861616666667, "rental_uris": {"ios": "https://dc.lft.to/lastmile_qr_scan", "android": "https://dc.lft.to/lastmile_qr_scan"}, "is_reserved": 0, "fusion_lon": 0.0, "fusion_lat": 0.0, "lon": -77.0269305, "name": "4f71527bf77676cba53db6ba79e1203b"}, {"bike_id": "73732a9d9d3a98399a99e6f5dedf40ea", "type": "electric_scooter", "is_disabled": 0, "lat": 38.91755783333333, "rental_uris": {"ios": "https://dc.lft.to/lastmile_qr_scan", "android": "https://dc.lft.to/lastmile_qr_scan"}, "is_reserved": 0, "fusion_lon": 0.0, "fusion_lat": 0.0, "lon": -77.02287483333333, "name": "73732a9d9d3a98399a99e6f5dedf40ea"}, {"bike_id": "6b5b57f520560ec559eb8282e0d8c62c", "type": "electric_scooter", "is_disabled": 0, "lat": 38.9282175, "rental_uris": {"ios": "https://dc.lft.to/lastmile_qr_scan", "android": "https://dc.lft.to/lastmile_qr_scan"}, "is_reserved": 0, "fusion_lon": 0.0, "fusion_lat": 0.0, "lon": -77.02259983333333, "name": "6b5b57f520560ec559eb8282e0d8c62c"}, {"bike_id": "b1d31e39c2cca9eaf20a85ace1d53e66", "type": "electric_bike", "is_disabled": 0, "lat": 38.990884666666666, "rental_uris": {"ios": "https://dc.lft.to/lastmile_qr_scan", "android": "https://dc.lft.to/lastmile_qr_scan"}, "is_reserved": 0, "fusion_lon": 0.0, "fusion_lat": 0.0, "lon": -76.874966, "name": "b1d31e39c2cca9eaf20a85ace1d53e66"}, {"bike_id": "7d7ca8efee5f7ed333547990892df003", "type": "electric_scooter", "is_disabled": 0, "lat": 38.920080166666665, "rental_uris": {"ios": "https://dc.lft.to/lastmile_qr_scan", "android": "https://dc.lft.to/lastmile_qr_scan"}, "is_reserved": 0, "fusion_lon": 0.0, "fusion_lat": 0.0, "lon": -77.02392616666667, "name": "7d7ca8efee5f7ed333547990892df003"}, {"bike_id": "73302a5a5f7a83b9a39043dc1c798492", "type": "electric_scooter", "is_disabled": 0, "lat": 38.89725833333333, "rental_uris": {"ios": "https://dc.lft.to/lastmile_qr_scan", "android": "https://dc.lft.to/lastmile_qr_scan"}, "is_reserved": 0, "fusion_lon": 0.0, "fusion_lat": 0.0, "lon": -77.00362116666666, "name": "73302a5a5f7a83b9a39043dc1c798492"}, {"bike_id": "6eca4273019b2ebc02145cd01dce2bfe", "type": "electric_bike", "is_disabled": 0, "lat": 38.865062, "rental_uris": {"ios": "https://dc.lft.to/lastmile_qr_scan", "android": "https://dc.lft.to/lastmile_qr_scan"}, "is_reserved": 0, "fusion_lon": 0.0, "fusion_lat": 0.0, "lon": -76.97336483333333, "name": "6eca4273019b2ebc02145cd01dce2bfe"}, {"bike_id": "94327bb2c173791bcb61faaa55b9e039", "type": "electric_scooter", "is_disabled": 0, "lat": 38.843104833333335, "rental_uris": {"ios": "https://dc.lft.to/lastmile_qr_scan", "android": "https://dc.lft.to/lastmile_qr_scan"}, "is_reserved": 0, "fusion_lon": 0.0, "fusion_lat": 0.0, "lon": -76.99932383333334, "name": "94327bb2c173791bcb61faaa55b9e039"}, {"bike_id": "f667b4f16d4c48bfeaf015d290a0300f", "type": "electric_scooter", "is_disabled": 0, "lat": 38.89764133333333, "rental_uris": {"ios": "https://dc.lft.to/lastmile_qr_scan", "android": "https://dc.lft.to/lastmile_qr_scan"}, "is_reserved": 0, "fusion_lon": 0.0, "fusion_lat": 0.0, "lon": -77.02953633333334, "name": "f667b4f16d4c48bfeaf015d290a0300f"}, {"bike_id": "123e0a3cad00bfdbb1d49112c20f7c33", "type": "electric_scooter", "is_disabled": 0, "lat": 38.905033333333336, "rental_uris": {"ios": "https://dc.lft.to/lastmile_qr_scan", "android": "https://dc.lft.to/lastmile_qr_scan"}, "is_reserved": 0, "fusion_lon": 0.0, "fusion_lat": 0.0, "lon": -77.060221, "name": "123e0a3cad00bfdbb1d49112c20f7c33"}, {"bike_id": "3468be7f53ced2f98666527767d44eee", "type": "electric_scooter", "is_disabled": 0, "lat": 38.89496533333333, "rental_uris": {"ios": "https://dc.lft.to/lastmile_qr_scan", "android": "https://dc.lft.to/lastmile_qr_scan"}, "is_reserved": 0, "fusion_lon": 0.0, "fusion_lat": 0.0, "lon": -76.98834, "name": "3468be7f53ced2f98666527767d44eee"}, {"bike_id": "6168e5aeb6f6ece35aa0a1ac455794b0", "type": "electric_scooter", "is_disabled": 0, "lat": 38.92609816666667, "rental_uris": {"ios": "https://dc.lft.to/lastmile_qr_scan", "android": "https://dc.lft.to/lastmile_qr_scan"}, "is_reserved": 0, "fusion_lon": 0.0, "fusion_lat": 0.0, "lon": -77.0216025, "name": "6168e5aeb6f6ece35aa0a1ac455794b0"}, {"bike_id": "04dd68ab4b005a004bbd0a3acc6cd1bd", "type": "electric_scooter", "is_disabled": 0, "lat": 38.8887925, "rental_uris": {"ios": "https://dc.lft.to/lastmile_qr_scan", "android": "https://dc.lft.to/lastmile_qr_scan"}, "is_reserved": 0, "fusion_lon": 0.0, "fusion_lat": 0.0, "lon": -76.9903915, "name": "04dd68ab4b005a004bbd0a3acc6cd1bd"}, {"bike_id": "814b918ee34646440614f2e8bbd82aab", "type": "electric_scooter", "is_disabled": 0, "lat": 38.9252975, "rental_uris": {"ios": "https://dc.lft.to/lastmile_qr_scan", "android": "https://dc.lft.to/lastmile_qr_scan"}, "is_reserved": 0, "fusion_lon": 0.0, "fusion_lat": 0.0, "lon": -77.07716616666667, "name": "814b918ee34646440614f2e8bbd82aab"}, {"bike_id": "f5a0878da578cea50d6579c1e7fddcbb", "type": "electric_scooter", "is_disabled": 0, "lat": 38.909595333333336, "rental_uris": {"ios": "https://dc.lft.to/lastmile_qr_scan", "android": "https://dc.lft.to/lastmile_qr_scan"}, "is_reserved": 0, "fusion_lon": 0.0, "fusion_lat": 0.0, "lon": -77.02305733333333, "name": "f5a0878da578cea50d6579c1e7fddcbb"}, {"bike_id": "c4dbc44fbbaff891ca012e2355a3cf57", "type": "electric_scooter", "is_disabled": 0, "lat": 38.892257, "rental_uris": {"ios": "https://dc.lft.to/lastmile_qr_scan", "android": "https://dc.lft.to/lastmile_qr_scan"}, "is_reserved": 0, "fusion_lon": 0.0, "fusion_lat": 0.0, "lon": -77.04996166666666, "name": "c4dbc44fbbaff891ca012e2355a3cf57"}, {"bike_id": "898eef69b24f95e66c426057745f415f", "type": "electric_scooter", "is_disabled": 0, "lat": 38.92750683333333, "rental_uris": {"ios": "https://dc.lft.to/lastmile_qr_scan", "android": "https://dc.lft.to/lastmile_qr_scan"}, "is_reserved": 0, "fusion_lon": 0.0, "fusion_lat": 0.0, "lon": -77.03266183333334, "name": "898eef69b24f95e66c426057745f415f"}, {"bike_id": "2cca70553b21dc55b6ea0d74e1c30831", "type": "electric_scooter", "is_disabled": 0, "lat": 38.916993833333336, "rental_uris": {"ios": "https://dc.lft.to/lastmile_qr_scan", "android": "https://dc.lft.to/lastmile_qr_scan"}, "is_reserved": 0, "fusion_lon": 0.0, "fusion_lat": 0.0, "lon": -77.0311085, "name": "2cca70553b21dc55b6ea0d74e1c30831"}, {"bike_id": "64212646dc3b1b122d462f71ca196098", "type": "electric_scooter", "is_disabled": 0, "lat": 38.91108416666667, "rental_uris": {"ios": "https://dc.lft.to/lastmile_qr_scan", "android": "https://dc.lft.to/lastmile_qr_scan"}, "is_reserved": 0, "fusion_lon": 0.0, "fusion_lat": 0.0, "lon": -77.02140716666666, "name": "64212646dc3b1b122d462f71ca196098"}, {"bike_id": "ebaa0a41e80b7c75b7f3b43199637372", "type": "electric_scooter", "is_disabled": 0, "lat": 38.95658783333333, "rental_uris": {"ios": "https://dc.lft.to/lastmile_qr_scan", "android": "https://dc.lft.to/lastmile_qr_scan"}, "is_reserved": 0, "fusion_lon": 0.0, "fusion_lat": 0.0, "lon": -77.02403766666667, "name": "ebaa0a41e80b7c75b7f3b43199637372"}, {"bike_id": "2f786a42c3928739cbc2b6f469415511", "type": "electric_scooter", "is_disabled": 0, "lat": 38.92312016666666, "rental_uris": {"ios": "https://dc.lft.to/lastmile_qr_scan", "android": "https://dc.lft.to/lastmile_qr_scan"}, "is_reserved": 0, "fusion_lon": 0.0, "fusion_lat": 0.0, "lon": -77.0391305, "name": "2f786a42c3928739cbc2b6f469415511"}, {"bike_id": "06a09417dc6dd9a9812d6d0c9e245b3e", "type": "electric_scooter", "is_disabled": 0, "lat": 38.886263166666666, "rental_uris": {"ios": "https://dc.lft.to/lastmile_qr_scan", "android": "https://dc.lft.to/lastmile_qr_scan"}, "is_reserved": 0, "fusion_lon": 0.0, "fusion_lat": 0.0, "lon": -76.99620016666667, "name": "06a09417dc6dd9a9812d6d0c9e245b3e"}, {"bike_id": "97373f660e79a2011b152999bfb65603", "type": "electric_scooter", "is_disabled": 0, "lat": 38.867796166666665, "rental_uris": {"ios": "https://dc.lft.to/lastmile_qr_scan", "android": "https://dc.lft.to/lastmile_qr_scan"}, "is_reserved": 0, "fusion_lon": 0.0, "fusion_lat": 0.0, "lon": -76.98842866666666, "name": "97373f660e79a2011b152999bfb65603"}, {"bike_id": "4e2ecd95f501a1fba9bdb062c983ae9f", "type": "electric_scooter", "is_disabled": 0, "lat": 38.90223966666667, "rental_uris": {"ios": "https://dc.lft.to/lastmile_qr_scan", "android": "https://dc.lft.to/lastmile_qr_scan"}, "is_reserved": 0, "fusion_lon": 0.0, "fusion_lat": 0.0, "lon": -77.04165633333334, "name": "4e2ecd95f501a1fba9bdb062c983ae9f"}, {"bike_id": "154e20dd14d1cb38bba4ce963b726d10", "type": "electric_scooter", "is_disabled": 0, "lat": 38.950021166666666, "rental_uris": {"ios": "https://dc.lft.to/lastmile_qr_scan", "android": "https://dc.lft.to/lastmile_qr_scan"}, "is_reserved": 0, "fusion_lon": 0.0, "fusion_lat": 0.0, "lon": -77.01559383333333, "name": "154e20dd14d1cb38bba4ce963b726d10"}, {"bike_id": "0f36de757d88219edc31524784f2bb14", "type": "electric_scooter", "is_disabled": 0, "lat": 38.862406666666665, "rental_uris": {"ios": "https://dc.lft.to/lastmile_qr_scan", "android": "https://dc.lft.to/lastmile_qr_scan"}, "is_reserved": 0, "fusion_lon": 0.0, "fusion_lat": 0.0, "lon": -76.9949555, "name": "0f36de757d88219edc31524784f2bb14"}, {"bike_id": "07e33e9165ef1c089c901fdb63d53670", "type": "electric_scooter", "is_disabled": 0, "lat": 38.902611, "rental_uris": {"ios": "https://dc.lft.to/lastmile_qr_scan", "android": "https://dc.lft.to/lastmile_qr_scan"}, "is_reserved": 0, "fusion_lon": 0.0, "fusion_lat": 0.0, "lon": -77.0175125, "name": "07e33e9165ef1c089c901fdb63d53670"}, {"bike_id": "0b1413bfd78052a7e7d94198eaecc788", "type": "electric_scooter", "is_disabled": 0, "lat": 38.90163666666667, "rental_uris": {"ios": "https://dc.lft.to/lastmile_qr_scan", "android": "https://dc.lft.to/lastmile_qr_scan"}, "is_reserved": 0, "fusion_lon": 0.0, "fusion_lat": 0.0, "lon": -77.02206583333333, "name": "0b1413bfd78052a7e7d94198eaecc788"}, {"bike_id": "7b7d98328aa596c834b6ea01b7b1e7c5", "type": "electric_scooter", "is_disabled": 0, "lat": 38.890107, "rental_uris": {"ios": "https://dc.lft.to/lastmile_qr_scan", "android": "https://dc.lft.to/lastmile_qr_scan"}, "is_reserved": 0, "fusion_lon": 0.0, "fusion_lat": 0.0, "lon": -76.93748016666666, "name": "7b7d98328aa596c834b6ea01b7b1e7c5"}, {"bike_id": "a790bc731a65e55de948e94d317b16cb", "type": "electric_scooter", "is_disabled": 0, "lat": 38.904716, "rental_uris": {"ios": "https://dc.lft.to/lastmile_qr_scan", "android": "https://dc.lft.to/lastmile_qr_scan"}, "is_reserved": 0, "fusion_lon": 0.0, "fusion_lat": 0.0, "lon": -77.06615983333333, "name": "a790bc731a65e55de948e94d317b16cb"}, {"bike_id": "32effa27710205538d047edbf9124303", "type": "electric_scooter", "is_disabled": 0, "lat": 38.914105, "rental_uris": {"ios": "https://dc.lft.to/lastmile_qr_scan", "android": "https://dc.lft.to/lastmile_qr_scan"}, "is_reserved": 0, "fusion_lon": 0.0, "fusion_lat": 0.0, "lon": -77.02420483333333, "name": "32effa27710205538d047edbf9124303"}, {"bike_id": "fd01a7585e59e5a227e24698dee3a186", "type": "electric_scooter", "is_disabled": 0, "lat": 38.9012745, "rental_uris": {"ios": "https://dc.lft.to/lastmile_qr_scan", "android": "https://dc.lft.to/lastmile_qr_scan"}, "is_reserved": 0, "fusion_lon": 0.0, "fusion_lat": 0.0, "lon": -77.01836433333334, "name": "fd01a7585e59e5a227e24698dee3a186"}, {"bike_id": "1b631e2b95efaa65816b46170c88b50c", "type": "electric_scooter", "is_disabled": 0, "lat": 38.885338, "rental_uris": {"ios": "https://dc.lft.to/lastmile_qr_scan", "android": "https://dc.lft.to/lastmile_qr_scan"}, "is_reserved": 0, "fusion_lon": 0.0, "fusion_lat": 0.0, "lon": -76.9982955, "name": "1b631e2b95efaa65816b46170c88b50c"}, {"bike_id": "4e32052b3275a63d2ba86a06088c5c94", "type": "electric_scooter", "is_disabled": 0, "lat": 38.90447983333333, "rental_uris": {"ios": "https://dc.lft.to/lastmile_qr_scan", "android": "https://dc.lft.to/lastmile_qr_scan"}, "is_reserved": 0, "fusion_lon": 0.0, "fusion_lat": 0.0, "lon": -77.0347185, "name": "4e32052b3275a63d2ba86a06088c5c94"}, {"bike_id": "c50e2e7bda013ae96859f56664bd4709", "type": "electric_scooter", "is_disabled": 0, "lat": 38.8788165, "rental_uris": {"ios": "https://dc.lft.to/lastmile_qr_scan", "android": "https://dc.lft.to/lastmile_qr_scan"}, "is_reserved": 0, "fusion_lon": 0.0, "fusion_lat": 0.0, "lon": -77.02317083333334, "name": "c50e2e7bda013ae96859f56664bd4709"}, {"bike_id": "f63e9dbe6d72ae11e4800e7c6dddad0b", "type": "electric_scooter", "is_disabled": 0, "lat": 38.922309, "rental_uris": {"ios": "https://dc.lft.to/lastmile_qr_scan", "android": "https://dc.lft.to/lastmile_qr_scan"}, "is_reserved": 0, "fusion_lon": 0.0, "fusion_lat": 0.0, "lon": -76.97531333333333, "name": "f63e9dbe6d72ae11e4800e7c6dddad0b"}, {"bike_id": "ee62c3799fe191e3a37b9422a725928a", "type": "electric_bike", "is_disabled": 0, "lat": 38.92398566666667, "rental_uris": {"ios": "https://dc.lft.to/lastmile_qr_scan", "android": "https://dc.lft.to/lastmile_qr_scan"}, "is_reserved": 0, "fusion_lon": 0.0, "fusion_lat": 0.0, "lon": -77.024284, "name": "ee62c3799fe191e3a37b9422a725928a"}, {"bike_id": "c12cfebf5196dbecfbd7ed3e18f997d0", "type": "electric_scooter", "is_disabled": 0, "lat": 38.899805, "rental_uris": {"ios": "https://dc.lft.to/lastmile_qr_scan", "android": "https://dc.lft.to/lastmile_qr_scan"}, "is_reserved": 0, "fusion_lon": 0.0, "fusion_lat": 0.0, "lon": -77.020773, "name": "c12cfebf5196dbecfbd7ed3e18f997d0"}, {"bike_id": "fa2db0071df20be8fe8259b693ccf42e", "type": "electric_scooter", "is_disabled": 0, "lat": 38.89831816666667, "rental_uris": {"ios": "https://dc.lft.to/lastmile_qr_scan", "android": "https://dc.lft.to/lastmile_qr_scan"}, "is_reserved": 0, "fusion_lon": 0.0, "fusion_lat": 0.0, "lon": -77.02975483333333, "name": "fa2db0071df20be8fe8259b693ccf42e"}, {"bike_id": "0ea21001f26e488d8ed42dbb1ac4b5d8", "type": "electric_scooter", "is_disabled": 0, "lat": 38.933185333333334, "rental_uris": {"ios": "https://dc.lft.to/lastmile_qr_scan", "android": "https://dc.lft.to/lastmile_qr_scan"}, "is_reserved": 0, "fusion_lon": 0.0, "fusion_lat": 0.0, "lon": -77.02753483333333, "name": "0ea21001f26e488d8ed42dbb1ac4b5d8"}, {"bike_id": "42795035a29e8d4e442176b292e9fea8", "type": "electric_scooter", "is_disabled": 0, "lat": 38.909539, "rental_uris": {"ios": "https://dc.lft.to/lastmile_qr_scan", "android": "https://dc.lft.to/lastmile_qr_scan"}, "is_reserved": 0, "fusion_lon": 0.0, "fusion_lat": 0.0, "lon": -77.007577, "name": "42795035a29e8d4e442176b292e9fea8"}, {"bike_id": "601778742c7b8105444705baf07c8560", "type": "electric_scooter", "is_disabled": 0, "lat": 38.87658716666667, "rental_uris": {"ios": "https://dc.lft.to/lastmile_qr_scan", "android": "https://dc.lft.to/lastmile_qr_scan"}, "is_reserved": 0, "fusion_lon": 0.0, "fusion_lat": 0.0, "lon": -76.99640183333334, "name": "601778742c7b8105444705baf07c8560"}, {"bike_id": "512fa1903e9641cd7a9127a425c5b5b7", "type": "electric_scooter", "is_disabled": 0, "lat": 38.919607, "rental_uris": {"ios": "https://dc.lft.to/lastmile_qr_scan", "android": "https://dc.lft.to/lastmile_qr_scan"}, "is_reserved": 0, "fusion_lon": 0.0, "fusion_lat": 0.0, "lon": -77.04241383333333, "name": "512fa1903e9641cd7a9127a425c5b5b7"}, {"bike_id": "f4df8fe51e107fd0a35216f3abcce2a1", "type": "electric_scooter", "is_disabled": 0, "lat": 38.90951066666667, "rental_uris": {"ios": "https://dc.lft.to/lastmile_qr_scan", "android": "https://dc.lft.to/lastmile_qr_scan"}, "is_reserved": 0, "fusion_lon": 0.0, "fusion_lat": 0.0, "lon": -77.03945916666666, "name": "f4df8fe51e107fd0a35216f3abcce2a1"}, {"bike_id": "34ae0ec002dfb4efcdd6766b1326e7ed", "type": "electric_scooter", "is_disabled": 0, "lat": 38.92092866666667, "rental_uris": {"ios": "https://dc.lft.to/lastmile_qr_scan", "android": "https://dc.lft.to/lastmile_qr_scan"}, "is_reserved": 0, "fusion_lon": 0.0, "fusion_lat": 0.0, "lon": -77.01692166666666, "name": "34ae0ec002dfb4efcdd6766b1326e7ed"}, {"bike_id": "9b03929c1f1bae43ce1bef8e997dd103", "type": "electric_scooter", "is_disabled": 0, "lat": 38.89233816666667, "rental_uris": {"ios": "https://dc.lft.to/lastmile_qr_scan", "android": "https://dc.lft.to/lastmile_qr_scan"}, "is_reserved": 0, "fusion_lon": 0.0, "fusion_lat": 0.0, "lon": -77.02382566666667, "name": "9b03929c1f1bae43ce1bef8e997dd103"}, {"bike_id": "e4646e01d00396c8a8249834abb1841f", "type": "electric_scooter", "is_disabled": 0, "lat": 38.9059505, "rental_uris": {"ios": "https://dc.lft.to/lastmile_qr_scan", "android": "https://dc.lft.to/lastmile_qr_scan"}, "is_reserved": 0, "fusion_lon": 0.0, "fusion_lat": 0.0, "lon": -77.06801366666667, "name": "e4646e01d00396c8a8249834abb1841f"}, {"bike_id": "0e33d1a1611f6b469d73dfdfc67b6a3f", "type": "electric_scooter", "is_disabled": 0, "lat": 38.9222595, "rental_uris": {"ios": "https://dc.lft.to/lastmile_qr_scan", "android": "https://dc.lft.to/lastmile_qr_scan"}, "is_reserved": 0, "fusion_lon": 0.0, "fusion_lat": 0.0, "lon": -77.04714316666667, "name": "0e33d1a1611f6b469d73dfdfc67b6a3f"}, {"bike_id": "db84e519061ae7fab27c964d78aedbe3", "type": "electric_scooter", "is_disabled": 0, "lat": 38.92079066666667, "rental_uris": {"ios": "https://dc.lft.to/lastmile_qr_scan", "android": "https://dc.lft.to/lastmile_qr_scan"}, "is_reserved": 0, "fusion_lon": 0.0, "fusion_lat": 0.0, "lon": -77.00453933333333, "name": "db84e519061ae7fab27c964d78aedbe3"}, {"bike_id": "9d819b3e36f6df3ca0a0b838c2a3c7a4", "type": "electric_bike", "is_disabled": 0, "lat": 38.83604866666667, "rental_uris": {"ios": "https://dc.lft.to/lastmile_qr_scan", "android": "https://dc.lft.to/lastmile_qr_scan"}, "is_reserved": 0, "fusion_lon": 0.0, "fusion_lat": 0.0, "lon": -77.00382233333333, "name": "9d819b3e36f6df3ca0a0b838c2a3c7a4"}, {"bike_id": "c4a1842a48b37be2e9a38bebde6c0821", "type": "electric_bike", "is_disabled": 0, "lat": 38.859343, "rental_uris": {"ios": "https://dc.lft.to/lastmile_qr_scan", "android": "https://dc.lft.to/lastmile_qr_scan"}, "is_reserved": 0, "fusion_lon": 0.0, "fusion_lat": 0.0, "lon": -77.1182785, "name": "c4a1842a48b37be2e9a38bebde6c0821"}, {"bike_id": "1059ac105eb0c86310fff90b99ef02a8", "type": "electric_scooter", "is_disabled": 0, "lat": 38.932019833333335, "rental_uris": {"ios": "https://dc.lft.to/lastmile_qr_scan", "android": "https://dc.lft.to/lastmile_qr_scan"}, "is_reserved": 0, "fusion_lon": 0.0, "fusion_lat": 0.0, "lon": -77.03672383333334, "name": "1059ac105eb0c86310fff90b99ef02a8"}, {"bike_id": "f82ea81562db364ef50909e4563c2242", "type": "electric_bike", "is_disabled": 0, "lat": 38.8236705, "rental_uris": {"ios": "https://dc.lft.to/lastmile_qr_scan", "android": "https://dc.lft.to/lastmile_qr_scan"}, "is_reserved": 0, "fusion_lon": 0.0, "fusion_lat": 0.0, "lon": -77.00219166666666, "name": "f82ea81562db364ef50909e4563c2242"}, {"bike_id": "595f93c392da6c347e2c66940e3f1e94", "type": "electric_bike", "is_disabled": 0, "lat": 38.898043, "rental_uris": {"ios": "https://dc.lft.to/lastmile_qr_scan", "android": "https://dc.lft.to/lastmile_qr_scan"}, "is_reserved": 0, "fusion_lon": 0.0, "fusion_lat": 0.0, "lon": -76.99075316666666, "name": "595f93c392da6c347e2c66940e3f1e94"}, {"bike_id": "791369219e35c5d39c612ea7be703bc7", "type": "electric_scooter", "is_disabled": 0, "lat": 38.93442433333333, "rental_uris": {"ios": "https://dc.lft.to/lastmile_qr_scan", "android": "https://dc.lft.to/lastmile_qr_scan"}, "is_reserved": 0, "fusion_lon": 0.0, "fusion_lat": 0.0, "lon": -77.0297825, "name": "791369219e35c5d39c612ea7be703bc7"}, {"bike_id": "bb214717c7738d2b14c0d9d296e00c1e", "type": "electric_scooter", "is_disabled": 0, "lat": 38.921941, "rental_uris": {"ios": "https://dc.lft.to/lastmile_qr_scan", "android": "https://dc.lft.to/lastmile_qr_scan"}, "is_reserved": 0, "fusion_lon": 0.0, "fusion_lat": 0.0, "lon": -76.99364666666666, "name": "bb214717c7738d2b14c0d9d296e00c1e"}, {"bike_id": "a8b4ebe937993a475420e31b69a76708", "type": "electric_bike", "is_disabled": 0, "lat": 39.0578295, "rental_uris": {"ios": "https://dc.lft.to/lastmile_qr_scan", "android": "https://dc.lft.to/lastmile_qr_scan"}, "is_reserved": 0, "fusion_lon": 0.0, "fusion_lat": 0.0, "lon": -77.15018916666666, "name": "a8b4ebe937993a475420e31b69a76708"}, {"bike_id": "854a1d2cf5920fe8e500553444bcc556", "type": "electric_scooter", "is_disabled": 0, "lat": 38.844364166666665, "rental_uris": {"ios": "https://dc.lft.to/lastmile_qr_scan", "android": "https://dc.lft.to/lastmile_qr_scan"}, "is_reserved": 0, "fusion_lon": 0.0, "fusion_lat": 0.0, "lon": -76.98744, "name": "854a1d2cf5920fe8e500553444bcc556"}, {"bike_id": "1476946876d31ad933c8641c69b5e251", "type": "electric_bike", "is_disabled": 0, "lat": 38.89739, "rental_uris": {"ios": "https://dc.lft.to/lastmile_qr_scan", "android": "https://dc.lft.to/lastmile_qr_scan"}, "is_reserved": 0, "fusion_lon": 0.0, "fusion_lat": 0.0, "lon": -76.94247066666667, "name": "1476946876d31ad933c8641c69b5e251"}, {"bike_id": "160a26beee82e02fbf8431d94f4d89f9", "type": "electric_scooter", "is_disabled": 0, "lat": 38.8570405, "rental_uris": {"ios": "https://dc.lft.to/lastmile_qr_scan", "android": "https://dc.lft.to/lastmile_qr_scan"}, "is_reserved": 0, "fusion_lon": 0.0, "fusion_lat": 0.0, "lon": -76.989659, "name": "160a26beee82e02fbf8431d94f4d89f9"}, {"bike_id": "af634a217d5d0f292fafea3253259fdd", "type": "electric_scooter", "is_disabled": 0, "lat": 38.9006165, "rental_uris": {"ios": "https://dc.lft.to/lastmile_qr_scan", "android": "https://dc.lft.to/lastmile_qr_scan"}, "is_reserved": 0, "fusion_lon": 0.0, "fusion_lat": 0.0, "lon": -76.93477683333333, "name": "af634a217d5d0f292fafea3253259fdd"}, {"bike_id": "a55d666532bc70de444cb50fa183ba55", "type": "electric_scooter", "is_disabled": 0, "lat": 38.91275566666667, "rental_uris": {"ios": "https://dc.lft.to/lastmile_qr_scan", "android": "https://dc.lft.to/lastmile_qr_scan"}, "is_reserved": 0, "fusion_lon": 0.0, "fusion_lat": 0.0, "lon": -77.047415, "name": "a55d666532bc70de444cb50fa183ba55"}, {"bike_id": "371f06bc2778b9d4b1420fe58e5c9dac", "type": "electric_scooter", "is_disabled": 0, "lat": 38.890118333333334, "rental_uris": {"ios": "https://dc.lft.to/lastmile_qr_scan", "android": "https://dc.lft.to/lastmile_qr_scan"}, "is_reserved": 0, "fusion_lon": 0.0, "fusion_lat": 0.0, "lon": -76.93751033333334, "name": "371f06bc2778b9d4b1420fe58e5c9dac"}, {"bike_id": "7936b641bd29cbaedb02682558900c35", "type": "electric_scooter", "is_disabled": 0, "lat": 38.930046, "rental_uris": {"ios": "https://dc.lft.to/lastmile_qr_scan", "android": "https://dc.lft.to/lastmile_qr_scan"}, "is_reserved": 0, "fusion_lon": 0.0, "fusion_lat": 0.0, "lon": -77.014324, "name": "7936b641bd29cbaedb02682558900c35"}, {"bike_id": "1acaf9bd0400cfbdfc2e2179b8e7bbf8", "type": "electric_scooter", "is_disabled": 0, "lat": 38.93528333333333, "rental_uris": {"ios": "https://dc.lft.to/lastmile_qr_scan", "android": "https://dc.lft.to/lastmile_qr_scan"}, "is_reserved": 0, "fusion_lon": 0.0, "fusion_lat": 0.0, "lon": -77.02348483333333, "name": "1acaf9bd0400cfbdfc2e2179b8e7bbf8"}, {"bike_id": "c22783594de7a1a7f908dc8c4d9ccb16", "type": "electric_bike", "is_disabled": 0, "lat": 38.89622166666667, "rental_uris": {"ios": "https://dc.lft.to/lastmile_qr_scan", "android": "https://dc.lft.to/lastmile_qr_scan"}, "is_reserved": 0, "fusion_lon": 0.0, "fusion_lat": 0.0, "lon": -77.02210766666667, "name": "c22783594de7a1a7f908dc8c4d9ccb16"}, {"bike_id": "9bd574a36d2e987538d4f811d03e61b9", "type": "electric_scooter", "is_disabled": 0, "lat": 38.9157205, "rental_uris": {"ios": "https://dc.lft.to/lastmile_qr_scan", "android": "https://dc.lft.to/lastmile_qr_scan"}, "is_reserved": 0, "fusion_lon": 0.0, "fusion_lat": 0.0, "lon": -77.01998783333333, "name": "9bd574a36d2e987538d4f811d03e61b9"}, {"bike_id": "4fc3c48eb509b9c697bd0421a34ef785", "type": "electric_scooter", "is_disabled": 0, "lat": 38.901610833333336, "rental_uris": {"ios": "https://dc.lft.to/lastmile_qr_scan", "android": "https://dc.lft.to/lastmile_qr_scan"}, "is_reserved": 0, "fusion_lon": 0.0, "fusion_lat": 0.0, "lon": -77.02201716666667, "name": "4fc3c48eb509b9c697bd0421a34ef785"}, {"bike_id": "4fc48a79954a7e970e7edbbf7be0bccc", "type": "electric_scooter", "is_disabled": 0, "lat": 38.90357266666667, "rental_uris": {"ios": "https://dc.lft.to/lastmile_qr_scan", "android": "https://dc.lft.to/lastmile_qr_scan"}, "is_reserved": 0, "fusion_lon": 0.0, "fusion_lat": 0.0, "lon": -76.993882, "name": "4fc48a79954a7e970e7edbbf7be0bccc"}, {"bike_id": "539a5ff269a749c31cc607529a4b28fa", "type": "electric_bike", "is_disabled": 0, "lat": 39.05496316666667, "rental_uris": {"ios": "https://dc.lft.to/lastmile_qr_scan", "android": "https://dc.lft.to/lastmile_qr_scan"}, "is_reserved": 0, "fusion_lon": 0.0, "fusion_lat": 0.0, "lon": -77.1179005, "name": "539a5ff269a749c31cc607529a4b28fa"}, {"bike_id": "a3daeed0ecc830181a915d85e071e012", "type": "electric_scooter", "is_disabled": 0, "lat": 38.9039055, "rental_uris": {"ios": "https://dc.lft.to/lastmile_qr_scan", "android": "https://dc.lft.to/lastmile_qr_scan"}, "is_reserved": 0, "fusion_lon": 0.0, "fusion_lat": 0.0, "lon": -77.00578683333333, "name": "a3daeed0ecc830181a915d85e071e012"}, {"bike_id": "ccae43a4800f461dbc6f021bb007e449", "type": "electric_scooter", "is_disabled": 0, "lat": 38.90536983333333, "rental_uris": {"ios": "https://dc.lft.to/lastmile_qr_scan", "android": "https://dc.lft.to/lastmile_qr_scan"}, "is_reserved": 0, "fusion_lon": 0.0, "fusion_lat": 0.0, "lon": -77.06893716666667, "name": "ccae43a4800f461dbc6f021bb007e449"}, {"bike_id": "5acf372c9b8405ee093fefc1b24fef01", "type": "electric_scooter", "is_disabled": 0, "lat": 38.90656516666667, "rental_uris": {"ios": "https://dc.lft.to/lastmile_qr_scan", "android": "https://dc.lft.to/lastmile_qr_scan"}, "is_reserved": 0, "fusion_lon": 0.0, "fusion_lat": 0.0, "lon": -77.00926233333334, "name": "5acf372c9b8405ee093fefc1b24fef01"}, {"bike_id": "a258290334f8437a04fa94c883832a2b", "type": "electric_bike", "is_disabled": 0, "lat": 38.908292833333334, "rental_uris": {"ios": "https://dc.lft.to/lastmile_qr_scan", "android": "https://dc.lft.to/lastmile_qr_scan"}, "is_reserved": 0, "fusion_lon": 0.0, "fusion_lat": 0.0, "lon": -76.94159933333333, "name": "a258290334f8437a04fa94c883832a2b"}, {"bike_id": "1ba1a78c2c590dc48e168b2b01888a80", "type": "electric_bike", "is_disabled": 0, "lat": 39.0372965, "rental_uris": {"ios": "https://dc.lft.to/lastmile_qr_scan", "android": "https://dc.lft.to/lastmile_qr_scan"}, "is_reserved": 0, "fusion_lon": 0.0, "fusion_lat": 0.0, "lon": -77.05474783333334, "name": "1ba1a78c2c590dc48e168b2b01888a80"}, {"bike_id": "38cb02d18fd10a571b3ca498f5605e47", "type": "electric_scooter", "is_disabled": 0, "lat": 38.92865533333333, "rental_uris": {"ios": "https://dc.lft.to/lastmile_qr_scan", "android": "https://dc.lft.to/lastmile_qr_scan"}, "is_reserved": 0, "fusion_lon": 0.0, "fusion_lat": 0.0, "lon": -77.01380383333333, "name": "38cb02d18fd10a571b3ca498f5605e47"}, {"bike_id": "ec3d6890c93e9af639a508e11f7d3386", "type": "electric_scooter", "is_disabled": 0, "lat": 38.9052945, "rental_uris": {"ios": "https://dc.lft.to/lastmile_qr_scan", "android": "https://dc.lft.to/lastmile_qr_scan"}, "is_reserved": 0, "fusion_lon": 0.0, "fusion_lat": 0.0, "lon": -77.05936766666666, "name": "ec3d6890c93e9af639a508e11f7d3386"}, {"bike_id": "4aad30e6e87cd8a089c00d3da38f7a88", "type": "electric_scooter", "is_disabled": 0, "lat": 38.89822616666667, "rental_uris": {"ios": "https://dc.lft.to/lastmile_qr_scan", "android": "https://dc.lft.to/lastmile_qr_scan"}, "is_reserved": 0, "fusion_lon": 0.0, "fusion_lat": 0.0, "lon": -77.02530166666666, "name": "4aad30e6e87cd8a089c00d3da38f7a88"}, {"bike_id": "babcf0ff91bfe9d32a3888798ada7d30", "type": "electric_scooter", "is_disabled": 0, "lat": 38.88423916666667, "rental_uris": {"ios": "https://dc.lft.to/lastmile_qr_scan", "android": "https://dc.lft.to/lastmile_qr_scan"}, "is_reserved": 0, "fusion_lon": 0.0, "fusion_lat": 0.0, "lon": -76.95755516666667, "name": "babcf0ff91bfe9d32a3888798ada7d30"}, {"bike_id": "866dd2ab2d4f98707443812c45d159ba", "type": "electric_scooter", "is_disabled": 0, "lat": 38.89702416666667, "rental_uris": {"ios": "https://dc.lft.to/lastmile_qr_scan", "android": "https://dc.lft.to/lastmile_qr_scan"}, "is_reserved": 0, "fusion_lon": 0.0, "fusion_lat": 0.0, "lon": -76.930033, "name": "866dd2ab2d4f98707443812c45d159ba"}, {"bike_id": "0e2ef9413fca512c2009e4b9c9746af7", "type": "electric_scooter", "is_disabled": 0, "lat": 38.901602, "rental_uris": {"ios": "https://dc.lft.to/lastmile_qr_scan", "android": "https://dc.lft.to/lastmile_qr_scan"}, "is_reserved": 0, "fusion_lon": 0.0, "fusion_lat": 0.0, "lon": -77.0249675, "name": "0e2ef9413fca512c2009e4b9c9746af7"}, {"bike_id": "ca48050974b071e07bf88d75ea92672c", "type": "electric_scooter", "is_disabled": 0, "lat": 38.902375166666666, "rental_uris": {"ios": "https://dc.lft.to/lastmile_qr_scan", "android": "https://dc.lft.to/lastmile_qr_scan"}, "is_reserved": 0, "fusion_lon": 0.0, "fusion_lat": 0.0, "lon": -76.99626483333333, "name": "ca48050974b071e07bf88d75ea92672c"}, {"bike_id": "c76e7271210339f52d75f3b1cf81b68b", "type": "electric_scooter", "is_disabled": 0, "lat": 38.91608983333333, "rental_uris": {"ios": "https://dc.lft.to/lastmile_qr_scan", "android": "https://dc.lft.to/lastmile_qr_scan"}, "is_reserved": 0, "fusion_lon": 0.0, "fusion_lat": 0.0, "lon": -77.023008, "name": "c76e7271210339f52d75f3b1cf81b68b"}, {"bike_id": "642d95c07cfbec6507d4b2f19abc9933", "type": "electric_scooter", "is_disabled": 0, "lat": 38.92475733333333, "rental_uris": {"ios": "https://dc.lft.to/lastmile_qr_scan", "android": "https://dc.lft.to/lastmile_qr_scan"}, "is_reserved": 0, "fusion_lon": 0.0, "fusion_lat": 0.0, "lon": -77.02836216666667, "name": "642d95c07cfbec6507d4b2f19abc9933"}, {"bike_id": "da8a37773895a7bdb4af7fed71753219", "type": "electric_scooter", "is_disabled": 0, "lat": 38.90145916666667, "rental_uris": {"ios": "https://dc.lft.to/lastmile_qr_scan", "android": "https://dc.lft.to/lastmile_qr_scan"}, "is_reserved": 0, "fusion_lon": 0.0, "fusion_lat": 0.0, "lon": -76.990193, "name": "da8a37773895a7bdb4af7fed71753219"}, {"bike_id": "37053c8eaa554b777e18c2a2669a8329", "type": "electric_scooter", "is_disabled": 0, "lat": 38.907313, "rental_uris": {"ios": "https://dc.lft.to/lastmile_qr_scan", "android": "https://dc.lft.to/lastmile_qr_scan"}, "is_reserved": 0, "fusion_lon": 0.0, "fusion_lat": 0.0, "lon": -77.01314933333333, "name": "37053c8eaa554b777e18c2a2669a8329"}, {"bike_id": "29237f5de1a5d710c7a24287f199b4cd", "type": "electric_scooter", "is_disabled": 0, "lat": 38.918156833333335, "rental_uris": {"ios": "https://dc.lft.to/lastmile_qr_scan", "android": "https://dc.lft.to/lastmile_qr_scan"}, "is_reserved": 0, "fusion_lon": 0.0, "fusion_lat": 0.0, "lon": -77.00759116666667, "name": "29237f5de1a5d710c7a24287f199b4cd"}, {"bike_id": "169a16f50883fe20b4b1a480ac256c1e", "type": "electric_scooter", "is_disabled": 0, "lat": 38.903453166666665, "rental_uris": {"ios": "https://dc.lft.to/lastmile_qr_scan", "android": "https://dc.lft.to/lastmile_qr_scan"}, "is_reserved": 0, "fusion_lon": 0.0, "fusion_lat": 0.0, "lon": -77.03649766666666, "name": "169a16f50883fe20b4b1a480ac256c1e"}, {"bike_id": "57b2d40f68a1bc834748b8af4e98e38a", "type": "electric_scooter", "is_disabled": 0, "lat": 38.907514666666664, "rental_uris": {"ios": "https://dc.lft.to/lastmile_qr_scan", "android": "https://dc.lft.to/lastmile_qr_scan"}, "is_reserved": 0, "fusion_lon": 0.0, "fusion_lat": 0.0, "lon": -77.031814, "name": "57b2d40f68a1bc834748b8af4e98e38a"}, {"bike_id": "f64c0106726e4839e816e66c47545bcf", "type": "electric_scooter", "is_disabled": 0, "lat": 38.9080775, "rental_uris": {"ios": "https://dc.lft.to/lastmile_qr_scan", "android": "https://dc.lft.to/lastmile_qr_scan"}, "is_reserved": 0, "fusion_lon": 0.0, "fusion_lat": 0.0, "lon": -77.043136, "name": "f64c0106726e4839e816e66c47545bcf"}, {"bike_id": "fdb0a2d5af0ea36c9be0902bc11aa020", "type": "electric_scooter", "is_disabled": 0, "lat": 38.90948016666667, "rental_uris": {"ios": "https://dc.lft.to/lastmile_qr_scan", "android": "https://dc.lft.to/lastmile_qr_scan"}, "is_reserved": 0, "fusion_lon": 0.0, "fusion_lat": 0.0, "lon": -77.04501366666666, "name": "fdb0a2d5af0ea36c9be0902bc11aa020"}, {"bike_id": "a769e3df830ff3467ea0d7f663ca2282", "type": "electric_scooter", "is_disabled": 0, "lat": 38.90816516666667, "rental_uris": {"ios": "https://dc.lft.to/lastmile_qr_scan", "android": "https://dc.lft.to/lastmile_qr_scan"}, "is_reserved": 0, "fusion_lon": 0.0, "fusion_lat": 0.0, "lon": -77.034588, "name": "a769e3df830ff3467ea0d7f663ca2282"}, {"bike_id": "cddf45e4bbe2a223c2b73a5fceecf530", "type": "electric_scooter", "is_disabled": 0, "lat": 38.903369166666664, "rental_uris": {"ios": "https://dc.lft.to/lastmile_qr_scan", "android": "https://dc.lft.to/lastmile_qr_scan"}, "is_reserved": 0, "fusion_lon": 0.0, "fusion_lat": 0.0, "lon": -77.05295933333333, "name": "cddf45e4bbe2a223c2b73a5fceecf530"}, {"bike_id": "00fea65a479bf3e8142f9bf4a2ee4a60", "type": "electric_scooter", "is_disabled": 0, "lat": 38.9191175, "rental_uris": {"ios": "https://dc.lft.to/lastmile_qr_scan", "android": "https://dc.lft.to/lastmile_qr_scan"}, "is_reserved": 0, "fusion_lon": 0.0, "fusion_lat": 0.0, "lon": -77.03418983333333, "name": "00fea65a479bf3e8142f9bf4a2ee4a60"}, {"bike_id": "d24b407d43acbc44e24d3fe48c8b11af", "type": "electric_scooter", "is_disabled": 0, "lat": 38.9386735, "rental_uris": {"ios": "https://dc.lft.to/lastmile_qr_scan", "android": "https://dc.lft.to/lastmile_qr_scan"}, "is_reserved": 0, "fusion_lon": 0.0, "fusion_lat": 0.0, "lon": -77.024526, "name": "d24b407d43acbc44e24d3fe48c8b11af"}, {"bike_id": "9f20dd9ea1a0b6477a99107bc3bd5b34", "type": "electric_scooter", "is_disabled": 0, "lat": 38.907266166666666, "rental_uris": {"ios": "https://dc.lft.to/lastmile_qr_scan", "android": "https://dc.lft.to/lastmile_qr_scan"}, "is_reserved": 0, "fusion_lon": 0.0, "fusion_lat": 0.0, "lon": -77.04353466666667, "name": "9f20dd9ea1a0b6477a99107bc3bd5b34"}, {"bike_id": "621ff310cd0011595e987a46d81b8570", "type": "electric_scooter", "is_disabled": 0, "lat": 38.9211365, "rental_uris": {"ios": "https://dc.lft.to/lastmile_qr_scan", "android": "https://dc.lft.to/lastmile_qr_scan"}, "is_reserved": 0, "fusion_lon": 0.0, "fusion_lat": 0.0, "lon": -77.017631, "name": "621ff310cd0011595e987a46d81b8570"}, {"bike_id": "0362f9abdf25944d285ad2405efc9837", "type": "electric_scooter", "is_disabled": 0, "lat": 38.913978166666666, "rental_uris": {"ios": "https://dc.lft.to/lastmile_qr_scan", "android": "https://dc.lft.to/lastmile_qr_scan"}, "is_reserved": 0, "fusion_lon": 0.0, "fusion_lat": 0.0, "lon": -77.0209745, "name": "0362f9abdf25944d285ad2405efc9837"}, {"bike_id": "c77fc8fa2bb8c423ef546b59a39aa327", "type": "electric_scooter", "is_disabled": 0, "lat": 38.88269183333333, "rental_uris": {"ios": "https://dc.lft.to/lastmile_qr_scan", "android": "https://dc.lft.to/lastmile_qr_scan"}, "is_reserved": 0, "fusion_lon": 0.0, "fusion_lat": 0.0, "lon": -76.99257816666666, "name": "c77fc8fa2bb8c423ef546b59a39aa327"}, {"bike_id": "789cf3e7d0029e9bba75a099800adca8", "type": "electric_scooter", "is_disabled": 0, "lat": 38.90683816666667, "rental_uris": {"ios": "https://dc.lft.to/lastmile_qr_scan", "android": "https://dc.lft.to/lastmile_qr_scan"}, "is_reserved": 0, "fusion_lon": 0.0, "fusion_lat": 0.0, "lon": -77.06339683333333, "name": "789cf3e7d0029e9bba75a099800adca8"}, {"bike_id": "316cd17b08af944ff8c9188889f580ab", "type": "electric_scooter", "is_disabled": 0, "lat": 38.90376666666667, "rental_uris": {"ios": "https://dc.lft.to/lastmile_qr_scan", "android": "https://dc.lft.to/lastmile_qr_scan"}, "is_reserved": 0, "fusion_lon": 0.0, "fusion_lat": 0.0, "lon": -77.00769933333333, "name": "316cd17b08af944ff8c9188889f580ab"}, {"bike_id": "d8e66819934a9da1dba20c05506b101b", "type": "electric_scooter", "is_disabled": 0, "lat": 38.9275525, "rental_uris": {"ios": "https://dc.lft.to/lastmile_qr_scan", "android": "https://dc.lft.to/lastmile_qr_scan"}, "is_reserved": 0, "fusion_lon": 0.0, "fusion_lat": 0.0, "lon": -77.02296716666666, "name": "d8e66819934a9da1dba20c05506b101b"}, {"bike_id": "cb841ba9fcb01d2db05ac10e56d8c002", "type": "electric_scooter", "is_disabled": 0, "lat": 38.905078833333334, "rental_uris": {"ios": "https://dc.lft.to/lastmile_qr_scan", "android": "https://dc.lft.to/lastmile_qr_scan"}, "is_reserved": 0, "fusion_lon": 0.0, "fusion_lat": 0.0, "lon": -77.06377333333333, "name": "cb841ba9fcb01d2db05ac10e56d8c002"}, {"bike_id": "526742cc9d8df10e229bba5b05a3f217", "type": "electric_scooter", "is_disabled": 0, "lat": 38.909632333333334, "rental_uris": {"ios": "https://dc.lft.to/lastmile_qr_scan", "android": "https://dc.lft.to/lastmile_qr_scan"}, "is_reserved": 0, "fusion_lon": 0.0, "fusion_lat": 0.0, "lon": -77.0228005, "name": "526742cc9d8df10e229bba5b05a3f217"}, {"bike_id": "7c7fb9db87fac2ccc3035c8c40cfbe2a", "type": "electric_scooter", "is_disabled": 0, "lat": 38.908492333333335, "rental_uris": {"ios": "https://dc.lft.to/lastmile_qr_scan", "android": "https://dc.lft.to/lastmile_qr_scan"}, "is_reserved": 0, "fusion_lon": 0.0, "fusion_lat": 0.0, "lon": -77.05569316666667, "name": "7c7fb9db87fac2ccc3035c8c40cfbe2a"}, {"bike_id": "7fe128acf4e487fcfa79ac065976bc2f", "type": "electric_scooter", "is_disabled": 0, "lat": 38.90817583333333, "rental_uris": {"ios": "https://dc.lft.to/lastmile_qr_scan", "android": "https://dc.lft.to/lastmile_qr_scan"}, "is_reserved": 0, "fusion_lon": 0.0, "fusion_lat": 0.0, "lon": -77.023989, "name": "7fe128acf4e487fcfa79ac065976bc2f"}, {"bike_id": "d78ec40bac5adb105d60622316dc13b7", "type": "electric_scooter", "is_disabled": 0, "lat": 38.91870433333333, "rental_uris": {"ios": "https://dc.lft.to/lastmile_qr_scan", "android": "https://dc.lft.to/lastmile_qr_scan"}, "is_reserved": 0, "fusion_lon": 0.0, "fusion_lat": 0.0, "lon": -77.04451516666667, "name": "d78ec40bac5adb105d60622316dc13b7"}, {"bike_id": "ddd64736789a6e85d11af63acd00cb73", "type": "electric_scooter", "is_disabled": 0, "lat": 38.908846, "rental_uris": {"ios": "https://dc.lft.to/lastmile_qr_scan", "android": "https://dc.lft.to/lastmile_qr_scan"}, "is_reserved": 0, "fusion_lon": 0.0, "fusion_lat": 0.0, "lon": -77.04277733333333, "name": "ddd64736789a6e85d11af63acd00cb73"}, {"bike_id": "162a9a2444ac8ae29d50d53c2a74a3f2", "type": "electric_scooter", "is_disabled": 0, "lat": 38.902344, "rental_uris": {"ios": "https://dc.lft.to/lastmile_qr_scan", "android": "https://dc.lft.to/lastmile_qr_scan"}, "is_reserved": 0, "fusion_lon": 0.0, "fusion_lat": 0.0, "lon": -77.00198816666666, "name": "162a9a2444ac8ae29d50d53c2a74a3f2"}, {"bike_id": "d8fd784f52cfe43f8fbeceefec01d155", "type": "electric_scooter", "is_disabled": 0, "lat": 38.900571166666666, "rental_uris": {"ios": "https://dc.lft.to/lastmile_qr_scan", "android": "https://dc.lft.to/lastmile_qr_scan"}, "is_reserved": 0, "fusion_lon": 0.0, "fusion_lat": 0.0, "lon": -77.04674666666666, "name": "d8fd784f52cfe43f8fbeceefec01d155"}, {"bike_id": "e29a239edb87e58bb0047b9fa1dd7ad2", "type": "electric_scooter", "is_disabled": 0, "lat": 38.88301216666667, "rental_uris": {"ios": "https://dc.lft.to/lastmile_qr_scan", "android": "https://dc.lft.to/lastmile_qr_scan"}, "is_reserved": 0, "fusion_lon": 0.0, "fusion_lat": 0.0, "lon": -76.94857116666667, "name": "e29a239edb87e58bb0047b9fa1dd7ad2"}, {"bike_id": "9c4eafe8858da2f542cdd00daa032fb0", "type": "electric_scooter", "is_disabled": 0, "lat": 38.925899333333334, "rental_uris": {"ios": "https://dc.lft.to/lastmile_qr_scan", "android": "https://dc.lft.to/lastmile_qr_scan"}, "is_reserved": 0, "fusion_lon": 0.0, "fusion_lat": 0.0, "lon": -77.0440205, "name": "9c4eafe8858da2f542cdd00daa032fb0"}, {"bike_id": "db8a2e952feec4f01406b620d3a23dac", "type": "electric_scooter", "is_disabled": 0, "lat": 38.92469, "rental_uris": {"ios": "https://dc.lft.to/lastmile_qr_scan", "android": "https://dc.lft.to/lastmile_qr_scan"}, "is_reserved": 0, "fusion_lon": 0.0, "fusion_lat": 0.0, "lon": -77.02836583333334, "name": "db8a2e952feec4f01406b620d3a23dac"}, {"bike_id": "2e9fd4c9220f7915aea01f8aca2a4dbb", "type": "electric_scooter", "is_disabled": 0, "lat": 38.86469733333333, "rental_uris": {"ios": "https://dc.lft.to/lastmile_qr_scan", "android": "https://dc.lft.to/lastmile_qr_scan"}, "is_reserved": 0, "fusion_lon": 0.0, "fusion_lat": 0.0, "lon": -76.97746316666667, "name": "2e9fd4c9220f7915aea01f8aca2a4dbb"}, {"bike_id": "769fc278375eb664643993649c504683", "type": "electric_scooter", "is_disabled": 0, "lat": 38.912787, "rental_uris": {"ios": "https://dc.lft.to/lastmile_qr_scan", "android": "https://dc.lft.to/lastmile_qr_scan"}, "is_reserved": 0, "fusion_lon": 0.0, "fusion_lat": 0.0, "lon": -77.027072, "name": "769fc278375eb664643993649c504683"}, {"bike_id": "2e9f8bf661667bca8e33459ad34b18e3", "type": "electric_scooter", "is_disabled": 0, "lat": 38.941280166666665, "rental_uris": {"ios": "https://dc.lft.to/lastmile_qr_scan", "android": "https://dc.lft.to/lastmile_qr_scan"}, "is_reserved": 0, "fusion_lon": 0.0, "fusion_lat": 0.0, "lon": -77.01543083333334, "name": "2e9f8bf661667bca8e33459ad34b18e3"}, {"bike_id": "f8a0ef66826b5afd089a24d7d9356726", "type": "electric_scooter", "is_disabled": 0, "lat": 38.91600233333333, "rental_uris": {"ios": "https://dc.lft.to/lastmile_qr_scan", "android": "https://dc.lft.to/lastmile_qr_scan"}, "is_reserved": 0, "fusion_lon": 0.0, "fusion_lat": 0.0, "lon": -77.044606, "name": "f8a0ef66826b5afd089a24d7d9356726"}, {"bike_id": "660c7de1b53aab2dec0636b56631904d", "type": "electric_bike", "is_disabled": 0, "lat": 38.969558, "rental_uris": {"ios": "https://dc.lft.to/lastmile_qr_scan", "android": "https://dc.lft.to/lastmile_qr_scan"}, "is_reserved": 0, "fusion_lon": 0.0, "fusion_lat": 0.0, "lon": -76.957495, "name": "660c7de1b53aab2dec0636b56631904d"}, {"bike_id": "726a154b07466565c3dd484208d4cf0d", "type": "electric_scooter", "is_disabled": 0, "lat": 38.93543433333333, "rental_uris": {"ios": "https://dc.lft.to/lastmile_qr_scan", "android": "https://dc.lft.to/lastmile_qr_scan"}, "is_reserved": 0, "fusion_lon": 0.0, "fusion_lat": 0.0, "lon": -77.058614, "name": "726a154b07466565c3dd484208d4cf0d"}, {"bike_id": "762bb5cb01257919686d9465afbacfba", "type": "electric_scooter", "is_disabled": 0, "lat": 38.918658, "rental_uris": {"ios": "https://dc.lft.to/lastmile_qr_scan", "android": "https://dc.lft.to/lastmile_qr_scan"}, "is_reserved": 0, "fusion_lon": 0.0, "fusion_lat": 0.0, "lon": -77.07036166666667, "name": "762bb5cb01257919686d9465afbacfba"}, {"bike_id": "604fe510f8912a78aafef42d57ac34a9", "type": "electric_scooter", "is_disabled": 0, "lat": 38.918482166666664, "rental_uris": {"ios": "https://dc.lft.to/lastmile_qr_scan", "android": "https://dc.lft.to/lastmile_qr_scan"}, "is_reserved": 0, "fusion_lon": 0.0, "fusion_lat": 0.0, "lon": -77.03887733333333, "name": "604fe510f8912a78aafef42d57ac34a9"}, {"bike_id": "15005c77603188db7c080d9cfb94557b", "type": "electric_scooter", "is_disabled": 0, "lat": 38.900249, "rental_uris": {"ios": "https://dc.lft.to/lastmile_qr_scan", "android": "https://dc.lft.to/lastmile_qr_scan"}, "is_reserved": 0, "fusion_lon": 0.0, "fusion_lat": 0.0, "lon": -77.01284, "name": "15005c77603188db7c080d9cfb94557b"}, {"bike_id": "f3bdd71477365686153d7bd5b14366a6", "type": "electric_scooter", "is_disabled": 0, "lat": 38.90624183333333, "rental_uris": {"ios": "https://dc.lft.to/lastmile_qr_scan", "android": "https://dc.lft.to/lastmile_qr_scan"}, "is_reserved": 0, "fusion_lon": 0.0, "fusion_lat": 0.0, "lon": -77.05557, "name": "f3bdd71477365686153d7bd5b14366a6"}, {"bike_id": "17aa8c4c7e47c8f73145f512f929bafa", "type": "electric_scooter", "is_disabled": 0, "lat": 38.913294, "rental_uris": {"ios": "https://dc.lft.to/lastmile_qr_scan", "android": "https://dc.lft.to/lastmile_qr_scan"}, "is_reserved": 0, "fusion_lon": 0.0, "fusion_lat": 0.0, "lon": -77.0457885, "name": "17aa8c4c7e47c8f73145f512f929bafa"}, {"bike_id": "fcf2ca656c648f802f1dfebcbe77799d", "type": "electric_scooter", "is_disabled": 0, "lat": 38.923582833333334, "rental_uris": {"ios": "https://dc.lft.to/lastmile_qr_scan", "android": "https://dc.lft.to/lastmile_qr_scan"}, "is_reserved": 0, "fusion_lon": 0.0, "fusion_lat": 0.0, "lon": -77.04110766666666, "name": "fcf2ca656c648f802f1dfebcbe77799d"}, {"bike_id": "066735acb21c50946daf93c6d4e2c921", "type": "electric_scooter", "is_disabled": 0, "lat": 38.9084995, "rental_uris": {"ios": "https://dc.lft.to/lastmile_qr_scan", "android": "https://dc.lft.to/lastmile_qr_scan"}, "is_reserved": 0, "fusion_lon": 0.0, "fusion_lat": 0.0, "lon": -76.99796333333333, "name": "066735acb21c50946daf93c6d4e2c921"}, {"bike_id": "1a7706b678ddf927ce769b0b8ba2b16c", "type": "electric_scooter", "is_disabled": 0, "lat": 38.917402333333335, "rental_uris": {"ios": "https://dc.lft.to/lastmile_qr_scan", "android": "https://dc.lft.to/lastmile_qr_scan"}, "is_reserved": 0, "fusion_lon": 0.0, "fusion_lat": 0.0, "lon": -77.02275933333334, "name": "1a7706b678ddf927ce769b0b8ba2b16c"}, {"bike_id": "d4e359b3bd550cad8a99ac22f0edfafb", "type": "electric_scooter", "is_disabled": 0, "lat": 38.862372666666666, "rental_uris": {"ios": "https://dc.lft.to/lastmile_qr_scan", "android": "https://dc.lft.to/lastmile_qr_scan"}, "is_reserved": 0, "fusion_lon": 0.0, "fusion_lat": 0.0, "lon": -76.99518783333333, "name": "d4e359b3bd550cad8a99ac22f0edfafb"}, {"bike_id": "435dd10ea28206ba6737b309da27a2c3", "type": "electric_scooter", "is_disabled": 0, "lat": 38.893202333333335, "rental_uris": {"ios": "https://dc.lft.to/lastmile_qr_scan", "android": "https://dc.lft.to/lastmile_qr_scan"}, "is_reserved": 0, "fusion_lon": 0.0, "fusion_lat": 0.0, "lon": -77.04878516666666, "name": "435dd10ea28206ba6737b309da27a2c3"}, {"bike_id": "0ebd51b96d053b9286f6d422437f9a5b", "type": "electric_scooter", "is_disabled": 0, "lat": 38.876754, "rental_uris": {"ios": "https://dc.lft.to/lastmile_qr_scan", "android": "https://dc.lft.to/lastmile_qr_scan"}, "is_reserved": 0, "fusion_lon": 0.0, "fusion_lat": 0.0, "lon": -77.017882, "name": "0ebd51b96d053b9286f6d422437f9a5b"}, {"bike_id": "b05d32511e8bd4ed12429e703099b96b", "type": "electric_scooter", "is_disabled": 0, "lat": 38.918163, "rental_uris": {"ios": "https://dc.lft.to/lastmile_qr_scan", "android": "https://dc.lft.to/lastmile_qr_scan"}, "is_reserved": 0, "fusion_lon": 0.0, "fusion_lat": 0.0, "lon": -77.01018466666666, "name": "b05d32511e8bd4ed12429e703099b96b"}, {"bike_id": "51d7aced6ec82239fc0a28d294a58302", "type": "electric_scooter", "is_disabled": 0, "lat": 38.92789033333333, "rental_uris": {"ios": "https://dc.lft.to/lastmile_qr_scan", "android": "https://dc.lft.to/lastmile_qr_scan"}, "is_reserved": 0, "fusion_lon": 0.0, "fusion_lat": 0.0, "lon": -77.04358183333333, "name": "51d7aced6ec82239fc0a28d294a58302"}, {"bike_id": "5cc0fb079df85db91defa9591f314593", "type": "electric_scooter", "is_disabled": 0, "lat": 38.9157175, "rental_uris": {"ios": "https://dc.lft.to/lastmile_qr_scan", "android": "https://dc.lft.to/lastmile_qr_scan"}, "is_reserved": 0, "fusion_lon": 0.0, "fusion_lat": 0.0, "lon": -77.03461516666667, "name": "5cc0fb079df85db91defa9591f314593"}, {"bike_id": "115b39f7a1c04668eed54fc1277017f9", "type": "electric_bike", "is_disabled": 0, "lat": 38.79983383333333, "rental_uris": {"ios": "https://dc.lft.to/lastmile_qr_scan", "android": "https://dc.lft.to/lastmile_qr_scan"}, "is_reserved": 0, "fusion_lon": 0.0, "fusion_lat": 0.0, "lon": -77.1298335, "name": "115b39f7a1c04668eed54fc1277017f9"}, {"bike_id": "0d2396b6ac2e076ba94cf26adc411a15", "type": "electric_scooter", "is_disabled": 0, "lat": 38.9075675, "rental_uris": {"ios": "https://dc.lft.to/lastmile_qr_scan", "android": "https://dc.lft.to/lastmile_qr_scan"}, "is_reserved": 0, "fusion_lon": 0.0, "fusion_lat": 0.0, "lon": -77.03224816666666, "name": "0d2396b6ac2e076ba94cf26adc411a15"}, {"bike_id": "9cc128336f3b369cb4707102460d0052", "type": "electric_scooter", "is_disabled": 0, "lat": 38.91702016666667, "rental_uris": {"ios": "https://dc.lft.to/lastmile_qr_scan", "android": "https://dc.lft.to/lastmile_qr_scan"}, "is_reserved": 0, "fusion_lon": 0.0, "fusion_lat": 0.0, "lon": -77.00796066666666, "name": "9cc128336f3b369cb4707102460d0052"}, {"bike_id": "0135a22b884cdc6497e5402a2a221fff", "type": "electric_scooter", "is_disabled": 0, "lat": 38.906123, "rental_uris": {"ios": "https://dc.lft.to/lastmile_qr_scan", "android": "https://dc.lft.to/lastmile_qr_scan"}, "is_reserved": 0, "fusion_lon": 0.0, "fusion_lat": 0.0, "lon": -77.0629895, "name": "0135a22b884cdc6497e5402a2a221fff"}, {"bike_id": "a5880e81005eeffbe4155e12d03ddb15", "type": "electric_scooter", "is_disabled": 0, "lat": 38.9227905, "rental_uris": {"ios": "https://dc.lft.to/lastmile_qr_scan", "android": "https://dc.lft.to/lastmile_qr_scan"}, "is_reserved": 0, "fusion_lon": 0.0, "fusion_lat": 0.0, "lon": -77.03255116666666, "name": "a5880e81005eeffbe4155e12d03ddb15"}, {"bike_id": "d3f84e55cce0196fca8f6c1c16342cf8", "type": "electric_scooter", "is_disabled": 0, "lat": 38.91410966666667, "rental_uris": {"ios": "https://dc.lft.to/lastmile_qr_scan", "android": "https://dc.lft.to/lastmile_qr_scan"}, "is_reserved": 0, "fusion_lon": 0.0, "fusion_lat": 0.0, "lon": -77.02253016666667, "name": "d3f84e55cce0196fca8f6c1c16342cf8"}, {"bike_id": "40539fee78f74834172799c8fb51d30e", "type": "electric_scooter", "is_disabled": 0, "lat": 38.92657366666667, "rental_uris": {"ios": "https://dc.lft.to/lastmile_qr_scan", "android": "https://dc.lft.to/lastmile_qr_scan"}, "is_reserved": 0, "fusion_lon": 0.0, "fusion_lat": 0.0, "lon": -77.03729083333333, "name": "40539fee78f74834172799c8fb51d30e"}, {"bike_id": "9323c103b38a9bdefa8634c2bc5174ad", "type": "electric_scooter", "is_disabled": 0, "lat": 38.928013666666665, "rental_uris": {"ios": "https://dc.lft.to/lastmile_qr_scan", "android": "https://dc.lft.to/lastmile_qr_scan"}, "is_reserved": 0, "fusion_lon": 0.0, "fusion_lat": 0.0, "lon": -77.02687466666667, "name": "9323c103b38a9bdefa8634c2bc5174ad"}, {"bike_id": "400086c7e2a95e84908a43df68e23019", "type": "electric_scooter", "is_disabled": 0, "lat": 38.900266333333335, "rental_uris": {"ios": "https://dc.lft.to/lastmile_qr_scan", "android": "https://dc.lft.to/lastmile_qr_scan"}, "is_reserved": 0, "fusion_lon": 0.0, "fusion_lat": 0.0, "lon": -77.02195283333333, "name": "400086c7e2a95e84908a43df68e23019"}, {"bike_id": "cdec70fae2a5bca572f468d021146234", "type": "electric_scooter", "is_disabled": 0, "lat": 38.9257745, "rental_uris": {"ios": "https://dc.lft.to/lastmile_qr_scan", "android": "https://dc.lft.to/lastmile_qr_scan"}, "is_reserved": 0, "fusion_lon": 0.0, "fusion_lat": 0.0, "lon": -77.02758616666667, "name": "cdec70fae2a5bca572f468d021146234"}, {"bike_id": "a2c1b6f91bb570e935e1c855c2f8239d", "type": "electric_scooter", "is_disabled": 0, "lat": 38.86686366666667, "rental_uris": {"ios": "https://dc.lft.to/lastmile_qr_scan", "android": "https://dc.lft.to/lastmile_qr_scan"}, "is_reserved": 0, "fusion_lon": 0.0, "fusion_lat": 0.0, "lon": -76.98577883333333, "name": "a2c1b6f91bb570e935e1c855c2f8239d"}, {"bike_id": "4a21f2f689b436b47d82182ab2bbd72d", "type": "electric_scooter", "is_disabled": 0, "lat": 38.907366833333334, "rental_uris": {"ios": "https://dc.lft.to/lastmile_qr_scan", "android": "https://dc.lft.to/lastmile_qr_scan"}, "is_reserved": 0, "fusion_lon": 0.0, "fusion_lat": 0.0, "lon": -77.03443516666667, "name": "4a21f2f689b436b47d82182ab2bbd72d"}, {"bike_id": "e70def6384e7017e2d48c789be797831", "type": "electric_scooter", "is_disabled": 0, "lat": 38.917837166666665, "rental_uris": {"ios": "https://dc.lft.to/lastmile_qr_scan", "android": "https://dc.lft.to/lastmile_qr_scan"}, "is_reserved": 0, "fusion_lon": 0.0, "fusion_lat": 0.0, "lon": -77.02334683333333, "name": "e70def6384e7017e2d48c789be797831"}, {"bike_id": "9e197015ed0c06669c667911840d8d9e", "type": "electric_scooter", "is_disabled": 0, "lat": 38.92590366666667, "rental_uris": {"ios": "https://dc.lft.to/lastmile_qr_scan", "android": "https://dc.lft.to/lastmile_qr_scan"}, "is_reserved": 0, "fusion_lon": 0.0, "fusion_lat": 0.0, "lon": -77.0217495, "name": "9e197015ed0c06669c667911840d8d9e"}, {"bike_id": "a9903007c07cd533b2c248962241ca3f", "type": "electric_scooter", "is_disabled": 0, "lat": 38.9184425, "rental_uris": {"ios": "https://dc.lft.to/lastmile_qr_scan", "android": "https://dc.lft.to/lastmile_qr_scan"}, "is_reserved": 0, "fusion_lon": 0.0, "fusion_lat": 0.0, "lon": -77.048339, "name": "a9903007c07cd533b2c248962241ca3f"}, {"bike_id": "d1c2e26c8148859218bdb4d02798d657", "type": "electric_bike", "is_disabled": 0, "lat": 38.924723666666665, "rental_uris": {"ios": "https://dc.lft.to/lastmile_qr_scan", "android": "https://dc.lft.to/lastmile_qr_scan"}, "is_reserved": 0, "fusion_lon": 0.0, "fusion_lat": 0.0, "lon": -77.03376916666667, "name": "d1c2e26c8148859218bdb4d02798d657"}, {"bike_id": "efb2259584360cbbc1b783829bb6403d", "type": "electric_scooter", "is_disabled": 0, "lat": 38.93077483333333, "rental_uris": {"ios": "https://dc.lft.to/lastmile_qr_scan", "android": "https://dc.lft.to/lastmile_qr_scan"}, "is_reserved": 0, "fusion_lon": 0.0, "fusion_lat": 0.0, "lon": -77.02562383333333, "name": "efb2259584360cbbc1b783829bb6403d"}, {"bike_id": "9dd5b484c07aa44c7e9f73c0c76d299c", "type": "electric_scooter", "is_disabled": 0, "lat": 38.90737266666667, "rental_uris": {"ios": "https://dc.lft.to/lastmile_qr_scan", "android": "https://dc.lft.to/lastmile_qr_scan"}, "is_reserved": 0, "fusion_lon": 0.0, "fusion_lat": 0.0, "lon": -77.01311366666667, "name": "9dd5b484c07aa44c7e9f73c0c76d299c"}, {"bike_id": "afa4461ef51ee529d3c60e26f43243de", "type": "electric_scooter", "is_disabled": 0, "lat": 38.86679383333333, "rental_uris": {"ios": "https://dc.lft.to/lastmile_qr_scan", "android": "https://dc.lft.to/lastmile_qr_scan"}, "is_reserved": 0, "fusion_lon": 0.0, "fusion_lat": 0.0, "lon": -76.98582933333333, "name": "afa4461ef51ee529d3c60e26f43243de"}, {"bike_id": "b2a6778bc7c9e586a039fb4eb7b1945f", "type": "electric_scooter", "is_disabled": 0, "lat": 38.898358, "rental_uris": {"ios": "https://dc.lft.to/lastmile_qr_scan", "android": "https://dc.lft.to/lastmile_qr_scan"}, "is_reserved": 0, "fusion_lon": 0.0, "fusion_lat": 0.0, "lon": -77.00741633333334, "name": "b2a6778bc7c9e586a039fb4eb7b1945f"}, {"bike_id": "47c9806fe8322c800f15a792b54ca0ac", "type": "electric_scooter", "is_disabled": 0, "lat": 38.935288666666665, "rental_uris": {"ios": "https://dc.lft.to/lastmile_qr_scan", "android": "https://dc.lft.to/lastmile_qr_scan"}, "is_reserved": 0, "fusion_lon": 0.0, "fusion_lat": 0.0, "lon": -77.02357766666667, "name": "47c9806fe8322c800f15a792b54ca0ac"}, {"bike_id": "2ded31a9893fbd9408d3a086f764872a", "type": "electric_bike", "is_disabled": 0, "lat": 38.9387395, "rental_uris": {"ios": "https://dc.lft.to/lastmile_qr_scan", "android": "https://dc.lft.to/lastmile_qr_scan"}, "is_reserved": 0, "fusion_lon": 0.0, "fusion_lat": 0.0, "lon": -77.02906383333334, "name": "2ded31a9893fbd9408d3a086f764872a"}, {"bike_id": "9f1596575cfb6e2069fdc1d617ed4ad8", "type": "electric_bike", "is_disabled": 0, "lat": 38.978776, "rental_uris": {"ios": "https://dc.lft.to/lastmile_qr_scan", "android": "https://dc.lft.to/lastmile_qr_scan"}, "is_reserved": 0, "fusion_lon": 0.0, "fusion_lat": 0.0, "lon": -77.06031066666667, "name": "9f1596575cfb6e2069fdc1d617ed4ad8"}, {"bike_id": "11b9da3b95f16102cca7b62dfd56681d", "type": "electric_scooter", "is_disabled": 0, "lat": 38.9449325, "rental_uris": {"ios": "https://dc.lft.to/lastmile_qr_scan", "android": "https://dc.lft.to/lastmile_qr_scan"}, "is_reserved": 0, "fusion_lon": 0.0, "fusion_lat": 0.0, "lon": -77.0262635, "name": "11b9da3b95f16102cca7b62dfd56681d"}, {"bike_id": "154d2efd30df252ce87a21324a9f12a3", "type": "electric_scooter", "is_disabled": 0, "lat": 38.91601933333333, "rental_uris": {"ios": "https://dc.lft.to/lastmile_qr_scan", "android": "https://dc.lft.to/lastmile_qr_scan"}, "is_reserved": 0, "fusion_lon": 0.0, "fusion_lat": 0.0, "lon": -77.04514966666666, "name": "154d2efd30df252ce87a21324a9f12a3"}, {"bike_id": "e46f88e0238807ed7e8db5ce32761742", "type": "electric_scooter", "is_disabled": 0, "lat": 38.91627666666667, "rental_uris": {"ios": "https://dc.lft.to/lastmile_qr_scan", "android": "https://dc.lft.to/lastmile_qr_scan"}, "is_reserved": 0, "fusion_lon": 0.0, "fusion_lat": 0.0, "lon": -77.037275, "name": "e46f88e0238807ed7e8db5ce32761742"}, {"bike_id": "9294620f911cec795e83935deaf2826d", "type": "electric_scooter", "is_disabled": 0, "lat": 38.91470316666667, "rental_uris": {"ios": "https://dc.lft.to/lastmile_qr_scan", "android": "https://dc.lft.to/lastmile_qr_scan"}, "is_reserved": 0, "fusion_lon": 0.0, "fusion_lat": 0.0, "lon": -77.0092065, "name": "9294620f911cec795e83935deaf2826d"}, {"bike_id": "a42064d2e0491f746f41f3fc220a2b2f", "type": "electric_scooter", "is_disabled": 0, "lat": 38.9156275, "rental_uris": {"ios": "https://dc.lft.to/lastmile_qr_scan", "android": "https://dc.lft.to/lastmile_qr_scan"}, "is_reserved": 0, "fusion_lon": 0.0, "fusion_lat": 0.0, "lon": -77.0387025, "name": "a42064d2e0491f746f41f3fc220a2b2f"}, {"bike_id": "fcc961b98a3b8508b2f21ab304f26c6e", "type": "electric_scooter", "is_disabled": 0, "lat": 38.92484066666667, "rental_uris": {"ios": "https://dc.lft.to/lastmile_qr_scan", "android": "https://dc.lft.to/lastmile_qr_scan"}, "is_reserved": 0, "fusion_lon": 0.0, "fusion_lat": 0.0, "lon": -77.02198, "name": "fcc961b98a3b8508b2f21ab304f26c6e"}, {"bike_id": "ce40d81869151da53c5dc96716d55711", "type": "electric_scooter", "is_disabled": 0, "lat": 38.9026035, "rental_uris": {"ios": "https://dc.lft.to/lastmile_qr_scan", "android": "https://dc.lft.to/lastmile_qr_scan"}, "is_reserved": 0, "fusion_lon": 0.0, "fusion_lat": 0.0, "lon": -77.003264, "name": "ce40d81869151da53c5dc96716d55711"}, {"bike_id": "926d4edb0393a9941e60f87aa39d07a9", "type": "electric_scooter", "is_disabled": 0, "lat": 38.905553833333336, "rental_uris": {"ios": "https://dc.lft.to/lastmile_qr_scan", "android": "https://dc.lft.to/lastmile_qr_scan"}, "is_reserved": 0, "fusion_lon": 0.0, "fusion_lat": 0.0, "lon": -77.02206116666666, "name": "926d4edb0393a9941e60f87aa39d07a9"}, {"bike_id": "d9990b528566cbccb5d57486fa37d78c", "type": "electric_scooter", "is_disabled": 0, "lat": 38.90253766666667, "rental_uris": {"ios": "https://dc.lft.to/lastmile_qr_scan", "android": "https://dc.lft.to/lastmile_qr_scan"}, "is_reserved": 0, "fusion_lon": 0.0, "fusion_lat": 0.0, "lon": -77.04478333333333, "name": "d9990b528566cbccb5d57486fa37d78c"}, {"bike_id": "93cb4f8a5fe74abdb232b7e3a1923898", "type": "electric_scooter", "is_disabled": 0, "lat": 38.900948166666666, "rental_uris": {"ios": "https://dc.lft.to/lastmile_qr_scan", "android": "https://dc.lft.to/lastmile_qr_scan"}, "is_reserved": 0, "fusion_lon": 0.0, "fusion_lat": 0.0, "lon": -77.038629, "name": "93cb4f8a5fe74abdb232b7e3a1923898"}, {"bike_id": "c59234a38c4063a2a5b5a853effc0e36", "type": "electric_scooter", "is_disabled": 0, "lat": 38.891153333333335, "rental_uris": {"ios": "https://dc.lft.to/lastmile_qr_scan", "android": "https://dc.lft.to/lastmile_qr_scan"}, "is_reserved": 0, "fusion_lon": 0.0, "fusion_lat": 0.0, "lon": -76.99155783333333, "name": "c59234a38c4063a2a5b5a853effc0e36"}, {"bike_id": "a7c0122561cc0d8aa701c2cb9959d5ec", "type": "electric_scooter", "is_disabled": 0, "lat": 38.918934666666665, "rental_uris": {"ios": "https://dc.lft.to/lastmile_qr_scan", "android": "https://dc.lft.to/lastmile_qr_scan"}, "is_reserved": 0, "fusion_lon": 0.0, "fusion_lat": 0.0, "lon": -77.0461825, "name": "a7c0122561cc0d8aa701c2cb9959d5ec"}, {"bike_id": "b6714e226123171a616ddaf2250e9193", "type": "electric_scooter", "is_disabled": 0, "lat": 38.914762333333336, "rental_uris": {"ios": "https://dc.lft.to/lastmile_qr_scan", "android": "https://dc.lft.to/lastmile_qr_scan"}, "is_reserved": 0, "fusion_lon": 0.0, "fusion_lat": 0.0, "lon": -77.00285833333334, "name": "b6714e226123171a616ddaf2250e9193"}, {"bike_id": "0067737ad3e7b0d20aaeedc7d77d417d", "type": "electric_scooter", "is_disabled": 0, "lat": 38.93020283333333, "rental_uris": {"ios": "https://dc.lft.to/lastmile_qr_scan", "android": "https://dc.lft.to/lastmile_qr_scan"}, "is_reserved": 0, "fusion_lon": 0.0, "fusion_lat": 0.0, "lon": -77.0663015, "name": "0067737ad3e7b0d20aaeedc7d77d417d"}, {"bike_id": "166a6e9f000aec4bddb0c68801db5338", "type": "electric_scooter", "is_disabled": 0, "lat": 38.86217166666667, "rental_uris": {"ios": "https://dc.lft.to/lastmile_qr_scan", "android": "https://dc.lft.to/lastmile_qr_scan"}, "is_reserved": 0, "fusion_lon": 0.0, "fusion_lat": 0.0, "lon": -76.994856, "name": "166a6e9f000aec4bddb0c68801db5338"}, {"bike_id": "b9583eb418b6227d11732490d5c45720", "type": "electric_scooter", "is_disabled": 0, "lat": 38.939497833333334, "rental_uris": {"ios": "https://dc.lft.to/lastmile_qr_scan", "android": "https://dc.lft.to/lastmile_qr_scan"}, "is_reserved": 0, "fusion_lon": 0.0, "fusion_lat": 0.0, "lon": -77.07255733333334, "name": "b9583eb418b6227d11732490d5c45720"}, {"bike_id": "576d543dec4d926a4856c36ba074fd12", "type": "electric_scooter", "is_disabled": 0, "lat": 38.90977216666667, "rental_uris": {"ios": "https://dc.lft.to/lastmile_qr_scan", "android": "https://dc.lft.to/lastmile_qr_scan"}, "is_reserved": 0, "fusion_lon": 0.0, "fusion_lat": 0.0, "lon": -77.03441716666667, "name": "576d543dec4d926a4856c36ba074fd12"}, {"bike_id": "ded175d0d31bb65094e99999e7e4da66", "type": "electric_scooter", "is_disabled": 0, "lat": 38.899213, "rental_uris": {"ios": "https://dc.lft.to/lastmile_qr_scan", "android": "https://dc.lft.to/lastmile_qr_scan"}, "is_reserved": 0, "fusion_lon": 0.0, "fusion_lat": 0.0, "lon": -77.05368083333333, "name": "ded175d0d31bb65094e99999e7e4da66"}, {"bike_id": "e69510754b338f84d565d32639752192", "type": "electric_scooter", "is_disabled": 0, "lat": 38.91115333333333, "rental_uris": {"ios": "https://dc.lft.to/lastmile_qr_scan", "android": "https://dc.lft.to/lastmile_qr_scan"}, "is_reserved": 0, "fusion_lon": 0.0, "fusion_lat": 0.0, "lon": -77.04461433333333, "name": "e69510754b338f84d565d32639752192"}, {"bike_id": "1bcd83b79200d9860e0cba2189ece1d1", "type": "electric_scooter", "is_disabled": 0, "lat": 38.9071715, "rental_uris": {"ios": "https://dc.lft.to/lastmile_qr_scan", "android": "https://dc.lft.to/lastmile_qr_scan"}, "is_reserved": 0, "fusion_lon": 0.0, "fusion_lat": 0.0, "lon": -77.00050883333333, "name": "1bcd83b79200d9860e0cba2189ece1d1"}, {"bike_id": "41fd01a5796019051e0febc74af4bff8", "type": "electric_bike", "is_disabled": 0, "lat": 38.9056855, "rental_uris": {"ios": "https://dc.lft.to/lastmile_qr_scan", "android": "https://dc.lft.to/lastmile_qr_scan"}, "is_reserved": 0, "fusion_lon": 0.0, "fusion_lat": 0.0, "lon": -77.02210333333333, "name": "41fd01a5796019051e0febc74af4bff8"}, {"bike_id": "49a53ba9ff77bd60a5e37e705490d47a", "type": "electric_scooter", "is_disabled": 0, "lat": 38.909606333333336, "rental_uris": {"ios": "https://dc.lft.to/lastmile_qr_scan", "android": "https://dc.lft.to/lastmile_qr_scan"}, "is_reserved": 0, "fusion_lon": 0.0, "fusion_lat": 0.0, "lon": -77.02685316666667, "name": "49a53ba9ff77bd60a5e37e705490d47a"}, {"bike_id": "20e07979ef1e424c0272464fae544f9e", "type": "electric_bike", "is_disabled": 0, "lat": 38.90400283333334, "rental_uris": {"ios": "https://dc.lft.to/lastmile_qr_scan", "android": "https://dc.lft.to/lastmile_qr_scan"}, "is_reserved": 0, "fusion_lon": 0.0, "fusion_lat": 0.0, "lon": -77.043638, "name": "20e07979ef1e424c0272464fae544f9e"}, {"bike_id": "f4f668048e0c7ed73af66ae14fa6c4e0", "type": "electric_scooter", "is_disabled": 0, "lat": 38.920730666666664, "rental_uris": {"ios": "https://dc.lft.to/lastmile_qr_scan", "android": "https://dc.lft.to/lastmile_qr_scan"}, "is_reserved": 0, "fusion_lon": 0.0, "fusion_lat": 0.0, "lon": -77.02523483333333, "name": "f4f668048e0c7ed73af66ae14fa6c4e0"}, {"bike_id": "f3ee505b88a227bffe98ab3143d4dd64", "type": "electric_scooter", "is_disabled": 0, "lat": 38.933262, "rental_uris": {"ios": "https://dc.lft.to/lastmile_qr_scan", "android": "https://dc.lft.to/lastmile_qr_scan"}, "is_reserved": 0, "fusion_lon": 0.0, "fusion_lat": 0.0, "lon": -77.03262383333333, "name": "f3ee505b88a227bffe98ab3143d4dd64"}, {"bike_id": "9fe01dcbdebabc070ce9ce24314dde82", "type": "electric_scooter", "is_disabled": 0, "lat": 38.92319666666667, "rental_uris": {"ios": "https://dc.lft.to/lastmile_qr_scan", "android": "https://dc.lft.to/lastmile_qr_scan"}, "is_reserved": 0, "fusion_lon": 0.0, "fusion_lat": 0.0, "lon": -77.021411, "name": "9fe01dcbdebabc070ce9ce24314dde82"}, {"bike_id": "544b2ab783226f694bd0a0db03305d57", "type": "electric_scooter", "is_disabled": 0, "lat": 38.92170383333333, "rental_uris": {"ios": "https://dc.lft.to/lastmile_qr_scan", "android": "https://dc.lft.to/lastmile_qr_scan"}, "is_reserved": 0, "fusion_lon": 0.0, "fusion_lat": 0.0, "lon": -77.01915033333333, "name": "544b2ab783226f694bd0a0db03305d57"}, {"bike_id": "3cf9acc9ef6e051f62a575167d993582", "type": "electric_scooter", "is_disabled": 0, "lat": 38.89041016666667, "rental_uris": {"ios": "https://dc.lft.to/lastmile_qr_scan", "android": "https://dc.lft.to/lastmile_qr_scan"}, "is_reserved": 0, "fusion_lon": 0.0, "fusion_lat": 0.0, "lon": -77.01503666666666, "name": "3cf9acc9ef6e051f62a575167d993582"}, {"bike_id": "e1cc0cd886baa049122be6fb35cc9231", "type": "electric_scooter", "is_disabled": 0, "lat": 38.9573305, "rental_uris": {"ios": "https://dc.lft.to/lastmile_qr_scan", "android": "https://dc.lft.to/lastmile_qr_scan"}, "is_reserved": 0, "fusion_lon": 0.0, "fusion_lat": 0.0, "lon": -77.024047, "name": "e1cc0cd886baa049122be6fb35cc9231"}, {"bike_id": "b6ccf613818c5e6d93dd2495d17c23f3", "type": "electric_scooter", "is_disabled": 0, "lat": 38.86459116666666, "rental_uris": {"ios": "https://dc.lft.to/lastmile_qr_scan", "android": "https://dc.lft.to/lastmile_qr_scan"}, "is_reserved": 0, "fusion_lon": 0.0, "fusion_lat": 0.0, "lon": -77.01269333333333, "name": "b6ccf613818c5e6d93dd2495d17c23f3"}, {"bike_id": "cad5dd1d5381822accf54d99ae058f4f", "type": "electric_scooter", "is_disabled": 0, "lat": 38.9181585, "rental_uris": {"ios": "https://dc.lft.to/lastmile_qr_scan", "android": "https://dc.lft.to/lastmile_qr_scan"}, "is_reserved": 0, "fusion_lon": 0.0, "fusion_lat": 0.0, "lon": -77.03133583333333, "name": "cad5dd1d5381822accf54d99ae058f4f"}, {"bike_id": "58173d5ffeb638310f9eff24d4145bde", "type": "electric_scooter", "is_disabled": 0, "lat": 38.90505916666667, "rental_uris": {"ios": "https://dc.lft.to/lastmile_qr_scan", "android": "https://dc.lft.to/lastmile_qr_scan"}, "is_reserved": 0, "fusion_lon": 0.0, "fusion_lat": 0.0, "lon": -77.0248815, "name": "58173d5ffeb638310f9eff24d4145bde"},