{"data": {"bikes": [{"lon": -77.04504283333333, "lat": 38.90572483333333, "name": "459145b944de3856c8f311533df1f60c", "fusion_lat": 0.0, "fusion_lon": 0.0, "rental_uris": {"android": "https://dc.lft.to/lastmile_qr_scan", "ios": "https://dc.lft.to/lastmile_qr_scan"}, "is_reserved": 0, "is_disabled": 0, "type": "electric_scooter", "bike_id": "459145b944de3856c8f311533df1f60c"}, {"lon": -77.02190816666666, "lat": 38.905459666666665, "name": "629bf2a49ac9e00b2e7b297032ca6845", "fusion_lat": 0.0, "fusion_lon": 0.0, "rental_uris": {"android": "https://dc.lft.to/lastmile_qr_scan", "ios": "https://dc.lft.to/lastmile_qr_scan"}, "is_reserved": 0, "is_disabled": 0, "type": "electric_scooter", "bike_id": "629bf2a49ac9e00b2e7b297032ca6845"}, {"lon": -77.038538, "lat": 38.9154155, "name": "bd4e10f3574bcb15cb8e96e0c4e8e488", "fusion_lat": 0.0, "fusion_lon": 0.0, "rental_uris": {"android": "https://dc.lft.to/lastmile_qr_scan", "ios": "https://dc.lft.to/lastmile_qr_scan"}, "is_reserved": 0, "is_disabled": 0, "type": "electric_scooter", "bike_id": "bd4e10f3574bcb15cb8e96e0c4e8e488"}, {"lon": -77.04061266666666, "lat": 38.917670333333334, "name": "8232148de3e3d7b501f87aa5820d1e17", "fusion_lat": 0.0, "fusion_lon": 0.0, "rental_uris": {"android": "https://dc.lft.to/lastmile_qr_scan", "ios": "https://dc.lft.to/lastmile_qr_scan"}, "is_reserved": 0, "is_disabled": 0, "type": "electric_scooter", "bike_id": "8232148de3e3d7b501f87aa5820d1e17"}, {"lon": -77.04490233333334, "lat": 38.89977716666667, "name": "cc8d4bcf6243d6f66d48a0cd132fb64f", "fusion_lat": 0.0, "fusion_lon": 0.0, "rental_uris": {"android": "https://dc.lft.to/lastmile_qr_scan", "ios": "https://dc.lft.to/lastmile_qr_scan"}, "is_reserved": 0, "is_disabled": 0, "type": "electric_scooter", "bike_id": "cc8d4bcf6243d6f66d48a0cd132fb64f"}, {"lon": -77.0140735, "lat": 38.928035, "name": "66f587153f711190803a1c394346d4ee", "fusion_lat": 0.0, "fusion_lon": 0.0, "rental_uris": {"android": "https://dc.lft.to/lastmile_qr_scan", "ios": "https://dc.lft.to/lastmile_qr_scan"}, "is_reserved": 0, "is_disabled": 0, "type": "electric_scooter", "bike_id": "66f587153f711190803a1c394346d4ee"}, {"lon": -76.98712533333334, "lat": 38.862639333333334, "name": "180aa7e389161011c5383c07b241181d", "fusion_lat": 0.0, "fusion_lon": 0.0, "rental_uris": {"android": "https://dc.lft.to/lastmile_qr_scan", "ios": "https://dc.lft.to/lastmile_qr_scan"}, "is_reserved": 0, "is_disabled": 0, "type": "electric_scooter", "bike_id": "180aa7e389161011c5383c07b241181d"}, {"lon": -77.0333585, "lat": 38.916986666666666, "name": "16123aed0d0fe23c324f6d9f4937204c", "fusion_lat": 0.0, "fusion_lon": 0.0, "rental_uris": {"android": "https://dc.lft.to/lastmile_qr_scan", "ios": "https://dc.lft.to/lastmile_qr_scan"}, "is_reserved": 0, "is_disabled": 0, "type": "electric_scooter", "bike_id": "16123aed0d0fe23c324f6d9f4937204c"}, {"lon": -76.94723316666666, "lat": 38.89735366666667, "name": "6934c1d5ced70a209ce45183ffbffd97", "fusion_lat": 0.0, "fusion_lon": 0.0, "rental_uris": {"android": "https://dc.lft.to/lastmile_qr_scan", "ios": "https://dc.lft.to/lastmile_qr_scan"}, "is_reserved": 0, "is_disabled": 0, "type": "electric_scooter", "bike_id": "6934c1d5ced70a209ce45183ffbffd97"}, {"lon": -77.028091, "lat": 38.8817565, "name": "f32d22f89cb881fca71f2a64148af859", "fusion_lat": 0.0, "fusion_lon": 0.0, "rental_uris": {"android": "https://dc.lft.to/lastmile_qr_scan", "ios": "https://dc.lft.to/lastmile_qr_scan"}, "is_reserved": 0, "is_disabled": 0, "type": "electric_scooter", "bike_id": "f32d22f89cb881fca71f2a64148af859"}, {"lon": -77.03409316666666, "lat": 38.922775333333334, "name": "439226c3fd7e62fa6225eebe929412c5", "fusion_lat": 0.0, "fusion_lon": 0.0, "rental_uris": {"android": "https://dc.lft.to/lastmile_qr_scan", "ios": "https://dc.lft.to/lastmile_qr_scan"}, "is_reserved": 0, "is_disabled": 0, "type": "electric_scooter", "bike_id": "439226c3fd7e62fa6225eebe929412c5"}, {"lon": -77.04607166666666, "lat": 38.92238916666667, "name": "b33ee8018295a79a4f205e44f3d084cb", "fusion_lat": 0.0, "fusion_lon": 0.0, "rental_uris": {"android": "https://dc.lft.to/lastmile_qr_scan", "ios": "https://dc.lft.to/lastmile_qr_scan"}, "is_reserved": 0, "is_disabled": 0, "type": "electric_scooter", "bike_id": "b33ee8018295a79a4f205e44f3d084cb"}, {"lon": -77.03040916666667, "lat": 38.88435666666667, "name": "660b5092775234485a68ff9ec81c1daa", "fusion_lat": 0.0, "fusion_lon": 0.0, "rental_uris": {"android": "https://dc.lft.to/lastmile_qr_scan", "ios": "https://dc.lft.to/lastmile_qr_scan"}, "is_reserved": 0, "is_disabled": 0, "type": "electric_scooter", "bike_id": "660b5092775234485a68ff9ec81c1daa"}, {"lon": -77.06768566666666, "lat": 38.903600833333336, "name": "00d2dc1d9a953a8b7d32b8c99a97d9fd", "fusion_lat": 0.0, "fusion_lon": 0.0, "rental_uris": {"android": "https://dc.lft.to/lastmile_qr_scan", "ios": "https://dc.lft.to/lastmile_qr_scan"}, "is_reserved": 0, "is_disabled": 0, "type": "electric_scooter", "bike_id": "00d2dc1d9a953a8b7d32b8c99a97d9fd"}, {"lon": -76.99155933333333, "lat": 38.89547983333333, "name": "ecceac447aaf1ba2786aa568a0ecf881", "fusion_lat": 0.0, "fusion_lon": 0.0, "rental_uris": {"android": "https://dc.lft.to/lastmile_qr_scan", "ios": "https://dc.lft.to/lastmile_qr_scan"}, "is_reserved": 0, "is_disabled": 0, "type": "electric_scooter", "bike_id": "ecceac447aaf1ba2786aa568a0ecf881"}, {"lon": -77.05850366666667, "lat": 38.934292, "name": "f44847e4077ef32eae3187b9bef810af", "fusion_lat": 0.0, "fusion_lon": 0.0, "rental_uris": {"android": "https://dc.lft.to/lastmile_qr_scan", "ios": "https://dc.lft.to/lastmile_qr_scan"}, "is_reserved": 0, "is_disabled": 0, "type": "electric_scooter", "bike_id": "f44847e4077ef32eae3187b9bef810af"}, {"lon": -77.00725733333333, "lat": 38.90487266666667, "name": "5ff4b99e643603d68f0ce80332b3a39d", "fusion_lat": 0.0, "fusion_lon": 0.0, "rental_uris": {"android": "https://dc.lft.to/lastmile_qr_scan", "ios": "https://dc.lft.to/lastmile_qr_scan"}, "is_reserved": 0, "is_disabled": 0, "type": "electric_scooter", "bike_id": "5ff4b99e643603d68f0ce80332b3a39d"}, {"lon": -77.06041166666667, "lat": 38.93915366666667, "name": "1cc1bed8efaf44e4edbe7969db0af1eb", "fusion_lat": 0.0, "fusion_lon": 0.0, "rental_uris": {"android": "https://dc.lft.to/lastmile_qr_scan", "ios": "https://dc.lft.to/lastmile_qr_scan"}, "is_reserved": 0, "is_disabled": 0, "type": "electric_scooter", "bike_id": "1cc1bed8efaf44e4edbe7969db0af1eb"}, {"lon": -77.0218145, "lat": 38.909789333333336, "name": "15df23c9fde40d6f7dec35c581942b5c", "fusion_lat": 0.0, "fusion_lon": 0.0, "rental_uris": {"android": "https://dc.lft.to/lastmile_qr_scan", "ios": "https://dc.lft.to/lastmile_qr_scan"}, "is_reserved": 0, "is_disabled": 0, "type": "electric_scooter", "bike_id": "15df23c9fde40d6f7dec35c581942b5c"}, {"lon": -76.93339133333333, "lat": 38.8990785, "name": "2f8bde8b46ce003b7dac3da25d66e6de", "fusion_lat": 0.0, "fusion_lon": 0.0, "rental_uris": {"android": "https://dc.lft.to/lastmile_qr_scan", "ios": "https://dc.lft.to/lastmile_qr_scan"}, "is_reserved": 0, "is_disabled": 0, "type": "electric_scooter", "bike_id": "2f8bde8b46ce003b7dac3da25d66e6de"}, {"lon": -77.068967, "lat": 38.91735583333333, "name": "95ed614742f52f319d1d786886f4a771", "fusion_lat": 0.0, "fusion_lon": 0.0, "rental_uris": {"android": "https://dc.lft.to/lastmile_qr_scan", "ios": "https://dc.lft.to/lastmile_qr_scan"}, "is_reserved": 0, "is_disabled": 0, "type": "electric_scooter", "bike_id": "95ed614742f52f319d1d786886f4a771"}, {"lon": -77.0282875, "lat": 38.89228633333333, "name": "65ba2d819229bbca1052fbaa4fa51e81", "fusion_lat": 0.0, "fusion_lon": 0.0, "rental_uris": {"android": "https://dc.lft.to/lastmile_qr_scan", "ios": "https://dc.lft.to/lastmile_qr_scan"}, "is_reserved": 0, "is_disabled": 0, "type": "electric_scooter", "bike_id": "65ba2d819229bbca1052fbaa4fa51e81"}, {"lon": -76.98036433333333, "lat": 38.889701, "name": "70d3cf917296ce5fb6fdf00c87f1dda8", "fusion_lat": 0.0, "fusion_lon": 0.0, "rental_uris": {"android": "https://dc.lft.to/lastmile_qr_scan", "ios": "https://dc.lft.to/lastmile_qr_scan"}, "is_reserved": 0, "is_disabled": 0, "type": "electric_scooter", "bike_id": "70d3cf917296ce5fb6fdf00c87f1dda8"}, {"lon": -77.05138733333334, "lat": 38.906158, "name": "b492caf2e24014507e257795d24e894d", "fusion_lat": 0.0, "fusion_lon": 0.0, "rental_uris": {"android": "https://dc.lft.to/lastmile_qr_scan", "ios": "https://dc.lft.to/lastmile_qr_scan"}, "is_reserved": 0, "is_disabled": 0, "type": "electric_scooter", "bike_id": "b492caf2e24014507e257795d24e894d"}, {"lon": -77.0318055, "lat": 38.91915433333333, "name": "0024a28c6da6d54898e9d4295bf30328", "fusion_lat": 0.0, "fusion_lon": 0.0, "rental_uris": {"android": "https://dc.lft.to/lastmile_qr_scan", "ios": "https://dc.lft.to/lastmile_qr_scan"}, "is_reserved": 0, "is_disabled": 0, "type": "electric_scooter", "bike_id": "0024a28c6da6d54898e9d4295bf30328"}, {"lon": -77.02120983333333, "lat": 38.92392683333333, "name": "e3a8afc6ffe01bd6c49062652ae9030f", "fusion_lat": 0.0, "fusion_lon": 0.0, "rental_uris": {"android": "https://dc.lft.to/lastmile_qr_scan", "ios": "https://dc.lft.to/lastmile_qr_scan"}, "is_reserved": 0, "is_disabled": 0, "type": "electric_scooter", "bike_id": "e3a8afc6ffe01bd6c49062652ae9030f"}, {"lon": -77.03308333333334, "lat": 38.898643166666666, "name": "2ebf96700b2599d7f1eb407dcdd8196e", "fusion_lat": 0.0, "fusion_lon": 0.0, "rental_uris": {"android": "https://dc.lft.to/lastmile_qr_scan", "ios": "https://dc.lft.to/lastmile_qr_scan"}, "is_reserved": 0, "is_disabled": 0, "type": "electric_scooter", "bike_id": "2ebf96700b2599d7f1eb407dcdd8196e"}, {"lon": -76.97904683333333, "lat": 38.903878666666664, "name": "f6e9371006b100ef61d090fb94ace4ba", "fusion_lat": 0.0, "fusion_lon": 0.0, "rental_uris": {"android": "https://dc.lft.to/lastmile_qr_scan", "ios": "https://dc.lft.to/lastmile_qr_scan"}, "is_reserved": 0, "is_disabled": 0, "type": "electric_scooter", "bike_id": "f6e9371006b100ef61d090fb94ace4ba"}, {"lon": -77.0645915, "lat": 38.910475166666664, "name": "a17b79eb38f8c0bcc38cecd4de653825", "fusion_lat": 0.0, "fusion_lon": 0.0, "rental_uris": {"android": "https://dc.lft.to/lastmile_qr_scan", "ios": "https://dc.lft.to/lastmile_qr_scan"}, "is_reserved": 0, "is_disabled": 0, "type": "electric_scooter", "bike_id": "a17b79eb38f8c0bcc38cecd4de653825"}, {"lon": -77.023912, "lat": 38.93275466666667, "name": "c27bd24320399308ca6c82dca00d6042", "fusion_lat": 0.0, "fusion_lon": 0.0, "rental_uris": {"android": "https://dc.lft.to/lastmile_qr_scan", "ios": "https://dc.lft.to/lastmile_qr_scan"}, "is_reserved": 0, "is_disabled": 0, "type": "electric_scooter", "bike_id": "c27bd24320399308ca6c82dca00d6042"}, {"lon": -77.0186055, "lat": 38.94922583333334, "name": "4d534f3971e8cd66f39f336f8cd99e4e", "fusion_lat": 0.0, "fusion_lon": 0.0, "rental_uris": {"android": "https://dc.lft.to/lastmile_qr_scan", "ios": "https://dc.lft.to/lastmile_qr_scan"}, "is_reserved": 0, "is_disabled": 0, "type": "electric_scooter", "bike_id": "4d534f3971e8cd66f39f336f8cd99e4e"}, {"lon": -77.01514333333333, "lat": 38.88408233333333, "name": "a26da7818e6308a6991c242e271f73d1", "fusion_lat": 0.0, "fusion_lon": 0.0, "rental_uris": {"android": "https://dc.lft.to/lastmile_qr_scan", "ios": "https://dc.lft.to/lastmile_qr_scan"}, "is_reserved": 0, "is_disabled": 0, "type": "electric_scooter", "bike_id": "a26da7818e6308a6991c242e271f73d1"}, {"lon": -76.9526255, "lat": 38.885961333333334, "name": "d6e41716c543f25f4dda1d8500d73808", "fusion_lat": 0.0, "fusion_lon": 0.0, "rental_uris": {"android": "https://dc.lft.to/lastmile_qr_scan", "ios": "https://dc.lft.to/lastmile_qr_scan"}, "is_reserved": 0, "is_disabled": 0, "type": "electric_scooter", "bike_id": "d6e41716c543f25f4dda1d8500d73808"}, {"lon": -77.01325033333333, "lat": 38.8923725, "name": "0fbe59e79d297dd45501311e3f81d6c3", "fusion_lat": 0.0, "fusion_lon": 0.0, "rental_uris": {"android": "https://dc.lft.to/lastmile_qr_scan", "ios": "https://dc.lft.to/lastmile_qr_scan"}, "is_reserved": 0, "is_disabled": 0, "type": "electric_scooter", "bike_id": "0fbe59e79d297dd45501311e3f81d6c3"}, {"lon": -77.04332283333333, "lat": 38.896573833333335, "name": "e765f51ad16df7b9030b17f33b3aabe3", "fusion_lat": 0.0, "fusion_lon": 0.0, "rental_uris": {"android": "https://dc.lft.to/lastmile_qr_scan", "ios": "https://dc.lft.to/lastmile_qr_scan"}, "is_reserved": 0, "is_disabled": 0, "type": "electric_scooter", "bike_id": "e765f51ad16df7b9030b17f33b3aabe3"}, {"lon": -77.04316533333333, "lat": 38.93421633333333, "name": "9ca7b29845c08ac07bebda8a1a1cfb65", "fusion_lat": 0.0, "fusion_lon": 0.0, "rental_uris": {"android": "https://dc.lft.to/lastmile_qr_scan", "ios": "https://dc.lft.to/lastmile_qr_scan"}, "is_reserved": 0, "is_disabled": 0, "type": "electric_scooter", "bike_id": "9ca7b29845c08ac07bebda8a1a1cfb65"}, {"lon": -77.02702316666667, "lat": 38.92878433333333, "name": "62f818eac19a60d127f30cf3a82b719d", "fusion_lat": 0.0, "fusion_lon": 0.0, "rental_uris": {"android": "https://dc.lft.to/lastmile_qr_scan", "ios": "https://dc.lft.to/lastmile_qr_scan"}, "is_reserved": 0, "is_disabled": 0, "type": "electric_scooter", "bike_id": "62f818eac19a60d127f30cf3a82b719d"}, {"lon": -76.99012866666666, "lat": 38.9113895, "name": "c6ac4c81648cdcedea4940af8dc54b21", "fusion_lat": 0.0, "fusion_lon": 0.0, "rental_uris": {"android": "https://dc.lft.to/lastmile_qr_scan", "ios": "https://dc.lft.to/lastmile_qr_scan"}, "is_reserved": 0, "is_disabled": 0, "type": "electric_scooter", "bike_id": "c6ac4c81648cdcedea4940af8dc54b21"}, {"lon": -77.0218755, "lat": 38.911286, "name": "c4eb56e35626dc1727a7b49c2d152a22", "fusion_lat": 0.0, "fusion_lon": 0.0, "rental_uris": {"android": "https://dc.lft.to/lastmile_qr_scan", "ios": "https://dc.lft.to/lastmile_qr_scan"}, "is_reserved": 0, "is_disabled": 0, "type": "electric_scooter", "bike_id": "c4eb56e35626dc1727a7b49c2d152a22"}, {"lon": -77.02711833333333, "lat": 38.928849, "name": "7826a125cfc483ad09748d1ef03dc8f7", "fusion_lat": 0.0, "fusion_lon": 0.0, "rental_uris": {"android": "https://dc.lft.to/lastmile_qr_scan", "ios": "https://dc.lft.to/lastmile_qr_scan"}, "is_reserved": 0, "is_disabled": 0, "type": "electric_scooter", "bike_id": "7826a125cfc483ad09748d1ef03dc8f7"}, {"lon": -77.0454145, "lat": 38.9193785, "name": "2696f6fbda1513d49d86134eae43caab", "fusion_lat": 0.0, "fusion_lon": 0.0, "rental_uris": {"android": "https://dc.lft.to/lastmile_qr_scan", "ios": "https://dc.lft.to/lastmile_qr_scan"}, "is_reserved": 0, "is_disabled": 0, "type": "electric_scooter", "bike_id": "2696f6fbda1513d49d86134eae43caab"}, {"lon": -77.04475216666667, "lat": 38.90045383333333, "name": "e43f445ceed45e7d2d8d6c04067cfd29", "fusion_lat": 0.0, "fusion_lon": 0.0, "rental_uris": {"android": "https://dc.lft.to/lastmile_qr_scan", "ios": "https://dc.lft.to/lastmile_qr_scan"}, "is_reserved": 0, "is_disabled": 0, "type": "electric_scooter", "bike_id": "e43f445ceed45e7d2d8d6c04067cfd29"}, {"lon": -77.03792183333333, "lat": 38.91981233333333, "name": "d50f5300e8c5c47b9448e3ffda343baa", "fusion_lat": 0.0, "fusion_lon": 0.0, "rental_uris": {"android": "https://dc.lft.to/lastmile_qr_scan", "ios": "https://dc.lft.to/lastmile_qr_scan"}, "is_reserved": 0, "is_disabled": 0, "type": "electric_scooter", "bike_id": "d50f5300e8c5c47b9448e3ffda343baa"}, {"lon": -76.97329416666666, "lat": 38.85062816666667, "name": "39fa8ab913e18ffe2a6a0a5f9c25ceec", "fusion_lat": 0.0, "fusion_lon": 0.0, "rental_uris": {"android": "https://dc.lft.to/lastmile_qr_scan", "ios": "https://dc.lft.to/lastmile_qr_scan"}, "is_reserved": 0, "is_disabled": 0, "type": "electric_bike", "bike_id": "39fa8ab913e18ffe2a6a0a5f9c25ceec"}, {"lon": -77.050065, "lat": 38.89226633333333, "name": "485a2ee30d20478a13fa145a95bebdc8", "fusion_lat": 0.0, "fusion_lon": 0.0, "rental_uris": {"android": "https://dc.lft.to/lastmile_qr_scan", "ios": "https://dc.lft.to/lastmile_qr_scan"}, "is_reserved": 0, "is_disabled": 0, "type": "electric_scooter", "bike_id": "485a2ee30d20478a13fa145a95bebdc8"}, {"lon": -77.05270583333333, "lat": 38.910130333333335, "name": "2439656732b92c1834be71774ddd1991", "fusion_lat": 0.0, "fusion_lon": 0.0, "rental_uris": {"android": "https://dc.lft.to/lastmile_qr_scan", "ios": "https://dc.lft.to/lastmile_qr_scan"}, "is_reserved": 0, "is_disabled": 0, "type": "electric_scooter", "bike_id": "2439656732b92c1834be71774ddd1991"}, {"lon": -77.03810916666667, "lat": 38.9142535, "name": "84eed2c610df7ba5ee07fa245b244a67", "fusion_lat": 0.0, "fusion_lon": 0.0, "rental_uris": {"android": "https://dc.lft.to/lastmile_qr_scan", "ios": "https://dc.lft.to/lastmile_qr_scan"}, "is_reserved": 0, "is_disabled": 0, "type": "electric_scooter", "bike_id": "84eed2c610df7ba5ee07fa245b244a67"}, {"lon": -77.00729383333334, "lat": 38.95972916666667, "name": "68f8be00250d92e4778ed552b0d40541", "fusion_lat": 0.0, "fusion_lon": 0.0, "rental_uris": {"android": "https://dc.lft.to/lastmile_qr_scan", "ios": "https://dc.lft.to/lastmile_qr_scan"}, "is_reserved": 0, "is_disabled": 0, "type": "electric_scooter", "bike_id": "68f8be00250d92e4778ed552b0d40541"}, {"lon": -76.99120033333334, "lat": 38.90011966666667, "name": "147a6372b9bd71e3bdaa717886ffbe1e", "fusion_lat": 0.0, "fusion_lon": 0.0, "rental_uris": {"android": "https://dc.lft.to/lastmile_qr_scan", "ios": "https://dc.lft.to/lastmile_qr_scan"}, "is_reserved": 0, "is_disabled": 0, "type": "electric_scooter", "bike_id": "147a6372b9bd71e3bdaa717886ffbe1e"}, {"lon": -76.97219283333334, "lat": 38.84478983333333, "name": "0eaca7549bd99ca765acd41c3d005f0e", "fusion_lat": 0.0, "fusion_lon": 0.0, "rental_uris": {"android": "https://dc.lft.to/lastmile_qr_scan", "ios": "https://dc.lft.to/lastmile_qr_scan"}, "is_reserved": 0, "is_disabled": 0, "type": "electric_bike", "bike_id": "0eaca7549bd99ca765acd41c3d005f0e"}, {"lon": -77.06774516666667, "lat": 38.94973133333333, "name": "d9cf62d9df247c1faf2075b62f2458af", "fusion_lat": 0.0, "fusion_lon": 0.0, "rental_uris": {"android": "https://dc.lft.to/lastmile_qr_scan", "ios": "https://dc.lft.to/lastmile_qr_scan"}, "is_reserved": 0, "is_disabled": 0, "type": "electric_scooter", "bike_id": "d9cf62d9df247c1faf2075b62f2458af"}, {"lon": -76.96881, "lat": 38.845992333333335, "name": "e7f45e09e92835d38cca6a744a1c63aa", "fusion_lat": 0.0, "fusion_lon": 0.0, "rental_uris": {"android": "https://dc.lft.to/lastmile_qr_scan", "ios": "https://dc.lft.to/lastmile_qr_scan"}, "is_reserved": 0, "is_disabled": 0, "type": "electric_bike", "bike_id": "e7f45e09e92835d38cca6a744a1c63aa"}, {"lon": -77.0641685, "lat": 38.905972, "name": "ea4fe1d778017f2db732357c57c4f6b8", "fusion_lat": 0.0, "fusion_lon": 0.0, "rental_uris": {"android": "https://dc.lft.to/lastmile_qr_scan", "ios": "https://dc.lft.to/lastmile_qr_scan"}, "is_reserved": 0, "is_disabled": 0, "type": "electric_bike", "bike_id": "ea4fe1d778017f2db732357c57c4f6b8"}, {"lon": -77.0363905, "lat": 38.9241915, "name": "6aaf6c0b7a0d8579459ab5c12bce3c74", "fusion_lat": 0.0, "fusion_lon": 0.0, "rental_uris": {"android": "https://dc.lft.to/lastmile_qr_scan", "ios": "https://dc.lft.to/lastmile_qr_scan"}, "is_reserved": 0, "is_disabled": 0, "type": "electric_scooter", "bike_id": "6aaf6c0b7a0d8579459ab5c12bce3c74"}, {"lon": -77.01828266666666, "lat": 38.9196915, "name": "abf5e7896d1d69b0993e8916960b93de", "fusion_lat": 0.0, "fusion_lon": 0.0, "rental_uris": {"android": "https://dc.lft.to/lastmile_qr_scan", "ios": "https://dc.lft.to/lastmile_qr_scan"}, "is_reserved": 0, "is_disabled": 0, "type": "electric_scooter", "bike_id": "abf5e7896d1d69b0993e8916960b93de"}, {"lon": -77.02687133333333, "lat": 38.90237, "name": "d799a3fed25ec4875a8dc53a5f6467e6", "fusion_lat": 0.0, "fusion_lon": 0.0, "rental_uris": {"android": "https://dc.lft.to/lastmile_qr_scan", "ios": "https://dc.lft.to/lastmile_qr_scan"}, "is_reserved": 0, "is_disabled": 0, "type": "electric_scooter", "bike_id": "d799a3fed25ec4875a8dc53a5f6467e6"}, {"lon": -76.90971, "lat": 38.85431883333333, "name": "8e45916a37d459cc2930027c1e9896d7", "fusion_lat": 0.0, "fusion_lon": 0.0, "rental_uris": {"android": "https://dc.lft.to/lastmile_qr_scan", "ios": "https://dc.lft.to/lastmile_qr_scan"}, "is_reserved": 0, "is_disabled": 0, "type": "electric_bike", "bike_id": "8e45916a37d459cc2930027c1e9896d7"}, {"lon": -77.00676083333333, "lat": 38.89591683333333, "name": "93560fda1ce2fb6225ba486d9cd92810", "fusion_lat": 0.0, "fusion_lon": 0.0, "rental_uris": {"android": "https://dc.lft.to/lastmile_qr_scan", "ios": "https://dc.lft.to/lastmile_qr_scan"}, "is_reserved": 0, "is_disabled": 0, "type": "electric_scooter", "bike_id": "93560fda1ce2fb6225ba486d9cd92810"}, {"lon": -77.0231465, "lat": 38.91791716666667, "name": "6f611376917ee1ea4b30804507af4c44", "fusion_lat": 0.0, "fusion_lon": 0.0, "rental_uris": {"android": "https://dc.lft.to/lastmile_qr_scan", "ios": "https://dc.lft.to/lastmile_qr_scan"}, "is_reserved": 0, "is_disabled": 0, "type": "electric_scooter", "bike_id": "6f611376917ee1ea4b30804507af4c44"}, {"lon": -77.04377183333334, "lat": 38.89221533333333, "name": "f1b66929c43824243f66c69447ae2949", "fusion_lat": 0.0, "fusion_lon": 0.0, "rental_uris": {"android": "https://dc.lft.to/lastmile_qr_scan", "ios": "https://dc.lft.to/lastmile_qr_scan"}, "is_reserved": 0, "is_disabled": 0, "type": "electric_scooter", "bike_id": "f1b66929c43824243f66c69447ae2949"}, {"lon": -77.0187215, "lat": 38.88745766666667, "name": "c495823aaa07b76f45d93ea8cc4e72ed", "fusion_lat": 0.0, "fusion_lon": 0.0, "rental_uris": {"android": "https://dc.lft.to/lastmile_qr_scan", "ios": "https://dc.lft.to/lastmile_qr_scan"}, "is_reserved": 0, "is_disabled": 0, "type": "electric_scooter", "bike_id": "c495823aaa07b76f45d93ea8cc4e72ed"}, {"lon": -77.02603083333334, "lat": 38.90480983333333, "name": "e009af940f6614d4aaebc01f60075b01", "fusion_lat": 0.0, "fusion_lon": 0.0, "rental_uris": {"android": "https://dc.lft.to/lastmile_qr_scan", "ios": "https://dc.lft.to/lastmile_qr_scan"}, "is_reserved": 0, "is_disabled": 0, "type": "electric_scooter", "bike_id": "e009af940f6614d4aaebc01f60075b01"}, {"lon": -77.0334955, "lat": 38.89534233333333, "name": "166b3321689fd5efd1b7a845cb3fae90", "fusion_lat": 0.0, "fusion_lon": 0.0, "rental_uris": {"android": "https://dc.lft.to/lastmile_qr_scan", "ios": "https://dc.lft.to/lastmile_qr_scan"}, "is_reserved": 0, "is_disabled": 0, "type": "electric_scooter", "bike_id": "166b3321689fd5efd1b7a845cb3fae90"}, {"lon": -77.04588283333334, "lat": 38.916639833333335, "name": "091881c2449f0b44097f5ae3d8f790f3", "fusion_lat": 0.0, "fusion_lon": 0.0, "rental_uris": {"android": "https://dc.lft.to/lastmile_qr_scan", "ios": "https://dc.lft.to/lastmile_qr_scan"}, "is_reserved": 0, "is_disabled": 0, "type": "electric_bike", "bike_id": "091881c2449f0b44097f5ae3d8f790f3"}, {"lon": -77.027221, "lat": 38.89975866666666, "name": "1e931c9f864b86c21f25a4cef4a7c9df", "fusion_lat": 0.0, "fusion_lon": 0.0, "rental_uris": {"android": "https://dc.lft.to/lastmile_qr_scan", "ios": "https://dc.lft.to/lastmile_qr_scan"}, "is_reserved": 0, "is_disabled": 0, "type": "electric_scooter", "bike_id": "1e931c9f864b86c21f25a4cef4a7c9df"}, {"lon": -77.03555183333333, "lat": 38.908292, "name": "a2a4a1f2dec02d230c6c1b703534c2f1", "fusion_lat": 0.0, "fusion_lon": 0.0, "rental_uris": {"android": "https://dc.lft.to/lastmile_qr_scan", "ios": "https://dc.lft.to/lastmile_qr_scan"}, "is_reserved": 0, "is_disabled": 0, "type": "electric_scooter", "bike_id": "a2a4a1f2dec02d230c6c1b703534c2f1"}, {"lon": -77.0266435, "lat": 38.93862166666667, "name": "ac5d7a2f3795a451d8c5ebe2312da9a9", "fusion_lat": 0.0, "fusion_lon": 0.0, "rental_uris": {"android": "https://dc.lft.to/lastmile_qr_scan", "ios": "https://dc.lft.to/lastmile_qr_scan"}, "is_reserved": 0, "is_disabled": 0, "type": "electric_scooter", "bike_id": "ac5d7a2f3795a451d8c5ebe2312da9a9"}, {"lon": -77.0323025, "lat": 38.9217575, "name": "f9edc911c7429c470ff9f0ab08965f37", "fusion_lat": 0.0, "fusion_lon": 0.0, "rental_uris": {"android": "https://dc.lft.to/lastmile_qr_scan", "ios": "https://dc.lft.to/lastmile_qr_scan"}, "is_reserved": 0, "is_disabled": 0, "type": "electric_scooter", "bike_id": "f9edc911c7429c470ff9f0ab08965f37"}, {"lon": -77.032068, "lat": 38.938679666666665, "name": "4fd4a8e462d16a135c536aa8904a2002", "fusion_lat": 0.0, "fusion_lon": 0.0, "rental_uris": {"android": "https://dc.lft.to/lastmile_qr_scan", "ios": "https://dc.lft.to/lastmile_qr_scan"}, "is_reserved": 0, "is_disabled": 0, "type": "electric_scooter", "bike_id": "4fd4a8e462d16a135c536aa8904a2002"}, {"lon": -77.00712783333333, "lat": 38.88488266666667, "name": "7fa6c2dc308972ecc7cc7279ed1ce157", "fusion_lat": 0.0, "fusion_lon": 0.0, "rental_uris": {"android": "https://dc.lft.to/lastmile_qr_scan", "ios": "https://dc.lft.to/lastmile_qr_scan"}, "is_reserved": 0, "is_disabled": 0, "type": "electric_scooter", "bike_id": "7fa6c2dc308972ecc7cc7279ed1ce157"}, {"lon": -77.04652733333333, "lat": 38.90734783333333, "name": "b2a115db7c4d83bce42fb7f5a6ac9ebf", "fusion_lat": 0.0, "fusion_lon": 0.0, "rental_uris": {"android": "https://dc.lft.to/lastmile_qr_scan", "ios": "https://dc.lft.to/lastmile_qr_scan"}, "is_reserved": 0, "is_disabled": 0, "type": "electric_scooter", "bike_id": "b2a115db7c4d83bce42fb7f5a6ac9ebf"}, {"lon": -77.00337916666666, "lat": 38.897359, "name": "fae16b23fd5f3f31c26dd57e8490533c", "fusion_lat": 0.0, "fusion_lon": 0.0, "rental_uris": {"android": "https://dc.lft.to/lastmile_qr_scan", "ios": "https://dc.lft.to/lastmile_qr_scan"}, "is_reserved": 0, "is_disabled": 0, "type": "electric_scooter", "bike_id": "fae16b23fd5f3f31c26dd57e8490533c"}, {"lon": -77.011862, "lat": 38.9000885, "name": "068e506a6e2c97f28f7174f660005ece", "fusion_lat": 0.0, "fusion_lon": 0.0, "rental_uris": {"android": "https://dc.lft.to/lastmile_qr_scan", "ios": "https://dc.lft.to/lastmile_qr_scan"}, "is_reserved": 0, "is_disabled": 0, "type": "electric_scooter", "bike_id": "068e506a6e2c97f28f7174f660005ece"}, {"lon": -77.00167616666667, "lat": 38.9077035, "name": "ab6e12a01ed069cf60dae2f53353d4b2", "fusion_lat": 0.0, "fusion_lon": 0.0, "rental_uris": {"android": "https://dc.lft.to/lastmile_qr_scan", "ios": "https://dc.lft.to/lastmile_qr_scan"}, "is_reserved": 0, "is_disabled": 0, "type": "electric_scooter", "bike_id": "ab6e12a01ed069cf60dae2f53353d4b2"}, {"lon": -77.001974, "lat": 38.8988085, "name": "213fb5932c9068a9b829ed3090d60fdf", "fusion_lat": 0.0, "fusion_lon": 0.0, "rental_uris": {"android": "https://dc.lft.to/lastmile_qr_scan", "ios": "https://dc.lft.to/lastmile_qr_scan"}, "is_reserved": 0, "is_disabled": 0, "type": "electric_scooter", "bike_id": "213fb5932c9068a9b829ed3090d60fdf"}, {"lon": -76.98862416666667, "lat": 38.90031416666667, "name": "2d148d6e2a81751a17013abe03c6ca22", "fusion_lat": 0.0, "fusion_lon": 0.0, "rental_uris": {"android": "https://dc.lft.to/lastmile_qr_scan", "ios": "https://dc.lft.to/lastmile_qr_scan"}, "is_reserved": 0, "is_disabled": 0, "type": "electric_scooter", "bike_id": "2d148d6e2a81751a17013abe03c6ca22"}, {"lon": -77.0364785, "lat": 38.90274183333333, "name": "779f181a68a6b855e0a48b4e88a35e69", "fusion_lat": 0.0, "fusion_lon": 0.0, "rental_uris": {"android": "https://dc.lft.to/lastmile_qr_scan", "ios": "https://dc.lft.to/lastmile_qr_scan"}, "is_reserved": 0, "is_disabled": 0, "type": "electric_scooter", "bike_id": "779f181a68a6b855e0a48b4e88a35e69"}, {"lon": -76.9610295, "lat": 38.92869616666667, "name": "bdf56a4e0f1161fbcaeba397c86aedd7", "fusion_lat": 0.0, "fusion_lon": 0.0, "rental_uris": {"android": "https://dc.lft.to/lastmile_qr_scan", "ios": "https://dc.lft.to/lastmile_qr_scan"}, "is_reserved": 0, "is_disabled": 0, "type": "electric_bike", "bike_id": "bdf56a4e0f1161fbcaeba397c86aedd7"}, {"lon": -77.0331605, "lat": 38.900384833333334, "name": "47caac5d21ed890463471ac800e6757a", "fusion_lat": 0.0, "fusion_lon": 0.0, "rental_uris": {"android": "https://dc.lft.to/lastmile_qr_scan", "ios": "https://dc.lft.to/lastmile_qr_scan"}, "is_reserved": 0, "is_disabled": 0, "type": "electric_scooter", "bike_id": "47caac5d21ed890463471ac800e6757a"}, {"lon": -77.0214635, "lat": 38.923388, "name": "f8b6e9e5deffb47e75db5521dfe30f5d", "fusion_lat": 0.0, "fusion_lon": 0.0, "rental_uris": {"android": "https://dc.lft.to/lastmile_qr_scan", "ios": "https://dc.lft.to/lastmile_qr_scan"}, "is_reserved": 0, "is_disabled": 0, "type": "electric_scooter", "bike_id": "f8b6e9e5deffb47e75db5521dfe30f5d"}, {"lon": -76.99947583333334, "lat": 38.8429275, "name": "97501f66c8d4dff25b89aad4f8b06fb2", "fusion_lat": 0.0, "fusion_lon": 0.0, "rental_uris": {"android": "https://dc.lft.to/lastmile_qr_scan", "ios": "https://dc.lft.to/lastmile_qr_scan"}, "is_reserved": 0, "is_disabled": 0, "type": "electric_scooter", "bike_id": "97501f66c8d4dff25b89aad4f8b06fb2"}, {"lon": -77.0249645, "lat": 38.97404216666666, "name": "9787017179024cd39580cc6a661624bf", "fusion_lat": 0.0, "fusion_lon": 0.0, "rental_uris": {"android": "https://dc.lft.to/lastmile_qr_scan", "ios": "https://dc.lft.to/lastmile_qr_scan"}, "is_reserved": 0, "is_disabled": 0, "type": "electric_bike", "bike_id": "9787017179024cd39580cc6a661624bf"}, {"lon": -77.04328933333333, "lat": 38.90737633333333, "name": "f6a146c949132024875efa7387940c6a", "fusion_lat": 0.0, "fusion_lon": 0.0, "rental_uris": {"android": "https://dc.lft.to/lastmile_qr_scan", "ios": "https://dc.lft.to/lastmile_qr_scan"}, "is_reserved": 0, "is_disabled": 0, "type": "electric_scooter", "bike_id": "f6a146c949132024875efa7387940c6a"}, {"lon": -77.023033, "lat": 38.91834016666667, "name": "30d884b173e07ba1509aa51953463da4", "fusion_lat": 0.0, "fusion_lon": 0.0, "rental_uris": {"android": "https://dc.lft.to/lastmile_qr_scan", "ios": "https://dc.lft.to/lastmile_qr_scan"}, "is_reserved": 0, "is_disabled": 0, "type": "electric_scooter", "bike_id": "30d884b173e07ba1509aa51953463da4"}, {"lon": -77.04719533333333, "lat": 38.89957533333333, "name": "37b0c117b28887f0f0c8601e8aa783cc", "fusion_lat": 0.0, "fusion_lon": 0.0, "rental_uris": {"android": "https://dc.lft.to/lastmile_qr_scan", "ios": "https://dc.lft.to/lastmile_qr_scan"}, "is_reserved": 0, "is_disabled": 0, "type": "electric_scooter", "bike_id": "37b0c117b28887f0f0c8601e8aa783cc"}, {"lon": -77.0342325, "lat": 38.91931566666667, "name": "33628776850c7fcdce6f6b0fc97b85bf", "fusion_lat": 0.0, "fusion_lon": 0.0, "rental_uris": {"android": "https://dc.lft.to/lastmile_qr_scan", "ios": "https://dc.lft.to/lastmile_qr_scan"}, "is_reserved": 0, "is_disabled": 0, "type": "electric_scooter", "bike_id": "33628776850c7fcdce6f6b0fc97b85bf"}, {"lon": -76.98129333333333, "lat": 38.904940333333336, "name": "675c5df7a9a15251fc7522703151980b", "fusion_lat": 0.0, "fusion_lon": 0.0, "rental_uris": {"android": "https://dc.lft.to/lastmile_qr_scan", "ios": "https://dc.lft.to/lastmile_qr_scan"}, "is_reserved": 0, "is_disabled": 0, "type": "electric_scooter", "bike_id": "675c5df7a9a15251fc7522703151980b"}, {"lon": -77.011081, "lat": 38.894993, "name": "4bb1221e2e865bdd113908a10b151174", "fusion_lat": 0.0, "fusion_lon": 0.0, "rental_uris": {"android": "https://dc.lft.to/lastmile_qr_scan", "ios": "https://dc.lft.to/lastmile_qr_scan"}, "is_reserved": 0, "is_disabled": 0, "type": "electric_scooter", "bike_id": "4bb1221e2e865bdd113908a10b151174"}, {"lon": -77.02954866666667, "lat": 38.904672166666664, "name": "2b4de50ba86749664a749b069779ced6", "fusion_lat": 0.0, "fusion_lon": 0.0, "rental_uris": {"android": "https://dc.lft.to/lastmile_qr_scan", "ios": "https://dc.lft.to/lastmile_qr_scan"}, "is_reserved": 0, "is_disabled": 0, "type": "electric_scooter", "bike_id": "2b4de50ba86749664a749b069779ced6"}, {"lon": -76.947177, "lat": 38.896778166666664, "name": "8bda379bbb60e6012540bf750dc7c8ce", "fusion_lat": 0.0, "fusion_lon": 0.0, "rental_uris": {"android": "https://dc.lft.to/lastmile_qr_scan", "ios": "https://dc.lft.to/lastmile_qr_scan"}, "is_reserved": 0, "is_disabled": 0, "type": "electric_scooter", "bike_id": "8bda379bbb60e6012540bf750dc7c8ce"}, {"lon": -77.0464635, "lat": 38.85212833333333, "name": "79dcb740c3f8d660283e6f1c492829b9", "fusion_lat": 0.0, "fusion_lon": 0.0, "rental_uris": {"android": "https://dc.lft.to/lastmile_qr_scan", "ios": "https://dc.lft.to/lastmile_qr_scan"}, "is_reserved": 0, "is_disabled": 0, "type": "electric_bike", "bike_id": "79dcb740c3f8d660283e6f1c492829b9"}, {"lon": -77.03168283333333, "lat": 38.944551833333335, "name": "f9baf02f5c7e29a51a5025c556026cec", "fusion_lat": 0.0, "fusion_lon": 0.0, "rental_uris": {"android": "https://dc.lft.to/lastmile_qr_scan", "ios": "https://dc.lft.to/lastmile_qr_scan"}, "is_reserved": 0, "is_disabled": 0, "type": "electric_bike", "bike_id": "f9baf02f5c7e29a51a5025c556026cec"}, {"lon": -77.00208916666666, "lat": 38.90218516666667, "name": "58fd8af48ec2b5b660576983ccbdd83a", "fusion_lat": 0.0, "fusion_lon": 0.0, "rental_uris": {"android": "https://dc.lft.to/lastmile_qr_scan", "ios": "https://dc.lft.to/lastmile_qr_scan"}, "is_reserved": 0, "is_disabled": 0, "type": "electric_scooter", "bike_id": "58fd8af48ec2b5b660576983ccbdd83a"}, {"lon": -77.01912233333333, "lat": 38.902452833333335, "name": "632b6ab657b292e55ca1b33107aacef7", "fusion_lat": 0.0, "fusion_lon": 0.0, "rental_uris": {"android": "https://dc.lft.to/lastmile_qr_scan", "ios": "https://dc.lft.to/lastmile_qr_scan"}, "is_reserved": 0, "is_disabled": 0, "type": "electric_scooter", "bike_id": "632b6ab657b292e55ca1b33107aacef7"}, {"lon": -76.9902745, "lat": 38.868675833333334, "name": "19110ac45e76c1f2464ecd7c317f6b6d", "fusion_lat": 0.0, "fusion_lon": 0.0, "rental_uris": {"android": "https://dc.lft.to/lastmile_qr_scan", "ios": "https://dc.lft.to/lastmile_qr_scan"}, "is_reserved": 0, "is_disabled": 0, "type": "electric_scooter", "bike_id": "19110ac45e76c1f2464ecd7c317f6b6d"}, {"lon": -77.03318433333334, "lat": 38.89878516666667, "name": "435172d39f76b3e72e96cc925ec3356d", "fusion_lat": 0.0, "fusion_lon": 0.0, "rental_uris": {"android": "https://dc.lft.to/lastmile_qr_scan", "ios": "https://dc.lft.to/lastmile_qr_scan"}, "is_reserved": 0, "is_disabled": 0, "type": "electric_scooter", "bike_id": "435172d39f76b3e72e96cc925ec3356d"}, {"lon": -77.0317305, "lat": 38.88625966666667, "name": "0e7a6f922d579bb2948bff5cabd045cd", "fusion_lat": 0.0, "fusion_lon": 0.0, "rental_uris": {"android": "https://dc.lft.to/lastmile_qr_scan", "ios": "https://dc.lft.to/lastmile_qr_scan"}, "is_reserved": 0, "is_disabled": 0, "type": "electric_scooter", "bike_id": "0e7a6f922d579bb2948bff5cabd045cd"}, {"lon": -77.03260583333333, "lat": 38.934044, "name": "2e7687bd60bf4a358bcab4ffc97b97b0", "fusion_lat": 0.0, "fusion_lon": 0.0, "rental_uris": {"android": "https://dc.lft.to/lastmile_qr_scan", "ios": "https://dc.lft.to/lastmile_qr_scan"}, "is_reserved": 0, "is_disabled": 0, "type": "electric_scooter", "bike_id": "2e7687bd60bf4a358bcab4ffc97b97b0"}, {"lon": -77.04661216666666, "lat": 38.893332, "name": "cd05e8e7547c9628296738f8a6d9be42", "fusion_lat": 0.0, "fusion_lon": 0.0, "rental_uris": {"android": "https://dc.lft.to/lastmile_qr_scan", "ios": "https://dc.lft.to/lastmile_qr_scan"}, "is_reserved": 0, "is_disabled": 0, "type": "electric_scooter", "bike_id": "cd05e8e7547c9628296738f8a6d9be42"}, {"lon": -77.03258483333333, "lat": 38.9040235, "name": "83b269fcce171f6ab4aadead66083cbd", "fusion_lat": 0.0, "fusion_lon": 0.0, "rental_uris": {"android": "https://dc.lft.to/lastmile_qr_scan", "ios": "https://dc.lft.to/lastmile_qr_scan"}, "is_reserved": 0, "is_disabled": 0, "type": "electric_scooter", "bike_id": "83b269fcce171f6ab4aadead66083cbd"}, {"lon": -76.93178383333333, "lat": 38.898877666666664, "name": "0c4cd6faf4d83aeced377ab7bbc337ed", "fusion_lat": 0.0, "fusion_lon": 0.0, "rental_uris": {"android": "https://dc.lft.to/lastmile_qr_scan", "ios": "https://dc.lft.to/lastmile_qr_scan"}, "is_reserved": 0, "is_disabled": 0, "type": "electric_scooter", "bike_id": "0c4cd6faf4d83aeced377ab7bbc337ed"}, {"lon": -77.0611665, "lat": 38.90197666666667, "name": "54458a1c9d3be1b713931d5f5f6fab7e", "fusion_lat": 0.0, "fusion_lon": 0.0, "rental_uris": {"android": "https://dc.lft.to/lastmile_qr_scan", "ios": "https://dc.lft.to/lastmile_qr_scan"}, "is_reserved": 0, "is_disabled": 0, "type": "electric_scooter", "bike_id": "54458a1c9d3be1b713931d5f5f6fab7e"}, {"lon": -77.03766616666667, "lat": 38.9169035, "name": "c762c28c27c4b2697012b35273fdf972", "fusion_lat": 0.0, "fusion_lon": 0.0, "rental_uris": {"android": "https://dc.lft.to/lastmile_qr_scan", "ios": "https://dc.lft.to/lastmile_qr_scan"}, "is_reserved": 0, "is_disabled": 0, "type": "electric_scooter", "bike_id": "c762c28c27c4b2697012b35273fdf972"}, {"lon": -77.04881, "lat": 38.91236583333333, "name": "cf14ade05ad7a49def16834bea4b2580", "fusion_lat": 0.0, "fusion_lon": 0.0, "rental_uris": {"android": "https://dc.lft.to/lastmile_qr_scan", "ios": "https://dc.lft.to/lastmile_qr_scan"}, "is_reserved": 0, "is_disabled": 0, "type": "electric_scooter", "bike_id": "cf14ade05ad7a49def16834bea4b2580"}, {"lon": -76.9744905, "lat": 38.966671833333336, "name": "2bc1d5a66802af677879072297629b14", "fusion_lat": 0.0, "fusion_lon": 0.0, "rental_uris": {"android": "https://dc.lft.to/lastmile_qr_scan", "ios": "https://dc.lft.to/lastmile_qr_scan"}, "is_reserved": 0, "is_disabled": 0, "type": "electric_bike", "bike_id": "2bc1d5a66802af677879072297629b14"}, {"lon": -76.9053395, "lat": 38.89739483333334, "name": "3187c21396450fd06854eb908d7779b3", "fusion_lat": 0.0, "fusion_lon": 0.0, "rental_uris": {"android": "https://dc.lft.to/lastmile_qr_scan", "ios": "https://dc.lft.to/lastmile_qr_scan"}, "is_reserved": 0, "is_disabled": 0, "type": "electric_bike", "bike_id": "3187c21396450fd06854eb908d7779b3"}, {"lon": -77.01996, "lat": 38.90474666666667, "name": "3e803f32e1f35598dbaa75db0ab4c086", "fusion_lat": 0.0, "fusion_lon": 0.0, "rental_uris": {"android": "https://dc.lft.to/lastmile_qr_scan", "ios": "https://dc.lft.to/lastmile_qr_scan"}, "is_reserved": 0, "is_disabled": 0, "type": "electric_scooter", "bike_id": "3e803f32e1f35598dbaa75db0ab4c086"}, {"lon": -77.03257233333333, "lat": 38.91402316666667, "name": "dd16404f095c2697f146fbe0287421f7", "fusion_lat": 0.0, "fusion_lon": 0.0, "rental_uris": {"android": "https://dc.lft.to/lastmile_qr_scan", "ios": "https://dc.lft.to/lastmile_qr_scan"}, "is_reserved": 0, "is_disabled": 0, "type": "electric_scooter", "bike_id": "dd16404f095c2697f146fbe0287421f7"}, {"lon": -77.02599883333333, "lat": 38.92039466666667, "name": "f08e1dd26b9b7c0776f9dfe4fff5e3f3", "fusion_lat": 0.0, "fusion_lon": 0.0, "rental_uris": {"android": "https://dc.lft.to/lastmile_qr_scan", "ios": "https://dc.lft.to/lastmile_qr_scan"}, "is_reserved": 0, "is_disabled": 0, "type": "electric_scooter", "bike_id": "f08e1dd26b9b7c0776f9dfe4fff5e3f3"}, {"lon": -77.0212265, "lat": 38.93703633333333, "name": "d3ab2b58fb9c871b3f3fbaab0bf60fde", "fusion_lat": 0.0, "fusion_lon": 0.0, "rental_uris": {"android": "https://dc.lft.to/lastmile_qr_scan", "ios": "https://dc.lft.to/lastmile_qr_scan"}, "is_reserved": 0, "is_disabled": 0, "type": "electric_scooter", "bike_id": "d3ab2b58fb9c871b3f3fbaab0bf60fde"}, {"lon": -77.03844583333333, "lat": 38.90271366666666, "name": "8ebae7a9f6cacaf7f5a50647c7ad6537", "fusion_lat": 0.0, "fusion_lon": 0.0, "rental_uris": {"android": "https://dc.lft.to/lastmile_qr_scan", "ios": "https://dc.lft.to/lastmile_qr_scan"}, "is_reserved": 0, "is_disabled": 0, "type": "electric_scooter", "bike_id": "8ebae7a9f6cacaf7f5a50647c7ad6537"}, {"lon": -77.030778, "lat": 38.90987783333333, "name": "2c35afef83d9cceb526779f859512726", "fusion_lat": 0.0, "fusion_lon": 0.0, "rental_uris": {"android": "https://dc.lft.to/lastmile_qr_scan", "ios": "https://dc.lft.to/lastmile_qr_scan"}, "is_reserved": 0, "is_disabled": 0, "type": "electric_scooter", "bike_id": "2c35afef83d9cceb526779f859512726"}, {"lon": -77.00835916666666, "lat": 38.91555616666667, "name": "7105e4020957788d66dd2d73badf45c0", "fusion_lat": 0.0, "fusion_lon": 0.0, "rental_uris": {"android": "https://dc.lft.to/lastmile_qr_scan", "ios": "https://dc.lft.to/lastmile_qr_scan"}, "is_reserved": 0, "is_disabled": 0, "type": "electric_scooter", "bike_id": "7105e4020957788d66dd2d73badf45c0"}, {"lon": -77.026865, "lat": 38.924797, "name": "279f94aadbab0d52b88a3814d8d3e13c", "fusion_lat": 0.0, "fusion_lon": 0.0, "rental_uris": {"android": "https://dc.lft.to/lastmile_qr_scan", "ios": "https://dc.lft.to/lastmile_qr_scan"}, "is_reserved": 0, "is_disabled": 0, "type": "electric_scooter", "bike_id": "279f94aadbab0d52b88a3814d8d3e13c"}, {"lon": -77.04035716666667, "lat": 38.923098, "name": "b23534fb22e998b3107587b0add41983", "fusion_lat": 0.0, "fusion_lon": 0.0, "rental_uris": {"android": "https://dc.lft.to/lastmile_qr_scan", "ios": "https://dc.lft.to/lastmile_qr_scan"}, "is_reserved": 0, "is_disabled": 0, "type": "electric_scooter", "bike_id": "b23534fb22e998b3107587b0add41983"}, {"lon": -77.03700733333334, "lat": 38.926457166666665, "name": "7a0d1f9b92dc8efafa670c621ee06c26", "fusion_lat": 0.0, "fusion_lon": 0.0, "rental_uris": {"android": "https://dc.lft.to/lastmile_qr_scan", "ios": "https://dc.lft.to/lastmile_qr_scan"}, "is_reserved": 0, "is_disabled": 0, "type": "electric_scooter", "bike_id": "7a0d1f9b92dc8efafa670c621ee06c26"}, {"lon": -77.037218, "lat": 38.917149, "name": "a4412f9044d4f570ab0040dd68886831", "fusion_lat": 0.0, "fusion_lon": 0.0, "rental_uris": {"android": "https://dc.lft.to/lastmile_qr_scan", "ios": "https://dc.lft.to/lastmile_qr_scan"}, "is_reserved": 0, "is_disabled": 0, "type": "electric_scooter", "bike_id": "a4412f9044d4f570ab0040dd68886831"}, {"lon": -77.0215435, "lat": 38.89219816666667, "name": "07aed957a47dfc82eadb6d1a044e1381", "fusion_lat": 0.0, "fusion_lon": 0.0, "rental_uris": {"android": "https://dc.lft.to/lastmile_qr_scan", "ios": "https://dc.lft.to/lastmile_qr_scan"}, "is_reserved": 0, "is_disabled": 0, "type": "electric_scooter", "bike_id": "07aed957a47dfc82eadb6d1a044e1381"}, {"lon": -77.025908, "lat": 38.90424766666667, "name": "d3a2e133132f2daff824cc78ec6528f4", "fusion_lat": 0.0, "fusion_lon": 0.0, "rental_uris": {"android": "https://dc.lft.to/lastmile_qr_scan", "ios": "https://dc.lft.to/lastmile_qr_scan"}, "is_reserved": 0, "is_disabled": 0, "type": "electric_scooter", "bike_id": "d3a2e133132f2daff824cc78ec6528f4"}, {"lon": -77.02779716666667, "lat": 38.894765, "name": "84bdb8b01abfccd8f7c8ce9a5374ce28", "fusion_lat": 0.0, "fusion_lon": 0.0, "rental_uris": {"android": "https://dc.lft.to/lastmile_qr_scan", "ios": "https://dc.lft.to/lastmile_qr_scan"}, "is_reserved": 0, "is_disabled": 0, "type": "electric_scooter", "bike_id": "84bdb8b01abfccd8f7c8ce9a5374ce28"}, {"lon": -77.04854533333334, "lat": 38.919610166666665, "name": "ed806ae908775b8bfdd1dc7252c7c77b", "fusion_lat": 0.0, "fusion_lon": 0.0, "rental_uris": {"android": "https://dc.lft.to/lastmile_qr_scan", "ios": "https://dc.lft.to/lastmile_qr_scan"}, "is_reserved": 0, "is_disabled": 0, "type": "electric_scooter", "bike_id": "ed806ae908775b8bfdd1dc7252c7c77b"}, {"lon": -77.0028425, "lat": 38.914759, "name": "727cc32e6e79fcec24a38c3d9bd273b3", "fusion_lat": 0.0, "fusion_lon": 0.0, "rental_uris": {"android": "https://dc.lft.to/lastmile_qr_scan", "ios": "https://dc.lft.to/lastmile_qr_scan"}, "is_reserved": 0, "is_disabled": 0, "type": "electric_scooter", "bike_id": "727cc32e6e79fcec24a38c3d9bd273b3"}, {"lon": -77.02555183333334, "lat": 38.89229133333333, "name": "615124bd5f46a5ac015f9997f4476684", "fusion_lat": 0.0, "fusion_lon": 0.0, "rental_uris": {"android": "https://dc.lft.to/lastmile_qr_scan", "ios": "https://dc.lft.to/lastmile_qr_scan"}, "is_reserved": 0, "is_disabled": 0, "type": "electric_scooter", "bike_id": "615124bd5f46a5ac015f9997f4476684"}, {"lon": -77.03214683333333, "lat": 38.90896016666667, "name": "61cb8ba69a690edbc58ae3137119951d", "fusion_lat": 0.0, "fusion_lon": 0.0, "rental_uris": {"android": "https://dc.lft.to/lastmile_qr_scan", "ios": "https://dc.lft.to/lastmile_qr_scan"}, "is_reserved": 0, "is_disabled": 0, "type": "electric_scooter", "bike_id": "61cb8ba69a690edbc58ae3137119951d"}, {"lon": -76.995338, "lat": 38.90028733333333, "name": "7fcc68d33ec683010be80189852d0035", "fusion_lat": 0.0, "fusion_lon": 0.0, "rental_uris": {"android": "https://dc.lft.to/lastmile_qr_scan", "ios": "https://dc.lft.to/lastmile_qr_scan"}, "is_reserved": 0, "is_disabled": 0, "type": "electric_scooter", "bike_id": "7fcc68d33ec683010be80189852d0035"}, {"lon": -77.02537216666667, "lat": 38.92071466666667, "name": "aaabc33bd7aa2e31e437eac5201199fe", "fusion_lat": 0.0, "fusion_lon": 0.0, "rental_uris": {"android": "https://dc.lft.to/lastmile_qr_scan", "ios": "https://dc.lft.to/lastmile_qr_scan"}, "is_reserved": 0, "is_disabled": 0, "type": "electric_scooter", "bike_id": "aaabc33bd7aa2e31e437eac5201199fe"}, {"lon": -77.0434085, "lat": 38.90334466666667, "name": "4d5a67bfc1c7334240939e1e50fa388d", "fusion_lat": 0.0, "fusion_lon": 0.0, "rental_uris": {"android": "https://dc.lft.to/lastmile_qr_scan", "ios": "https://dc.lft.to/lastmile_qr_scan"}, "is_reserved": 0, "is_disabled": 0, "type": "electric_scooter", "bike_id": "4d5a67bfc1c7334240939e1e50fa388d"}, {"lon": -76.99178583333334, "lat": 38.9050495, "name": "afb47dd36c063d519ab22446427f1469", "fusion_lat": 0.0, "fusion_lon": 0.0, "rental_uris": {"android": "https://dc.lft.to/lastmile_qr_scan", "ios": "https://dc.lft.to/lastmile_qr_scan"}, "is_reserved": 0, "is_disabled": 0, "type": "electric_scooter", "bike_id": "afb47dd36c063d519ab22446427f1469"}, {"lon": -76.99022066666667, "lat": 38.85870716666667, "name": "6e7fce1a82541b0e96b777658899be6e", "fusion_lat": 0.0, "fusion_lon": 0.0, "rental_uris": {"android": "https://dc.lft.to/lastmile_qr_scan", "ios": "https://dc.lft.to/lastmile_qr_scan"}, "is_reserved": 0, "is_disabled": 0, "type": "electric_scooter", "bike_id": "6e7fce1a82541b0e96b777658899be6e"}, {"lon": -77.03770616666667, "lat": 38.90356516666667, "name": "9b8333b1fc018f44b68f3adbcd1b4931", "fusion_lat": 0.0, "fusion_lon": 0.0, "rental_uris": {"android": "https://dc.lft.to/lastmile_qr_scan", "ios": "https://dc.lft.to/lastmile_qr_scan"}, "is_reserved": 0, "is_disabled": 0, "type": "electric_scooter", "bike_id": "9b8333b1fc018f44b68f3adbcd1b4931"}, {"lon": -77.04303033333333, "lat": 38.91029416666667, "name": "ba2802ba3d2a7c4f2a072d5d8c0b7d52", "fusion_lat": 0.0, "fusion_lon": 0.0, "rental_uris": {"android": "https://dc.lft.to/lastmile_qr_scan", "ios": "https://dc.lft.to/lastmile_qr_scan"}, "is_reserved": 0, "is_disabled": 0, "type": "electric_scooter", "bike_id": "ba2802ba3d2a7c4f2a072d5d8c0b7d52"}, {"lon": -77.02174633333334, "lat": 38.905757666666666, "name": "440afd8c1eee0bda50f3ef1f1ec1b29c", "fusion_lat": 0.0, "fusion_lon": 0.0, "rental_uris": {"android": "https://dc.lft.to/lastmile_qr_scan", "ios": "https://dc.lft.to/lastmile_qr_scan"}, "is_reserved": 0, "is_disabled": 0, "type": "electric_scooter", "bike_id": "440afd8c1eee0bda50f3ef1f1ec1b29c"}, {"lon": -77.03456533333333, "lat": 38.9456965, "name": "78db07c075bfe0206b5a60849b9362e7", "fusion_lat": 0.0, "fusion_lon": 0.0, "rental_uris": {"android": "https://dc.lft.to/lastmile_qr_scan", "ios": "https://dc.lft.to/lastmile_qr_scan"}, "is_reserved": 0, "is_disabled": 0, "type": "electric_scooter", "bike_id": "78db07c075bfe0206b5a60849b9362e7"}, {"lon": -77.03353033333333, "lat": 38.885110166666664, "name": "4ccc7aabf2bf498736ea947274f64484", "fusion_lat": 0.0, "fusion_lon": 0.0, "rental_uris": {"android": "https://dc.lft.to/lastmile_qr_scan", "ios": "https://dc.lft.to/lastmile_qr_scan"}, "is_reserved": 0, "is_disabled": 0, "type": "electric_scooter", "bike_id": "4ccc7aabf2bf498736ea947274f64484"}, {"lon": -76.9889775, "lat": 38.86674333333333, "name": "db45e944fbde00adc2a954d665487d70", "fusion_lat": 0.0, "fusion_lon": 0.0, "rental_uris": {"android": "https://dc.lft.to/lastmile_qr_scan", "ios": "https://dc.lft.to/lastmile_qr_scan"}, "is_reserved": 0, "is_disabled": 0, "type": "electric_scooter", "bike_id": "db45e944fbde00adc2a954d665487d70"}, {"lon": -77.025358, "lat": 38.94094883333333, "name": "060167230ed12b6cb0610d18df2d1a13", "fusion_lat": 0.0, "fusion_lon": 0.0, "rental_uris": {"android": "https://dc.lft.to/lastmile_qr_scan", "ios": "https://dc.lft.to/lastmile_qr_scan"}, "is_reserved": 0, "is_disabled": 0, "type": "electric_scooter", "bike_id": "060167230ed12b6cb0610d18df2d1a13"}, {"lon": -77.02717833333334, "lat": 38.900731, "name": "747e96bfc0fbd23509bf295d025cf2e3", "fusion_lat": 0.0, "fusion_lon": 0.0, "rental_uris": {"android": "https://dc.lft.to/lastmile_qr_scan", "ios": "https://dc.lft.to/lastmile_qr_scan"}, "is_reserved": 0, "is_disabled": 0, "type": "electric_scooter", "bike_id": "747e96bfc0fbd23509bf295d025cf2e3"}, {"lon": -77.08541516666666, "lat": 38.856224, "name": "00bb01ef0f4449eeefe23d774486076c", "fusion_lat": 0.0, "fusion_lon": 0.0, "rental_uris": {"android": "https://dc.lft.to/lastmile_qr_scan", "ios": "https://dc.lft.to/lastmile_qr_scan"}, "is_reserved": 0, "is_disabled": 0, "type": "electric_bike", "bike_id": "00bb01ef0f4449eeefe23d774486076c"}, {"lon": -77.17849466666667, "lat": 39.0890485, "name": "4618eafd5b78dd907e59290016a4cbe8", "fusion_lat": 0.0, "fusion_lon": 0.0, "rental_uris": {"android": "https://dc.lft.to/lastmile_qr_scan", "ios": "https://dc.lft.to/lastmile_qr_scan"}, "is_reserved": 0, "is_disabled": 0, "type": "electric_bike", "bike_id": "4618eafd5b78dd907e59290016a4cbe8"}, {"lon": -76.99557283333333, "lat": 38.88592966666667, "name": "afd2c07b896d3c6a70c7af2aafdc033b", "fusion_lat": 0.0, "fusion_lon": 0.0, "rental_uris": {"android": "https://dc.lft.to/lastmile_qr_scan", "ios": "https://dc.lft.to/lastmile_qr_scan"}, "is_reserved": 0, "is_disabled": 0, "type": "electric_scooter", "bike_id": "afd2c07b896d3c6a70c7af2aafdc033b"}, {"lon": -77.026319, "lat": 38.962264166666664, "name": "aa7e1d3d0b33031121f08a786ddafac3", "fusion_lat": 0.0, "fusion_lon": 0.0, "rental_uris": {"android": "https://dc.lft.to/lastmile_qr_scan", "ios": "https://dc.lft.to/lastmile_qr_scan"}, "is_reserved": 0, "is_disabled": 0, "type": "electric_bike", "bike_id": "aa7e1d3d0b33031121f08a786ddafac3"}, {"lon": -77.0217025, "lat": 38.905710166666665, "name": "7d4660eca9f14f1e2a15a7172de5d913", "fusion_lat": 0.0, "fusion_lon": 0.0, "rental_uris": {"android": "https://dc.lft.to/lastmile_qr_scan", "ios": "https://dc.lft.to/lastmile_qr_scan"}, "is_reserved": 0, "is_disabled": 0, "type": "electric_scooter", "bike_id": "7d4660eca9f14f1e2a15a7172de5d913"}, {"lon": -77.0360605, "lat": 38.9561505, "name": "faa6db60d64bdb9ed3478167d187e5c7", "fusion_lat": 0.0, "fusion_lon": 0.0, "rental_uris": {"android": "https://dc.lft.to/lastmile_qr_scan", "ios": "https://dc.lft.to/lastmile_qr_scan"}, "is_reserved": 0, "is_disabled": 0, "type": "electric_scooter", "bike_id": "faa6db60d64bdb9ed3478167d187e5c7"}, {"lon": -77.0414725, "lat": 38.89222933333333, "name": "071d17aa0aa69f8dc4b85b19d1d18397", "fusion_lat": 0.0, "fusion_lon": 0.0, "rental_uris": {"android": "https://dc.lft.to/lastmile_qr_scan", "ios": "https://dc.lft.to/lastmile_qr_scan"}, "is_reserved": 0, "is_disabled": 0, "type": "electric_scooter", "bike_id": "071d17aa0aa69f8dc4b85b19d1d18397"}, {"lon": -77.02201383333333, "lat": 38.89756166666667, "name": "bfc3807e13f046a73c786b0c61d6b7e1", "fusion_lat": 0.0, "fusion_lon": 0.0, "rental_uris": {"android": "https://dc.lft.to/lastmile_qr_scan", "ios": "https://dc.lft.to/lastmile_qr_scan"}, "is_reserved": 0, "is_disabled": 0, "type": "electric_scooter", "bike_id": "bfc3807e13f046a73c786b0c61d6b7e1"}, {"lon": -76.987341, "lat": 38.867223333333335, "name": "a7b13b29f1e73052128ab5778b2d23a2", "fusion_lat": 0.0, "fusion_lon": 0.0, "rental_uris": {"android": "https://dc.lft.to/lastmile_qr_scan", "ios": "https://dc.lft.to/lastmile_qr_scan"}, "is_reserved": 0, "is_disabled": 0, "type": "electric_scooter", "bike_id": "a7b13b29f1e73052128ab5778b2d23a2"}, {"lon": -77.03270183333333, "lat": 38.90873416666667, "name": "1055176b4523d5a2e6d76a12aac496a0", "fusion_lat": 0.0, "fusion_lon": 0.0, "rental_uris": {"android": "https://dc.lft.to/lastmile_qr_scan", "ios": "https://dc.lft.to/lastmile_qr_scan"}, "is_reserved": 0, "is_disabled": 0, "type": "electric_scooter", "bike_id": "1055176b4523d5a2e6d76a12aac496a0"}, {"lon": -77.01843, "lat": 38.904217833333334, "name": "a10c3e3e171dc0a1dc7323e57e9315df", "fusion_lat": 0.0, "fusion_lon": 0.0, "rental_uris": {"android": "https://dc.lft.to/lastmile_qr_scan", "ios": "https://dc.lft.to/lastmile_qr_scan"}, "is_reserved": 0, "is_disabled": 0, "type": "electric_scooter", "bike_id": "a10c3e3e171dc0a1dc7323e57e9315df"}, {"lon": -76.9993775, "lat": 38.89621183333333, "name": "96f6f9da33369295aa36b2e74733d70b", "fusion_lat": 0.0, "fusion_lon": 0.0, "rental_uris": {"android": "https://dc.lft.to/lastmile_qr_scan", "ios": "https://dc.lft.to/lastmile_qr_scan"}, "is_reserved": 0, "is_disabled": 0, "type": "electric_scooter", "bike_id": "96f6f9da33369295aa36b2e74733d70b"}, {"lon": -77.035472, "lat": 38.92326333333333, "name": "4334995171624bc1ed8265745930fac1", "fusion_lat": 0.0, "fusion_lon": 0.0, "rental_uris": {"android": "https://dc.lft.to/lastmile_qr_scan", "ios": "https://dc.lft.to/lastmile_qr_scan"}, "is_reserved": 0, "is_disabled": 0, "type": "electric_scooter", "bike_id": "4334995171624bc1ed8265745930fac1"}, {"lon": -77.02974133333333, "lat": 38.92365083333333, "name": "9f8773f4a3c09056d1fd585eb1b52baf", "fusion_lat": 0.0, "fusion_lon": 0.0, "rental_uris": {"android": "https://dc.lft.to/lastmile_qr_scan", "ios": "https://dc.lft.to/lastmile_qr_scan"}, "is_reserved": 0, "is_disabled": 0, "type": "electric_scooter", "bike_id": "9f8773f4a3c09056d1fd585eb1b52baf"}, {"lon": -77.02973866666666, "lat": 38.923661833333334, "name": "dcb75f113e7b2563592af131d4c915fc", "fusion_lat": 0.0, "fusion_lon": 0.0, "rental_uris": {"android": "https://dc.lft.to/lastmile_qr_scan", "ios": "https://dc.lft.to/lastmile_qr_scan"}, "is_reserved": 0, "is_disabled": 0, "type": "electric_scooter", "bike_id": "dcb75f113e7b2563592af131d4c915fc"}, {"lon": -77.0326815, "lat": 38.9022345, "name": "8a57a17877b024e05248ab4e87216c5d", "fusion_lat": 0.0, "fusion_lon": 0.0, "rental_uris": {"android": "https://dc.lft.to/lastmile_qr_scan", "ios": "https://dc.lft.to/lastmile_qr_scan"}, "is_reserved": 0, "is_disabled": 0, "type": "electric_scooter", "bike_id": "8a57a17877b024e05248ab4e87216c5d"}, {"lon": -77.02894883333333, "lat": 38.958421, "name": "3afb5c602910a0357dd9e1f7e139d9f5", "fusion_lat": 0.0, "fusion_lon": 0.0, "rental_uris": {"android": "https://dc.lft.to/lastmile_qr_scan", "ios": "https://dc.lft.to/lastmile_qr_scan"}, "is_reserved": 0, "is_disabled": 0, "type": "electric_scooter", "bike_id": "3afb5c602910a0357dd9e1f7e139d9f5"}, {"lon": -77.01986033333333, "lat": 38.899570833333335, "name": "36dfbac30c65a7f310a51fa0bb3285c4", "fusion_lat": 0.0, "fusion_lon": 0.0, "rental_uris": {"android": "https://dc.lft.to/lastmile_qr_scan", "ios": "https://dc.lft.to/lastmile_qr_scan"}, "is_reserved": 0, "is_disabled": 0, "type": "electric_scooter", "bike_id": "36dfbac30c65a7f310a51fa0bb3285c4"}, {"lon": -76.87826916666667, "lat": 38.992287166666664, "name": "41c6d55fa987bf798140423cef648279", "fusion_lat": 0.0, "fusion_lon": 0.0, "rental_uris": {"android": "https://dc.lft.to/lastmile_qr_scan", "ios": "https://dc.lft.to/lastmile_qr_scan"}, "is_reserved": 0, "is_disabled": 0, "type": "electric_bike", "bike_id": "41c6d55fa987bf798140423cef648279"}, {"lon": -76.982308, "lat": 38.92507233333333, "name": "4263ba80f63d307d8a1b10dc994ea7ec", "fusion_lat": 0.0, "fusion_lon": 0.0, "rental_uris": {"android": "https://dc.lft.to/lastmile_qr_scan", "ios": "https://dc.lft.to/lastmile_qr_scan"}, "is_reserved": 0, "is_disabled": 0, "type": "electric_bike", "bike_id": "4263ba80f63d307d8a1b10dc994ea7ec"}, {"lon": -77.0552235, "lat": 38.89936216666667, "name": "639dc81d242b6e4dc9cd87751e6d7d40", "fusion_lat": 0.0, "fusion_lon": 0.0, "rental_uris": {"android": "https://dc.lft.to/lastmile_qr_scan", "ios": "https://dc.lft.to/lastmile_qr_scan"}, "is_reserved": 0, "is_disabled": 0, "type": "electric_scooter", "bike_id": "639dc81d242b6e4dc9cd87751e6d7d40"}, {"lon": -77.0378775, "lat": 38.9263015, "name": "6763effd4a5925d8ce32729ec6affe34", "fusion_lat": 0.0, "fusion_lon": 0.0, "rental_uris": {"android": "https://dc.lft.to/lastmile_qr_scan", "ios": "https://dc.lft.to/lastmile_qr_scan"}, "is_reserved": 0, "is_disabled": 0, "type": "electric_scooter", "bike_id": "6763effd4a5925d8ce32729ec6affe34"}, {"lon": -76.94875216666667, "lat": 38.88959933333334, "name": "ef930fae5733b61fcee1d8b685990d30", "fusion_lat": 0.0, "fusion_lon": 0.0, "rental_uris": {"android": "https://dc.lft.to/lastmile_qr_scan", "ios": "https://dc.lft.to/lastmile_qr_scan"}, "is_reserved": 0, "is_disabled": 0, "type": "electric_bike", "bike_id": "ef930fae5733b61fcee1d8b685990d30"}, {"lon": -76.9817475, "lat": 38.90041433333333, "name": "0e26c107bbc123d5e854750efc2c5c00", "fusion_lat": 0.0, "fusion_lon": 0.0, "rental_uris": {"android": "https://dc.lft.to/lastmile_qr_scan", "ios": "https://dc.lft.to/lastmile_qr_scan"}, "is_reserved": 0, "is_disabled": 0, "type": "electric_scooter", "bike_id": "0e26c107bbc123d5e854750efc2c5c00"}, {"lon": -77.10722583333333, "lat": 38.855544333333334, "name": "165614e720791a08a91046260400ea62", "fusion_lat": 0.0, "fusion_lon": 0.0, "rental_uris": {"android": "https://dc.lft.to/lastmile_qr_scan", "ios": "https://dc.lft.to/lastmile_qr_scan"}, "is_reserved": 0, "is_disabled": 0, "type": "electric_bike", "bike_id": "165614e720791a08a91046260400ea62"}, {"lon": -76.9877855, "lat": 38.9002795, "name": "fd59821fc8013a91673bf5c8a7f9d5cf", "fusion_lat": 0.0, "fusion_lon": 0.0, "rental_uris": {"android": "https://dc.lft.to/lastmile_qr_scan", "ios": "https://dc.lft.to/lastmile_qr_scan"}, "is_reserved": 0, "is_disabled": 0, "type": "electric_scooter", "bike_id": "fd59821fc8013a91673bf5c8a7f9d5cf"}, {"lon": -76.97745683333333, "lat": 38.900103, "name": "d69f869fa1ac9c7e4615501577334fde", "fusion_lat": 0.0, "fusion_lon": 0.0, "rental_uris": {"android": "https://dc.lft.to/lastmile_qr_scan", "ios": "https://dc.lft.to/lastmile_qr_scan"}, "is_reserved": 0, "is_disabled": 0, "type": "electric_scooter", "bike_id": "d69f869fa1ac9c7e4615501577334fde"}, {"lon": -77.00583633333333, "lat": 38.90561566666667, "name": "7d6ab2a12c2ba6ec88f6141e101764d6", "fusion_lat": 0.0, "fusion_lon": 0.0, "rental_uris": {"android": "https://dc.lft.to/lastmile_qr_scan", "ios": "https://dc.lft.to/lastmile_qr_scan"}, "is_reserved": 0, "is_disabled": 0, "type": "electric_scooter", "bike_id": "7d6ab2a12c2ba6ec88f6141e101764d6"}, {"lon": -77.01769816666666, "lat": 38.9025795, "name": "a3dc7a7151edcd6090f469ad8f2c53cd", "fusion_lat": 0.0, "fusion_lon": 0.0, "rental_uris": {"android": "https://dc.lft.to/lastmile_qr_scan", "ios": "https://dc.lft.to/lastmile_qr_scan"}, "is_reserved": 0, "is_disabled": 0, "type": "electric_scooter", "bike_id": "a3dc7a7151edcd6090f469ad8f2c53cd"}, {"lon": -77.05141916666666, "lat": 38.905299, "name": "65f0e57bb3e62f444a8e71e75a937acf", "fusion_lat": 0.0, "fusion_lon": 0.0, "rental_uris": {"android": "https://dc.lft.to/lastmile_qr_scan", "ios": "https://dc.lft.to/lastmile_qr_scan"}, "is_reserved": 0, "is_disabled": 0, "type": "electric_scooter", "bike_id": "65f0e57bb3e62f444a8e71e75a937acf"}, {"lon": -77.02685933333333, "lat": 38.8922285, "name": "d53b4db7d6dd96d1c262bbe9676455a2", "fusion_lat": 0.0, "fusion_lon": 0.0, "rental_uris": {"android": "https://dc.lft.to/lastmile_qr_scan", "ios": "https://dc.lft.to/lastmile_qr_scan"}, "is_reserved": 0, "is_disabled": 0, "type": "electric_scooter", "bike_id": "d53b4db7d6dd96d1c262bbe9676455a2"}, {"lon": -77.05237383333333, "lat": 38.925165666666665, "name": "a6639d25b1292e2d7100216204de9b9b", "fusion_lat": 0.0, "fusion_lon": 0.0, "rental_uris": {"android": "https://dc.lft.to/lastmile_qr_scan", "ios": "https://dc.lft.to/lastmile_qr_scan"}, "is_reserved": 0, "is_disabled": 0, "type": "electric_scooter", "bike_id": "a6639d25b1292e2d7100216204de9b9b"}, {"lon": -76.94652783333333, "lat": 38.898291666666665, "name": "bff82c96f2ebb20d13e6f38feff55670", "fusion_lat": 0.0, "fusion_lon": 0.0, "rental_uris": {"android": "https://dc.lft.to/lastmile_qr_scan", "ios": "https://dc.lft.to/lastmile_qr_scan"}, "is_reserved": 0, "is_disabled": 0, "type": "electric_scooter", "bike_id": "bff82c96f2ebb20d13e6f38feff55670"}, {"lon": -77.022103, "lat": 38.887663833333335, "name": "d7df72b466f3d9cdecd4a76598e2bcc8", "fusion_lat": 0.0, "fusion_lon": 0.0, "rental_uris": {"android": "https://dc.lft.to/lastmile_qr_scan", "ios": "https://dc.lft.to/lastmile_qr_scan"}, "is_reserved": 0, "is_disabled": 0, "type": "electric_scooter", "bike_id": "d7df72b466f3d9cdecd4a76598e2bcc8"}, {"lon": -76.94901866666666, "lat": 38.89517933333333, "name": "ea67d4938620e0dc38ca2876f4b062f3", "fusion_lat": 0.0, "fusion_lon": 0.0, "rental_uris": {"android": "https://dc.lft.to/lastmile_qr_scan", "ios": "https://dc.lft.to/lastmile_qr_scan"}, "is_reserved": 0, "is_disabled": 0, "type": "electric_scooter", "bike_id": "ea67d4938620e0dc38ca2876f4b062f3"}, {"lon": -77.02192966666667, "lat": 38.91882733333333, "name": "c7d063af68520ed59aabbb8616c94192", "fusion_lat": 0.0, "fusion_lon": 0.0, "rental_uris": {"android": "https://dc.lft.to/lastmile_qr_scan", "ios": "https://dc.lft.to/lastmile_qr_scan"}, "is_reserved": 0, "is_disabled": 0, "type": "electric_scooter", "bike_id": "c7d063af68520ed59aabbb8616c94192"}, {"lon": -77.04332733333334, "lat": 38.899653666666666, "name": "211488025a8c649b6b94ddff47672fdb", "fusion_lat": 0.0, "fusion_lon": 0.0, "rental_uris": {"android": "https://dc.lft.to/lastmile_qr_scan", "ios": "https://dc.lft.to/lastmile_qr_scan"}, "is_reserved": 0, "is_disabled": 0, "type": "electric_scooter", "bike_id": "211488025a8c649b6b94ddff47672fdb"}, {"lon": -77.07793566666666, "lat": 38.8451695, "name": "87b89e89bf0e65f500990f4dc0f0cc9c", "fusion_lat": 0.0, "fusion_lon": 0.0, "rental_uris": {"android": "https://dc.lft.to/lastmile_qr_scan", "ios": "https://dc.lft.to/lastmile_qr_scan"}, "is_reserved": 0, "is_disabled": 0, "type": "electric_bike", "bike_id": "87b89e89bf0e65f500990f4dc0f0cc9c"}, {"lon": -77.04084183333333, "lat": 38.920152333333334, "name": "cbce0bbd15b28dea3f0c9f2c70105cae", "fusion_lat": 0.0, "fusion_lon": 0.0, "rental_uris": {"android": "https://dc.lft.to/lastmile_qr_scan", "ios": "https://dc.lft.to/lastmile_qr_scan"}, "is_reserved": 0, "is_disabled": 0, "type": "electric_scooter", "bike_id": "cbce0bbd15b28dea3f0c9f2c70105cae"}, {"lon": -77.04639933333333, "lat": 38.892252666666664, "name": "bc79e2bab64d827d2896902d4622aec8", "fusion_lat": 0.0, "fusion_lon": 0.0, "rental_uris": {"android": "https://dc.lft.to/lastmile_qr_scan", "ios": "https://dc.lft.to/lastmile_qr_scan"}, "is_reserved": 0, "is_disabled": 0, "type": "electric_scooter", "bike_id": "bc79e2bab64d827d2896902d4622aec8"}, {"lon": -77.00207066666667, "lat": 38.822645333333334, "name": "57a84b6080469962f48385344051d365", "fusion_lat": 0.0, "fusion_lon": 0.0, "rental_uris": {"android": "https://dc.lft.to/lastmile_qr_scan", "ios": "https://dc.lft.to/lastmile_qr_scan"}, "is_reserved": 0, "is_disabled": 0, "type": "electric_scooter", "bike_id": "57a84b6080469962f48385344051d365"}, {"lon": -77.024872, "lat": 38.892252666666664, "name": "721977f1908c1dea19c8563d6894b396", "fusion_lat": 0.0, "fusion_lon": 0.0, "rental_uris": {"android": "https://dc.lft.to/lastmile_qr_scan", "ios": "https://dc.lft.to/lastmile_qr_scan"}, "is_reserved": 0, "is_disabled": 0, "type": "electric_scooter", "bike_id": "721977f1908c1dea19c8563d6894b396"}, {"lon": -76.98361833333334, "lat": 38.864737, "name": "40df892b1608e08307955acb98b39666", "fusion_lat": 0.0, "fusion_lon": 0.0, "rental_uris": {"android": "https://dc.lft.to/lastmile_qr_scan", "ios": "https://dc.lft.to/lastmile_qr_scan"}, "is_reserved": 0, "is_disabled": 0, "type": "electric_scooter", "bike_id": "40df892b1608e08307955acb98b39666"}, {"lon": -77.03193816666666, "lat": 38.91283983333334, "name": "4ba0df1ac2142277090297b8b030a11c", "fusion_lat": 0.0, "fusion_lon": 0.0, "rental_uris": {"android": "https://dc.lft.to/lastmile_qr_scan", "ios": "https://dc.lft.to/lastmile_qr_scan"}, "is_reserved": 0, "is_disabled": 0, "type": "electric_scooter", "bike_id": "4ba0df1ac2142277090297b8b030a11c"}, {"lon": -77.01151, "lat": 38.956713, "name": "904f8233812079579269955338a99186", "fusion_lat": 0.0, "fusion_lon": 0.0, "rental_uris": {"android": "https://dc.lft.to/lastmile_qr_scan", "ios": "https://dc.lft.to/lastmile_qr_scan"}, "is_reserved": 0, "is_disabled": 0, "type": "electric_scooter", "bike_id": "904f8233812079579269955338a99186"}, {"lon": -77.01965533333333, "lat": 38.88373583333333, "name": "a0e7d3947155727e8fd8ebb424d3487e", "fusion_lat": 0.0, "fusion_lon": 0.0, "rental_uris": {"android": "https://dc.lft.to/lastmile_qr_scan", "ios": "https://dc.lft.to/lastmile_qr_scan"}, "is_reserved": 0, "is_disabled": 0, "type": "electric_scooter", "bike_id": "a0e7d3947155727e8fd8ebb424d3487e"}, {"lon": -77.03475083333333, "lat": 38.9286865, "name": "3cca43cd44e6cedcce563096a3e58e36", "fusion_lat": 0.0, "fusion_lon": 0.0, "rental_uris": {"android": "https://dc.lft.to/lastmile_qr_scan", "ios": "https://dc.lft.to/lastmile_qr_scan"}, "is_reserved": 0, "is_disabled": 0, "type": "electric_scooter", "bike_id": "3cca43cd44e6cedcce563096a3e58e36"}, {"lon": -76.98756066666667, "lat": 38.84500883333333, "name": "58dbc013b707aa5d89068379f7c88e04", "fusion_lat": 0.0, "fusion_lon": 0.0, "rental_uris": {"android": "https://dc.lft.to/lastmile_qr_scan", "ios": "https://dc.lft.to/lastmile_qr_scan"}, "is_reserved": 0, "is_disabled": 0, "type": "electric_scooter", "bike_id": "58dbc013b707aa5d89068379f7c88e04"}, {"lon": -77.0144265, "lat": 38.8777815, "name": "6024d6ea573f00a22367fa245775ab37", "fusion_lat": 0.0, "fusion_lon": 0.0, "rental_uris": {"android": "https://dc.lft.to/lastmile_qr_scan", "ios": "https://dc.lft.to/lastmile_qr_scan"}, "is_reserved": 0, "is_disabled": 0, "type": "electric_scooter", "bike_id": "6024d6ea573f00a22367fa245775ab37"}, {"lon": -76.9485435, "lat": 38.88301633333333, "name": "507d726b465f41b94d5445ef220ddad2", "fusion_lat": 0.0, "fusion_lon": 0.0, "rental_uris": {"android": "https://dc.lft.to/lastmile_qr_scan", "ios": "https://dc.lft.to/lastmile_qr_scan"}, "is_reserved": 0, "is_disabled": 0, "type": "electric_scooter", "bike_id": "507d726b465f41b94d5445ef220ddad2"}, {"lon": -77.13596516666667, "lat": 39.053468, "name": "8a4c053fc4ca373fcde07680be54b556", "fusion_lat": 0.0, "fusion_lon": 0.0, "rental_uris": {"android": "https://dc.lft.to/lastmile_qr_scan", "ios": "https://dc.lft.to/lastmile_qr_scan"}, "is_reserved": 0, "is_disabled": 0, "type": "electric_bike", "bike_id": "8a4c053fc4ca373fcde07680be54b556"}, {"lon": -77.03659216666667, "lat": 38.91172866666667, "name": "f845e95f5a5cff092beee9a395803c0a", "fusion_lat": 0.0, "fusion_lon": 0.0, "rental_uris": {"android": "https://dc.lft.to/lastmile_qr_scan", "ios": "https://dc.lft.to/lastmile_qr_scan"}, "is_reserved": 0, "is_disabled": 0, "type": "electric_scooter", "bike_id": "f845e95f5a5cff092beee9a395803c0a"}, {"lon": -77.0363725, "lat": 38.9290985, "name": "218d5c30a07c1fd6d4880cd73915cf75", "fusion_lat": 0.0, "fusion_lon": 0.0, "rental_uris": {"android": "https://dc.lft.to/lastmile_qr_scan", "ios": "https://dc.lft.to/lastmile_qr_scan"}, "is_reserved": 0, "is_disabled": 0, "type": "electric_scooter", "bike_id": "218d5c30a07c1fd6d4880cd73915cf75"}, {"lon": -77.0500565, "lat": 38.892281, "name": "e131f60e838580b328c511f33babd6e8", "fusion_lat": 0.0, "fusion_lon": 0.0, "rental_uris": {"android": "https://dc.lft.to/lastmile_qr_scan", "ios": "https://dc.lft.to/lastmile_qr_scan"}, "is_reserved": 0, "is_disabled": 0, "type": "electric_scooter", "bike_id": "e131f60e838580b328c511f33babd6e8"}, {"lon": -77.028834, "lat": 38.90007266666667, "name": "961afebd42e6da30c5efbeb955b6483f", "fusion_lat": 0.0, "fusion_lon": 0.0, "rental_uris": {"android": "https://dc.lft.to/lastmile_qr_scan", "ios": "https://dc.lft.to/lastmile_qr_scan"}, "is_reserved": 0, "is_disabled": 0, "type": "electric_scooter", "bike_id": "961afebd42e6da30c5efbeb955b6483f"}, {"lon": -77.02626916666667, "lat": 38.89219516666667, "name": "bd2423956f6cfcbff41762aca7abff0b", "fusion_lat": 0.0, "fusion_lon": 0.0, "rental_uris": {"android": "https://dc.lft.to/lastmile_qr_scan", "ios": "https://dc.lft.to/lastmile_qr_scan"}, "is_reserved": 0, "is_disabled": 0, "type": "electric_scooter", "bike_id": "bd2423956f6cfcbff41762aca7abff0b"}, {"lon": -77.11051133333333, "lat": 38.87012883333333, "name": "1704afb28b6bcdfd23ea6a138e401328", "fusion_lat": 0.0, "fusion_lon": 0.0, "rental_uris": {"android": "https://dc.lft.to/lastmile_qr_scan", "ios": "https://dc.lft.to/lastmile_qr_scan"}, "is_reserved": 0, "is_disabled": 0, "type": "electric_bike", "bike_id": "1704afb28b6bcdfd23ea6a138e401328"}, {"lon": -76.9960075, "lat": 38.88862533333333, "name": "c5a7d214d95e7404450a35da366dc3bb", "fusion_lat": 0.0, "fusion_lon": 0.0, "rental_uris": {"android": "https://dc.lft.to/lastmile_qr_scan", "ios": "https://dc.lft.to/lastmile_qr_scan"}, "is_reserved": 0, "is_disabled": 0, "type": "electric_scooter", "bike_id": "c5a7d214d95e7404450a35da366dc3bb"}, {"lon": -77.01202033333334, "lat": 38.9000565, "name": "05ea3b13973b138bee78cc78ee9d691e", "fusion_lat": 0.0, "fusion_lon": 0.0, "rental_uris": {"android": "https://dc.lft.to/lastmile_qr_scan", "ios": "https://dc.lft.to/lastmile_qr_scan"}, "is_reserved": 0, "is_disabled": 0, "type": "electric_scooter", "bike_id": "05ea3b13973b138bee78cc78ee9d691e"}, {"lon": -77.02691933333334, "lat": 38.90693016666667, "name": "8dc219ab90149adb73307111c1eb36db", "fusion_lat": 0.0, "fusion_lon": 0.0, "rental_uris": {"android": "https://dc.lft.to/lastmile_qr_scan", "ios": "https://dc.lft.to/lastmile_qr_scan"}, "is_reserved": 0, "is_disabled": 0, "type": "electric_scooter", "bike_id": "8dc219ab90149adb73307111c1eb36db"}, {"lon": -77.01354883333333, "lat": 38.900627166666666, "name": "323e1979f3d0a51745bf6c7dc4e70bb6", "fusion_lat": 0.0, "fusion_lon": 0.0, "rental_uris": {"android": "https://dc.lft.to/lastmile_qr_scan", "ios": "https://dc.lft.to/lastmile_qr_scan"}, "is_reserved": 0, "is_disabled": 0, "type": "electric_bike", "bike_id": "323e1979f3d0a51745bf6c7dc4e70bb6"}, {"lon": -77.03095083333334, "lat": 38.90028083333333, "name": "dce37c02d4cd960d9a14749bd5ded59c", "fusion_lat": 0.0, "fusion_lon": 0.0, "rental_uris": {"android": "https://dc.lft.to/lastmile_qr_scan", "ios": "https://dc.lft.to/lastmile_qr_scan"}, "is_reserved": 0, "is_disabled": 0, "type": "electric_scooter", "bike_id": "dce37c02d4cd960d9a14749bd5ded59c"}, {"lon": -77.04506033333334, "lat": 38.907801666666664, "name": "54bac325fcf857a616d8613a0a64a6e3", "fusion_lat": 0.0, "fusion_lon": 0.0, "rental_uris": {"android": "https://dc.lft.to/lastmile_qr_scan", "ios": "https://dc.lft.to/lastmile_qr_scan"}, "is_reserved": 0, "is_disabled": 0, "type": "electric_scooter", "bike_id": "54bac325fcf857a616d8613a0a64a6e3"}, {"lon": -77.10507216666667, "lat": 38.92855933333333, "name": "d4e8b47efe20fa96443c47016def20ff", "fusion_lat": 0.0, "fusion_lon": 0.0, "rental_uris": {"android": "https://dc.lft.to/lastmile_qr_scan", "ios": "https://dc.lft.to/lastmile_qr_scan"}, "is_reserved": 0, "is_disabled": 0, "type": "electric_bike", "bike_id": "d4e8b47efe20fa96443c47016def20ff"}, {"lon": -77.04338333333334, "lat": 38.9073815, "name": "36e0528370dc334fc95ec6d7d5e76d64", "fusion_lat": 0.0, "fusion_lon": 0.0, "rental_uris": {"android": "https://dc.lft.to/lastmile_qr_scan", "ios": "https://dc.lft.to/lastmile_qr_scan"}, "is_reserved": 0, "is_disabled": 0, "type": "electric_scooter", "bike_id": "36e0528370dc334fc95ec6d7d5e76d64"}, {"lon": -77.02759183333333, "lat": 38.942896833333336, "name": "255c02ef97a8b76048cf49fc046442a0", "fusion_lat": 0.0, "fusion_lon": 0.0, "rental_uris": {"android": "https://dc.lft.to/lastmile_qr_scan", "ios": "https://dc.lft.to/lastmile_qr_scan"}, "is_reserved": 0, "is_disabled": 0, "type": "electric_scooter", "bike_id": "255c02ef97a8b76048cf49fc046442a0"}, {"lon": -76.98413666666667, "lat": 38.859741666666665, "name": "be8b792bb2303c360b0a749b842d5210", "fusion_lat": 0.0, "fusion_lon": 0.0, "rental_uris": {"android": "https://dc.lft.to/lastmile_qr_scan", "ios": "https://dc.lft.to/lastmile_qr_scan"}, "is_reserved": 0, "is_disabled": 0, "type": "electric_scooter", "bike_id": "be8b792bb2303c360b0a749b842d5210"}, {"lon": -77.089423, "lat": 38.841031, "name": "b47ada75353dfba35c7adc8a14405c0d", "fusion_lat": 0.0, "fusion_lon": 0.0, "rental_uris": {"android": "https://dc.lft.to/lastmile_qr_scan", "ios": "https://dc.lft.to/lastmile_qr_scan"}, "is_reserved": 0, "is_disabled": 0, "type": "electric_bike", "bike_id": "b47ada75353dfba35c7adc8a14405c0d"}, {"lon": -77.055303, "lat": 38.899270666666666, "name": "848bcf49af39806c32b8674d67cfcd95", "fusion_lat": 0.0, "fusion_lon": 0.0, "rental_uris": {"android": "https://dc.lft.to/lastmile_qr_scan", "ios": "https://dc.lft.to/lastmile_qr_scan"}, "is_reserved": 0, "is_disabled": 0, "type": "electric_scooter", "bike_id": "848bcf49af39806c32b8674d67cfcd95"}, {"lon": -77.02212016666667, "lat": 38.88768433333333, "name": "b501047858cf470c86a3bea555a6c184", "fusion_lat": 0.0, "fusion_lon": 0.0, "rental_uris": {"android": "https://dc.lft.to/lastmile_qr_scan", "ios": "https://dc.lft.to/lastmile_qr_scan"}, "is_reserved": 0, "is_disabled": 0, "type": "electric_scooter", "bike_id": "b501047858cf470c86a3bea555a6c184"}, {"lon": -77.01861966666667, "lat": 38.914924, "name": "1053846f870177524588e436c6dad236", "fusion_lat": 0.0, "fusion_lon": 0.0, "rental_uris": {"android": "https://dc.lft.to/lastmile_qr_scan", "ios": "https://dc.lft.to/lastmile_qr_scan"}, "is_reserved": 0, "is_disabled": 0, "type": "electric_scooter", "bike_id": "1053846f870177524588e436c6dad236"}, {"lon": -77.00337566666667, "lat": 38.89357016666666, "name": "6617e240ec63374c9fd6e9a086c7d6da", "fusion_lat": 0.0, "fusion_lon": 0.0, "rental_uris": {"android": "https://dc.lft.to/lastmile_qr_scan", "ios": "https://dc.lft.to/lastmile_qr_scan"}, "is_reserved": 0, "is_disabled": 0, "type": "electric_scooter", "bike_id": "6617e240ec63374c9fd6e9a086c7d6da"}, {"lon": -77.02401733333333, "lat": 38.934833166666664, "name": "e0eb16d9b7168ab36b16b41acb970cb4", "fusion_lat": 0.0, "fusion_lon": 0.0, "rental_uris": {"android": "https://dc.lft.to/lastmile_qr_scan", "ios": "https://dc.lft.to/lastmile_qr_scan"}, "is_reserved": 0, "is_disabled": 0, "type": "electric_scooter", "bike_id": "e0eb16d9b7168ab36b16b41acb970cb4"}, {"lon": -76.93433466666667, "lat": 38.89967033333333, "name": "aea5932f2000ebb4a7b979edd208b85a", "fusion_lat": 0.0, "fusion_lon": 0.0, "rental_uris": {"android": "https://dc.lft.to/lastmile_qr_scan", "ios": "https://dc.lft.to/lastmile_qr_scan"}, "is_reserved": 0, "is_disabled": 0, "type": "electric_scooter", "bike_id": "aea5932f2000ebb4a7b979edd208b85a"}, {"lon": -76.9926325, "lat": 38.89983016666667, "name": "70609dd3db2f9c362fd217a5db19fb88", "fusion_lat": 0.0, "fusion_lon": 0.0, "rental_uris": {"android": "https://dc.lft.to/lastmile_qr_scan", "ios": "https://dc.lft.to/lastmile_qr_scan"}, "is_reserved": 0, "is_disabled": 0, "type": "electric_scooter", "bike_id": "70609dd3db2f9c362fd217a5db19fb88"}, {"lon": -77.02311266666666, "lat": 38.917909, "name": "8e32e6489d4333196959b5fef7cf5b94", "fusion_lat": 0.0, "fusion_lon": 0.0, "rental_uris": {"android": "https://dc.lft.to/lastmile_qr_scan", "ios": "https://dc.lft.to/lastmile_qr_scan"}, "is_reserved": 0, "is_disabled": 0, "type": "electric_scooter", "bike_id": "8e32e6489d4333196959b5fef7cf5b94"}, {"lon": -76.99001, "lat": 38.86506416666667, "name": "1c756b35030dd3a41df9c9727d387a1a", "fusion_lat": 0.0, "fusion_lon": 0.0, "rental_uris": {"android": "https://dc.lft.to/lastmile_qr_scan", "ios": "https://dc.lft.to/lastmile_qr_scan"}, "is_reserved": 0, "is_disabled": 0, "type": "electric_scooter", "bike_id": "1c756b35030dd3a41df9c9727d387a1a"}, {"lon": -77.05141383333333, "lat": 38.9081895, "name": "b8cb8d23509f4e44ebe7d21330826456", "fusion_lat": 0.0, "fusion_lon": 0.0, "rental_uris": {"android": "https://dc.lft.to/lastmile_qr_scan", "ios": "https://dc.lft.to/lastmile_qr_scan"}, "is_reserved": 0, "is_disabled": 0, "type": "electric_scooter", "bike_id": "b8cb8d23509f4e44ebe7d21330826456"}, {"lon": -76.994231, "lat": 38.90136833333333, "name": "37cf0bf046ab11f53b53da577d2ccbb9", "fusion_lat": 0.0, "fusion_lon": 0.0, "rental_uris": {"android": "https://dc.lft.to/lastmile_qr_scan", "ios": "https://dc.lft.to/lastmile_qr_scan"}, "is_reserved": 0, "is_disabled": 0, "type": "electric_scooter", "bike_id": "37cf0bf046ab11f53b53da577d2ccbb9"}, {"lon": -77.04830616666666, "lat": 38.918439166666666, "name": "e47b70453cf771a8f44a75ed74c3b663", "fusion_lat": 0.0, "fusion_lon": 0.0, "rental_uris": {"android": "https://dc.lft.to/lastmile_qr_scan", "ios": "https://dc.lft.to/lastmile_qr_scan"}, "is_reserved": 0, "is_disabled": 0, "type": "electric_scooter", "bike_id": "e47b70453cf771a8f44a75ed74c3b663"}, {"lon": -77.0418295, "lat": 38.920220666666665, "name": "8f91b0af7615927ffa03335268072d6f", "fusion_lat": 0.0, "fusion_lon": 0.0, "rental_uris": {"android": "https://dc.lft.to/lastmile_qr_scan", "ios": "https://dc.lft.to/lastmile_qr_scan"}, "is_reserved": 0, "is_disabled": 0, "type": "electric_scooter", "bike_id": "8f91b0af7615927ffa03335268072d6f"}, {"lon": -76.99460016666667, "lat": 38.851621, "name": "1a58e06b8480f753b237d0530a95cfc2", "fusion_lat": 0.0, "fusion_lon": 0.0, "rental_uris": {"android": "https://dc.lft.to/lastmile_qr_scan", "ios": "https://dc.lft.to/lastmile_qr_scan"}, "is_reserved": 0, "is_disabled": 0, "type": "electric_scooter", "bike_id": "1a58e06b8480f753b237d0530a95cfc2"}, {"lon": -77.01118266666667, "lat": 38.870876833333334, "name": "9c5d5eab1361fb93b1c19dcca3c57d67", "fusion_lat": 0.0, "fusion_lon": 0.0, "rental_uris": {"android": "https://dc.lft.to/lastmile_qr_scan", "ios": "https://dc.lft.to/lastmile_qr_scan"}, "is_reserved": 0, "is_disabled": 0, "type": "electric_scooter", "bike_id": "9c5d5eab1361fb93b1c19dcca3c57d67"}, {"lon": -77.0215135, "lat": 38.91624683333333, "name": "4ad2924494711332ca97542f37bc19cb", "fusion_lat": 0.0, "fusion_lon": 0.0, "rental_uris": {"android": "https://dc.lft.to/lastmile_qr_scan", "ios": "https://dc.lft.to/lastmile_qr_scan"}, "is_reserved": 0, "is_disabled": 0, "type": "electric_scooter", "bike_id": "4ad2924494711332ca97542f37bc19cb"}, {"lon": -76.95110483333333, "lat": 38.8879195, "name": "e92e3350217251ea926b14ffc2c071cb", "fusion_lat": 0.0, "fusion_lon": 0.0, "rental_uris": {"android": "https://dc.lft.to/lastmile_qr_scan", "ios": "https://dc.lft.to/lastmile_qr_scan"}, "is_reserved": 0, "is_disabled": 0, "type": "electric_scooter", "bike_id": "e92e3350217251ea926b14ffc2c071cb"}, {"lon": -77.0020425, "lat": 38.902420166666666, "name": "6f1cf31ec3f17614cbe37f13d5e8e578", "fusion_lat": 0.0, "fusion_lon": 0.0, "rental_uris": {"android": "https://dc.lft.to/lastmile_qr_scan", "ios": "https://dc.lft.to/lastmile_qr_scan"}, "is_reserved": 0, "is_disabled": 0, "type": "electric_scooter", "bike_id": "6f1cf31ec3f17614cbe37f13d5e8e578"}, {"lon": -77.02153783333333, "lat": 38.8922195, "name": "0eac1ec5d8ab8cdfc513986a6c4b6bed", "fusion_lat": 0.0, "fusion_lon": 0.0, "rental_uris": {"android": "https://dc.lft.to/lastmile_qr_scan", "ios": "https://dc.lft.to/lastmile_qr_scan"}, "is_reserved": 0, "is_disabled": 0, "type": "electric_scooter", "bike_id": "0eac1ec5d8ab8cdfc513986a6c4b6bed"}, {"lon": -77.08050966666667, "lat": 38.848440833333335, "name": "63fad5dc2da3bdad025a6f4d559113fa", "fusion_lat": 0.0, "fusion_lon": 0.0, "rental_uris": {"android": "https://dc.lft.to/lastmile_qr_scan", "ios": "https://dc.lft.to/lastmile_qr_scan"}, "is_reserved": 0, "is_disabled": 0, "type": "electric_bike", "bike_id": "63fad5dc2da3bdad025a6f4d559113fa"}, {"lon": -76.95678716666667, "lat": 38.94731433333333, "name": "e115b2a29f08a8a09f6b58db8cfd4e06", "fusion_lat": 0.0, "fusion_lon": 0.0, "rental_uris": {"android": "https://dc.lft.to/lastmile_qr_scan", "ios": "https://dc.lft.to/lastmile_qr_scan"}, "is_reserved": 0, "is_disabled": 0, "type": "electric_bike", "bike_id": "e115b2a29f08a8a09f6b58db8cfd4e06"}, {"lon": -77.02184216666667, "lat": 38.91439333333334, "name": "83b8940d16999a2b96aa6aab35892cc0", "fusion_lat": 0.0, "fusion_lon": 0.0, "rental_uris": {"android": "https://dc.lft.to/lastmile_qr_scan", "ios": "https://dc.lft.to/lastmile_qr_scan"}, "is_reserved": 0, "is_disabled": 0, "type": "electric_scooter", "bike_id": "83b8940d16999a2b96aa6aab35892cc0"}, {"lon": -76.995257, "lat": 38.90018416666667, "name": "b089d820ab41df6da868367c769acdb3", "fusion_lat": 0.0, "fusion_lon": 0.0, "rental_uris": {"android": "https://dc.lft.to/lastmile_qr_scan", "ios": "https://dc.lft.to/lastmile_qr_scan"}, "is_reserved": 0, "is_disabled": 0, "type": "electric_scooter", "bike_id": "b089d820ab41df6da868367c769acdb3"}, {"lon": -77.04280983333334, "lat": 38.90717633333333, "name": "5cf47d5d000ef0a9860eca488cca7933", "fusion_lat": 0.0, "fusion_lon": 0.0, "rental_uris": {"android": "https://dc.lft.to/lastmile_qr_scan", "ios": "https://dc.lft.to/lastmile_qr_scan"}, "is_reserved": 0, "is_disabled": 0, "type": "electric_scooter", "bike_id": "5cf47d5d000ef0a9860eca488cca7933"}, {"lon": -77.03326183333333, "lat": 38.90308983333333, "name": "d6f1c2efcd423f4b4bdbe056cfe0128f", "fusion_lat": 0.0, "fusion_lon": 0.0, "rental_uris": {"android": "https://dc.lft.to/lastmile_qr_scan", "ios": "https://dc.lft.to/lastmile_qr_scan"}, "is_reserved": 0, "is_disabled": 0, "type": "electric_scooter", "bike_id": "d6f1c2efcd423f4b4bdbe056cfe0128f"}, {"lon": -77.03253133333334, "lat": 38.918206, "name": "32c25de56928fdb9f26aa47df6febdbd", "fusion_lat": 0.0, "fusion_lon": 0.0, "rental_uris": {"android": "https://dc.lft.to/lastmile_qr_scan", "ios": "https://dc.lft.to/lastmile_qr_scan"}, "is_reserved": 0, "is_disabled": 0, "type": "electric_scooter", "bike_id": "32c25de56928fdb9f26aa47df6febdbd"}, {"lon": -76.93748966666666, "lat": 38.890396, "name": "9c91c2fd95af7014ed987c94af55d679", "fusion_lat": 0.0, "fusion_lon": 0.0, "rental_uris": {"android": "https://dc.lft.to/lastmile_qr_scan", "ios": "https://dc.lft.to/lastmile_qr_scan"}, "is_reserved": 0, "is_disabled": 0, "type": "electric_scooter", "bike_id": "9c91c2fd95af7014ed987c94af55d679"}, {"lon": -77.02159516666667, "lat": 38.90363383333333, "name": "51219bade99daedd118389672430d8ad", "fusion_lat": 0.0, "fusion_lon": 0.0, "rental_uris": {"android": "https://dc.lft.to/lastmile_qr_scan", "ios": "https://dc.lft.to/lastmile_qr_scan"}, "is_reserved": 0, "is_disabled": 0, "type": "electric_scooter", "bike_id": "51219bade99daedd118389672430d8ad"}, {"lon": -77.02829066666666, "lat": 38.887428666666665, "name": "f52a8c61658afbc7ed72fa74d9d60d67", "fusion_lat": 0.0, "fusion_lon": 0.0, "rental_uris": {"android": "https://dc.lft.to/lastmile_qr_scan", "ios": "https://dc.lft.to/lastmile_qr_scan"}, "is_reserved": 0, "is_disabled": 0, "type": "electric_scooter", "bike_id": "f52a8c61658afbc7ed72fa74d9d60d67"}, {"lon": -77.04544433333334, "lat": 38.89483716666667, "name": "3e85c3c31b7c9ab685db6df4436c7195", "fusion_lat": 0.0, "fusion_lon": 0.0, "rental_uris": {"android": "https://dc.lft.to/lastmile_qr_scan", "ios": "https://dc.lft.to/lastmile_qr_scan"}, "is_reserved": 0, "is_disabled": 0, "type": "electric_scooter", "bike_id": "3e85c3c31b7c9ab685db6df4436c7195"}, {"lon": -77.03196283333334, "lat": 38.9079525, "name": "df6f7935c75840ef0efd2ea0ef0a3ef4", "fusion_lat": 0.0, "fusion_lon": 0.0, "rental_uris": {"android": "https://dc.lft.to/lastmile_qr_scan", "ios": "https://dc.lft.to/lastmile_qr_scan"}, "is_reserved": 0, "is_disabled": 0, "type": "electric_scooter", "bike_id": "df6f7935c75840ef0efd2ea0ef0a3ef4"}, {"lon": -77.05005366666667, "lat": 38.8923005, "name": "e0c5f4741a0bba46a1fb7a25b36a6a42", "fusion_lat": 0.0, "fusion_lon": 0.0, "rental_uris": {"android": "https://dc.lft.to/lastmile_qr_scan", "ios": "https://dc.lft.to/lastmile_qr_scan"}, "is_reserved": 0, "is_disabled": 0, "type": "electric_scooter", "bike_id": "e0c5f4741a0bba46a1fb7a25b36a6a42"}, {"lon": -76.9476905, "lat": 38.8963715, "name": "2fa1c03990f974ba1e1d7df685cb9924", "fusion_lat": 0.0, "fusion_lon": 0.0, "rental_uris": {"android": "https://dc.lft.to/lastmile_qr_scan", "ios": "https://dc.lft.to/lastmile_qr_scan"}, "is_reserved": 0, "is_disabled": 0, "type": "electric_bike", "bike_id": "2fa1c03990f974ba1e1d7df685cb9924"}, {"lon": -76.99079866666666, "lat": 38.84287, "name": "3553e8cfe6d2addb9e27d44193c9cfba", "fusion_lat": 0.0, "fusion_lon": 0.0, "rental_uris": {"android": "https://dc.lft.to/lastmile_qr_scan", "ios": "https://dc.lft.to/lastmile_qr_scan"}, "is_reserved": 0, "is_disabled": 0, "type": "electric_scooter", "bike_id": "3553e8cfe6d2addb9e27d44193c9cfba"}, {"lon": -77.02693783333333, "lat": 38.90937233333333, "name": "1da632fcce74d67127a88964f26c892c", "fusion_lat": 0.0, "fusion_lon": 0.0, "rental_uris": {"android": "https://dc.lft.to/lastmile_qr_scan", "ios": "https://dc.lft.to/lastmile_qr_scan"}, "is_reserved": 0, "is_disabled": 0, "type": "electric_scooter", "bike_id": "1da632fcce74d67127a88964f26c892c"}, {"lon": -77.02961, "lat": 38.911299, "name": "d3c74e5f71a1509e725d0c899ae338c6", "fusion_lat": 0.0, "fusion_lon": 0.0, "rental_uris": {"android": "https://dc.lft.to/lastmile_qr_scan", "ios": "https://dc.lft.to/lastmile_qr_scan"}, "is_reserved": 0, "is_disabled": 0, "type": "electric_scooter", "bike_id": "d3c74e5f71a1509e725d0c899ae338c6"}, {"lon": -77.01903266666666, "lat": 38.939193333333336, "name": "960c034ae55f143bfc292676111de822", "fusion_lat": 0.0, "fusion_lon": 0.0, "rental_uris": {"android": "https://dc.lft.to/lastmile_qr_scan", "ios": "https://dc.lft.to/lastmile_qr_scan"}, "is_reserved": 0, "is_disabled": 0, "type": "electric_scooter", "bike_id": "960c034ae55f143bfc292676111de822"}, {"lon": -76.97018333333334, "lat": 38.92033833333333, "name": "ab05a07d5d1312d247bfbda3387bdf37", "fusion_lat": 0.0, "fusion_lon": 0.0, "rental_uris": {"android": "https://dc.lft.to/lastmile_qr_scan", "ios": "https://dc.lft.to/lastmile_qr_scan"}, "is_reserved": 0, "is_disabled": 0, "type": "electric_scooter", "bike_id": "ab05a07d5d1312d247bfbda3387bdf37"}, {"lon": -77.00341083333333, "lat": 38.8952745, "name": "8dea37b0923d71b4842793ebd2b6eda9", "fusion_lat": 0.0, "fusion_lon": 0.0, "rental_uris": {"android": "https://dc.lft.to/lastmile_qr_scan", "ios": "https://dc.lft.to/lastmile_qr_scan"}, "is_reserved": 0, "is_disabled": 0, "type": "electric_scooter", "bike_id": "8dea37b0923d71b4842793ebd2b6eda9"}, {"lon": -77.027222, "lat": 38.940856833333335, "name": "e8eeaee8f639d17b30a33780e20416a9", "fusion_lat": 0.0, "fusion_lon": 0.0, "rental_uris": {"android": "https://dc.lft.to/lastmile_qr_scan", "ios": "https://dc.lft.to/lastmile_qr_scan"}, "is_reserved": 0, "is_disabled": 0, "type": "electric_scooter", "bike_id": "e8eeaee8f639d17b30a33780e20416a9"}, {"lon": -77.05932333333334, "lat": 38.936680833333334, "name": "249b47af1418d7ae5ca61279403cd5f1", "fusion_lat": 0.0, "fusion_lon": 0.0, "rental_uris": {"android": "https://dc.lft.to/lastmile_qr_scan", "ios": "https://dc.lft.to/lastmile_qr_scan"}, "is_reserved": 0, "is_disabled": 0, "type": "electric_scooter", "bike_id": "249b47af1418d7ae5ca61279403cd5f1"}, {"lon": -77.031837, "lat": 38.90021083333333, "name": "d0898cfd97cc6c0ee518b43efc68ff9e", "fusion_lat": 0.0, "fusion_lon": 0.0, "rental_uris": {"android": "https://dc.lft.to/lastmile_qr_scan", "ios": "https://dc.lft.to/lastmile_qr_scan"}, "is_reserved": 0, "is_disabled": 0, "type": "electric_scooter", "bike_id": "d0898cfd97cc6c0ee518b43efc68ff9e"}, {"lon": -77.03740283333333, "lat": 38.92204316666667, "name": "c39d423e9775cd8ec733c15f1ad3b1b5", "fusion_lat": 0.0, "fusion_lon": 0.0, "rental_uris": {"android": "https://dc.lft.to/lastmile_qr_scan", "ios": "https://dc.lft.to/lastmile_qr_scan"}, "is_reserved": 0, "is_disabled": 0, "type": "electric_scooter", "bike_id": "c39d423e9775cd8ec733c15f1ad3b1b5"}, {"lon": -77.0334025, "lat": 38.89833333333333, "name": "691bdcfaacadeaca7845acacbb180cad", "fusion_lat": 0.0, "fusion_lon": 0.0, "rental_uris": {"android": "https://dc.lft.to/lastmile_qr_scan", "ios": "https://dc.lft.to/lastmile_qr_scan"}, "is_reserved": 0, "is_disabled": 0, "type": "electric_scooter", "bike_id": "691bdcfaacadeaca7845acacbb180cad"}, {"lon": -77.0329255, "lat": 38.922138333333336, "name": "b22ef170046711f4b1324d31cfe45306", "fusion_lat": 0.0, "fusion_lon": 0.0, "rental_uris": {"android": "https://dc.lft.to/lastmile_qr_scan", "ios": "https://dc.lft.to/lastmile_qr_scan"}, "is_reserved": 0, "is_disabled": 0, "type": "electric_scooter", "bike_id": "b22ef170046711f4b1324d31cfe45306"}, {"lon": -77.024102, "lat": 38.9086965, "name": "e74635d48375ad38b97ee9ad98ed3e6f", "fusion_lat": 0.0, "fusion_lon": 0.0, "rental_uris": {"android": "https://dc.lft.to/lastmile_qr_scan", "ios": "https://dc.lft.to/lastmile_qr_scan"}, "is_reserved": 0, "is_disabled": 0, "type": "electric_scooter", "bike_id": "e74635d48375ad38b97ee9ad98ed3e6f"}, {"lon": -77.03787033333333, "lat": 38.9057595, "name": "4b144df13b6d0b336c96bd74c33f6dde", "fusion_lat": 0.0, "fusion_lon": 0.0, "rental_uris": {"android": "https://dc.lft.to/lastmile_qr_scan", "ios": "https://dc.lft.to/lastmile_qr_scan"}, "is_reserved": 0, "is_disabled": 0, "type": "electric_scooter", "bike_id": "4b144df13b6d0b336c96bd74c33f6dde"}, {"lon": -77.0282855, "lat": 38.93284766666667, "name": "f64ced0d6824eab3a718d708d52c75e8", "fusion_lat": 0.0, "fusion_lon": 0.0, "rental_uris": {"android": "https://dc.lft.to/lastmile_qr_scan", "ios": "https://dc.lft.to/lastmile_qr_scan"}, "is_reserved": 0, "is_disabled": 0, "type": "electric_scooter", "bike_id": "f64ced0d6824eab3a718d708d52c75e8"}, {"lon": -76.99690233333334, "lat": 38.91081666666667, "name": "a2e5909e49eeb2e3ee94ced565440510", "fusion_lat": 0.0, "fusion_lon": 0.0, "rental_uris": {"android": "https://dc.lft.to/lastmile_qr_scan", "ios": "https://dc.lft.to/lastmile_qr_scan"}, "is_reserved": 0, "is_disabled": 0, "type": "electric_scooter", "bike_id": "a2e5909e49eeb2e3ee94ced565440510"}, {"lon": -77.03131, "lat": 38.91567116666667, "name": "20dfd9d9e5ecf886339110f5daf36687", "fusion_lat": 0.0, "fusion_lon": 0.0, "rental_uris": {"android": "https://dc.lft.to/lastmile_qr_scan", "ios": "https://dc.lft.to/lastmile_qr_scan"}, "is_reserved": 0, "is_disabled": 0, "type": "electric_scooter", "bike_id": "20dfd9d9e5ecf886339110f5daf36687"}, {"lon": -77.0487145, "lat": 38.90166816666667, "name": "c97e619ccd7ffc9ebc0ad49638e6e482", "fusion_lat": 0.0, "fusion_lon": 0.0, "rental_uris": {"android": "https://dc.lft.to/lastmile_qr_scan", "ios": "https://dc.lft.to/lastmile_qr_scan"}, "is_reserved": 0, "is_disabled": 0, "type": "electric_scooter", "bike_id": "c97e619ccd7ffc9ebc0ad49638e6e482"}, {"lon": -76.9798555, "lat": 38.87750183333333, "name": "72e2e1a78754f57a915a294830531ae0", "fusion_lat": 0.0, "fusion_lon": 0.0, "rental_uris": {"android": "https://dc.lft.to/lastmile_qr_scan", "ios": "https://dc.lft.to/lastmile_qr_scan"}, "is_reserved": 0, "is_disabled": 0, "type": "electric_bike", "bike_id": "72e2e1a78754f57a915a294830531ae0"}, {"lon": -76.97745583333334, "lat": 38.905059333333334, "name": "0f9f5f009484f2975790273b06c9d7d8", "fusion_lat": 0.0, "fusion_lon": 0.0, "rental_uris": {"android": "https://dc.lft.to/lastmile_qr_scan", "ios": "https://dc.lft.to/lastmile_qr_scan"}, "is_reserved": 0, "is_disabled": 0, "type": "electric_scooter", "bike_id": "0f9f5f009484f2975790273b06c9d7d8"}, {"lon": -77.3609285, "lat": 38.939631, "name": "576fad577df75ca1114f11a09f738fc2", "fusion_lat": 0.0, "fusion_lon": 0.0, "rental_uris": {"android": "https://dc.lft.to/lastmile_qr_scan", "ios": "https://dc.lft.to/lastmile_qr_scan"}, "is_reserved": 0, "is_disabled": 0, "type": "electric_bike", "bike_id": "576fad577df75ca1114f11a09f738fc2"}, {"lon": -77.02121783333334, "lat": 38.91417333333333, "name": "49def2615e7f5eabebc05d7dbe1e0dad", "fusion_lat": 0.0, "fusion_lon": 0.0, "rental_uris": {"android": "https://dc.lft.to/lastmile_qr_scan", "ios": "https://dc.lft.to/lastmile_qr_scan"}, "is_reserved": 0, "is_disabled": 0, "type": "electric_scooter", "bike_id": "49def2615e7f5eabebc05d7dbe1e0dad"}, {"lon": -77.025334, "lat": 38.92070783333333, "name": "2801e42fc58acb39529060ef69b74998", "fusion_lat": 0.0, "fusion_lon": 0.0, "rental_uris": {"android": "https://dc.lft.to/lastmile_qr_scan", "ios": "https://dc.lft.to/lastmile_qr_scan"}, "is_reserved": 0, "is_disabled": 0, "type": "electric_scooter", "bike_id": "2801e42fc58acb39529060ef69b74998"}, {"lon": -77.02542066666666, "lat": 38.940951166666665, "name": "72d25b800f3e75fe2f7ec9e0afe209d2", "fusion_lat": 0.0, "fusion_lon": 0.0, "rental_uris": {"android": "https://dc.lft.to/lastmile_qr_scan", "ios": "https://dc.lft.to/lastmile_qr_scan"}, "is_reserved": 0, "is_disabled": 0, "type": "electric_scooter", "bike_id": "72d25b800f3e75fe2f7ec9e0afe209d2"}, {"lon": -77.01877366666666, "lat": 38.90968316666667, "name": "00293c0a0b591feb1ab4deb11351648f", "fusion_lat": 0.0, "fusion_lon": 0.0, "rental_uris": {"android": "https://dc.lft.to/lastmile_qr_scan", "ios": "https://dc.lft.to/lastmile_qr_scan"}, "is_reserved": 0, "is_disabled": 0, "type": "electric_scooter", "bike_id": "00293c0a0b591feb1ab4deb11351648f"}, {"lon": -77.01223066666667, "lat": 38.91524016666666, "name": "d7e53854bc397bfe89aeb77fdcc97808", "fusion_lat": 0.0, "fusion_lon": 0.0, "rental_uris": {"android": "https://dc.lft.to/lastmile_qr_scan", "ios": "https://dc.lft.to/lastmile_qr_scan"}, "is_reserved": 0, "is_disabled": 0, "type": "electric_scooter", "bike_id": "d7e53854bc397bfe89aeb77fdcc97808"}, {"lon": -76.94779866666667, "lat": 38.89438966666667, "name": "7af2fcd152d9a8116a8772eca4767c75", "fusion_lat": 0.0, "fusion_lon": 0.0, "rental_uris": {"android": "https://dc.lft.to/lastmile_qr_scan", "ios": "https://dc.lft.to/lastmile_qr_scan"}, "is_reserved": 0, "is_disabled": 0, "type": "electric_bike", "bike_id": "7af2fcd152d9a8116a8772eca4767c75"}, {"lon": -77.04509583333333, "lat": 38.903868833333334, "name": "c0ed48070ecc489466f85cb185de023e", "fusion_lat": 0.0, "fusion_lon": 0.0, "rental_uris": {"android": "https://dc.lft.to/lastmile_qr_scan", "ios": "https://dc.lft.to/lastmile_qr_scan"}, "is_reserved": 0, "is_disabled": 0, "type": "electric_scooter", "bike_id": "c0ed48070ecc489466f85cb185de023e"}, {"lon": -77.04582333333333, "lat": 38.90247683333333, "name": "54ba554998d71ae1c3fa641eeb177bc8", "fusion_lat": 0.0, "fusion_lon": 0.0, "rental_uris": {"android": "https://dc.lft.to/lastmile_qr_scan", "ios": "https://dc.lft.to/lastmile_qr_scan"}, "is_reserved": 0, "is_disabled": 0, "type": "electric_scooter", "bike_id": "54ba554998d71ae1c3fa641eeb177bc8"}, {"lon": -77.027169, "lat": 38.896538, "name": "9a4bf6aa98d1d297397c9c223b087df8", "fusion_lat": 0.0, "fusion_lon": 0.0, "rental_uris": {"android": "https://dc.lft.to/lastmile_qr_scan", "ios": "https://dc.lft.to/lastmile_qr_scan"}, "is_reserved": 0, "is_disabled": 0, "type": "electric_scooter", "bike_id": "9a4bf6aa98d1d297397c9c223b087df8"}, {"lon": -77.0318285, "lat": 38.917434666666665, "name": "014601c9c8b3d5756fa17f531dfb474f", "fusion_lat": 0.0, "fusion_lon": 0.0, "rental_uris": {"android": "https://dc.lft.to/lastmile_qr_scan", "ios": "https://dc.lft.to/lastmile_qr_scan"}, "is_reserved": 0, "is_disabled": 0, "type": "electric_scooter", "bike_id": "014601c9c8b3d5756fa17f531dfb474f"}, {"lon": -77.02491866666666, "lat": 38.918072, "name": "b3ce489315d8c9d32578bfe84027a855", "fusion_lat": 0.0, "fusion_lon": 0.0, "rental_uris": {"android": "https://dc.lft.to/lastmile_qr_scan", "ios": "https://dc.lft.to/lastmile_qr_scan"}, "is_reserved": 0, "is_disabled": 0, "type": "electric_scooter", "bike_id": "b3ce489315d8c9d32578bfe84027a855"}, {"lon": -76.9687765, "lat": 38.92448266666667, "name": "996a4b26b548a36a4bbe39c9a31bb148", "fusion_lat": 0.0, "fusion_lon": 0.0, "rental_uris": {"android": "https://dc.lft.to/lastmile_qr_scan", "ios": "https://dc.lft.to/lastmile_qr_scan"}, "is_reserved": 0, "is_disabled": 0, "type": "electric_scooter", "bike_id": "996a4b26b548a36a4bbe39c9a31bb148"}, {"lon": -77.18798683333333, "lat": 39.09941333333333, "name": "cfa2fc834739e6362ed7af728c82ef05", "fusion_lat": 0.0, "fusion_lon": 0.0, "rental_uris": {"android": "https://dc.lft.to/lastmile_qr_scan", "ios": "https://dc.lft.to/lastmile_qr_scan"}, "is_reserved": 0, "is_disabled": 0, "type": "electric_bike", "bike_id": "cfa2fc834739e6362ed7af728c82ef05"}, {"lon": -77.04158216666667, "lat": 38.915433166666666, "name": "e460122221673144652db241e3819cb6", "fusion_lat": 0.0, "fusion_lon": 0.0, "rental_uris": {"android": "https://dc.lft.to/lastmile_qr_scan", "ios": "https://dc.lft.to/lastmile_qr_scan"}, "is_reserved": 0, "is_disabled": 0, "type": "electric_scooter", "bike_id": "e460122221673144652db241e3819cb6"}, {"lon": -77.05120533333333, "lat": 38.99966583333333, "name": "8e72eadebf2911e89131d296283907e7", "fusion_lat": 0.0, "fusion_lon": 0.0, "rental_uris": {"android": "https://dc.lft.to/lastmile_qr_scan", "ios": "https://dc.lft.to/lastmile_qr_scan"}, "is_reserved": 0, "is_disabled": 0, "type": "electric_bike", "bike_id": "8e72eadebf2911e89131d296283907e7"}, {"lon": -77.04322, "lat": 38.908724, "name": "66efd0eee5b027a61acce66b95f8af2f", "fusion_lat": 0.0, "fusion_lon": 0.0, "rental_uris": {"android": "https://dc.lft.to/lastmile_qr_scan", "ios": "https://dc.lft.to/lastmile_qr_scan"}, "is_reserved": 0, "is_disabled": 0, "type": "electric_bike", "bike_id": "66efd0eee5b027a61acce66b95f8af2f"}, {"lon": -77.02287616666666, "lat": 38.911319166666665, "name": "5e9a7a65a8c3637a544660c4e1175378", "fusion_lat": 0.0, "fusion_lon": 0.0, "rental_uris": {"android": "https://dc.lft.to/lastmile_qr_scan", "ios": "https://dc.lft.to/lastmile_qr_scan"}, "is_reserved": 0, "is_disabled": 0, "type": "electric_bike", "bike_id": "5e9a7a65a8c3637a544660c4e1175378"}, {"lon": -77.08933533333334, "lat": 38.84101666666667, "name": "3cff99c8fa0a68bcfd6ae0bc98932c24", "fusion_lat": 0.0, "fusion_lon": 0.0, "rental_uris": {"android": "https://dc.lft.to/lastmile_qr_scan", "ios": "https://dc.lft.to/lastmile_qr_scan"}, "is_reserved": 0, "is_disabled": 0, "type": "electric_bike", "bike_id": "3cff99c8fa0a68bcfd6ae0bc98932c24"}, {"lon": -76.99382766666666, "lat": 38.900566, "name": "1b46741bd618de03e64098d4d8c33e45", "fusion_lat": 0.0, "fusion_lon": 0.0, "rental_uris": {"android": "https://dc.lft.to/lastmile_qr_scan", "ios": "https://dc.lft.to/lastmile_qr_scan"}, "is_reserved": 0, "is_disabled": 0, "type": "electric_scooter", "bike_id": "1b46741bd618de03e64098d4d8c33e45"}, {"lon": -77.02987566666667, "lat": 38.956277666666665, "name": "10a77da076b443d28b837b5e452801da", "fusion_lat": 0.0, "fusion_lon": 0.0, "rental_uris": {"android": "https://dc.lft.to/lastmile_qr_scan", "ios": "https://dc.lft.to/lastmile_qr_scan"}, "is_reserved": 0, "is_disabled": 0, "type": "electric_scooter", "bike_id": "10a77da076b443d28b837b5e452801da"}, {"lon": -77.0385265, "lat": 38.904749333333335, "name": "6c3b78e8212c795fdcf85cfcec6d8004", "fusion_lat": 0.0, "fusion_lon": 0.0, "rental_uris": {"android": "https://dc.lft.to/lastmile_qr_scan", "ios": "https://dc.lft.to/lastmile_qr_scan"}, "is_reserved": 0, "is_disabled": 0, "type": "electric_scooter", "bike_id": "6c3b78e8212c795fdcf85cfcec6d8004"}, {"lon": -77.03869516666667, "lat": 38.93256983333333, "name": "24baf32f3e5984b9fda1f89cb4f424ec", "fusion_lat": 0.0, "fusion_lon": 0.0, "rental_uris": {"android": "https://dc.lft.to/lastmile_qr_scan", "ios": "https://dc.lft.to/lastmile_qr_scan"}, "is_reserved": 0, "is_disabled": 0, "type": "electric_scooter", "bike_id": "24baf32f3e5984b9fda1f89cb4f424ec"}, {"lon": -77.019049, "lat": 38.9172545, "name": "6a2804568b9a84773f4325d09bc71bec", "fusion_lat": 0.0, "fusion_lon": 0.0, "rental_uris": {"android": "https://dc.lft.to/lastmile_qr_scan", "ios": "https://dc.lft.to/lastmile_qr_scan"}, "is_reserved": 0, "is_disabled": 0, "type": "electric_scooter", "bike_id": "6a2804568b9a84773f4325d09bc71bec"},