{"data": {"bikes": [{"lon": -77.021836, "is_disabled": 0, "lat": 38.91303583333333, "fusion_lat": 0.0, "is_reserved": 0, "rental_uris": {"ios": "https://dc.lft.to/lastmile_qr_scan", "android": "https://dc.lft.to/lastmile_qr_scan"}, "fusion_lon": 0.0, "type": "electric_scooter", "bike_id": "4458e140e37f5ea7e400287d5bee55ba", "name": "4458e140e37f5ea7e400287d5bee55ba"}, {"lon": -77.03086833333333, "is_disabled": 0, "lat": 38.9026495, "fusion_lat": 0.0, "is_reserved": 0, "rental_uris": {"ios": "https://dc.lft.to/lastmile_qr_scan", "android": "https://dc.lft.to/lastmile_qr_scan"}, "fusion_lon": 0.0, "type": "electric_scooter", "bike_id": "35b5aa4c74b75e7763ef480fdadd6ffe", "name": "35b5aa4c74b75e7763ef480fdadd6ffe"}, {"lon": -77.0348685, "is_disabled": 0, "lat": 38.90147533333333, "fusion_lat": 0.0, "is_reserved": 0, "rental_uris": {"ios": "https://dc.lft.to/lastmile_qr_scan", "android": "https://dc.lft.to/lastmile_qr_scan"}, "fusion_lon": 0.0, "type": "electric_scooter", "bike_id": "c003397df804bb189c1f90d87b36117b", "name": "c003397df804bb189c1f90d87b36117b"}, {"lon": -77.0258755, "is_disabled": 0, "lat": 38.94207733333333, "fusion_lat": 0.0, "is_reserved": 0, "rental_uris": {"ios": "https://dc.lft.to/lastmile_qr_scan", "android": "https://dc.lft.to/lastmile_qr_scan"}, "fusion_lon": 0.0, "type": "electric_scooter", "bike_id": "1a6d08e101842e6dfc850a7bbb39b686", "name": "1a6d08e101842e6dfc850a7bbb39b686"}, {"lon": -77.06658466666667, "is_disabled": 0, "lat": 38.9506845, "fusion_lat": 0.0, "is_reserved": 0, "rental_uris": {"ios": "https://dc.lft.to/lastmile_qr_scan", "android": "https://dc.lft.to/lastmile_qr_scan"}, "fusion_lon": 0.0, "type": "electric_bike", "bike_id": "0f5caf9abd19cd7cf3674a3cd701f3d5", "name": "0f5caf9abd19cd7cf3674a3cd701f3d5"}, {"lon": -77.0216045, "is_disabled": 0, "lat": 38.9261275, "fusion_lat": 0.0, "is_reserved": 0, "rental_uris": {"ios": "https://dc.lft.to/lastmile_qr_scan", "android": "https://dc.lft.to/lastmile_qr_scan"}, "fusion_lon": 0.0, "type": "electric_scooter", "bike_id": "34c0082980341e0f2d9dfd1f6476eeb2", "name": "34c0082980341e0f2d9dfd1f6476eeb2"}, {"lon": -77.06291483333334, "is_disabled": 0, "lat": 38.905847, "fusion_lat": 0.0, "is_reserved": 0, "rental_uris": {"ios": "https://dc.lft.to/lastmile_qr_scan", "android": "https://dc.lft.to/lastmile_qr_scan"}, "fusion_lon": 0.0, "type": "electric_scooter", "bike_id": "9bdd6494d50b0a335a0eeb3c6f572829", "name": "9bdd6494d50b0a335a0eeb3c6f572829"}, {"lon": -77.0567765, "is_disabled": 0, "lat": 38.9515395, "fusion_lat": 0.0, "is_reserved": 0, "rental_uris": {"ios": "https://dc.lft.to/lastmile_qr_scan", "android": "https://dc.lft.to/lastmile_qr_scan"}, "fusion_lon": 0.0, "type": "electric_scooter", "bike_id": "25f26fe5a482abe5be0d58815569cd20", "name": "25f26fe5a482abe5be0d58815569cd20"}, {"lon": -77.036472, "is_disabled": 0, "lat": 38.90285816666667, "fusion_lat": 0.0, "is_reserved": 0, "rental_uris": {"ios": "https://dc.lft.to/lastmile_qr_scan", "android": "https://dc.lft.to/lastmile_qr_scan"}, "fusion_lon": 0.0, "type": "electric_scooter", "bike_id": "065a808cbdbd3e723a1554cf7e613f5d", "name": "065a808cbdbd3e723a1554cf7e613f5d"}, {"lon": -77.03920616666667, "is_disabled": 0, "lat": 38.9036325, "fusion_lat": 0.0, "is_reserved": 0, "rental_uris": {"ios": "https://dc.lft.to/lastmile_qr_scan", "android": "https://dc.lft.to/lastmile_qr_scan"}, "fusion_lon": 0.0, "type": "electric_scooter", "bike_id": "6541c4ee62fdde890c9bb15b1a97f1bc", "name": "6541c4ee62fdde890c9bb15b1a97f1bc"}, {"lon": -77.043358, "is_disabled": 0, "lat": 38.90729816666666, "fusion_lat": 0.0, "is_reserved": 0, "rental_uris": {"ios": "https://dc.lft.to/lastmile_qr_scan", "android": "https://dc.lft.to/lastmile_qr_scan"}, "fusion_lon": 0.0, "type": "electric_scooter", "bike_id": "f572cee0370bf73d2030d101b6c44900", "name": "f572cee0370bf73d2030d101b6c44900"}, {"lon": -77.079593, "is_disabled": 0, "lat": 38.945639666666665, "fusion_lat": 0.0, "is_reserved": 0, "rental_uris": {"ios": "https://dc.lft.to/lastmile_qr_scan", "android": "https://dc.lft.to/lastmile_qr_scan"}, "fusion_lon": 0.0, "type": "electric_scooter", "bike_id": "a46dd77fe5e9f892ede3050019127681", "name": "a46dd77fe5e9f892ede3050019127681"}, {"lon": -76.930779, "is_disabled": 0, "lat": 38.90163366666667, "fusion_lat": 0.0, "is_reserved": 0, "rental_uris": {"ios": "https://dc.lft.to/lastmile_qr_scan", "android": "https://dc.lft.to/lastmile_qr_scan"}, "fusion_lon": 0.0, "type": "electric_scooter", "bike_id": "5b48f7122ee3ff9a87470e8209c868df", "name": "5b48f7122ee3ff9a87470e8209c868df"}, {"lon": -77.0220685, "is_disabled": 0, "lat": 38.896161666666664, "fusion_lat": 0.0, "is_reserved": 0, "rental_uris": {"ios": "https://dc.lft.to/lastmile_qr_scan", "android": "https://dc.lft.to/lastmile_qr_scan"}, "fusion_lon": 0.0, "type": "electric_scooter", "bike_id": "1f355187c985052850deeb5da8eb8a3a", "name": "1f355187c985052850deeb5da8eb8a3a"}, {"lon": -76.95948916666667, "is_disabled": 0, "lat": 38.861917, "fusion_lat": 0.0, "is_reserved": 0, "rental_uris": {"ios": "https://dc.lft.to/lastmile_qr_scan", "android": "https://dc.lft.to/lastmile_qr_scan"}, "fusion_lon": 0.0, "type": "electric_scooter", "bike_id": "cda805ddc59ba54ebb5fff39afa36e5f", "name": "cda805ddc59ba54ebb5fff39afa36e5f"}, {"lon": -77.04363033333334, "is_disabled": 0, "lat": 38.90595316666667, "fusion_lat": 0.0, "is_reserved": 0, "rental_uris": {"ios": "https://dc.lft.to/lastmile_qr_scan", "android": "https://dc.lft.to/lastmile_qr_scan"}, "fusion_lon": 0.0, "type": "electric_scooter", "bike_id": "d1635ac1fc1da1a21ace2c5638956bd2", "name": "d1635ac1fc1da1a21ace2c5638956bd2"}, {"lon": -77.0401215, "is_disabled": 0, "lat": 38.903317666666666, "fusion_lat": 0.0, "is_reserved": 0, "rental_uris": {"ios": "https://dc.lft.to/lastmile_qr_scan", "android": "https://dc.lft.to/lastmile_qr_scan"}, "fusion_lon": 0.0, "type": "electric_scooter", "bike_id": "068f484fab4ade10de6811285175b5ea", "name": "068f484fab4ade10de6811285175b5ea"}, {"lon": -77.0040415, "is_disabled": 0, "lat": 38.921326666666666, "fusion_lat": 0.0, "is_reserved": 0, "rental_uris": {"ios": "https://dc.lft.to/lastmile_qr_scan", "android": "https://dc.lft.to/lastmile_qr_scan"}, "fusion_lon": 0.0, "type": "electric_scooter", "bike_id": "a08d2b414ffa3508aab0e50b2d4e1142", "name": "a08d2b414ffa3508aab0e50b2d4e1142"}, {"lon": -77.021538, "is_disabled": 0, "lat": 38.92463083333333, "fusion_lat": 0.0, "is_reserved": 0, "rental_uris": {"ios": "https://dc.lft.to/lastmile_qr_scan", "android": "https://dc.lft.to/lastmile_qr_scan"}, "fusion_lon": 0.0, "type": "electric_scooter", "bike_id": "ef4cebc5da49d06c13cda2fa1f55be85", "name": "ef4cebc5da49d06c13cda2fa1f55be85"}, {"lon": -76.98145783333334, "is_disabled": 0, "lat": 38.8974535, "fusion_lat": 0.0, "is_reserved": 0, "rental_uris": {"ios": "https://dc.lft.to/lastmile_qr_scan", "android": "https://dc.lft.to/lastmile_qr_scan"}, "fusion_lon": 0.0, "type": "electric_scooter", "bike_id": "15e2d264251963eaf3b37ba16cf1edfc", "name": "15e2d264251963eaf3b37ba16cf1edfc"}, {"lon": -77.0886485, "is_disabled": 0, "lat": 38.916371833333336, "fusion_lat": 0.0, "is_reserved": 0, "rental_uris": {"ios": "https://dc.lft.to/lastmile_qr_scan", "android": "https://dc.lft.to/lastmile_qr_scan"}, "fusion_lon": 0.0, "type": "electric_scooter", "bike_id": "31bdb93ed2c4a226dca7ec3ed0a4b2fa", "name": "31bdb93ed2c4a226dca7ec3ed0a4b2fa"}, {"lon": -77.0072655, "is_disabled": 0, "lat": 38.925443666666666, "fusion_lat": 0.0, "is_reserved": 0, "rental_uris": {"ios": "https://dc.lft.to/lastmile_qr_scan", "android": "https://dc.lft.to/lastmile_qr_scan"}, "fusion_lon": 0.0, "type": "electric_scooter", "bike_id": "93db28dd8c9d3fea34d4e468dda54253", "name": "93db28dd8c9d3fea34d4e468dda54253"}, {"lon": -77.10113483333333, "is_disabled": 0, "lat": 38.87875316666667, "fusion_lat": 0.0, "is_reserved": 0, "rental_uris": {"ios": "https://dc.lft.to/lastmile_qr_scan", "android": "https://dc.lft.to/lastmile_qr_scan"}, "fusion_lon": 0.0, "type": "electric_bike", "bike_id": "2c179b59d2f7dc503fc3056aeea12836", "name": "2c179b59d2f7dc503fc3056aeea12836"}, {"lon": -77.0214315, "is_disabled": 0, "lat": 38.901901, "fusion_lat": 0.0, "is_reserved": 0, "rental_uris": {"ios": "https://dc.lft.to/lastmile_qr_scan", "android": "https://dc.lft.to/lastmile_qr_scan"}, "fusion_lon": 0.0, "type": "electric_scooter", "bike_id": "876ce88bf5635a825605526a7741c807", "name": "876ce88bf5635a825605526a7741c807"}, {"lon": -77.0335875, "is_disabled": 0, "lat": 38.92438966666667, "fusion_lat": 0.0, "is_reserved": 0, "rental_uris": {"ios": "https://dc.lft.to/lastmile_qr_scan", "android": "https://dc.lft.to/lastmile_qr_scan"}, "fusion_lon": 0.0, "type": "electric_scooter", "bike_id": "515f66378e188e693d71424be2ef3117", "name": "515f66378e188e693d71424be2ef3117"}, {"lon": -77.02159233333333, "is_disabled": 0, "lat": 38.9260115, "fusion_lat": 0.0, "is_reserved": 0, "rental_uris": {"ios": "https://dc.lft.to/lastmile_qr_scan", "android": "https://dc.lft.to/lastmile_qr_scan"}, "fusion_lon": 0.0, "type": "electric_scooter", "bike_id": "1b20357c25aab4960f356c44f658ff71", "name": "1b20357c25aab4960f356c44f658ff71"}, {"lon": -76.99985133333334, "is_disabled": 0, "lat": 38.8747985, "fusion_lat": 0.0, "is_reserved": 0, "rental_uris": {"ios": "https://dc.lft.to/lastmile_qr_scan", "android": "https://dc.lft.to/lastmile_qr_scan"}, "fusion_lon": 0.0, "type": "electric_scooter", "bike_id": "5184aa1e4f7fd63a569b3cbd039fe793", "name": "5184aa1e4f7fd63a569b3cbd039fe793"}, {"lon": -77.1183135, "is_disabled": 0, "lat": 38.859347666666665, "fusion_lat": 0.0, "is_reserved": 0, "rental_uris": {"ios": "https://dc.lft.to/lastmile_qr_scan", "android": "https://dc.lft.to/lastmile_qr_scan"}, "fusion_lon": 0.0, "type": "electric_bike", "bike_id": "0d62c627cdc4b1e4e4bbe9214db022c9", "name": "0d62c627cdc4b1e4e4bbe9214db022c9"}, {"lon": -77.00935483333333, "is_disabled": 0, "lat": 38.919208, "fusion_lat": 0.0, "is_reserved": 0, "rental_uris": {"ios": "https://dc.lft.to/lastmile_qr_scan", "android": "https://dc.lft.to/lastmile_qr_scan"}, "fusion_lon": 0.0, "type": "electric_scooter", "bike_id": "885e40fbd29d3af00da57b066f82dc09", "name": "885e40fbd29d3af00da57b066f82dc09"}, {"lon": -77.00225633333334, "is_disabled": 0, "lat": 38.823672, "fusion_lat": 0.0, "is_reserved": 0, "rental_uris": {"ios": "https://dc.lft.to/lastmile_qr_scan", "android": "https://dc.lft.to/lastmile_qr_scan"}, "fusion_lon": 0.0, "type": "electric_bike", "bike_id": "2dbb907932474c138a5a6c3cda4f99cf", "name": "2dbb907932474c138a5a6c3cda4f99cf"}, {"lon": -77.04189533333333, "is_disabled": 0, "lat": 38.92053533333333, "fusion_lat": 0.0, "is_reserved": 0, "rental_uris": {"ios": "https://dc.lft.to/lastmile_qr_scan", "android": "https://dc.lft.to/lastmile_qr_scan"}, "fusion_lon": 0.0, "type": "electric_scooter", "bike_id": "21d88934a5ee6cb2abef441290094194", "name": "21d88934a5ee6cb2abef441290094194"}, {"lon": -77.07277416666666, "is_disabled": 0, "lat": 38.911621, "fusion_lat": 0.0, "is_reserved": 0, "rental_uris": {"ios": "https://dc.lft.to/lastmile_qr_scan", "android": "https://dc.lft.to/lastmile_qr_scan"}, "fusion_lon": 0.0, "type": "electric_scooter", "bike_id": "840c97460edb584803dc05f91d455e1e", "name": "840c97460edb584803dc05f91d455e1e"}, {"lon": -77.03723133333334, "is_disabled": 0, "lat": 38.90244916666666, "fusion_lat": 0.0, "is_reserved": 0, "rental_uris": {"ios": "https://dc.lft.to/lastmile_qr_scan", "android": "https://dc.lft.to/lastmile_qr_scan"}, "fusion_lon": 0.0, "type": "electric_scooter", "bike_id": "b1b3674eab568f5f2460564c298694f0", "name": "b1b3674eab568f5f2460564c298694f0"}, {"lon": -77.04189650000001, "is_disabled": 0, "lat": 38.9074595, "fusion_lat": 0.0, "is_reserved": 0, "rental_uris": {"ios": "https://dc.lft.to/lastmile_qr_scan", "android": "https://dc.lft.to/lastmile_qr_scan"}, "fusion_lon": 0.0, "type": "electric_scooter", "bike_id": "c423c67c68abe8fa0df3063850b9d82b", "name": "c423c67c68abe8fa0df3063850b9d82b"}, {"lon": -76.97229533333334, "is_disabled": 0, "lat": 38.900347833333335, "fusion_lat": 0.0, "is_reserved": 0, "rental_uris": {"ios": "https://dc.lft.to/lastmile_qr_scan", "android": "https://dc.lft.to/lastmile_qr_scan"}, "fusion_lon": 0.0, "type": "electric_bike", "bike_id": "8001a55dfc50c95da611381d083e2722", "name": "8001a55dfc50c95da611381d083e2722"}, {"lon": -77.0420775, "is_disabled": 0, "lat": 38.92252283333333, "fusion_lat": 0.0, "is_reserved": 0, "rental_uris": {"ios": "https://dc.lft.to/lastmile_qr_scan", "android": "https://dc.lft.to/lastmile_qr_scan"}, "fusion_lon": 0.0, "type": "electric_scooter", "bike_id": "a92443f3881b63d64abee4166a1c7f1f", "name": "a92443f3881b63d64abee4166a1c7f1f"}, {"lon": -77.02398166666667, "is_disabled": 0, "lat": 38.90700283333334, "fusion_lat": 0.0, "is_reserved": 0, "rental_uris": {"ios": "https://dc.lft.to/lastmile_qr_scan", "android": "https://dc.lft.to/lastmile_qr_scan"}, "fusion_lon": 0.0, "type": "electric_scooter", "bike_id": "0950b8e240a68dbf56a9b6678dc0311c", "name": "0950b8e240a68dbf56a9b6678dc0311c"}, {"lon": -77.03162633333334, "is_disabled": 0, "lat": 38.91822366666667, "fusion_lat": 0.0, "is_reserved": 0, "rental_uris": {"ios": "https://dc.lft.to/lastmile_qr_scan", "android": "https://dc.lft.to/lastmile_qr_scan"}, "fusion_lon": 0.0, "type": "electric_scooter", "bike_id": "bd8c706fccbd6e79591f8168350d7fef", "name": "bd8c706fccbd6e79591f8168350d7fef"}, {"lon": -77.02208016666667, "is_disabled": 0, "lat": 38.915432, "fusion_lat": 0.0, "is_reserved": 0, "rental_uris": {"ios": "https://dc.lft.to/lastmile_qr_scan", "android": "https://dc.lft.to/lastmile_qr_scan"}, "fusion_lon": 0.0, "type": "electric_scooter", "bike_id": "950a398c8c34d99b1bd84846dfd13927", "name": "950a398c8c34d99b1bd84846dfd13927"}, {"lon": -77.03837216666666, "is_disabled": 0, "lat": 38.91966816666667, "fusion_lat": 0.0, "is_reserved": 0, "rental_uris": {"ios": "https://dc.lft.to/lastmile_qr_scan", "android": "https://dc.lft.to/lastmile_qr_scan"}, "fusion_lon": 0.0, "type": "electric_scooter", "bike_id": "724d2b5d1c0b9b550783b68d4e1c2041", "name": "724d2b5d1c0b9b550783b68d4e1c2041"}, {"lon": -77.03397283333334, "is_disabled": 0, "lat": 38.938472, "fusion_lat": 0.0, "is_reserved": 0, "rental_uris": {"ios": "https://dc.lft.to/lastmile_qr_scan", "android": "https://dc.lft.to/lastmile_qr_scan"}, "fusion_lon": 0.0, "type": "electric_scooter", "bike_id": "c9728afbf926afffc7e0a335b50a2ffa", "name": "c9728afbf926afffc7e0a335b50a2ffa"}, {"lon": -76.98057633333333, "is_disabled": 0, "lat": 38.885296833333335, "fusion_lat": 0.0, "is_reserved": 0, "rental_uris": {"ios": "https://dc.lft.to/lastmile_qr_scan", "android": "https://dc.lft.to/lastmile_qr_scan"}, "fusion_lon": 0.0, "type": "electric_scooter", "bike_id": "7622eada5d569fc25a95a4fbed0071af", "name": "7622eada5d569fc25a95a4fbed0071af"}, {"lon": -77.04539266666667, "is_disabled": 0, "lat": 38.934587666666665, "fusion_lat": 0.0, "is_reserved": 0, "rental_uris": {"ios": "https://dc.lft.to/lastmile_qr_scan", "android": "https://dc.lft.to/lastmile_qr_scan"}, "fusion_lon": 0.0, "type": "electric_scooter", "bike_id": "19a70c18369a08d300a846356e4a1459", "name": "19a70c18369a08d300a846356e4a1459"}, {"lon": -77.042167, "is_disabled": 0, "lat": 38.903881166666665, "fusion_lat": 0.0, "is_reserved": 0, "rental_uris": {"ios": "https://dc.lft.to/lastmile_qr_scan", "android": "https://dc.lft.to/lastmile_qr_scan"}, "fusion_lon": 0.0, "type": "electric_scooter", "bike_id": "b3816e7973ad0878e843ef015587cc55", "name": "b3816e7973ad0878e843ef015587cc55"}, {"lon": -77.027868, "is_disabled": 0, "lat": 38.896065, "fusion_lat": 0.0, "is_reserved": 0, "rental_uris": {"ios": "https://dc.lft.to/lastmile_qr_scan", "android": "https://dc.lft.to/lastmile_qr_scan"}, "fusion_lon": 0.0, "type": "electric_scooter", "bike_id": "6a7a92502ce08247ebe8e9d8ded9dbd5", "name": "6a7a92502ce08247ebe8e9d8ded9dbd5"}, {"lon": -76.9476965, "is_disabled": 0, "lat": 38.896256, "fusion_lat": 0.0, "is_reserved": 0, "rental_uris": {"ios": "https://dc.lft.to/lastmile_qr_scan", "android": "https://dc.lft.to/lastmile_qr_scan"}, "fusion_lon": 0.0, "type": "electric_scooter", "bike_id": "b37a8c30e7c715f95c735e8174afdcf4", "name": "b37a8c30e7c715f95c735e8174afdcf4"}, {"lon": -76.99009233333334, "is_disabled": 0, "lat": 38.865017333333334, "fusion_lat": 0.0, "is_reserved": 0, "rental_uris": {"ios": "https://dc.lft.to/lastmile_qr_scan", "android": "https://dc.lft.to/lastmile_qr_scan"}, "fusion_lon": 0.0, "type": "electric_scooter", "bike_id": "2ab2568123b877928152f356e1687c9a", "name": "2ab2568123b877928152f356e1687c9a"}, {"lon": -77.04479483333333, "is_disabled": 0, "lat": 38.90020033333333, "fusion_lat": 0.0, "is_reserved": 0, "rental_uris": {"ios": "https://dc.lft.to/lastmile_qr_scan", "android": "https://dc.lft.to/lastmile_qr_scan"}, "fusion_lon": 0.0, "type": "electric_scooter", "bike_id": "0d7a76840262309990e33c8f8275435e", "name": "0d7a76840262309990e33c8f8275435e"}, {"lon": -77.0261645, "is_disabled": 0, "lat": 38.914129833333334, "fusion_lat": 0.0, "is_reserved": 0, "rental_uris": {"ios": "https://dc.lft.to/lastmile_qr_scan", "android": "https://dc.lft.to/lastmile_qr_scan"}, "fusion_lon": 0.0, "type": "electric_scooter", "bike_id": "505b9bed934ec17f1a4149c4c941e252", "name": "505b9bed934ec17f1a4149c4c941e252"}, {"lon": -77.03635633333333, "is_disabled": 0, "lat": 38.930521166666665, "fusion_lat": 0.0, "is_reserved": 0, "rental_uris": {"ios": "https://dc.lft.to/lastmile_qr_scan", "android": "https://dc.lft.to/lastmile_qr_scan"}, "fusion_lon": 0.0, "type": "electric_scooter", "bike_id": "762cdfcbd73819ab2b5a63a081208f39", "name": "762cdfcbd73819ab2b5a63a081208f39"}, {"lon": -77.08305716666666, "is_disabled": 0, "lat": 38.85439816666667, "fusion_lat": 0.0, "is_reserved": 0, "rental_uris": {"ios": "https://dc.lft.to/lastmile_qr_scan", "android": "https://dc.lft.to/lastmile_qr_scan"}, "fusion_lon": 0.0, "type": "electric_bike", "bike_id": "10267dd873e06fb7e29867cb8d72f180", "name": "10267dd873e06fb7e29867cb8d72f180"}, {"lon": -77.02860166666666, "is_disabled": 0, "lat": 38.896480333333336, "fusion_lat": 0.0, "is_reserved": 0, "rental_uris": {"ios": "https://dc.lft.to/lastmile_qr_scan", "android": "https://dc.lft.to/lastmile_qr_scan"}, "fusion_lon": 0.0, "type": "electric_scooter", "bike_id": "848f1c75ac0da087e7dcc62454c4f271", "name": "848f1c75ac0da087e7dcc62454c4f271"}, {"lon": -77.01687966666667, "is_disabled": 0, "lat": 38.92043866666667, "fusion_lat": 0.0, "is_reserved": 0, "rental_uris": {"ios": "https://dc.lft.to/lastmile_qr_scan", "android": "https://dc.lft.to/lastmile_qr_scan"}, "fusion_lon": 0.0, "type": "electric_scooter", "bike_id": "c5600d4e2361d0172beff2dc408e1617", "name": "c5600d4e2361d0172beff2dc408e1617"}, {"lon": -77.22928633333333, "is_disabled": 0, "lat": 38.93189533333333, "fusion_lat": 0.0, "is_reserved": 0, "rental_uris": {"ios": "https://dc.lft.to/lastmile_qr_scan", "android": "https://dc.lft.to/lastmile_qr_scan"}, "fusion_lon": 0.0, "type": "electric_bike", "bike_id": "de839bf5b8960f525152fef372bf94e8", "name": "de839bf5b8960f525152fef372bf94e8"}, {"lon": -76.99162566666666, "is_disabled": 0, "lat": 38.90039066666667, "fusion_lat": 0.0, "is_reserved": 0, "rental_uris": {"ios": "https://dc.lft.to/lastmile_qr_scan", "android": "https://dc.lft.to/lastmile_qr_scan"}, "fusion_lon": 0.0, "type": "electric_scooter", "bike_id": "fec554bee0c3c122098ad8979b775f9b", "name": "fec554bee0c3c122098ad8979b775f9b"}, {"lon": -77.02722216666666, "is_disabled": 0, "lat": 38.8983485, "fusion_lat": 0.0, "is_reserved": 0, "rental_uris": {"ios": "https://dc.lft.to/lastmile_qr_scan", "android": "https://dc.lft.to/lastmile_qr_scan"}, "fusion_lon": 0.0, "type": "electric_scooter", "bike_id": "708258006633283cc65e07c06516297c", "name": "708258006633283cc65e07c06516297c"}, {"lon": -77.02806016666666, "is_disabled": 0, "lat": 38.90158733333333, "fusion_lat": 0.0, "is_reserved": 0, "rental_uris": {"ios": "https://dc.lft.to/lastmile_qr_scan", "android": "https://dc.lft.to/lastmile_qr_scan"}, "fusion_lon": 0.0, "type": "electric_scooter", "bike_id": "784928bef7bef3f9f65b62f3cbaa9360", "name": "784928bef7bef3f9f65b62f3cbaa9360"}, {"lon": -77.02388866666666, "is_disabled": 0, "lat": 38.91290716666666, "fusion_lat": 0.0, "is_reserved": 0, "rental_uris": {"ios": "https://dc.lft.to/lastmile_qr_scan", "android": "https://dc.lft.to/lastmile_qr_scan"}, "fusion_lon": 0.0, "type": "electric_scooter", "bike_id": "f033291206decd182a828022fb5beb12", "name": "f033291206decd182a828022fb5beb12"}, {"lon": -77.040309, "is_disabled": 0, "lat": 38.903718833333336, "fusion_lat": 0.0, "is_reserved": 0, "rental_uris": {"ios": "https://dc.lft.to/lastmile_qr_scan", "android": "https://dc.lft.to/lastmile_qr_scan"}, "fusion_lon": 0.0, "type": "electric_scooter", "bike_id": "3eecc0664e7c7175b1e035f6b0001bfc", "name": "3eecc0664e7c7175b1e035f6b0001bfc"}, {"lon": -77.01709816666667, "is_disabled": 0, "lat": 38.913858833333336, "fusion_lat": 0.0, "is_reserved": 0, "rental_uris": {"ios": "https://dc.lft.to/lastmile_qr_scan", "android": "https://dc.lft.to/lastmile_qr_scan"}, "fusion_lon": 0.0, "type": "electric_scooter", "bike_id": "30d3d11788cde1d0a1fa4898bf3ee9f7", "name": "30d3d11788cde1d0a1fa4898bf3ee9f7"}, {"lon": -77.04174783333333, "is_disabled": 0, "lat": 38.90564283333333, "fusion_lat": 0.0, "is_reserved": 0, "rental_uris": {"ios": "https://dc.lft.to/lastmile_qr_scan", "android": "https://dc.lft.to/lastmile_qr_scan"}, "fusion_lon": 0.0, "type": "electric_scooter", "bike_id": "8ffb1caf34440d551e3f28d15c8e2cb5", "name": "8ffb1caf34440d551e3f28d15c8e2cb5"}, {"lon": -77.02206116666666, "is_disabled": 0, "lat": 38.91545516666667, "fusion_lat": 0.0, "is_reserved": 0, "rental_uris": {"ios": "https://dc.lft.to/lastmile_qr_scan", "android": "https://dc.lft.to/lastmile_qr_scan"}, "fusion_lon": 0.0, "type": "electric_scooter", "bike_id": "0effa5f5fa2ed5879f6193ae60ce641d", "name": "0effa5f5fa2ed5879f6193ae60ce641d"}, {"lon": -76.932095, "is_disabled": 0, "lat": 38.89665383333333, "fusion_lat": 0.0, "is_reserved": 0, "rental_uris": {"ios": "https://dc.lft.to/lastmile_qr_scan", "android": "https://dc.lft.to/lastmile_qr_scan"}, "fusion_lon": 0.0, "type": "electric_scooter", "bike_id": "df3196c51f2a15bb004952aecd8857ba", "name": "df3196c51f2a15bb004952aecd8857ba"}, {"lon": -77.02736083333333, "is_disabled": 0, "lat": 38.900139333333335, "fusion_lat": 0.0, "is_reserved": 0, "rental_uris": {"ios": "https://dc.lft.to/lastmile_qr_scan", "android": "https://dc.lft.to/lastmile_qr_scan"}, "fusion_lon": 0.0, "type": "electric_scooter", "bike_id": "945c154c3c5a44760926ee7d65ee2de8", "name": "945c154c3c5a44760926ee7d65ee2de8"}, {"lon": -77.03213583333333, "is_disabled": 0, "lat": 38.91847033333333, "fusion_lat": 0.0, "is_reserved": 0, "rental_uris": {"ios": "https://dc.lft.to/lastmile_qr_scan", "android": "https://dc.lft.to/lastmile_qr_scan"}, "fusion_lon": 0.0, "type": "electric_scooter", "bike_id": "5d02eae6e79e13d10da8e5c6897d37c6", "name": "5d02eae6e79e13d10da8e5c6897d37c6"}, {"lon": -77.04675616666667, "is_disabled": 0, "lat": 38.903859, "fusion_lat": 0.0, "is_reserved": 0, "rental_uris": {"ios": "https://dc.lft.to/lastmile_qr_scan", "android": "https://dc.lft.to/lastmile_qr_scan"}, "fusion_lon": 0.0, "type": "electric_scooter", "bike_id": "f7d137789d749a137709b7041ffc8961", "name": "f7d137789d749a137709b7041ffc8961"}, {"lon": -76.99741283333333, "is_disabled": 0, "lat": 38.901323833333336, "fusion_lat": 0.0, "is_reserved": 0, "rental_uris": {"ios": "https://dc.lft.to/lastmile_qr_scan", "android": "https://dc.lft.to/lastmile_qr_scan"}, "fusion_lon": 0.0, "type": "electric_scooter", "bike_id": "3f394d03056e48400e0af1df9d363375", "name": "3f394d03056e48400e0af1df9d363375"}, {"lon": -77.041515, "is_disabled": 0, "lat": 38.906572833333335, "fusion_lat": 0.0, "is_reserved": 0, "rental_uris": {"ios": "https://dc.lft.to/lastmile_qr_scan", "android": "https://dc.lft.to/lastmile_qr_scan"}, "fusion_lon": 0.0, "type": "electric_scooter", "bike_id": "522e863ce62f858bc4a9dbf2a1680079", "name": "522e863ce62f858bc4a9dbf2a1680079"}, {"lon": -76.99626766666667, "is_disabled": 0, "lat": 38.90063816666667, "fusion_lat": 0.0, "is_reserved": 0, "rental_uris": {"ios": "https://dc.lft.to/lastmile_qr_scan", "android": "https://dc.lft.to/lastmile_qr_scan"}, "fusion_lon": 0.0, "type": "electric_scooter", "bike_id": "808de807a00f5cab60d29363de18bd3b", "name": "808de807a00f5cab60d29363de18bd3b"}, {"lon": -77.04204316666667, "is_disabled": 0, "lat": 38.920943, "fusion_lat": 0.0, "is_reserved": 0, "rental_uris": {"ios": "https://dc.lft.to/lastmile_qr_scan", "android": "https://dc.lft.to/lastmile_qr_scan"}, "fusion_lon": 0.0, "type": "electric_scooter", "bike_id": "69b5b97ddc2a5a337f875c5210617b2f", "name": "69b5b97ddc2a5a337f875c5210617b2f"}, {"lon": -77.0319785, "is_disabled": 0, "lat": 38.9205855, "fusion_lat": 0.0, "is_reserved": 0, "rental_uris": {"ios": "https://dc.lft.to/lastmile_qr_scan", "android": "https://dc.lft.to/lastmile_qr_scan"}, "fusion_lon": 0.0, "type": "electric_scooter", "bike_id": "a5b17bd953d8d08bb3e8a3627c04432b", "name": "a5b17bd953d8d08bb3e8a3627c04432b"}, {"lon": -76.94638816666667, "is_disabled": 0, "lat": 38.898627166666664, "fusion_lat": 0.0, "is_reserved": 0, "rental_uris": {"ios": "https://dc.lft.to/lastmile_qr_scan", "android": "https://dc.lft.to/lastmile_qr_scan"}, "fusion_lon": 0.0, "type": "electric_scooter", "bike_id": "3ea0de2b916c236df3dd3b33791d5382", "name": "3ea0de2b916c236df3dd3b33791d5382"}, {"lon": -77.03168116666667, "is_disabled": 0, "lat": 38.892306, "fusion_lat": 0.0, "is_reserved": 0, "rental_uris": {"ios": "https://dc.lft.to/lastmile_qr_scan", "android": "https://dc.lft.to/lastmile_qr_scan"}, "fusion_lon": 0.0, "type": "electric_scooter", "bike_id": "84010f823ff4414046edd1c0c7f08b05", "name": "84010f823ff4414046edd1c0c7f08b05"}, {"lon": -77.1253025, "is_disabled": 0, "lat": 39.056313, "fusion_lat": 0.0, "is_reserved": 0, "rental_uris": {"ios": "https://dc.lft.to/lastmile_qr_scan", "android": "https://dc.lft.to/lastmile_qr_scan"}, "fusion_lon": 0.0, "type": "electric_bike", "bike_id": "d19fa05b2dfe00c9013c53cace9df8d0", "name": "d19fa05b2dfe00c9013c53cace9df8d0"}, {"lon": -77.07169483333334, "is_disabled": 0, "lat": 38.938224166666664, "fusion_lat": 0.0, "is_reserved": 0, "rental_uris": {"ios": "https://dc.lft.to/lastmile_qr_scan", "android": "https://dc.lft.to/lastmile_qr_scan"}, "fusion_lon": 0.0, "type": "electric_scooter", "bike_id": "c513925208ba4c156df3306ea13a846c", "name": "c513925208ba4c156df3306ea13a846c"}, {"lon": -77.023209, "is_disabled": 0, "lat": 38.929455, "fusion_lat": 0.0, "is_reserved": 0, "rental_uris": {"ios": "https://dc.lft.to/lastmile_qr_scan", "android": "https://dc.lft.to/lastmile_qr_scan"}, "fusion_lon": 0.0, "type": "electric_scooter", "bike_id": "d3e0aa3e481e4cf15e33f241319f03b9", "name": "d3e0aa3e481e4cf15e33f241319f03b9"}, {"lon": -77.06514833333334, "is_disabled": 0, "lat": 38.90391783333333, "fusion_lat": 0.0, "is_reserved": 0, "rental_uris": {"ios": "https://dc.lft.to/lastmile_qr_scan", "android": "https://dc.lft.to/lastmile_qr_scan"}, "fusion_lon": 0.0, "type": "electric_scooter", "bike_id": "4d82c1a57c400071a1601a09eb5371e3", "name": "4d82c1a57c400071a1601a09eb5371e3"}, {"lon": -77.02417466666667, "is_disabled": 0, "lat": 38.915537, "fusion_lat": 0.0, "is_reserved": 0, "rental_uris": {"ios": "https://dc.lft.to/lastmile_qr_scan", "android": "https://dc.lft.to/lastmile_qr_scan"}, "fusion_lon": 0.0, "type": "electric_scooter", "bike_id": "3887c9e1e3630301375ea088fd4a2b1f", "name": "3887c9e1e3630301375ea088fd4a2b1f"}, {"lon": -77.05728583333334, "is_disabled": 0, "lat": 38.933649, "fusion_lat": 0.0, "is_reserved": 0, "rental_uris": {"ios": "https://dc.lft.to/lastmile_qr_scan", "android": "https://dc.lft.to/lastmile_qr_scan"}, "fusion_lon": 0.0, "type": "electric_scooter", "bike_id": "cfc2b8ce5d0e1f727fc078556c4c202f", "name": "cfc2b8ce5d0e1f727fc078556c4c202f"}, {"lon": -77.04168083333333, "is_disabled": 0, "lat": 38.90559, "fusion_lat": 0.0, "is_reserved": 0, "rental_uris": {"ios": "https://dc.lft.to/lastmile_qr_scan", "android": "https://dc.lft.to/lastmile_qr_scan"}, "fusion_lon": 0.0, "type": "electric_scooter", "bike_id": "13b9b7766ce58c8b29d8b53d3a393e03", "name": "13b9b7766ce58c8b29d8b53d3a393e03"}, {"lon": -77.060611, "is_disabled": 0, "lat": 38.9433205, "fusion_lat": 0.0, "is_reserved": 0, "rental_uris": {"ios": "https://dc.lft.to/lastmile_qr_scan", "android": "https://dc.lft.to/lastmile_qr_scan"}, "fusion_lon": 0.0, "type": "electric_scooter", "bike_id": "453b553f73fac3ba411b81820ea84b1f", "name": "453b553f73fac3ba411b81820ea84b1f"}, {"lon": -77.03988866666667, "is_disabled": 0, "lat": 38.9012945, "fusion_lat": 0.0, "is_reserved": 0, "rental_uris": {"ios": "https://dc.lft.to/lastmile_qr_scan", "android": "https://dc.lft.to/lastmile_qr_scan"}, "fusion_lon": 0.0, "type": "electric_scooter", "bike_id": "848c14e69868832bfdddb4e8e4081616", "name": "848c14e69868832bfdddb4e8e4081616"}, {"lon": -77.02153416666667, "is_disabled": 0, "lat": 38.914037666666665, "fusion_lat": 0.0, "is_reserved": 0, "rental_uris": {"ios": "https://dc.lft.to/lastmile_qr_scan", "android": "https://dc.lft.to/lastmile_qr_scan"}, "fusion_lon": 0.0, "type": "electric_scooter", "bike_id": "776cd475ab29b66e6a892169e029713a", "name": "776cd475ab29b66e6a892169e029713a"}, {"lon": -77.03257066666667, "is_disabled": 0, "lat": 38.905395666666664, "fusion_lat": 0.0, "is_reserved": 0, "rental_uris": {"ios": "https://dc.lft.to/lastmile_qr_scan", "android": "https://dc.lft.to/lastmile_qr_scan"}, "fusion_lon": 0.0, "type": "electric_scooter", "bike_id": "90ba57b5327a632ffedca5ae1bbcf499", "name": "90ba57b5327a632ffedca5ae1bbcf499"}, {"lon": -76.97174516666666, "is_disabled": 0, "lat": 38.861376666666665, "fusion_lat": 0.0, "is_reserved": 0, "rental_uris": {"ios": "https://dc.lft.to/lastmile_qr_scan", "android": "https://dc.lft.to/lastmile_qr_scan"}, "fusion_lon": 0.0, "type": "electric_scooter", "bike_id": "aef3caf8db4410b3442b8e7bf485c638", "name": "aef3caf8db4410b3442b8e7bf485c638"}, {"lon": -77.023541, "is_disabled": 0, "lat": 38.90963966666666, "fusion_lat": 0.0, "is_reserved": 0, "rental_uris": {"ios": "https://dc.lft.to/lastmile_qr_scan", "android": "https://dc.lft.to/lastmile_qr_scan"}, "fusion_lon": 0.0, "type": "electric_scooter", "bike_id": "aa970ecb65bded08dce564d0cb23da39", "name": "aa970ecb65bded08dce564d0cb23da39"}, {"lon": -77.024544, "is_disabled": 0, "lat": 38.908681, "fusion_lat": 0.0, "is_reserved": 0, "rental_uris": {"ios": "https://dc.lft.to/lastmile_qr_scan", "android": "https://dc.lft.to/lastmile_qr_scan"}, "fusion_lon": 0.0, "type": "electric_scooter", "bike_id": "38ff523611e0d24e97543223de4ae21f", "name": "38ff523611e0d24e97543223de4ae21f"}, {"lon": -77.04119, "is_disabled": 0, "lat": 38.9012815, "fusion_lat": 0.0, "is_reserved": 0, "rental_uris": {"ios": "https://dc.lft.to/lastmile_qr_scan", "android": "https://dc.lft.to/lastmile_qr_scan"}, "fusion_lon": 0.0, "type": "electric_scooter", "bike_id": "6053749a497f63854f8ab963ab2d51d1", "name": "6053749a497f63854f8ab963ab2d51d1"}, {"lon": -77.0448125, "is_disabled": 0, "lat": 38.904778666666665, "fusion_lat": 0.0, "is_reserved": 0, "rental_uris": {"ios": "https://dc.lft.to/lastmile_qr_scan", "android": "https://dc.lft.to/lastmile_qr_scan"}, "fusion_lon": 0.0, "type": "electric_scooter", "bike_id": "8dc4bb8309e89cbc6df6f2414b56c240", "name": "8dc4bb8309e89cbc6df6f2414b56c240"}, {"lon": -77.02197833333334, "is_disabled": 0, "lat": 38.90384183333333, "fusion_lat": 0.0, "is_reserved": 0, "rental_uris": {"ios": "https://dc.lft.to/lastmile_qr_scan", "android": "https://dc.lft.to/lastmile_qr_scan"}, "fusion_lon": 0.0, "type": "electric_scooter", "bike_id": "6f23b8e926fea71d66da363e7171df4b", "name": "6f23b8e926fea71d66da363e7171df4b"}, {"lon": -77.04122983333333, "is_disabled": 0, "lat": 38.9335805, "fusion_lat": 0.0, "is_reserved": 0, "rental_uris": {"ios": "https://dc.lft.to/lastmile_qr_scan", "android": "https://dc.lft.to/lastmile_qr_scan"}, "fusion_lon": 0.0, "type": "electric_scooter", "bike_id": "bb41f55c6f23566ad294a65672eac0b7", "name": "bb41f55c6f23566ad294a65672eac0b7"}, {"lon": -77.02586433333333, "is_disabled": 0, "lat": 38.898323500000004, "fusion_lat": 0.0, "is_reserved": 0, "rental_uris": {"ios": "https://dc.lft.to/lastmile_qr_scan", "android": "https://dc.lft.to/lastmile_qr_scan"}, "fusion_lon": 0.0, "type": "electric_scooter", "bike_id": "02fa9d910165858b720c6869624b8b37", "name": "02fa9d910165858b720c6869624b8b37"}, {"lon": -77.129783, "is_disabled": 0, "lat": 38.799875166666666, "fusion_lat": 0.0, "is_reserved": 0, "rental_uris": {"ios": "https://dc.lft.to/lastmile_qr_scan", "android": "https://dc.lft.to/lastmile_qr_scan"}, "fusion_lon": 0.0, "type": "electric_bike", "bike_id": "3947a6380623a94fa3b760e5e0503500", "name": "3947a6380623a94fa3b760e5e0503500"}, {"lon": -76.98589966666667, "is_disabled": 0, "lat": 38.85875716666666, "fusion_lat": 0.0, "is_reserved": 0, "rental_uris": {"ios": "https://dc.lft.to/lastmile_qr_scan", "android": "https://dc.lft.to/lastmile_qr_scan"}, "fusion_lon": 0.0, "type": "electric_scooter", "bike_id": "586f86f1041270057cf3ccdd2d86c146", "name": "586f86f1041270057cf3ccdd2d86c146"}, {"lon": -77.038753, "is_disabled": 0, "lat": 38.90806533333333, "fusion_lat": 0.0, "is_reserved": 0, "rental_uris": {"ios": "https://dc.lft.to/lastmile_qr_scan", "android": "https://dc.lft.to/lastmile_qr_scan"}, "fusion_lon": 0.0, "type": "electric_scooter", "bike_id": "d12e070857716d52563ecd60ae1066a0", "name": "d12e070857716d52563ecd60ae1066a0"}, {"lon": -77.0239515, "is_disabled": 0, "lat": 38.91675583333333, "fusion_lat": 0.0, "is_reserved": 0, "rental_uris": {"ios": "https://dc.lft.to/lastmile_qr_scan", "android": "https://dc.lft.to/lastmile_qr_scan"}, "fusion_lon": 0.0, "type": "electric_scooter", "bike_id": "3d4244b38f4c171dffb95cb19a16a5a3", "name": "3d4244b38f4c171dffb95cb19a16a5a3"}, {"lon": -77.02630216666667, "is_disabled": 0, "lat": 38.929931333333336, "fusion_lat": 0.0, "is_reserved": 0, "rental_uris": {"ios": "https://dc.lft.to/lastmile_qr_scan", "android": "https://dc.lft.to/lastmile_qr_scan"}, "fusion_lon": 0.0, "type": "electric_scooter", "bike_id": "509f9f396501cdc2585b6c8c4ecf7196", "name": "509f9f396501cdc2585b6c8c4ecf7196"}, {"lon": -77.018198, "is_disabled": 0, "lat": 38.9223435, "fusion_lat": 0.0, "is_reserved": 0, "rental_uris": {"ios": "https://dc.lft.to/lastmile_qr_scan", "android": "https://dc.lft.to/lastmile_qr_scan"}, "fusion_lon": 0.0, "type": "electric_scooter", "bike_id": "6e51edf8d039e6668b63a32fb43b90da", "name": "6e51edf8d039e6668b63a32fb43b90da"}, {"lon": -77.040422, "is_disabled": 0, "lat": 38.9058095, "fusion_lat": 0.0, "is_reserved": 0, "rental_uris": {"ios": "https://dc.lft.to/lastmile_qr_scan", "android": "https://dc.lft.to/lastmile_qr_scan"}, "fusion_lon": 0.0, "type": "electric_scooter", "bike_id": "460c9e0da86bde0332fa2a9f6aabda2e", "name": "460c9e0da86bde0332fa2a9f6aabda2e"}, {"lon": -77.03183816666666, "is_disabled": 0, "lat": 38.91570733333333, "fusion_lat": 0.0, "is_reserved": 0, "rental_uris": {"ios": "https://dc.lft.to/lastmile_qr_scan", "android": "https://dc.lft.to/lastmile_qr_scan"}, "fusion_lon": 0.0, "type": "electric_scooter", "bike_id": "ebe7b4a24798100172ee22fdb14f9dad", "name": "ebe7b4a24798100172ee22fdb14f9dad"}, {"lon": -77.013931, "is_disabled": 0, "lat": 38.9285045, "fusion_lat": 0.0, "is_reserved": 0, "rental_uris": {"ios": "https://dc.lft.to/lastmile_qr_scan", "android": "https://dc.lft.to/lastmile_qr_scan"}, "fusion_lon": 0.0, "type": "electric_scooter", "bike_id": "b1ded8caf1f42c64e3f28d4110b96181", "name": "b1ded8caf1f42c64e3f28d4110b96181"}, {"lon": -77.0109715, "is_disabled": 0, "lat": 38.873089666666665, "fusion_lat": 0.0, "is_reserved": 0, "rental_uris": {"ios": "https://dc.lft.to/lastmile_qr_scan", "android": "https://dc.lft.to/lastmile_qr_scan"}, "fusion_lon": 0.0, "type": "electric_bike", "bike_id": "8bc379293e42430319280e428a1619e5", "name": "8bc379293e42430319280e428a1619e5"}, {"lon": -76.96712316666667, "is_disabled": 0, "lat": 38.8604095, "fusion_lat": 0.0, "is_reserved": 0, "rental_uris": {"ios": "https://dc.lft.to/lastmile_qr_scan", "android": "https://dc.lft.to/lastmile_qr_scan"}, "fusion_lon": 0.0, "type": "electric_scooter", "bike_id": "2a959ca2d2bc031a685ccca11ae2985d", "name": "2a959ca2d2bc031a685ccca11ae2985d"}, {"lon": -77.019921, "is_disabled": 0, "lat": 38.8768155, "fusion_lat": 0.0, "is_reserved": 0, "rental_uris": {"ios": "https://dc.lft.to/lastmile_qr_scan", "android": "https://dc.lft.to/lastmile_qr_scan"}, "fusion_lon": 0.0, "type": "electric_scooter", "bike_id": "101ea41a2b8a6fc4187c75b48cfaf15a", "name": "101ea41a2b8a6fc4187c75b48cfaf15a"}, {"lon": -77.03356233333334, "is_disabled": 0, "lat": 38.9014075, "fusion_lat": 0.0, "is_reserved": 0, "rental_uris": {"ios": "https://dc.lft.to/lastmile_qr_scan", "android": "https://dc.lft.to/lastmile_qr_scan"}, "fusion_lon": 0.0, "type": "electric_scooter", "bike_id": "9d55921115c77c173d93433ffd5bb34b", "name": "9d55921115c77c173d93433ffd5bb34b"}, {"lon": -77.036464, "is_disabled": 0, "lat": 38.917459, "fusion_lat": 0.0, "is_reserved": 0, "rental_uris": {"ios": "https://dc.lft.to/lastmile_qr_scan", "android": "https://dc.lft.to/lastmile_qr_scan"}, "fusion_lon": 0.0, "type": "electric_scooter", "bike_id": "3e567ad012c3bed0ebd3b27c94c36d8a", "name": "3e567ad012c3bed0ebd3b27c94c36d8a"}, {"lon": -77.00255816666666, "is_disabled": 0, "lat": 38.8949055, "fusion_lat": 0.0, "is_reserved": 0, "rental_uris": {"ios": "https://dc.lft.to/lastmile_qr_scan", "android": "https://dc.lft.to/lastmile_qr_scan"}, "fusion_lon": 0.0, "type": "electric_scooter", "bike_id": "24cca9ec5d44189dc30bd3dcdcf130de", "name": "24cca9ec5d44189dc30bd3dcdcf130de"}, {"lon": -77.04188183333333, "is_disabled": 0, "lat": 38.92054433333333, "fusion_lat": 0.0, "is_reserved": 0, "rental_uris": {"ios": "https://dc.lft.to/lastmile_qr_scan", "android": "https://dc.lft.to/lastmile_qr_scan"}, "fusion_lon": 0.0, "type": "electric_scooter", "bike_id": "0743f260a90e8899eda4054b51e606b9", "name": "0743f260a90e8899eda4054b51e606b9"}, {"lon": -77.047642, "is_disabled": 0, "lat": 38.9175595, "fusion_lat": 0.0, "is_reserved": 0, "rental_uris": {"ios": "https://dc.lft.to/lastmile_qr_scan", "android": "https://dc.lft.to/lastmile_qr_scan"}, "fusion_lon": 0.0, "type": "electric_scooter", "bike_id": "93a2e209003e3fd98d9f5bf8b3f43ed4", "name": "93a2e209003e3fd98d9f5bf8b3f43ed4"}, {"lon": -77.00203433333333, "is_disabled": 0, "lat": 38.96504766666666, "fusion_lat": 0.0, "is_reserved": 0, "rental_uris": {"ios": "https://dc.lft.to/lastmile_qr_scan", "android": "https://dc.lft.to/lastmile_qr_scan"}, "fusion_lon": 0.0, "type": "electric_scooter", "bike_id": "8c63cfdc841a8ef021cab8f9f713b26e", "name": "8c63cfdc841a8ef021cab8f9f713b26e"}, {"lon": -77.00532966666667, "is_disabled": 0, "lat": 38.84642233333334, "fusion_lat": 0.0, "is_reserved": 0, "rental_uris": {"ios": "https://dc.lft.to/lastmile_qr_scan", "android": "https://dc.lft.to/lastmile_qr_scan"}, "fusion_lon": 0.0, "type": "electric_scooter", "bike_id": "721cfe3cebca9eb773801199e47d3968", "name": "721cfe3cebca9eb773801199e47d3968"}, {"lon": -77.03908783333334, "is_disabled": 0, "lat": 38.92361283333334, "fusion_lat": 0.0, "is_reserved": 0, "rental_uris": {"ios": "https://dc.lft.to/lastmile_qr_scan", "android": "https://dc.lft.to/lastmile_qr_scan"}, "fusion_lon": 0.0, "type": "electric_scooter", "bike_id": "fb26904bf34545e5b8ecdcf628775d14", "name": "fb26904bf34545e5b8ecdcf628775d14"}, {"lon": -77.04482266666666, "is_disabled": 0, "lat": 38.895232666666665, "fusion_lat": 0.0, "is_reserved": 0, "rental_uris": {"ios": "https://dc.lft.to/lastmile_qr_scan", "android": "https://dc.lft.to/lastmile_qr_scan"}, "fusion_lon": 0.0, "type": "electric_scooter", "bike_id": "ea7aed05a0556b14a1202e33ebdaa88e", "name": "ea7aed05a0556b14a1202e33ebdaa88e"}, {"lon": -77.02002666666667, "is_disabled": 0, "lat": 38.895498833333335, "fusion_lat": 0.0, "is_reserved": 0, "rental_uris": {"ios": "https://dc.lft.to/lastmile_qr_scan", "android": "https://dc.lft.to/lastmile_qr_scan"}, "fusion_lon": 0.0, "type": "electric_scooter", "bike_id": "9628fc3f82e1ab6efb2a2b834c7b7a1a", "name": "9628fc3f82e1ab6efb2a2b834c7b7a1a"}, {"lon": -77.04002416666667, "is_disabled": 0, "lat": 38.9342845, "fusion_lat": 0.0, "is_reserved": 0, "rental_uris": {"ios": "https://dc.lft.to/lastmile_qr_scan", "android": "https://dc.lft.to/lastmile_qr_scan"}, "fusion_lon": 0.0, "type": "electric_scooter", "bike_id": "d663ba1d2f82f07a464cf067f47a8ddc", "name": "d663ba1d2f82f07a464cf067f47a8ddc"}, {"lon": -77.00341016666667, "is_disabled": 0, "lat": 38.893564833333336, "fusion_lat": 0.0, "is_reserved": 0, "rental_uris": {"ios": "https://dc.lft.to/lastmile_qr_scan", "android": "https://dc.lft.to/lastmile_qr_scan"}, "fusion_lon": 0.0, "type": "electric_scooter", "bike_id": "3b92569d551f36c51cca133a01ee770a", "name": "3b92569d551f36c51cca133a01ee770a"}, {"lon": -77.039878, "is_disabled": 0, "lat": 38.8922345, "fusion_lat": 0.0, "is_reserved": 0, "rental_uris": {"ios": "https://dc.lft.to/lastmile_qr_scan", "android": "https://dc.lft.to/lastmile_qr_scan"}, "fusion_lon": 0.0, "type": "electric_scooter", "bike_id": "bea8e535981df4edd092c8c0f1816d2c", "name": "bea8e535981df4edd092c8c0f1816d2c"}, {"lon": -77.04370233333333, "is_disabled": 0, "lat": 38.8922195, "fusion_lat": 0.0, "is_reserved": 0, "rental_uris": {"ios": "https://dc.lft.to/lastmile_qr_scan", "android": "https://dc.lft.to/lastmile_qr_scan"}, "fusion_lon": 0.0, "type": "electric_scooter", "bike_id": "947e751ac0e633c07cd92279ca031c2d", "name": "947e751ac0e633c07cd92279ca031c2d"}, {"lon": -77.022026, "is_disabled": 0, "lat": 38.950083, "fusion_lat": 0.0, "is_reserved": 0, "rental_uris": {"ios": "https://dc.lft.to/lastmile_qr_scan", "android": "https://dc.lft.to/lastmile_qr_scan"}, "fusion_lon": 0.0, "type": "electric_scooter", "bike_id": "f858cd0a2113eb48a7ed642878936e65", "name": "f858cd0a2113eb48a7ed642878936e65"}, {"lon": -77.050269, "is_disabled": 0, "lat": 38.892480166666665, "fusion_lat": 0.0, "is_reserved": 0, "rental_uris": {"ios": "https://dc.lft.to/lastmile_qr_scan", "android": "https://dc.lft.to/lastmile_qr_scan"}, "fusion_lon": 0.0, "type": "electric_scooter", "bike_id": "60bcb8c5955e9aa6f60ee1e41dfe37a6", "name": "60bcb8c5955e9aa6f60ee1e41dfe37a6"}, {"lon": -76.97909016666667, "is_disabled": 0, "lat": 38.904281833333336, "fusion_lat": 0.0, "is_reserved": 0, "rental_uris": {"ios": "https://dc.lft.to/lastmile_qr_scan", "android": "https://dc.lft.to/lastmile_qr_scan"}, "fusion_lon": 0.0, "type": "electric_scooter", "bike_id": "64d816cc457d0c28be1de234a0027ea4", "name": "64d816cc457d0c28be1de234a0027ea4"}, {"lon": -77.02108983333333, "is_disabled": 0, "lat": 38.92176083333333, "fusion_lat": 0.0, "is_reserved": 0, "rental_uris": {"ios": "https://dc.lft.to/lastmile_qr_scan", "android": "https://dc.lft.to/lastmile_qr_scan"}, "fusion_lon": 0.0, "type": "electric_scooter", "bike_id": "80d26e94711d15450547be50b573ba1b", "name": "80d26e94711d15450547be50b573ba1b"}, {"lon": -77.07061933333334, "is_disabled": 0, "lat": 38.901084833333336, "fusion_lat": 0.0, "is_reserved": 0, "rental_uris": {"ios": "https://dc.lft.to/lastmile_qr_scan", "android": "https://dc.lft.to/lastmile_qr_scan"}, "fusion_lon": 0.0, "type": "electric_scooter", "bike_id": "569a92af5774eda486f7f8179a599b51", "name": "569a92af5774eda486f7f8179a599b51"}, {"lon": -76.94639, "is_disabled": 0, "lat": 38.89861366666667, "fusion_lat": 0.0, "is_reserved": 0, "rental_uris": {"ios": "https://dc.lft.to/lastmile_qr_scan", "android": "https://dc.lft.to/lastmile_qr_scan"}, "fusion_lon": 0.0, "type": "electric_scooter", "bike_id": "90a8029277d78e84558a4374e3577c42", "name": "90a8029277d78e84558a4374e3577c42"}, {"lon": -77.033686, "is_disabled": 0, "lat": 38.902991666666665, "fusion_lat": 0.0, "is_reserved": 0, "rental_uris": {"ios": "https://dc.lft.to/lastmile_qr_scan", "android": "https://dc.lft.to/lastmile_qr_scan"}, "fusion_lon": 0.0, "type": "electric_scooter", "bike_id": "a7bc2c22e22bea1d7baf633e578c5964", "name": "a7bc2c22e22bea1d7baf633e578c5964"}, {"lon": -77.03638033333333, "is_disabled": 0, "lat": 38.9270135, "fusion_lat": 0.0, "is_reserved": 0, "rental_uris": {"ios": "https://dc.lft.to/lastmile_qr_scan", "android": "https://dc.lft.to/lastmile_qr_scan"}, "fusion_lon": 0.0, "type": "electric_scooter", "bike_id": "1edcc93111bbf61478470ef911ccf664", "name": "1edcc93111bbf61478470ef911ccf664"}, {"lon": -77.06015733333334, "is_disabled": 0, "lat": 38.90506233333333, "fusion_lat": 0.0, "is_reserved": 0, "rental_uris": {"ios": "https://dc.lft.to/lastmile_qr_scan", "android": "https://dc.lft.to/lastmile_qr_scan"}, "fusion_lon": 0.0, "type": "electric_bike", "bike_id": "372be4147a2bd66da1cc4a0a3b96c5c5", "name": "372be4147a2bd66da1cc4a0a3b96c5c5"}, {"lon": -77.0254395, "is_disabled": 0, "lat": 38.8922305, "fusion_lat": 0.0, "is_reserved": 0, "rental_uris": {"ios": "https://dc.lft.to/lastmile_qr_scan", "android": "https://dc.lft.to/lastmile_qr_scan"}, "fusion_lon": 0.0, "type": "electric_scooter", "bike_id": "fe95020270b60f6a8b29d160db699b48", "name": "fe95020270b60f6a8b29d160db699b48"}, {"lon": -77.02709416666667, "is_disabled": 0, "lat": 38.899984, "fusion_lat": 0.0, "is_reserved": 0, "rental_uris": {"ios": "https://dc.lft.to/lastmile_qr_scan", "android": "https://dc.lft.to/lastmile_qr_scan"}, "fusion_lon": 0.0, "type": "electric_scooter", "bike_id": "9f3296fa5c83658ef13fbea0c518160c", "name": "9f3296fa5c83658ef13fbea0c518160c"}, {"lon": -76.99479, "is_disabled": 0, "lat": 38.90512366666667, "fusion_lat": 0.0, "is_reserved": 0, "rental_uris": {"ios": "https://dc.lft.to/lastmile_qr_scan", "android": "https://dc.lft.to/lastmile_qr_scan"}, "fusion_lon": 0.0, "type": "electric_scooter", "bike_id": "e613506bf2433c0f06462e145a33c089", "name": "e613506bf2433c0f06462e145a33c089"}, {"lon": -76.99014433333333, "is_disabled": 0, "lat": 38.911387166666664, "fusion_lat": 0.0, "is_reserved": 0, "rental_uris": {"ios": "https://dc.lft.to/lastmile_qr_scan", "android": "https://dc.lft.to/lastmile_qr_scan"}, "fusion_lon": 0.0, "type": "electric_scooter", "bike_id": "c2e04c102f9db8d7eb565fc086adfc7e", "name": "c2e04c102f9db8d7eb565fc086adfc7e"}, {"lon": -77.04547816666667, "is_disabled": 0, "lat": 38.9163675, "fusion_lat": 0.0, "is_reserved": 0, "rental_uris": {"ios": "https://dc.lft.to/lastmile_qr_scan", "android": "https://dc.lft.to/lastmile_qr_scan"}, "fusion_lon": 0.0, "type": "electric_scooter", "bike_id": "103bf2d52877d3f0f3a614b791006cb8", "name": "103bf2d52877d3f0f3a614b791006cb8"}, {"lon": -77.04443716666667, "is_disabled": 0, "lat": 38.8961195, "fusion_lat": 0.0, "is_reserved": 0, "rental_uris": {"ios": "https://dc.lft.to/lastmile_qr_scan", "android": "https://dc.lft.to/lastmile_qr_scan"}, "fusion_lon": 0.0, "type": "electric_scooter", "bike_id": "46ac90d9e3ed0847247fcccf3c970d63", "name": "46ac90d9e3ed0847247fcccf3c970d63"}, {"lon": -77.040484, "is_disabled": 0, "lat": 38.908710166666665, "fusion_lat": 0.0, "is_reserved": 0, "rental_uris": {"ios": "https://dc.lft.to/lastmile_qr_scan", "android": "https://dc.lft.to/lastmile_qr_scan"}, "fusion_lon": 0.0, "type": "electric_scooter", "bike_id": "57b9dd54da2db2e2f475f49eb02ad742", "name": "57b9dd54da2db2e2f475f49eb02ad742"}, {"lon": -77.01955733333334, "is_disabled": 0, "lat": 38.8983755, "fusion_lat": 0.0, "is_reserved": 0, "rental_uris": {"ios": "https://dc.lft.to/lastmile_qr_scan", "android": "https://dc.lft.to/lastmile_qr_scan"}, "fusion_lon": 0.0, "type": "electric_scooter", "bike_id": "5d62e60287047181403843d8b11d23d4", "name": "5d62e60287047181403843d8b11d23d4"}, {"lon": -77.0062825, "is_disabled": 0, "lat": 38.871714, "fusion_lat": 0.0, "is_reserved": 0, "rental_uris": {"ios": "https://dc.lft.to/lastmile_qr_scan", "android": "https://dc.lft.to/lastmile_qr_scan"}, "fusion_lon": 0.0, "type": "electric_scooter", "bike_id": "1d4418e04a3db57ee5e4d03d62e30e6c", "name": "1d4418e04a3db57ee5e4d03d62e30e6c"}, {"lon": -76.97614583333333, "is_disabled": 0, "lat": 38.903444666666665, "fusion_lat": 0.0, "is_reserved": 0, "rental_uris": {"ios": "https://dc.lft.to/lastmile_qr_scan", "android": "https://dc.lft.to/lastmile_qr_scan"}, "fusion_lon": 0.0, "type": "electric_scooter", "bike_id": "848d00e10c437259c8cf62df0c725c33", "name": "848d00e10c437259c8cf62df0c725c33"}, {"lon": -76.9843785, "is_disabled": 0, "lat": 38.893669833333334, "fusion_lat": 0.0, "is_reserved": 0, "rental_uris": {"ios": "https://dc.lft.to/lastmile_qr_scan", "android": "https://dc.lft.to/lastmile_qr_scan"}, "fusion_lon": 0.0, "type": "electric_scooter", "bike_id": "baa963b7e33eaf21c533965b0699534b", "name": "baa963b7e33eaf21c533965b0699534b"}, {"lon": -77.034053, "is_disabled": 0, "lat": 38.92437483333333, "fusion_lat": 0.0, "is_reserved": 0, "rental_uris": {"ios": "https://dc.lft.to/lastmile_qr_scan", "android": "https://dc.lft.to/lastmile_qr_scan"}, "fusion_lon": 0.0, "type": "electric_scooter", "bike_id": "7380e896364692bb5a9e8656aba55faa", "name": "7380e896364692bb5a9e8656aba55faa"}, {"lon": -77.1392915, "is_disabled": 0, "lat": 38.8730045, "fusion_lat": 0.0, "is_reserved": 0, "rental_uris": {"ios": "https://dc.lft.to/lastmile_qr_scan", "android": "https://dc.lft.to/lastmile_qr_scan"}, "fusion_lon": 0.0, "type": "electric_bike", "bike_id": "1b0f32aab7f9c472c15a7caf6cd5d95e", "name": "1b0f32aab7f9c472c15a7caf6cd5d95e"}, {"lon": -77.048339, "is_disabled": 0, "lat": 38.89838683333333, "fusion_lat": 0.0, "is_reserved": 0, "rental_uris": {"ios": "https://dc.lft.to/lastmile_qr_scan", "android": "https://dc.lft.to/lastmile_qr_scan"}, "fusion_lon": 0.0, "type": "electric_scooter", "bike_id": "8bda6dc319ec26af170bb49ba784485a", "name": "8bda6dc319ec26af170bb49ba784485a"}, {"lon": -77.03795316666667, "is_disabled": 0, "lat": 38.92635216666667, "fusion_lat": 0.0, "is_reserved": 0, "rental_uris": {"ios": "https://dc.lft.to/lastmile_qr_scan", "android": "https://dc.lft.to/lastmile_qr_scan"}, "fusion_lon": 0.0, "type": "electric_scooter", "bike_id": "fa769e821725e67e3fac966f181ca1fe", "name": "fa769e821725e67e3fac966f181ca1fe"}, {"lon": -77.0333025, "is_disabled": 0, "lat": 38.89834583333333, "fusion_lat": 0.0, "is_reserved": 0, "rental_uris": {"ios": "https://dc.lft.to/lastmile_qr_scan", "android": "https://dc.lft.to/lastmile_qr_scan"}, "fusion_lon": 0.0, "type": "electric_scooter", "bike_id": "a33b5d31a0e27d4bc95916d2e9734d1e", "name": "a33b5d31a0e27d4bc95916d2e9734d1e"}, {"lon": -76.99381816666667, "is_disabled": 0, "lat": 38.9909265, "fusion_lat": 0.0, "is_reserved": 0, "rental_uris": {"ios": "https://dc.lft.to/lastmile_qr_scan", "android": "https://dc.lft.to/lastmile_qr_scan"}, "fusion_lon": 0.0, "type": "electric_bike", "bike_id": "9a8e916c64890b269287e1745c163ffd", "name": "9a8e916c64890b269287e1745c163ffd"}, {"lon": -77.0073155, "is_disabled": 0, "lat": 38.88498333333333, "fusion_lat": 0.0, "is_reserved": 0, "rental_uris": {"ios": "https://dc.lft.to/lastmile_qr_scan", "android": "https://dc.lft.to/lastmile_qr_scan"}, "fusion_lon": 0.0, "type": "electric_scooter", "bike_id": "1509c94e46df7f1dbb69f1898838c402", "name": "1509c94e46df7f1dbb69f1898838c402"}, {"lon": -77.03202516666667, "is_disabled": 0, "lat": 38.90112533333333, "fusion_lat": 0.0, "is_reserved": 0, "rental_uris": {"ios": "https://dc.lft.to/lastmile_qr_scan", "android": "https://dc.lft.to/lastmile_qr_scan"}, "fusion_lon": 0.0, "type": "electric_scooter", "bike_id": "37965497a10f47f1913e2b9e8b152dde", "name": "37965497a10f47f1913e2b9e8b152dde"}, {"lon": -77.042583, "is_disabled": 0, "lat": 38.909889, "fusion_lat": 0.0, "is_reserved": 0, "rental_uris": {"ios": "https://dc.lft.to/lastmile_qr_scan", "android": "https://dc.lft.to/lastmile_qr_scan"}, "fusion_lon": 0.0, "type": "electric_scooter", "bike_id": "fc434eb0e427a5a41c4e42550f4769cf", "name": "fc434eb0e427a5a41c4e42550f4769cf"}, {"lon": -76.97173416666666, "is_disabled": 0, "lat": 38.8781675, "fusion_lat": 0.0, "is_reserved": 0, "rental_uris": {"ios": "https://dc.lft.to/lastmile_qr_scan", "android": "https://dc.lft.to/lastmile_qr_scan"}, "fusion_lon": 0.0, "type": "electric_scooter", "bike_id": "496846a07e50310fd82c63537a9cbe7d", "name": "496846a07e50310fd82c63537a9cbe7d"}, {"lon": -77.0450735, "is_disabled": 0, "lat": 38.893012666666664, "fusion_lat": 0.0, "is_reserved": 0, "rental_uris": {"ios": "https://dc.lft.to/lastmile_qr_scan", "android": "https://dc.lft.to/lastmile_qr_scan"}, "fusion_lon": 0.0, "type": "electric_scooter", "bike_id": "1217abc00d829b978a847f726154d494", "name": "1217abc00d829b978a847f726154d494"}, {"lon": -76.98174533333334, "is_disabled": 0, "lat": 38.916645, "fusion_lat": 0.0, "is_reserved": 0, "rental_uris": {"ios": "https://dc.lft.to/lastmile_qr_scan", "android": "https://dc.lft.to/lastmile_qr_scan"}, "fusion_lon": 0.0, "type": "electric_scooter", "bike_id": "842b64a9f56bb2a2417a7aca85a16264", "name": "842b64a9f56bb2a2417a7aca85a16264"}, {"lon": -77.01762033333333, "is_disabled": 0, "lat": 38.903324, "fusion_lat": 0.0, "is_reserved": 0, "rental_uris": {"ios": "https://dc.lft.to/lastmile_qr_scan", "android": "https://dc.lft.to/lastmile_qr_scan"}, "fusion_lon": 0.0, "type": "electric_scooter", "bike_id": "56fbf5dd535b1b88dc99433b2c959435", "name": "56fbf5dd535b1b88dc99433b2c959435"}, {"lon": -77.02486916666666, "is_disabled": 0, "lat": 38.9191155, "fusion_lat": 0.0, "is_reserved": 0, "rental_uris": {"ios": "https://dc.lft.to/lastmile_qr_scan", "android": "https://dc.lft.to/lastmile_qr_scan"}, "fusion_lon": 0.0, "type": "electric_scooter", "bike_id": "8d4e3e4d4b5bf93a30d445d2c9adc155", "name": "8d4e3e4d4b5bf93a30d445d2c9adc155"}, {"lon": -77.03281783333334, "is_disabled": 0, "lat": 38.928602166666664, "fusion_lat": 0.0, "is_reserved": 0, "rental_uris": {"ios": "https://dc.lft.to/lastmile_qr_scan", "android": "https://dc.lft.to/lastmile_qr_scan"}, "fusion_lon": 0.0, "type": "electric_scooter", "bike_id": "51bfa55f3eb1c570dfd146d91b4fe1fe", "name": "51bfa55f3eb1c570dfd146d91b4fe1fe"}, {"lon": -77.00244366666666, "is_disabled": 0, "lat": 38.87493766666667, "fusion_lat": 0.0, "is_reserved": 0, "rental_uris": {"ios": "https://dc.lft.to/lastmile_qr_scan", "android": "https://dc.lft.to/lastmile_qr_scan"}, "fusion_lon": 0.0, "type": "electric_scooter", "bike_id": "504f2d691605a5d9653e224feb6e1471", "name": "504f2d691605a5d9653e224feb6e1471"}, {"lon": -77.001765, "is_disabled": 0, "lat": 38.84454366666667, "fusion_lat": 0.0, "is_reserved": 0, "rental_uris": {"ios": "https://dc.lft.to/lastmile_qr_scan", "android": "https://dc.lft.to/lastmile_qr_scan"}, "fusion_lon": 0.0, "type": "electric_bike", "bike_id": "610568c39e326ecdf9057b55c98ae867", "name": "610568c39e326ecdf9057b55c98ae867"}, {"lon": -77.01546466666667, "is_disabled": 0, "lat": 38.88573866666667, "fusion_lat": 0.0, "is_reserved": 0, "rental_uris": {"ios": "https://dc.lft.to/lastmile_qr_scan", "android": "https://dc.lft.to/lastmile_qr_scan"}, "fusion_lon": 0.0, "type": "electric_scooter", "bike_id": "b639e37adea23149e1c7dc6e9c189f11", "name": "b639e37adea23149e1c7dc6e9c189f11"}, {"lon": -76.96060116666666, "is_disabled": 0, "lat": 38.8832135, "fusion_lat": 0.0, "is_reserved": 0, "rental_uris": {"ios": "https://dc.lft.to/lastmile_qr_scan", "android": "https://dc.lft.to/lastmile_qr_scan"}, "fusion_lon": 0.0, "type": "electric_bike", "bike_id": "ebbe8868db170407c6ccfd6c304a887b", "name": "ebbe8868db170407c6ccfd6c304a887b"}, {"lon": -77.0435285, "is_disabled": 0, "lat": 38.910396166666665, "fusion_lat": 0.0, "is_reserved": 0, "rental_uris": {"ios": "https://dc.lft.to/lastmile_qr_scan", "android": "https://dc.lft.to/lastmile_qr_scan"}, "fusion_lon": 0.0, "type": "electric_scooter", "bike_id": "298e0d3585fee9a2675fab386730617d", "name": "298e0d3585fee9a2675fab386730617d"}, {"lon": -77.04485533333333, "is_disabled": 0, "lat": 38.899629833333336, "fusion_lat": 0.0, "is_reserved": 0, "rental_uris": {"ios": "https://dc.lft.to/lastmile_qr_scan", "android": "https://dc.lft.to/lastmile_qr_scan"}, "fusion_lon": 0.0, "type": "electric_scooter", "bike_id": "c60dcf75fb239c88476c5c012abdc78f", "name": "c60dcf75fb239c88476c5c012abdc78f"}, {"lon": -77.02311916666666, "is_disabled": 0, "lat": 38.9170515, "fusion_lat": 0.0, "is_reserved": 0, "rental_uris": {"ios": "https://dc.lft.to/lastmile_qr_scan", "android": "https://dc.lft.to/lastmile_qr_scan"}, "fusion_lon": 0.0, "type": "electric_scooter", "bike_id": "4c0730fcb11ffbc29eb4441ada94396e", "name": "4c0730fcb11ffbc29eb4441ada94396e"}, {"lon": -77.024527, "is_disabled": 0, "lat": 38.91838883333333, "fusion_lat": 0.0, "is_reserved": 0, "rental_uris": {"ios": "https://dc.lft.to/lastmile_qr_scan", "android": "https://dc.lft.to/lastmile_qr_scan"}, "fusion_lon": 0.0, "type": "electric_scooter", "bike_id": "b261012cabcf6f805251f669f3d968bb", "name": "b261012cabcf6f805251f669f3d968bb"}, {"lon": -77.038376, "is_disabled": 0, "lat": 38.921729, "fusion_lat": 0.0, "is_reserved": 0, "rental_uris": {"ios": "https://dc.lft.to/lastmile_qr_scan", "android": "https://dc.lft.to/lastmile_qr_scan"}, "fusion_lon": 0.0, "type": "electric_scooter", "bike_id": "e6cf23da185b7f20513ece2bc6859a09", "name": "e6cf23da185b7f20513ece2bc6859a09"}, {"lon": -77.02030483333333, "is_disabled": 0, "lat": 38.9243095, "fusion_lat": 0.0, "is_reserved": 0, "rental_uris": {"ios": "https://dc.lft.to/lastmile_qr_scan", "android": "https://dc.lft.to/lastmile_qr_scan"}, "fusion_lon": 0.0, "type": "electric_scooter", "bike_id": "e8e6cd2e4b8d72a9b52d711e75c8578d", "name": "e8e6cd2e4b8d72a9b52d711e75c8578d"}, {"lon": -77.029658, "is_disabled": 0, "lat": 38.92750783333334, "fusion_lat": 0.0, "is_reserved": 0, "rental_uris": {"ios": "https://dc.lft.to/lastmile_qr_scan", "android": "https://dc.lft.to/lastmile_qr_scan"}, "fusion_lon": 0.0, "type": "electric_scooter", "bike_id": "8b329d0e1cd5728ca424551cfe2ae651", "name": "8b329d0e1cd5728ca424551cfe2ae651"}, {"lon": -76.97025583333334, "is_disabled": 0, "lat": 38.873550333333334, "fusion_lat": 0.0, "is_reserved": 0, "rental_uris": {"ios": "https://dc.lft.to/lastmile_qr_scan", "android": "https://dc.lft.to/lastmile_qr_scan"}, "fusion_lon": 0.0, "type": "electric_scooter", "bike_id": "2f1b802985ffcc1470ed21487bbacfde", "name": "2f1b802985ffcc1470ed21487bbacfde"}, {"lon": -77.041929, "is_disabled": 0, "lat": 38.9057145, "fusion_lat": 0.0, "is_reserved": 0, "rental_uris": {"ios": "https://dc.lft.to/lastmile_qr_scan", "android": "https://dc.lft.to/lastmile_qr_scan"}, "fusion_lon": 0.0, "type": "electric_scooter", "bike_id": "f51440e688528a59367bbd1e22f7b637", "name": "f51440e688528a59367bbd1e22f7b637"}, {"lon": -77.02561383333334, "is_disabled": 0, "lat": 38.919117, "fusion_lat": 0.0, "is_reserved": 0, "rental_uris": {"ios": "https://dc.lft.to/lastmile_qr_scan", "android": "https://dc.lft.to/lastmile_qr_scan"}, "fusion_lon": 0.0, "type": "electric_scooter", "bike_id": "e4105630e62f7d18625fdfb4c6de52a3", "name": "e4105630e62f7d18625fdfb4c6de52a3"}, {"lon": -77.027212, "is_disabled": 0, "lat": 38.91815366666667, "fusion_lat": 0.0, "is_reserved": 0, "rental_uris": {"ios": "https://dc.lft.to/lastmile_qr_scan", "android": "https://dc.lft.to/lastmile_qr_scan"}, "fusion_lon": 0.0, "type": "electric_scooter", "bike_id": "2b546781f8c5db11c03a0e7d9eedec32", "name": "2b546781f8c5db11c03a0e7d9eedec32"}, {"lon": -77.0447885, "is_disabled": 0, "lat": 38.93130933333333, "fusion_lat": 0.0, "is_reserved": 0, "rental_uris": {"ios": "https://dc.lft.to/lastmile_qr_scan", "android": "https://dc.lft.to/lastmile_qr_scan"}, "fusion_lon": 0.0, "type": "electric_scooter", "bike_id": "7b7f52eaa63b87d990d24940b864bdd6", "name": "7b7f52eaa63b87d990d24940b864bdd6"}, {"lon": -76.933719, "is_disabled": 0, "lat": 38.899135, "fusion_lat": 0.0, "is_reserved": 0, "rental_uris": {"ios": "https://dc.lft.to/lastmile_qr_scan", "android": "https://dc.lft.to/lastmile_qr_scan"}, "fusion_lon": 0.0, "type": "electric_scooter", "bike_id": "a963bc1e6a0ce5bd44930c50b0a05b55", "name": "a963bc1e6a0ce5bd44930c50b0a05b55"}, {"lon": -76.98383366666667, "is_disabled": 0, "lat": 38.89970866666667, "fusion_lat": 0.0, "is_reserved": 0, "rental_uris": {"ios": "https://dc.lft.to/lastmile_qr_scan", "android": "https://dc.lft.to/lastmile_qr_scan"}, "fusion_lon": 0.0, "type": "electric_scooter", "bike_id": "af157aa91e9cd765ec60962cc0576513", "name": "af157aa91e9cd765ec60962cc0576513"}, {"lon": -77.04643083333333, "is_disabled": 0, "lat": 38.904595, "fusion_lat": 0.0, "is_reserved": 0, "rental_uris": {"ios": "https://dc.lft.to/lastmile_qr_scan", "android": "https://dc.lft.to/lastmile_qr_scan"}, "fusion_lon": 0.0, "type": "electric_scooter", "bike_id": "60a93edb202ff78d53cfb8c0494a8717", "name": "60a93edb202ff78d53cfb8c0494a8717"}, {"lon": -76.97526733333333, "is_disabled": 0, "lat": 38.89859033333333, "fusion_lat": 0.0, "is_reserved": 0, "rental_uris": {"ios": "https://dc.lft.to/lastmile_qr_scan", "android": "https://dc.lft.to/lastmile_qr_scan"}, "fusion_lon": 0.0, "type": "electric_scooter", "bike_id": "6dbab451c1fa66f1e0417a16f41a8956", "name": "6dbab451c1fa66f1e0417a16f41a8956"}, {"lon": -77.04346666666666, "is_disabled": 0, "lat": 38.8983595, "fusion_lat": 0.0, "is_reserved": 0, "rental_uris": {"ios": "https://dc.lft.to/lastmile_qr_scan", "android": "https://dc.lft.to/lastmile_qr_scan"}, "fusion_lon": 0.0, "type": "electric_scooter", "bike_id": "bd2c1b3b5c0b880dc75b3ea5070bdb8b", "name": "bd2c1b3b5c0b880dc75b3ea5070bdb8b"}, {"lon": -77.02409116666666, "is_disabled": 0, "lat": 38.91413983333333, "fusion_lat": 0.0, "is_reserved": 0, "rental_uris": {"ios": "https://dc.lft.to/lastmile_qr_scan", "android": "https://dc.lft.to/lastmile_qr_scan"}, "fusion_lon": 0.0, "type": "electric_scooter", "bike_id": "12238048d9bbf955b19e77d63e7d87a4", "name": "12238048d9bbf955b19e77d63e7d87a4"}, {"lon": -77.04502466666666, "is_disabled": 0, "lat": 38.91424833333333, "fusion_lat": 0.0, "is_reserved": 0, "rental_uris": {"ios": "https://dc.lft.to/lastmile_qr_scan", "android": "https://dc.lft.to/lastmile_qr_scan"}, "fusion_lon": 0.0, "type": "electric_scooter", "bike_id": "8f01c049447b92da1b7671bef6579355", "name": "8f01c049447b92da1b7671bef6579355"}, {"lon": -77.04615733333333, "is_disabled": 0, "lat": 38.896110166666666, "fusion_lat": 0.0, "is_reserved": 0, "rental_uris": {"ios": "https://dc.lft.to/lastmile_qr_scan", "android": "https://dc.lft.to/lastmile_qr_scan"}, "fusion_lon": 0.0, "type": "electric_scooter", "bike_id": "21343a7853ab8e42109606c083158cb6", "name": "21343a7853ab8e42109606c083158cb6"}, {"lon": -77.00352533333333, "is_disabled": 0, "lat": 38.876649, "fusion_lat": 0.0, "is_reserved": 0, "rental_uris": {"ios": "https://dc.lft.to/lastmile_qr_scan", "android": "https://dc.lft.to/lastmile_qr_scan"}, "fusion_lon": 0.0, "type": "electric_scooter", "bike_id": "9e78b541d6a9844fe55b059a06dc059c", "name": "9e78b541d6a9844fe55b059a06dc059c"}, {"lon": -77.02954966666667, "is_disabled": 0, "lat": 38.897732166666664, "fusion_lat": 0.0, "is_reserved": 0, "rental_uris": {"ios": "https://dc.lft.to/lastmile_qr_scan", "android": "https://dc.lft.to/lastmile_qr_scan"}, "fusion_lon": 0.0, "type": "electric_scooter", "bike_id": "a6daf20eb92818719648f2dab72d8e3c", "name": "a6daf20eb92818719648f2dab72d8e3c"}, {"lon": -77.03303266666667, "is_disabled": 0, "lat": 38.8991925, "fusion_lat": 0.0, "is_reserved": 0, "rental_uris": {"ios": "https://dc.lft.to/lastmile_qr_scan", "android": "https://dc.lft.to/lastmile_qr_scan"}, "fusion_lon": 0.0, "type": "electric_scooter", "bike_id": "449063a9532d0f378ffee428ae4b7882", "name": "449063a9532d0f378ffee428ae4b7882"}, {"lon": -77.05398233333334, "is_disabled": 0, "lat": 38.804443, "fusion_lat": 0.0, "is_reserved": 0, "rental_uris": {"ios": "https://dc.lft.to/lastmile_qr_scan", "android": "https://dc.lft.to/lastmile_qr_scan"}, "fusion_lon": 0.0, "type": "electric_bike", "bike_id": "5f561b4773153564fcd659487745a312", "name": "5f561b4773153564fcd659487745a312"}, {"lon": -77.024545, "is_disabled": 0, "lat": 38.93586416666667, "fusion_lat": 0.0, "is_reserved": 0, "rental_uris": {"ios": "https://dc.lft.to/lastmile_qr_scan", "android": "https://dc.lft.to/lastmile_qr_scan"}, "fusion_lon": 0.0, "type": "electric_scooter", "bike_id": "3a73a2db4ddb477fae43d7bbbe904ceb", "name": "3a73a2db4ddb477fae43d7bbbe904ceb"}, {"lon": -77.04836633333333, "is_disabled": 0, "lat": 38.89837716666667, "fusion_lat": 0.0, "is_reserved": 0, "rental_uris": {"ios": "https://dc.lft.to/lastmile_qr_scan", "android": "https://dc.lft.to/lastmile_qr_scan"}, "fusion_lon": 0.0, "type": "electric_scooter", "bike_id": "d448f1c4464284a98a76b5232bea978b", "name": "d448f1c4464284a98a76b5232bea978b"}, {"lon": -77.04261716666667, "is_disabled": 0, "lat": 38.90653983333333, "fusion_lat": 0.0, "is_reserved": 0, "rental_uris": {"ios": "https://dc.lft.to/lastmile_qr_scan", "android": "https://dc.lft.to/lastmile_qr_scan"}, "fusion_lon": 0.0, "type": "electric_scooter", "bike_id": "832dc9589ee9629330bc371eda9fc640", "name": "832dc9589ee9629330bc371eda9fc640"}, {"lon": -77.049288, "is_disabled": 0, "lat": 38.91825633333333, "fusion_lat": 0.0, "is_reserved": 0, "rental_uris": {"ios": "https://dc.lft.to/lastmile_qr_scan", "android": "https://dc.lft.to/lastmile_qr_scan"}, "fusion_lon": 0.0, "type": "electric_scooter", "bike_id": "d1ec90995fad1d714225da97920fe380", "name": "d1ec90995fad1d714225da97920fe380"}, {"lon": -77.0451065, "is_disabled": 0, "lat": 38.899670666666665, "fusion_lat": 0.0, "is_reserved": 0, "rental_uris": {"ios": "https://dc.lft.to/lastmile_qr_scan", "android": "https://dc.lft.to/lastmile_qr_scan"}, "fusion_lon": 0.0, "type": "electric_scooter", "bike_id": "78fb65325e8921f3d315974829ed9af5", "name": "78fb65325e8921f3d315974829ed9af5"}, {"lon": -77.03247666666667, "is_disabled": 0, "lat": 38.909644, "fusion_lat": 0.0, "is_reserved": 0, "rental_uris": {"ios": "https://dc.lft.to/lastmile_qr_scan", "android": "https://dc.lft.to/lastmile_qr_scan"}, "fusion_lon": 0.0, "type": "electric_scooter", "bike_id": "396f00c85fd23b3e0e19b19307e2505d", "name": "396f00c85fd23b3e0e19b19307e2505d"}, {"lon": -77.0321695, "is_disabled": 0, "lat": 38.9013965, "fusion_lat": 0.0, "is_reserved": 0, "rental_uris": {"ios": "https://dc.lft.to/lastmile_qr_scan", "android": "https://dc.lft.to/lastmile_qr_scan"}, "fusion_lon": 0.0, "type": "electric_scooter", "bike_id": "4b0e85ce53e89300776c9a8be3d12410", "name": "4b0e85ce53e89300776c9a8be3d12410"}, {"lon": -77.05265066666666, "is_disabled": 0, "lat": 38.927767333333335, "fusion_lat": 0.0, "is_reserved": 0, "rental_uris": {"ios": "https://dc.lft.to/lastmile_qr_scan", "android": "https://dc.lft.to/lastmile_qr_scan"}, "fusion_lon": 0.0, "type": "electric_scooter", "bike_id": "f535db1ebd8583f79e2fe6fda483d2f5", "name": "f535db1ebd8583f79e2fe6fda483d2f5"}, {"lon": -77.0310365, "is_disabled": 0, "lat": 38.88325016666667, "fusion_lat": 0.0, "is_reserved": 0, "rental_uris": {"ios": "https://dc.lft.to/lastmile_qr_scan", "android": "https://dc.lft.to/lastmile_qr_scan"}, "fusion_lon": 0.0, "type": "electric_scooter", "bike_id": "fb71f9f84f16bcd68654c5392a6d91ee", "name": "fb71f9f84f16bcd68654c5392a6d91ee"}, {"lon": -77.04733466666667, "is_disabled": 0, "lat": 38.9007865, "fusion_lat": 0.0, "is_reserved": 0, "rental_uris": {"ios": "https://dc.lft.to/lastmile_qr_scan", "android": "https://dc.lft.to/lastmile_qr_scan"}, "fusion_lon": 0.0, "type": "electric_scooter", "bike_id": "1964a04056c57cd3e96b8c20270e4f11", "name": "1964a04056c57cd3e96b8c20270e4f11"}, {"lon": -77.032059, "is_disabled": 0, "lat": 38.944090333333335, "fusion_lat": 0.0, "is_reserved": 0, "rental_uris": {"ios": "https://dc.lft.to/lastmile_qr_scan", "android": "https://dc.lft.to/lastmile_qr_scan"}, "fusion_lon": 0.0, "type": "electric_bike", "bike_id": "8adc56193c6493f59b21e174c0bcfa1a", "name": "8adc56193c6493f59b21e174c0bcfa1a"}, {"lon": -77.02376166666667, "is_disabled": 0, "lat": 38.91788066666667, "fusion_lat": 0.0, "is_reserved": 0, "rental_uris": {"ios": "https://dc.lft.to/lastmile_qr_scan", "android": "https://dc.lft.to/lastmile_qr_scan"}, "fusion_lon": 0.0, "type": "electric_scooter", "bike_id": "6a6ab51b43f47852f7bf355d1fdabc34", "name": "6a6ab51b43f47852f7bf355d1fdabc34"}, {"lon": -77.0272015, "is_disabled": 0, "lat": 38.91818833333333, "fusion_lat": 0.0, "is_reserved": 0, "rental_uris": {"ios": "https://dc.lft.to/lastmile_qr_scan", "android": "https://dc.lft.to/lastmile_qr_scan"}, "fusion_lon": 0.0, "type": "electric_scooter", "bike_id": "daae9944349bcee9ab32785caa50b710", "name": "daae9944349bcee9ab32785caa50b710"}, {"lon": -76.98963633333334, "is_disabled": 0, "lat": 38.85876433333333, "fusion_lat": 0.0, "is_reserved": 0, "rental_uris": {"ios": "https://dc.lft.to/lastmile_qr_scan", "android": "https://dc.lft.to/lastmile_qr_scan"}, "fusion_lon": 0.0, "type": "electric_scooter", "bike_id": "443c8dbe2268aa4e5b2f48b9f82bb1c4", "name": "443c8dbe2268aa4e5b2f48b9f82bb1c4"}, {"lon": -77.04301683333334, "is_disabled": 0, "lat": 38.931861166666664, "fusion_lat": 0.0, "is_reserved": 0, "rental_uris": {"ios": "https://dc.lft.to/lastmile_qr_scan", "android": "https://dc.lft.to/lastmile_qr_scan"}, "fusion_lon": 0.0, "type": "electric_scooter", "bike_id": "13e6e987379214b2371223d27b2451e4", "name": "13e6e987379214b2371223d27b2451e4"}, {"lon": -76.9290875, "is_disabled": 0, "lat": 38.89843483333333, "fusion_lat": 0.0, "is_reserved": 0, "rental_uris": {"ios": "https://dc.lft.to/lastmile_qr_scan", "android": "https://dc.lft.to/lastmile_qr_scan"}, "fusion_lon": 0.0, "type": "electric_scooter", "bike_id": "29548065be3b0fd1cf8da084c91c7fb4", "name": "29548065be3b0fd1cf8da084c91c7fb4"}, {"lon": -77.02391283333333, "is_disabled": 0, "lat": 38.9171305, "fusion_lat": 0.0, "is_reserved": 0, "rental_uris": {"ios": "https://dc.lft.to/lastmile_qr_scan", "android": "https://dc.lft.to/lastmile_qr_scan"}, "fusion_lon": 0.0, "type": "electric_scooter", "bike_id": "b40bd98e49a44b259362e1280bce0242", "name": "b40bd98e49a44b259362e1280bce0242"}, {"lon": -77.02978083333333, "is_disabled": 0, "lat": 38.919882666666666, "fusion_lat": 0.0, "is_reserved": 0, "rental_uris": {"ios": "https://dc.lft.to/lastmile_qr_scan", "android": "https://dc.lft.to/lastmile_qr_scan"}, "fusion_lon": 0.0, "type": "electric_scooter", "bike_id": "d05d4c9b3ef6ab7a8679ed12d021e205", "name": "d05d4c9b3ef6ab7a8679ed12d021e205"}, {"lon": -77.00228033333333, "is_disabled": 0, "lat": 38.92507916666667, "fusion_lat": 0.0, "is_reserved": 0, "rental_uris": {"ios": "https://dc.lft.to/lastmile_qr_scan", "android": "https://dc.lft.to/lastmile_qr_scan"}, "fusion_lon": 0.0, "type": "electric_scooter", "bike_id": "d7d2ffc8ed3ac5680dbb3470c8279224", "name": "d7d2ffc8ed3ac5680dbb3470c8279224"}, {"lon": -77.02410383333333, "is_disabled": 0, "lat": 38.913972333333334, "fusion_lat": 0.0, "is_reserved": 0, "rental_uris": {"ios": "https://dc.lft.to/lastmile_qr_scan", "android": "https://dc.lft.to/lastmile_qr_scan"}, "fusion_lon": 0.0, "type": "electric_scooter", "bike_id": "1a416e4b0216d88889e78b0da1dbc675", "name": "1a416e4b0216d88889e78b0da1dbc675"}, {"lon": -77.01899366666666, "is_disabled": 0, "lat": 38.90920466666667, "fusion_lat": 0.0, "is_reserved": 0, "rental_uris": {"ios": "https://dc.lft.to/lastmile_qr_scan", "android": "https://dc.lft.to/lastmile_qr_scan"}, "fusion_lon": 0.0, "type": "electric_scooter", "bike_id": "d91ae8b0d0bc3f7b9fe343ade1890607", "name": "d91ae8b0d0bc3f7b9fe343ade1890607"}, {"lon": -77.00205666666666, "is_disabled": 0, "lat": 38.902958166666664, "fusion_lat": 0.0, "is_reserved": 0, "rental_uris": {"ios": "https://dc.lft.to/lastmile_qr_scan", "android": "https://dc.lft.to/lastmile_qr_scan"}, "fusion_lon": 0.0, "type": "electric_scooter", "bike_id": "935932b29206f60536a155de5753aed5", "name": "935932b29206f60536a155de5753aed5"}, {"lon": -77.02312016666667, "is_disabled": 0, "lat": 38.90094233333333, "fusion_lat": 0.0, "is_reserved": 0, "rental_uris": {"ios": "https://dc.lft.to/lastmile_qr_scan", "android": "https://dc.lft.to/lastmile_qr_scan"}, "fusion_lon": 0.0, "type": "electric_scooter", "bike_id": "8ca0050043e19de3be4db80536c9541e", "name": "8ca0050043e19de3be4db80536c9541e"}, {"lon": -77.03175933333333, "is_disabled": 0, "lat": 38.915531, "fusion_lat": 0.0, "is_reserved": 0, "rental_uris": {"ios": "https://dc.lft.to/lastmile_qr_scan", "android": "https://dc.lft.to/lastmile_qr_scan"}, "fusion_lon": 0.0, "type": "electric_scooter", "bike_id": "db6efa63e4387ca7f35c0e719cffd9e7", "name": "db6efa63e4387ca7f35c0e719cffd9e7"}, {"lon": -77.02290483333333, "is_disabled": 0, "lat": 38.91568783333334, "fusion_lat": 0.0, "is_reserved": 0, "rental_uris": {"ios": "https://dc.lft.to/lastmile_qr_scan", "android": "https://dc.lft.to/lastmile_qr_scan"}, "fusion_lon": 0.0, "type": "electric_scooter", "bike_id": "52f090e8b236fc1a8e4d32e4312980e6", "name": "52f090e8b236fc1a8e4d32e4312980e6"}, {"lon": -77.16242933333334, "is_disabled": 0, "lat": 38.886676666666666, "fusion_lat": 0.0, "is_reserved": 0, "rental_uris": {"ios": "https://dc.lft.to/lastmile_qr_scan", "android": "https://dc.lft.to/lastmile_qr_scan"}, "fusion_lon": 0.0, "type": "electric_bike", "bike_id": "97895c4db87bdc62512a387f89f8029b", "name": "97895c4db87bdc62512a387f89f8029b"}, {"lon": -77.02496716666667, "is_disabled": 0, "lat": 38.91808533333333, "fusion_lat": 0.0, "is_reserved": 0, "rental_uris": {"ios": "https://dc.lft.to/lastmile_qr_scan", "android": "https://dc.lft.to/lastmile_qr_scan"}, "fusion_lon": 0.0, "type": "electric_scooter", "bike_id": "8ba2863e653e15a1c19d35e3fe1bc1d0", "name": "8ba2863e653e15a1c19d35e3fe1bc1d0"}, {"lon": -77.06343633333333, "is_disabled": 0, "lat": 38.9068025, "fusion_lat": 0.0, "is_reserved": 0, "rental_uris": {"ios": "https://dc.lft.to/lastmile_qr_scan", "android": "https://dc.lft.to/lastmile_qr_scan"}, "fusion_lon": 0.0, "type": "electric_scooter", "bike_id": "92bb8a972c94210cc50abd8636d4542b", "name": "92bb8a972c94210cc50abd8636d4542b"}, {"lon": -77.0222525, "is_disabled": 0, "lat": 38.9056495, "fusion_lat": 0.0, "is_reserved": 0, "rental_uris": {"ios": "https://dc.lft.to/lastmile_qr_scan", "android": "https://dc.lft.to/lastmile_qr_scan"}, "fusion_lon": 0.0, "type": "electric_scooter", "bike_id": "049d87834fe103c09d2027691a7e08dd", "name": "049d87834fe103c09d2027691a7e08dd"}, {"lon": -77.03351966666666, "is_disabled": 0, "lat": 38.902854833333336, "fusion_lat": 0.0, "is_reserved": 0, "rental_uris": {"ios": "https://dc.lft.to/lastmile_qr_scan", "android": "https://dc.lft.to/lastmile_qr_scan"}, "fusion_lon": 0.0, "type": "electric_scooter", "bike_id": "d04e081f220b5960e62edec4d07c1a17", "name": "d04e081f220b5960e62edec4d07c1a17"}, {"lon": -77.0028435, "is_disabled": 0, "lat": 38.95711583333333, "fusion_lat": 0.0, "is_reserved": 0, "rental_uris": {"ios": "https://dc.lft.to/lastmile_qr_scan", "android": "https://dc.lft.to/lastmile_qr_scan"}, "fusion_lon": 0.0, "type": "electric_bike", "bike_id": "eb90b0b15e1cb154fd2e9d4b5f64d15d", "name": "eb90b0b15e1cb154fd2e9d4b5f64d15d"}, {"lon": -77.0429695, "is_disabled": 0, "lat": 38.908986, "fusion_lat": 0.0, "is_reserved": 0, "rental_uris": {"ios": "https://dc.lft.to/lastmile_qr_scan", "android": "https://dc.lft.to/lastmile_qr_scan"}, "fusion_lon": 0.0, "type": "electric_scooter", "bike_id": "f79dcf24ead80c73357aff01d66f246e", "name": "f79dcf24ead80c73357aff01d66f246e"}, {"lon": -77.01324016666666, "is_disabled": 0, "lat": 38.92959583333333, "fusion_lat": 0.0, "is_reserved": 0, "rental_uris": {"ios": "https://dc.lft.to/lastmile_qr_scan", "android": "https://dc.lft.to/lastmile_qr_scan"}, "fusion_lon": 0.0, "type": "electric_scooter", "bike_id": "4f81af4b0e353ea8b7f18357c1dc1d56", "name": "4f81af4b0e353ea8b7f18357c1dc1d56"}, {"lon": -77.0597495, "is_disabled": 0, "lat": 38.901063666666666, "fusion_lat": 0.0, "is_reserved": 0, "rental_uris": {"ios": "https://dc.lft.to/lastmile_qr_scan", "android": "https://dc.lft.to/lastmile_qr_scan"}, "fusion_lon": 0.0, "type": "electric_scooter", "bike_id": "75b20ebac527f1eec07ce9a3b8b98d10", "name": "75b20ebac527f1eec07ce9a3b8b98d10"}, {"lon": -77.0506115, "is_disabled": 0, "lat": 38.90538083333333, "fusion_lat": 0.0, "is_reserved": 0, "rental_uris": {"ios": "https://dc.lft.to/lastmile_qr_scan", "android": "https://dc.lft.to/lastmile_qr_scan"}, "fusion_lon": 0.0, "type": "electric_scooter", "bike_id": "4509d8f136053dc88b42ef71941b8a43", "name": "4509d8f136053dc88b42ef71941b8a43"}, {"lon": -77.007109, "is_disabled": 0, "lat": 38.88494383333333, "fusion_lat": 0.0, "is_reserved": 0, "rental_uris": {"ios": "https://dc.lft.to/lastmile_qr_scan", "android": "https://dc.lft.to/lastmile_qr_scan"}, "fusion_lon": 0.0, "type": "electric_scooter", "bike_id": "1faa35b4652a5739fa9f01abd114a3be", "name": "1faa35b4652a5739fa9f01abd114a3be"}, {"lon": -77.0185315, "is_disabled": 0, "lat": 38.9097115, "fusion_lat": 0.0, "is_reserved": 0, "rental_uris": {"ios": "https://dc.lft.to/lastmile_qr_scan", "android": "https://dc.lft.to/lastmile_qr_scan"}, "fusion_lon": 0.0, "type": "electric_scooter", "bike_id": "78cb5e17244428a0f628d9dd443cb6c3", "name": "78cb5e17244428a0f628d9dd443cb6c3"}, {"lon": -77.03854916666667, "is_disabled": 0, "lat": 38.907179666666664, "fusion_lat": 0.0, "is_reserved": 0, "rental_uris": {"ios": "https://dc.lft.to/lastmile_qr_scan", "android": "https://dc.lft.to/lastmile_qr_scan"}, "fusion_lon": 0.0, "type": "electric_scooter", "bike_id": "af45b8ba367c46ed078c7654a74e1385", "name": "af45b8ba367c46ed078c7654a74e1385"}, {"lon": -76.98879283333333, "is_disabled": 0, "lat": 38.866580166666665, "fusion_lat": 0.0, "is_reserved": 0, "rental_uris": {"ios": "https://dc.lft.to/lastmile_qr_scan", "android": "https://dc.lft.to/lastmile_qr_scan"}, "fusion_lon": 0.0, "type": "electric_scooter", "bike_id": "acaed055299948df5e81a294674579be", "name": "acaed055299948df5e81a294674579be"}, {"lon": -77.042794, "is_disabled": 0, "lat": 38.91404466666667, "fusion_lat": 0.0, "is_reserved": 0, "rental_uris": {"ios": "https://dc.lft.to/lastmile_qr_scan", "android": "https://dc.lft.to/lastmile_qr_scan"}, "fusion_lon": 0.0, "type": "electric_scooter", "bike_id": "00878014a8ca2bba9b1dadb708fceacd", "name": "00878014a8ca2bba9b1dadb708fceacd"}, {"lon": -77.01148416666666, "is_disabled": 0, "lat": 38.896414666666665, "fusion_lat": 0.0, "is_reserved": 0, "rental_uris": {"ios": "https://dc.lft.to/lastmile_qr_scan", "android": "https://dc.lft.to/lastmile_qr_scan"}, "fusion_lon": 0.0, "type": "electric_scooter", "bike_id": "d3572ae7c6cf3e6ffa1689a4f2551890", "name": "d3572ae7c6cf3e6ffa1689a4f2551890"}, {"lon": -77.04110233333333, "is_disabled": 0, "lat": 38.910388833333336, "fusion_lat": 0.0, "is_reserved": 0, "rental_uris": {"ios": "https://dc.lft.to/lastmile_qr_scan", "android": "https://dc.lft.to/lastmile_qr_scan"}, "fusion_lon": 0.0, "type": "electric_scooter", "bike_id": "c45f4dca3490886b404763676f48bbbb", "name": "c45f4dca3490886b404763676f48bbbb"}, {"lon": -76.98180733333334, "is_disabled": 0, "lat": 38.86966183333333, "fusion_lat": 0.0, "is_reserved": 0, "rental_uris": {"ios": "https://dc.lft.to/lastmile_qr_scan", "android": "https://dc.lft.to/lastmile_qr_scan"}, "fusion_lon": 0.0, "type": "electric_scooter", "bike_id": "2f8c8b59e1ba7816179a4b64371a8f92", "name": "2f8c8b59e1ba7816179a4b64371a8f92"}, {"lon": -77.03094916666667, "is_disabled": 0, "lat": 38.9170365, "fusion_lat": 0.0, "is_reserved": 0, "rental_uris": {"ios": "https://dc.lft.to/lastmile_qr_scan", "android": "https://dc.lft.to/lastmile_qr_scan"}, "fusion_lon": 0.0, "type": "electric_scooter", "bike_id": "eaa16ee035d86f1732342f3f84921098", "name": "eaa16ee035d86f1732342f3f84921098"}, {"lon": -77.03326733333333, "is_disabled": 0, "lat": 38.89837833333333, "fusion_lat": 0.0, "is_reserved": 0, "rental_uris": {"ios": "https://dc.lft.to/lastmile_qr_scan", "android": "https://dc.lft.to/lastmile_qr_scan"}, "fusion_lon": 0.0, "type": "electric_scooter", "bike_id": "1b13fb4649b949d66f06ec8ed603d972", "name": "1b13fb4649b949d66f06ec8ed603d972"}, {"lon": -77.0378775, "is_disabled": 0, "lat": 38.930229833333335, "fusion_lat": 0.0, "is_reserved": 0, "rental_uris": {"ios": "https://dc.lft.to/lastmile_qr_scan", "android": "https://dc.lft.to/lastmile_qr_scan"}, "fusion_lon": 0.0, "type": "electric_scooter", "bike_id": "71004fd90e7d5d3bd77fe4a27ec207ee", "name": "71004fd90e7d5d3bd77fe4a27ec207ee"}, {"lon": -76.97844016666667, "is_disabled": 0, "lat": 38.8984775, "fusion_lat": 0.0, "is_reserved": 0, "rental_uris": {"ios": "https://dc.lft.to/lastmile_qr_scan", "android": "https://dc.lft.to/lastmile_qr_scan"}, "fusion_lon": 0.0, "type": "electric_scooter", "bike_id": "b4816b406e3a7f31f9c9b6cebac579ac", "name": "b4816b406e3a7f31f9c9b6cebac579ac"}, {"lon": -77.228924, "is_disabled": 0, "lat": 38.90957316666667, "fusion_lat": 0.0, "is_reserved": 0, "rental_uris": {"ios": "https://dc.lft.to/lastmile_qr_scan", "android": "https://dc.lft.to/lastmile_qr_scan"}, "fusion_lon": 0.0, "type": "electric_bike", "bike_id": "7c7397c19d5aefc78f4d089e262f8d77", "name": "7c7397c19d5aefc78f4d089e262f8d77"}, {"lon": -77.04819566666667, "is_disabled": 0, "lat": 38.909534666666666, "fusion_lat": 0.0, "is_reserved": 0, "rental_uris": {"ios": "https://dc.lft.to/lastmile_qr_scan", "android": "https://dc.lft.to/lastmile_qr_scan"}, "fusion_lon": 0.0, "type": "electric_scooter", "bike_id": "929dd1f2d4758f2088a1481536dc66a5", "name": "929dd1f2d4758f2088a1481536dc66a5"}, {"lon": -77.03933416666666, "is_disabled": 0, "lat": 38.898568, "fusion_lat": 0.0, "is_reserved": 0, "rental_uris": {"ios": "https://dc.lft.to/lastmile_qr_scan", "android": "https://dc.lft.to/lastmile_qr_scan"}, "fusion_lon": 0.0, "type": "electric_scooter", "bike_id": "cea2a3af232430532d4cee6d36e4c493", "name": "cea2a3af232430532d4cee6d36e4c493"}, {"lon": -77.03936133333333, "is_disabled": 0, "lat": 38.92628833333333, "fusion_lat": 0.0, "is_reserved": 0, "rental_uris": {"ios": "https://dc.lft.to/lastmile_qr_scan", "android": "https://dc.lft.to/lastmile_qr_scan"}, "fusion_lon": 0.0, "type": "electric_scooter", "bike_id": "0f8a42b125c088673c17ad75b2965562", "name": "0f8a42b125c088673c17ad75b2965562"}, {"lon": -77.01756816666666, "is_disabled": 0, "lat": 38.902663, "fusion_lat": 0.0, "is_reserved": 0, "rental_uris": {"ios": "https://dc.lft.to/lastmile_qr_scan", "android": "https://dc.lft.to/lastmile_qr_scan"}, "fusion_lon": 0.0, "type": "electric_scooter", "bike_id": "01fd5da8adfa507a931cb969cc888549", "name": "01fd5da8adfa507a931cb969cc888549"}, {"lon": -77.042032, "is_disabled": 0, "lat": 38.920979833333334, "fusion_lat": 0.0, "is_reserved": 0, "rental_uris": {"ios": "https://dc.lft.to/lastmile_qr_scan", "android": "https://dc.lft.to/lastmile_qr_scan"}, "fusion_lon": 0.0, "type": "electric_scooter", "bike_id": "b26b7d88c95d76349c4190b303dbc8c6", "name": "b26b7d88c95d76349c4190b303dbc8c6"}, {"lon": -77.02587766666667, "is_disabled": 0, "lat": 38.942100333333336, "fusion_lat": 0.0, "is_reserved": 0, "rental_uris": {"ios": "https://dc.lft.to/lastmile_qr_scan", "android": "https://dc.lft.to/lastmile_qr_scan"}, "fusion_lon": 0.0, "type": "electric_scooter", "bike_id": "b7cbcd1cdd428694dad308ed84f38b10", "name": "b7cbcd1cdd428694dad308ed84f38b10"}, {"lon": -76.97108516666667, "is_disabled": 0, "lat": 38.924382, "fusion_lat": 0.0, "is_reserved": 0, "rental_uris": {"ios": "https://dc.lft.to/lastmile_qr_scan", "android": "https://dc.lft.to/lastmile_qr_scan"}, "fusion_lon": 0.0, "type": "electric_bike", "bike_id": "77843e6c1a17d6624baa74089946d047", "name": "77843e6c1a17d6624baa74089946d047"}, {"lon": -77.03159483333333, "is_disabled": 0, "lat": 38.96441516666667, "fusion_lat": 0.0, "is_reserved": 0, "rental_uris": {"ios": "https://dc.lft.to/lastmile_qr_scan", "android": "https://dc.lft.to/lastmile_qr_scan"}, "fusion_lon": 0.0, "type": "electric_bike", "bike_id": "4d6b22a4264747e0b6fc2afc19790e16", "name": "4d6b22a4264747e0b6fc2afc19790e16"}, {"lon": -77.04507183333334, "is_disabled": 0, "lat": 38.91185566666667, "fusion_lat": 0.0, "is_reserved": 0, "rental_uris": {"ios": "https://dc.lft.to/lastmile_qr_scan", "android": "https://dc.lft.to/lastmile_qr_scan"}, "fusion_lon": 0.0, "type": "electric_scooter", "bike_id": "24cf66378dc20c1d494c39de935732e7", "name": "24cf66378dc20c1d494c39de935732e7"}, {"lon": -76.94639333333333, "is_disabled": 0, "lat": 38.8986605, "fusion_lat": 0.0, "is_reserved": 0, "rental_uris": {"ios": "https://dc.lft.to/lastmile_qr_scan", "android": "https://dc.lft.to/lastmile_qr_scan"}, "fusion_lon": 0.0, "type": "electric_scooter", "bike_id": "25b971fd9b7a648f591919a6ab81f572", "name": "25b971fd9b7a648f591919a6ab81f572"}, {"lon": -77.02402483333333, "is_disabled": 0, "lat": 38.917603166666666, "fusion_lat": 0.0, "is_reserved": 0, "rental_uris": {"ios": "https://dc.lft.to/lastmile_qr_scan", "android": "https://dc.lft.to/lastmile_qr_scan"}, "fusion_lon": 0.0, "type": "electric_scooter", "bike_id": "02f23fe8126c2c3c95a2992d9b4a4dd1", "name": "02f23fe8126c2c3c95a2992d9b4a4dd1"}, {"lon": -77.02232366666667, "is_disabled": 0, "lat": 38.934725, "fusion_lat": 0.0, "is_reserved": 0, "rental_uris": {"ios": "https://dc.lft.to/lastmile_qr_scan", "android": "https://dc.lft.to/lastmile_qr_scan"}, "fusion_lon": 0.0, "type": "electric_scooter", "bike_id": "5e5e9cd905852af9c9cc263f4d6dddb9", "name": "5e5e9cd905852af9c9cc263f4d6dddb9"}, {"lon": -77.04648, "is_disabled": 0, "lat": 38.909741, "fusion_lat": 0.0, "is_reserved": 0, "rental_uris": {"ios": "https://dc.lft.to/lastmile_qr_scan", "android": "https://dc.lft.to/lastmile_qr_scan"}, "fusion_lon": 0.0, "type": "electric_scooter", "bike_id": "504634e3ccde1d6b6139fa8580e84727", "name": "504634e3ccde1d6b6139fa8580e84727"}, {"lon": -77.20140733333334, "is_disabled": 0, "lat": 38.922178833333334, "fusion_lat": 0.0, "is_reserved": 0, "rental_uris": {"ios": "https://dc.lft.to/lastmile_qr_scan", "android": "https://dc.lft.to/lastmile_qr_scan"}, "fusion_lon": 0.0, "type": "electric_bike", "bike_id": "8ca78d245fb0f1eeddba1a5bd9b26770", "name": "8ca78d245fb0f1eeddba1a5bd9b26770"}, {"lon": -77.03291783333333, "is_disabled": 0, "lat": 38.92261583333333, "fusion_lat": 0.0, "is_reserved": 0, "rental_uris": {"ios": "https://dc.lft.to/lastmile_qr_scan", "android": "https://dc.lft.to/lastmile_qr_scan"}, "fusion_lon": 0.0, "type": "electric_scooter", "bike_id": "d32af81c90cee54ab1c17b9c4f576c33", "name": "d32af81c90cee54ab1c17b9c4f576c33"}, {"lon": -76.97097483333333, "is_disabled": 0, "lat": 38.870647166666664, "fusion_lat": 0.0, "is_reserved": 0, "rental_uris": {"ios": "https://dc.lft.to/lastmile_qr_scan", "android": "https://dc.lft.to/lastmile_qr_scan"}, "fusion_lon": 0.0, "type": "electric_scooter", "bike_id": "17dd4ebc1bd2dbaaf702e77e9522713a", "name": "17dd4ebc1bd2dbaaf702e77e9522713a"}, {"lon": -77.046762, "is_disabled": 0, "lat": 38.893254666666664, "fusion_lat": 0.0, "is_reserved": 0, "rental_uris": {"ios": "https://dc.lft.to/lastmile_qr_scan", "android": "https://dc.lft.to/lastmile_qr_scan"}, "fusion_lon": 0.0, "type": "electric_scooter", "bike_id": "4cc0228858ee77928a46166e86828fe2", "name": "4cc0228858ee77928a46166e86828fe2"}, {"lon": -77.02514916666667, "is_disabled": 0, "lat": 38.91919883333333, "fusion_lat": 0.0, "is_reserved": 0, "rental_uris": {"ios": "https://dc.lft.to/lastmile_qr_scan", "android": "https://dc.lft.to/lastmile_qr_scan"}, "fusion_lon": 0.0, "type": "electric_scooter", "bike_id": "c0e927b2f800455cd7540944f8c7b012", "name": "c0e927b2f800455cd7540944f8c7b012"}, {"lon": -76.95774116666666, "is_disabled": 0, "lat": 38.868727166666666, "fusion_lat": 0.0, "is_reserved": 0, "rental_uris": {"ios": "https://dc.lft.to/lastmile_qr_scan", "android": "https://dc.lft.to/lastmile_qr_scan"}, "fusion_lon": 0.0, "type": "electric_bike", "bike_id": "46a7e0140ab678386a8c9f2a66a9f841", "name": "46a7e0140ab678386a8c9f2a66a9f841"}, {"lon": -77.01539516666666, "is_disabled": 0, "lat": 38.88734266666667, "fusion_lat": 0.0, "is_reserved": 0, "rental_uris": {"ios": "https://dc.lft.to/lastmile_qr_scan", "android": "https://dc.lft.to/lastmile_qr_scan"}, "fusion_lon": 0.0, "type": "electric_scooter", "bike_id": "85c5e7cb27036b0a4aa8dffff3015a0b", "name": "85c5e7cb27036b0a4aa8dffff3015a0b"}, {"lon": -77.02409783333333, "is_disabled": 0, "lat": 38.91397116666667, "fusion_lat": 0.0, "is_reserved": 0, "rental_uris": {"ios": "https://dc.lft.to/lastmile_qr_scan", "android": "https://dc.lft.to/lastmile_qr_scan"}, "fusion_lon": 0.0, "type": "electric_scooter", "bike_id": "75323a3ae3bfe485b09342cb4d9331f8", "name": "75323a3ae3bfe485b09342cb4d9331f8"}, {"lon": -77.0772055, "is_disabled": 0, "lat": 38.92522183333333, "fusion_lat": 0.0, "is_reserved": 0, "rental_uris": {"ios": "https://dc.lft.to/lastmile_qr_scan", "android": "https://dc.lft.to/lastmile_qr_scan"}, "fusion_lon": 0.0, "type": "electric_scooter", "bike_id": "18d1c771df70cfdef554d4b1be09cc03", "name": "18d1c771df70cfdef554d4b1be09cc03"}, {"lon": -77.0383575, "is_disabled": 0, "lat": 38.907772, "fusion_lat": 0.0, "is_reserved": 0, "rental_uris": {"ios": "https://dc.lft.to/lastmile_qr_scan", "android": "https://dc.lft.to/lastmile_qr_scan"}, "fusion_lon": 0.0, "type": "electric_scooter", "bike_id": "0f8a601e58fa5c7837023452355d1db7", "name": "0f8a601e58fa5c7837023452355d1db7"}, {"lon": -77.0450605, "is_disabled": 0, "lat": 38.9150175, "fusion_lat": 0.0, "is_reserved": 0, "rental_uris": {"ios": "https://dc.lft.to/lastmile_qr_scan", "android": "https://dc.lft.to/lastmile_qr_scan"}, "fusion_lon": 0.0, "type": "electric_scooter", "bike_id": "a37842e2087c00c7a692eb855088a7ab", "name": "a37842e2087c00c7a692eb855088a7ab"}, {"lon": -77.03448733333333, "is_disabled": 0, "lat": 38.9044505, "fusion_lat": 0.0, "is_reserved": 0, "rental_uris": {"ios": "https://dc.lft.to/lastmile_qr_scan", "android": "https://dc.lft.to/lastmile_qr_scan"}, "fusion_lon": 0.0, "type": "electric_scooter", "bike_id": "52ac76ee568b3403114f0b58c51ea025", "name": "52ac76ee568b3403114f0b58c51ea025"}, {"lon": -77.02059233333334, "is_disabled": 0, "lat": 38.933400166666665, "fusion_lat": 0.0, "is_reserved": 0, "rental_uris": {"ios": "https://dc.lft.to/lastmile_qr_scan", "android": "https://dc.lft.to/lastmile_qr_scan"}, "fusion_lon": 0.0, "type": "electric_scooter", "bike_id": "ad136407326d612f3428a0028559bd0d", "name": "ad136407326d612f3428a0028559bd0d"}, {"lon": -77.080684, "is_disabled": 0, "lat": 39.052533333333336, "fusion_lat": 0.0, "is_reserved": 0, "rental_uris": {"ios": "https://dc.lft.to/lastmile_qr_scan", "android": "https://dc.lft.to/lastmile_qr_scan"}, "fusion_lon": 0.0, "type": "electric_bike", "bike_id": "e6bd5f07f55aba782f6f04d3cdbae676", "name": "e6bd5f07f55aba782f6f04d3cdbae676"}, {"lon": -77.00601483333334, "is_disabled": 0, "lat": 38.87563133333333, "fusion_lat": 0.0, "is_reserved": 0, "rental_uris": {"ios": "https://dc.lft.to/lastmile_qr_scan", "android": "https://dc.lft.to/lastmile_qr_scan"}, "fusion_lon": 0.0, "type": "electric_scooter", "bike_id": "4f7c787de13e64311be83fd315019887", "name": "4f7c787de13e64311be83fd315019887"}, {"lon": -76.97029383333333, "is_disabled": 0, "lat": 38.87357166666666, "fusion_lat": 0.0, "is_reserved": 0, "rental_uris": {"ios": "https://dc.lft.to/lastmile_qr_scan", "android": "https://dc.lft.to/lastmile_qr_scan"}, "fusion_lon": 0.0, "type": "electric_scooter", "bike_id": "471095d9fb922e898f46c7d7016d8978", "name": "471095d9fb922e898f46c7d7016d8978"}, {"lon": -77.04943583333333, "is_disabled": 0, "lat": 38.918267, "fusion_lat": 0.0, "is_reserved": 0, "rental_uris": {"ios": "https://dc.lft.to/lastmile_qr_scan", "android": "https://dc.lft.to/lastmile_qr_scan"}, "fusion_lon": 0.0, "type": "electric_scooter", "bike_id": "3c5acb4577411f9442b7bf94c4e39ada", "name": "3c5acb4577411f9442b7bf94c4e39ada"}, {"lon": -77.04692216666666, "is_disabled": 0, "lat": 38.897440833333334, "fusion_lat": 0.0, "is_reserved": 0, "rental_uris": {"ios": "https://dc.lft.to/lastmile_qr_scan", "android": "https://dc.lft.to/lastmile_qr_scan"}, "fusion_lon": 0.0, "type": "electric_scooter", "bike_id": "ccf36c3ac9a88b69f1c2962a2df67ee8", "name": "ccf36c3ac9a88b69f1c2962a2df67ee8"}, {"lon": -77.00495566666666, "is_disabled": 0, "lat": 38.874647833333334, "fusion_lat": 0.0, "is_reserved": 0, "rental_uris": {"ios": "https://dc.lft.to/lastmile_qr_scan", "android": "https://dc.lft.to/lastmile_qr_scan"}, "fusion_lon": 0.0, "type": "electric_scooter", "bike_id": "50bd778e33f1bdd9699d41d6c67d821a", "name": "50bd778e33f1bdd9699d41d6c67d821a"}, {"lon": -76.96541383333333, "is_disabled": 0, "lat": 38.9185395, "fusion_lat": 0.0, "is_reserved": 0, "rental_uris": {"ios": "https://dc.lft.to/lastmile_qr_scan", "android": "https://dc.lft.to/lastmile_qr_scan"}, "fusion_lon": 0.0, "type": "electric_scooter", "bike_id": "334188539cedc33e8c79e9d371c07ef7", "name": "334188539cedc33e8c79e9d371c07ef7"}, {"lon": -77.043428, "is_disabled": 0, "lat": 38.90516983333333, "fusion_lat": 0.0, "is_reserved": 0, "rental_uris": {"ios": "https://dc.lft.to/lastmile_qr_scan", "android": "https://dc.lft.to/lastmile_qr_scan"}, "fusion_lon": 0.0, "type": "electric_scooter", "bike_id": "bb2384a3feb7e07994dfde3748cd060a", "name": "bb2384a3feb7e07994dfde3748cd060a"}, {"lon": -77.02305866666667, "is_disabled": 0, "lat": 38.894977833333336, "fusion_lat": 0.0, "is_reserved": 0, "rental_uris": {"ios": "https://dc.lft.to/lastmile_qr_scan", "android": "https://dc.lft.to/lastmile_qr_scan"}, "fusion_lon": 0.0, "type": "electric_scooter", "bike_id": "485894e03345ae6d7c75dc190ab6b9ba", "name": "485894e03345ae6d7c75dc190ab6b9ba"}, {"lon": -77.03352816666667, "is_disabled": 0, "lat": 38.90286183333333, "fusion_lat": 0.0, "is_reserved": 0, "rental_uris": {"ios": "https://dc.lft.to/lastmile_qr_scan", "android": "https://dc.lft.to/lastmile_qr_scan"}, "fusion_lon": 0.0, "type": "electric_scooter", "bike_id": "dcd0e5a1a05c2ac2d3889e7d67ce391f", "name": "dcd0e5a1a05c2ac2d3889e7d67ce391f"}, {"lon": -76.978577, "is_disabled": 0, "lat": 38.84465466666666, "fusion_lat": 0.0, "is_reserved": 0, "rental_uris": {"ios": "https://dc.lft.to/lastmile_qr_scan", "android": "https://dc.lft.to/lastmile_qr_scan"}, "fusion_lon": 0.0, "type": "electric_bike", "bike_id": "b6ee0bcc0bed2ef4e794b3e95686a419", "name": "b6ee0bcc0bed2ef4e794b3e95686a419"}, {"lon": -77.05727866666666, "is_disabled": 0, "lat": 38.933655333333334, "fusion_lat": 0.0, "is_reserved": 0, "rental_uris": {"ios": "https://dc.lft.to/lastmile_qr_scan", "android": "https://dc.lft.to/lastmile_qr_scan"}, "fusion_lon": 0.0, "type": "electric_scooter", "bike_id": "7e3f5cd2ddcf4c251eb715007c1a5d4b", "name": "7e3f5cd2ddcf4c251eb715007c1a5d4b"}, {"lon": -76.967135, "is_disabled": 0, "lat": 38.86038383333333, "fusion_lat": 0.0, "is_reserved": 0, "rental_uris": {"ios": "https://dc.lft.to/lastmile_qr_scan", "android": "https://dc.lft.to/lastmile_qr_scan"}, "fusion_lon": 0.0, "type": "electric_scooter", "bike_id": "e98dc70045fd7e8cf558b14e975f2229", "name": "e98dc70045fd7e8cf558b14e975f2229"}, {"lon": -77.01216133333334, "is_disabled": 0, "lat": 38.898512333333336, "fusion_lat": 0.0, "is_reserved": 0, "rental_uris": {"ios": "https://dc.lft.to/lastmile_qr_scan", "android": "https://dc.lft.to/lastmile_qr_scan"}, "fusion_lon": 0.0, "type": "electric_scooter", "bike_id": "39a942b648ace2f7ac9ae8a96483a82e", "name": "39a942b648ace2f7ac9ae8a96483a82e"}, {"lon": -77.0255795, "is_disabled": 0, "lat": 38.909591, "fusion_lat": 0.0, "is_reserved": 0, "rental_uris": {"ios": "https://dc.lft.to/lastmile_qr_scan", "android": "https://dc.lft.to/lastmile_qr_scan"}, "fusion_lon": 0.0, "type": "electric_scooter", "bike_id": "24f015d0085868bdeebeae6d724411bd", "name": "24f015d0085868bdeebeae6d724411bd"}, {"lon": -77.00545916666667, "is_disabled": 0, "lat": 38.8766545, "fusion_lat": 0.0, "is_reserved": 0, "rental_uris": {"ios": "https://dc.lft.to/lastmile_qr_scan", "android": "https://dc.lft.to/lastmile_qr_scan"}, "fusion_lon": 0.0, "type": "electric_scooter", "bike_id": "4c3621b3d7f3c6a4d72e5b56d45f58c0", "name": "4c3621b3d7f3c6a4d72e5b56d45f58c0"}, {"lon": -77.0084995, "is_disabled": 0, "lat": 38.92234633333333, "fusion_lat": 0.0, "is_reserved": 0, "rental_uris": {"ios": "https://dc.lft.to/lastmile_qr_scan", "android": "https://dc.lft.to/lastmile_qr_scan"}, "fusion_lon": 0.0, "type": "electric_scooter", "bike_id": "8a7f92859457406a5622653a7514afcb", "name": "8a7f92859457406a5622653a7514afcb"}, {"lon": -77.0566095, "is_disabled": 0, "lat": 38.90604966666667, "fusion_lat": 0.0, "is_reserved": 0, "rental_uris": {"ios": "https://dc.lft.to/lastmile_qr_scan", "android": "https://dc.lft.to/lastmile_qr_scan"}, "fusion_lon": 0.0, "type": "electric_scooter", "bike_id": "71a67aae46b14cae4b3ea3597129c7be", "name": "71a67aae46b14cae4b3ea3597129c7be"}, {"lon": -76.98386583333334, "is_disabled": 0, "lat": 38.879407, "fusion_lat": 0.0, "is_reserved": 0, "rental_uris": {"ios": "https://dc.lft.to/lastmile_qr_scan", "android": "https://dc.lft.to/lastmile_qr_scan"}, "fusion_lon": 0.0, "type": "electric_scooter", "bike_id": "62e6084bbabd20aced2001d3b8756b94", "name": "62e6084bbabd20aced2001d3b8756b94"}, {"lon": -77.00349566666667, "is_disabled": 0, "lat": 38.8946625, "fusion_lat": 0.0, "is_reserved": 0, "rental_uris": {"ios": "https://dc.lft.to/lastmile_qr_scan", "android": "https://dc.lft.to/lastmile_qr_scan"}, "fusion_lon": 0.0, "type": "electric_scooter", "bike_id": "7b8583986a226d4e21ccf39fbcc16481", "name": "7b8583986a226d4e21ccf39fbcc16481"}, {"lon": -77.03324683333334, "is_disabled": 0, "lat": 38.97213283333333, "fusion_lat": 0.0, "is_reserved": 0, "rental_uris": {"ios": "https://dc.lft.to/lastmile_qr_scan", "android": "https://dc.lft.to/lastmile_qr_scan"}, "fusion_lon": 0.0, "type": "electric_bike", "bike_id": "ce490927ded0596daeb28c44aebd4633", "name": "ce490927ded0596daeb28c44aebd4633"}, {"lon": -77.02496933333333, "is_disabled": 0, "lat": 38.9180885, "fusion_lat": 0.0, "is_reserved": 0, "rental_uris": {"ios": "https://dc.lft.to/lastmile_qr_scan", "android": "https://dc.lft.to/lastmile_qr_scan"}, "fusion_lon": 0.0, "type": "electric_scooter", "bike_id": "810576c60a837a489a70b5beb56ed7ff", "name": "810576c60a837a489a70b5beb56ed7ff"}, {"lon": -77.06380916666667, "is_disabled": 0, "lat": 38.90520133333333, "fusion_lat": 0.0, "is_reserved": 0, "rental_uris": {"ios": "https://dc.lft.to/lastmile_qr_scan", "android": "https://dc.lft.to/lastmile_qr_scan"}, "fusion_lon": 0.0, "type": "electric_scooter", "bike_id": "30991af6dc274eff1f5f987376fc9a8f", "name": "30991af6dc274eff1f5f987376fc9a8f"}, {"lon": -77.0356725, "is_disabled": 0, "lat": 38.9269345, "fusion_lat": 0.0, "is_reserved": 0, "rental_uris": {"ios": "https://dc.lft.to/lastmile_qr_scan", "android": "https://dc.lft.to/lastmile_qr_scan"}, "fusion_lon": 0.0, "type": "electric_scooter", "bike_id": "a4e19d0d6045ccae7a5b89851e5791e7", "name": "a4e19d0d6045ccae7a5b89851e5791e7"}, {"lon": -77.0788685, "is_disabled": 0, "lat": 38.842537166666666, "fusion_lat": 0.0, "is_reserved": 0, "rental_uris": {"ios": "https://dc.lft.to/lastmile_qr_scan", "android": "https://dc.lft.to/lastmile_qr_scan"}, "fusion_lon": 0.0, "type": "electric_bike", "bike_id": "4e8d0125fd35796d571611f0b49335ec", "name": "4e8d0125fd35796d571611f0b49335ec"}, {"lon": -76.9808395, "is_disabled": 0, "lat": 38.92633816666667, "fusion_lat": 0.0, "is_reserved": 0, "rental_uris": {"ios": "https://dc.lft.to/lastmile_qr_scan", "android": "https://dc.lft.to/lastmile_qr_scan"}, "fusion_lon": 0.0, "type": "electric_scooter", "bike_id": "2602ba73eb9c4a54ea0e37a4bd46bd3a", "name": "2602ba73eb9c4a54ea0e37a4bd46bd3a"}, {"lon": -77.03266966666666, "is_disabled": 0, "lat": 38.92818416666667, "fusion_lat": 0.0, "is_reserved": 0, "rental_uris": {"ios": "https://dc.lft.to/lastmile_qr_scan", "android": "https://dc.lft.to/lastmile_qr_scan"}, "fusion_lon": 0.0, "type": "electric_scooter", "bike_id": "0c0c56c8287da9311051aaaddd09764f", "name": "0c0c56c8287da9311051aaaddd09764f"}, {"lon": -77.05143666666666, "is_disabled": 0, "lat": 38.90548833333333, "fusion_lat": 0.0, "is_reserved": 0, "rental_uris": {"ios": "https://dc.lft.to/lastmile_qr_scan", "android": "https://dc.lft.to/lastmile_qr_scan"},