{"data": {"bikes": [{"lat": 38.90415083333333, "is_disabled": 0, "type": "electric_scooter", "lon": -77.0507465, "bike_id": "9820daa1a7263d725fae0d51874c5a4a", "fusion_lat": 0.0, "name": "9820daa1a7263d725fae0d51874c5a4a", "is_reserved": 0, "rental_uris": {"android": "https://dc.lft.to/lastmile_qr_scan", "ios": "https://dc.lft.to/lastmile_qr_scan"}, "fusion_lon": 0.0}, {"lat": 38.8867755, "is_disabled": 0, "type": "electric_bike", "lon": -77.162385, "bike_id": "605a207150d8541d63921be7e0138736", "fusion_lat": 0.0, "name": "605a207150d8541d63921be7e0138736", "is_reserved": 0, "rental_uris": {"android": "https://dc.lft.to/lastmile_qr_scan", "ios": "https://dc.lft.to/lastmile_qr_scan"}, "fusion_lon": 0.0}, {"lat": 38.87726116666666, "is_disabled": 0, "type": "electric_scooter", "lon": -77.01764233333333, "bike_id": "640f6cba132a39c39c9d70bba327a947", "fusion_lat": 0.0, "name": "640f6cba132a39c39c9d70bba327a947", "is_reserved": 0, "rental_uris": {"android": "https://dc.lft.to/lastmile_qr_scan", "ios": "https://dc.lft.to/lastmile_qr_scan"}, "fusion_lon": 0.0}, {"lat": 38.9039325, "is_disabled": 0, "type": "electric_scooter", "lon": -76.99007666666667, "bike_id": "9caef75573a108b007da0e6a04f08a34", "fusion_lat": 0.0, "name": "9caef75573a108b007da0e6a04f08a34", "is_reserved": 0, "rental_uris": {"android": "https://dc.lft.to/lastmile_qr_scan", "ios": "https://dc.lft.to/lastmile_qr_scan"}, "fusion_lon": 0.0}, {"lat": 38.94822033333333, "is_disabled": 0, "type": "electric_scooter", "lon": -76.99904, "bike_id": "cd5deb6f615173dc3409a78d0dd2216b", "fusion_lat": 0.0, "name": "cd5deb6f615173dc3409a78d0dd2216b", "is_reserved": 0, "rental_uris": {"android": "https://dc.lft.to/lastmile_qr_scan", "ios": "https://dc.lft.to/lastmile_qr_scan"}, "fusion_lon": 0.0}, {"lat": 38.88610883333333, "is_disabled": 0, "type": "electric_scooter", "lon": -77.018985, "bike_id": "19185c7e4d1ebe0d383a232cbaaf7ff1", "fusion_lat": 0.0, "name": "19185c7e4d1ebe0d383a232cbaaf7ff1", "is_reserved": 0, "rental_uris": {"android": "https://dc.lft.to/lastmile_qr_scan", "ios": "https://dc.lft.to/lastmile_qr_scan"}, "fusion_lon": 0.0}, {"lat": 38.88550016666667, "is_disabled": 0, "type": "electric_bike", "lon": -77.11787466666667, "bike_id": "e2346c0282ac75d081bc773f37baf9d2", "fusion_lat": 0.0, "name": "e2346c0282ac75d081bc773f37baf9d2", "is_reserved": 0, "rental_uris": {"android": "https://dc.lft.to/lastmile_qr_scan", "ios": "https://dc.lft.to/lastmile_qr_scan"}, "fusion_lon": 0.0}, {"lat": 38.91708033333333, "is_disabled": 0, "type": "electric_scooter", "lon": -76.97926966666667, "bike_id": "90319b733e1eae14163dd8c5b6987e51", "fusion_lat": 0.0, "name": "90319b733e1eae14163dd8c5b6987e51", "is_reserved": 0, "rental_uris": {"android": "https://dc.lft.to/lastmile_qr_scan", "ios": "https://dc.lft.to/lastmile_qr_scan"}, "fusion_lon": 0.0}, {"lat": 38.90626833333334, "is_disabled": 0, "type": "electric_bike", "lon": -76.98605533333334, "bike_id": "78472c6f74128edde1004070daba6cb0", "fusion_lat": 0.0, "name": "78472c6f74128edde1004070daba6cb0", "is_reserved": 0, "rental_uris": {"android": "https://dc.lft.to/lastmile_qr_scan", "ios": "https://dc.lft.to/lastmile_qr_scan"}, "fusion_lon": 0.0}, {"lat": 38.92210866666667, "is_disabled": 0, "type": "electric_bike", "lon": -77.08187016666666, "bike_id": "5928a2ec4bb96a2478f85bda5ae61ed9", "fusion_lat": 0.0, "name": "5928a2ec4bb96a2478f85bda5ae61ed9", "is_reserved": 0, "rental_uris": {"android": "https://dc.lft.to/lastmile_qr_scan", "ios": "https://dc.lft.to/lastmile_qr_scan"}, "fusion_lon": 0.0}, {"lat": 38.90829766666667, "is_disabled": 0, "type": "electric_scooter", "lon": -77.02010183333333, "bike_id": "c0ba57db4a2b2ce6486661116f221f8a", "fusion_lat": 0.0, "name": "c0ba57db4a2b2ce6486661116f221f8a", "is_reserved": 0, "rental_uris": {"android": "https://dc.lft.to/lastmile_qr_scan", "ios": "https://dc.lft.to/lastmile_qr_scan"}, "fusion_lon": 0.0}, {"lat": 38.919635166666666, "is_disabled": 0, "type": "electric_scooter", "lon": -77.0144115, "bike_id": "9a244922e2172f59813bbd5c774623e7", "fusion_lat": 0.0, "name": "9a244922e2172f59813bbd5c774623e7", "is_reserved": 0, "rental_uris": {"android": "https://dc.lft.to/lastmile_qr_scan", "ios": "https://dc.lft.to/lastmile_qr_scan"}, "fusion_lon": 0.0}, {"lat": 38.922527333333335, "is_disabled": 0, "type": "electric_scooter", "lon": -77.0347325, "bike_id": "79deb82507f3fe0a3b7a141b8b8a4e1c", "fusion_lat": 0.0, "name": "79deb82507f3fe0a3b7a141b8b8a4e1c", "is_reserved": 0, "rental_uris": {"android": "https://dc.lft.to/lastmile_qr_scan", "ios": "https://dc.lft.to/lastmile_qr_scan"}, "fusion_lon": 0.0}, {"lat": 38.912529666666664, "is_disabled": 0, "type": "electric_scooter", "lon": -77.047649, "bike_id": "4db73a2aea69298b42c7f1a06cf13c94", "fusion_lat": 0.0, "name": "4db73a2aea69298b42c7f1a06cf13c94", "is_reserved": 0, "rental_uris": {"android": "https://dc.lft.to/lastmile_qr_scan", "ios": "https://dc.lft.to/lastmile_qr_scan"}, "fusion_lon": 0.0}, {"lat": 38.98125483333333, "is_disabled": 0, "type": "electric_bike", "lon": -77.00771433333334, "bike_id": "e9a6eee9310872c4701f6de5fd89d63e", "fusion_lat": 0.0, "name": "e9a6eee9310872c4701f6de5fd89d63e", "is_reserved": 0, "rental_uris": {"android": "https://dc.lft.to/lastmile_qr_scan", "ios": "https://dc.lft.to/lastmile_qr_scan"}, "fusion_lon": 0.0}, {"lat": 38.935188333333336, "is_disabled": 0, "type": "electric_scooter", "lon": -77.03355133333334, "bike_id": "4e7c956e51f112592c1d34c12e396832", "fusion_lat": 0.0, "name": "4e7c956e51f112592c1d34c12e396832", "is_reserved": 0, "rental_uris": {"android": "https://dc.lft.to/lastmile_qr_scan", "ios": "https://dc.lft.to/lastmile_qr_scan"}, "fusion_lon": 0.0}, {"lat": 38.91258933333334, "is_disabled": 0, "type": "electric_scooter", "lon": -77.03875533333333, "bike_id": "1adc8c7e1ffa0ce619fd27beb913cbb4", "fusion_lat": 0.0, "name": "1adc8c7e1ffa0ce619fd27beb913cbb4", "is_reserved": 0, "rental_uris": {"android": "https://dc.lft.to/lastmile_qr_scan", "ios": "https://dc.lft.to/lastmile_qr_scan"}, "fusion_lon": 0.0}, {"lat": 38.90455933333333, "is_disabled": 0, "type": "electric_scooter", "lon": -77.062867, "bike_id": "f90df0a97b32cf1d2fe45b19d02e1e54", "fusion_lat": 0.0, "name": "f90df0a97b32cf1d2fe45b19d02e1e54", "is_reserved": 0, "rental_uris": {"android": "https://dc.lft.to/lastmile_qr_scan", "ios": "https://dc.lft.to/lastmile_qr_scan"}, "fusion_lon": 0.0}, {"lat": 38.9277045, "is_disabled": 0, "type": "electric_scooter", "lon": -77.02616583333334, "bike_id": "75092e2db4d111f49bede754a5fac00d", "fusion_lat": 0.0, "name": "75092e2db4d111f49bede754a5fac00d", "is_reserved": 0, "rental_uris": {"android": "https://dc.lft.to/lastmile_qr_scan", "ios": "https://dc.lft.to/lastmile_qr_scan"}, "fusion_lon": 0.0}, {"lat": 38.92289733333333, "is_disabled": 0, "type": "electric_scooter", "lon": -77.0319445, "bike_id": "2bcb36dc5b30aba3d5c8a686495187fc", "fusion_lat": 0.0, "name": "2bcb36dc5b30aba3d5c8a686495187fc", "is_reserved": 0, "rental_uris": {"android": "https://dc.lft.to/lastmile_qr_scan", "ios": "https://dc.lft.to/lastmile_qr_scan"}, "fusion_lon": 0.0}, {"lat": 38.911997, "is_disabled": 0, "type": "electric_scooter", "lon": -77.05974816666667, "bike_id": "d803d19d2fc9f55ccc9162366cfbe2da", "fusion_lat": 0.0, "name": "d803d19d2fc9f55ccc9162366cfbe2da", "is_reserved": 0, "rental_uris": {"android": "https://dc.lft.to/lastmile_qr_scan", "ios": "https://dc.lft.to/lastmile_qr_scan"}, "fusion_lon": 0.0}, {"lat": 38.90684816666667, "is_disabled": 0, "type": "electric_scooter", "lon": -77.01012316666667, "bike_id": "f2a59ddc906d297b50ad4b320618e663", "fusion_lat": 0.0, "name": "f2a59ddc906d297b50ad4b320618e663", "is_reserved": 0, "rental_uris": {"android": "https://dc.lft.to/lastmile_qr_scan", "ios": "https://dc.lft.to/lastmile_qr_scan"}, "fusion_lon": 0.0}, {"lat": 38.936001, "is_disabled": 0, "type": "electric_scooter", "lon": -77.0365635, "bike_id": "4f0468ba0e7c391fc53aa008632e9679", "fusion_lat": 0.0, "name": "4f0468ba0e7c391fc53aa008632e9679", "is_reserved": 0, "rental_uris": {"android": "https://dc.lft.to/lastmile_qr_scan", "ios": "https://dc.lft.to/lastmile_qr_scan"}, "fusion_lon": 0.0}, {"lat": 38.89221383333334, "is_disabled": 0, "type": "electric_scooter", "lon": -77.0231995, "bike_id": "a25b7431fa949d224013056035e1ff9b", "fusion_lat": 0.0, "name": "a25b7431fa949d224013056035e1ff9b", "is_reserved": 0, "rental_uris": {"android": "https://dc.lft.to/lastmile_qr_scan", "ios": "https://dc.lft.to/lastmile_qr_scan"}, "fusion_lon": 0.0}, {"lat": 38.912675, "is_disabled": 0, "type": "electric_scooter", "lon": -77.02258016666667, "bike_id": "c3d9fee7a8f4e69ac52b50bf5137d8df", "fusion_lat": 0.0, "name": "c3d9fee7a8f4e69ac52b50bf5137d8df", "is_reserved": 0, "rental_uris": {"android": "https://dc.lft.to/lastmile_qr_scan", "ios": "https://dc.lft.to/lastmile_qr_scan"}, "fusion_lon": 0.0}, {"lat": 38.911047, "is_disabled": 0, "type": "electric_scooter", "lon": -77.0420585, "bike_id": "e74d3100d212d3973ea99c90fbdd0995", "fusion_lat": 0.0, "name": "e74d3100d212d3973ea99c90fbdd0995", "is_reserved": 0, "rental_uris": {"android": "https://dc.lft.to/lastmile_qr_scan", "ios": "https://dc.lft.to/lastmile_qr_scan"}, "fusion_lon": 0.0}, {"lat": 38.90241733333333, "is_disabled": 0, "type": "electric_scooter", "lon": -77.00206416666667, "bike_id": "a8cc98275e9cc8b6ee61004834bf27b6", "fusion_lat": 0.0, "name": "a8cc98275e9cc8b6ee61004834bf27b6", "is_reserved": 0, "rental_uris": {"android": "https://dc.lft.to/lastmile_qr_scan", "ios": "https://dc.lft.to/lastmile_qr_scan"}, "fusion_lon": 0.0}, {"lat": 38.90828666666667, "is_disabled": 0, "type": "electric_scooter", "lon": -76.99700266666666, "bike_id": "79d54dd0b34d07fdafd099bfd20b1109", "fusion_lat": 0.0, "name": "79d54dd0b34d07fdafd099bfd20b1109", "is_reserved": 0, "rental_uris": {"android": "https://dc.lft.to/lastmile_qr_scan", "ios": "https://dc.lft.to/lastmile_qr_scan"}, "fusion_lon": 0.0}, {"lat": 38.91715966666667, "is_disabled": 0, "type": "electric_scooter", "lon": -77.03251083333333, "bike_id": "c43df27d3b9e66026bd7c0e80452edc6", "fusion_lat": 0.0, "name": "c43df27d3b9e66026bd7c0e80452edc6", "is_reserved": 0, "rental_uris": {"android": "https://dc.lft.to/lastmile_qr_scan", "ios": "https://dc.lft.to/lastmile_qr_scan"}, "fusion_lon": 0.0}, {"lat": 38.90046666666667, "is_disabled": 0, "type": "electric_scooter", "lon": -77.02600716666667, "bike_id": "455df9662b214ac4cdc3de4700dfee98", "fusion_lat": 0.0, "name": "455df9662b214ac4cdc3de4700dfee98", "is_reserved": 0, "rental_uris": {"android": "https://dc.lft.to/lastmile_qr_scan", "ios": "https://dc.lft.to/lastmile_qr_scan"}, "fusion_lon": 0.0}, {"lat": 38.924716333333336, "is_disabled": 0, "type": "electric_bike", "lon": -77.208499, "bike_id": "b5fe14584231d29efa04747a81f8c82f", "fusion_lat": 0.0, "name": "b5fe14584231d29efa04747a81f8c82f", "is_reserved": 0, "rental_uris": {"android": "https://dc.lft.to/lastmile_qr_scan", "ios": "https://dc.lft.to/lastmile_qr_scan"}, "fusion_lon": 0.0}, {"lat": 38.915479166666664, "is_disabled": 0, "type": "electric_scooter", "lon": -77.038517, "bike_id": "86e33806a0269338dcc879b457948fd4", "fusion_lat": 0.0, "name": "86e33806a0269338dcc879b457948fd4", "is_reserved": 0, "rental_uris": {"android": "https://dc.lft.to/lastmile_qr_scan", "ios": "https://dc.lft.to/lastmile_qr_scan"}, "fusion_lon": 0.0}, {"lat": 38.93303216666666, "is_disabled": 0, "type": "electric_scooter", "lon": -77.02805633333334, "bike_id": "170199863782a7fe8ddcb125ddd5e296", "fusion_lat": 0.0, "name": "170199863782a7fe8ddcb125ddd5e296", "is_reserved": 0, "rental_uris": {"android": "https://dc.lft.to/lastmile_qr_scan", "ios": "https://dc.lft.to/lastmile_qr_scan"}, "fusion_lon": 0.0}, {"lat": 38.90515, "is_disabled": 0, "type": "electric_scooter", "lon": -77.0414345, "bike_id": "b63c6f0d06ef9048499bf464a7b102a2", "fusion_lat": 0.0, "name": "b63c6f0d06ef9048499bf464a7b102a2", "is_reserved": 0, "rental_uris": {"android": "https://dc.lft.to/lastmile_qr_scan", "ios": "https://dc.lft.to/lastmile_qr_scan"}, "fusion_lon": 0.0}, {"lat": 38.917017666666666, "is_disabled": 0, "type": "electric_scooter", "lon": -77.04284016666666, "bike_id": "2712b953c242aa5fd8a4ea04a8e6830e", "fusion_lat": 0.0, "name": "2712b953c242aa5fd8a4ea04a8e6830e", "is_reserved": 0, "rental_uris": {"android": "https://dc.lft.to/lastmile_qr_scan", "ios": "https://dc.lft.to/lastmile_qr_scan"}, "fusion_lon": 0.0}, {"lat": 38.842539, "is_disabled": 0, "type": "electric_bike", "lon": -77.05832433333333, "bike_id": "247e3c9e9d54e0a3af31df476a9be895", "fusion_lat": 0.0, "name": "247e3c9e9d54e0a3af31df476a9be895", "is_reserved": 0, "rental_uris": {"android": "https://dc.lft.to/lastmile_qr_scan", "ios": "https://dc.lft.to/lastmile_qr_scan"}, "fusion_lon": 0.0}, {"lat": 38.92362033333333, "is_disabled": 0, "type": "electric_scooter", "lon": -77.051303, "bike_id": "107d3a97eceb03e3d308d3ab66329d78", "fusion_lat": 0.0, "name": "107d3a97eceb03e3d308d3ab66329d78", "is_reserved": 0, "rental_uris": {"android": "https://dc.lft.to/lastmile_qr_scan", "ios": "https://dc.lft.to/lastmile_qr_scan"}, "fusion_lon": 0.0}, {"lat": 38.957797, "is_disabled": 0, "type": "electric_scooter", "lon": -77.02757666666666, "bike_id": "381448c086177113295f246d573e40db", "fusion_lat": 0.0, "name": "381448c086177113295f246d573e40db", "is_reserved": 0, "rental_uris": {"android": "https://dc.lft.to/lastmile_qr_scan", "ios": "https://dc.lft.to/lastmile_qr_scan"}, "fusion_lon": 0.0}, {"lat": 38.884283, "is_disabled": 0, "type": "electric_scooter", "lon": -76.95755166666666, "bike_id": "07bf50a45abc949d8c120fc81d185b40", "fusion_lat": 0.0, "name": "07bf50a45abc949d8c120fc81d185b40", "is_reserved": 0, "rental_uris": {"android": "https://dc.lft.to/lastmile_qr_scan", "ios": "https://dc.lft.to/lastmile_qr_scan"}, "fusion_lon": 0.0}, {"lat": 38.90737633333333, "is_disabled": 0, "type": "electric_scooter", "lon": -77.0344135, "bike_id": "3491a74696a0f4323dd0455e1d5c520e", "fusion_lat": 0.0, "name": "3491a74696a0f4323dd0455e1d5c520e", "is_reserved": 0, "rental_uris": {"android": "https://dc.lft.to/lastmile_qr_scan", "ios": "https://dc.lft.to/lastmile_qr_scan"}, "fusion_lon": 0.0}, {"lat": 38.919713333333334, "is_disabled": 0, "type": "electric_scooter", "lon": -77.02384966666666, "bike_id": "e07502292685575d8e00bdf6681be383", "fusion_lat": 0.0, "name": "e07502292685575d8e00bdf6681be383", "is_reserved": 0, "rental_uris": {"android": "https://dc.lft.to/lastmile_qr_scan", "ios": "https://dc.lft.to/lastmile_qr_scan"}, "fusion_lon": 0.0}, {"lat": 38.90085033333333, "is_disabled": 0, "type": "electric_scooter", "lon": -77.04925483333334, "bike_id": "234ca520685bc4fde9d26860893dab01", "fusion_lat": 0.0, "name": "234ca520685bc4fde9d26860893dab01", "is_reserved": 0, "rental_uris": {"android": "https://dc.lft.to/lastmile_qr_scan", "ios": "https://dc.lft.to/lastmile_qr_scan"}, "fusion_lon": 0.0}, {"lat": 38.9178335, "is_disabled": 0, "type": "electric_scooter", "lon": -77.04337833333334, "bike_id": "189f6a65fe5aa8275be2de9fe53e0b80", "fusion_lat": 0.0, "name": "189f6a65fe5aa8275be2de9fe53e0b80", "is_reserved": 0, "rental_uris": {"android": "https://dc.lft.to/lastmile_qr_scan", "ios": "https://dc.lft.to/lastmile_qr_scan"}, "fusion_lon": 0.0}, {"lat": 38.89224266666667, "is_disabled": 0, "type": "electric_scooter", "lon": -77.0321925, "bike_id": "174948f921336365f610250a888a4dce", "fusion_lat": 0.0, "name": "174948f921336365f610250a888a4dce", "is_reserved": 0, "rental_uris": {"android": "https://dc.lft.to/lastmile_qr_scan", "ios": "https://dc.lft.to/lastmile_qr_scan"}, "fusion_lon": 0.0}, {"lat": 38.9565225, "is_disabled": 0, "type": "electric_scooter", "lon": -77.02390316666667, "bike_id": "4b2650048a3064e504a332ceeff3feeb", "fusion_lat": 0.0, "name": "4b2650048a3064e504a332ceeff3feeb", "is_reserved": 0, "rental_uris": {"android": "https://dc.lft.to/lastmile_qr_scan", "ios": "https://dc.lft.to/lastmile_qr_scan"}, "fusion_lon": 0.0}, {"lat": 38.87672083333333, "is_disabled": 0, "type": "electric_bike", "lon": -77.014352, "bike_id": "a56bbc4b7b752f894db54fa9fb40d9e5", "fusion_lat": 0.0, "name": "a56bbc4b7b752f894db54fa9fb40d9e5", "is_reserved": 0, "rental_uris": {"android": "https://dc.lft.to/lastmile_qr_scan", "ios": "https://dc.lft.to/lastmile_qr_scan"}, "fusion_lon": 0.0}, {"lat": 38.997817, "is_disabled": 0, "type": "electric_bike", "lon": -77.00761933333334, "bike_id": "7a822ca86b34c5deacc054634186f466", "fusion_lat": 0.0, "name": "7a822ca86b34c5deacc054634186f466", "is_reserved": 0, "rental_uris": {"android": "https://dc.lft.to/lastmile_qr_scan", "ios": "https://dc.lft.to/lastmile_qr_scan"}, "fusion_lon": 0.0}, {"lat": 38.92470683333333, "is_disabled": 0, "type": "electric_scooter", "lon": -77.05241233333334, "bike_id": "0f3b71226e2692d02f504e098b86d31c", "fusion_lat": 0.0, "name": "0f3b71226e2692d02f504e098b86d31c", "is_reserved": 0, "rental_uris": {"android": "https://dc.lft.to/lastmile_qr_scan", "ios": "https://dc.lft.to/lastmile_qr_scan"}, "fusion_lon": 0.0}, {"lat": 38.90091983333333, "is_disabled": 0, "type": "electric_scooter", "lon": -77.05058366666667, "bike_id": "f1ad9682618f6b26da2bf89a89369797", "fusion_lat": 0.0, "name": "f1ad9682618f6b26da2bf89a89369797", "is_reserved": 0, "rental_uris": {"android": "https://dc.lft.to/lastmile_qr_scan", "ios": "https://dc.lft.to/lastmile_qr_scan"}, "fusion_lon": 0.0}, {"lat": 38.936711, "is_disabled": 0, "type": "electric_scooter", "lon": -77.02460583333334, "bike_id": "d47828541954308317e3bdd28d1408d8", "fusion_lat": 0.0, "name": "d47828541954308317e3bdd28d1408d8", "is_reserved": 0, "rental_uris": {"android": "https://dc.lft.to/lastmile_qr_scan", "ios": "https://dc.lft.to/lastmile_qr_scan"}, "fusion_lon": 0.0}, {"lat": 38.91864433333333, "is_disabled": 0, "type": "electric_scooter", "lon": -77.0318335, "bike_id": "f862e5caf5a68a19211410bfc96e434a", "fusion_lat": 0.0, "name": "f862e5caf5a68a19211410bfc96e434a", "is_reserved": 0, "rental_uris": {"android": "https://dc.lft.to/lastmile_qr_scan", "ios": "https://dc.lft.to/lastmile_qr_scan"}, "fusion_lon": 0.0}, {"lat": 38.93534433333333, "is_disabled": 0, "type": "electric_scooter", "lon": -77.03255616666667, "bike_id": "b5e58d00de7b60015673d747a5310bde", "fusion_lat": 0.0, "name": "b5e58d00de7b60015673d747a5310bde", "is_reserved": 0, "rental_uris": {"android": "https://dc.lft.to/lastmile_qr_scan", "ios": "https://dc.lft.to/lastmile_qr_scan"}, "fusion_lon": 0.0}, {"lat": 38.907955, "is_disabled": 0, "type": "electric_scooter", "lon": -77.0447865, "bike_id": "f53f21bb5964b90776136687b6a5fd02", "fusion_lat": 0.0, "name": "f53f21bb5964b90776136687b6a5fd02", "is_reserved": 0, "rental_uris": {"android": "https://dc.lft.to/lastmile_qr_scan", "ios": "https://dc.lft.to/lastmile_qr_scan"}, "fusion_lon": 0.0}, {"lat": 38.9309065, "is_disabled": 0, "type": "electric_scooter", "lon": -77.03749383333333, "bike_id": "aec1a7ea9c0414e6c4744f1b2d3d23e2", "fusion_lat": 0.0, "name": "aec1a7ea9c0414e6c4744f1b2d3d23e2", "is_reserved": 0, "rental_uris": {"android": "https://dc.lft.to/lastmile_qr_scan", "ios": "https://dc.lft.to/lastmile_qr_scan"}, "fusion_lon": 0.0}, {"lat": 38.89220483333333, "is_disabled": 0, "type": "electric_scooter", "lon": -77.02318733333334, "bike_id": "d23aa58156f24a736b4d99485a2ebf9a", "fusion_lat": 0.0, "name": "d23aa58156f24a736b4d99485a2ebf9a", "is_reserved": 0, "rental_uris": {"android": "https://dc.lft.to/lastmile_qr_scan", "ios": "https://dc.lft.to/lastmile_qr_scan"}, "fusion_lon": 0.0}, {"lat": 38.90848416666667, "is_disabled": 0, "type": "electric_scooter", "lon": -77.04337866666667, "bike_id": "be9345a54907614822ab585b3e8b5139", "fusion_lat": 0.0, "name": "be9345a54907614822ab585b3e8b5139", "is_reserved": 0, "rental_uris": {"android": "https://dc.lft.to/lastmile_qr_scan", "ios": "https://dc.lft.to/lastmile_qr_scan"}, "fusion_lon": 0.0}, {"lat": 38.917151, "is_disabled": 0, "type": "electric_scooter", "lon": -77.03836283333334, "bike_id": "d2050436daa040756b9c10cecc61d302", "fusion_lat": 0.0, "name": "d2050436daa040756b9c10cecc61d302", "is_reserved": 0, "rental_uris": {"android": "https://dc.lft.to/lastmile_qr_scan", "ios": "https://dc.lft.to/lastmile_qr_scan"}, "fusion_lon": 0.0}, {"lat": 38.91194616666667, "is_disabled": 0, "type": "electric_scooter", "lon": -77.03428316666667, "bike_id": "f399897b8f61429ce31fc45858da88f4", "fusion_lat": 0.0, "name": "f399897b8f61429ce31fc45858da88f4", "is_reserved": 0, "rental_uris": {"android": "https://dc.lft.to/lastmile_qr_scan", "ios": "https://dc.lft.to/lastmile_qr_scan"}, "fusion_lon": 0.0}, {"lat": 38.9273885, "is_disabled": 0, "type": "electric_scooter", "lon": -77.03417233333333, "bike_id": "118cb759083c1ef57935bf549c8112da", "fusion_lat": 0.0, "name": "118cb759083c1ef57935bf549c8112da", "is_reserved": 0, "rental_uris": {"android": "https://dc.lft.to/lastmile_qr_scan", "ios": "https://dc.lft.to/lastmile_qr_scan"}, "fusion_lon": 0.0}, {"lat": 38.92285566666666, "is_disabled": 0, "type": "electric_scooter", "lon": -77.029642, "bike_id": "593563a66964c7a6e65a962a0a040594", "fusion_lat": 0.0, "name": "593563a66964c7a6e65a962a0a040594", "is_reserved": 0, "rental_uris": {"android": "https://dc.lft.to/lastmile_qr_scan", "ios": "https://dc.lft.to/lastmile_qr_scan"}, "fusion_lon": 0.0}, {"lat": 38.954889, "is_disabled": 0, "type": "electric_scooter", "lon": -77.06561983333333, "bike_id": "5c6614e592e21557d5db3c9277e2b405", "fusion_lat": 0.0, "name": "5c6614e592e21557d5db3c9277e2b405", "is_reserved": 0, "rental_uris": {"android": "https://dc.lft.to/lastmile_qr_scan", "ios": "https://dc.lft.to/lastmile_qr_scan"}, "fusion_lon": 0.0}, {"lat": 38.892484833333334, "is_disabled": 0, "type": "electric_scooter", "lon": -77.03955166666667, "bike_id": "98ac405b11cfc9afb9fc271499bc5dfe", "fusion_lat": 0.0, "name": "98ac405b11cfc9afb9fc271499bc5dfe", "is_reserved": 0, "rental_uris": {"android": "https://dc.lft.to/lastmile_qr_scan", "ios": "https://dc.lft.to/lastmile_qr_scan"}, "fusion_lon": 0.0}, {"lat": 38.89573933333333, "is_disabled": 0, "type": "electric_bike", "lon": -77.12698966666666, "bike_id": "ce91cdf4d8d7d1581642ce5c0a3a3381", "fusion_lat": 0.0, "name": "ce91cdf4d8d7d1581642ce5c0a3a3381", "is_reserved": 0, "rental_uris": {"android": "https://dc.lft.to/lastmile_qr_scan", "ios": "https://dc.lft.to/lastmile_qr_scan"}, "fusion_lon": 0.0}, {"lat": 38.9288185, "is_disabled": 0, "type": "electric_scooter", "lon": -77.03315883333333, "bike_id": "b7945b127a5f02eb6bac57dd282321b2", "fusion_lat": 0.0, "name": "b7945b127a5f02eb6bac57dd282321b2", "is_reserved": 0, "rental_uris": {"android": "https://dc.lft.to/lastmile_qr_scan", "ios": "https://dc.lft.to/lastmile_qr_scan"}, "fusion_lon": 0.0}, {"lat": 38.902885, "is_disabled": 0, "type": "electric_scooter", "lon": -77.036568, "bike_id": "d9bbc62b4a8fda9e2c7a0c66cc316119", "fusion_lat": 0.0, "name": "d9bbc62b4a8fda9e2c7a0c66cc316119", "is_reserved": 0, "rental_uris": {"android": "https://dc.lft.to/lastmile_qr_scan", "ios": "https://dc.lft.to/lastmile_qr_scan"}, "fusion_lon": 0.0}, {"lat": 38.933606833333336, "is_disabled": 0, "type": "electric_bike", "lon": -77.09958966666666, "bike_id": "ab7e402a15861c873df6bb9a51ea5a3f", "fusion_lat": 0.0, "name": "ab7e402a15861c873df6bb9a51ea5a3f", "is_reserved": 0, "rental_uris": {"android": "https://dc.lft.to/lastmile_qr_scan", "ios": "https://dc.lft.to/lastmile_qr_scan"}, "fusion_lon": 0.0}, {"lat": 38.914170166666665, "is_disabled": 0, "type": "electric_scooter", "lon": -77.03186983333333, "bike_id": "21b775f2b85fabb3175d5cca3ed78ded", "fusion_lat": 0.0, "name": "21b775f2b85fabb3175d5cca3ed78ded", "is_reserved": 0, "rental_uris": {"android": "https://dc.lft.to/lastmile_qr_scan", "ios": "https://dc.lft.to/lastmile_qr_scan"}, "fusion_lon": 0.0}, {"lat": 38.92324683333333, "is_disabled": 0, "type": "electric_scooter", "lon": -77.0355015, "bike_id": "c70d1ce52fa8ad15050db125a6e747d5", "fusion_lat": 0.0, "name": "c70d1ce52fa8ad15050db125a6e747d5", "is_reserved": 0, "rental_uris": {"android": "https://dc.lft.to/lastmile_qr_scan", "ios": "https://dc.lft.to/lastmile_qr_scan"}, "fusion_lon": 0.0}, {"lat": 38.909747, "is_disabled": 0, "type": "electric_scooter", "lon": -77.03865216666667, "bike_id": "0bf4c40166a34479121fb2b753b7a950", "fusion_lat": 0.0, "name": "0bf4c40166a34479121fb2b753b7a950", "is_reserved": 0, "rental_uris": {"android": "https://dc.lft.to/lastmile_qr_scan", "ios": "https://dc.lft.to/lastmile_qr_scan"}, "fusion_lon": 0.0}, {"lat": 38.916928, "is_disabled": 0, "type": "electric_scooter", "lon": -77.04194366666667, "bike_id": "108e503601a04e29564d0162d16591de", "fusion_lat": 0.0, "name": "108e503601a04e29564d0162d16591de", "is_reserved": 0, "rental_uris": {"android": "https://dc.lft.to/lastmile_qr_scan", "ios": "https://dc.lft.to/lastmile_qr_scan"}, "fusion_lon": 0.0}, {"lat": 38.908122, "is_disabled": 0, "type": "electric_scooter", "lon": -77.04339566666667, "bike_id": "5cf3c0a68aabf5c7bd8507f2971d592f", "fusion_lat": 0.0, "name": "5cf3c0a68aabf5c7bd8507f2971d592f", "is_reserved": 0, "rental_uris": {"android": "https://dc.lft.to/lastmile_qr_scan", "ios": "https://dc.lft.to/lastmile_qr_scan"}, "fusion_lon": 0.0}, {"lat": 38.865236, "is_disabled": 0, "type": "electric_scooter", "lon": -76.99026066666667, "bike_id": "0bc6f3568f0aa9cec9eaa80da8ed6cca", "fusion_lat": 0.0, "name": "0bc6f3568f0aa9cec9eaa80da8ed6cca", "is_reserved": 0, "rental_uris": {"android": "https://dc.lft.to/lastmile_qr_scan", "ios": "https://dc.lft.to/lastmile_qr_scan"}, "fusion_lon": 0.0}, {"lat": 38.9212835, "is_disabled": 0, "type": "electric_scooter", "lon": -77.03671916666667, "bike_id": "66ce31130147dfcaef8c6bedd5a93692", "fusion_lat": 0.0, "name": "66ce31130147dfcaef8c6bedd5a93692", "is_reserved": 0, "rental_uris": {"android": "https://dc.lft.to/lastmile_qr_scan", "ios": "https://dc.lft.to/lastmile_qr_scan"}, "fusion_lon": 0.0}, {"lat": 38.90163483333333, "is_disabled": 0, "type": "electric_scooter", "lon": -77.03921466666667, "bike_id": "43b44e97a1dc1badc25e6a9195bf96c6", "fusion_lat": 0.0, "name": "43b44e97a1dc1badc25e6a9195bf96c6", "is_reserved": 0, "rental_uris": {"android": "https://dc.lft.to/lastmile_qr_scan", "ios": "https://dc.lft.to/lastmile_qr_scan"}, "fusion_lon": 0.0}, {"lat": 38.91138083333333, "is_disabled": 0, "type": "electric_scooter", "lon": -77.0270045, "bike_id": "c53ea65a87ceaff6128d2b2fd1bd1010", "fusion_lat": 0.0, "name": "c53ea65a87ceaff6128d2b2fd1bd1010", "is_reserved": 0, "rental_uris": {"android": "https://dc.lft.to/lastmile_qr_scan", "ios": "https://dc.lft.to/lastmile_qr_scan"}, "fusion_lon": 0.0}, {"lat": 38.9309505, "is_disabled": 0, "type": "electric_scooter", "lon": -77.0344165, "bike_id": "f491b6f3ff1df44984e75854546849a5", "fusion_lat": 0.0, "name": "f491b6f3ff1df44984e75854546849a5", "is_reserved": 0, "rental_uris": {"android": "https://dc.lft.to/lastmile_qr_scan", "ios": "https://dc.lft.to/lastmile_qr_scan"}, "fusion_lon": 0.0}, {"lat": 38.89562466666667, "is_disabled": 0, "type": "electric_bike", "lon": -77.1273315, "bike_id": "606b8a4295da6d1ca9af1f8504506351", "fusion_lat": 0.0, "name": "606b8a4295da6d1ca9af1f8504506351", "is_reserved": 0, "rental_uris": {"android": "https://dc.lft.to/lastmile_qr_scan", "ios": "https://dc.lft.to/lastmile_qr_scan"}, "fusion_lon": 0.0}, {"lat": 38.919019, "is_disabled": 0, "type": "electric_scooter", "lon": -77.00048766666667, "bike_id": "bcde2412b58e43e1a424cc69b5739e88", "fusion_lat": 0.0, "name": "bcde2412b58e43e1a424cc69b5739e88", "is_reserved": 0, "rental_uris": {"android": "https://dc.lft.to/lastmile_qr_scan", "ios": "https://dc.lft.to/lastmile_qr_scan"}, "fusion_lon": 0.0}, {"lat": 38.9041805, "is_disabled": 0, "type": "electric_scooter", "lon": -77.06889816666667, "bike_id": "6fd2313fab84802eb8b322008239ab0a", "fusion_lat": 0.0, "name": "6fd2313fab84802eb8b322008239ab0a", "is_reserved": 0, "rental_uris": {"android": "https://dc.lft.to/lastmile_qr_scan", "ios": "https://dc.lft.to/lastmile_qr_scan"}, "fusion_lon": 0.0}, {"lat": 38.887405333333334, "is_disabled": 0, "type": "electric_scooter", "lon": -77.01534933333333, "bike_id": "357aebff7cdd7b5ac30ba5b6fb5e525e", "fusion_lat": 0.0, "name": "357aebff7cdd7b5ac30ba5b6fb5e525e", "is_reserved": 0, "rental_uris": {"android": "https://dc.lft.to/lastmile_qr_scan", "ios": "https://dc.lft.to/lastmile_qr_scan"}, "fusion_lon": 0.0}, {"lat": 38.920864333333334, "is_disabled": 0, "type": "electric_scooter", "lon": -77.03640583333333, "bike_id": "e4451307bd0aed7f067008a4e3a3dc5b", "fusion_lat": 0.0, "name": "e4451307bd0aed7f067008a4e3a3dc5b", "is_reserved": 0, "rental_uris": {"android": "https://dc.lft.to/lastmile_qr_scan", "ios": "https://dc.lft.to/lastmile_qr_scan"}, "fusion_lon": 0.0}, {"lat": 38.916882333333334, "is_disabled": 0, "type": "electric_scooter", "lon": -77.02801483333333, "bike_id": "b1c3a9b67404f06464db325e9462ee6e", "fusion_lat": 0.0, "name": "b1c3a9b67404f06464db325e9462ee6e", "is_reserved": 0, "rental_uris": {"android": "https://dc.lft.to/lastmile_qr_scan", "ios": "https://dc.lft.to/lastmile_qr_scan"}, "fusion_lon": 0.0}, {"lat": 38.89011433333334, "is_disabled": 0, "type": "electric_scooter", "lon": -76.937504, "bike_id": "893e12ee4d375447f80ddffd4cd7f03f", "fusion_lat": 0.0, "name": "893e12ee4d375447f80ddffd4cd7f03f", "is_reserved": 0, "rental_uris": {"android": "https://dc.lft.to/lastmile_qr_scan", "ios": "https://dc.lft.to/lastmile_qr_scan"}, "fusion_lon": 0.0}, {"lat": 38.90062916666667, "is_disabled": 0, "type": "electric_scooter", "lon": -77.0020275, "bike_id": "aea184bff3242a19ffd24047e6975304", "fusion_lat": 0.0, "name": "aea184bff3242a19ffd24047e6975304", "is_reserved": 0, "rental_uris": {"android": "https://dc.lft.to/lastmile_qr_scan", "ios": "https://dc.lft.to/lastmile_qr_scan"}, "fusion_lon": 0.0}, {"lat": 38.90797333333333, "is_disabled": 0, "type": "electric_scooter", "lon": -77.0269465, "bike_id": "5a2608298196f2282bbb0f8a0836c68e", "fusion_lat": 0.0, "name": "5a2608298196f2282bbb0f8a0836c68e", "is_reserved": 0, "rental_uris": {"android": "https://dc.lft.to/lastmile_qr_scan", "ios": "https://dc.lft.to/lastmile_qr_scan"}, "fusion_lon": 0.0}, {"lat": 38.921018, "is_disabled": 0, "type": "electric_scooter", "lon": -77.01769183333333, "bike_id": "5a0be4f4fe7a9c7506d9e22ae3da183d", "fusion_lat": 0.0, "name": "5a0be4f4fe7a9c7506d9e22ae3da183d", "is_reserved": 0, "rental_uris": {"android": "https://dc.lft.to/lastmile_qr_scan", "ios": "https://dc.lft.to/lastmile_qr_scan"}, "fusion_lon": 0.0}, {"lat": 38.91946683333333, "is_disabled": 0, "type": "electric_scooter", "lon": -77.02438583333333, "bike_id": "ad277b2198608bd3e53dd1420ccac3c5", "fusion_lat": 0.0, "name": "ad277b2198608bd3e53dd1420ccac3c5", "is_reserved": 0, "rental_uris": {"android": "https://dc.lft.to/lastmile_qr_scan", "ios": "https://dc.lft.to/lastmile_qr_scan"}, "fusion_lon": 0.0}, {"lat": 38.9170735, "is_disabled": 0, "type": "electric_scooter", "lon": -77.03120533333333, "bike_id": "05fa4686f7462d296696fc9b4bd2cd7e", "fusion_lat": 0.0, "name": "05fa4686f7462d296696fc9b4bd2cd7e", "is_reserved": 0, "rental_uris": {"android": "https://dc.lft.to/lastmile_qr_scan", "ios": "https://dc.lft.to/lastmile_qr_scan"}, "fusion_lon": 0.0}, {"lat": 38.90115866666667, "is_disabled": 0, "type": "electric_scooter", "lon": -76.99549183333333, "bike_id": "b44da7acc3759f3c26f4270275dab69f", "fusion_lat": 0.0, "name": "b44da7acc3759f3c26f4270275dab69f", "is_reserved": 0, "rental_uris": {"android": "https://dc.lft.to/lastmile_qr_scan", "ios": "https://dc.lft.to/lastmile_qr_scan"}, "fusion_lon": 0.0}, {"lat": 38.91820116666667, "is_disabled": 0, "type": "electric_scooter", "lon": -77.04192583333334, "bike_id": "a7137c471e1372c3fbe419fac8f5ef15", "fusion_lat": 0.0, "name": "a7137c471e1372c3fbe419fac8f5ef15", "is_reserved": 0, "rental_uris": {"android": "https://dc.lft.to/lastmile_qr_scan", "ios": "https://dc.lft.to/lastmile_qr_scan"}, "fusion_lon": 0.0}, {"lat": 38.91101783333333, "is_disabled": 0, "type": "electric_scooter", "lon": -77.0420815, "bike_id": "5fed5525c5aa8484ba499fe778209ac4", "fusion_lat": 0.0, "name": "5fed5525c5aa8484ba499fe778209ac4", "is_reserved": 0, "rental_uris": {"android": "https://dc.lft.to/lastmile_qr_scan", "ios": "https://dc.lft.to/lastmile_qr_scan"}, "fusion_lon": 0.0}, {"lat": 38.91666083333333, "is_disabled": 0, "type": "electric_scooter", "lon": -77.047254, "bike_id": "cb18ba7ca1f5d1a0aec5b479f8ee8fff", "fusion_lat": 0.0, "name": "cb18ba7ca1f5d1a0aec5b479f8ee8fff", "is_reserved": 0, "rental_uris": {"android": "https://dc.lft.to/lastmile_qr_scan", "ios": "https://dc.lft.to/lastmile_qr_scan"}, "fusion_lon": 0.0}, {"lat": 38.89548383333333, "is_disabled": 0, "type": "electric_scooter", "lon": -77.00436666666667, "bike_id": "0fec9e8d0b9d3c8307f1db9e91704bc9", "fusion_lat": 0.0, "name": "0fec9e8d0b9d3c8307f1db9e91704bc9", "is_reserved": 0, "rental_uris": {"android": "https://dc.lft.to/lastmile_qr_scan", "ios": "https://dc.lft.to/lastmile_qr_scan"}, "fusion_lon": 0.0}, {"lat": 38.935343, "is_disabled": 0, "type": "electric_scooter", "lon": -77.02343683333334, "bike_id": "330daf58694db317ad359507c409efff", "fusion_lat": 0.0, "name": "330daf58694db317ad359507c409efff", "is_reserved": 0, "rental_uris": {"android": "https://dc.lft.to/lastmile_qr_scan", "ios": "https://dc.lft.to/lastmile_qr_scan"}, "fusion_lon": 0.0}, {"lat": 38.83730083333333, "is_disabled": 0, "type": "electric_bike", "lon": -76.99763333333334, "bike_id": "89a5298b814e0ba2f5174fbe3efb244e", "fusion_lat": 0.0, "name": "89a5298b814e0ba2f5174fbe3efb244e", "is_reserved": 0, "rental_uris": {"android": "https://dc.lft.to/lastmile_qr_scan", "ios": "https://dc.lft.to/lastmile_qr_scan"}, "fusion_lon": 0.0}, {"lat": 38.902702833333336, "is_disabled": 0, "type": "electric_scooter", "lon": -77.0034835, "bike_id": "b096c379700fb9489778fa9287569ff1", "fusion_lat": 0.0, "name": "b096c379700fb9489778fa9287569ff1", "is_reserved": 0, "rental_uris": {"android": "https://dc.lft.to/lastmile_qr_scan", "ios": "https://dc.lft.to/lastmile_qr_scan"}, "fusion_lon": 0.0}, {"lat": 38.86508716666667, "is_disabled": 0, "type": "electric_scooter", "lon": -76.99007483333334, "bike_id": "a0f0c1ff3efd088ffa98918580f5a482", "fusion_lat": 0.0, "name": "a0f0c1ff3efd088ffa98918580f5a482", "is_reserved": 0, "rental_uris": {"android": "https://dc.lft.to/lastmile_qr_scan", "ios": "https://dc.lft.to/lastmile_qr_scan"}, "fusion_lon": 0.0}, {"lat": 38.929346833333334, "is_disabled": 0, "type": "electric_scooter", "lon": -77.0375165, "bike_id": "87ea700978cac1c285294331482f9010", "fusion_lat": 0.0, "name": "87ea700978cac1c285294331482f9010", "is_reserved": 0, "rental_uris": {"android": "https://dc.lft.to/lastmile_qr_scan", "ios": "https://dc.lft.to/lastmile_qr_scan"}, "fusion_lon": 0.0}, {"lat": 38.89974433333333, "is_disabled": 0, "type": "electric_scooter", "lon": -77.02070316666666, "bike_id": "1fa429bc8cda6e1770b922b9a39dcd09", "fusion_lat": 0.0, "name": "1fa429bc8cda6e1770b922b9a39dcd09", "is_reserved": 0, "rental_uris": {"android": "https://dc.lft.to/lastmile_qr_scan", "ios": "https://dc.lft.to/lastmile_qr_scan"}, "fusion_lon": 0.0}, {"lat": 38.9176935, "is_disabled": 0, "type": "electric_scooter", "lon": -77.01874766666667, "bike_id": "28d808b1554a0f85c3cd702616b5fd69", "fusion_lat": 0.0, "name": "28d808b1554a0f85c3cd702616b5fd69", "is_reserved": 0, "rental_uris": {"android": "https://dc.lft.to/lastmile_qr_scan", "ios": "https://dc.lft.to/lastmile_qr_scan"}, "fusion_lon": 0.0}, {"lat": 38.856815, "is_disabled": 0, "type": "electric_scooter", "lon": -76.981842, "bike_id": "4457ac3809b82c3feda169aa0bd5e203", "fusion_lat": 0.0, "name": "4457ac3809b82c3feda169aa0bd5e203", "is_reserved": 0, "rental_uris": {"android": "https://dc.lft.to/lastmile_qr_scan", "ios": "https://dc.lft.to/lastmile_qr_scan"}, "fusion_lon": 0.0}, {"lat": 38.9365015, "is_disabled": 0, "type": "electric_scooter", "lon": -77.0204865, "bike_id": "0a86a8c33ab17870aedfc580892820d2", "fusion_lat": 0.0, "name": "0a86a8c33ab17870aedfc580892820d2", "is_reserved": 0, "rental_uris": {"android": "https://dc.lft.to/lastmile_qr_scan", "ios": "https://dc.lft.to/lastmile_qr_scan"}, "fusion_lon": 0.0}, {"lat": 38.91736983333333, "is_disabled": 0, "type": "electric_scooter", "lon": -77.03653933333334, "bike_id": "66082cc610dccea4eb23302ca3ca4752", "fusion_lat": 0.0, "name": "66082cc610dccea4eb23302ca3ca4752", "is_reserved": 0, "rental_uris": {"android": "https://dc.lft.to/lastmile_qr_scan", "ios": "https://dc.lft.to/lastmile_qr_scan"}, "fusion_lon": 0.0}, {"lat": 38.9156525, "is_disabled": 0, "type": "electric_scooter", "lon": -77.0385, "bike_id": "17372f7a4a8196590c7799a307accd58", "fusion_lat": 0.0, "name": "17372f7a4a8196590c7799a307accd58", "is_reserved": 0, "rental_uris": {"android": "https://dc.lft.to/lastmile_qr_scan", "ios": "https://dc.lft.to/lastmile_qr_scan"}, "fusion_lon": 0.0}, {"lat": 38.9053885, "is_disabled": 0, "type": "electric_scooter", "lon": -77.02204416666666, "bike_id": "e4b5aa674c83f6d03040ed3fad1421a1", "fusion_lat": 0.0, "name": "e4b5aa674c83f6d03040ed3fad1421a1", "is_reserved": 0, "rental_uris": {"android": "https://dc.lft.to/lastmile_qr_scan", "ios": "https://dc.lft.to/lastmile_qr_scan"}, "fusion_lon": 0.0}, {"lat": 38.9369085, "is_disabled": 0, "type": "electric_bike", "lon": -77.0564665, "bike_id": "58be7db1020724cd931a04a64a80fa5e", "fusion_lat": 0.0, "name": "58be7db1020724cd931a04a64a80fa5e", "is_reserved": 0, "rental_uris": {"android": "https://dc.lft.to/lastmile_qr_scan", "ios": "https://dc.lft.to/lastmile_qr_scan"}, "fusion_lon": 0.0}, {"lat": 38.9483705, "is_disabled": 0, "type": "electric_bike", "lon": -77.03887366666666, "bike_id": "1d624c78809f8ace51b5ab83228465bc", "fusion_lat": 0.0, "name": "1d624c78809f8ace51b5ab83228465bc", "is_reserved": 0, "rental_uris": {"android": "https://dc.lft.to/lastmile_qr_scan", "ios": "https://dc.lft.to/lastmile_qr_scan"}, "fusion_lon": 0.0}, {"lat": 38.93203833333333, "is_disabled": 0, "type": "electric_scooter", "lon": -77.03665016666666, "bike_id": "d78529c3e0a2b7cccdb47adac1e0f54e", "fusion_lat": 0.0, "name": "d78529c3e0a2b7cccdb47adac1e0f54e", "is_reserved": 0, "rental_uris": {"android": "https://dc.lft.to/lastmile_qr_scan", "ios": "https://dc.lft.to/lastmile_qr_scan"}, "fusion_lon": 0.0}, {"lat": 38.898794, "is_disabled": 0, "type": "electric_scooter", "lon": -77.05338766666667, "bike_id": "339445e2e94e1c2837bbb1d3025cfe9a", "fusion_lat": 0.0, "name": "339445e2e94e1c2837bbb1d3025cfe9a", "is_reserved": 0, "rental_uris": {"android": "https://dc.lft.to/lastmile_qr_scan", "ios": "https://dc.lft.to/lastmile_qr_scan"}, "fusion_lon": 0.0}, {"lat": 38.922761333333334, "is_disabled": 0, "type": "electric_scooter", "lon": -77.02961616666667, "bike_id": "a07ef9942d712c2fc7725ab5b58fe43e", "fusion_lat": 0.0, "name": "a07ef9942d712c2fc7725ab5b58fe43e", "is_reserved": 0, "rental_uris": {"android": "https://dc.lft.to/lastmile_qr_scan", "ios": "https://dc.lft.to/lastmile_qr_scan"}, "fusion_lon": 0.0}, {"lat": 38.90677066666667, "is_disabled": 0, "type": "electric_scooter", "lon": -77.0271585, "bike_id": "6da0db552f4fad69b6ca2273033171b9", "fusion_lat": 0.0, "name": "6da0db552f4fad69b6ca2273033171b9", "is_reserved": 0, "rental_uris": {"android": "https://dc.lft.to/lastmile_qr_scan", "ios": "https://dc.lft.to/lastmile_qr_scan"}, "fusion_lon": 0.0}, {"lat": 38.86345466666667, "is_disabled": 0, "type": "electric_scooter", "lon": -76.989995, "bike_id": "9faf25fe12da15c812962e6affc1534c", "fusion_lat": 0.0, "name": "9faf25fe12da15c812962e6affc1534c", "is_reserved": 0, "rental_uris": {"android": "https://dc.lft.to/lastmile_qr_scan", "ios": "https://dc.lft.to/lastmile_qr_scan"}, "fusion_lon": 0.0}, {"lat": 38.89921866666667, "is_disabled": 0, "type": "electric_scooter", "lon": -76.93368366666667, "bike_id": "d6a16e320d382d325cb9df4a90d52210", "fusion_lat": 0.0, "name": "d6a16e320d382d325cb9df4a90d52210", "is_reserved": 0, "rental_uris": {"android": "https://dc.lft.to/lastmile_qr_scan", "ios": "https://dc.lft.to/lastmile_qr_scan"}, "fusion_lon": 0.0}, {"lat": 38.95557483333333, "is_disabled": 0, "type": "electric_bike", "lon": -76.93541616666667, "bike_id": "a52f12b39c4dfe4a97330067d6ac02e7", "fusion_lat": 0.0, "name": "a52f12b39c4dfe4a97330067d6ac02e7", "is_reserved": 0, "rental_uris": {"android": "https://dc.lft.to/lastmile_qr_scan", "ios": "https://dc.lft.to/lastmile_qr_scan"}, "fusion_lon": 0.0}, {"lat": 38.916908166666666, "is_disabled": 0, "type": "electric_scooter", "lon": -77.03220383333333, "bike_id": "92d717affe7f2be89082da878da5bb98", "fusion_lat": 0.0, "name": "92d717affe7f2be89082da878da5bb98", "is_reserved": 0, "rental_uris": {"android": "https://dc.lft.to/lastmile_qr_scan", "ios": "https://dc.lft.to/lastmile_qr_scan"}, "fusion_lon": 0.0}, {"lat": 38.89744816666666, "is_disabled": 0, "type": "electric_scooter", "lon": -77.0217, "bike_id": "31f9e4d7ada5a5444d25129b9caf9595", "fusion_lat": 0.0, "name": "31f9e4d7ada5a5444d25129b9caf9595", "is_reserved": 0, "rental_uris": {"android": "https://dc.lft.to/lastmile_qr_scan", "ios": "https://dc.lft.to/lastmile_qr_scan"}, "fusion_lon": 0.0}, {"lat": 38.920301, "is_disabled": 0, "type": "electric_scooter", "lon": -77.0418055, "bike_id": "455ab5e9d6ce96bcd573970d0773f06a", "fusion_lat": 0.0, "name": "455ab5e9d6ce96bcd573970d0773f06a", "is_reserved": 0, "rental_uris": {"android": "https://dc.lft.to/lastmile_qr_scan", "ios": "https://dc.lft.to/lastmile_qr_scan"}, "fusion_lon": 0.0}, {"lat": 38.92327783333333, "is_disabled": 0, "type": "electric_bike", "lon": -77.03895433333334, "bike_id": "28ee1c22ef2adf39d5fed829ee411cb1", "fusion_lat": 0.0, "name": "28ee1c22ef2adf39d5fed829ee411cb1", "is_reserved": 0, "rental_uris": {"android": "https://dc.lft.to/lastmile_qr_scan", "ios": "https://dc.lft.to/lastmile_qr_scan"}, "fusion_lon": 0.0}, {"lat": 38.914151833333335, "is_disabled": 0, "type": "electric_scooter", "lon": -77.02213683333333, "bike_id": "e6df11571bdd9c772cc3ddcfe9e71fa0", "fusion_lat": 0.0, "name": "e6df11571bdd9c772cc3ddcfe9e71fa0", "is_reserved": 0, "rental_uris": {"android": "https://dc.lft.to/lastmile_qr_scan", "ios": "https://dc.lft.to/lastmile_qr_scan"}, "fusion_lon": 0.0}, {"lat": 38.87659216666667, "is_disabled": 0, "type": "electric_scooter", "lon": -77.004212, "bike_id": "43cd3672bef07bc6728c5eca74f35533", "fusion_lat": 0.0, "name": "43cd3672bef07bc6728c5eca74f35533", "is_reserved": 0, "rental_uris": {"android": "https://dc.lft.to/lastmile_qr_scan", "ios": "https://dc.lft.to/lastmile_qr_scan"}, "fusion_lon": 0.0}, {"lat": 38.96229616666667, "is_disabled": 0, "type": "electric_bike", "lon": -77.02630666666667, "bike_id": "5b8eb858a0c9f8a8a1f83d7b90f24722", "fusion_lat": 0.0, "name": "5b8eb858a0c9f8a8a1f83d7b90f24722", "is_reserved": 0, "rental_uris": {"android": "https://dc.lft.to/lastmile_qr_scan", "ios": "https://dc.lft.to/lastmile_qr_scan"}, "fusion_lon": 0.0}, {"lat": 38.9042515, "is_disabled": 0, "type": "electric_scooter", "lon": -77.02546683333334, "bike_id": "5065a9630fa2868dab4f46c84b129e27", "fusion_lat": 0.0, "name": "5065a9630fa2868dab4f46c84b129e27", "is_reserved": 0, "rental_uris": {"android": "https://dc.lft.to/lastmile_qr_scan", "ios": "https://dc.lft.to/lastmile_qr_scan"}, "fusion_lon": 0.0}, {"lat": 38.905708, "is_disabled": 0, "type": "electric_scooter", "lon": -77.046604, "bike_id": "081e8cc5d94a3c0896d2d9bd5e0cb3a4", "fusion_lat": 0.0, "name": "081e8cc5d94a3c0896d2d9bd5e0cb3a4", "is_reserved": 0, "rental_uris": {"android": "https://dc.lft.to/lastmile_qr_scan", "ios": "https://dc.lft.to/lastmile_qr_scan"}, "fusion_lon": 0.0}, {"lat": 38.93338, "is_disabled": 0, "type": "electric_bike", "lon": -77.042344, "bike_id": "6806ba31b3042e459fb279dc6d2d2bde", "fusion_lat": 0.0, "name": "6806ba31b3042e459fb279dc6d2d2bde", "is_reserved": 0, "rental_uris": {"android": "https://dc.lft.to/lastmile_qr_scan", "ios": "https://dc.lft.to/lastmile_qr_scan"}, "fusion_lon": 0.0}, {"lat": 38.91376916666667, "is_disabled": 0, "type": "electric_scooter", "lon": -77.02002466666667, "bike_id": "1788aed41dd22d36002f078e62617c97", "fusion_lat": 0.0, "name": "1788aed41dd22d36002f078e62617c97", "is_reserved": 0, "rental_uris": {"android": "https://dc.lft.to/lastmile_qr_scan", "ios": "https://dc.lft.to/lastmile_qr_scan"}, "fusion_lon": 0.0}, {"lat": 38.9482295, "is_disabled": 0, "type": "electric_scooter", "lon": -76.99903066666667, "bike_id": "a7adc19912019c839c73d56da280919f", "fusion_lat": 0.0, "name": "a7adc19912019c839c73d56da280919f", "is_reserved": 0, "rental_uris": {"android": "https://dc.lft.to/lastmile_qr_scan", "ios": "https://dc.lft.to/lastmile_qr_scan"}, "fusion_lon": 0.0}, {"lat": 38.89043516666667, "is_disabled": 0, "type": "electric_scooter", "lon": -76.95245733333333, "bike_id": "76b5b5064268115095a9d3ae96766113", "fusion_lat": 0.0, "name": "76b5b5064268115095a9d3ae96766113", "is_reserved": 0, "rental_uris": {"android": "https://dc.lft.to/lastmile_qr_scan", "ios": "https://dc.lft.to/lastmile_qr_scan"}, "fusion_lon": 0.0}, {"lat": 38.88737666666667, "is_disabled": 0, "type": "electric_scooter", "lon": -77.01539083333333, "bike_id": "806faf8c3ae02ca26642f4c06eaf09c5", "fusion_lat": 0.0, "name": "806faf8c3ae02ca26642f4c06eaf09c5", "is_reserved": 0, "rental_uris": {"android": "https://dc.lft.to/lastmile_qr_scan", "ios": "https://dc.lft.to/lastmile_qr_scan"}, "fusion_lon": 0.0}, {"lat": 38.87667616666667, "is_disabled": 0, "type": "electric_scooter", "lon": -77.00417583333333, "bike_id": "fe75372363d0a170ee26166bcf564dd1", "fusion_lat": 0.0, "name": "fe75372363d0a170ee26166bcf564dd1", "is_reserved": 0, "rental_uris": {"android": "https://dc.lft.to/lastmile_qr_scan", "ios": "https://dc.lft.to/lastmile_qr_scan"}, "fusion_lon": 0.0}, {"lat": 38.89878916666667, "is_disabled": 0, "type": "electric_scooter", "lon": -76.9318645, "bike_id": "963e612795ae552c1e26eab733c89d50", "fusion_lat": 0.0, "name": "963e612795ae552c1e26eab733c89d50", "is_reserved": 0, "rental_uris": {"android": "https://dc.lft.to/lastmile_qr_scan", "ios": "https://dc.lft.to/lastmile_qr_scan"}, "fusion_lon": 0.0}, {"lat": 38.8840755, "is_disabled": 0, "type": "electric_bike", "lon": -76.9541685, "bike_id": "dcbc8e2c8390bb84403602c1d1ea6f02", "fusion_lat": 0.0, "name": "dcbc8e2c8390bb84403602c1d1ea6f02", "is_reserved": 0, "rental_uris": {"android": "https://dc.lft.to/lastmile_qr_scan", "ios": "https://dc.lft.to/lastmile_qr_scan"}, "fusion_lon": 0.0}, {"lat": 38.902844, "is_disabled": 0, "type": "electric_scooter", "lon": -77.04410733333333, "bike_id": "d59815534320eb9959fadccc2eb49bb7", "fusion_lat": 0.0, "name": "d59815534320eb9959fadccc2eb49bb7", "is_reserved": 0, "rental_uris": {"android": "https://dc.lft.to/lastmile_qr_scan", "ios": "https://dc.lft.to/lastmile_qr_scan"}, "fusion_lon": 0.0}, {"lat": 38.919691, "is_disabled": 0, "type": "electric_scooter", "lon": -77.01208083333333, "bike_id": "8df0819dcb83cb6b9dc4ef9e9ba3ba88", "fusion_lat": 0.0, "name": "8df0819dcb83cb6b9dc4ef9e9ba3ba88", "is_reserved": 0, "rental_uris": {"android": "https://dc.lft.to/lastmile_qr_scan", "ios": "https://dc.lft.to/lastmile_qr_scan"}, "fusion_lon": 0.0}, {"lat": 38.917321666666666, "is_disabled": 0, "type": "electric_scooter", "lon": -77.03643983333333, "bike_id": "77e8672540d4d83e619a09ff1744786a", "fusion_lat": 0.0, "name": "77e8672540d4d83e619a09ff1744786a", "is_reserved": 0, "rental_uris": {"android": "https://dc.lft.to/lastmile_qr_scan", "ios": "https://dc.lft.to/lastmile_qr_scan"}, "fusion_lon": 0.0}, {"lat": 39.056345666666665, "is_disabled": 0, "type": "electric_bike", "lon": -77.1252805, "bike_id": "a313b1e169d51cc5ebe4445029d9e140", "fusion_lat": 0.0, "name": "a313b1e169d51cc5ebe4445029d9e140", "is_reserved": 0, "rental_uris": {"android": "https://dc.lft.to/lastmile_qr_scan", "ios": "https://dc.lft.to/lastmile_qr_scan"}, "fusion_lon": 0.0}, {"lat": 38.898193166666665, "is_disabled": 0, "type": "electric_scooter", "lon": -77.03119333333333, "bike_id": "f2fe91c56ca99e238145b6ff015ea519", "fusion_lat": 0.0, "name": "f2fe91c56ca99e238145b6ff015ea519", "is_reserved": 0, "rental_uris": {"android": "https://dc.lft.to/lastmile_qr_scan", "ios": "https://dc.lft.to/lastmile_qr_scan"}, "fusion_lon": 0.0}, {"lat": 38.918682833333335, "is_disabled": 0, "type": "electric_scooter", "lon": -77.0320045, "bike_id": "21d873f2371cd6a639598c2a0fce6b82", "fusion_lat": 0.0, "name": "21d873f2371cd6a639598c2a0fce6b82", "is_reserved": 0, "rental_uris": {"android": "https://dc.lft.to/lastmile_qr_scan", "ios": "https://dc.lft.to/lastmile_qr_scan"}, "fusion_lon": 0.0}, {"lat": 38.91119166666667, "is_disabled": 0, "type": "electric_scooter", "lon": -77.037919, "bike_id": "5b402f6a1a35bbb1529e100e81813c30", "fusion_lat": 0.0, "name": "5b402f6a1a35bbb1529e100e81813c30", "is_reserved": 0, "rental_uris": {"android": "https://dc.lft.to/lastmile_qr_scan", "ios": "https://dc.lft.to/lastmile_qr_scan"}, "fusion_lon": 0.0}, {"lat": 38.93207816666666, "is_disabled": 0, "type": "electric_scooter", "lon": -77.02247816666667, "bike_id": "7f8081db29869fc9fb5c97ea4441db31", "fusion_lat": 0.0, "name": "7f8081db29869fc9fb5c97ea4441db31", "is_reserved": 0, "rental_uris": {"android": "https://dc.lft.to/lastmile_qr_scan", "ios": "https://dc.lft.to/lastmile_qr_scan"}, "fusion_lon": 0.0}, {"lat": 38.911873, "is_disabled": 0, "type": "electric_scooter", "lon": -77.04291116666667, "bike_id": "ab736089c232cbec8377e5f4187d2d5e", "fusion_lat": 0.0, "name": "ab736089c232cbec8377e5f4187d2d5e", "is_reserved": 0, "rental_uris": {"android": "https://dc.lft.to/lastmile_qr_scan", "ios": "https://dc.lft.to/lastmile_qr_scan"}, "fusion_lon": 0.0}, {"lat": 38.903607666666666, "is_disabled": 0, "type": "electric_scooter", "lon": -77.0447, "bike_id": "b2a8706899af95ef46611d7c6ea4d991", "fusion_lat": 0.0, "name": "b2a8706899af95ef46611d7c6ea4d991", "is_reserved": 0, "rental_uris": {"android": "https://dc.lft.to/lastmile_qr_scan", "ios": "https://dc.lft.to/lastmile_qr_scan"}, "fusion_lon": 0.0}, {"lat": 38.9193035, "is_disabled": 0, "type": "electric_scooter", "lon": -77.0319415, "bike_id": "9b21fab3cb64cdc0af64368078c6aa5b", "fusion_lat": 0.0, "name": "9b21fab3cb64cdc0af64368078c6aa5b", "is_reserved": 0, "rental_uris": {"android": "https://dc.lft.to/lastmile_qr_scan", "ios": "https://dc.lft.to/lastmile_qr_scan"}, "fusion_lon": 0.0}, {"lat": 38.9335725, "is_disabled": 0, "type": "electric_bike", "lon": -77.09961466666667, "bike_id": "1010b4aa0a0cc9f832eb4b3fc188402b", "fusion_lat": 0.0, "name": "1010b4aa0a0cc9f832eb4b3fc188402b", "is_reserved": 0, "rental_uris": {"android": "https://dc.lft.to/lastmile_qr_scan", "ios": "https://dc.lft.to/lastmile_qr_scan"}, "fusion_lon": 0.0}, {"lat": 38.9027205, "is_disabled": 0, "type": "electric_scooter", "lon": -77.03976116666666, "bike_id": "ce847601f0d2774764b9c67271606d6c", "fusion_lat": 0.0, "name": "ce847601f0d2774764b9c67271606d6c", "is_reserved": 0, "rental_uris": {"android": "https://dc.lft.to/lastmile_qr_scan", "ios": "https://dc.lft.to/lastmile_qr_scan"}, "fusion_lon": 0.0}, {"lat": 38.916843166666666, "is_disabled": 0, "type": "electric_scooter", "lon": -77.0122205, "bike_id": "d78280caa2a307b6214df70b2b98bbab", "fusion_lat": 0.0, "name": "d78280caa2a307b6214df70b2b98bbab", "is_reserved": 0, "rental_uris": {"android": "https://dc.lft.to/lastmile_qr_scan", "ios": "https://dc.lft.to/lastmile_qr_scan"}, "fusion_lon": 0.0}, {"lat": 38.900718499999996, "is_disabled": 0, "type": "electric_scooter", "lon": -77.00204033333333, "bike_id": "b6d2cb8729c8dfb98d089dd5f7dc48ac", "fusion_lat": 0.0, "name": "b6d2cb8729c8dfb98d089dd5f7dc48ac", "is_reserved": 0, "rental_uris": {"android": "https://dc.lft.to/lastmile_qr_scan", "ios": "https://dc.lft.to/lastmile_qr_scan"}, "fusion_lon": 0.0}, {"lat": 38.907416833333336, "is_disabled": 0, "type": "electric_scooter", "lon": -77.03435666666667, "bike_id": "c59d93b2932d7d9522765fbb358f7693", "fusion_lat": 0.0, "name": "c59d93b2932d7d9522765fbb358f7693", "is_reserved": 0, "rental_uris": {"android": "https://dc.lft.to/lastmile_qr_scan", "ios": "https://dc.lft.to/lastmile_qr_scan"}, "fusion_lon": 0.0}, {"lat": 38.921467166666666, "is_disabled": 0, "type": "electric_scooter", "lon": -77.02086216666666, "bike_id": "5943a731dbc344d864002fb02245a4e7", "fusion_lat": 0.0, "name": "5943a731dbc344d864002fb02245a4e7", "is_reserved": 0, "rental_uris": {"android": "https://dc.lft.to/lastmile_qr_scan", "ios": "https://dc.lft.to/lastmile_qr_scan"}, "fusion_lon": 0.0}, {"lat": 38.92366783333333, "is_disabled": 0, "type": "electric_scooter", "lon": -77.05134333333334, "bike_id": "3ec60209a34212e3e215d0eec259ec04", "fusion_lat": 0.0, "name": "3ec60209a34212e3e215d0eec259ec04", "is_reserved": 0, "rental_uris": {"android": "https://dc.lft.to/lastmile_qr_scan", "ios": "https://dc.lft.to/lastmile_qr_scan"}, "fusion_lon": 0.0}, {"lat": 38.913040333333335, "is_disabled": 0, "type": "electric_scooter", "lon": -77.02403966666667, "bike_id": "026c7d32869711b39e3206cb7f40393f", "fusion_lat": 0.0, "name": "026c7d32869711b39e3206cb7f40393f", "is_reserved": 0, "rental_uris": {"android": "https://dc.lft.to/lastmile_qr_scan", "ios": "https://dc.lft.to/lastmile_qr_scan"}, "fusion_lon": 0.0}, {"lat": 38.910088333333334, "is_disabled": 0, "type": "electric_scooter", "lon": -77.02197483333333, "bike_id": "2917578cb5bb6124af0f3520d153357e", "fusion_lat": 0.0, "name": "2917578cb5bb6124af0f3520d153357e", "is_reserved": 0, "rental_uris": {"android": "https://dc.lft.to/lastmile_qr_scan", "ios": "https://dc.lft.to/lastmile_qr_scan"}, "fusion_lon": 0.0}, {"lat": 38.9154685, "is_disabled": 0, "type": "electric_scooter", "lon": -77.07418433333333, "bike_id": "50286aff5a5cc581d2745053be6d9646", "fusion_lat": 0.0, "name": "50286aff5a5cc581d2745053be6d9646", "is_reserved": 0, "rental_uris": {"android": "https://dc.lft.to/lastmile_qr_scan", "ios": "https://dc.lft.to/lastmile_qr_scan"}, "fusion_lon": 0.0}, {"lat": 38.89845116666667, "is_disabled": 0, "type": "electric_scooter", "lon": -76.94636216666666, "bike_id": "ed0f47a72dba84768ac530f3dc19b3a1", "fusion_lat": 0.0, "name": "ed0f47a72dba84768ac530f3dc19b3a1", "is_reserved": 0, "rental_uris": {"android": "https://dc.lft.to/lastmile_qr_scan", "ios": "https://dc.lft.to/lastmile_qr_scan"}, "fusion_lon": 0.0}, {"lat": 38.90968733333333, "is_disabled": 0, "type": "electric_scooter", "lon": -76.9960635, "bike_id": "33000a4fe5bd37087ee32c27fca653d7", "fusion_lat": 0.0, "name": "33000a4fe5bd37087ee32c27fca653d7", "is_reserved": 0, "rental_uris": {"android": "https://dc.lft.to/lastmile_qr_scan", "ios": "https://dc.lft.to/lastmile_qr_scan"}, "fusion_lon": 0.0}, {"lat": 38.899960666666665, "is_disabled": 0, "type": "electric_scooter", "lon": -76.99955683333333, "bike_id": "bfa269c6135715e65cdcec1b982d0c56", "fusion_lat": 0.0, "name": "bfa269c6135715e65cdcec1b982d0c56", "is_reserved": 0, "rental_uris": {"android": "https://dc.lft.to/lastmile_qr_scan", "ios": "https://dc.lft.to/lastmile_qr_scan"}, "fusion_lon": 0.0}, {"lat": 38.90681416666666, "is_disabled": 0, "type": "electric_scooter", "lon": -77.027103, "bike_id": "7d9870ecbf78aabeca5035e2d03bc698", "fusion_lat": 0.0, "name": "7d9870ecbf78aabeca5035e2d03bc698", "is_reserved": 0, "rental_uris": {"android": "https://dc.lft.to/lastmile_qr_scan", "ios": "https://dc.lft.to/lastmile_qr_scan"}, "fusion_lon": 0.0}, {"lat": 38.910957, "is_disabled": 0, "type": "electric_scooter", "lon": -77.03210033333333, "bike_id": "5a68970851266035b755f2b8f4de406c", "fusion_lat": 0.0, "name": "5a68970851266035b755f2b8f4de406c", "is_reserved": 0, "rental_uris": {"android": "https://dc.lft.to/lastmile_qr_scan", "ios": "https://dc.lft.to/lastmile_qr_scan"}, "fusion_lon": 0.0}, {"lat": 38.89288233333333, "is_disabled": 0, "type": "electric_scooter", "lon": -76.95853033333333, "bike_id": "54e483cd09064754d4cbcfff3494b403", "fusion_lat": 0.0, "name": "54e483cd09064754d4cbcfff3494b403", "is_reserved": 0, "rental_uris": {"android": "https://dc.lft.to/lastmile_qr_scan", "ios": "https://dc.lft.to/lastmile_qr_scan"}, "fusion_lon": 0.0}, {"lat": 38.9295355, "is_disabled": 0, "type": "electric_scooter", "lon": -76.99089566666666, "bike_id": "03f6a5e92594dfc9128104ac28f5f80e", "fusion_lat": 0.0, "name": "03f6a5e92594dfc9128104ac28f5f80e", "is_reserved": 0, "rental_uris": {"android": "https://dc.lft.to/lastmile_qr_scan", "ios": "https://dc.lft.to/lastmile_qr_scan"}, "fusion_lon": 0.0}, {"lat": 38.88719716666667, "is_disabled": 0, "type": "electric_scooter", "lon": -76.99609333333333, "bike_id": "e477a5b5be6d7bc09ae339cb3740e4ae", "fusion_lat": 0.0, "name": "e477a5b5be6d7bc09ae339cb3740e4ae", "is_reserved": 0, "rental_uris": {"android": "https://dc.lft.to/lastmile_qr_scan", "ios": "https://dc.lft.to/lastmile_qr_scan"}, "fusion_lon": 0.0}, {"lat": 38.9528905, "is_disabled": 0, "type": "electric_bike", "lon": -76.94601433333334, "bike_id": "67a602986a5f6937f7439021acb05620", "fusion_lat": 0.0, "name": "67a602986a5f6937f7439021acb05620", "is_reserved": 0, "rental_uris": {"android": "https://dc.lft.to/lastmile_qr_scan", "ios": "https://dc.lft.to/lastmile_qr_scan"}, "fusion_lon": 0.0}, {"lat": 38.892278833333336, "is_disabled": 0, "type": "electric_scooter", "lon": -77.04862883333334, "bike_id": "2ea7cc17f9f08081c7849ea367b5d2d5", "fusion_lat": 0.0, "name": "2ea7cc17f9f08081c7849ea367b5d2d5", "is_reserved": 0, "rental_uris": {"android": "https://dc.lft.to/lastmile_qr_scan", "ios": "https://dc.lft.to/lastmile_qr_scan"}, "fusion_lon": 0.0}, {"lat": 38.9034555, "is_disabled": 0, "type": "electric_scooter", "lon": -77.04476333333334, "bike_id": "e59954431f2f98dd37c2c8b37fa7d0ee", "fusion_lat": 0.0, "name": "e59954431f2f98dd37c2c8b37fa7d0ee", "is_reserved": 0, "rental_uris": {"android": "https://dc.lft.to/lastmile_qr_scan", "ios": "https://dc.lft.to/lastmile_qr_scan"}, "fusion_lon": 0.0}, {"lat": 38.89907983333333, "is_disabled": 0, "type": "electric_scooter", "lon": -76.93349083333334, "bike_id": "418b4f852ae41088f408428aca4bf6bf", "fusion_lat": 0.0, "name": "418b4f852ae41088f408428aca4bf6bf", "is_reserved": 0, "rental_uris": {"android": "https://dc.lft.to/lastmile_qr_scan", "ios": "https://dc.lft.to/lastmile_qr_scan"}, "fusion_lon": 0.0}, {"lat": 38.990042833333334, "is_disabled": 0, "type": "electric_bike", "lon": -77.00445133333334, "bike_id": "2103957d6c07c2b637246b30c8c3ac46", "fusion_lat": 0.0, "name": "2103957d6c07c2b637246b30c8c3ac46", "is_reserved": 0, "rental_uris": {"android": "https://dc.lft.to/lastmile_qr_scan", "ios": "https://dc.lft.to/lastmile_qr_scan"}, "fusion_lon": 0.0}, {"lat": 38.9237295, "is_disabled": 0, "type": "electric_scooter", "lon": -77.03131966666666, "bike_id": "3403635b2e18cb20e929fe64347081fc", "fusion_lat": 0.0, "name": "3403635b2e18cb20e929fe64347081fc", "is_reserved": 0, "rental_uris": {"android": "https://dc.lft.to/lastmile_qr_scan", "ios": "https://dc.lft.to/lastmile_qr_scan"}, "fusion_lon": 0.0}, {"lat": 38.9128195, "is_disabled": 0, "type": "electric_scooter", "lon": -77.045087, "bike_id": "986220896ecc8409c86bb81ab39d25e1", "fusion_lat": 0.0, "name": "986220896ecc8409c86bb81ab39d25e1", "is_reserved": 0, "rental_uris": {"android": "https://dc.lft.to/lastmile_qr_scan", "ios": "https://dc.lft.to/lastmile_qr_scan"}, "fusion_lon": 0.0}, {"lat": 38.93956466666667, "is_disabled": 0, "type": "electric_bike", "lon": -77.36100766666667, "bike_id": "fa55cbe9af836ffca688e1c9ec3add9c", "fusion_lat": 0.0, "name": "fa55cbe9af836ffca688e1c9ec3add9c", "is_reserved": 0, "rental_uris": {"android": "https://dc.lft.to/lastmile_qr_scan", "ios": "https://dc.lft.to/lastmile_qr_scan"}, "fusion_lon": 0.0}, {"lat": 38.895740333333336, "is_disabled": 0, "type": "electric_scooter", "lon": -76.93044916666666, "bike_id": "2be48f77b0f4a2f6d8c49cdaaf8e02ac", "fusion_lat": 0.0, "name": "2be48f77b0f4a2f6d8c49cdaaf8e02ac", "is_reserved": 0, "rental_uris": {"android": "https://dc.lft.to/lastmile_qr_scan", "ios": "https://dc.lft.to/lastmile_qr_scan"}, "fusion_lon": 0.0}, {"lat": 38.930910833333336, "is_disabled": 0, "type": "electric_scooter", "lon": -77.0255555, "bike_id": "80a4c0a3f052151a307aa17ec308e3f2", "fusion_lat": 0.0, "name": "80a4c0a3f052151a307aa17ec308e3f2", "is_reserved": 0, "rental_uris": {"android": "https://dc.lft.to/lastmile_qr_scan", "ios": "https://dc.lft.to/lastmile_qr_scan"}, "fusion_lon": 0.0}, {"lat": 38.936038, "is_disabled": 0, "type": "electric_scooter", "lon": -77.03754966666666, "bike_id": "b13211f79c98aa262462b5b539bc9a07", "fusion_lat": 0.0, "name": "b13211f79c98aa262462b5b539bc9a07", "is_reserved": 0, "rental_uris": {"android": "https://dc.lft.to/lastmile_qr_scan", "ios": "https://dc.lft.to/lastmile_qr_scan"}, "fusion_lon": 0.0}, {"lat": 38.893911333333335, "is_disabled": 0, "type": "electric_scooter", "lon": -76.949954, "bike_id": "a3b868f21f1b18e9774a54afff8014b2", "fusion_lat": 0.0, "name": "a3b868f21f1b18e9774a54afff8014b2", "is_reserved": 0, "rental_uris": {"android": "https://dc.lft.to/lastmile_qr_scan", "ios": "https://dc.lft.to/lastmile_qr_scan"}, "fusion_lon": 0.0}, {"lat": 38.9027885, "is_disabled": 0, "type": "electric_scooter", "lon": -77.03837733333333, "bike_id": "ffca420e966c9b8877ac4e1440493c5e", "fusion_lat": 0.0, "name": "ffca420e966c9b8877ac4e1440493c5e", "is_reserved": 0, "rental_uris": {"android": "https://dc.lft.to/lastmile_qr_scan", "ios": "https://dc.lft.to/lastmile_qr_scan"}, "fusion_lon": 0.0}, {"lat": 38.91766366666667, "is_disabled": 0, "type": "electric_scooter", "lon": -77.03187, "bike_id": "ecb09f4fefc0a7bfa757d53a9806d026", "fusion_lat": 0.0, "name": "ecb09f4fefc0a7bfa757d53a9806d026", "is_reserved": 0, "rental_uris": {"android": "https://dc.lft.to/lastmile_qr_scan", "ios": "https://dc.lft.to/lastmile_qr_scan"}, "fusion_lon": 0.0}, {"lat": 38.907373, "is_disabled": 0, "type": "electric_scooter", "lon": -77.0298505, "bike_id": "63daacc9a4d4103986843724c08b464e", "fusion_lat": 0.0, "name": "63daacc9a4d4103986843724c08b464e", "is_reserved": 0, "rental_uris": {"android": "https://dc.lft.to/lastmile_qr_scan", "ios": "https://dc.lft.to/lastmile_qr_scan"}, "fusion_lon": 0.0}, {"lat": 38.941155, "is_disabled": 0, "type": "electric_scooter", "lon": -77.000513, "bike_id": "674271074b8f30f166d57ac333dc1806", "fusion_lat": 0.0, "name": "674271074b8f30f166d57ac333dc1806", "is_reserved": 0, "rental_uris": {"android": "https://dc.lft.to/lastmile_qr_scan", "ios": "https://dc.lft.to/lastmile_qr_scan"}, "fusion_lon": 0.0}, {"lat": 38.90196666666667, "is_disabled": 0, "type": "electric_scooter", "lon": -77.03669583333334, "bike_id": "8cdf4e2b3129b6a55d9a6c7f3226ca47", "fusion_lat": 0.0, "name": "8cdf4e2b3129b6a55d9a6c7f3226ca47", "is_reserved": 0, "rental_uris": {"android": "https://dc.lft.to/lastmile_qr_scan", "ios": "https://dc.lft.to/lastmile_qr_scan"}, "fusion_lon": 0.0}, {"lat": 38.91362016666667, "is_disabled": 0, "type": "electric_scooter", "lon": -77.0415775, "bike_id": "f7ec9447866f17e1fb73c05326242d7a", "fusion_lat": 0.0, "name": "f7ec9447866f17e1fb73c05326242d7a", "is_reserved": 0, "rental_uris": {"android": "https://dc.lft.to/lastmile_qr_scan", "ios": "https://dc.lft.to/lastmile_qr_scan"}, "fusion_lon": 0.0}, {"lat": 38.90168283333333, "is_disabled": 0, "type": "electric_scooter", "lon": -77.02011666666667, "bike_id": "a3d3319f051338b55986f9d1f3d6b877", "fusion_lat": 0.0, "name": "a3d3319f051338b55986f9d1f3d6b877", "is_reserved": 0, "rental_uris": {"android": "https://dc.lft.to/lastmile_qr_scan", "ios": "https://dc.lft.to/lastmile_qr_scan"}, "fusion_lon": 0.0}, {"lat": 38.96204766666666, "is_disabled": 0, "type": "electric_bike", "lon": -77.0351585, "bike_id": "eeef0ea25e357fe240c76cb98a6bc81a", "fusion_lat": 0.0, "name": "eeef0ea25e357fe240c76cb98a6bc81a", "is_reserved": 0, "rental_uris": {"android": "https://dc.lft.to/lastmile_qr_scan", "ios": "https://dc.lft.to/lastmile_qr_scan"}, "fusion_lon": 0.0}, {"lat": 38.8134985, "is_disabled": 0, "type": "electric_bike", "lon": -77.0492615, "bike_id": "a9233db588ee3567728de95140fbd409", "fusion_lat": 0.0, "name": "a9233db588ee3567728de95140fbd409", "is_reserved": 0, "rental_uris": {"android": "https://dc.lft.to/lastmile_qr_scan", "ios": "https://dc.lft.to/lastmile_qr_scan"}, "fusion_lon": 0.0}, {"lat": 38.92626383333333, "is_disabled": 0, "type": "electric_scooter", "lon": -77.03787133333333, "bike_id": "cf50c9f2b1a9effa329940bcf12dbc39", "fusion_lat": 0.0, "name": "cf50c9f2b1a9effa329940bcf12dbc39", "is_reserved": 0, "rental_uris": {"android": "https://dc.lft.to/lastmile_qr_scan", "ios": "https://dc.lft.to/lastmile_qr_scan"}, "fusion_lon": 0.0}, {"lat": 38.90897916666667, "is_disabled": 0, "type": "electric_bike", "lon": -77.03213016666666, "bike_id": "22b0e226a0b3d41685ae42cdc119eb56", "fusion_lat": 0.0, "name": "22b0e226a0b3d41685ae42cdc119eb56", "is_reserved": 0, "rental_uris": {"android": "https://dc.lft.to/lastmile_qr_scan", "ios": "https://dc.lft.to/lastmile_qr_scan"}, "fusion_lon": 0.0}, {"lat": 38.907281833333336, "is_disabled": 0, "type": "electric_scooter", "lon": -77.011383, "bike_id": "9c2aff9894fa833eee24703ebf0b59c9", "fusion_lat": 0.0, "name": "9c2aff9894fa833eee24703ebf0b59c9", "is_reserved": 0, "rental_uris": {"android": "https://dc.lft.to/lastmile_qr_scan", "ios": "https://dc.lft.to/lastmile_qr_scan"}, "fusion_lon": 0.0}, {"lat": 38.9111975, "is_disabled": 0, "type": "electric_scooter", "lon": -77.03818433333333, "bike_id": "6927ecdb7fcc9f96633067d66d15162a", "fusion_lat": 0.0, "name": "6927ecdb7fcc9f96633067d66d15162a", "is_reserved": 0, "rental_uris": {"android": "https://dc.lft.to/lastmile_qr_scan", "ios": "https://dc.lft.to/lastmile_qr_scan"}, "fusion_lon": 0.0}, {"lat": 38.902594, "is_disabled": 0, "type": "electric_scooter", "lon": -77.01776166666667, "bike_id": "3f185fbcf4828cd7e703c2eb9c050732", "fusion_lat": 0.0, "name": "3f185fbcf4828cd7e703c2eb9c050732", "is_reserved": 0, "rental_uris": {"android": "https://dc.lft.to/lastmile_qr_scan", "ios": "https://dc.lft.to/lastmile_qr_scan"}, "fusion_lon": 0.0}, {"lat": 38.90222416666667, "is_disabled": 0, "type": "electric_scooter", "lon": -77.02293783333333, "bike_id": "af588352f20da976ccf5297f317cd70c", "fusion_lat": 0.0, "name": "af588352f20da976ccf5297f317cd70c", "is_reserved": 0, "rental_uris": {"android": "https://dc.lft.to/lastmile_qr_scan", "ios": "https://dc.lft.to/lastmile_qr_scan"}, "fusion_lon": 0.0}, {"lat": 38.904319666666666, "is_disabled": 0, "type": "electric_scooter", "lon": -77.00211116666667, "bike_id": "2fbac72039b424803e21f3f1c44f510a", "fusion_lat": 0.0, "name": "2fbac72039b424803e21f3f1c44f510a", "is_reserved": 0, "rental_uris": {"android": "https://dc.lft.to/lastmile_qr_scan", "ios": "https://dc.lft.to/lastmile_qr_scan"}, "fusion_lon": 0.0}, {"lat": 38.925983333333335, "is_disabled": 0, "type": "electric_scooter", "lon": -77.0440705, "bike_id": "64e03215531846e8d7467aa990bc278e", "fusion_lat": 0.0, "name": "64e03215531846e8d7467aa990bc278e", "is_reserved": 0, "rental_uris": {"android": "https://dc.lft.to/lastmile_qr_scan", "ios": "https://dc.lft.to/lastmile_qr_scan"}, "fusion_lon": 0.0}, {"lat": 38.9275865, "is_disabled": 0, "type": "electric_scooter", "lon": -77.03275116666667, "bike_id": "5aa338a4a6a83d9ea916321172050fb3", "fusion_lat": 0.0, "name": "5aa338a4a6a83d9ea916321172050fb3", "is_reserved": 0, "rental_uris": {"android": "https://dc.lft.to/lastmile_qr_scan", "ios": "https://dc.lft.to/lastmile_qr_scan"}, "fusion_lon": 0.0}, {"lat": 38.844333666666664, "is_disabled": 0, "type": "electric_scooter", "lon": -76.99660133333333, "bike_id": "83a0a1541d51f0d1d7bc8253e9917cc6", "fusion_lat": 0.0, "name": "83a0a1541d51f0d1d7bc8253e9917cc6", "is_reserved": 0, "rental_uris": {"android": "https://dc.lft.to/lastmile_qr_scan", "ios": "https://dc.lft.to/lastmile_qr_scan"}, "fusion_lon": 0.0}, {"lat": 38.8922135, "is_disabled": 0, "type": "electric_scooter", "lon": -77.02781866666666, "bike_id": "8599ec96a49671dcb852c33d8067ded9", "fusion_lat": 0.0, "name": "8599ec96a49671dcb852c33d8067ded9", "is_reserved": 0, "rental_uris": {"android": "https://dc.lft.to/lastmile_qr_scan", "ios": "https://dc.lft.to/lastmile_qr_scan"}, "fusion_lon": 0.0}, {"lat": 38.905364, "is_disabled": 0, "type": "electric_scooter", "lon": -77.06191916666667, "bike_id": "8d9af2039fe40c39cd8e60d8f49bbe72", "fusion_lat": 0.0, "name": "8d9af2039fe40c39cd8e60d8f49bbe72", "is_reserved": 0, "rental_uris": {"android": "https://dc.lft.to/lastmile_qr_scan", "ios": "https://dc.lft.to/lastmile_qr_scan"}, "fusion_lon": 0.0}, {"lat": 38.90795116666666, "is_disabled": 0, "type": "electric_scooter", "lon": -77.04253383333334, "bike_id": "687073cacfa4b5912e6b9a70a12a6d83", "fusion_lat": 0.0, "name": "687073cacfa4b5912e6b9a70a12a6d83", "is_reserved": 0, "rental_uris": {"android": "https://dc.lft.to/lastmile_qr_scan", "ios": "https://dc.lft.to/lastmile_qr_scan"}, "fusion_lon": 0.0}, {"lat": 38.91788733333333, "is_disabled": 0, "type": "electric_scooter", "lon": -77.02277716666667, "bike_id": "30b9dbdaf69495fb4a85a85c8be1409b", "fusion_lat": 0.0, "name": "30b9dbdaf69495fb4a85a85c8be1409b", "is_reserved": 0, "rental_uris": {"android": "https://dc.lft.to/lastmile_qr_scan", "ios": "https://dc.lft.to/lastmile_qr_scan"}, "fusion_lon": 0.0}, {"lat": 38.945526666666666, "is_disabled": 0, "type": "electric_bike", "lon": -76.89536466666667, "bike_id": "9d7a3b13367778dde308b063554b3639", "fusion_lat": 0.0, "name": "9d7a3b13367778dde308b063554b3639", "is_reserved": 0, "rental_uris": {"android": "https://dc.lft.to/lastmile_qr_scan", "ios": "https://dc.lft.to/lastmile_qr_scan"}, "fusion_lon": 0.0}, {"lat": 38.911154333333336, "is_disabled": 0, "type": "electric_scooter", "lon": -77.04365416666667, "bike_id": "d466a0648fbb55b4486f3f02397ce9e9", "fusion_lat": 0.0, "name": "d466a0648fbb55b4486f3f02397ce9e9", "is_reserved": 0, "rental_uris": {"android": "https://dc.lft.to/lastmile_qr_scan", "ios": "https://dc.lft.to/lastmile_qr_scan"}, "fusion_lon": 0.0}, {"lat": 38.936599, "is_disabled": 0, "type": "electric_bike", "lon": -76.952229, "bike_id": "936acd93dfdbe581cf703e57e2011181", "fusion_lat": 0.0, "name": "936acd93dfdbe581cf703e57e2011181", "is_reserved": 0, "rental_uris": {"android": "https://dc.lft.to/lastmile_qr_scan", "ios": "https://dc.lft.to/lastmile_qr_scan"}, "fusion_lon": 0.0}, {"lat": 38.89073716666667, "is_disabled": 0, "type": "electric_scooter", "lon": -76.98841266666666, "bike_id": "0026703d3f8047bef8a90554af6953c7", "fusion_lat": 0.0, "name": "0026703d3f8047bef8a90554af6953c7", "is_reserved": 0, "rental_uris": {"android": "https://dc.lft.to/lastmile_qr_scan", "ios": "https://dc.lft.to/lastmile_qr_scan"}, "fusion_lon": 0.0}, {"lat": 38.90962866666667, "is_disabled": 0, "type": "electric_scooter", "lon": -77.03431566666667, "bike_id": "73622a3122cc0c6aca3c34da2b46b47d", "fusion_lat": 0.0, "name": "73622a3122cc0c6aca3c34da2b46b47d", "is_reserved": 0, "rental_uris": {"android": "https://dc.lft.to/lastmile_qr_scan", "ios": "https://dc.lft.to/lastmile_qr_scan"}, "fusion_lon": 0.0}, {"lat": 38.917156, "is_disabled": 0, "type": "electric_scooter", "lon": -77.03839983333333, "bike_id": "29a7f008bb5ea5f5b3f9514384e5dc8d", "fusion_lat": 0.0, "name": "29a7f008bb5ea5f5b3f9514384e5dc8d", "is_reserved": 0, "rental_uris": {"android": "https://dc.lft.to/lastmile_qr_scan", "ios": "https://dc.lft.to/lastmile_qr_scan"}, "fusion_lon": 0.0}, {"lat": 38.90574183333333, "is_disabled": 0, "type": "electric_scooter", "lon": -77.03417116666667, "bike_id": "88de42bcb5313ec531c662198f273ced", "fusion_lat": 0.0, "name": "88de42bcb5313ec531c662198f273ced", "is_reserved": 0, "rental_uris": {"android": "https://dc.lft.to/lastmile_qr_scan", "ios": "https://dc.lft.to/lastmile_qr_scan"}, "fusion_lon": 0.0}, {"lat": 38.851951166666666, "is_disabled": 0, "type": "electric_scooter", "lon": -76.9763275, "bike_id": "9a6898a1bb2a5a4532fc21838b34d06c", "fusion_lat": 0.0, "name": "9a6898a1bb2a5a4532fc21838b34d06c", "is_reserved": 0, "rental_uris": {"android": "https://dc.lft.to/lastmile_qr_scan", "ios": "https://dc.lft.to/lastmile_qr_scan"}, "fusion_lon": 0.0}, {"lat": 38.85717116666667, "is_disabled": 0, "type": "electric_scooter", "lon": -76.98673866666667, "bike_id": "3f7d14c4a85f27d3a34c72238a17e0c7", "fusion_lat": 0.0, "name": "3f7d14c4a85f27d3a34c72238a17e0c7", "is_reserved": 0, "rental_uris": {"android": "https://dc.lft.to/lastmile_qr_scan", "ios": "https://dc.lft.to/lastmile_qr_scan"}, "fusion_lon": 0.0}, {"lat": 39.03413966666667, "is_disabled": 0, "type": "electric_bike", "lon": -77.0432075, "bike_id": "7d8a4b970d7c43b33cbe875dd60cd891", "fusion_lat": 0.0, "name": "7d8a4b970d7c43b33cbe875dd60cd891", "is_reserved": 0, "rental_uris": {"android": "https://dc.lft.to/lastmile_qr_scan", "ios": "https://dc.lft.to/lastmile_qr_scan"}, "fusion_lon": 0.0}, {"lat": 38.99256116666667, "is_disabled": 0, "type": "electric_scooter", "lon": -77.036587, "bike_id": "be7924d696b7cdfacdff9453dc254c04", "fusion_lat": 0.0, "name": "be7924d696b7cdfacdff9453dc254c04", "is_reserved": 0, "rental_uris": {"android": "https://dc.lft.to/lastmile_qr_scan", "ios": "https://dc.lft.to/lastmile_qr_scan"}, "fusion_lon": 0.0}, {"lat": 38.9000945, "is_disabled": 0, "type": "electric_scooter", "lon": -77.04661883333333, "bike_id": "1f3e16b2f444c4d8b153b1331c61b62e", "fusion_lat": 0.0, "name": "1f3e16b2f444c4d8b153b1331c61b62e", "is_reserved": 0, "rental_uris": {"android": "https://dc.lft.to/lastmile_qr_scan", "ios": "https://dc.lft.to/lastmile_qr_scan"}, "fusion_lon": 0.0}, {"lat": 38.893555166666665, "is_disabled": 0, "type": "electric_scooter", "lon": -77.04145066666666, "bike_id": "cd7c17b0d0857d051771fed682023cad", "fusion_lat": 0.0, "name": "cd7c17b0d0857d051771fed682023cad", "is_reserved": 0, "rental_uris": {"android": "https://dc.lft.to/lastmile_qr_scan", "ios": "https://dc.lft.to/lastmile_qr_scan"}, "fusion_lon": 0.0}, {"lat": 38.909733, "is_disabled": 0, "type": "electric_scooter", "lon": -77.04622366666666, "bike_id": "7d11e7df5ea986290b0f570c2b570bd8", "fusion_lat": 0.0, "name": "7d11e7df5ea986290b0f570c2b570bd8", "is_reserved": 0, "rental_uris": {"android": "https://dc.lft.to/lastmile_qr_scan", "ios": "https://dc.lft.to/lastmile_qr_scan"}, "fusion_lon": 0.0}, {"lat": 38.93696666666666, "is_disabled": 0, "type": "electric_scooter", "lon": -77.02422366666667, "bike_id": "3240a2f8fea85751f5a83fae3d727fa2", "fusion_lat": 0.0, "name": "3240a2f8fea85751f5a83fae3d727fa2", "is_reserved": 0, "rental_uris": {"android": "https://dc.lft.to/lastmile_qr_scan", "ios": "https://dc.lft.to/lastmile_qr_scan"}, "fusion_lon": 0.0}, {"lat": 38.93605933333333, "is_disabled": 0, "type": "electric_scooter", "lon": -77.05858133333334, "bike_id": "8445f376665cf209e0c98d3e16b92af3", "fusion_lat": 0.0, "name": "8445f376665cf209e0c98d3e16b92af3", "is_reserved": 0, "rental_uris": {"android": "https://dc.lft.to/lastmile_qr_scan", "ios": "https://dc.lft.to/lastmile_qr_scan"}, "fusion_lon": 0.0}, {"lat": 38.933257, "is_disabled": 0, "type": "electric_scooter", "lon": -77.04370516666667, "bike_id": "5eed57227419d3ff65a4f95389de4b66", "fusion_lat": 0.0, "name": "5eed57227419d3ff65a4f95389de4b66", "is_reserved": 0, "rental_uris": {"android": "https://dc.lft.to/lastmile_qr_scan", "ios": "https://dc.lft.to/lastmile_qr_scan"}, "fusion_lon": 0.0}, {"lat": 38.902241333333336, "is_disabled": 0, "type": "electric_scooter", "lon": -77.0604505, "bike_id": "8b8f5b3cdb3c71b45a122d0788576008", "fusion_lat": 0.0, "name": "8b8f5b3cdb3c71b45a122d0788576008", "is_reserved": 0, "rental_uris": {"android": "https://dc.lft.to/lastmile_qr_scan", "ios": "https://dc.lft.to/lastmile_qr_scan"}, "fusion_lon": 0.0}, {"lat": 38.92490183333334, "is_disabled": 0, "type": "electric_scooter", "lon": -77.057614, "bike_id": "667eba476d27d61dfe34cc2334af9cf4", "fusion_lat": 0.0, "name": "667eba476d27d61dfe34cc2334af9cf4", "is_reserved": 0, "rental_uris": {"android": "https://dc.lft.to/lastmile_qr_scan", "ios": "https://dc.lft.to/lastmile_qr_scan"}, "fusion_lon": 0.0}, {"lat": 38.9194685, "is_disabled": 0, "type": "electric_scooter", "lon": -76.98082966666666, "bike_id": "c5abc9bfdfdb1ccfebd0e8fe21beda9e", "fusion_lat": 0.0, "name": "c5abc9bfdfdb1ccfebd0e8fe21beda9e", "is_reserved": 0, "rental_uris": {"android": "https://dc.lft.to/lastmile_qr_scan", "ios": "https://dc.lft.to/lastmile_qr_scan"}, "fusion_lon": 0.0}, {"lat": 38.89222183333333, "is_disabled": 0, "type": "electric_scooter", "lon": -77.04368116666667, "bike_id": "6dbcaad2770a15e7e0f0ef46072ec7e9", "fusion_lat": 0.0, "name": "6dbcaad2770a15e7e0f0ef46072ec7e9", "is_reserved": 0, "rental_uris": {"android": "https://dc.lft.to/lastmile_qr_scan", "ios": "https://dc.lft.to/lastmile_qr_scan"}, "fusion_lon": 0.0}, {"lat": 38.885268833333335, "is_disabled": 0, "type": "electric_scooter", "lon": -77.0113285, "bike_id": "6a3fa286cd870eabeebaecc79ac58527", "fusion_lat": 0.0, "name": "6a3fa286cd870eabeebaecc79ac58527", "is_reserved": 0, "rental_uris": {"android": "https://dc.lft.to/lastmile_qr_scan", "ios": "https://dc.lft.to/lastmile_qr_scan"}, "fusion_lon": 0.0}, {"lat": 38.923415166666665, "is_disabled": 0, "type": "electric_scooter", "lon": -77.0503525, "bike_id": "b67229edb7cec78354fcdad022f3639b", "fusion_lat": 0.0, "name": "b67229edb7cec78354fcdad022f3639b", "is_reserved": 0, "rental_uris": {"android": "https://dc.lft.to/lastmile_qr_scan", "ios": "https://dc.lft.to/lastmile_qr_scan"}, "fusion_lon": 0.0}, {"lat": 38.92887433333333, "is_disabled": 0, "type": "electric_scooter", "lon": -77.03315116666667, "bike_id": "a127261f1223b2c4d5eab4a770e2b746", "fusion_lat": 0.0, "name": "a127261f1223b2c4d5eab4a770e2b746", "is_reserved": 0, "rental_uris": {"android": "https://dc.lft.to/lastmile_qr_scan", "ios": "https://dc.lft.to/lastmile_qr_scan"}, "fusion_lon": 0.0}, {"lat": 38.890126, "is_disabled": 0, "type": "electric_scooter", "lon": -76.937514, "bike_id": "32a758fbbd6bc77deb6020030d137985", "fusion_lat": 0.0, "name": "32a758fbbd6bc77deb6020030d137985", "is_reserved": 0, "rental_uris": {"android": "https://dc.lft.to/lastmile_qr_scan", "ios": "https://dc.lft.to/lastmile_qr_scan"}, "fusion_lon": 0.0}, {"lat": 38.9083475, "is_disabled": 0, "type": "electric_scooter", "lon": -76.9968555, "bike_id": "d3d63d3bb502d0c6f751adbde5bf74bb", "fusion_lat": 0.0, "name": "d3d63d3bb502d0c6f751adbde5bf74bb", "is_reserved": 0, "rental_uris": {"android": "https://dc.lft.to/lastmile_qr_scan", "ios": "https://dc.lft.to/lastmile_qr_scan"}, "fusion_lon": 0.0}, {"lat": 38.92236166666667, "is_disabled": 0, "type": "electric_scooter", "lon": -77.04570433333333, "bike_id": "a5e24aa37eebeb36a64df00708a56901", "fusion_lat": 0.0, "name": "a5e24aa37eebeb36a64df00708a56901", "is_reserved": 0, "rental_uris": {"android": "https://dc.lft.to/lastmile_qr_scan", "ios": "https://dc.lft.to/lastmile_qr_scan"}, "fusion_lon": 0.0}, {"lat": 38.9328315, "is_disabled": 0, "type": "electric_scooter", "lon": -77.02833133333333, "bike_id": "2be08093970e7416631d4f556be6f3e3", "fusion_lat": 0.0, "name": "2be08093970e7416631d4f556be6f3e3", "is_reserved": 0, "rental_uris": {"android": "https://dc.lft.to/lastmile_qr_scan", "ios": "https://dc.lft.to/lastmile_qr_scan"}, "fusion_lon": 0.0}, {"lat": 38.8897245, "is_disabled": 0, "type": "electric_scooter", "lon": -77.035547, "bike_id": "539dc3e79f2289aef5363c02fa1a0c1d", "fusion_lat": 0.0, "name": "539dc3e79f2289aef5363c02fa1a0c1d", "is_reserved": 0, "rental_uris": {"android": "https://dc.lft.to/lastmile_qr_scan", "ios": "https://dc.lft.to/lastmile_qr_scan"}, "fusion_lon": 0.0}, {"lat": 38.97227733333333, "is_disabled": 0, "type": "electric_bike", "lon": -76.9934345, "bike_id": "c2fd85296491340e2e3972e8592d184b", "fusion_lat": 0.0, "name": "c2fd85296491340e2e3972e8592d184b", "is_reserved": 0, "rental_uris": {"android": "https://dc.lft.to/lastmile_qr_scan", "ios": "https://dc.lft.to/lastmile_qr_scan"}, "fusion_lon": 0.0}, {"lat": 38.9073435, "is_disabled": 0, "type": "electric_scooter", "lon": -77.0298415, "bike_id": "1a56c997b88cf3974b82051c587c1517", "fusion_lat": 0.0, "name": "1a56c997b88cf3974b82051c587c1517", "is_reserved": 0, "rental_uris": {"android": "https://dc.lft.to/lastmile_qr_scan", "ios": "https://dc.lft.to/lastmile_qr_scan"}, "fusion_lon": 0.0}, {"lat": 38.9331915, "is_disabled": 0, "type": "electric_scooter", "lon": -77.0452705, "bike_id": "2a45449ca4cf211c9c3abc7389fb719d", "fusion_lat": 0.0, "name": "2a45449ca4cf211c9c3abc7389fb719d", "is_reserved": 0, "rental_uris": {"android": "https://dc.lft.to/lastmile_qr_scan", "ios": "https://dc.lft.to/lastmile_qr_scan"}, "fusion_lon": 0.0}, {"lat": 38.93450083333333, "is_disabled": 0, "type": "electric_scooter", "lon": -77.03072383333334, "bike_id": "8f3f5623b7ab96ed39205cf3ac7db391", "fusion_lat": 0.0, "name": "8f3f5623b7ab96ed39205cf3ac7db391", "is_reserved": 0, "rental_uris": {"android": "https://dc.lft.to/lastmile_qr_scan", "ios": "https://dc.lft.to/lastmile_qr_scan"}, "fusion_lon": 0.0}, {"lat": 38.949228166666664, "is_disabled": 0, "type": "electric_bike", "lon": -77.00802266666666, "bike_id": "d68b23b4a85fa028c222c98b5490f7a6", "fusion_lat": 0.0, "name": "d68b23b4a85fa028c222c98b5490f7a6", "is_reserved": 0, "rental_uris": {"android": "https://dc.lft.to/lastmile_qr_scan", "ios": "https://dc.lft.to/lastmile_qr_scan"}, "fusion_lon": 0.0}, {"lat": 38.906072, "is_disabled": 0, "type": "electric_scooter", "lon": -76.98983616666666, "bike_id": "9dca8b4e363bfdef1fb7d983d214578e", "fusion_lat": 0.0, "name": "9dca8b4e363bfdef1fb7d983d214578e", "is_reserved": 0, "rental_uris": {"android": "https://dc.lft.to/lastmile_qr_scan", "ios": "https://dc.lft.to/lastmile_qr_scan"}, "fusion_lon": 0.0}, {"lat": 38.9090385, "is_disabled": 0, "type": "electric_scooter", "lon": -77.04410716666666, "bike_id": "41aa2187eeea8e38d7aaa4ea766785bf", "fusion_lat": 0.0, "name": "41aa2187eeea8e38d7aaa4ea766785bf", "is_reserved": 0, "rental_uris": {"android": "https://dc.lft.to/lastmile_qr_scan", "ios": "https://dc.lft.to/lastmile_qr_scan"}, "fusion_lon": 0.0}, {"lat": 38.8772235, "is_disabled": 0, "type": "electric_scooter", "lon": -77.01766066666667, "bike_id": "bd98ed1565e681441c435b976498ff13", "fusion_lat": 0.0, "name": "bd98ed1565e681441c435b976498ff13", "is_reserved": 0, "rental_uris": {"android": "https://dc.lft.to/lastmile_qr_scan", "ios": "https://dc.lft.to/lastmile_qr_scan"}, "fusion_lon": 0.0}, {"lat": 38.917403166666666, "is_disabled": 0, "type": "electric_scooter", "lon": -77.022825, "bike_id": "4fbd71d30b4490afdc9235ef4b4fbfa6", "fusion_lat": 0.0, "name": "4fbd71d30b4490afdc9235ef4b4fbfa6", "is_reserved": 0, "rental_uris": {"android": "https://dc.lft.to/lastmile_qr_scan", "ios": "https://dc.lft.to/lastmile_qr_scan"}, "fusion_lon": 0.0}, {"lat": 38.90529, "is_disabled": 0, "type": "electric_scooter", "lon": -77.062412, "bike_id": "4eb3013402b03bcd13c1ae3234e76402", "fusion_lat": 0.0, "name": "4eb3013402b03bcd13c1ae3234e76402", "is_reserved": 0, "rental_uris": {"android": "https://dc.lft.to/lastmile_qr_scan", "ios": "https://dc.lft.to/lastmile_qr_scan"}, "fusion_lon": 0.0}, {"lat": 38.91258766666667, "is_disabled": 0, "type": "electric_scooter", "lon": -77.0253675, "bike_id": "183b17ec96be49703e7495ceb67694cd", "fusion_lat": 0.0, "name": "183b17ec96be49703e7495ceb67694cd", "is_reserved": 0, "rental_uris": {"android": "https://dc.lft.to/lastmile_qr_scan", "ios": "https://dc.lft.to/lastmile_qr_scan"}, "fusion_lon": 0.0}, {"lat": 38.92404966666667, "is_disabled": 0, "type": "electric_scooter", "lon": -77.027449, "bike_id": "d85e285741a3309f055a8b2e91168144", "fusion_lat": 0.0, "name": "d85e285741a3309f055a8b2e91168144", "is_reserved": 0, "rental_uris": {"android": "https://dc.lft.to/lastmile_qr_scan", "ios": "https://dc.lft.to/lastmile_qr_scan"}, "fusion_lon": 0.0}, {"lat": 38.869972, "is_disabled": 0, "type": "electric_bike", "lon": -77.06570833333333, "bike_id": "8b64f09a748d561601ea48fe61af6fb5", "fusion_lat": 0.0, "name": "8b64f09a748d561601ea48fe61af6fb5", "is_reserved": 0, "rental_uris": {"android": "https://dc.lft.to/lastmile_qr_scan", "ios": "https://dc.lft.to/lastmile_qr_scan"}, "fusion_lon": 0.0}, {"lat": 38.90391833333334, "is_disabled": 0, "type": "electric_scooter", "lon": -77.0427285, "bike_id": "1cd49b99ec8a5d571c96f8a740a47228", "fusion_lat": 0.0, "name": "1cd49b99ec8a5d571c96f8a740a47228", "is_reserved": 0, "rental_uris": {"android": "https://dc.lft.to/lastmile_qr_scan", "ios": "https://dc.lft.to/lastmile_qr_scan"}, "fusion_lon": 0.0}, {"lat": 38.894038333333334, "is_disabled": 0, "type": "electric_scooter", "lon": -76.9867515, "bike_id": "ad4f9f582f3c1255b6d113b3cea25ff1", "fusion_lat": 0.0, "name": "ad4f9f582f3c1255b6d113b3cea25ff1", "is_reserved": 0, "rental_uris": {"android": "https://dc.lft.to/lastmile_qr_scan", "ios": "https://dc.lft.to/lastmile_qr_scan"}, "fusion_lon": 0.0}, {"lat": 38.916878, "is_disabled": 0, "type": "electric_scooter", "lon": -77.002044, "bike_id": "02d3eba16967c5389b250acbb65a3756", "fusion_lat": 0.0, "name": "02d3eba16967c5389b250acbb65a3756", "is_reserved": 0, "rental_uris": {"android": "https://dc.lft.to/lastmile_qr_scan", "ios": "https://dc.lft.to/lastmile_qr_scan"}, "fusion_lon": 0.0}, {"lat": 38.95899516666667, "is_disabled": 0, "type": "electric_bike", "lon": -76.92492266666666, "bike_id": "c4ac0f338dab8cc750bb24831e7fdae7", "fusion_lat": 0.0, "name": "c4ac0f338dab8cc750bb24831e7fdae7", "is_reserved": 0, "rental_uris": {"android": "https://dc.lft.to/lastmile_qr_scan", "ios": "https://dc.lft.to/lastmile_qr_scan"}, "fusion_lon": 0.0}, {"lat": 38.920660166666664, "is_disabled": 0, "type": "electric_scooter", "lon": -77.07889616666667, "bike_id": "f75e09e05d8818475ce117287a8aa15e", "fusion_lat": 0.0, "name": "f75e09e05d8818475ce117287a8aa15e", "is_reserved": 0, "rental_uris": {"android": "https://dc.lft.to/lastmile_qr_scan", "ios": "https://dc.lft.to/lastmile_qr_scan"}, "fusion_lon": 0.0}, {"lat": 38.934158833333335, "is_disabled": 0, "type": "electric_scooter", "lon": -77.0329415, "bike_id": "3b114773ca2749bd10c1208391bc5baf", "fusion_lat": 0.0, "name": "3b114773ca2749bd10c1208391bc5baf", "is_reserved": 0, "rental_uris": {"android": "https://dc.lft.to/lastmile_qr_scan", "ios": "https://dc.lft.to/lastmile_qr_scan"}, "fusion_lon": 0.0}, {"lat": 38.883648, "is_disabled": 0, "type": "electric_scooter", "lon": -76.941565, "bike_id": "8f2b8409caede2db3563e2f1ea0c9d66", "fusion_lat": 0.0, "name": "8f2b8409caede2db3563e2f1ea0c9d66", "is_reserved": 0, "rental_uris": {"android": "https://dc.lft.to/lastmile_qr_scan", "ios": "https://dc.lft.to/lastmile_qr_scan"}, "fusion_lon": 0.0}, {"lat": 38.9253715, "is_disabled": 0, "type": "electric_scooter", "lon": -77.02633266666666, "bike_id": "cbc31f6b2062feb9b2531472840c4b5b", "fusion_lat": 0.0, "name": "cbc31f6b2062feb9b2531472840c4b5b", "is_reserved": 0, "rental_uris": {"android": "https://dc.lft.to/lastmile_qr_scan", "ios": "https://dc.lft.to/lastmile_qr_scan"}, "fusion_lon": 0.0}, {"lat": 38.96505616666666, "is_disabled": 0, "type": "electric_bike", "lon": -77.02818366666666, "bike_id": "25727e5be053107dafa4fb354a40f51f", "fusion_lat": 0.0, "name": "25727e5be053107dafa4fb354a40f51f", "is_reserved": 0, "rental_uris": {"android": "https://dc.lft.to/lastmile_qr_scan", "ios": "https://dc.lft.to/lastmile_qr_scan"}, "fusion_lon": 0.0}, {"lat": 38.936092, "is_disabled": 0, "type": "electric_scooter", "lon": -77.05858683333334, "bike_id": "666cd38c2e5a92f8f287bb6964ede8bb", "fusion_lat": 0.0, "name": "666cd38c2e5a92f8f287bb6964ede8bb", "is_reserved": 0, "rental_uris": {"android": "https://dc.lft.to/lastmile_qr_scan", "ios": "https://dc.lft.to/lastmile_qr_scan"}, "fusion_lon": 0.0}, {"lat": 38.9098255, "is_disabled": 0, "type": "electric_scooter", "lon": -77.03174983333334, "bike_id": "9449ce509ec3b40c62d7f6adb4f352ab", "fusion_lat": 0.0, "name": "9449ce509ec3b40c62d7f6adb4f352ab", "is_reserved": 0, "rental_uris": {"android": "https://dc.lft.to/lastmile_qr_scan", "ios": "https://dc.lft.to/lastmile_qr_scan"}, "fusion_lon": 0.0}, {"lat": 38.92466433333333, "is_disabled": 0, "type": "electric_scooter", "lon": -77.052333, "bike_id": "d8dc644f3656e7beb50b967330861340", "fusion_lat": 0.0, "name": "d8dc644f3656e7beb50b967330861340", "is_reserved": 0, "rental_uris": {"android": "https://dc.lft.to/lastmile_qr_scan", "ios": "https://dc.lft.to/lastmile_qr_scan"}, "fusion_lon": 0.0}, {"lat": 38.88489883333333, "is_disabled": 0, "type": "electric_scooter", "lon": -77.00708466666667, "bike_id": "ea839447882ce9bcf70f491cbf845cb4", "fusion_lat": 0.0, "name": "ea839447882ce9bcf70f491cbf845cb4", "is_reserved": 0, "rental_uris": {"android": "https://dc.lft.to/lastmile_qr_scan", "ios": "https://dc.lft.to/lastmile_qr_scan"}, "fusion_lon": 0.0}, {"lat": 38.928597333333336, "is_disabled": 0, "type": "electric_scooter", "lon": -77.03100783333333, "bike_id": "365396e7fc839f12fd4eb8cd2d4c247b", "fusion_lat": 0.0, "name": "365396e7fc839f12fd4eb8cd2d4c247b", "is_reserved": 0, "rental_uris": {"android": "https://dc.lft.to/lastmile_qr_scan", "ios": "https://dc.lft.to/lastmile_qr_scan"}, "fusion_lon": 0.0}, {"lat": 38.909369833333336, "is_disabled": 0, "type": "electric_scooter", "lon": -77.04480416666667, "bike_id": "161090a53c0f73d3450b1e4f8cd7c990", "fusion_lat": 0.0, "name": "161090a53c0f73d3450b1e4f8cd7c990", "is_reserved": 0, "rental_uris": {"android": "https://dc.lft.to/lastmile_qr_scan", "ios": "https://dc.lft.to/lastmile_qr_scan"}, "fusion_lon": 0.0}, {"lat": 38.92378733333334, "is_disabled": 0, "type": "electric_scooter", "lon": -77.02742133333334, "bike_id": "8b8395051471f386999f33e01390ef89", "fusion_lat": 0.0, "name": "8b8395051471f386999f33e01390ef89", "is_reserved": 0, "rental_uris": {"android": "https://dc.lft.to/lastmile_qr_scan", "ios": "https://dc.lft.to/lastmile_qr_scan"}, "fusion_lon": 0.0}, {"lat": 38.842909166666665, "is_disabled": 0, "type": "electric_scooter", "lon": -76.99946233333333, "bike_id": "1b58f871647a74b5124efd8e38894d9d", "fusion_lat": 0.0, "name": "1b58f871647a74b5124efd8e38894d9d", "is_reserved": 0, "rental_uris": {"android": "https://dc.lft.to/lastmile_qr_scan", "ios": "https://dc.lft.to/lastmile_qr_scan"}, "fusion_lon": 0.0}, {"lat": 38.930220166666665, "is_disabled": 0, "type": "electric_scooter", "lon": -77.0233095, "bike_id": "8f304cdf464169c295509198bbf6b0a7", "fusion_lat": 0.0, "name": "8f304cdf464169c295509198bbf6b0a7", "is_reserved": 0, "rental_uris": {"android": "https://dc.lft.to/lastmile_qr_scan", "ios": "https://dc.lft.to/lastmile_qr_scan"}, "fusion_lon": 0.0}, {"lat": 38.92474466666667, "is_disabled": 0, "type": "electric_scooter", "lon": -77.07322666666667, "bike_id": "3900b1e5ecb6dde8500505ddde1a7026", "fusion_lat": 0.0, "name": "3900b1e5ecb6dde8500505ddde1a7026", "is_reserved": 0, "rental_uris": {"android": "https://dc.lft.to/lastmile_qr_scan", "ios": "https://dc.lft.to/lastmile_qr_scan"}, "fusion_lon": 0.0}, {"lat": 38.8808155, "is_disabled": 0, "type": "electric_scooter", "lon": -77.00556433333334, "bike_id": "36788ad8cf21464870cbbf3f2db1acef", "fusion_lat": 0.0, "name": "36788ad8cf21464870cbbf3f2db1acef", "is_reserved": 0, "rental_uris": {"android": "https://dc.lft.to/lastmile_qr_scan", "ios": "https://dc.lft.to/lastmile_qr_scan"}, "fusion_lon": 0.0}, {"lat": 38.91726883333333, "is_disabled": 0, "type": "electric_scooter", "lon": -77.03257966666666, "bike_id": "482ec50a611f6752b568a7cf20942939", "fusion_lat": 0.0, "name": "482ec50a611f6752b568a7cf20942939", "is_reserved": 0, "rental_uris": {"android": "https://dc.lft.to/lastmile_qr_scan", "ios": "https://dc.lft.to/lastmile_qr_scan"}, "fusion_lon": 0.0}, {"lat": 38.99435883333334, "is_disabled": 0, "type": "electric_bike", "lon": -77.03232783333333, "bike_id": "582f5e4652e5b38fb09b015dd2d63ca1", "fusion_lat": 0.0, "name": "582f5e4652e5b38fb09b015dd2d63ca1", "is_reserved": 0, "rental_uris": {"android": "https://dc.lft.to/lastmile_qr_scan", "ios": "https://dc.lft.to/lastmile_qr_scan"}, "fusion_lon": 0.0}, {"lat": 38.928718, "is_disabled": 0, "type": "electric_scooter", "lon": -76.99033033333333, "bike_id": "8d34d2d936dc77317d244f382e1b08dc", "fusion_lat": 0.0, "name": "8d34d2d936dc77317d244f382e1b08dc", "is_reserved": 0, "rental_uris": {"android": "https://dc.lft.to/lastmile_qr_scan", "ios": "https://dc.lft.to/lastmile_qr_scan"}, "fusion_lon": 0.0}, {"lat": 38.915538, "is_disabled": 0, "type": "electric_scooter", "lon": -77.04182533333334, "bike_id": "cbc294b7a5eded9a8a59a17b8059e935", "fusion_lat": 0.0, "name": "cbc294b7a5eded9a8a59a17b8059e935", "is_reserved": 0, "rental_uris": {"android": "https://dc.lft.to/lastmile_qr_scan", "ios": "https://dc.lft.to/lastmile_qr_scan"}, "fusion_lon": 0.0}, {"lat": 38.9168635, "is_disabled": 0, "type": "electric_scooter", "lon": -77.029496, "bike_id": "7af5810d0173daff86232a8fc72e0027", "fusion_lat": 0.0, "name": "7af5810d0173daff86232a8fc72e0027", "is_reserved": 0, "rental_uris": {"android": "https://dc.lft.to/lastmile_qr_scan", "ios": "https://dc.lft.to/lastmile_qr_scan"}, "fusion_lon": 0.0}, {"lat": 38.884419, "is_disabled": 0, "type": "electric_scooter", "lon": -77.00054833333333, "bike_id": "22640015727a6d1e2f546418252a441f", "fusion_lat": 0.0, "name": "22640015727a6d1e2f546418252a441f", "is_reserved": 0, "rental_uris": {"android": "https://dc.lft.to/lastmile_qr_scan", "ios": "https://dc.lft.to/lastmile_qr_scan"}, "fusion_lon": 0.0}, {"lat": 38.905232833333336, "is_disabled": 0, "type": "electric_scooter", "lon": -77.06450283333334, "bike_id": "12da90e4a86d0699f3751073d085c4e3", "fusion_lat": 0.0, "name": "12da90e4a86d0699f3751073d085c4e3", "is_reserved": 0, "rental_uris": {"android": "https://dc.lft.to/lastmile_qr_scan", "ios": "https://dc.lft.to/lastmile_qr_scan"}, "fusion_lon": 0.0}, {"lat": 38.922116333333335, "is_disabled": 0, "type": "electric_scooter", "lon": -77.0377865, "bike_id": "248a8894a64b6ae9f8a49a05190df7bd", "fusion_lat": 0.0, "name": "248a8894a64b6ae9f8a49a05190df7bd", "is_reserved": 0, "rental_uris": {"android": "https://dc.lft.to/lastmile_qr_scan", "ios": "https://dc.lft.to/lastmile_qr_scan"}, "fusion_lon": 0.0}, {"lat": 38.8939175, "is_disabled": 0, "type": "electric_scooter", "lon": -76.94998916666667, "bike_id": "54002eeaedd7b457805558be6deddce9", "fusion_lat": 0.0, "name": "54002eeaedd7b457805558be6deddce9", "is_reserved": 0, "rental_uris": {"android": "https://dc.lft.to/lastmile_qr_scan", "ios": "https://dc.lft.to/lastmile_qr_scan"}, "fusion_lon": 0.0}, {"lat": 38.86701333333333, "is_disabled": 0, "type": "electric_scooter", "lon": -76.98715766666666, "bike_id": "3f53a05f53747817885e47865a5117ad", "fusion_lat": 0.0, "name": "3f53a05f53747817885e47865a5117ad", "is_reserved": 0, "rental_uris": {"android": "https://dc.lft.to/lastmile_qr_scan", "ios": "https://dc.lft.to/lastmile_qr_scan"}, "fusion_lon": 0.0}, {"lat": 38.89980216666667, "is_disabled": 0, "type": "electric_scooter", "lon": -77.02171283333334, "bike_id": "7d0563173b90161536320be910bc0852", "fusion_lat": 0.0, "name": "7d0563173b90161536320be910bc0852", "is_reserved": 0, "rental_uris": {"android": "https://dc.lft.to/lastmile_qr_scan", "ios": "https://dc.lft.to/lastmile_qr_scan"}, "fusion_lon": 0.0}, {"lat": 38.90334683333333, "is_disabled": 0, "type": "electric_scooter", "lon": -77.06308983333334, "bike_id": "6106b4afc667b9c1ab3c48cf8a2c30eb", "fusion_lat": 0.0, "name": "6106b4afc667b9c1ab3c48cf8a2c30eb", "is_reserved": 0, "rental_uris": {"android": "https://dc.lft.to/lastmile_qr_scan", "ios": "https://dc.lft.to/lastmile_qr_scan"}, "fusion_lon": 0.0}, {"lat": 38.911214, "is_disabled": 0, "type": "electric_scooter", "lon": -77.038402, "bike_id": "fa1639c7c0c117cc68f407ad8425631d", "fusion_lat": 0.0, "name": "fa1639c7c0c117cc68f407ad8425631d", "is_reserved": 0, "rental_uris": {"android": "https://dc.lft.to/lastmile_qr_scan", "ios": "https://dc.lft.to/lastmile_qr_scan"}, "fusion_lon": 0.0}, {"lat": 38.855116333333335, "is_disabled": 0, "type": "electric_bike", "lon": -76.98428583333333, "bike_id": "152b9e9980b2cde7eada3bbdeb65f412", "fusion_lat": 0.0, "name": "152b9e9980b2cde7eada3bbdeb65f412", "is_reserved": 0, "rental_uris": {"android": "https://dc.lft.to/lastmile_qr_scan", "ios": "https://dc.lft.to/lastmile_qr_scan"}, "fusion_lon": 0.0}, {"lat": 38.911143, "is_disabled": 0, "type": "electric_scooter", "lon": -77.04823333333333, "bike_id": "e87fd9f5c1d3718238dfaac5d7e4b990", "fusion_lat": 0.0, "name": "e87fd9f5c1d3718238dfaac5d7e4b990", "is_reserved": 0, "rental_uris": {"android": "https://dc.lft.to/lastmile_qr_scan", "ios": "https://dc.lft.to/lastmile_qr_scan"}, "fusion_lon": 0.0}, {"lat": 38.934192833333334, "is_disabled": 0, "type": "electric_scooter", "lon": -77.05554033333334, "bike_id": "c8f42a6618255ce642901d9b7156bdb6", "fusion_lat": 0.0, "name": "c8f42a6618255ce642901d9b7156bdb6", "is_reserved": 0, "rental_uris": {"android": "https://dc.lft.to/lastmile_qr_scan", "ios": "https://dc.lft.to/lastmile_qr_scan"}, "fusion_lon": 0.0}, {"lat": 38.918078, "is_disabled": 0, "type": "electric_scooter", "lon": -77.03674483333333, "bike_id": "3062b0b62a86bc59bef8d9ac6ae84db0", "fusion_lat": 0.0, "name": "3062b0b62a86bc59bef8d9ac6ae84db0", "is_reserved": 0, "rental_uris": {"android": "https://dc.lft.to/lastmile_qr_scan", "ios": "https://dc.lft.to/lastmile_qr_scan"}, "fusion_lon": 0.0}, {"lat": 38.9111275, "is_disabled": 0, "type": "electric_scooter", "lon": -77.02013983333333, "bike_id": "a8276a4c04ebad42f5d09b18ff69c7ad", "fusion_lat": 0.0, "name": "a8276a4c04ebad42f5d09b18ff69c7ad", "is_reserved": 0, "rental_uris": {"android": "https://dc.lft.to/lastmile_qr_scan", "ios": "https://dc.lft.to/lastmile_qr_scan"}, "fusion_lon": 0.0}, {"lat": 38.813504333333334, "is_disabled": 0, "type": "electric_bike", "lon": -77.04929483333333, "bike_id": "5b3c1061cefb841ab28e3fa011a2cca2", "fusion_lat": 0.0, "name": "5b3c1061cefb841ab28e3fa011a2cca2", "is_reserved": 0, "rental_uris": {"android": "https://dc.lft.to/lastmile_qr_scan", "ios": "https://dc.lft.to/lastmile_qr_scan"}, "fusion_lon": 0.0}, {"lat": 38.914875333333335, "is_disabled": 0, "type": "electric_scooter", "lon": -77.013849, "bike_id": "eec8fbba7c512d05d8763c90f0b47cff", "fusion_lat": 0.0, "name": "eec8fbba7c512d05d8763c90f0b47cff", "is_reserved": 0, "rental_uris": {"android": "https://dc.lft.to/lastmile_qr_scan", "ios": "https://dc.lft.to/lastmile_qr_scan"}, "fusion_lon": 0.0}, {"lat": 38.9085985, "is_disabled": 0, "type": "electric_scooter", "lon": -77.04265, "bike_id": "66e0f68e425580e0859b1d9d3ddc5e05", "fusion_lat": 0.0, "name": "66e0f68e425580e0859b1d9d3ddc5e05", "is_reserved": 0, "rental_uris": {"android": "https://dc.lft.to/lastmile_qr_scan", "ios": "https://dc.lft.to/lastmile_qr_scan"}, "fusion_lon": 0.0}, {"lat": 38.924752, "is_disabled": 0, "type": "electric_scooter", "lon": -77.0350305, "bike_id": "70ce4db4f4b8325cb5996175eefcac59", "fusion_lat": 0.0, "name": "70ce4db4f4b8325cb5996175eefcac59", "is_reserved": 0, "rental_uris": {"android": "https://dc.lft.to/lastmile_qr_scan", "ios": "https://dc.lft.to/lastmile_qr_scan"}, "fusion_lon": 0.0}, {"lat": 38.90037383333333, "is_disabled": 0, "type": "electric_scooter", "lon": -77.00187816666667, "bike_id": "7fa7ebcb3f79431bf5346cbd02b24496", "fusion_lat": 0.0, "name": "7fa7ebcb3f79431bf5346cbd02b24496", "is_reserved": 0, "rental_uris": {"android": "https://dc.lft.to/lastmile_qr_scan", "ios": "https://dc.lft.to/lastmile_qr_scan"}, "fusion_lon": 0.0}, {"lat": 38.8985315, "is_disabled": 0, "type": "electric_scooter", "lon": -76.97657816666667, "bike_id": "1075d695805e7f5a781668b0f6368747", "fusion_lat": 0.0, "name": "1075d695805e7f5a781668b0f6368747", "is_reserved": 0, "rental_uris": {"android": "https://dc.lft.to/lastmile_qr_scan", "ios": "https://dc.lft.to/lastmile_qr_scan"}, "fusion_lon": 0.0}, {"lat": 38.927858666666665, "is_disabled": 0, "type": "electric_scooter", "lon": -77.03203833333333, "bike_id": "43c25207b5812a13a1bd31e63f1c89f0", "fusion_lat": 0.0, "name": "43c25207b5812a13a1bd31e63f1c89f0", "is_reserved": 0, "rental_uris": {"android": "https://dc.lft.to/lastmile_qr_scan", "ios": "https://dc.lft.to/lastmile_qr_scan"}, "fusion_lon": 0.0},