{"data": {"bikes": [{"lon": -77.040558, "bike_id": "f59557b44eb57b1ecfe746983f810c2d", "lat": 38.8898835, "fusion_lon": 0.0, "fusion_lat": 0.0, "type": "electric_scooter", "name": "f59557b44eb57b1ecfe746983f810c2d", "is_disabled": 0, "rental_uris": {"ios": "https://dc.lft.to/lastmile_qr_scan", "android": "https://dc.lft.to/lastmile_qr_scan"}, "is_reserved": 0}, {"lon": -76.93175816666667, "bike_id": "ab93d2fb13af2a5868f5d177d32b08a6", "lat": 38.89881333333334, "fusion_lon": 0.0, "fusion_lat": 0.0, "type": "electric_scooter", "name": "ab93d2fb13af2a5868f5d177d32b08a6", "is_disabled": 0, "rental_uris": {"ios": "https://dc.lft.to/lastmile_qr_scan", "android": "https://dc.lft.to/lastmile_qr_scan"}, "is_reserved": 0}, {"lon": -76.93010266666667, "bike_id": "4b3df10239431d81df1f65f4917db4eb", "lat": 38.896586166666665, "fusion_lon": 0.0, "fusion_lat": 0.0, "type": "electric_bike", "name": "4b3df10239431d81df1f65f4917db4eb", "is_disabled": 0, "rental_uris": {"ios": "https://dc.lft.to/lastmile_qr_scan", "android": "https://dc.lft.to/lastmile_qr_scan"}, "is_reserved": 0}, {"lon": -77.034281, "bike_id": "f330fea4e279a5e97c765d93d75f1ba5", "lat": 38.933468, "fusion_lon": 0.0, "fusion_lat": 0.0, "type": "electric_scooter", "name": "f330fea4e279a5e97c765d93d75f1ba5", "is_disabled": 0, "rental_uris": {"ios": "https://dc.lft.to/lastmile_qr_scan", "android": "https://dc.lft.to/lastmile_qr_scan"}, "is_reserved": 0}, {"lon": -76.93644966666666, "bike_id": "da3f50e4cb7d93a1ef4997b68cce7d69", "lat": 38.90061816666667, "fusion_lon": 0.0, "fusion_lat": 0.0, "type": "electric_scooter", "name": "da3f50e4cb7d93a1ef4997b68cce7d69", "is_disabled": 0, "rental_uris": {"ios": "https://dc.lft.to/lastmile_qr_scan", "android": "https://dc.lft.to/lastmile_qr_scan"}, "is_reserved": 0}, {"lon": -76.87497833333333, "bike_id": "0e649eab9f298bfeee7792364ca096d3", "lat": 38.990917, "fusion_lon": 0.0, "fusion_lat": 0.0, "type": "electric_bike", "name": "0e649eab9f298bfeee7792364ca096d3", "is_disabled": 0, "rental_uris": {"ios": "https://dc.lft.to/lastmile_qr_scan", "android": "https://dc.lft.to/lastmile_qr_scan"}, "is_reserved": 0}, {"lon": -77.0244135, "bike_id": "56c14c11954e808ab763a69396026ba7", "lat": 38.937452, "fusion_lon": 0.0, "fusion_lat": 0.0, "type": "electric_scooter", "name": "56c14c11954e808ab763a69396026ba7", "is_disabled": 0, "rental_uris": {"ios": "https://dc.lft.to/lastmile_qr_scan", "android": "https://dc.lft.to/lastmile_qr_scan"}, "is_reserved": 0}, {"lon": -76.95746983333333, "bike_id": "2b79c69a3bb7e2645403d332d3fd3164", "lat": 38.8842715, "fusion_lon": 0.0, "fusion_lat": 0.0, "type": "electric_scooter", "name": "2b79c69a3bb7e2645403d332d3fd3164", "is_disabled": 0, "rental_uris": {"ios": "https://dc.lft.to/lastmile_qr_scan", "android": "https://dc.lft.to/lastmile_qr_scan"}, "is_reserved": 0}, {"lon": -77.0329405, "bike_id": "3d9d7772109a6e8e5bf6a32857199571", "lat": 38.956503833333336, "fusion_lon": 0.0, "fusion_lat": 0.0, "type": "electric_scooter", "name": "3d9d7772109a6e8e5bf6a32857199571", "is_disabled": 0, "rental_uris": {"ios": "https://dc.lft.to/lastmile_qr_scan", "android": "https://dc.lft.to/lastmile_qr_scan"}, "is_reserved": 0}, {"lon": -77.0065415, "bike_id": "08c376d1e4dc64110355fa79fc057a6b", "lat": 38.838899833333336, "fusion_lon": 0.0, "fusion_lat": 0.0, "type": "electric_scooter", "name": "08c376d1e4dc64110355fa79fc057a6b", "is_disabled": 0, "rental_uris": {"ios": "https://dc.lft.to/lastmile_qr_scan", "android": "https://dc.lft.to/lastmile_qr_scan"}, "is_reserved": 0}, {"lon": -77.03870016666667, "bike_id": "9788c9ab67a8c4af48aecb15cf3c9192", "lat": 38.91564483333333, "fusion_lon": 0.0, "fusion_lat": 0.0, "type": "electric_scooter", "name": "9788c9ab67a8c4af48aecb15cf3c9192", "is_disabled": 0, "rental_uris": {"ios": "https://dc.lft.to/lastmile_qr_scan", "android": "https://dc.lft.to/lastmile_qr_scan"}, "is_reserved": 0}, {"lon": -77.01945166666667, "bike_id": "5d84d6d7a7456bb96134a129b9ef97ab", "lat": 38.93682416666667, "fusion_lon": 0.0, "fusion_lat": 0.0, "type": "electric_scooter", "name": "5d84d6d7a7456bb96134a129b9ef97ab", "is_disabled": 0, "rental_uris": {"ios": "https://dc.lft.to/lastmile_qr_scan", "android": "https://dc.lft.to/lastmile_qr_scan"}, "is_reserved": 0}, {"lon": -76.99535616666667, "bike_id": "7ecfc4c1fdc5cd566f3b2d473734549d", "lat": 38.883630333333336, "fusion_lon": 0.0, "fusion_lat": 0.0, "type": "electric_scooter", "name": "7ecfc4c1fdc5cd566f3b2d473734549d", "is_disabled": 0, "rental_uris": {"ios": "https://dc.lft.to/lastmile_qr_scan", "android": "https://dc.lft.to/lastmile_qr_scan"}, "is_reserved": 0}, {"lon": -77.038619, "bike_id": "d04ce8bef038999dc10920d8745bbcef", "lat": 38.91552083333333, "fusion_lon": 0.0, "fusion_lat": 0.0, "type": "electric_scooter", "name": "d04ce8bef038999dc10920d8745bbcef", "is_disabled": 0, "rental_uris": {"ios": "https://dc.lft.to/lastmile_qr_scan", "android": "https://dc.lft.to/lastmile_qr_scan"}, "is_reserved": 0}, {"lon": -77.03667733333333, "bike_id": "0b63abd65377913c6c1a376ebd4ae898", "lat": 38.918127166666665, "fusion_lon": 0.0, "fusion_lat": 0.0, "type": "electric_scooter", "name": "0b63abd65377913c6c1a376ebd4ae898", "is_disabled": 0, "rental_uris": {"ios": "https://dc.lft.to/lastmile_qr_scan", "android": "https://dc.lft.to/lastmile_qr_scan"}, "is_reserved": 0}, {"lon": -76.985434, "bike_id": "ba19ee347bf2d03086c7b7499473d9ac", "lat": 38.896517333333335, "fusion_lon": 0.0, "fusion_lat": 0.0, "type": "electric_scooter", "name": "ba19ee347bf2d03086c7b7499473d9ac", "is_disabled": 0, "rental_uris": {"ios": "https://dc.lft.to/lastmile_qr_scan", "android": "https://dc.lft.to/lastmile_qr_scan"}, "is_reserved": 0}, {"lon": -77.03216766666667, "bike_id": "d034cdcbc95c02703b021d25019b43cc", "lat": 38.91709483333333, "fusion_lon": 0.0, "fusion_lat": 0.0, "type": "electric_scooter", "name": "d034cdcbc95c02703b021d25019b43cc", "is_disabled": 0, "rental_uris": {"ios": "https://dc.lft.to/lastmile_qr_scan", "android": "https://dc.lft.to/lastmile_qr_scan"}, "is_reserved": 0}, {"lon": -77.05269, "bike_id": "b043fe694a74729fe071fb55cf78665f", "lat": 38.8997235, "fusion_lon": 0.0, "fusion_lat": 0.0, "type": "electric_scooter", "name": "b043fe694a74729fe071fb55cf78665f", "is_disabled": 0, "rental_uris": {"ios": "https://dc.lft.to/lastmile_qr_scan", "android": "https://dc.lft.to/lastmile_qr_scan"}, "is_reserved": 0}, {"lon": -77.02296616666666, "bike_id": "cdcd793c91058bdc65ac2ed27d0b325a", "lat": 38.927543166666666, "fusion_lon": 0.0, "fusion_lat": 0.0, "type": "electric_scooter", "name": "cdcd793c91058bdc65ac2ed27d0b325a", "is_disabled": 0, "rental_uris": {"ios": "https://dc.lft.to/lastmile_qr_scan", "android": "https://dc.lft.to/lastmile_qr_scan"}, "is_reserved": 0}, {"lon": -76.99017633333334, "bike_id": "b450f235db927c02329cf0cc7db6a943", "lat": 38.88159183333333, "fusion_lon": 0.0, "fusion_lat": 0.0, "type": "electric_scooter", "name": "b450f235db927c02329cf0cc7db6a943", "is_disabled": 0, "rental_uris": {"ios": "https://dc.lft.to/lastmile_qr_scan", "android": "https://dc.lft.to/lastmile_qr_scan"}, "is_reserved": 0}, {"lon": -77.05362766666667, "bike_id": "34cc802830cae1d862aa061b5422897a", "lat": 38.92718833333333, "fusion_lon": 0.0, "fusion_lat": 0.0, "type": "electric_scooter", "name": "34cc802830cae1d862aa061b5422897a", "is_disabled": 0, "rental_uris": {"ios": "https://dc.lft.to/lastmile_qr_scan", "android": "https://dc.lft.to/lastmile_qr_scan"}, "is_reserved": 0}, {"lon": -77.038556, "bike_id": "9f5c2e2019963100862f38445945ab6c", "lat": 38.917802333333334, "fusion_lon": 0.0, "fusion_lat": 0.0, "type": "electric_scooter", "name": "9f5c2e2019963100862f38445945ab6c", "is_disabled": 0, "rental_uris": {"ios": "https://dc.lft.to/lastmile_qr_scan", "android": "https://dc.lft.to/lastmile_qr_scan"}, "is_reserved": 0}, {"lon": -77.01452616666667, "bike_id": "774d52b06885e7908e15468f39a5f334", "lat": 38.9051625, "fusion_lon": 0.0, "fusion_lat": 0.0, "type": "electric_scooter", "name": "774d52b06885e7908e15468f39a5f334", "is_disabled": 0, "rental_uris": {"ios": "https://dc.lft.to/lastmile_qr_scan", "android": "https://dc.lft.to/lastmile_qr_scan"}, "is_reserved": 0}, {"lon": -77.0153895, "bike_id": "e282337aefa106f0aa428f7e138ec959", "lat": 38.9096805, "fusion_lon": 0.0, "fusion_lat": 0.0, "type": "electric_bike", "name": "e282337aefa106f0aa428f7e138ec959", "is_disabled": 0, "rental_uris": {"ios": "https://dc.lft.to/lastmile_qr_scan", "android": "https://dc.lft.to/lastmile_qr_scan"}, "is_reserved": 0}, {"lon": -77.01158533333333, "bike_id": "d8ec554bdcd2bafc2ed230dca5c29825", "lat": 38.895824, "fusion_lon": 0.0, "fusion_lat": 0.0, "type": "electric_scooter", "name": "d8ec554bdcd2bafc2ed230dca5c29825", "is_disabled": 0, "rental_uris": {"ios": "https://dc.lft.to/lastmile_qr_scan", "android": "https://dc.lft.to/lastmile_qr_scan"}, "is_reserved": 0}, {"lon": -77.03448716666666, "bike_id": "d7938dc0d2bed3e211628a3cddcb1b50", "lat": 38.90267566666667, "fusion_lon": 0.0, "fusion_lat": 0.0, "type": "electric_scooter", "name": "d7938dc0d2bed3e211628a3cddcb1b50", "is_disabled": 0, "rental_uris": {"ios": "https://dc.lft.to/lastmile_qr_scan", "android": "https://dc.lft.to/lastmile_qr_scan"}, "is_reserved": 0}, {"lon": -76.98845883333334, "bike_id": "2e5886792082af3ce4091c9fcfe87e9d", "lat": 38.901301, "fusion_lon": 0.0, "fusion_lat": 0.0, "type": "electric_scooter", "name": "2e5886792082af3ce4091c9fcfe87e9d", "is_disabled": 0, "rental_uris": {"ios": "https://dc.lft.to/lastmile_qr_scan", "android": "https://dc.lft.to/lastmile_qr_scan"}, "is_reserved": 0}, {"lon": -77.122251, "bike_id": "fb3640254f2367528a7c2743c3736918", "lat": 38.85294716666667, "fusion_lon": 0.0, "fusion_lat": 0.0, "type": "electric_bike", "name": "fb3640254f2367528a7c2743c3736918", "is_disabled": 0, "rental_uris": {"ios": "https://dc.lft.to/lastmile_qr_scan", "android": "https://dc.lft.to/lastmile_qr_scan"}, "is_reserved": 0}, {"lon": -77.03218466666667, "bike_id": "f19e537cf29dc3e33e1516285d2418df", "lat": 38.892197333333336, "fusion_lon": 0.0, "fusion_lat": 0.0, "type": "electric_scooter", "name": "f19e537cf29dc3e33e1516285d2418df", "is_disabled": 0, "rental_uris": {"ios": "https://dc.lft.to/lastmile_qr_scan", "android": "https://dc.lft.to/lastmile_qr_scan"}, "is_reserved": 0}, {"lon": -77.02179183333334, "bike_id": "afa9bc5276727e4171b4c7d871aa268b", "lat": 38.902088, "fusion_lon": 0.0, "fusion_lat": 0.0, "type": "electric_scooter", "name": "afa9bc5276727e4171b4c7d871aa268b", "is_disabled": 0, "rental_uris": {"ios": "https://dc.lft.to/lastmile_qr_scan", "android": "https://dc.lft.to/lastmile_qr_scan"}, "is_reserved": 0}, {"lon": -77.04065233333333, "bike_id": "e2341feeb3b2eb4ec3f021382ca65dbe", "lat": 38.914863833333335, "fusion_lon": 0.0, "fusion_lat": 0.0, "type": "electric_scooter", "name": "e2341feeb3b2eb4ec3f021382ca65dbe", "is_disabled": 0, "rental_uris": {"ios": "https://dc.lft.to/lastmile_qr_scan", "android": "https://dc.lft.to/lastmile_qr_scan"}, "is_reserved": 0}, {"lon": -76.97760433333333, "bike_id": "60f376d26f6ab8fa8f7716c8ce399458", "lat": 38.864442, "fusion_lon": 0.0, "fusion_lat": 0.0, "type": "electric_scooter", "name": "60f376d26f6ab8fa8f7716c8ce399458", "is_disabled": 0, "rental_uris": {"ios": "https://dc.lft.to/lastmile_qr_scan", "android": "https://dc.lft.to/lastmile_qr_scan"}, "is_reserved": 0}, {"lon": -77.043538, "bike_id": "178fc74fccc188069b7cd8711125dd71", "lat": 38.92143183333334, "fusion_lon": 0.0, "fusion_lat": 0.0, "type": "electric_scooter", "name": "178fc74fccc188069b7cd8711125dd71", "is_disabled": 0, "rental_uris": {"ios": "https://dc.lft.to/lastmile_qr_scan", "android": "https://dc.lft.to/lastmile_qr_scan"}, "is_reserved": 0}, {"lon": -76.9910735, "bike_id": "9e1382f4b2e082397999aaaf9f870def", "lat": 38.903127166666664, "fusion_lon": 0.0, "fusion_lat": 0.0, "type": "electric_scooter", "name": "9e1382f4b2e082397999aaaf9f870def", "is_disabled": 0, "rental_uris": {"ios": "https://dc.lft.to/lastmile_qr_scan", "android": "https://dc.lft.to/lastmile_qr_scan"}, "is_reserved": 0}, {"lon": -76.98189316666667, "bike_id": "9fff763ed0996f5023e5984ad0e36268", "lat": 38.9260735, "fusion_lon": 0.0, "fusion_lat": 0.0, "type": "electric_scooter", "name": "9fff763ed0996f5023e5984ad0e36268", "is_disabled": 0, "rental_uris": {"ios": "https://dc.lft.to/lastmile_qr_scan", "android": "https://dc.lft.to/lastmile_qr_scan"}, "is_reserved": 0}, {"lon": -77.0481285, "bike_id": "33d621e96b615c69cee02a7f4f28bd32", "lat": 38.907271333333334, "fusion_lon": 0.0, "fusion_lat": 0.0, "type": "electric_scooter", "name": "33d621e96b615c69cee02a7f4f28bd32", "is_disabled": 0, "rental_uris": {"ios": "https://dc.lft.to/lastmile_qr_scan", "android": "https://dc.lft.to/lastmile_qr_scan"}, "is_reserved": 0}, {"lon": -77.12651533333333, "bike_id": "d7b8ac83667dacaf6b669caa4d91eb63", "lat": 38.81511166666667, "fusion_lon": 0.0, "fusion_lat": 0.0, "type": "electric_bike", "name": "d7b8ac83667dacaf6b669caa4d91eb63", "is_disabled": 0, "rental_uris": {"ios": "https://dc.lft.to/lastmile_qr_scan", "android": "https://dc.lft.to/lastmile_qr_scan"}, "is_reserved": 0}, {"lon": -77.046348, "bike_id": "0d49e167bcfc633c444e9d917f7648e9", "lat": 38.919050666666664, "fusion_lon": 0.0, "fusion_lat": 0.0, "type": "electric_scooter", "name": "0d49e167bcfc633c444e9d917f7648e9", "is_disabled": 0, "rental_uris": {"ios": "https://dc.lft.to/lastmile_qr_scan", "android": "https://dc.lft.to/lastmile_qr_scan"}, "is_reserved": 0}, {"lon": -77.04491966666667, "bike_id": "f9e1659e91780895c1263bb7151b6f85", "lat": 38.916067166666664, "fusion_lon": 0.0, "fusion_lat": 0.0, "type": "electric_scooter", "name": "f9e1659e91780895c1263bb7151b6f85", "is_disabled": 0, "rental_uris": {"ios": "https://dc.lft.to/lastmile_qr_scan", "android": "https://dc.lft.to/lastmile_qr_scan"}, "is_reserved": 0}, {"lon": -77.00211883333333, "bike_id": "6f86a5b63da90cb583fe87a22d434a17", "lat": 38.8812785, "fusion_lon": 0.0, "fusion_lat": 0.0, "type": "electric_scooter", "name": "6f86a5b63da90cb583fe87a22d434a17", "is_disabled": 0, "rental_uris": {"ios": "https://dc.lft.to/lastmile_qr_scan", "android": "https://dc.lft.to/lastmile_qr_scan"}, "is_reserved": 0}, {"lon": -77.0234855, "bike_id": "9119a8804293891e87be3f87496f4467", "lat": 38.93536916666667, "fusion_lon": 0.0, "fusion_lat": 0.0, "type": "electric_scooter", "name": "9119a8804293891e87be3f87496f4467", "is_disabled": 0, "rental_uris": {"ios": "https://dc.lft.to/lastmile_qr_scan", "android": "https://dc.lft.to/lastmile_qr_scan"}, "is_reserved": 0}, {"lon": -77.04438416666666, "bike_id": "0367e401dd5e0fcd434e8f73196e5744", "lat": 38.918720666666665, "fusion_lon": 0.0, "fusion_lat": 0.0, "type": "electric_scooter", "name": "0367e401dd5e0fcd434e8f73196e5744", "is_disabled": 0, "rental_uris": {"ios": "https://dc.lft.to/lastmile_qr_scan", "android": "https://dc.lft.to/lastmile_qr_scan"}, "is_reserved": 0}, {"lon": -76.93351583333333, "bike_id": "1e72083947764507d78da8a4106bb7e1", "lat": 38.899109333333335, "fusion_lon": 0.0, "fusion_lat": 0.0, "type": "electric_scooter", "name": "1e72083947764507d78da8a4106bb7e1", "is_disabled": 0, "rental_uris": {"ios": "https://dc.lft.to/lastmile_qr_scan", "android": "https://dc.lft.to/lastmile_qr_scan"}, "is_reserved": 0}, {"lon": -77.0234815, "bike_id": "a0799d0c940a6d6f06be52a63fd083f6", "lat": 38.92073233333333, "fusion_lon": 0.0, "fusion_lat": 0.0, "type": "electric_scooter", "name": "a0799d0c940a6d6f06be52a63fd083f6", "is_disabled": 0, "rental_uris": {"ios": "https://dc.lft.to/lastmile_qr_scan", "android": "https://dc.lft.to/lastmile_qr_scan"}, "is_reserved": 0}, {"lon": -77.02712533333333, "bike_id": "bd4a582d4ebd1e37d19571f50f7076b0", "lat": 38.92769933333334, "fusion_lon": 0.0, "fusion_lat": 0.0, "type": "electric_scooter", "name": "bd4a582d4ebd1e37d19571f50f7076b0", "is_disabled": 0, "rental_uris": {"ios": "https://dc.lft.to/lastmile_qr_scan", "android": "https://dc.lft.to/lastmile_qr_scan"}, "is_reserved": 0}, {"lon": -77.04790083333333, "bike_id": "adeb9e30fdbf10a50f81db0425bf0811", "lat": 38.90950333333333, "fusion_lon": 0.0, "fusion_lat": 0.0, "type": "electric_scooter", "name": "adeb9e30fdbf10a50f81db0425bf0811", "is_disabled": 0, "rental_uris": {"ios": "https://dc.lft.to/lastmile_qr_scan", "android": "https://dc.lft.to/lastmile_qr_scan"}, "is_reserved": 0}, {"lon": -76.93331616666667, "bike_id": "cfe1c378ff78310c68bcf887189a58d6", "lat": 38.91063533333333, "fusion_lon": 0.0, "fusion_lat": 0.0, "type": "electric_scooter", "name": "cfe1c378ff78310c68bcf887189a58d6", "is_disabled": 0, "rental_uris": {"ios": "https://dc.lft.to/lastmile_qr_scan", "android": "https://dc.lft.to/lastmile_qr_scan"}, "is_reserved": 0}, {"lon": -77.02319166666666, "bike_id": "f3b20fb668e07504bf392be8ea1a0f99", "lat": 38.91837833333334, "fusion_lon": 0.0, "fusion_lat": 0.0, "type": "electric_bike", "name": "f3b20fb668e07504bf392be8ea1a0f99", "is_disabled": 0, "rental_uris": {"ios": "https://dc.lft.to/lastmile_qr_scan", "android": "https://dc.lft.to/lastmile_qr_scan"}, "is_reserved": 0}, {"lon": -76.92738116666666, "bike_id": "f283d3039b7249f763fe5f7dea653bbc", "lat": 38.88963866666667, "fusion_lon": 0.0, "fusion_lat": 0.0, "type": "electric_scooter", "name": "f283d3039b7249f763fe5f7dea653bbc", "is_disabled": 0, "rental_uris": {"ios": "https://dc.lft.to/lastmile_qr_scan", "android": "https://dc.lft.to/lastmile_qr_scan"}, "is_reserved": 0}, {"lon": -76.98560483333333, "bike_id": "f279f589deaa7c004769f63153833bdc", "lat": 38.899521666666665, "fusion_lon": 0.0, "fusion_lat": 0.0, "type": "electric_scooter", "name": "f279f589deaa7c004769f63153833bdc", "is_disabled": 0, "rental_uris": {"ios": "https://dc.lft.to/lastmile_qr_scan", "android": "https://dc.lft.to/lastmile_qr_scan"}, "is_reserved": 0}, {"lon": -77.0287525, "bike_id": "98560b3554ee67a2c3640a5781bce2ed", "lat": 38.8983015, "fusion_lon": 0.0, "fusion_lat": 0.0, "type": "electric_scooter", "name": "98560b3554ee67a2c3640a5781bce2ed", "is_disabled": 0, "rental_uris": {"ios": "https://dc.lft.to/lastmile_qr_scan", "android": "https://dc.lft.to/lastmile_qr_scan"}, "is_reserved": 0}, {"lon": -77.03865333333333, "bike_id": "32bcbf5174a202bab124f1988d6fcc93", "lat": 38.94499533333333, "fusion_lon": 0.0, "fusion_lat": 0.0, "type": "electric_scooter", "name": "32bcbf5174a202bab124f1988d6fcc93", "is_disabled": 0, "rental_uris": {"ios": "https://dc.lft.to/lastmile_qr_scan", "android": "https://dc.lft.to/lastmile_qr_scan"}, "is_reserved": 0}, {"lon": -77.0341855, "bike_id": "44859d349ceec51e8bf82890476f6bfc", "lat": 38.90257833333333, "fusion_lon": 0.0, "fusion_lat": 0.0, "type": "electric_scooter", "name": "44859d349ceec51e8bf82890476f6bfc", "is_disabled": 0, "rental_uris": {"ios": "https://dc.lft.to/lastmile_qr_scan", "android": "https://dc.lft.to/lastmile_qr_scan"}, "is_reserved": 0}, {"lon": -76.93534233333334, "bike_id": "19a73c79bbb9bc53bb88587ec287d1dc", "lat": 38.89679816666667, "fusion_lon": 0.0, "fusion_lat": 0.0, "type": "electric_scooter", "name": "19a73c79bbb9bc53bb88587ec287d1dc", "is_disabled": 0, "rental_uris": {"ios": "https://dc.lft.to/lastmile_qr_scan", "android": "https://dc.lft.to/lastmile_qr_scan"}, "is_reserved": 0}, {"lon": -76.98099816666667, "bike_id": "3c01b2e839cb370fafa0592f1b25b3e9", "lat": 38.895524, "fusion_lon": 0.0, "fusion_lat": 0.0, "type": "electric_scooter", "name": "3c01b2e839cb370fafa0592f1b25b3e9", "is_disabled": 0, "rental_uris": {"ios": "https://dc.lft.to/lastmile_qr_scan", "android": "https://dc.lft.to/lastmile_qr_scan"}, "is_reserved": 0}, {"lon": -77.02714933333333, "bike_id": "945970b4ebf81ec3a94edcce82c3b428", "lat": 38.92464616666667, "fusion_lon": 0.0, "fusion_lat": 0.0, "type": "electric_scooter", "name": "945970b4ebf81ec3a94edcce82c3b428", "is_disabled": 0, "rental_uris": {"ios": "https://dc.lft.to/lastmile_qr_scan", "android": "https://dc.lft.to/lastmile_qr_scan"}, "is_reserved": 0}, {"lon": -76.96153066666666, "bike_id": "1d494b1a9ab490fe3c471c4ad8672817", "lat": 38.88358616666667, "fusion_lon": 0.0, "fusion_lat": 0.0, "type": "electric_scooter", "name": "1d494b1a9ab490fe3c471c4ad8672817", "is_disabled": 0, "rental_uris": {"ios": "https://dc.lft.to/lastmile_qr_scan", "android": "https://dc.lft.to/lastmile_qr_scan"}, "is_reserved": 0}, {"lon": -76.96789866666667, "bike_id": "fef05158bb02fb4f9fd20590fc3341b3", "lat": 38.868415666666664, "fusion_lon": 0.0, "fusion_lat": 0.0, "type": "electric_scooter", "name": "fef05158bb02fb4f9fd20590fc3341b3", "is_disabled": 0, "rental_uris": {"ios": "https://dc.lft.to/lastmile_qr_scan", "android": "https://dc.lft.to/lastmile_qr_scan"}, "is_reserved": 0}, {"lon": -76.99052066666667, "bike_id": "aee97af821fb72fb5e59c263ebb10593", "lat": 38.8875165, "fusion_lon": 0.0, "fusion_lat": 0.0, "type": "electric_scooter", "name": "aee97af821fb72fb5e59c263ebb10593", "is_disabled": 0, "rental_uris": {"ios": "https://dc.lft.to/lastmile_qr_scan", "android": "https://dc.lft.to/lastmile_qr_scan"}, "is_reserved": 0}, {"lon": -77.00801983333334, "bike_id": "8ccfa368fc7231ebac56c3ebc0553783", "lat": 38.9055475, "fusion_lon": 0.0, "fusion_lat": 0.0, "type": "electric_scooter", "name": "8ccfa368fc7231ebac56c3ebc0553783", "is_disabled": 0, "rental_uris": {"ios": "https://dc.lft.to/lastmile_qr_scan", "android": "https://dc.lft.to/lastmile_qr_scan"}, "is_reserved": 0}, {"lon": -77.02963566666666, "bike_id": "875fc96063c2f46607db25cfe73e4edc", "lat": 38.92920816666667, "fusion_lon": 0.0, "fusion_lat": 0.0, "type": "electric_scooter", "name": "875fc96063c2f46607db25cfe73e4edc", "is_disabled": 0, "rental_uris": {"ios": "https://dc.lft.to/lastmile_qr_scan", "android": "https://dc.lft.to/lastmile_qr_scan"}, "is_reserved": 0}, {"lon": -76.9807425, "bike_id": "65604c514d122b300c19fec7036a3150", "lat": 38.90178933333333, "fusion_lon": 0.0, "fusion_lat": 0.0, "type": "electric_scooter", "name": "65604c514d122b300c19fec7036a3150", "is_disabled": 0, "rental_uris": {"ios": "https://dc.lft.to/lastmile_qr_scan", "android": "https://dc.lft.to/lastmile_qr_scan"}, "is_reserved": 0}, {"lon": -77.063398, "bike_id": "2df3d641f95d2d458c8cadfd29b581e4", "lat": 38.90677616666667, "fusion_lon": 0.0, "fusion_lat": 0.0, "type": "electric_scooter", "name": "2df3d641f95d2d458c8cadfd29b581e4", "is_disabled": 0, "rental_uris": {"ios": "https://dc.lft.to/lastmile_qr_scan", "android": "https://dc.lft.to/lastmile_qr_scan"}, "is_reserved": 0}, {"lon": -77.05536316666667, "bike_id": "99e2dd2a084f475937e635a5d7c4d99b", "lat": 38.934241666666665, "fusion_lon": 0.0, "fusion_lat": 0.0, "type": "electric_scooter", "name": "99e2dd2a084f475937e635a5d7c4d99b", "is_disabled": 0, "rental_uris": {"ios": "https://dc.lft.to/lastmile_qr_scan", "android": "https://dc.lft.to/lastmile_qr_scan"}, "is_reserved": 0}, {"lon": -77.08457883333334, "bike_id": "69f295bea579ae193a4bfa46bde4d754", "lat": 38.848174, "fusion_lon": 0.0, "fusion_lat": 0.0, "type": "electric_bike", "name": "69f295bea579ae193a4bfa46bde4d754", "is_disabled": 0, "rental_uris": {"ios": "https://dc.lft.to/lastmile_qr_scan", "android": "https://dc.lft.to/lastmile_qr_scan"}, "is_reserved": 0}, {"lon": -77.003661, "bike_id": "0d371324051106dcfa2f8410a84090e9", "lat": 38.89934866666667, "fusion_lon": 0.0, "fusion_lat": 0.0, "type": "electric_scooter", "name": "0d371324051106dcfa2f8410a84090e9", "is_disabled": 0, "rental_uris": {"ios": "https://dc.lft.to/lastmile_qr_scan", "android": "https://dc.lft.to/lastmile_qr_scan"}, "is_reserved": 0}, {"lon": -77.042128, "bike_id": "0308403fa1934d6c45ea31e5fef36f73", "lat": 38.90738283333334, "fusion_lon": 0.0, "fusion_lat": 0.0, "type": "electric_scooter", "name": "0308403fa1934d6c45ea31e5fef36f73", "is_disabled": 0, "rental_uris": {"ios": "https://dc.lft.to/lastmile_qr_scan", "android": "https://dc.lft.to/lastmile_qr_scan"}, "is_reserved": 0}, {"lon": -76.9739115, "bike_id": "ab71564e670f4a973cad9302eb574c78", "lat": 38.90558016666667, "fusion_lon": 0.0, "fusion_lat": 0.0, "type": "electric_scooter", "name": "ab71564e670f4a973cad9302eb574c78", "is_disabled": 0, "rental_uris": {"ios": "https://dc.lft.to/lastmile_qr_scan", "android": "https://dc.lft.to/lastmile_qr_scan"}, "is_reserved": 0}, {"lon": -77.03179933333334, "bike_id": "52d5fbae72ea3404a1996ad7e8124ab4", "lat": 38.903707, "fusion_lon": 0.0, "fusion_lat": 0.0, "type": "electric_scooter", "name": "52d5fbae72ea3404a1996ad7e8124ab4", "is_disabled": 0, "rental_uris": {"ios": "https://dc.lft.to/lastmile_qr_scan", "android": "https://dc.lft.to/lastmile_qr_scan"}, "is_reserved": 0}, {"lon": -77.03415816666667, "bike_id": "566c3b244d9de14c63de2e8571f3c148", "lat": 38.9223785, "fusion_lon": 0.0, "fusion_lat": 0.0, "type": "electric_scooter", "name": "566c3b244d9de14c63de2e8571f3c148", "is_disabled": 0, "rental_uris": {"ios": "https://dc.lft.to/lastmile_qr_scan", "android": "https://dc.lft.to/lastmile_qr_scan"}, "is_reserved": 0}, {"lon": -77.0326705, "bike_id": "13e4cb4c991a5b987194f2bf3eb40ed7", "lat": 38.934040333333336, "fusion_lon": 0.0, "fusion_lat": 0.0, "type": "electric_scooter", "name": "13e4cb4c991a5b987194f2bf3eb40ed7", "is_disabled": 0, "rental_uris": {"ios": "https://dc.lft.to/lastmile_qr_scan", "android": "https://dc.lft.to/lastmile_qr_scan"}, "is_reserved": 0}, {"lon": -77.0385235, "bike_id": "9cb69a2bf0719140ebb982a576ce2e63", "lat": 38.91665833333333, "fusion_lon": 0.0, "fusion_lat": 0.0, "type": "electric_scooter", "name": "9cb69a2bf0719140ebb982a576ce2e63", "is_disabled": 0, "rental_uris": {"ios": "https://dc.lft.to/lastmile_qr_scan", "android": "https://dc.lft.to/lastmile_qr_scan"}, "is_reserved": 0}, {"lon": -77.03905866666666, "bike_id": "b913cf1440e6c814868ad1e36e2280d3", "lat": 38.92356316666667, "fusion_lon": 0.0, "fusion_lat": 0.0, "type": "electric_scooter", "name": "b913cf1440e6c814868ad1e36e2280d3", "is_disabled": 0, "rental_uris": {"ios": "https://dc.lft.to/lastmile_qr_scan", "android": "https://dc.lft.to/lastmile_qr_scan"}, "is_reserved": 0}, {"lon": -77.026945, "bike_id": "87a28c91e75e64216aeea33013bafc64", "lat": 38.89702033333333, "fusion_lon": 0.0, "fusion_lat": 0.0, "type": "electric_scooter", "name": "87a28c91e75e64216aeea33013bafc64", "is_disabled": 0, "rental_uris": {"ios": "https://dc.lft.to/lastmile_qr_scan", "android": "https://dc.lft.to/lastmile_qr_scan"}, "is_reserved": 0}, {"lon": -77.03495316666667, "bike_id": "7d17b6e8fabafc060fe57484281cc2eb", "lat": 38.937504833333335, "fusion_lon": 0.0, "fusion_lat": 0.0, "type": "electric_scooter", "name": "7d17b6e8fabafc060fe57484281cc2eb", "is_disabled": 0, "rental_uris": {"ios": "https://dc.lft.to/lastmile_qr_scan", "android": "https://dc.lft.to/lastmile_qr_scan"}, "is_reserved": 0}, {"lon": -76.9463645, "bike_id": "342b0a8b61d8654698e633deb7a58c4e", "lat": 38.89837466666667, "fusion_lon": 0.0, "fusion_lat": 0.0, "type": "electric_scooter", "name": "342b0a8b61d8654698e633deb7a58c4e", "is_disabled": 0, "rental_uris": {"ios": "https://dc.lft.to/lastmile_qr_scan", "android": "https://dc.lft.to/lastmile_qr_scan"}, "is_reserved": 0}, {"lon": -77.04991533333333, "bike_id": "1e28d7ff8effacfde8244afde15c5e3e", "lat": 38.900023166666664, "fusion_lon": 0.0, "fusion_lat": 0.0, "type": "electric_scooter", "name": "1e28d7ff8effacfde8244afde15c5e3e", "is_disabled": 0, "rental_uris": {"ios": "https://dc.lft.to/lastmile_qr_scan", "android": "https://dc.lft.to/lastmile_qr_scan"}, "is_reserved": 0}, {"lon": -77.00131316666666, "bike_id": "39ac3cb96240ee47e55d8416a29e1e5f", "lat": 38.88516833333333, "fusion_lon": 0.0, "fusion_lat": 0.0, "type": "electric_scooter", "name": "39ac3cb96240ee47e55d8416a29e1e5f", "is_disabled": 0, "rental_uris": {"ios": "https://dc.lft.to/lastmile_qr_scan", "android": "https://dc.lft.to/lastmile_qr_scan"}, "is_reserved": 0}, {"lon": -76.97774933333334, "bike_id": "5d9a891d58b97db8b27c1c9145e7cc1d", "lat": 38.898955666666666, "fusion_lon": 0.0, "fusion_lat": 0.0, "type": "electric_scooter", "name": "5d9a891d58b97db8b27c1c9145e7cc1d", "is_disabled": 0, "rental_uris": {"ios": "https://dc.lft.to/lastmile_qr_scan", "android": "https://dc.lft.to/lastmile_qr_scan"}, "is_reserved": 0}, {"lon": -77.07792633333334, "bike_id": "1286e88a8bf8635d2aed9707522a1e7b", "lat": 38.996038666666664, "fusion_lon": 0.0, "fusion_lat": 0.0, "type": "electric_bike", "name": "1286e88a8bf8635d2aed9707522a1e7b", "is_disabled": 0, "rental_uris": {"ios": "https://dc.lft.to/lastmile_qr_scan", "android": "https://dc.lft.to/lastmile_qr_scan"}, "is_reserved": 0}, {"lon": -77.0367145, "bike_id": "7bfb467a3c5b457d229c176764c5fcd1", "lat": 38.923307, "fusion_lon": 0.0, "fusion_lat": 0.0, "type": "electric_scooter", "name": "7bfb467a3c5b457d229c176764c5fcd1", "is_disabled": 0, "rental_uris": {"ios": "https://dc.lft.to/lastmile_qr_scan", "android": "https://dc.lft.to/lastmile_qr_scan"}, "is_reserved": 0}, {"lon": -77.02533066666666, "bike_id": "f78e1835f7752e0381508a2080358b96", "lat": 38.94295916666667, "fusion_lon": 0.0, "fusion_lat": 0.0, "type": "electric_scooter", "name": "f78e1835f7752e0381508a2080358b96", "is_disabled": 0, "rental_uris": {"ios": "https://dc.lft.to/lastmile_qr_scan", "android": "https://dc.lft.to/lastmile_qr_scan"}, "is_reserved": 0}, {"lon": -77.024624, "bike_id": "78ed9fb2226f65a546297e475edc3653", "lat": 38.884365, "fusion_lon": 0.0, "fusion_lat": 0.0, "type": "electric_scooter", "name": "78ed9fb2226f65a546297e475edc3653", "is_disabled": 0, "rental_uris": {"ios": "https://dc.lft.to/lastmile_qr_scan", "android": "https://dc.lft.to/lastmile_qr_scan"}, "is_reserved": 0}, {"lon": -76.9699135, "bike_id": "8fd2e42b88a7416fb40aaf3ddd97d942", "lat": 38.873736666666666, "fusion_lon": 0.0, "fusion_lat": 0.0, "type": "electric_scooter", "name": "8fd2e42b88a7416fb40aaf3ddd97d942", "is_disabled": 0, "rental_uris": {"ios": "https://dc.lft.to/lastmile_qr_scan", "android": "https://dc.lft.to/lastmile_qr_scan"}, "is_reserved": 0}, {"lon": -77.0612635, "bike_id": "46ceded82d441dc09ef2eb6a2506ba47", "lat": 38.94356783333333, "fusion_lon": 0.0, "fusion_lat": 0.0, "type": "electric_scooter", "name": "46ceded82d441dc09ef2eb6a2506ba47", "is_disabled": 0, "rental_uris": {"ios": "https://dc.lft.to/lastmile_qr_scan", "android": "https://dc.lft.to/lastmile_qr_scan"}, "is_reserved": 0}, {"lon": -77.034749, "bike_id": "7c80e062d373bb17e7d2a80f09310123", "lat": 38.9274015, "fusion_lon": 0.0, "fusion_lat": 0.0, "type": "electric_scooter", "name": "7c80e062d373bb17e7d2a80f09310123", "is_disabled": 0, "rental_uris": {"ios": "https://dc.lft.to/lastmile_qr_scan", "android": "https://dc.lft.to/lastmile_qr_scan"}, "is_reserved": 0}, {"lon": -77.04591233333333, "bike_id": "90d0a2b80821b16217311bcdcc88a151", "lat": 38.913652666666664, "fusion_lon": 0.0, "fusion_lat": 0.0, "type": "electric_scooter", "name": "90d0a2b80821b16217311bcdcc88a151", "is_disabled": 0, "rental_uris": {"ios": "https://dc.lft.to/lastmile_qr_scan", "android": "https://dc.lft.to/lastmile_qr_scan"}, "is_reserved": 0}, {"lon": -77.0386265, "bike_id": "c58f8d1123c2c5b8b330108b14164a39", "lat": 38.9168435, "fusion_lon": 0.0, "fusion_lat": 0.0, "type": "electric_scooter", "name": "c58f8d1123c2c5b8b330108b14164a39", "is_disabled": 0, "rental_uris": {"ios": "https://dc.lft.to/lastmile_qr_scan", "android": "https://dc.lft.to/lastmile_qr_scan"}, "is_reserved": 0}, {"lon": -77.02530633333333, "bike_id": "118143eb32416ace59aeeaa12ca1c744", "lat": 38.90433683333333, "fusion_lon": 0.0, "fusion_lat": 0.0, "type": "electric_scooter", "name": "118143eb32416ace59aeeaa12ca1c744", "is_disabled": 0, "rental_uris": {"ios": "https://dc.lft.to/lastmile_qr_scan", "android": "https://dc.lft.to/lastmile_qr_scan"}, "is_reserved": 0}, {"lon": -77.0314045, "bike_id": "9dbd7d315d46c60551ff2c36b1e7dce1", "lat": 38.91561033333333, "fusion_lon": 0.0, "fusion_lat": 0.0, "type": "electric_scooter", "name": "9dbd7d315d46c60551ff2c36b1e7dce1", "is_disabled": 0, "rental_uris": {"ios": "https://dc.lft.to/lastmile_qr_scan", "android": "https://dc.lft.to/lastmile_qr_scan"}, "is_reserved": 0}, {"lon": -76.94632816666666, "bike_id": "7f46093221d8460d4b6f729e5325ee39", "lat": 38.898318833333335, "fusion_lon": 0.0, "fusion_lat": 0.0, "type": "electric_scooter", "name": "7f46093221d8460d4b6f729e5325ee39", "is_disabled": 0, "rental_uris": {"ios": "https://dc.lft.to/lastmile_qr_scan", "android": "https://dc.lft.to/lastmile_qr_scan"}, "is_reserved": 0}, {"lon": -77.02144983333334, "bike_id": "14e11c4c8d5b13f508bd9399edd779c8", "lat": 38.894877, "fusion_lon": 0.0, "fusion_lat": 0.0, "type": "electric_scooter", "name": "14e11c4c8d5b13f508bd9399edd779c8", "is_disabled": 0, "rental_uris": {"ios": "https://dc.lft.to/lastmile_qr_scan", "android": "https://dc.lft.to/lastmile_qr_scan"}, "is_reserved": 0}, {"lon": -77.02242566666666, "bike_id": "b09455711e82471406533d54f3fdde91", "lat": 38.928961666666666, "fusion_lon": 0.0, "fusion_lat": 0.0, "type": "electric_scooter", "name": "b09455711e82471406533d54f3fdde91", "is_disabled": 0, "rental_uris": {"ios": "https://dc.lft.to/lastmile_qr_scan", "android": "https://dc.lft.to/lastmile_qr_scan"}, "is_reserved": 0}, {"lon": -76.99204216666666, "bike_id": "21a15562447bcc4b4e5996b87b537205", "lat": 38.898253, "fusion_lon": 0.0, "fusion_lat": 0.0, "type": "electric_scooter", "name": "21a15562447bcc4b4e5996b87b537205", "is_disabled": 0, "rental_uris": {"ios": "https://dc.lft.to/lastmile_qr_scan", "android": "https://dc.lft.to/lastmile_qr_scan"}, "is_reserved": 0}, {"lon": -77.02048766666667, "bike_id": "7de9587e0e4ae995ad02a85add5b2c30", "lat": 38.923920333333335, "fusion_lon": 0.0, "fusion_lat": 0.0, "type": "electric_scooter", "name": "7de9587e0e4ae995ad02a85add5b2c30", "is_disabled": 0, "rental_uris": {"ios": "https://dc.lft.to/lastmile_qr_scan", "android": "https://dc.lft.to/lastmile_qr_scan"}, "is_reserved": 0}, {"lon": -77.073008, "bike_id": "eddaf10fa899117c64773432e60e8285", "lat": 38.93055783333333, "fusion_lon": 0.0, "fusion_lat": 0.0, "type": "electric_scooter", "name": "eddaf10fa899117c64773432e60e8285", "is_disabled": 0, "rental_uris": {"ios": "https://dc.lft.to/lastmile_qr_scan", "android": "https://dc.lft.to/lastmile_qr_scan"}, "is_reserved": 0}, {"lon": -77.0256605, "bike_id": "f6225e65e46b7d645d5a217eee7cc01f", "lat": 38.9335085, "fusion_lon": 0.0, "fusion_lat": 0.0, "type": "electric_scooter", "name": "f6225e65e46b7d645d5a217eee7cc01f", "is_disabled": 0, "rental_uris": {"ios": "https://dc.lft.to/lastmile_qr_scan", "android": "https://dc.lft.to/lastmile_qr_scan"}, "is_reserved": 0}, {"lon": -77.0318365, "bike_id": "5b0cff3764d111c63d4214ae797556ab", "lat": 38.892359, "fusion_lon": 0.0, "fusion_lat": 0.0, "type": "electric_scooter", "name": "5b0cff3764d111c63d4214ae797556ab", "is_disabled": 0, "rental_uris": {"ios": "https://dc.lft.to/lastmile_qr_scan", "android": "https://dc.lft.to/lastmile_qr_scan"}, "is_reserved": 0}, {"lon": -76.96535183333333, "bike_id": "13f48e58303d2767b337a86c4b86653f", "lat": 38.87474, "fusion_lon": 0.0, "fusion_lat": 0.0, "type": "electric_scooter", "name": "13f48e58303d2767b337a86c4b86653f", "is_disabled": 0, "rental_uris": {"ios": "https://dc.lft.to/lastmile_qr_scan", "android": "https://dc.lft.to/lastmile_qr_scan"}, "is_reserved": 0}, {"lon": -77.0402365, "bike_id": "3f7fce343e2ff19258c3c8f0015b874b", "lat": 38.9238735, "fusion_lon": 0.0, "fusion_lat": 0.0, "type": "electric_scooter", "name": "3f7fce343e2ff19258c3c8f0015b874b", "is_disabled": 0, "rental_uris": {"ios": "https://dc.lft.to/lastmile_qr_scan", "android": "https://dc.lft.to/lastmile_qr_scan"}, "is_reserved": 0}, {"lon": -77.0217275, "bike_id": "c2427f3e1633b5323b4ca64df95e5088", "lat": 38.942929, "fusion_lon": 0.0, "fusion_lat": 0.0, "type": "electric_scooter", "name": "c2427f3e1633b5323b4ca64df95e5088", "is_disabled": 0, "rental_uris": {"ios": "https://dc.lft.to/lastmile_qr_scan", "android": "https://dc.lft.to/lastmile_qr_scan"}, "is_reserved": 0}, {"lon": -77.03173716666667, "bike_id": "7a447fb5bb4a37e300b843b54bc3bee2", "lat": 38.91930266666667, "fusion_lon": 0.0, "fusion_lat": 0.0, "type": "electric_scooter", "name": "7a447fb5bb4a37e300b843b54bc3bee2", "is_disabled": 0, "rental_uris": {"ios": "https://dc.lft.to/lastmile_qr_scan", "android": "https://dc.lft.to/lastmile_qr_scan"}, "is_reserved": 0}, {"lon": -77.00061583333333, "bike_id": "e429604ca8290c640e5c5f8d306750a4", "lat": 38.873985833333336, "fusion_lon": 0.0, "fusion_lat": 0.0, "type": "electric_scooter", "name": "e429604ca8290c640e5c5f8d306750a4", "is_disabled": 0, "rental_uris": {"ios": "https://dc.lft.to/lastmile_qr_scan", "android": "https://dc.lft.to/lastmile_qr_scan"}, "is_reserved": 0}, {"lon": -77.02839616666667, "bike_id": "9715a96a8daa1b0563aa76964bf38c92", "lat": 38.93298266666667, "fusion_lon": 0.0, "fusion_lat": 0.0, "type": "electric_scooter", "name": "9715a96a8daa1b0563aa76964bf38c92", "is_disabled": 0, "rental_uris": {"ios": "https://dc.lft.to/lastmile_qr_scan", "android": "https://dc.lft.to/lastmile_qr_scan"}, "is_reserved": 0}, {"lon": -76.990056, "bike_id": "6f3ae3211ca0ed0df1a31125dd22cf1f", "lat": 38.8650315, "fusion_lon": 0.0, "fusion_lat": 0.0, "type": "electric_scooter", "name": "6f3ae3211ca0ed0df1a31125dd22cf1f", "is_disabled": 0, "rental_uris": {"ios": "https://dc.lft.to/lastmile_qr_scan", "android": "https://dc.lft.to/lastmile_qr_scan"}, "is_reserved": 0}, {"lon": -77.00336883333334, "bike_id": "a8e8632515451b0aa39c09f09ac0addf", "lat": 38.897270666666664, "fusion_lon": 0.0, "fusion_lat": 0.0, "type": "electric_scooter", "name": "a8e8632515451b0aa39c09f09ac0addf", "is_disabled": 0, "rental_uris": {"ios": "https://dc.lft.to/lastmile_qr_scan", "android": "https://dc.lft.to/lastmile_qr_scan"}, "is_reserved": 0}, {"lon": -77.02810733333334, "bike_id": "c0cf00562364102eaa6a287ca1215105", "lat": 38.93078633333333, "fusion_lon": 0.0, "fusion_lat": 0.0, "type": "electric_scooter", "name": "c0cf00562364102eaa6a287ca1215105", "is_disabled": 0, "rental_uris": {"ios": "https://dc.lft.to/lastmile_qr_scan", "android": "https://dc.lft.to/lastmile_qr_scan"}, "is_reserved": 0}, {"lon": -77.02782883333333, "bike_id": "3f29e0de359e7bb45093f58ce841e22a", "lat": 38.95427866666667, "fusion_lon": 0.0, "fusion_lat": 0.0, "type": "electric_scooter", "name": "3f29e0de359e7bb45093f58ce841e22a", "is_disabled": 0, "rental_uris": {"ios": "https://dc.lft.to/lastmile_qr_scan", "android": "https://dc.lft.to/lastmile_qr_scan"}, "is_reserved": 0}, {"lon": -76.98085066666667, "bike_id": "361fb401d7a8b8a02fcdf9e56835d1c6", "lat": 38.90707866666666, "fusion_lon": 0.0, "fusion_lat": 0.0, "type": "electric_scooter", "name": "361fb401d7a8b8a02fcdf9e56835d1c6", "is_disabled": 0, "rental_uris": {"ios": "https://dc.lft.to/lastmile_qr_scan", "android": "https://dc.lft.to/lastmile_qr_scan"}, "is_reserved": 0}, {"lon": -77.00526183333334, "bike_id": "c1490242cb1c197fd1870cb2293b6d59", "lat": 38.8754395, "fusion_lon": 0.0, "fusion_lat": 0.0, "type": "electric_scooter", "name": "c1490242cb1c197fd1870cb2293b6d59", "is_disabled": 0, "rental_uris": {"ios": "https://dc.lft.to/lastmile_qr_scan", "android": "https://dc.lft.to/lastmile_qr_scan"}, "is_reserved": 0}, {"lon": -77.05234833333333, "bike_id": "dca1e991ed4a3aee635b23976744d65c", "lat": 38.923375, "fusion_lon": 0.0, "fusion_lat": 0.0, "type": "electric_scooter", "name": "dca1e991ed4a3aee635b23976744d65c", "is_disabled": 0, "rental_uris": {"ios": "https://dc.lft.to/lastmile_qr_scan", "android": "https://dc.lft.to/lastmile_qr_scan"}, "is_reserved": 0}, {"lon": -77.03217416666666, "bike_id": "6bfee4f6401f8c38c7bccc590210a633", "lat": 38.917056333333335, "fusion_lon": 0.0, "fusion_lat": 0.0, "type": "electric_scooter", "name": "6bfee4f6401f8c38c7bccc590210a633", "is_disabled": 0, "rental_uris": {"ios": "https://dc.lft.to/lastmile_qr_scan", "android": "https://dc.lft.to/lastmile_qr_scan"}, "is_reserved": 0}, {"lon": -77.06105, "bike_id": "1d0da52ca256a239d12ac6917475fa79", "lat": 38.9370385, "fusion_lon": 0.0, "fusion_lat": 0.0, "type": "electric_scooter", "name": "1d0da52ca256a239d12ac6917475fa79", "is_disabled": 0, "rental_uris": {"ios": "https://dc.lft.to/lastmile_qr_scan", "android": "https://dc.lft.to/lastmile_qr_scan"}, "is_reserved": 0}, {"lon": -77.01978516666667, "bike_id": "1877b4836aeb1318607dcb47ffac1fd9", "lat": 38.92922516666667, "fusion_lon": 0.0, "fusion_lat": 0.0, "type": "electric_scooter", "name": "1877b4836aeb1318607dcb47ffac1fd9", "is_disabled": 0, "rental_uris": {"ios": "https://dc.lft.to/lastmile_qr_scan", "android": "https://dc.lft.to/lastmile_qr_scan"}, "is_reserved": 0}, {"lon": -77.023651, "bike_id": "4b82f79e0c237c4d0a39807a5046b1c3", "lat": 38.89221233333333, "fusion_lon": 0.0, "fusion_lat": 0.0, "type": "electric_scooter", "name": "4b82f79e0c237c4d0a39807a5046b1c3", "is_disabled": 0, "rental_uris": {"ios": "https://dc.lft.to/lastmile_qr_scan", "android": "https://dc.lft.to/lastmile_qr_scan"}, "is_reserved": 0}, {"lon": -77.003742, "bike_id": "08b619f85edfbae2c75e2c061810876a", "lat": 38.897346666666664, "fusion_lon": 0.0, "fusion_lat": 0.0, "type": "electric_scooter", "name": "08b619f85edfbae2c75e2c061810876a", "is_disabled": 0, "rental_uris": {"ios": "https://dc.lft.to/lastmile_qr_scan", "android": "https://dc.lft.to/lastmile_qr_scan"}, "is_reserved": 0}, {"lon": -77.03468233333334, "bike_id": "5ed417e131091da3f4737eaa689d9db3", "lat": 38.91820933333333, "fusion_lon": 0.0, "fusion_lat": 0.0, "type": "electric_scooter", "name": "5ed417e131091da3f4737eaa689d9db3", "is_disabled": 0, "rental_uris": {"ios": "https://dc.lft.to/lastmile_qr_scan", "android": "https://dc.lft.to/lastmile_qr_scan"}, "is_reserved": 0}, {"lon": -77.032666, "bike_id": "d5893806ae824403685da4d8d4269650", "lat": 38.91994433333333, "fusion_lon": 0.0, "fusion_lat": 0.0, "type": "electric_scooter", "name": "d5893806ae824403685da4d8d4269650", "is_disabled": 0, "rental_uris": {"ios": "https://dc.lft.to/lastmile_qr_scan", "android": "https://dc.lft.to/lastmile_qr_scan"}, "is_reserved": 0}, {"lon": -76.94884316666666, "bike_id": "7084646b2784faed4fb8563e157dd6ac", "lat": 38.895107, "fusion_lon": 0.0, "fusion_lat": 0.0, "type": "electric_scooter", "name": "7084646b2784faed4fb8563e157dd6ac", "is_disabled": 0, "rental_uris": {"ios": "https://dc.lft.to/lastmile_qr_scan", "android": "https://dc.lft.to/lastmile_qr_scan"}, "is_reserved": 0}, {"lon": -77.0341075, "bike_id": "98fc75e32c6014792267b7ef276b0d1d", "lat": 38.934199666666665, "fusion_lon": 0.0, "fusion_lat": 0.0, "type": "electric_scooter", "name": "98fc75e32c6014792267b7ef276b0d1d", "is_disabled": 0, "rental_uris": {"ios": "https://dc.lft.to/lastmile_qr_scan", "android": "https://dc.lft.to/lastmile_qr_scan"}, "is_reserved": 0}, {"lon": -77.021896, "bike_id": "c30dd745c1c820a33026e6113c836f73", "lat": 38.911273, "fusion_lon": 0.0, "fusion_lat": 0.0, "type": "electric_scooter", "name": "c30dd745c1c820a33026e6113c836f73", "is_disabled": 0, "rental_uris": {"ios": "https://dc.lft.to/lastmile_qr_scan", "android": "https://dc.lft.to/lastmile_qr_scan"}, "is_reserved": 0}, {"lon": -77.0464865, "bike_id": "bc7ce14dad96741a9f9646e293031558", "lat": 38.92119833333334, "fusion_lon": 0.0, "fusion_lat": 0.0, "type": "electric_scooter", "name": "bc7ce14dad96741a9f9646e293031558", "is_disabled": 0, "rental_uris": {"ios": "https://dc.lft.to/lastmile_qr_scan", "android": "https://dc.lft.to/lastmile_qr_scan"}, "is_reserved": 0}, {"lon": -77.04997233333333, "bike_id": "85473936c132cd675a4953b44d40a3f0", "lat": 38.899773, "fusion_lon": 0.0, "fusion_lat": 0.0, "type": "electric_scooter", "name": "85473936c132cd675a4953b44d40a3f0", "is_disabled": 0, "rental_uris": {"ios": "https://dc.lft.to/lastmile_qr_scan", "android": "https://dc.lft.to/lastmile_qr_scan"}, "is_reserved": 0}, {"lon": -77.02713616666666, "bike_id": "3cc5a4034243754c4547ea8415088dc6", "lat": 38.9276545, "fusion_lon": 0.0, "fusion_lat": 0.0, "type": "electric_scooter", "name": "3cc5a4034243754c4547ea8415088dc6", "is_disabled": 0, "rental_uris": {"ios": "https://dc.lft.to/lastmile_qr_scan", "android": "https://dc.lft.to/lastmile_qr_scan"}, "is_reserved": 0}, {"lon": -76.9853795, "bike_id": "3c5fd46df450e84e4378d9ce65b7a9cb", "lat": 38.91022266666667, "fusion_lon": 0.0, "fusion_lat": 0.0, "type": "electric_scooter", "name": "3c5fd46df450e84e4378d9ce65b7a9cb", "is_disabled": 0, "rental_uris": {"ios": "https://dc.lft.to/lastmile_qr_scan", "android": "https://dc.lft.to/lastmile_qr_scan"}, "is_reserved": 0}, {"lon": -77.03488283333333, "bike_id": "53a78253f6b6d7614dd4bd6763ddd275", "lat": 38.917139, "fusion_lon": 0.0, "fusion_lat": 0.0, "type": "electric_scooter", "name": "53a78253f6b6d7614dd4bd6763ddd275", "is_disabled": 0, "rental_uris": {"ios": "https://dc.lft.to/lastmile_qr_scan", "android": "https://dc.lft.to/lastmile_qr_scan"}, "is_reserved": 0}, {"lon": -77.02996516666667, "bike_id": "f89c7c48555259e327d6cf199f0f2ceb", "lat": 38.9125625, "fusion_lon": 0.0, "fusion_lat": 0.0, "type": "electric_scooter", "name": "f89c7c48555259e327d6cf199f0f2ceb", "is_disabled": 0, "rental_uris": {"ios": "https://dc.lft.to/lastmile_qr_scan", "android": "https://dc.lft.to/lastmile_qr_scan"}, "is_reserved": 0}, {"lon": -76.98937983333333, "bike_id": "59b023e20c68132dd46d6e37f27a8e4c", "lat": 38.918351666666666, "fusion_lon": 0.0, "fusion_lat": 0.0, "type": "electric_scooter", "name": "59b023e20c68132dd46d6e37f27a8e4c", "is_disabled": 0, "rental_uris": {"ios": "https://dc.lft.to/lastmile_qr_scan", "android": "https://dc.lft.to/lastmile_qr_scan"}, "is_reserved": 0}, {"lon": -77.02567066666667, "bike_id": "3876b578a8a0f902ddf748bd725cbaaa", "lat": 38.9134285, "fusion_lon": 0.0, "fusion_lat": 0.0, "type": "electric_scooter", "name": "3876b578a8a0f902ddf748bd725cbaaa", "is_disabled": 0, "rental_uris": {"ios": "https://dc.lft.to/lastmile_qr_scan", "android": "https://dc.lft.to/lastmile_qr_scan"}, "is_reserved": 0}, {"lon": -77.03691316666666, "bike_id": "965e18b1cadc75e3ac64f5b6f13af67e", "lat": 38.935224833333336, "fusion_lon": 0.0, "fusion_lat": 0.0, "type": "electric_scooter", "name": "965e18b1cadc75e3ac64f5b6f13af67e", "is_disabled": 0, "rental_uris": {"ios": "https://dc.lft.to/lastmile_qr_scan", "android": "https://dc.lft.to/lastmile_qr_scan"}, "is_reserved": 0}, {"lon": -77.025053, "bike_id": "bbafbd3badaa9ff4a789ae4519af71c9", "lat": 38.92078016666667, "fusion_lon": 0.0, "fusion_lat": 0.0, "type": "electric_scooter", "name": "bbafbd3badaa9ff4a789ae4519af71c9", "is_disabled": 0, "rental_uris": {"ios": "https://dc.lft.to/lastmile_qr_scan", "android": "https://dc.lft.to/lastmile_qr_scan"}, "is_reserved": 0}, {"lon": -76.98410516666667, "bike_id": "6b8050872f796b1d33470906a6358d03", "lat": 38.90628266666667, "fusion_lon": 0.0, "fusion_lat": 0.0, "type": "electric_scooter", "name": "6b8050872f796b1d33470906a6358d03", "is_disabled": 0, "rental_uris": {"ios": "https://dc.lft.to/lastmile_qr_scan", "android": "https://dc.lft.to/lastmile_qr_scan"}, "is_reserved": 0}, {"lon": -77.04043, "bike_id": "2aca7a090f690a7e84f8c8551d51d994", "lat": 38.90402183333333, "fusion_lon": 0.0, "fusion_lat": 0.0, "type": "electric_scooter", "name": "2aca7a090f690a7e84f8c8551d51d994", "is_disabled": 0, "rental_uris": {"ios": "https://dc.lft.to/lastmile_qr_scan", "android": "https://dc.lft.to/lastmile_qr_scan"}, "is_reserved": 0}, {"lon": -76.98775916666666, "bike_id": "8feee78c73bcf4f455a8edb4bead0ab4", "lat": 38.86601983333333, "fusion_lon": 0.0, "fusion_lat": 0.0, "type": "electric_bike", "name": "8feee78c73bcf4f455a8edb4bead0ab4", "is_disabled": 0, "rental_uris": {"ios": "https://dc.lft.to/lastmile_qr_scan", "android": "https://dc.lft.to/lastmile_qr_scan"}, "is_reserved": 0}, {"lon": -77.037769, "bike_id": "4344d804b281e1ad0fadd6b902c55049", "lat": 38.929710166666666, "fusion_lon": 0.0, "fusion_lat": 0.0, "type": "electric_scooter", "name": "4344d804b281e1ad0fadd6b902c55049", "is_disabled": 0, "rental_uris": {"ios": "https://dc.lft.to/lastmile_qr_scan", "android": "https://dc.lft.to/lastmile_qr_scan"}, "is_reserved": 0}, {"lon": -77.0425395, "bike_id": "823e9efb865db103e08289b941974415", "lat": 38.92425516666667, "fusion_lon": 0.0, "fusion_lat": 0.0, "type": "electric_scooter", "name": "823e9efb865db103e08289b941974415", "is_disabled": 0, "rental_uris": {"ios": "https://dc.lft.to/lastmile_qr_scan", "android": "https://dc.lft.to/lastmile_qr_scan"}, "is_reserved": 0}, {"lon": -77.05575566666667, "bike_id": "89bc760697bc46171a96f362aaf8bb25", "lat": 38.916049666666666, "fusion_lon": 0.0, "fusion_lat": 0.0, "type": "electric_scooter", "name": "89bc760697bc46171a96f362aaf8bb25", "is_disabled": 0, "rental_uris": {"ios": "https://dc.lft.to/lastmile_qr_scan", "android": "https://dc.lft.to/lastmile_qr_scan"}, "is_reserved": 0}, {"lon": -77.05130516666667, "bike_id": "77dcbd27ff1dc93accb2d3dabc42d97b", "lat": 38.923653333333334, "fusion_lon": 0.0, "fusion_lat": 0.0, "type": "electric_scooter", "name": "77dcbd27ff1dc93accb2d3dabc42d97b", "is_disabled": 0, "rental_uris": {"ios": "https://dc.lft.to/lastmile_qr_scan", "android": "https://dc.lft.to/lastmile_qr_scan"}, "is_reserved": 0}, {"lon": -76.948836, "bike_id": "2f22b822e146a52212cd62510bde7f47", "lat": 38.895092166666664, "fusion_lon": 0.0, "fusion_lat": 0.0, "type": "electric_scooter", "name": "2f22b822e146a52212cd62510bde7f47", "is_disabled": 0, "rental_uris": {"ios": "https://dc.lft.to/lastmile_qr_scan", "android": "https://dc.lft.to/lastmile_qr_scan"}, "is_reserved": 0}, {"lon": -77.026901, "bike_id": "383816b9490ecbe4c3af4dae62536afc", "lat": 38.900628833333336, "fusion_lon": 0.0, "fusion_lat": 0.0, "type": "electric_scooter", "name": "383816b9490ecbe4c3af4dae62536afc", "is_disabled": 0, "rental_uris": {"ios": "https://dc.lft.to/lastmile_qr_scan", "android": "https://dc.lft.to/lastmile_qr_scan"}, "is_reserved": 0}, {"lon": -76.9732965, "bike_id": "4fe3d16f4c68eb12d87ce8b5c58978a4", "lat": 38.90483, "fusion_lon": 0.0, "fusion_lat": 0.0, "type": "electric_bike", "name": "4fe3d16f4c68eb12d87ce8b5c58978a4", "is_disabled": 0, "rental_uris": {"ios": "https://dc.lft.to/lastmile_qr_scan", "android": "https://dc.lft.to/lastmile_qr_scan"}, "is_reserved": 0}, {"lon": -77.02167833333333, "bike_id": "d1a85ce9f0feb5f4cf675b5d445ac6eb", "lat": 38.897250166666666, "fusion_lon": 0.0, "fusion_lat": 0.0, "type": "electric_scooter", "name": "d1a85ce9f0feb5f4cf675b5d445ac6eb", "is_disabled": 0, "rental_uris": {"ios": "https://dc.lft.to/lastmile_qr_scan", "android": "https://dc.lft.to/lastmile_qr_scan"}, "is_reserved": 0}, {"lon": -77.0585955, "bike_id": "f54d6273650287f6187acec6fcdaac0d", "lat": 38.936009166666665, "fusion_lon": 0.0, "fusion_lat": 0.0, "type": "electric_scooter", "name": "f54d6273650287f6187acec6fcdaac0d", "is_disabled": 0, "rental_uris": {"ios": "https://dc.lft.to/lastmile_qr_scan", "android": "https://dc.lft.to/lastmile_qr_scan"}, "is_reserved": 0}, {"lon": -76.99049233333334, "bike_id": "ee55e5ff293cfe90f7c0c1bc988b6310", "lat": 38.884137, "fusion_lon": 0.0, "fusion_lat": 0.0, "type": "electric_scooter", "name": "ee55e5ff293cfe90f7c0c1bc988b6310", "is_disabled": 0, "rental_uris": {"ios": "https://dc.lft.to/lastmile_qr_scan", "android": "https://dc.lft.to/lastmile_qr_scan"}, "is_reserved": 0}, {"lon": -76.98215116666667, "bike_id": "ca61a34490dc665f5e50e64c62e98cba", "lat": 38.866114, "fusion_lon": 0.0, "fusion_lat": 0.0, "type": "electric_scooter", "name": "ca61a34490dc665f5e50e64c62e98cba", "is_disabled": 0, "rental_uris": {"ios": "https://dc.lft.to/lastmile_qr_scan", "android": "https://dc.lft.to/lastmile_qr_scan"}, "is_reserved": 0}, {"lon": -76.91599616666667, "bike_id": "b43fafe64406491ad61ede2c5c27d11f", "lat": 38.879789333333335, "fusion_lon": 0.0, "fusion_lat": 0.0, "type": "electric_bike", "name": "b43fafe64406491ad61ede2c5c27d11f", "is_disabled": 0, "rental_uris": {"ios": "https://dc.lft.to/lastmile_qr_scan", "android": "https://dc.lft.to/lastmile_qr_scan"}, "is_reserved": 0}, {"lon": -77.02204833333333, "bike_id": "54713b82b27f66702b0f3e89bc14c060", "lat": 38.91061633333333, "fusion_lon": 0.0, "fusion_lat": 0.0, "type": "electric_scooter", "name": "54713b82b27f66702b0f3e89bc14c060", "is_disabled": 0, "rental_uris": {"ios": "https://dc.lft.to/lastmile_qr_scan", "android": "https://dc.lft.to/lastmile_qr_scan"}, "is_reserved": 0}, {"lon": -77.00273066666666, "bike_id": "9ffa0ef4de0446095d12f5ad3bebb083", "lat": 38.911022833333334, "fusion_lon": 0.0, "fusion_lat": 0.0, "type": "electric_scooter", "name": "9ffa0ef4de0446095d12f5ad3bebb083", "is_disabled": 0, "rental_uris": {"ios": "https://dc.lft.to/lastmile_qr_scan", "android": "https://dc.lft.to/lastmile_qr_scan"}, "is_reserved": 0}, {"lon": -77.05212766666666, "bike_id": "a4dc973f87757cc6a9c7888b4e342a74", "lat": 38.91564833333333, "fusion_lon": 0.0, "fusion_lat": 0.0, "type": "electric_scooter", "name": "a4dc973f87757cc6a9c7888b4e342a74", "is_disabled": 0, "rental_uris": {"ios": "https://dc.lft.to/lastmile_qr_scan", "android": "https://dc.lft.to/lastmile_qr_scan"}, "is_reserved": 0}, {"lon": -77.05702, "bike_id": "edbd8aed84607f695e881badf3aa41de", "lat": 38.90546366666667, "fusion_lon": 0.0, "fusion_lat": 0.0, "type": "electric_scooter", "name": "edbd8aed84607f695e881badf3aa41de", "is_disabled": 0, "rental_uris": {"ios": "https://dc.lft.to/lastmile_qr_scan", "android": "https://dc.lft.to/lastmile_qr_scan"}, "is_reserved": 0}, {"lon": -76.96526616666667, "bike_id": "ab11d614148bf2a7fc7daa5bfaf1fc3d", "lat": 38.876299, "fusion_lon": 0.0, "fusion_lat": 0.0, "type": "electric_scooter", "name": "ab11d614148bf2a7fc7daa5bfaf1fc3d", "is_disabled": 0, "rental_uris": {"ios": "https://dc.lft.to/lastmile_qr_scan", "android": "https://dc.lft.to/lastmile_qr_scan"}, "is_reserved": 0}, {"lon": -77.036751, "bike_id": "911e1f9116ea8914085070e646971b19", "lat": 38.920948333333335, "fusion_lon": 0.0, "fusion_lat": 0.0, "type": "electric_scooter", "name": "911e1f9116ea8914085070e646971b19", "is_disabled": 0, "rental_uris": {"ios": "https://dc.lft.to/lastmile_qr_scan", "android": "https://dc.lft.to/lastmile_qr_scan"}, "is_reserved": 0}, {"lon": -77.0449885, "bike_id": "a098c20f9567514034400956761a40ac", "lat": 38.90970866666667, "fusion_lon": 0.0, "fusion_lat": 0.0, "type": "electric_scooter", "name": "a098c20f9567514034400956761a40ac", "is_disabled": 0, "rental_uris": {"ios": "https://dc.lft.to/lastmile_qr_scan", "android": "https://dc.lft.to/lastmile_qr_scan"}, "is_reserved": 0}, {"lon": -76.94118116666667, "bike_id": "66ca425399a5d4c3912f1eee0165aa8c", "lat": 38.88645233333333, "fusion_lon": 0.0, "fusion_lat": 0.0, "type": "electric_scooter", "name": "66ca425399a5d4c3912f1eee0165aa8c", "is_disabled": 0, "rental_uris": {"ios": "https://dc.lft.to/lastmile_qr_scan", "android": "https://dc.lft.to/lastmile_qr_scan"}, "is_reserved": 0}, {"lon": -77.01636166666667, "bike_id": "5aab224fbded9a3a3de112b5dca8ce0b", "lat": 38.902286333333336, "fusion_lon": 0.0, "fusion_lat": 0.0, "type": "electric_scooter", "name": "5aab224fbded9a3a3de112b5dca8ce0b", "is_disabled": 0, "rental_uris": {"ios": "https://dc.lft.to/lastmile_qr_scan", "android": "https://dc.lft.to/lastmile_qr_scan"}, "is_reserved": 0}, {"lon": -77.0279545, "bike_id": "757c16458ff35ef37a3af56cc4e7b747", "lat": 38.9307605, "fusion_lon": 0.0, "fusion_lat": 0.0, "type": "electric_scooter", "name": "757c16458ff35ef37a3af56cc4e7b747", "is_disabled": 0, "rental_uris": {"ios": "https://dc.lft.to/lastmile_qr_scan", "android": "https://dc.lft.to/lastmile_qr_scan"}, "is_reserved": 0}, {"lon": -77.04864266666667, "bike_id": "98336682062e5387b721bc37979215db", "lat": 38.90441033333333, "fusion_lon": 0.0, "fusion_lat": 0.0, "type": "electric_scooter", "name": "98336682062e5387b721bc37979215db", "is_disabled": 0, "rental_uris": {"ios": "https://dc.lft.to/lastmile_qr_scan", "android": "https://dc.lft.to/lastmile_qr_scan"}, "is_reserved": 0}, {"lon": -77.03261116666667, "bike_id": "41310a9ad9bfef2ace9af586ac5d6b4c", "lat": 38.937766833333335, "fusion_lon": 0.0, "fusion_lat": 0.0, "type": "electric_scooter", "name": "41310a9ad9bfef2ace9af586ac5d6b4c", "is_disabled": 0, "rental_uris": {"ios": "https://dc.lft.to/lastmile_qr_scan", "android": "https://dc.lft.to/lastmile_qr_scan"}, "is_reserved": 0}, {"lon": -76.98491483333333, "bike_id": "59890e6fa36e92459c78d0f77c565bbc", "lat": 38.87832683333333, "fusion_lon": 0.0, "fusion_lat": 0.0, "type": "electric_scooter", "name": "59890e6fa36e92459c78d0f77c565bbc", "is_disabled": 0, "rental_uris": {"ios": "https://dc.lft.to/lastmile_qr_scan", "android": "https://dc.lft.to/lastmile_qr_scan"}, "is_reserved": 0}, {"lon": -77.025393, "bike_id": "6e1a16a2d89d46a6e48cde425a44e75e", "lat": 38.92080683333333, "fusion_lon": 0.0, "fusion_lat": 0.0, "type": "electric_scooter", "name": "6e1a16a2d89d46a6e48cde425a44e75e", "is_disabled": 0, "rental_uris": {"ios": "https://dc.lft.to/lastmile_qr_scan", "android": "https://dc.lft.to/lastmile_qr_scan"}, "is_reserved": 0}, {"lon": -77.02594883333333, "bike_id": "0e24718890d04899705bfe2ecc2241b8", "lat": 38.90490283333333, "fusion_lon": 0.0, "fusion_lat": 0.0, "type": "electric_scooter", "name": "0e24718890d04899705bfe2ecc2241b8", "is_disabled": 0, "rental_uris": {"ios": "https://dc.lft.to/lastmile_qr_scan", "android": "https://dc.lft.to/lastmile_qr_scan"}, "is_reserved": 0}, {"lon": -77.03170583333333, "bike_id": "9d4b511dfadfd9eae83d0f91cfd717d2", "lat": 38.88727866666667, "fusion_lon": 0.0, "fusion_lat": 0.0, "type": "electric_scooter", "name": "9d4b511dfadfd9eae83d0f91cfd717d2", "is_disabled": 0, "rental_uris": {"ios": "https://dc.lft.to/lastmile_qr_scan", "android": "https://dc.lft.to/lastmile_qr_scan"}, "is_reserved": 0}, {"lon": -76.98649966666666, "bike_id": "5099bb4883348dab889017b031e55388", "lat": 38.8983, "fusion_lon": 0.0, "fusion_lat": 0.0, "type": "electric_scooter", "name": "5099bb4883348dab889017b031e55388", "is_disabled": 0, "rental_uris": {"ios": "https://dc.lft.to/lastmile_qr_scan", "android": "https://dc.lft.to/lastmile_qr_scan"}, "is_reserved": 0}, {"lon": -77.03590833333334, "bike_id": "b4ca5b0a31f8b68f95d518c102987ec7", "lat": 38.9364795, "fusion_lon": 0.0, "fusion_lat": 0.0, "type": "electric_scooter", "name": "b4ca5b0a31f8b68f95d518c102987ec7", "is_disabled": 0, "rental_uris": {"ios": "https://dc.lft.to/lastmile_qr_scan", "android": "https://dc.lft.to/lastmile_qr_scan"}, "is_reserved": 0}, {"lon": -77.02162666666666, "bike_id": "6639db379270fe7c03a8a8aeb288e7a9", "lat": 38.897250166666666, "fusion_lon": 0.0, "fusion_lat": 0.0, "type": "electric_scooter", "name": "6639db379270fe7c03a8a8aeb288e7a9", "is_disabled": 0, "rental_uris": {"ios": "https://dc.lft.to/lastmile_qr_scan", "android": "https://dc.lft.to/lastmile_qr_scan"}, "is_reserved": 0}, {"lon": -77.0523715, "bike_id": "19c97745819f2b94778bad37656843f4", "lat": 38.924555166666664, "fusion_lon": 0.0, "fusion_lat": 0.0, "type": "electric_scooter", "name": "19c97745819f2b94778bad37656843f4", "is_disabled": 0, "rental_uris": {"ios": "https://dc.lft.to/lastmile_qr_scan", "android": "https://dc.lft.to/lastmile_qr_scan"}, "is_reserved": 0}, {"lon": -77.02900883333334, "bike_id": "a33fb1218acb3a8fe69adf6c601d782f", "lat": 38.928133333333335, "fusion_lon": 0.0, "fusion_lat": 0.0, "type": "electric_scooter", "name": "a33fb1218acb3a8fe69adf6c601d782f", "is_disabled": 0, "rental_uris": {"ios": "https://dc.lft.to/lastmile_qr_scan", "android": "https://dc.lft.to/lastmile_qr_scan"}, "is_reserved": 0}, {"lon": -77.045456, "bike_id": "38961834e093759c56457baf9070dbd6", "lat": 38.913417333333335, "fusion_lon": 0.0, "fusion_lat": 0.0, "type": "electric_scooter", "name": "38961834e093759c56457baf9070dbd6", "is_disabled": 0, "rental_uris": {"ios": "https://dc.lft.to/lastmile_qr_scan", "android": "https://dc.lft.to/lastmile_qr_scan"}, "is_reserved": 0}, {"lon": -77.023294, "bike_id": "d046a5f56eea2f7f23c0f49b9e3863a7", "lat": 38.93526466666667, "fusion_lon": 0.0, "fusion_lat": 0.0, "type": "electric_scooter", "name": "d046a5f56eea2f7f23c0f49b9e3863a7", "is_disabled": 0, "rental_uris": {"ios": "https://dc.lft.to/lastmile_qr_scan", "android": "https://dc.lft.to/lastmile_qr_scan"}, "is_reserved": 0}, {"lon": -76.97559883333334, "bike_id": "a28ca60988e0ce992e2c3659911c01cd", "lat": 38.9245685, "fusion_lon": 0.0, "fusion_lat": 0.0, "type": "electric_bike", "name": "a28ca60988e0ce992e2c3659911c01cd", "is_disabled": 0, "rental_uris": {"ios": "https://dc.lft.to/lastmile_qr_scan", "android": "https://dc.lft.to/lastmile_qr_scan"}, "is_reserved": 0}, {"lon": -77.0221025, "bike_id": "aa3a8e6991d3c3783f31eadf49403596", "lat": 38.914143833333334, "fusion_lon": 0.0, "fusion_lat": 0.0, "type": "electric_scooter", "name": "aa3a8e6991d3c3783f31eadf49403596", "is_disabled": 0, "rental_uris": {"ios": "https://dc.lft.to/lastmile_qr_scan", "android": "https://dc.lft.to/lastmile_qr_scan"}, "is_reserved": 0}, {"lon": -76.950057, "bike_id": "e4e8a44fce7b70fa4b0b31b63382b996", "lat": 38.893767833333335, "fusion_lon": 0.0, "fusion_lat": 0.0, "type": "electric_scooter", "name": "e4e8a44fce7b70fa4b0b31b63382b996", "is_disabled": 0, "rental_uris": {"ios": "https://dc.lft.to/lastmile_qr_scan", "android": "https://dc.lft.to/lastmile_qr_scan"}, "is_reserved": 0}, {"lon": -77.03258133333334, "bike_id": "b5fe9512c98bcd13f8f04ab90b777a7a", "lat": 38.931323166666665, "fusion_lon": 0.0, "fusion_lat": 0.0, "type": "electric_scooter", "name": "b5fe9512c98bcd13f8f04ab90b777a7a", "is_disabled": 0, "rental_uris": {"ios": "https://dc.lft.to/lastmile_qr_scan", "android": "https://dc.lft.to/lastmile_qr_scan"}, "is_reserved": 0}, {"lon": -77.01440366666667, "bike_id": "6f376d48c0a4146ad3e8b4a01f2b75bd", "lat": 38.905429833333336, "fusion_lon": 0.0, "fusion_lat": 0.0, "type": "electric_scooter", "name": "6f376d48c0a4146ad3e8b4a01f2b75bd", "is_disabled": 0, "rental_uris": {"ios": "https://dc.lft.to/lastmile_qr_scan", "android": "https://dc.lft.to/lastmile_qr_scan"}, "is_reserved": 0}, {"lon": -76.97859016666666, "bike_id": "650456afb7a7893652c2e5acb2281a81", "lat": 38.907213, "fusion_lon": 0.0, "fusion_lat": 0.0, "type": "electric_scooter", "name": "650456afb7a7893652c2e5acb2281a81", "is_disabled": 0, "rental_uris": {"ios": "https://dc.lft.to/lastmile_qr_scan", "android": "https://dc.lft.to/lastmile_qr_scan"}, "is_reserved": 0}, {"lon": -77.011015, "bike_id": "024526387d565ff7aaf698d4efb7c99d", "lat": 38.90842283333333, "fusion_lon": 0.0, "fusion_lat": 0.0, "type": "electric_scooter", "name": "024526387d565ff7aaf698d4efb7c99d", "is_disabled": 0, "rental_uris": {"ios": "https://dc.lft.to/lastmile_qr_scan", "android": "https://dc.lft.to/lastmile_qr_scan"}, "is_reserved": 0}, {"lon": -77.02089766666667, "bike_id": "d9cb3c1bc3de567c82f645a7b932eb5b", "lat": 38.929102, "fusion_lon": 0.0, "fusion_lat": 0.0, "type": "electric_scooter", "name": "d9cb3c1bc3de567c82f645a7b932eb5b", "is_disabled": 0, "rental_uris": {"ios": "https://dc.lft.to/lastmile_qr_scan", "android": "https://dc.lft.to/lastmile_qr_scan"}, "is_reserved": 0}, {"lon": -77.01578566666667, "bike_id": "95d65512b68931aed06bcbb676cc2910", "lat": 38.88307616666667, "fusion_lon": 0.0, "fusion_lat": 0.0, "type": "electric_scooter", "name": "95d65512b68931aed06bcbb676cc2910", "is_disabled": 0, "rental_uris": {"ios": "https://dc.lft.to/lastmile_qr_scan", "android": "https://dc.lft.to/lastmile_qr_scan"}, "is_reserved": 0}, {"lon": -76.99757916666667, "bike_id": "4eca2596b115e29ebaa5a0f428d80f71", "lat": 38.9501025, "fusion_lon": 0.0, "fusion_lat": 0.0, "type": "electric_bike", "name": "4eca2596b115e29ebaa5a0f428d80f71", "is_disabled": 0, "rental_uris": {"ios": "https://dc.lft.to/lastmile_qr_scan", "android": "https://dc.lft.to/lastmile_qr_scan"}, "is_reserved": 0}, {"lon": -77.032631, "bike_id": "ba4d547bd768bd3e487bed1ed1fa73e3", "lat": 38.93773516666667, "fusion_lon": 0.0, "fusion_lat": 0.0, "type": "electric_scooter", "name": "ba4d547bd768bd3e487bed1ed1fa73e3", "is_disabled": 0, "rental_uris": {"ios": "https://dc.lft.to/lastmile_qr_scan", "android": "https://dc.lft.to/lastmile_qr_scan"}, "is_reserved": 0}, {"lon": -77.06351666666667, "bike_id": "1aeaf0d3422f49620be1babc5339a614", "lat": 38.9078565, "fusion_lon": 0.0, "fusion_lat": 0.0, "type": "electric_scooter", "name": "1aeaf0d3422f49620be1babc5339a614", "is_disabled": 0, "rental_uris": {"ios": "https://dc.lft.to/lastmile_qr_scan", "android": "https://dc.lft.to/lastmile_qr_scan"}, "is_reserved": 0}, {"lon": -77.0147605, "bike_id": "e019cac8b39b797bbfec2e7c824178d9", "lat": 38.917599833333334, "fusion_lon": 0.0, "fusion_lat": 0.0, "type": "electric_scooter", "name": "e019cac8b39b797bbfec2e7c824178d9", "is_disabled": 0, "rental_uris": {"ios": "https://dc.lft.to/lastmile_qr_scan", "android": "https://dc.lft.to/lastmile_qr_scan"}, "is_reserved": 0}, {"lon": -77.02735033333333, "bike_id": "1ec7274d8d14d78fa7a8d70da5a50746", "lat": 38.93209016666667, "fusion_lon": 0.0, "fusion_lat": 0.0, "type": "electric_scooter", "name": "1ec7274d8d14d78fa7a8d70da5a50746", "is_disabled": 0, "rental_uris": {"ios": "https://dc.lft.to/lastmile_qr_scan", "android": "https://dc.lft.to/lastmile_qr_scan"}, "is_reserved": 0}, {"lon": -77.0109435, "bike_id": "f91969e05a9445cf624e4ca6fe5d4e01", "lat": 38.91561333333333, "fusion_lon": 0.0, "fusion_lat": 0.0, "type": "electric_scooter", "name": "f91969e05a9445cf624e4ca6fe5d4e01", "is_disabled": 0, "rental_uris": {"ios": "https://dc.lft.to/lastmile_qr_scan", "android": "https://dc.lft.to/lastmile_qr_scan"}, "is_reserved": 0}, {"lon": -77.022046, "bike_id": "aa4506166a9b596777fe074400d81d99", "lat": 38.91127016666667, "fusion_lon": 0.0, "fusion_lat": 0.0, "type": "electric_scooter", "name": "aa4506166a9b596777fe074400d81d99", "is_disabled": 0, "rental_uris": {"ios": "https://dc.lft.to/lastmile_qr_scan", "android": "https://dc.lft.to/lastmile_qr_scan"}, "is_reserved": 0}, {"lon": -77.05271383333333, "bike_id": "a0671b04304f8ec4e5f4537c200860c5", "lat": 38.910207666666665, "fusion_lon": 0.0, "fusion_lat": 0.0, "type": "electric_scooter", "name": "a0671b04304f8ec4e5f4537c200860c5", "is_disabled": 0, "rental_uris": {"ios": "https://dc.lft.to/lastmile_qr_scan", "android": "https://dc.lft.to/lastmile_qr_scan"}, "is_reserved": 0}, {"lon": -77.02786, "bike_id": "de832085334ed643c3a283ffff626516", "lat": 38.9202295, "fusion_lon": 0.0, "fusion_lat": 0.0, "type": "electric_scooter", "name": "de832085334ed643c3a283ffff626516", "is_disabled": 0, "rental_uris": {"ios": "https://dc.lft.to/lastmile_qr_scan", "android": "https://dc.lft.to/lastmile_qr_scan"}, "is_reserved": 0}, {"lon": -77.02789866666667, "bike_id": "66312c52a04f41fcba1b0e2af617e662", "lat": 38.95677516666667, "fusion_lon": 0.0, "fusion_lat": 0.0, "type": "electric_scooter", "name": "66312c52a04f41fcba1b0e2af617e662", "is_disabled": 0, "rental_uris": {"ios": "https://dc.lft.to/lastmile_qr_scan", "android": "https://dc.lft.to/lastmile_qr_scan"}, "is_reserved": 0}, {"lon": -77.00291616666667, "bike_id": "42a5e1ade84687dafb0390833bd39ca0", "lat": 38.907328, "fusion_lon": 0.0, "fusion_lat": 0.0, "type": "electric_bike", "name": "42a5e1ade84687dafb0390833bd39ca0", "is_disabled": 0, "rental_uris": {"ios": "https://dc.lft.to/lastmile_qr_scan", "android": "https://dc.lft.to/lastmile_qr_scan"}, "is_reserved": 0}, {"lon": -77.0453915, "bike_id": "ffb13a3fe69b2d76ac2cdddef3aa87e4", "lat": 38.920473333333334, "fusion_lon": 0.0, "fusion_lat": 0.0, "type": "electric_scooter", "name": "ffb13a3fe69b2d76ac2cdddef3aa87e4", "is_disabled": 0, "rental_uris": {"ios": "https://dc.lft.to/lastmile_qr_scan", "android": "https://dc.lft.to/lastmile_qr_scan"}, "is_reserved": 0}, {"lon": -77.02270283333333, "bike_id": "1306198af1ac29f4dcef4374941fc992", "lat": 38.937689666666664, "fusion_lon": 0.0, "fusion_lat": 0.0, "type": "electric_scooter", "name": "1306198af1ac29f4dcef4374941fc992", "is_disabled": 0, "rental_uris": {"ios": "https://dc.lft.to/lastmile_qr_scan", "android": "https://dc.lft.to/lastmile_qr_scan"}, "is_reserved": 0}, {"lon": -77.04584666666666, "bike_id": "4d1c1cbec1a610649d9d5d987e122a9d", "lat": 38.92137433333333, "fusion_lon": 0.0, "fusion_lat": 0.0, "type": "electric_scooter", "name": "4d1c1cbec1a610649d9d5d987e122a9d", "is_disabled": 0, "rental_uris": {"ios": "https://dc.lft.to/lastmile_qr_scan", "android": "https://dc.lft.to/lastmile_qr_scan"}, "is_reserved": 0}, {"lon": -77.05233933333334, "bike_id": "a26f2109475dfac8914b4417c054c07b", "lat": 38.9246625, "fusion_lon": 0.0, "fusion_lat": 0.0, "type": "electric_scooter", "name": "a26f2109475dfac8914b4417c054c07b", "is_disabled": 0, "rental_uris": {"ios": "https://dc.lft.to/lastmile_qr_scan", "android": "https://dc.lft.to/lastmile_qr_scan"}, "is_reserved": 0}, {"lon": -77.05029833333333, "bike_id": "403dd4f37668f0a2ac203f2109757d57", "lat": 38.89690083333333, "fusion_lon": 0.0, "fusion_lat": 0.0, "type": "electric_scooter", "name": "403dd4f37668f0a2ac203f2109757d57", "is_disabled": 0, "rental_uris": {"ios": "https://dc.lft.to/lastmile_qr_scan", "android": "https://dc.lft.to/lastmile_qr_scan"}, "is_reserved": 0}, {"lon": -77.04254466666667, "bike_id": "dfca6b00fb2435e4ec6dc4e106eac790", "lat": 38.92622383333333, "fusion_lon": 0.0, "fusion_lat": 0.0, "type": "electric_scooter", "name": "dfca6b00fb2435e4ec6dc4e106eac790", "is_disabled": 0, "rental_uris": {"ios": "https://dc.lft.to/lastmile_qr_scan", "android": "https://dc.lft.to/lastmile_qr_scan"}, "is_reserved": 0}, {"lon": -77.04402766666666, "bike_id": "8157e8d2a4fc24a40cb5c5c5f58ddb14", "lat": 38.9332145, "fusion_lon": 0.0, "fusion_lat": 0.0, "type": "electric_scooter", "name": "8157e8d2a4fc24a40cb5c5c5f58ddb14", "is_disabled": 0, "rental_uris": {"ios": "https://dc.lft.to/lastmile_qr_scan", "android": "https://dc.lft.to/lastmile_qr_scan"}, "is_reserved": 0}, {"lon": -77.02366966666666, "bike_id": "d2f2ee29bed69d321ad862dffc9c6dcc", "lat": 38.91766833333333, "fusion_lon": 0.0, "fusion_lat": 0.0, "type": "electric_scooter", "name": "d2f2ee29bed69d321ad862dffc9c6dcc", "is_disabled": 0, "rental_uris": {"ios": "https://dc.lft.to/lastmile_qr_scan", "android": "https://dc.lft.to/lastmile_qr_scan"}, "is_reserved": 0}, {"lon": -77.0524025, "bike_id": "ba0b6620b9105ebc3cac0eaad432579f", "lat": 38.92468183333333, "fusion_lon": 0.0, "fusion_lat": 0.0, "type": "electric_scooter", "name": "ba0b6620b9105ebc3cac0eaad432579f", "is_disabled": 0, "rental_uris": {"ios": "https://dc.lft.to/lastmile_qr_scan", "android": "https://dc.lft.to/lastmile_qr_scan"}, "is_reserved": 0}, {"lon": -77.00336866666666, "bike_id": "d66bd01b116485b50c6f5e4a1bb9dee7", "lat": 38.89181166666667, "fusion_lon": 0.0, "fusion_lat": 0.0, "type": "electric_scooter", "name": "d66bd01b116485b50c6f5e4a1bb9dee7", "is_disabled": 0, "rental_uris": {"ios": "https://dc.lft.to/lastmile_qr_scan", "android": "https://dc.lft.to/lastmile_qr_scan"}, "is_reserved": 0}, {"lon": -77.006947, "bike_id": "2c8468812cc90b117800e4108e9ec768", "lat": 38.917415, "fusion_lon": 0.0, "fusion_lat": 0.0, "type": "electric_scooter", "name": "2c8468812cc90b117800e4108e9ec768", "is_disabled": 0, "rental_uris": {"ios": "https://dc.lft.to/lastmile_qr_scan", "android": "https://dc.lft.to/lastmile_qr_scan"}, "is_reserved": 0}, {"lon": -77.0238425, "bike_id": "ab18193ea611071110681ee5f469e8b3", "lat": 38.919946, "fusion_lon": 0.0, "fusion_lat": 0.0, "type": "electric_scooter", "name": "ab18193ea611071110681ee5f469e8b3", "is_disabled": 0, "rental_uris": {"ios": "https://dc.lft.to/lastmile_qr_scan", "android": "https://dc.lft.to/lastmile_qr_scan"}, "is_reserved": 0}, {"lon": -77.00720966666667, "bike_id": "7c120a7aeeef3bd6e0b88ec4b4836c97", "lat": 38.90545433333333, "fusion_lon": 0.0, "fusion_lat": 0.0, "type": "electric_scooter", "name": "7c120a7aeeef3bd6e0b88ec4b4836c97", "is_disabled": 0, "rental_uris": {"ios": "https://dc.lft.to/lastmile_qr_scan", "android": "https://dc.lft.to/lastmile_qr_scan"}, "is_reserved": 0}, {"lon": -77.02120033333334, "bike_id": "c4f185ee14491943fbf0e42c15f377e4", "lat": 38.93702033333334, "fusion_lon": 0.0, "fusion_lat": 0.0, "type": "electric_scooter", "name": "c4f185ee14491943fbf0e42c15f377e4", "is_disabled": 0, "rental_uris": {"ios": "https://dc.lft.to/lastmile_qr_scan", "android": "https://dc.lft.to/lastmile_qr_scan"}, "is_reserved": 0}, {"lon": -77.03177483333333, "bike_id": "c0eb05f1440d6bba4593d99e1538ca0e", "lat": 38.9192685, "fusion_lon": 0.0, "fusion_lat": 0.0, "type": "electric_scooter", "name": "c0eb05f1440d6bba4593d99e1538ca0e", "is_disabled": 0, "rental_uris": {"ios": "https://dc.lft.to/lastmile_qr_scan", "android": "https://dc.lft.to/lastmile_qr_scan"}, "is_reserved": 0}, {"lon": -77.0458595, "bike_id": "048b053212175d8b13b39543a879df81", "lat": 38.91357633333333, "fusion_lon": 0.0, "fusion_lat": 0.0, "type": "electric_scooter", "name": "048b053212175d8b13b39543a879df81", "is_disabled": 0, "rental_uris": {"ios": "https://dc.lft.to/lastmile_qr_scan", "android": "https://dc.lft.to/lastmile_qr_scan"}, "is_reserved": 0}, {"lon": -77.0245015, "bike_id": "e8a45ced1fe8089f7c92c62dee925e5d", "lat": 38.914132333333335, "fusion_lon": 0.0, "fusion_lat": 0.0, "type": "electric_scooter", "name": "e8a45ced1fe8089f7c92c62dee925e5d", "is_disabled": 0, "rental_uris": {"ios": "https://dc.lft.to/lastmile_qr_scan", "android": "https://dc.lft.to/lastmile_qr_scan"}, "is_reserved": 0}, {"lon": -77.04448833333333, "bike_id": "4bab9b9015c880fd9641f592256b7e99", "lat": 38.8973025, "fusion_lon": 0.0, "fusion_lat": 0.0, "type": "electric_scooter", "name": "4bab9b9015c880fd9641f592256b7e99", "is_disabled": 0, "rental_uris": {"ios": "https://dc.lft.to/lastmile_qr_scan", "android": "https://dc.lft.to/lastmile_qr_scan"}, "is_reserved": 0}, {"lon": -77.05213183333333, "bike_id": "aaa315a74c24a5714295e355a332ff23", "lat": 38.900758333333336, "fusion_lon": 0.0, "fusion_lat": 0.0, "type": "electric_scooter", "name": "aaa315a74c24a5714295e355a332ff23", "is_disabled": 0, "rental_uris": {"ios": "https://dc.lft.to/lastmile_qr_scan", "android": "https://dc.lft.to/lastmile_qr_scan"}, "is_reserved": 0}, {"lon": -77.0462215, "bike_id": "f0e12b55e5636e8a78be61c8bf02f7d2", "lat": 38.915742333333334, "fusion_lon": 0.0, "fusion_lat": 0.0, "type": "electric_scooter", "name": "f0e12b55e5636e8a78be61c8bf02f7d2", "is_disabled": 0, "rental_uris": {"ios": "https://dc.lft.to/lastmile_qr_scan", "android": "https://dc.lft.to/lastmile_qr_scan"}, "is_reserved": 0}, {"lon": -77.04673233333334, "bike_id": "80a1cdc34a16b803b51c2210eb0bb2f0", "lat": 38.905448166666666, "fusion_lon": 0.0, "fusion_lat": 0.0, "type": "electric_scooter", "name": "80a1cdc34a16b803b51c2210eb0bb2f0", "is_disabled": 0, "rental_uris": {"ios": "https://dc.lft.to/lastmile_qr_scan", "android": "https://dc.lft.to/lastmile_qr_scan"}, "is_reserved": 0}, {"lon": -77.03236866666667, "bike_id": "62d5fcb4bb187c9b8ea34a2a275dcc6d", "lat": 38.928815166666666, "fusion_lon": 0.0, "fusion_lat": 0.0, "type": "electric_scooter", "name": "62d5fcb4bb187c9b8ea34a2a275dcc6d", "is_disabled": 0, "rental_uris": {"ios": "https://dc.lft.to/lastmile_qr_scan", "android": "https://dc.lft.to/lastmile_qr_scan"}, "is_reserved": 0}, {"lon": -77.00011466666666, "bike_id": "e4ff868b6a5aed762f9a56cf49a14bea", "lat": 38.8974005, "fusion_lon": 0.0, "fusion_lat": 0.0, "type": "electric_scooter", "name": "e4ff868b6a5aed762f9a56cf49a14bea", "is_disabled": 0, "rental_uris": {"ios": "https://dc.lft.to/lastmile_qr_scan", "android": "https://dc.lft.to/lastmile_qr_scan"}, "is_reserved": 0}, {"lon": -76.97427016666667, "bike_id": "04ed9ae9b4e7efd15d023e8aa7e5399d", "lat": 38.90400133333333, "fusion_lon": 0.0, "fusion_lat": 0.0, "type": "electric_scooter", "name": "04ed9ae9b4e7efd15d023e8aa7e5399d", "is_disabled": 0, "rental_uris": {"ios": "https://dc.lft.to/lastmile_qr_scan", "android": "https://dc.lft.to/lastmile_qr_scan"}, "is_reserved": 0}, {"lon": -77.00227883333334, "bike_id": "2d91ef839e2697608585ab813fb1687c", "lat": 38.90032183333334, "fusion_lon": 0.0, "fusion_lat": 0.0, "type": "electric_scooter", "name": "2d91ef839e2697608585ab813fb1687c", "is_disabled": 0, "rental_uris": {"ios": "https://dc.lft.to/lastmile_qr_scan", "android": "https://dc.lft.to/lastmile_qr_scan"}, "is_reserved": 0}, {"lon": -77.03344816666667, "bike_id": "e10c4328efe3bcf5410e2d35b8930026", "lat": 38.90709566666666, "fusion_lon": 0.0, "fusion_lat": 0.0, "type": "electric_scooter", "name": "e10c4328efe3bcf5410e2d35b8930026", "is_disabled": 0, "rental_uris": {"ios": "https://dc.lft.to/lastmile_qr_scan", "android": "https://dc.lft.to/lastmile_qr_scan"}, "is_reserved": 0}, {"lon": -77.03175266666666, "bike_id": "f0492e65c9d02c0ac300b5f7f48f496b", "lat": 38.902932166666666, "fusion_lon": 0.0, "fusion_lat": 0.0, "type": "electric_scooter", "name": "f0492e65c9d02c0ac300b5f7f48f496b", "is_disabled": 0, "rental_uris": {"ios": "https://dc.lft.to/lastmile_qr_scan", "android": "https://dc.lft.to/lastmile_qr_scan"}, "is_reserved": 0}, {"lon": -77.108077, "bike_id": "276bec0c914785e600304e28e5da16d8", "lat": 38.812022666666664, "fusion_lon": 0.0, "fusion_lat": 0.0, "type": "electric_bike", "name": "276bec0c914785e600304e28e5da16d8", "is_disabled": 0, "rental_uris": {"ios": "https://dc.lft.to/lastmile_qr_scan", "android": "https://dc.lft.to/lastmile_qr_scan"}, "is_reserved": 0}, {"lon": -77.03219, "bike_id": "d03c9ef5e5f5cbde041f535d3f692f15", "lat": 38.8922235, "fusion_lon": 0.0, "fusion_lat": 0.0, "type": "electric_scooter", "name": "d03c9ef5e5f5cbde041f535d3f692f15", "is_disabled": 0, "rental_uris": {"ios": "https://dc.lft.to/lastmile_qr_scan", "android": "https://dc.lft.to/lastmile_qr_scan"}, "is_reserved": 0}, {"lon": -77.01528316666666, "bike_id": "e128476574b8b98e669eea4d063234c2", "lat": 38.88501333333333, "fusion_lon": 0.0, "fusion_lat": 0.0, "type": "electric_scooter", "name": "e128476574b8b98e669eea4d063234c2", "is_disabled": 0, "rental_uris": {"ios": "https://dc.lft.to/lastmile_qr_scan", "android": "https://dc.lft.to/lastmile_qr_scan"}, "is_reserved": 0}, {"lon": -77.04169016666667, "bike_id": "4bd565b16465b92dc1bb127165342b67", "lat": 38.905477, "fusion_lon": 0.0, "fusion_lat": 0.0, "type": "electric_scooter", "name": "4bd565b16465b92dc1bb127165342b67", "is_disabled": 0, "rental_uris": {"ios": "https://dc.lft.to/lastmile_qr_scan", "android": "https://dc.lft.to/lastmile_qr_scan"}, "is_reserved": 0}, {"lon": -77.035124, "bike_id": "e36f87a5068e65db1307f81f25e72b7b", "lat": 38.9215235, "fusion_lon": 0.0, "fusion_lat": 0.0, "type": "electric_scooter", "name": "e36f87a5068e65db1307f81f25e72b7b", "is_disabled": 0, "rental_uris": {"ios": "https://dc.lft.to/lastmile_qr_scan", "android": "https://dc.lft.to/lastmile_qr_scan"}, "is_reserved": 0}, {"lon": -77.04585633333333, "bike_id": "d1e92655bede41e285268e9531333529", "lat": 38.913595, "fusion_lon": 0.0, "fusion_lat": 0.0, "type": "electric_scooter", "name": "d1e92655bede41e285268e9531333529", "is_disabled": 0, "rental_uris": {"ios": "https://dc.lft.to/lastmile_qr_scan", "android": "https://dc.lft.to/lastmile_qr_scan"}, "is_reserved": 0}, {"lon": -77.02396466666667, "bike_id": "4a48ebd07c78737ca4946a767e6a7a0c", "lat": 38.9208435, "fusion_lon": 0.0, "fusion_lat": 0.0, "type": "electric_scooter", "name": "4a48ebd07c78737ca4946a767e6a7a0c", "is_disabled": 0, "rental_uris": {"ios": "https://dc.lft.to/lastmile_qr_scan", "android": "https://dc.lft.to/lastmile_qr_scan"}, "is_reserved": 0}, {"lon": -77.02181233333333, "bike_id": "8773891db3bbc10d63b98bcdcf16ecd6", "lat": 38.89354016666667, "fusion_lon": 0.0, "fusion_lat": 0.0, "type": "electric_scooter", "name": "8773891db3bbc10d63b98bcdcf16ecd6", "is_disabled": 0, "rental_uris": {"ios": "https://dc.lft.to/lastmile_qr_scan", "android": "https://dc.lft.to/lastmile_qr_scan"}, "is_reserved": 0}, {"lon": -77.07821566666667, "bike_id": "1cf8c54ddef385841f5dc37f3b953451", "lat": 38.92363566666667, "fusion_lon": 0.0, "fusion_lat": 0.0, "type": "electric_scooter", "name": "1cf8c54ddef385841f5dc37f3b953451", "is_disabled": 0, "rental_uris": {"ios": "https://dc.lft.to/lastmile_qr_scan", "android": "https://dc.lft.to/lastmile_qr_scan"}, "is_reserved": 0}, {"lon": -77.03232016666666, "bike_id": "b84a02dbde766ca6cb116ef34cc7e3fc", "lat": 38.929878333333335, "fusion_lon": 0.0, "fusion_lat": 0.0, "type": "electric_scooter", "name": "b84a02dbde766ca6cb116ef34cc7e3fc", "is_disabled": 0, "rental_uris": {"ios": "https://dc.lft.to/lastmile_qr_scan", "android": "https://dc.lft.to/lastmile_qr_scan"}, "is_reserved": 0}, {"lon": -77.059179, "bike_id": "9bc47096e41374ece5fbc3913a61ac4f", "lat": 38.906228666666664, "fusion_lon": 0.0, "fusion_lat": 0.0, "type": "electric_scooter", "name": "9bc47096e41374ece5fbc3913a61ac4f", "is_disabled": 0, "rental_uris": {"ios": "https://dc.lft.to/lastmile_qr_scan", "android": "https://dc.lft.to/lastmile_qr_scan"}, "is_reserved": 0}, {"lon": -77.036667, "bike_id": "75858814f4a73fa759943c5f9897b1ad", "lat": 38.918132166666666, "fusion_lon": 0.0, "fusion_lat": 0.0, "type": "electric_scooter", "name": "75858814f4a73fa759943c5f9897b1ad", "is_disabled": 0, "rental_uris": {"ios": "https://dc.lft.to/lastmile_qr_scan", "android": "https://dc.lft.to/lastmile_qr_scan"}, "is_reserved": 0}, {"lon": -77.005755, "bike_id": "df9a1490c3244f057be0b0a5ae1d0b21", "lat": 38.829961833333336, "fusion_lon": 0.0, "fusion_lat": 0.0, "type": "electric_scooter", "name": "df9a1490c3244f057be0b0a5ae1d0b21", "is_disabled": 0, "rental_uris": {"ios": "https://dc.lft.to/lastmile_qr_scan", "android": "https://dc.lft.to/lastmile_qr_scan"}, "is_reserved": 0}, {"lon": -77.02797816666667, "bike_id": "ef8d46eb822bd19eed170a56879b2578", "lat": 38.922929, "fusion_lon": 0.0, "fusion_lat": 0.0, "type": "electric_scooter", "name": "ef8d46eb822bd19eed170a56879b2578", "is_disabled": 0, "rental_uris": {"ios": "https://dc.lft.to/lastmile_qr_scan", "android": "https://dc.lft.to/lastmile_qr_scan"}, "is_reserved": 0}, {"lon": -77.05564933333333, "bike_id": "bbc52c13e717279fa099cfaf9be9f8cb", "lat": 38.930388666666666, "fusion_lon": 0.0, "fusion_lat": 0.0, "type": "electric_scooter", "name": "bbc52c13e717279fa099cfaf9be9f8cb", "is_disabled": 0, "rental_uris": {"ios": "https://dc.lft.to/lastmile_qr_scan", "android": "https://dc.lft.to/lastmile_qr_scan"}, "is_reserved": 0}, {"lon": -76.98082566666666, "bike_id": "7d46399bbf297215e373f2247853ee23", "lat": 38.87935216666666, "fusion_lon": 0.0, "fusion_lat": 0.0, "type": "electric_bike", "name": "7d46399bbf297215e373f2247853ee23", "is_disabled": 0, "rental_uris": {"ios": "https://dc.lft.to/lastmile_qr_scan", "android": "https://dc.lft.to/lastmile_qr_scan"}, "is_reserved": 0}, {"lon": -77.10524266666667, "bike_id": "6bb7c56cbc57e821f304e3cb5a0581fc", "lat": 38.87372466666667, "fusion_lon": 0.0, "fusion_lat": 0.0, "type": "electric_bike", "name": "6bb7c56cbc57e821f304e3cb5a0581fc", "is_disabled": 0, "rental_uris": {"ios": "https://dc.lft.to/lastmile_qr_scan", "android": "https://dc.lft.to/lastmile_qr_scan"}, "is_reserved": 0}, {"lon": -76.98800683333333, "bike_id": "eb1ed1ab6bf216bb38dbad7899dbaddc", "lat": 38.892373166666665, "fusion_lon": 0.0, "fusion_lat": 0.0, "type": "electric_scooter", "name": "eb1ed1ab6bf216bb38dbad7899dbaddc", "is_disabled": 0, "rental_uris": {"ios": "https://dc.lft.to/lastmile_qr_scan", "android": "https://dc.lft.to/lastmile_qr_scan"}, "is_reserved": 0}, {"lon": -77.034148, "bike_id": "b5cd3a0b6c4919550cb34a6cd9a1090c", "lat": 38.90519, "fusion_lon": 0.0, "fusion_lat": 0.0, "type": "electric_scooter", "name": "b5cd3a0b6c4919550cb34a6cd9a1090c", "is_disabled": 0, "rental_uris": {"ios": "https://dc.lft.to/lastmile_qr_scan", "android": "https://dc.lft.to/lastmile_qr_scan"}, "is_reserved": 0}, {"lon": -77.0229115, "bike_id": "6fa3ec0ff5a79430eecb5269a10db09a", "lat": 38.93297666666667, "fusion_lon": 0.0, "fusion_lat": 0.0, "type": "electric_scooter", "name": "6fa3ec0ff5a79430eecb5269a10db09a", "is_disabled": 0, "rental_uris": {"ios": "https://dc.lft.to/lastmile_qr_scan", "android": "https://dc.lft.to/lastmile_qr_scan"}, "is_reserved": 0}, {"lon": -77.04109966666667, "bike_id": "b91dbe5ef5092a8650a0f4d0a2bb10d5", "lat": 38.915536833333334, "fusion_lon": 0.0, "fusion_lat": 0.0, "type": "electric_scooter", "name": "b91dbe5ef5092a8650a0f4d0a2bb10d5", "is_disabled": 0, "rental_uris": {"ios": "https://dc.lft.to/lastmile_qr_scan", "android": "https://dc.lft.to/lastmile_qr_scan"}, "is_reserved": 0}, {"lon": -77.01884966666667, "bike_id": "3c8e3a30d7a83037e34022e74f24a3fd", "lat": 38.906132, "fusion_lon": 0.0, "fusion_lat": 0.0, "type": "electric_scooter", "name": "3c8e3a30d7a83037e34022e74f24a3fd", "is_disabled": 0, "rental_uris": {"ios": "https://dc.lft.to/lastmile_qr_scan", "android": "https://dc.lft.to/lastmile_qr_scan"}, "is_reserved": 0}, {"lon": -77.02357533333333, "bike_id": "fb4b1ed6f2394bb1a8a6f70f59667082", "lat": 38.896132, "fusion_lon": 0.0, "fusion_lat": 0.0, "type": "electric_scooter", "name": "fb4b1ed6f2394bb1a8a6f70f59667082", "is_disabled": 0, "rental_uris": {"ios": "https://dc.lft.to/lastmile_qr_scan", "android": "https://dc.lft.to/lastmile_qr_scan"}, "is_reserved": 0}, {"lon": -77.0321885, "bike_id": "7b48fd104f369951da3177f474b89693", "lat": 38.90706433333333, "fusion_lon": 0.0, "fusion_lat": 0.0, "type": "electric_scooter", "name": "7b48fd104f369951da3177f474b89693", "is_disabled": 0, "rental_uris": {"ios": "https://dc.lft.to/lastmile_qr_scan", "android": "https://dc.lft.to/lastmile_qr_scan"}, "is_reserved": 0}, {"lon": -76.98311283333334, "bike_id": "183626a11d5975c970a0cc7d951177cb", "lat": 38.8997405, "fusion_lon": 0.0, "fusion_lat": 0.0, "type": "electric_scooter", "name": "183626a11d5975c970a0cc7d951177cb", "is_disabled": 0, "rental_uris": {"ios": "https://dc.lft.to/lastmile_qr_scan", "android": "https://dc.lft.to/lastmile_qr_scan"}, "is_reserved": 0}, {"lon": -76.9926475, "bike_id": "211c1648cf31460b0e278b015e9de7df", "lat": 38.90390766666667, "fusion_lon": 0.0, "fusion_lat": 0.0, "type": "electric_scooter", "name": "211c1648cf31460b0e278b015e9de7df", "is_disabled": 0, "rental_uris": {"ios": "https://dc.lft.to/lastmile_qr_scan", "android": "https://dc.lft.to/lastmile_qr_scan"}, "is_reserved": 0}, {"lon": -76.98136966666667, "bike_id": "9089950edc95ad5b7f79d9ef4c611fae", "lat": 38.905628166666666, "fusion_lon": 0.0, "fusion_lat": 0.0, "type": "electric_scooter", "name": "9089950edc95ad5b7f79d9ef4c611fae", "is_disabled": 0, "rental_uris": {"ios": "https://dc.lft.to/lastmile_qr_scan", "android": "https://dc.lft.to/lastmile_qr_scan"}, "is_reserved": 0}, {"lon": -77.03361933333333, "bike_id": "22e38e8a418a3fcfce67b20433b0ff5e", "lat": 38.90539033333334, "fusion_lon": 0.0, "fusion_lat": 0.0, "type": "electric_scooter", "name": "22e38e8a418a3fcfce67b20433b0ff5e", "is_disabled": 0, "rental_uris": {"ios": "https://dc.lft.to/lastmile_qr_scan", "android": "https://dc.lft.to/lastmile_qr_scan"}, "is_reserved": 0}, {"lon": -77.027111, "bike_id": "3ac45a006a5eef81e0102521404bbea1", "lat": 38.906652666666666, "fusion_lon": 0.0, "fusion_lat": 0.0, "type": "electric_scooter", "name": "3ac45a006a5eef81e0102521404bbea1", "is_disabled": 0, "rental_uris": {"ios": "https://dc.lft.to/lastmile_qr_scan", "android": "https://dc.lft.to/lastmile_qr_scan"}, "is_reserved": 0}, {"lon": -76.99735783333334, "bike_id": "e50b33d05816c72f8674f4b4e471579a", "lat": 38.90958366666667, "fusion_lon": 0.0, "fusion_lat": 0.0, "type": "electric_scooter", "name": "e50b33d05816c72f8674f4b4e471579a", "is_disabled": 0, "rental_uris": {"ios": "https://dc.lft.to/lastmile_qr_scan", "android": "https://dc.lft.to/lastmile_qr_scan"}, "is_reserved": 0}, {"lon": -76.99613983333333, "bike_id": "fc69abaca9de561ebf03f59ceacd1ce7", "lat": 38.88314916666667, "fusion_lon": 0.0, "fusion_lat": 0.0, "type": "electric_scooter", "name": "fc69abaca9de561ebf03f59ceacd1ce7", "is_disabled": 0, "rental_uris": {"ios": "https://dc.lft.to/lastmile_qr_scan", "android": "https://dc.lft.to/lastmile_qr_scan"}, "is_reserved": 0}, {"lon": -77.0410455, "bike_id": "7664959e8f5790437b08f8df603f7757", "lat": 38.920322166666665, "fusion_lon": 0.0, "fusion_lat": 0.0, "type": "electric_scooter", "name": "7664959e8f5790437b08f8df603f7757", "is_disabled": 0, "rental_uris": {"ios": "https://dc.lft.to/lastmile_qr_scan", "android": "https://dc.lft.to/lastmile_qr_scan"}, "is_reserved": 0}, {"lon": -77.0446215, "bike_id": "9316f2d68c2cdba8ab13051a668d659d", "lat": 38.919319333333334, "fusion_lon": 0.0, "fusion_lat": 0.0, "type": "electric_scooter", "name": "9316f2d68c2cdba8ab13051a668d659d", "is_disabled": 0, "rental_uris": {"ios": "https://dc.lft.to/lastmile_qr_scan", "android": "https://dc.lft.to/lastmile_qr_scan"}, "is_reserved": 0}, {"lon": -77.0450105, "bike_id": "9ca7e321f5ad33dae24ba839fbb20084", "lat": 38.91927833333333, "fusion_lon": 0.0, "fusion_lat": 0.0, "type": "electric_scooter", "name": "9ca7e321f5ad33dae24ba839fbb20084", "is_disabled": 0, "rental_uris": {"ios": "https://dc.lft.to/lastmile_qr_scan", "android": "https://dc.lft.to/lastmile_qr_scan"}, "is_reserved": 0}, {"lon": -76.9520295, "bike_id": "95567d4a87724c9e974d689874850b67", "lat": 38.9001105, "fusion_lon": 0.0, "fusion_lat": 0.0, "type": "electric_scooter", "name": "95567d4a87724c9e974d689874850b67", "is_disabled": 0, "rental_uris": {"ios": "https://dc.lft.to/lastmile_qr_scan", "android": "https://dc.lft.to/lastmile_qr_scan"}, "is_reserved": 0}, {"lon": -77.03345516666667, "bike_id": "b80e0a4449c05232c8419fe89514669d", "lat": 38.94715466666667, "fusion_lon": 0.0, "fusion_lat": 0.0, "type": "electric_scooter", "name": "b80e0a4449c05232c8419fe89514669d", "is_disabled": 0, "rental_uris": {"ios": "https://dc.lft.to/lastmile_qr_scan", "android": "https://dc.lft.to/lastmile_qr_scan"}, "is_reserved": 0}, {"lon": -77.01578933333333, "bike_id": "75779c192cea7323841bd03006f9fc0a", "lat": 38.894638666666665, "fusion_lon": 0.0, "fusion_lat": 0.0, "type": "electric_scooter", "name": "75779c192cea7323841bd03006f9fc0a", "is_disabled": 0, "rental_uris": {"ios": "https://dc.lft.to/lastmile_qr_scan", "android": "https://dc.lft.to/lastmile_qr_scan"}, "is_reserved": 0}, {"lon": -76.98362433333334, "bike_id": "87d0b3cc1bc3e071ac28f548d98d13a8", "lat": 38.861042833333336, "fusion_lon": 0.0, "fusion_lat": 0.0, "type": "electric_scooter", "name": "87d0b3cc1bc3e071ac28f548d98d13a8", "is_disabled": 0, "rental_uris": {"ios": "https://dc.lft.to/lastmile_qr_scan", "android": "https://dc.lft.to/lastmile_qr_scan"}, "is_reserved": 0}, {"lon": -77.02382066666667, "bike_id": "a5118d91fab42deeb495360d238ae9f5", "lat": 38.90948933333333, "fusion_lon": 0.0, "fusion_lat": 0.0, "type": "electric_scooter", "name": "a5118d91fab42deeb495360d238ae9f5", "is_disabled": 0, "rental_uris": {"ios": "https://dc.lft.to/lastmile_qr_scan", "android": "https://dc.lft.to/lastmile_qr_scan"}, "is_reserved": 0}, {"lon": -76.99836016666667, "bike_id": "0380460d6aefcbaf1c80e2dd2aafa7a2", "lat": 38.90037866666667, "fusion_lon": 0.0, "fusion_lat": 0.0, "type": "electric_scooter", "name": "0380460d6aefcbaf1c80e2dd2aafa7a2", "is_disabled": 0, "rental_uris": {"ios": "https://dc.lft.to/lastmile_qr_scan", "android": "https://dc.lft.to/lastmile_qr_scan"}, "is_reserved": 0}, {"lon": -77.02488983333333, "bike_id": "aa9ef1946e4efa16f79599aaec7f9b3b", "lat": 38.93101, "fusion_lon": 0.0, "fusion_lat": 0.0, "type": "electric_scooter", "name": "aa9ef1946e4efa16f79599aaec7f9b3b", "is_disabled": 0, "rental_uris": {"ios": "https://dc.lft.to/lastmile_qr_scan", "android": "https://dc.lft.to/lastmile_qr_scan"}, "is_reserved": 0}, {"lon": -77.037585, "bike_id": "2f57b5c4354d0910d1f9447b865990bb", "lat": 38.90780316666667, "fusion_lon": 0.0, "fusion_lat": 0.0, "type": "electric_scooter", "name": "2f57b5c4354d0910d1f9447b865990bb", "is_disabled": 0, "rental_uris": {"ios": "https://dc.lft.to/lastmile_qr_scan", "android": "https://dc.lft.to/lastmile_qr_scan"}, "is_reserved": 0}, {"lon": -77.03887866666666, "bike_id": "53ec0f12535c3ec3c93c366271f72138", "lat": 38.910962, "fusion_lon": 0.0, "fusion_lat": 0.0, "type": "electric_scooter", "name": "53ec0f12535c3ec3c93c366271f72138", "is_disabled": 0, "rental_uris": {"ios": "https://dc.lft.to/lastmile_qr_scan", "android": "https://dc.lft.to/lastmile_qr_scan"}, "is_reserved": 0}, {"lon": -77.00810866666667, "bike_id": "3d256d75227b925c09c55c4e8f34b982", "lat": 38.91690166666667, "fusion_lon": 0.0, "fusion_lat": 0.0, "type": "electric_scooter", "name": "3d256d75227b925c09c55c4e8f34b982", "is_disabled": 0, "rental_uris": {"ios": "https://dc.lft.to/lastmile_qr_scan", "android": "https://dc.lft.to/lastmile_qr_scan"}, "is_reserved": 0}, {"lon": -77.0319285, "bike_id": "5d7ee3e2d8c757be41deddfeba2fbfc4", "lat": 38.914132333333335, "fusion_lon": 0.0, "fusion_lat": 0.0, "type": "electric_scooter", "name": "5d7ee3e2d8c757be41deddfeba2fbfc4", "is_disabled": 0, "rental_uris": {"ios": "https://dc.lft.to/lastmile_qr_scan", "android": "https://dc.lft.to/lastmile_qr_scan"}, "is_reserved": 0}, {"lon": -77.02951183333333, "bike_id": "0e939ffdbb824ddce074e7810b9afbe4", "lat": 38.9050845, "fusion_lon": 0.0, "fusion_lat": 0.0, "type": "electric_scooter", "name": "0e939ffdbb824ddce074e7810b9afbe4", "is_disabled": 0, "rental_uris": {"ios": "https://dc.lft.to/lastmile_qr_scan", "android": "https://dc.lft.to/lastmile_qr_scan"}, "is_reserved": 0}, {"lon": -76.995697, "bike_id": "cce1416251fc494d093da3e4eb3de70c", "lat": 38.85181733333334, "fusion_lon": 0.0, "fusion_lat": 0.0, "type": "electric_bike", "name": "cce1416251fc494d093da3e4eb3de70c", "is_disabled": 0, "rental_uris": {"ios": "https://dc.lft.to/lastmile_qr_scan", "android": "https://dc.lft.to/lastmile_qr_scan"}, "is_reserved": 0}, {"lon": -76.933661, "bike_id": "77952bcc6fc2d48eb99621dd41adee2e", "lat": 38.89916783333334, "fusion_lon": 0.0, "fusion_lat": 0.0, "type": "electric_scooter", "name": "77952bcc6fc2d48eb99621dd41adee2e", "is_disabled": 0, "rental_uris": {"ios": "https://dc.lft.to/lastmile_qr_scan", "android": "https://dc.lft.to/lastmile_qr_scan"}, "is_reserved": 0}, {"lon": -77.01605716666667, "bike_id": "e4984c6e7d291b8bef7e6cf13a42e45d", "lat": 38.910607166666665, "fusion_lon": 0.0, "fusion_lat": 0.0, "type": "electric_scooter", "name": "e4984c6e7d291b8bef7e6cf13a42e45d", "is_disabled": 0, "rental_uris": {"ios": "https://dc.lft.to/lastmile_qr_scan", "android": "https://dc.lft.to/lastmile_qr_scan"}, "is_reserved": 0}, {"lon": -76.931747, "bike_id": "6cf1d26e7267530985331e16d783fb4b", "lat": 38.89884883333333, "fusion_lon": 0.0, "fusion_lat": 0.0, "type": "electric_scooter", "name": "6cf1d26e7267530985331e16d783fb4b", "is_disabled": 0, "rental_uris": {"ios": "https://dc.lft.to/lastmile_qr_scan", "android": "https://dc.lft.to/lastmile_qr_scan"}, "is_reserved": 0}, {"lon": -77.031868, "bike_id": "c83386ba016a364ecccdba24bdd3f3ac", "lat": 38.913452, "fusion_lon": 0.0, "fusion_lat": 0.0, "type": "electric_scooter", "name": "c83386ba016a364ecccdba24bdd3f3ac", "is_disabled": 0, "rental_uris": {"ios": "https://dc.lft.to/lastmile_qr_scan", "android": "https://dc.lft.to/lastmile_qr_scan"}, "is_reserved": 0}, {"lon": -77.02487933333333, "bike_id": "37f906166ae0ffe3aa69eaa755d0e83f", "lat": 38.90167683333333, "fusion_lon": 0.0, "fusion_lat": 0.0, "type": "electric_scooter", "name": "37f906166ae0ffe3aa69eaa755d0e83f", "is_disabled": 0, "rental_uris": {"ios": "https://dc.lft.to/lastmile_qr_scan", "android": "https://dc.lft.to/lastmile_qr_scan"}, "is_reserved": 0}, {"lon": -77.03350266666666, "bike_id": "a1788d595ec9a0f9988070542ecec135", "lat": 38.8854335, "fusion_lon": 0.0, "fusion_lat": 0.0, "type": "electric_scooter", "name": "a1788d595ec9a0f9988070542ecec135", "is_disabled": 0, "rental_uris": {"ios": "https://dc.lft.to/lastmile_qr_scan", "android": "https://dc.lft.to/lastmile_qr_scan"}, "is_reserved": 0}, {"lon": -77.05608666666667, "bike_id": "632523a5d3d02f206a2edc3cfbdcbf0f", "lat": 38.923318, "fusion_lon": 0.0, "fusion_lat": 0.0, "type": "electric_scooter", "name": "632523a5d3d02f206a2edc3cfbdcbf0f", "is_disabled": 0, "rental_uris": {"ios": "https://dc.lft.to/lastmile_qr_scan", "android": "https://dc.lft.to/lastmile_qr_scan"}, "is_reserved": 0}, {"lon": -77.0108, "bike_id": "c09e24fe80dcfde1b7f706cb0340e6dc", "lat": 38.917053833333334, "fusion_lon": 0.0, "fusion_lat": 0.0, "type": "electric_scooter", "name": "c09e24fe80dcfde1b7f706cb0340e6dc", "is_disabled": 0, "rental_uris": {"ios": "https://dc.lft.to/lastmile_qr_scan", "android": "https://dc.lft.to/lastmile_qr_scan"}, "is_reserved": 0}, {"lon": -77.02368233333333, "bike_id": "7d3f9d352e8048990d07bb5a7539b629", "lat": 38.91765783333334, "fusion_lon": 0.0, "fusion_lat": 0.0, "type": "electric_scooter", "name": "7d3f9d352e8048990d07bb5a7539b629", "is_disabled": 0, "rental_uris": {"ios": "https://dc.lft.to/lastmile_qr_scan", "android": "https://dc.lft.to/lastmile_qr_scan"}, "is_reserved": 0}, {"lon": -77.0444725, "bike_id": "a563a2ad2e66e2ae779ad4f9e8ba8d51", "lat": 38.92166233333333, "fusion_lon": 0.0, "fusion_lat": 0.0, "type": "electric_scooter", "name": "a563a2ad2e66e2ae779ad4f9e8ba8d51", "is_disabled": 0, "rental_uris": {"ios": "https://dc.lft.to/lastmile_qr_scan", "android": "https://dc.lft.to/lastmile_qr_scan"}, "is_reserved": 0}, {"lon": -77.0320425, "bike_id": "a4e7d8a3da3dce22a90ed8e553c1e0a3", "lat": 38.939654166666664, "fusion_lon": 0.0, "fusion_lat": 0.0, "type": "electric_scooter", "name": "a4e7d8a3da3dce22a90ed8e553c1e0a3", "is_disabled": 0, "rental_uris": {"ios": "https://dc.lft.to/lastmile_qr_scan", "android": "https://dc.lft.to/lastmile_qr_scan"}, "is_reserved": 0}, {"lon": -77.02369333333333, "bike_id": "85b634c7df913298512756537f6cc62e", "lat": 38.90194733333333, "fusion_lon": 0.0, "fusion_lat": 0.0, "type": "electric_scooter", "name": "85b634c7df913298512756537f6cc62e", "is_disabled": 0, "rental_uris": {"ios": "https://dc.lft.to/lastmile_qr_scan", "android": "https://dc.lft.to/lastmile_qr_scan"}, "is_reserved": 0}, {"lon": -77.05199216666666, "bike_id": "725c0c0a780387b462b4b28d4ff5971e", "lat": 38.9245065, "fusion_lon": 0.0, "fusion_lat": 0.0, "type": "electric_scooter", "name": "725c0c0a780387b462b4b28d4ff5971e", "is_disabled": 0, "rental_uris": {"ios": "https://dc.lft.to/lastmile_qr_scan", "android": "https://dc.lft.to/lastmile_qr_scan"}, "is_reserved": 0}, {"lon": -76.9888155, "bike_id": "f4c0c729be029a27020a2d26220d4e83", "lat": 38.866477333333336, "fusion_lon": 0.0, "fusion_lat": 0.0, "type": "electric_scooter", "name": "f4c0c729be029a27020a2d26220d4e83", "is_disabled": 0, "rental_uris": {"ios": "https://dc.lft.to/lastmile_qr_scan", "android": "https://dc.lft.to/lastmile_qr_scan"}, "is_reserved": 0}, {"lon": -76.98713966666666, "bike_id": "e90ff0a4785c2f7a9a2502ab792a64b5", "lat": 38.866289, "fusion_lon": 0.0, "fusion_lat": 0.0, "type": "electric_scooter", "name": "e90ff0a4785c2f7a9a2502ab792a64b5", "is_disabled": 0, "rental_uris": {"ios": "https://dc.lft.to/lastmile_qr_scan", "android": "https://dc.lft.to/lastmile_qr_scan"}, "is_reserved": 0}, {"lon": -77.04376766666667, "bike_id": "c91b1697607323615ff62f4a4db1104b", "lat": 38.8864805, "fusion_lon": 0.0, "fusion_lat": 0.0, "type": "electric_scooter", "name": "c91b1697607323615ff62f4a4db1104b", "is_disabled": 0, "rental_uris": {"ios": "https://dc.lft.to/lastmile_qr_scan", "android": "https://dc.lft.to/lastmile_qr_scan"}, "is_reserved": 0}, {"lon": -76.9949325, "bike_id": "39644fcba8a9cae4c61347cee2f24ac1", "lat": 38.862414333333334, "fusion_lon": 0.0, "fusion_lat": 0.0, "type": "electric_scooter", "name": "39644fcba8a9cae4c61347cee2f24ac1", "is_disabled": 0, "rental_uris": {"ios": "https://dc.lft.to/lastmile_qr_scan", "android": "https://dc.lft.to/lastmile_qr_scan"}, "is_reserved": 0}, {"lon": -77.00204516666666, "bike_id": "43aca726b6fe1958c1ecb403323c69ff", "lat": 38.900245, "fusion_lon": 0.0, "fusion_lat": 0.0, "type": "electric_scooter", "name": "43aca726b6fe1958c1ecb403323c69ff", "is_disabled": 0, "rental_uris": {"ios": "https://dc.lft.to/lastmile_qr_scan", "android": "https://dc.lft.to/lastmile_qr_scan"}, "is_reserved": 0}, {"lon": -77.03442583333333, "bike_id": "227837e64bf72407e9820857f14faee2", "lat": 38.9101305, "fusion_lon": 0.0, "fusion_lat": 0.0, "type": "electric_scooter", "name": "227837e64bf72407e9820857f14faee2", "is_disabled": 0, "rental_uris": {"ios": "https://dc.lft.to/lastmile_qr_scan", "android": "https://dc.lft.to/lastmile_qr_scan"}, "is_reserved": 0},