{"data": {"bikes": [{"lon": -77.02407616666666, "fusion_lon": 0.0, "bike_id": "f85cec33c9175e3e7d58d675f4661a79", "type": "electric_scooter", "name": "f85cec33c9175e3e7d58d675f4661a79", "rental_uris": {"android": "https://dc.lft.to/lastmile_qr_scan", "ios": "https://dc.lft.to/lastmile_qr_scan"}, "is_disabled": 0, "fusion_lat": 0.0, "lat": 38.90573166666667, "is_reserved": 0}, {"lon": -77.04408416666666, "fusion_lon": 0.0, "bike_id": "a9218dbe88cd9f8bc97b219ac1c39e87", "type": "electric_scooter", "name": "a9218dbe88cd9f8bc97b219ac1c39e87", "rental_uris": {"android": "https://dc.lft.to/lastmile_qr_scan", "ios": "https://dc.lft.to/lastmile_qr_scan"}, "is_disabled": 0, "fusion_lat": 0.0, "lat": 38.91046033333333, "is_reserved": 0}, {"lon": -77.0060025, "fusion_lon": 0.0, "bike_id": "663ae919da868255783c30a91881c0ac", "type": "electric_scooter", "name": "663ae919da868255783c30a91881c0ac", "rental_uris": {"android": "https://dc.lft.to/lastmile_qr_scan", "ios": "https://dc.lft.to/lastmile_qr_scan"}, "is_disabled": 0, "fusion_lat": 0.0, "lat": 38.87567833333333, "is_reserved": 0}, {"lon": -77.01661483333334, "fusion_lon": 0.0, "bike_id": "200c8045acd180650e0ca5a2c83408b0", "type": "electric_scooter", "name": "200c8045acd180650e0ca5a2c83408b0", "rental_uris": {"android": "https://dc.lft.to/lastmile_qr_scan", "ios": "https://dc.lft.to/lastmile_qr_scan"}, "is_disabled": 0, "fusion_lat": 0.0, "lat": 38.881651833333336, "is_reserved": 0}, {"lon": -77.03636316666666, "fusion_lon": 0.0, "bike_id": "806139ab6fab169de170f39d0d8c11b2", "type": "electric_scooter", "name": "806139ab6fab169de170f39d0d8c11b2", "rental_uris": {"android": "https://dc.lft.to/lastmile_qr_scan", "ios": "https://dc.lft.to/lastmile_qr_scan"}, "is_disabled": 0, "fusion_lat": 0.0, "lat": 38.927400166666665, "is_reserved": 0}, {"lon": -77.0339955, "fusion_lon": 0.0, "bike_id": "d396340e5976c170e202666ba109fc67", "type": "electric_scooter", "name": "d396340e5976c170e202666ba109fc67", "rental_uris": {"android": "https://dc.lft.to/lastmile_qr_scan", "ios": "https://dc.lft.to/lastmile_qr_scan"}, "is_disabled": 0, "fusion_lat": 0.0, "lat": 38.92206, "is_reserved": 0}, {"lon": -76.98548166666667, "fusion_lon": 0.0, "bike_id": "f4f81e868f508bd59faeb82150db01f0", "type": "electric_scooter", "name": "f4f81e868f508bd59faeb82150db01f0", "rental_uris": {"android": "https://dc.lft.to/lastmile_qr_scan", "ios": "https://dc.lft.to/lastmile_qr_scan"}, "is_disabled": 0, "fusion_lat": 0.0, "lat": 38.8800215, "is_reserved": 0}, {"lon": -77.0250405, "fusion_lon": 0.0, "bike_id": "58f996d47f52190645405b8748466244", "type": "electric_scooter", "name": "58f996d47f52190645405b8748466244", "rental_uris": {"android": "https://dc.lft.to/lastmile_qr_scan", "ios": "https://dc.lft.to/lastmile_qr_scan"}, "is_disabled": 0, "fusion_lat": 0.0, "lat": 38.9072655, "is_reserved": 0}, {"lon": -76.98373116666667, "fusion_lon": 0.0, "bike_id": "4711b587bdaaa729ef1d863472a3b783", "type": "electric_scooter", "name": "4711b587bdaaa729ef1d863472a3b783", "rental_uris": {"android": "https://dc.lft.to/lastmile_qr_scan", "ios": "https://dc.lft.to/lastmile_qr_scan"}, "is_disabled": 0, "fusion_lat": 0.0, "lat": 38.91501083333333, "is_reserved": 0}, {"lon": -77.0550955, "fusion_lon": 0.0, "bike_id": "82d1eeff3cd670b36a98ec7d506c2bd9", "type": "electric_scooter", "name": "82d1eeff3cd670b36a98ec7d506c2bd9", "rental_uris": {"android": "https://dc.lft.to/lastmile_qr_scan", "ios": "https://dc.lft.to/lastmile_qr_scan"}, "is_disabled": 0, "fusion_lat": 0.0, "lat": 38.9295035, "is_reserved": 0}, {"lon": -77.04419066666667, "fusion_lon": 0.0, "bike_id": "aa28f0e766f429820f4873b95b68e6a0", "type": "electric_scooter", "name": "aa28f0e766f429820f4873b95b68e6a0", "rental_uris": {"android": "https://dc.lft.to/lastmile_qr_scan", "ios": "https://dc.lft.to/lastmile_qr_scan"}, "is_disabled": 0, "fusion_lat": 0.0, "lat": 38.9113195, "is_reserved": 0}, {"lon": -77.0173675, "fusion_lon": 0.0, "bike_id": "bb77a453727577e3fdb8488f3ca51abc", "type": "electric_scooter", "name": "bb77a453727577e3fdb8488f3ca51abc", "rental_uris": {"android": "https://dc.lft.to/lastmile_qr_scan", "ios": "https://dc.lft.to/lastmile_qr_scan"}, "is_disabled": 0, "fusion_lat": 0.0, "lat": 38.9161435, "is_reserved": 0}, {"lon": -77.06420033333333, "fusion_lon": 0.0, "bike_id": "47ae0115766649f660b38518139b336f", "type": "electric_scooter", "name": "47ae0115766649f660b38518139b336f", "rental_uris": {"android": "https://dc.lft.to/lastmile_qr_scan", "ios": "https://dc.lft.to/lastmile_qr_scan"}, "is_disabled": 0, "fusion_lat": 0.0, "lat": 38.91351066666667, "is_reserved": 0}, {"lon": -77.05263033333334, "fusion_lon": 0.0, "bike_id": "2b34aa2fef89b229ef41022cea5863f6", "type": "electric_scooter", "name": "2b34aa2fef89b229ef41022cea5863f6", "rental_uris": {"android": "https://dc.lft.to/lastmile_qr_scan", "ios": "https://dc.lft.to/lastmile_qr_scan"}, "is_disabled": 0, "fusion_lat": 0.0, "lat": 38.9278255, "is_reserved": 0}, {"lon": -77.02786633333334, "fusion_lon": 0.0, "bike_id": "3cefd2232886666484a9991234db3c6c", "type": "electric_scooter", "name": "3cefd2232886666484a9991234db3c6c", "rental_uris": {"android": "https://dc.lft.to/lastmile_qr_scan", "ios": "https://dc.lft.to/lastmile_qr_scan"}, "is_disabled": 0, "fusion_lat": 0.0, "lat": 38.91709733333333, "is_reserved": 0}, {"lon": -77.03193966666667, "fusion_lon": 0.0, "bike_id": "6569d12394cef3211c794a2422dd94f9", "type": "electric_scooter", "name": "6569d12394cef3211c794a2422dd94f9", "rental_uris": {"android": "https://dc.lft.to/lastmile_qr_scan", "ios": "https://dc.lft.to/lastmile_qr_scan"}, "is_disabled": 0, "fusion_lat": 0.0, "lat": 38.89249, "is_reserved": 0}, {"lon": -76.94892016666667, "fusion_lon": 0.0, "bike_id": "a2929570472ab08839a520e0496d8a4e", "type": "electric_scooter", "name": "a2929570472ab08839a520e0496d8a4e", "rental_uris": {"android": "https://dc.lft.to/lastmile_qr_scan", "ios": "https://dc.lft.to/lastmile_qr_scan"}, "is_disabled": 0, "fusion_lat": 0.0, "lat": 38.89533816666667, "is_reserved": 0}, {"lon": -77.04230133333333, "fusion_lon": 0.0, "bike_id": "a7e5c89a9928eba1a91fbf24f6a5036f", "type": "electric_scooter", "name": "a7e5c89a9928eba1a91fbf24f6a5036f", "rental_uris": {"android": "https://dc.lft.to/lastmile_qr_scan", "ios": "https://dc.lft.to/lastmile_qr_scan"}, "is_disabled": 0, "fusion_lat": 0.0, "lat": 38.91108966666667, "is_reserved": 0}, {"lon": -76.99000766666667, "fusion_lon": 0.0, "bike_id": "6946760bfa7578f1040934d981d99114", "type": "electric_scooter", "name": "6946760bfa7578f1040934d981d99114", "rental_uris": {"android": "https://dc.lft.to/lastmile_qr_scan", "ios": "https://dc.lft.to/lastmile_qr_scan"}, "is_disabled": 0, "fusion_lat": 0.0, "lat": 38.86503533333333, "is_reserved": 0}, {"lon": -77.03464616666666, "fusion_lon": 0.0, "bike_id": "0f603527fdcb1b4233564ed929b97d51", "type": "electric_scooter", "name": "0f603527fdcb1b4233564ed929b97d51", "rental_uris": {"android": "https://dc.lft.to/lastmile_qr_scan", "ios": "https://dc.lft.to/lastmile_qr_scan"}, "is_disabled": 0, "fusion_lat": 0.0, "lat": 38.908444833333334, "is_reserved": 0}, {"lon": -76.94856916666667, "fusion_lon": 0.0, "bike_id": "b39f93cb1f94a588840624b558391da6", "type": "electric_scooter", "name": "b39f93cb1f94a588840624b558391da6", "rental_uris": {"android": "https://dc.lft.to/lastmile_qr_scan", "ios": "https://dc.lft.to/lastmile_qr_scan"}, "is_disabled": 0, "fusion_lat": 0.0, "lat": 38.88301666666667, "is_reserved": 0}, {"lon": -77.034273, "fusion_lon": 0.0, "bike_id": "89a230d553722de67935768099a5adfe", "type": "electric_scooter", "name": "89a230d553722de67935768099a5adfe", "rental_uris": {"android": "https://dc.lft.to/lastmile_qr_scan", "ios": "https://dc.lft.to/lastmile_qr_scan"}, "is_disabled": 0, "fusion_lat": 0.0, "lat": 38.9096175, "is_reserved": 0}, {"lon": -77.03807566666667, "fusion_lon": 0.0, "bike_id": "94d6d0770515a2e1c5c0b9d5394ed9f4", "type": "electric_scooter", "name": "94d6d0770515a2e1c5c0b9d5394ed9f4", "rental_uris": {"android": "https://dc.lft.to/lastmile_qr_scan", "ios": "https://dc.lft.to/lastmile_qr_scan"}, "is_disabled": 0, "fusion_lat": 0.0, "lat": 38.9067685, "is_reserved": 0}, {"lon": -77.04159666666666, "fusion_lon": 0.0, "bike_id": "a2d4753cb6451ee7c198180053fe36d7", "type": "electric_scooter", "name": "a2d4753cb6451ee7c198180053fe36d7", "rental_uris": {"android": "https://dc.lft.to/lastmile_qr_scan", "ios": "https://dc.lft.to/lastmile_qr_scan"}, "is_disabled": 0, "fusion_lat": 0.0, "lat": 38.8923775, "is_reserved": 0}, {"lon": -77.02410033333334, "fusion_lon": 0.0, "bike_id": "35f83ae8ec4321e7b829857ab3a7a217", "type": "electric_scooter", "name": "35f83ae8ec4321e7b829857ab3a7a217", "rental_uris": {"android": "https://dc.lft.to/lastmile_qr_scan", "ios": "https://dc.lft.to/lastmile_qr_scan"}, "is_disabled": 0, "fusion_lat": 0.0, "lat": 38.91419783333333, "is_reserved": 0}, {"lon": -77.047798, "fusion_lon": 0.0, "bike_id": "b30ff65f8565fd44bc5ca644459d474e", "type": "electric_scooter", "name": "b30ff65f8565fd44bc5ca644459d474e", "rental_uris": {"android": "https://dc.lft.to/lastmile_qr_scan", "ios": "https://dc.lft.to/lastmile_qr_scan"}, "is_disabled": 0, "fusion_lat": 0.0, "lat": 38.897437, "is_reserved": 0}, {"lon": -77.04089183333333, "fusion_lon": 0.0, "bike_id": "d537c06898901ba06158960256e8958e", "type": "electric_scooter", "name": "d537c06898901ba06158960256e8958e", "rental_uris": {"android": "https://dc.lft.to/lastmile_qr_scan", "ios": "https://dc.lft.to/lastmile_qr_scan"}, "is_disabled": 0, "fusion_lat": 0.0, "lat": 38.911220166666666, "is_reserved": 0}, {"lon": -77.04356866666667, "fusion_lon": 0.0, "bike_id": "c8ae34404ec9661247258aae6e01e9bd", "type": "electric_scooter", "name": "c8ae34404ec9661247258aae6e01e9bd", "rental_uris": {"android": "https://dc.lft.to/lastmile_qr_scan", "ios": "https://dc.lft.to/lastmile_qr_scan"}, "is_disabled": 0, "fusion_lat": 0.0, "lat": 38.908340333333335, "is_reserved": 0}, {"lon": -76.99906233333333, "fusion_lon": 0.0, "bike_id": "749c3bd5fefdf230ff2f2897a93fa3fe", "type": "electric_scooter", "name": "749c3bd5fefdf230ff2f2897a93fa3fe", "rental_uris": {"android": "https://dc.lft.to/lastmile_qr_scan", "ios": "https://dc.lft.to/lastmile_qr_scan"}, "is_disabled": 0, "fusion_lat": 0.0, "lat": 38.900239166666665, "is_reserved": 0}, {"lon": -76.98083033333333, "fusion_lon": 0.0, "bike_id": "699c5cc915f0515c2152137deb20a361", "type": "electric_scooter", "name": "699c5cc915f0515c2152137deb20a361", "rental_uris": {"android": "https://dc.lft.to/lastmile_qr_scan", "ios": "https://dc.lft.to/lastmile_qr_scan"}, "is_disabled": 0, "fusion_lat": 0.0, "lat": 38.899885833333336, "is_reserved": 0}, {"lon": -77.05396566666667, "fusion_lon": 0.0, "bike_id": "bda1aa3f1f7de460a99949bd19196b81", "type": "electric_bike", "name": "bda1aa3f1f7de460a99949bd19196b81", "rental_uris": {"android": "https://dc.lft.to/lastmile_qr_scan", "ios": "https://dc.lft.to/lastmile_qr_scan"}, "is_disabled": 0, "fusion_lat": 0.0, "lat": 38.8044585, "is_reserved": 0}, {"lon": -77.04496666666667, "fusion_lon": 0.0, "bike_id": "815fe30f5493595f98685fd652c1444a", "type": "electric_scooter", "name": "815fe30f5493595f98685fd652c1444a", "rental_uris": {"android": "https://dc.lft.to/lastmile_qr_scan", "ios": "https://dc.lft.to/lastmile_qr_scan"}, "is_disabled": 0, "fusion_lat": 0.0, "lat": 38.90476783333333, "is_reserved": 0}, {"lon": -77.03278716666667, "fusion_lon": 0.0, "bike_id": "06c8d615931a014c5caa46e901cdb818", "type": "electric_scooter", "name": "06c8d615931a014c5caa46e901cdb818", "rental_uris": {"android": "https://dc.lft.to/lastmile_qr_scan", "ios": "https://dc.lft.to/lastmile_qr_scan"}, "is_disabled": 0, "fusion_lat": 0.0, "lat": 38.89892783333333, "is_reserved": 0}, {"lon": -77.03202116666667, "fusion_lon": 0.0, "bike_id": "ecf8ed14b1a56b2f73e1a08fe9c5c5b4", "type": "electric_scooter", "name": "ecf8ed14b1a56b2f73e1a08fe9c5c5b4", "rental_uris": {"android": "https://dc.lft.to/lastmile_qr_scan", "ios": "https://dc.lft.to/lastmile_qr_scan"}, "is_disabled": 0, "fusion_lat": 0.0, "lat": 38.918509666666665, "is_reserved": 0}, {"lon": -77.017716, "fusion_lon": 0.0, "bike_id": "069b258acf3b84cc4b3e61965c0ed5d2", "type": "electric_scooter", "name": "069b258acf3b84cc4b3e61965c0ed5d2", "rental_uris": {"android": "https://dc.lft.to/lastmile_qr_scan", "ios": "https://dc.lft.to/lastmile_qr_scan"}, "is_disabled": 0, "fusion_lat": 0.0, "lat": 38.87820083333333, "is_reserved": 0}, {"lon": -77.01585666666666, "fusion_lon": 0.0, "bike_id": "58f492efca30722c716bf4ae6a09d76c", "type": "electric_scooter", "name": "58f492efca30722c716bf4ae6a09d76c", "rental_uris": {"android": "https://dc.lft.to/lastmile_qr_scan", "ios": "https://dc.lft.to/lastmile_qr_scan"}, "is_disabled": 0, "fusion_lat": 0.0, "lat": 38.915741833333335, "is_reserved": 0}, {"lon": -76.98738883333333, "fusion_lon": 0.0, "bike_id": "f6ca48080e282a846da04948041357eb", "type": "electric_scooter", "name": "f6ca48080e282a846da04948041357eb", "rental_uris": {"android": "https://dc.lft.to/lastmile_qr_scan", "ios": "https://dc.lft.to/lastmile_qr_scan"}, "is_disabled": 0, "fusion_lat": 0.0, "lat": 38.90031233333333, "is_reserved": 0}, {"lon": -77.02387016666667, "fusion_lon": 0.0, "bike_id": "4c6e78192fb3e04cb2e1d99e498ba21c", "type": "electric_scooter", "name": "4c6e78192fb3e04cb2e1d99e498ba21c", "rental_uris": {"android": "https://dc.lft.to/lastmile_qr_scan", "ios": "https://dc.lft.to/lastmile_qr_scan"}, "is_disabled": 0, "fusion_lat": 0.0, "lat": 38.9129505, "is_reserved": 0}, {"lon": -77.047529, "fusion_lon": 0.0, "bike_id": "1e64c846d78c5d9f0e7bd61483e35f00", "type": "electric_scooter", "name": "1e64c846d78c5d9f0e7bd61483e35f00", "rental_uris": {"android": "https://dc.lft.to/lastmile_qr_scan", "ios": "https://dc.lft.to/lastmile_qr_scan"}, "is_disabled": 0, "fusion_lat": 0.0, "lat": 38.90126333333333, "is_reserved": 0}, {"lon": -77.04907133333333, "fusion_lon": 0.0, "bike_id": "425eff38babfbb43f93080327f3c9b12", "type": "electric_scooter", "name": "425eff38babfbb43f93080327f3c9b12", "rental_uris": {"android": "https://dc.lft.to/lastmile_qr_scan", "ios": "https://dc.lft.to/lastmile_qr_scan"}, "is_disabled": 0, "fusion_lat": 0.0, "lat": 38.915992, "is_reserved": 0}, {"lon": -76.932114, "fusion_lon": 0.0, "bike_id": "cfb47c56e2b1342fdf6c40ca60214beb", "type": "electric_scooter", "name": "cfb47c56e2b1342fdf6c40ca60214beb", "rental_uris": {"android": "https://dc.lft.to/lastmile_qr_scan", "ios": "https://dc.lft.to/lastmile_qr_scan"}, "is_disabled": 0, "fusion_lat": 0.0, "lat": 38.89670133333333, "is_reserved": 0}, {"lon": -76.99634383333333, "fusion_lon": 0.0, "bike_id": "ae4ee91dbe90cff900f266148c94746f", "type": "electric_scooter", "name": "ae4ee91dbe90cff900f266148c94746f", "rental_uris": {"android": "https://dc.lft.to/lastmile_qr_scan", "ios": "https://dc.lft.to/lastmile_qr_scan"}, "is_disabled": 0, "fusion_lat": 0.0, "lat": 38.90068083333333, "is_reserved": 0}, {"lon": -77.03356733333334, "fusion_lon": 0.0, "bike_id": "7826b06416f77875bed852e7b0418321", "type": "electric_scooter", "name": "7826b06416f77875bed852e7b0418321", "rental_uris": {"android": "https://dc.lft.to/lastmile_qr_scan", "ios": "https://dc.lft.to/lastmile_qr_scan"}, "is_disabled": 0, "fusion_lat": 0.0, "lat": 38.886999833333334, "is_reserved": 0}, {"lon": -77.0425735, "fusion_lon": 0.0, "bike_id": "353a04633b8d6f1866c9c35f0a2ef67f", "type": "electric_scooter", "name": "353a04633b8d6f1866c9c35f0a2ef67f", "rental_uris": {"android": "https://dc.lft.to/lastmile_qr_scan", "ios": "https://dc.lft.to/lastmile_qr_scan"}, "is_disabled": 0, "fusion_lat": 0.0, "lat": 38.90725116666667, "is_reserved": 0}, {"lon": -77.04227666666667, "fusion_lon": 0.0, "bike_id": "09e275b90d18ac35239c339d52da9baf", "type": "electric_scooter", "name": "09e275b90d18ac35239c339d52da9baf", "rental_uris": {"android": "https://dc.lft.to/lastmile_qr_scan", "ios": "https://dc.lft.to/lastmile_qr_scan"}, "is_disabled": 0, "fusion_lat": 0.0, "lat": 38.911099, "is_reserved": 0}, {"lon": -77.024743, "fusion_lon": 0.0, "bike_id": "2792f1e3c53b238c902751bc47debdd8", "type": "electric_scooter", "name": "2792f1e3c53b238c902751bc47debdd8", "rental_uris": {"android": "https://dc.lft.to/lastmile_qr_scan", "ios": "https://dc.lft.to/lastmile_qr_scan"}, "is_disabled": 0, "fusion_lat": 0.0, "lat": 38.93860016666667, "is_reserved": 0}, {"lon": -77.03148033333333, "fusion_lon": 0.0, "bike_id": "c34e1b4dd8d085066aaec3335e66f42a", "type": "electric_scooter", "name": "c34e1b4dd8d085066aaec3335e66f42a", "rental_uris": {"android": "https://dc.lft.to/lastmile_qr_scan", "ios": "https://dc.lft.to/lastmile_qr_scan"}, "is_disabled": 0, "fusion_lat": 0.0, "lat": 38.94178683333333, "is_reserved": 0}, {"lon": -76.94728133333334, "fusion_lon": 0.0, "bike_id": "7be5f49a62680b57697c1628f38f40f5", "type": "electric_scooter", "name": "7be5f49a62680b57697c1628f38f40f5", "rental_uris": {"android": "https://dc.lft.to/lastmile_qr_scan", "ios": "https://dc.lft.to/lastmile_qr_scan"}, "is_disabled": 0, "fusion_lat": 0.0, "lat": 38.897430666666665, "is_reserved": 0}, {"lon": -77.02205833333333, "fusion_lon": 0.0, "bike_id": "23ea15b313b307d8df483d225d4c2ac7", "type": "electric_scooter", "name": "23ea15b313b307d8df483d225d4c2ac7", "rental_uris": {"android": "https://dc.lft.to/lastmile_qr_scan", "ios": "https://dc.lft.to/lastmile_qr_scan"}, "is_disabled": 0, "fusion_lat": 0.0, "lat": 38.9000965, "is_reserved": 0}, {"lon": -77.03356616666666, "fusion_lon": 0.0, "bike_id": "352f2ae5bd0d6234ad95e5d457b22a8e", "type": "electric_scooter", "name": "352f2ae5bd0d6234ad95e5d457b22a8e", "rental_uris": {"android": "https://dc.lft.to/lastmile_qr_scan", "ios": "https://dc.lft.to/lastmile_qr_scan"}, "is_disabled": 0, "fusion_lat": 0.0, "lat": 38.92752383333333, "is_reserved": 0}, {"lon": -77.0317565, "fusion_lon": 0.0, "bike_id": "6035a999f32f7a1b55ba2ace9c09cbc1", "type": "electric_scooter", "name": "6035a999f32f7a1b55ba2ace9c09cbc1", "rental_uris": {"android": "https://dc.lft.to/lastmile_qr_scan", "ios": "https://dc.lft.to/lastmile_qr_scan"}, "is_disabled": 0, "fusion_lat": 0.0, "lat": 38.9142005, "is_reserved": 0}, {"lon": -77.04691633333333, "fusion_lon": 0.0, "bike_id": "82f8953d4b58b06d519ef0348dbbe3cd", "type": "electric_scooter", "name": "82f8953d4b58b06d519ef0348dbbe3cd", "rental_uris": {"android": "https://dc.lft.to/lastmile_qr_scan", "ios": "https://dc.lft.to/lastmile_qr_scan"}, "is_disabled": 0, "fusion_lat": 0.0, "lat": 38.892280166666666, "is_reserved": 0}, {"lon": -77.03420833333334, "fusion_lon": 0.0, "bike_id": "e0a1825c99c5396bcc560b530a7aa9a3", "type": "electric_scooter", "name": "e0a1825c99c5396bcc560b530a7aa9a3", "rental_uris": {"android": "https://dc.lft.to/lastmile_qr_scan", "ios": "https://dc.lft.to/lastmile_qr_scan"}, "is_disabled": 0, "fusion_lat": 0.0, "lat": 38.901593166666665, "is_reserved": 0}, {"lon": -77.03871366666667, "fusion_lon": 0.0, "bike_id": "8038b94384852034f898a2253934a1ea", "type": "electric_scooter", "name": "8038b94384852034f898a2253934a1ea", "rental_uris": {"android": "https://dc.lft.to/lastmile_qr_scan", "ios": "https://dc.lft.to/lastmile_qr_scan"}, "is_disabled": 0, "fusion_lat": 0.0, "lat": 38.921537, "is_reserved": 0}, {"lon": -77.032061, "fusion_lon": 0.0, "bike_id": "937ac73bc36fe6b53032f79a208caf69", "type": "electric_scooter", "name": "937ac73bc36fe6b53032f79a208caf69", "rental_uris": {"android": "https://dc.lft.to/lastmile_qr_scan", "ios": "https://dc.lft.to/lastmile_qr_scan"}, "is_disabled": 0, "fusion_lat": 0.0, "lat": 38.915154666666666, "is_reserved": 0}, {"lon": -77.03554783333334, "fusion_lon": 0.0, "bike_id": "d8afa29d6d696da959357d682ecf1453", "type": "electric_scooter", "name": "d8afa29d6d696da959357d682ecf1453", "rental_uris": {"android": "https://dc.lft.to/lastmile_qr_scan", "ios": "https://dc.lft.to/lastmile_qr_scan"}, "is_disabled": 0, "fusion_lat": 0.0, "lat": 38.90827083333333, "is_reserved": 0}, {"lon": -76.944382, "fusion_lon": 0.0, "bike_id": "78139942bf12ed4b8d4a2e8a6df8c79d", "type": "electric_bike", "name": "78139942bf12ed4b8d4a2e8a6df8c79d", "rental_uris": {"android": "https://dc.lft.to/lastmile_qr_scan", "ios": "https://dc.lft.to/lastmile_qr_scan"}, "is_disabled": 0, "fusion_lat": 0.0, "lat": 38.99238283333333, "is_reserved": 0}, {"lon": -77.04007283333334, "fusion_lon": 0.0, "bike_id": "686d2e1f67d6856cc6e541678b32d7c3", "type": "electric_scooter", "name": "686d2e1f67d6856cc6e541678b32d7c3", "rental_uris": {"android": "https://dc.lft.to/lastmile_qr_scan", "ios": "https://dc.lft.to/lastmile_qr_scan"}, "is_disabled": 0, "fusion_lat": 0.0, "lat": 38.9028115, "is_reserved": 0}, {"lon": -77.03323333333333, "fusion_lon": 0.0, "bike_id": "b90bc47ed7d69ac2640488f50c2bca80", "type": "electric_scooter", "name": "b90bc47ed7d69ac2640488f50c2bca80", "rental_uris": {"android": "https://dc.lft.to/lastmile_qr_scan", "ios": "https://dc.lft.to/lastmile_qr_scan"}, "is_disabled": 0, "fusion_lat": 0.0, "lat": 38.898279333333335, "is_reserved": 0}, {"lon": -76.948919, "fusion_lon": 0.0, "bike_id": "1adcf2b4ed44a9af76b555eabbe5c050", "type": "electric_scooter", "name": "1adcf2b4ed44a9af76b555eabbe5c050", "rental_uris": {"android": "https://dc.lft.to/lastmile_qr_scan", "ios": "https://dc.lft.to/lastmile_qr_scan"}, "is_disabled": 0, "fusion_lat": 0.0, "lat": 38.89536283333333, "is_reserved": 0}, {"lon": -77.0362475, "fusion_lon": 0.0, "bike_id": "be1d21668b7b087ce3f375290f4dbe83", "type": "electric_scooter", "name": "be1d21668b7b087ce3f375290f4dbe83", "rental_uris": {"android": "https://dc.lft.to/lastmile_qr_scan", "ios": "https://dc.lft.to/lastmile_qr_scan"}, "is_disabled": 0, "fusion_lat": 0.0, "lat": 38.90675933333333, "is_reserved": 0}, {"lon": -77.03401383333333, "fusion_lon": 0.0, "bike_id": "78096d980211ce67d510df7bd4d65583", "type": "electric_scooter", "name": "78096d980211ce67d510df7bd4d65583", "rental_uris": {"android": "https://dc.lft.to/lastmile_qr_scan", "ios": "https://dc.lft.to/lastmile_qr_scan"}, "is_disabled": 0, "fusion_lat": 0.0, "lat": 38.924518166666665, "is_reserved": 0}, {"lon": -77.04147333333333, "fusion_lon": 0.0, "bike_id": "5d810bbb2d3ebe36b5cd8c775db64001", "type": "electric_scooter", "name": "5d810bbb2d3ebe36b5cd8c775db64001", "rental_uris": {"android": "https://dc.lft.to/lastmile_qr_scan", "ios": "https://dc.lft.to/lastmile_qr_scan"}, "is_disabled": 0, "fusion_lat": 0.0, "lat": 38.9163665, "is_reserved": 0}, {"lon": -77.120218, "fusion_lon": 0.0, "bike_id": "f036d9e6feedab4ee8d40a6cc28dda8d", "type": "electric_bike", "name": "f036d9e6feedab4ee8d40a6cc28dda8d", "rental_uris": {"android": "https://dc.lft.to/lastmile_qr_scan", "ios": "https://dc.lft.to/lastmile_qr_scan"}, "is_disabled": 0, "fusion_lat": 0.0, "lat": 38.85788816666667, "is_reserved": 0}, {"lon": -77.02852333333334, "fusion_lon": 0.0, "bike_id": "e9ffe6efb3bc3c529ec014c7fa775b4d", "type": "electric_scooter", "name": "e9ffe6efb3bc3c529ec014c7fa775b4d", "rental_uris": {"android": "https://dc.lft.to/lastmile_qr_scan", "ios": "https://dc.lft.to/lastmile_qr_scan"}, "is_disabled": 0, "fusion_lat": 0.0, "lat": 38.8874635, "is_reserved": 0}, {"lon": -77.1146785, "fusion_lon": 0.0, "bike_id": "461e5b5919c1c2c4f95c4e2d6f11bcd9", "type": "electric_bike", "name": "461e5b5919c1c2c4f95c4e2d6f11bcd9", "rental_uris": {"android": "https://dc.lft.to/lastmile_qr_scan", "ios": "https://dc.lft.to/lastmile_qr_scan"}, "is_disabled": 0, "fusion_lat": 0.0, "lat": 38.841473, "is_reserved": 0}, {"lon": -77.058606, "fusion_lon": 0.0, "bike_id": "aa0f64335cf349d96622e94d4d1a0c6f", "type": "electric_scooter", "name": "aa0f64335cf349d96622e94d4d1a0c6f", "rental_uris": {"android": "https://dc.lft.to/lastmile_qr_scan", "ios": "https://dc.lft.to/lastmile_qr_scan"}, "is_disabled": 0, "fusion_lat": 0.0, "lat": 38.93609683333333, "is_reserved": 0}, {"lon": -77.1141195, "fusion_lon": 0.0, "bike_id": "1193723a0b37c91741a4c3d7631bea2c", "type": "electric_bike", "name": "1193723a0b37c91741a4c3d7631bea2c", "rental_uris": {"android": "https://dc.lft.to/lastmile_qr_scan", "ios": "https://dc.lft.to/lastmile_qr_scan"}, "is_disabled": 0, "fusion_lat": 0.0, "lat": 38.8553045, "is_reserved": 0}, {"lon": -77.01972633333334, "fusion_lon": 0.0, "bike_id": "66915c1e8391239c10920de347114e29", "type": "electric_scooter", "name": "66915c1e8391239c10920de347114e29", "rental_uris": {"android": "https://dc.lft.to/lastmile_qr_scan", "ios": "https://dc.lft.to/lastmile_qr_scan"}, "is_disabled": 0, "fusion_lat": 0.0, "lat": 38.90240633333333, "is_reserved": 0}, {"lon": -77.03162083333333, "fusion_lon": 0.0, "bike_id": "83e4ffa42d858cda1bbf1550c39f9d40", "type": "electric_scooter", "name": "83e4ffa42d858cda1bbf1550c39f9d40", "rental_uris": {"android": "https://dc.lft.to/lastmile_qr_scan", "ios": "https://dc.lft.to/lastmile_qr_scan"}, "is_disabled": 0, "fusion_lat": 0.0, "lat": 38.897302833333335, "is_reserved": 0}, {"lon": -77.03426916666666, "fusion_lon": 0.0, "bike_id": "19a84031fd9ef3d2f86a904292e0ee7d", "type": "electric_bike", "name": "19a84031fd9ef3d2f86a904292e0ee7d", "rental_uris": {"android": "https://dc.lft.to/lastmile_qr_scan", "ios": "https://dc.lft.to/lastmile_qr_scan"}, "is_disabled": 0, "fusion_lat": 0.0, "lat": 38.9662105, "is_reserved": 0}, {"lon": -77.0388675, "fusion_lon": 0.0, "bike_id": "e50a29abe8f043c588af49066720ff3c", "type": "electric_scooter", "name": "e50a29abe8f043c588af49066720ff3c", "rental_uris": {"android": "https://dc.lft.to/lastmile_qr_scan", "ios": "https://dc.lft.to/lastmile_qr_scan"}, "is_disabled": 0, "fusion_lat": 0.0, "lat": 38.9066245, "is_reserved": 0}, {"lon": -77.10857933333334, "fusion_lon": 0.0, "bike_id": "605b7cd2833500ec750271dc603fd00c", "type": "electric_bike", "name": "605b7cd2833500ec750271dc603fd00c", "rental_uris": {"android": "https://dc.lft.to/lastmile_qr_scan", "ios": "https://dc.lft.to/lastmile_qr_scan"}, "is_disabled": 0, "fusion_lat": 0.0, "lat": 38.872384833333335, "is_reserved": 0}, {"lon": -77.04521366666667, "fusion_lon": 0.0, "bike_id": "ad1853604f607f2b5d4656a77e947531", "type": "electric_scooter", "name": "ad1853604f607f2b5d4656a77e947531", "rental_uris": {"android": "https://dc.lft.to/lastmile_qr_scan", "ios": "https://dc.lft.to/lastmile_qr_scan"}, "is_disabled": 0, "fusion_lat": 0.0, "lat": 38.90953583333334, "is_reserved": 0}, {"lon": -77.00887566666667, "fusion_lon": 0.0, "bike_id": "60d691db2c6ddd605d83b67e5139d188", "type": "electric_scooter", "name": "60d691db2c6ddd605d83b67e5139d188", "rental_uris": {"android": "https://dc.lft.to/lastmile_qr_scan", "ios": "https://dc.lft.to/lastmile_qr_scan"}, "is_disabled": 0, "fusion_lat": 0.0, "lat": 38.96838566666667, "is_reserved": 0}, {"lon": -77.02797583333333, "fusion_lon": 0.0, "bike_id": "8cdb7b6cc80bf634b987fbeb318f3334", "type": "electric_scooter", "name": "8cdb7b6cc80bf634b987fbeb318f3334", "rental_uris": {"android": "https://dc.lft.to/lastmile_qr_scan", "ios": "https://dc.lft.to/lastmile_qr_scan"}, "is_disabled": 0, "fusion_lat": 0.0, "lat": 38.960486833333334, "is_reserved": 0}, {"lon": -77.032497, "fusion_lon": 0.0, "bike_id": "c99b0d4443280d025688239df5e822ca", "type": "electric_scooter", "name": "c99b0d4443280d025688239df5e822ca", "rental_uris": {"android": "https://dc.lft.to/lastmile_qr_scan", "ios": "https://dc.lft.to/lastmile_qr_scan"}, "is_disabled": 0, "fusion_lat": 0.0, "lat": 38.90553333333333, "is_reserved": 0}, {"lon": -77.03588983333333, "fusion_lon": 0.0, "bike_id": "567a46582809b770efbee8684a0457a3", "type": "electric_scooter", "name": "567a46582809b770efbee8684a0457a3", "rental_uris": {"android": "https://dc.lft.to/lastmile_qr_scan", "ios": "https://dc.lft.to/lastmile_qr_scan"}, "is_disabled": 0, "fusion_lat": 0.0, "lat": 38.90374966666667, "is_reserved": 0}, {"lon": -77.03409266666667, "fusion_lon": 0.0, "bike_id": "46b126b9ba5e449c0a81165dda60aa51", "type": "electric_scooter", "name": "46b126b9ba5e449c0a81165dda60aa51", "rental_uris": {"android": "https://dc.lft.to/lastmile_qr_scan", "ios": "https://dc.lft.to/lastmile_qr_scan"}, "is_disabled": 0, "fusion_lat": 0.0, "lat": 38.92441866666667, "is_reserved": 0}, {"lon": -77.03265533333334, "fusion_lon": 0.0, "bike_id": "e1952ca31aabf2536c1f846a50f542dc", "type": "electric_scooter", "name": "e1952ca31aabf2536c1f846a50f542dc", "rental_uris": {"android": "https://dc.lft.to/lastmile_qr_scan", "ios": "https://dc.lft.to/lastmile_qr_scan"}, "is_disabled": 0, "fusion_lat": 0.0, "lat": 38.9377615, "is_reserved": 0}, {"lon": -77.033721, "fusion_lon": 0.0, "bike_id": "853b0bfc11772fa0351e29628d6c5a92", "type": "electric_scooter", "name": "853b0bfc11772fa0351e29628d6c5a92", "rental_uris": {"android": "https://dc.lft.to/lastmile_qr_scan", "ios": "https://dc.lft.to/lastmile_qr_scan"}, "is_disabled": 0, "fusion_lat": 0.0, "lat": 38.9235585, "is_reserved": 0}, {"lon": -77.033575, "fusion_lon": 0.0, "bike_id": "d8778620526aaecf636e030c810ba0f0", "type": "electric_scooter", "name": "d8778620526aaecf636e030c810ba0f0", "rental_uris": {"android": "https://dc.lft.to/lastmile_qr_scan", "ios": "https://dc.lft.to/lastmile_qr_scan"}, "is_disabled": 0, "fusion_lat": 0.0, "lat": 38.88698683333333, "is_reserved": 0}, {"lon": -77.026966, "fusion_lon": 0.0, "bike_id": "37d40477149cfb5b6dc6e8fb672b63af", "type": "electric_scooter", "name": "37d40477149cfb5b6dc6e8fb672b63af", "rental_uris": {"android": "https://dc.lft.to/lastmile_qr_scan", "ios": "https://dc.lft.to/lastmile_qr_scan"}, "is_disabled": 0, "fusion_lat": 0.0, "lat": 38.9070595, "is_reserved": 0}, {"lon": -77.05022733333334, "fusion_lon": 0.0, "bike_id": "1d7b98244ed01eb54059bd7505ed253f", "type": "electric_scooter", "name": "1d7b98244ed01eb54059bd7505ed253f", "rental_uris": {"android": "https://dc.lft.to/lastmile_qr_scan", "ios": "https://dc.lft.to/lastmile_qr_scan"}, "is_disabled": 0, "fusion_lat": 0.0, "lat": 38.906864666666664, "is_reserved": 0}, {"lon": -77.03326666666666, "fusion_lon": 0.0, "bike_id": "f3985c018dbb6e0d612434aec99e2619", "type": "electric_scooter", "name": "f3985c018dbb6e0d612434aec99e2619", "rental_uris": {"android": "https://dc.lft.to/lastmile_qr_scan", "ios": "https://dc.lft.to/lastmile_qr_scan"}, "is_disabled": 0, "fusion_lat": 0.0, "lat": 38.921594999999996, "is_reserved": 0}, {"lon": -77.03280716666667, "fusion_lon": 0.0, "bike_id": "00cf641853fd6f9a3b7c7e367386d756", "type": "electric_scooter", "name": "00cf641853fd6f9a3b7c7e367386d756", "rental_uris": {"android": "https://dc.lft.to/lastmile_qr_scan", "ios": "https://dc.lft.to/lastmile_qr_scan"}, "is_disabled": 0, "fusion_lat": 0.0, "lat": 38.937818666666665, "is_reserved": 0}, {"lon": -77.22889533333333, "fusion_lon": 0.0, "bike_id": "135c1baad9c1114a5195e7406b189a9c", "type": "electric_bike", "name": "135c1baad9c1114a5195e7406b189a9c", "rental_uris": {"android": "https://dc.lft.to/lastmile_qr_scan", "ios": "https://dc.lft.to/lastmile_qr_scan"}, "is_disabled": 0, "fusion_lat": 0.0, "lat": 38.90957483333333, "is_reserved": 0}, {"lon": -77.02330083333334, "fusion_lon": 0.0, "bike_id": "4bad037146f3ba78efd257ca3bfd98d9", "type": "electric_scooter", "name": "4bad037146f3ba78efd257ca3bfd98d9", "rental_uris": {"android": "https://dc.lft.to/lastmile_qr_scan", "ios": "https://dc.lft.to/lastmile_qr_scan"}, "is_disabled": 0, "fusion_lat": 0.0, "lat": 38.90851383333333, "is_reserved": 0}, {"lon": -77.033877, "fusion_lon": 0.0, "bike_id": "693f6a4e3055011074d9f75a6f7a3e04", "type": "electric_scooter", "name": "693f6a4e3055011074d9f75a6f7a3e04", "rental_uris": {"android": "https://dc.lft.to/lastmile_qr_scan", "ios": "https://dc.lft.to/lastmile_qr_scan"}, "is_disabled": 0, "fusion_lat": 0.0, "lat": 38.92355516666667, "is_reserved": 0}, {"lon": -77.00714416666666, "fusion_lon": 0.0, "bike_id": "15c8b8aa2b02dcf60c8fc4eebb91ff4f", "type": "electric_scooter", "name": "15c8b8aa2b02dcf60c8fc4eebb91ff4f", "rental_uris": {"android": "https://dc.lft.to/lastmile_qr_scan", "ios": "https://dc.lft.to/lastmile_qr_scan"}, "is_disabled": 0, "fusion_lat": 0.0, "lat": 38.88493883333334, "is_reserved": 0}, {"lon": -77.0332655, "fusion_lon": 0.0, "bike_id": "71fc72a3dbbf277395334f4b3eaceb06", "type": "electric_scooter", "name": "71fc72a3dbbf277395334f4b3eaceb06", "rental_uris": {"android": "https://dc.lft.to/lastmile_qr_scan", "ios": "https://dc.lft.to/lastmile_qr_scan"}, "is_disabled": 0, "fusion_lat": 0.0, "lat": 38.898431, "is_reserved": 0}, {"lon": -77.03308883333334, "fusion_lon": 0.0, "bike_id": "a30f66ade919e1b18361a2012ae86190", "type": "electric_scooter", "name": "a30f66ade919e1b18361a2012ae86190", "rental_uris": {"android": "https://dc.lft.to/lastmile_qr_scan", "ios": "https://dc.lft.to/lastmile_qr_scan"}, "is_disabled": 0, "fusion_lat": 0.0, "lat": 38.938986666666665, "is_reserved": 0}, {"lon": -77.04410016666667, "fusion_lon": 0.0, "bike_id": "be750396e4103335bf629ba47a1c04f9", "type": "electric_scooter", "name": "be750396e4103335bf629ba47a1c04f9", "rental_uris": {"android": "https://dc.lft.to/lastmile_qr_scan", "ios": "https://dc.lft.to/lastmile_qr_scan"}, "is_disabled": 0, "fusion_lat": 0.0, "lat": 38.934259833333336, "is_reserved": 0}, {"lon": -77.01972283333333, "fusion_lon": 0.0, "bike_id": "8d1d6e8e781c60fd36eefe47b95f2713", "type": "electric_scooter", "name": "8d1d6e8e781c60fd36eefe47b95f2713", "rental_uris": {"android": "https://dc.lft.to/lastmile_qr_scan", "ios": "https://dc.lft.to/lastmile_qr_scan"}, "is_disabled": 0, "fusion_lat": 0.0, "lat": 38.905034666666666, "is_reserved": 0}, {"lon": -77.02888533333333, "fusion_lon": 0.0, "bike_id": "25ad362e3d59c392a9b9f85b14288a17", "type": "electric_scooter", "name": "25ad362e3d59c392a9b9f85b14288a17", "rental_uris": {"android": "https://dc.lft.to/lastmile_qr_scan", "ios": "https://dc.lft.to/lastmile_qr_scan"}, "is_disabled": 0, "fusion_lat": 0.0, "lat": 38.88761316666667, "is_reserved": 0}, {"lon": -77.00698533333333, "fusion_lon": 0.0, "bike_id": "eb2a32afaf67e71dffec32c72e8dead9", "type": "electric_scooter", "name": "eb2a32afaf67e71dffec32c72e8dead9", "rental_uris": {"android": "https://dc.lft.to/lastmile_qr_scan", "ios": "https://dc.lft.to/lastmile_qr_scan"}, "is_disabled": 0, "fusion_lat": 0.0, "lat": 38.90512716666667, "is_reserved": 0}, {"lon": -77.02053583333333, "fusion_lon": 0.0, "bike_id": "dd28cc07730428b7bcf511082b1162a8", "type": "electric_scooter", "name": "dd28cc07730428b7bcf511082b1162a8", "rental_uris": {"android": "https://dc.lft.to/lastmile_qr_scan", "ios": "https://dc.lft.to/lastmile_qr_scan"}, "is_disabled": 0, "fusion_lat": 0.0, "lat": 38.92331216666667, "is_reserved": 0}, {"lon": -77.03103683333333, "fusion_lon": 0.0, "bike_id": "f83ec6390ee7a9d746592f2e5d2f61d2", "type": "electric_scooter", "name": "f83ec6390ee7a9d746592f2e5d2f61d2", "rental_uris": {"android": "https://dc.lft.to/lastmile_qr_scan", "ios": "https://dc.lft.to/lastmile_qr_scan"}, "is_disabled": 0, "fusion_lat": 0.0, "lat": 38.92382666666666, "is_reserved": 0}, {"lon": -77.03219466666667, "fusion_lon": 0.0, "bike_id": "0dab7c2ba2c665ce4b95044e808fdf95", "type": "electric_scooter", "name": "0dab7c2ba2c665ce4b95044e808fdf95", "rental_uris": {"android": "https://dc.lft.to/lastmile_qr_scan", "ios": "https://dc.lft.to/lastmile_qr_scan"}, "is_disabled": 0, "fusion_lat": 0.0, "lat": 38.914047, "is_reserved": 0}, {"lon": -77.02714533333334, "fusion_lon": 0.0, "bike_id": "a8b7e251ea395cae0626eb9c99599623", "type": "electric_scooter", "name": "a8b7e251ea395cae0626eb9c99599623", "rental_uris": {"android": "https://dc.lft.to/lastmile_qr_scan", "ios": "https://dc.lft.to/lastmile_qr_scan"}, "is_disabled": 0, "fusion_lat": 0.0, "lat": 38.92461683333333, "is_reserved": 0}, {"lon": -77.04520083333334, "fusion_lon": 0.0, "bike_id": "3859206e859017624750e37b062887fd", "type": "electric_bike", "name": "3859206e859017624750e37b062887fd", "rental_uris": {"android": "https://dc.lft.to/lastmile_qr_scan", "ios": "https://dc.lft.to/lastmile_qr_scan"}, "is_disabled": 0, "fusion_lat": 0.0, "lat": 38.90375983333333, "is_reserved": 0}, {"lon": -76.978274, "fusion_lon": 0.0, "bike_id": "26878de4a912cd1ec86ad9e1fec82d22", "type": "electric_scooter", "name": "26878de4a912cd1ec86ad9e1fec82d22", "rental_uris": {"android": "https://dc.lft.to/lastmile_qr_scan", "ios": "https://dc.lft.to/lastmile_qr_scan"}, "is_disabled": 0, "fusion_lat": 0.0, "lat": 38.898442833333334, "is_reserved": 0}, {"lon": -77.02970366666666, "fusion_lon": 0.0, "bike_id": "6d9758de3aab737a14f9e35af04436e9", "type": "electric_scooter", "name": "6d9758de3aab737a14f9e35af04436e9", "rental_uris": {"android": "https://dc.lft.to/lastmile_qr_scan", "ios": "https://dc.lft.to/lastmile_qr_scan"}, "is_disabled": 0, "fusion_lat": 0.0, "lat": 38.92342033333333, "is_reserved": 0}, {"lon": -76.98881666666666, "fusion_lon": 0.0, "bike_id": "8a050a91d49669c93917b1804cc765fa", "type": "electric_scooter", "name": "8a050a91d49669c93917b1804cc765fa", "rental_uris": {"android": "https://dc.lft.to/lastmile_qr_scan", "ios": "https://dc.lft.to/lastmile_qr_scan"}, "is_disabled": 0, "fusion_lat": 0.0, "lat": 38.86660216666667, "is_reserved": 0}, {"lon": -77.03858916666667, "fusion_lon": 0.0, "bike_id": "20aa9b6e5756ff77d9b13f3f5ef7c246", "type": "electric_scooter", "name": "20aa9b6e5756ff77d9b13f3f5ef7c246", "rental_uris": {"android": "https://dc.lft.to/lastmile_qr_scan", "ios": "https://dc.lft.to/lastmile_qr_scan"}, "is_disabled": 0, "fusion_lat": 0.0, "lat": 38.915454833333335, "is_reserved": 0}, {"lon": -77.042008, "fusion_lon": 0.0, "bike_id": "90b0eede4821b3cef56e6b129f54e3e5", "type": "electric_scooter", "name": "90b0eede4821b3cef56e6b129f54e3e5", "rental_uris": {"android": "https://dc.lft.to/lastmile_qr_scan", "ios": "https://dc.lft.to/lastmile_qr_scan"}, "is_disabled": 0, "fusion_lat": 0.0, "lat": 38.903616166666666, "is_reserved": 0}, {"lon": -76.972319, "fusion_lon": 0.0, "bike_id": "297c01774d067191bda6fb51b414b68e", "type": "electric_bike", "name": "297c01774d067191bda6fb51b414b68e", "rental_uris": {"android": "https://dc.lft.to/lastmile_qr_scan", "ios": "https://dc.lft.to/lastmile_qr_scan"}, "is_disabled": 0, "fusion_lat": 0.0, "lat": 38.900345333333334, "is_reserved": 0}, {"lon": -77.014371, "fusion_lon": 0.0, "bike_id": "0fd56cd9ba6442fe142967c9ec017ab6", "type": "electric_scooter", "name": "0fd56cd9ba6442fe142967c9ec017ab6", "rental_uris": {"android": "https://dc.lft.to/lastmile_qr_scan", "ios": "https://dc.lft.to/lastmile_qr_scan"}, "is_disabled": 0, "fusion_lat": 0.0, "lat": 38.913138833333335, "is_reserved": 0}, {"lon": -77.03667933333334, "fusion_lon": 0.0, "bike_id": "f19753beb09bc9c586b6bd7c9fc2c403", "type": "electric_scooter", "name": "f19753beb09bc9c586b6bd7c9fc2c403", "rental_uris": {"android": "https://dc.lft.to/lastmile_qr_scan", "ios": "https://dc.lft.to/lastmile_qr_scan"}, "is_disabled": 0, "fusion_lat": 0.0, "lat": 38.93173733333333, "is_reserved": 0}, {"lon": -77.05642066666667, "fusion_lon": 0.0, "bike_id": "6d7e93fbd5c3429ac28daa8b04bf3039", "type": "electric_scooter", "name": "6d7e93fbd5c3429ac28daa8b04bf3039", "rental_uris": {"android": "https://dc.lft.to/lastmile_qr_scan", "ios": "https://dc.lft.to/lastmile_qr_scan"}, "is_disabled": 0, "fusion_lat": 0.0, "lat": 38.923415, "is_reserved": 0}, {"lon": -77.02775383333334, "fusion_lon": 0.0, "bike_id": "b4298d8ff3893d8f72a13c20bb62771f", "type": "electric_scooter", "name": "b4298d8ff3893d8f72a13c20bb62771f", "rental_uris": {"android": "https://dc.lft.to/lastmile_qr_scan", "ios": "https://dc.lft.to/lastmile_qr_scan"}, "is_disabled": 0, "fusion_lat": 0.0, "lat": 38.896123333333335, "is_reserved": 0}, {"lon": -77.03635733333333, "fusion_lon": 0.0, "bike_id": "c49b9ec18cfb9288939fdddab453e284", "type": "electric_scooter", "name": "c49b9ec18cfb9288939fdddab453e284", "rental_uris": {"android": "https://dc.lft.to/lastmile_qr_scan", "ios": "https://dc.lft.to/lastmile_qr_scan"}, "is_disabled": 0, "fusion_lat": 0.0, "lat": 38.92813316666667, "is_reserved": 0}, {"lon": -77.04530783333334, "fusion_lon": 0.0, "bike_id": "676b3615866be4817308b4f0a06023e4", "type": "electric_scooter", "name": "676b3615866be4817308b4f0a06023e4", "rental_uris": {"android": "https://dc.lft.to/lastmile_qr_scan", "ios": "https://dc.lft.to/lastmile_qr_scan"}, "is_disabled": 0, "fusion_lat": 0.0, "lat": 38.93468716666667, "is_reserved": 0}, {"lon": -76.9479535, "fusion_lon": 0.0, "bike_id": "209e05650f888821ac96f8de21bbf1b9", "type": "electric_scooter", "name": "209e05650f888821ac96f8de21bbf1b9", "rental_uris": {"android": "https://dc.lft.to/lastmile_qr_scan", "ios": "https://dc.lft.to/lastmile_qr_scan"}, "is_disabled": 0, "fusion_lat": 0.0, "lat": 38.8963065, "is_reserved": 0}, {"lon": -76.98256216666667, "fusion_lon": 0.0, "bike_id": "b847b1bcaa8b4f9c6d9ff2603d0e4886", "type": "electric_bike", "name": "b847b1bcaa8b4f9c6d9ff2603d0e4886", "rental_uris": {"android": "https://dc.lft.to/lastmile_qr_scan", "ios": "https://dc.lft.to/lastmile_qr_scan"}, "is_disabled": 0, "fusion_lat": 0.0, "lat": 38.953339, "is_reserved": 0}, {"lon": -77.05919916666667, "fusion_lon": 0.0, "bike_id": "d8da40d8a8101976c3c7076befb6122b", "type": "electric_scooter", "name": "d8da40d8a8101976c3c7076befb6122b", "rental_uris": {"android": "https://dc.lft.to/lastmile_qr_scan", "ios": "https://dc.lft.to/lastmile_qr_scan"}, "is_disabled": 0, "fusion_lat": 0.0, "lat": 38.90281816666667, "is_reserved": 0}, {"lon": -77.03189833333333, "fusion_lon": 0.0, "bike_id": "51bf0fbee5f4800c4129d5dbe1b45fc6", "type": "electric_scooter", "name": "51bf0fbee5f4800c4129d5dbe1b45fc6", "rental_uris": {"android": "https://dc.lft.to/lastmile_qr_scan", "ios": "https://dc.lft.to/lastmile_qr_scan"}, "is_disabled": 0, "fusion_lat": 0.0, "lat": 38.91842333333334, "is_reserved": 0}, {"lon": -77.014589, "fusion_lon": 0.0, "bike_id": "209109914d00bbc3424801a6dc7c830c", "type": "electric_scooter", "name": "209109914d00bbc3424801a6dc7c830c", "rental_uris": {"android": "https://dc.lft.to/lastmile_qr_scan", "ios": "https://dc.lft.to/lastmile_qr_scan"}, "is_disabled": 0, "fusion_lat": 0.0, "lat": 38.91589783333333, "is_reserved": 0}, {"lon": -77.00556566666667, "fusion_lon": 0.0, "bike_id": "f035dd96289e6590dbdaf88d95f58bbb", "type": "electric_scooter", "name": "f035dd96289e6590dbdaf88d95f58bbb", "rental_uris": {"android": "https://dc.lft.to/lastmile_qr_scan", "ios": "https://dc.lft.to/lastmile_qr_scan"}, "is_disabled": 0, "fusion_lat": 0.0, "lat": 38.90237183333333, "is_reserved": 0}, {"lon": -77.022269, "fusion_lon": 0.0, "bike_id": "cf9752d1ee13e8c55eb96b218abceb4d", "type": "electric_scooter", "name": "cf9752d1ee13e8c55eb96b218abceb4d", "rental_uris": {"android": "https://dc.lft.to/lastmile_qr_scan", "ios": "https://dc.lft.to/lastmile_qr_scan"}, "is_disabled": 0, "fusion_lat": 0.0, "lat": 38.892199166666664, "is_reserved": 0}, {"lon": -77.03837366666667, "fusion_lon": 0.0, "bike_id": "35e93a548d903175cf7073788cc580f9", "type": "electric_scooter", "name": "35e93a548d903175cf7073788cc580f9", "rental_uris": {"android": "https://dc.lft.to/lastmile_qr_scan", "ios": "https://dc.lft.to/lastmile_qr_scan"}, "is_disabled": 0, "fusion_lat": 0.0, "lat": 38.941923, "is_reserved": 0}, {"lon": -77.00581033333333, "fusion_lon": 0.0, "bike_id": "6c251c959bfc31d240fde157930906bf", "type": "electric_scooter", "name": "6c251c959bfc31d240fde157930906bf", "rental_uris": {"android": "https://dc.lft.to/lastmile_qr_scan", "ios": "https://dc.lft.to/lastmile_qr_scan"}, "is_disabled": 0, "fusion_lat": 0.0, "lat": 38.87659083333333, "is_reserved": 0}, {"lon": -77.02976116666666, "fusion_lon": 0.0, "bike_id": "856338dcda2fcde163cc268188e1d4e1", "type": "electric_scooter", "name": "856338dcda2fcde163cc268188e1d4e1", "rental_uris": {"android": "https://dc.lft.to/lastmile_qr_scan", "ios": "https://dc.lft.to/lastmile_qr_scan"}, "is_disabled": 0, "fusion_lat": 0.0, "lat": 38.89039783333333, "is_reserved": 0}, {"lon": -77.047114, "fusion_lon": 0.0, "bike_id": "9c37edd6d321782d342d6ee8273102bc", "type": "electric_scooter", "name": "9c37edd6d321782d342d6ee8273102bc", "rental_uris": {"android": "https://dc.lft.to/lastmile_qr_scan", "ios": "https://dc.lft.to/lastmile_qr_scan"}, "is_disabled": 0, "fusion_lat": 0.0, "lat": 38.92187283333333, "is_reserved": 0}, {"lon": -77.0454985, "fusion_lon": 0.0, "bike_id": "d414375353eddaf71385fa2c1a0f8fb3", "type": "electric_scooter", "name": "d414375353eddaf71385fa2c1a0f8fb3", "rental_uris": {"android": "https://dc.lft.to/lastmile_qr_scan", "ios": "https://dc.lft.to/lastmile_qr_scan"}, "is_disabled": 0, "fusion_lat": 0.0, "lat": 38.915047, "is_reserved": 0}, {"lon": -77.02833333333334, "fusion_lon": 0.0, "bike_id": "20fc06660c4b591221e7576c503840f9", "type": "electric_scooter", "name": "20fc06660c4b591221e7576c503840f9", "rental_uris": {"android": "https://dc.lft.to/lastmile_qr_scan", "ios": "https://dc.lft.to/lastmile_qr_scan"}, "is_disabled": 0, "fusion_lat": 0.0, "lat": 38.893745833333334, "is_reserved": 0}, {"lon": -77.01727566666666, "fusion_lon": 0.0, "bike_id": "4bd828a6fce2baa77252dc80dba634b3", "type": "electric_scooter", "name": "4bd828a6fce2baa77252dc80dba634b3", "rental_uris": {"android": "https://dc.lft.to/lastmile_qr_scan", "ios": "https://dc.lft.to/lastmile_qr_scan"}, "is_disabled": 0, "fusion_lat": 0.0, "lat": 38.90281916666667, "is_reserved": 0}, {"lon": -77.038437, "fusion_lon": 0.0, "bike_id": "e9b1e6244695a76bd3ee7ff209107ffb", "type": "electric_scooter", "name": "e9b1e6244695a76bd3ee7ff209107ffb", "rental_uris": {"android": "https://dc.lft.to/lastmile_qr_scan", "ios": "https://dc.lft.to/lastmile_qr_scan"}, "is_disabled": 0, "fusion_lat": 0.0, "lat": 38.911321, "is_reserved": 0}, {"lon": -76.99990866666667, "fusion_lon": 0.0, "bike_id": "8831f17d852159868408ad2bf51276d0", "type": "electric_bike", "name": "8831f17d852159868408ad2bf51276d0", "rental_uris": {"android": "https://dc.lft.to/lastmile_qr_scan", "ios": "https://dc.lft.to/lastmile_qr_scan"}, "is_disabled": 0, "fusion_lat": 0.0, "lat": 38.964071833333335, "is_reserved": 0}, {"lon": -76.96902783333333, "fusion_lon": 0.0, "bike_id": "66311a789a34050ac5f3df437ac5c7ee", "type": "electric_bike", "name": "66311a789a34050ac5f3df437ac5c7ee", "rental_uris": {"android": "https://dc.lft.to/lastmile_qr_scan", "ios": "https://dc.lft.to/lastmile_qr_scan"}, "is_disabled": 0, "fusion_lat": 0.0, "lat": 38.959979833333335, "is_reserved": 0}, {"lon": -77.04654933333333, "fusion_lon": 0.0, "bike_id": "fca3d11dff701c923f074f5e405fec3c", "type": "electric_scooter", "name": "fca3d11dff701c923f074f5e405fec3c", "rental_uris": {"android": "https://dc.lft.to/lastmile_qr_scan", "ios": "https://dc.lft.to/lastmile_qr_scan"}, "is_disabled": 0, "fusion_lat": 0.0, "lat": 38.895102666666666, "is_reserved": 0}, {"lon": -77.02018466666667, "fusion_lon": 0.0, "bike_id": "a3c91acbdc8c37f8f651591799be6d2a", "type": "electric_scooter", "name": "a3c91acbdc8c37f8f651591799be6d2a", "rental_uris": {"android": "https://dc.lft.to/lastmile_qr_scan", "ios": "https://dc.lft.to/lastmile_qr_scan"}, "is_disabled": 0, "fusion_lat": 0.0, "lat": 38.90351583333333, "is_reserved": 0}, {"lon": -77.02100383333334, "fusion_lon": 0.0, "bike_id": "20168c2325bd65c2dae420e67862e730", "type": "electric_scooter", "name": "20168c2325bd65c2dae420e67862e730", "rental_uris": {"android": "https://dc.lft.to/lastmile_qr_scan", "ios": "https://dc.lft.to/lastmile_qr_scan"}, "is_disabled": 0, "fusion_lat": 0.0, "lat": 38.92706533333333, "is_reserved": 0}, {"lon": -77.044681, "fusion_lon": 0.0, "bike_id": "c9c5e67bcc34d18dd1a72eddd9cedf88", "type": "electric_scooter", "name": "c9c5e67bcc34d18dd1a72eddd9cedf88", "rental_uris": {"android": "https://dc.lft.to/lastmile_qr_scan", "ios": "https://dc.lft.to/lastmile_qr_scan"}, "is_disabled": 0, "fusion_lat": 0.0, "lat": 38.9094755, "is_reserved": 0}, {"lon": -77.04094183333333, "fusion_lon": 0.0, "bike_id": "95e27ee317b6aabe65874b4216ac47a1", "type": "electric_scooter", "name": "95e27ee317b6aabe65874b4216ac47a1", "rental_uris": {"android": "https://dc.lft.to/lastmile_qr_scan", "ios": "https://dc.lft.to/lastmile_qr_scan"}, "is_disabled": 0, "fusion_lat": 0.0, "lat": 38.903947, "is_reserved": 0}, {"lon": -77.04342966666667, "fusion_lon": 0.0, "bike_id": "443eed38122487dbd58955d113f7fabb", "type": "electric_scooter", "name": "443eed38122487dbd58955d113f7fabb", "rental_uris": {"android": "https://dc.lft.to/lastmile_qr_scan", "ios": "https://dc.lft.to/lastmile_qr_scan"}, "is_disabled": 0, "fusion_lat": 0.0, "lat": 38.900472666666666, "is_reserved": 0}, {"lon": -77.03980066666666, "fusion_lon": 0.0, "bike_id": "e5e2ac46dfb879a9ec1879929d4af1ed", "type": "electric_scooter", "name": "e5e2ac46dfb879a9ec1879929d4af1ed", "rental_uris": {"android": "https://dc.lft.to/lastmile_qr_scan", "ios": "https://dc.lft.to/lastmile_qr_scan"}, "is_disabled": 0, "fusion_lat": 0.0, "lat": 38.92315466666667, "is_reserved": 0}, {"lon": -77.01511333333333, "fusion_lon": 0.0, "bike_id": "5dc1d05bbe823797251feb0294d06925", "type": "electric_scooter", "name": "5dc1d05bbe823797251feb0294d06925", "rental_uris": {"android": "https://dc.lft.to/lastmile_qr_scan", "ios": "https://dc.lft.to/lastmile_qr_scan"}, "is_disabled": 0, "fusion_lat": 0.0, "lat": 38.912948, "is_reserved": 0}, {"lon": -77.04686966666667, "fusion_lon": 0.0, "bike_id": "bc13130a7f0db783317592613cb8488f", "type": "electric_scooter", "name": "bc13130a7f0db783317592613cb8488f", "rental_uris": {"android": "https://dc.lft.to/lastmile_qr_scan", "ios": "https://dc.lft.to/lastmile_qr_scan"}, "is_disabled": 0, "fusion_lat": 0.0, "lat": 38.8955585, "is_reserved": 0}, {"lon": -77.0221155, "fusion_lon": 0.0, "bike_id": "9157423bfff474d0d9dfd631a26834e0", "type": "electric_scooter", "name": "9157423bfff474d0d9dfd631a26834e0", "rental_uris": {"android": "https://dc.lft.to/lastmile_qr_scan", "ios": "https://dc.lft.to/lastmile_qr_scan"}, "is_disabled": 0, "fusion_lat": 0.0, "lat": 38.9155545, "is_reserved": 0}, {"lon": -77.03733083333333, "fusion_lon": 0.0, "bike_id": "9af7ca0fd1f886ddba5a0ebec5812e94", "type": "electric_scooter", "name": "9af7ca0fd1f886ddba5a0ebec5812e94", "rental_uris": {"android": "https://dc.lft.to/lastmile_qr_scan", "ios": "https://dc.lft.to/lastmile_qr_scan"}, "is_disabled": 0, "fusion_lat": 0.0, "lat": 38.90702066666667, "is_reserved": 0}, {"lon": -77.02819883333333, "fusion_lon": 0.0, "bike_id": "4d0ee448a1738dc8f0b8401dc70efb4b", "type": "electric_scooter", "name": "4d0ee448a1738dc8f0b8401dc70efb4b", "rental_uris": {"android": "https://dc.lft.to/lastmile_qr_scan", "ios": "https://dc.lft.to/lastmile_qr_scan"}, "is_disabled": 0, "fusion_lat": 0.0, "lat": 38.93059816666667, "is_reserved": 0}, {"lon": -77.00365183333334, "fusion_lon": 0.0, "bike_id": "3d0794b783989bdbddec1acbc9920f69", "type": "electric_scooter", "name": "3d0794b783989bdbddec1acbc9920f69", "rental_uris": {"android": "https://dc.lft.to/lastmile_qr_scan", "ios": "https://dc.lft.to/lastmile_qr_scan"}, "is_disabled": 0, "fusion_lat": 0.0, "lat": 38.877198166666666, "is_reserved": 0}, {"lon": -76.98697083333333, "fusion_lon": 0.0, "bike_id": "597d05e8bc089de73afb6bba5d04fe10", "type": "electric_scooter", "name": "597d05e8bc089de73afb6bba5d04fe10", "rental_uris": {"android": "https://dc.lft.to/lastmile_qr_scan", "ios": "https://dc.lft.to/lastmile_qr_scan"}, "is_disabled": 0, "fusion_lat": 0.0, "lat": 38.86720033333334, "is_reserved": 0}, {"lon": -77.045964, "fusion_lon": 0.0, "bike_id": "8b87dafd56e5eed95d25bd550416e0ec", "type": "electric_scooter", "name": "8b87dafd56e5eed95d25bd550416e0ec", "rental_uris": {"android": "https://dc.lft.to/lastmile_qr_scan", "ios": "https://dc.lft.to/lastmile_qr_scan"}, "is_disabled": 0, "fusion_lat": 0.0, "lat": 38.902522166666664, "is_reserved": 0}, {"lon": -77.04399383333333, "fusion_lon": 0.0, "bike_id": "5347d97d33a4d58c3e076e1d16ff8ca4", "type": "electric_scooter", "name": "5347d97d33a4d58c3e076e1d16ff8ca4", "rental_uris": {"android": "https://dc.lft.to/lastmile_qr_scan", "ios": "https://dc.lft.to/lastmile_qr_scan"}, "is_disabled": 0, "fusion_lat": 0.0, "lat": 38.902265666666665, "is_reserved": 0}, {"lon": -76.98685633333334, "fusion_lon": 0.0, "bike_id": "ba76c31d562586e65eb085fa767b0b14", "type": "electric_scooter", "name": "ba76c31d562586e65eb085fa767b0b14", "rental_uris": {"android": "https://dc.lft.to/lastmile_qr_scan", "ios": "https://dc.lft.to/lastmile_qr_scan"}, "is_disabled": 0, "fusion_lat": 0.0, "lat": 38.912878166666665, "is_reserved": 0}, {"lon": -77.03190566666666, "fusion_lon": 0.0, "bike_id": "05a50d826e899fcb5d36ed2e6797da24", "type": "electric_scooter", "name": "05a50d826e899fcb5d36ed2e6797da24", "rental_uris": {"android": "https://dc.lft.to/lastmile_qr_scan", "ios": "https://dc.lft.to/lastmile_qr_scan"}, "is_disabled": 0, "fusion_lat": 0.0, "lat": 38.91857733333333, "is_reserved": 0}, {"lon": -77.035141, "fusion_lon": 0.0, "bike_id": "28506d7b26f1ab8d9897eb9539fcecde", "type": "electric_scooter", "name": "28506d7b26f1ab8d9897eb9539fcecde", "rental_uris": {"android": "https://dc.lft.to/lastmile_qr_scan", "ios": "https://dc.lft.to/lastmile_qr_scan"}, "is_disabled": 0, "fusion_lat": 0.0, "lat": 38.92348033333333, "is_reserved": 0}, {"lon": -77.05002466666667, "fusion_lon": 0.0, "bike_id": "f3abc1c8579ba29f88c0435d968af7f6", "type": "electric_scooter", "name": "f3abc1c8579ba29f88c0435d968af7f6", "rental_uris": {"android": "https://dc.lft.to/lastmile_qr_scan", "ios": "https://dc.lft.to/lastmile_qr_scan"}, "is_disabled": 0, "fusion_lat": 0.0, "lat": 38.89228466666667, "is_reserved": 0}, {"lon": -76.95666616666666, "fusion_lon": 0.0, "bike_id": "2bb04d51a9d063920d1e2fa958b33965", "type": "electric_bike", "name": "2bb04d51a9d063920d1e2fa958b33965", "rental_uris": {"android": "https://dc.lft.to/lastmile_qr_scan", "ios": "https://dc.lft.to/lastmile_qr_scan"}, "is_disabled": 0, "fusion_lat": 0.0, "lat": 38.88473066666667, "is_reserved": 0}, {"lon": -77.04346133333334, "fusion_lon": 0.0, "bike_id": "7736837b9ed06de593cd2bcf0b0805e0", "type": "electric_scooter", "name": "7736837b9ed06de593cd2bcf0b0805e0", "rental_uris": {"android": "https://dc.lft.to/lastmile_qr_scan", "ios": "https://dc.lft.to/lastmile_qr_scan"}, "is_disabled": 0, "fusion_lat": 0.0, "lat": 38.90499483333333, "is_reserved": 0}, {"lon": -77.02967283333334, "fusion_lon": 0.0, "bike_id": "eabb17bef60cd2d8c197f5d2ec14bf7f", "type": "electric_scooter", "name": "eabb17bef60cd2d8c197f5d2ec14bf7f", "rental_uris": {"android": "https://dc.lft.to/lastmile_qr_scan", "ios": "https://dc.lft.to/lastmile_qr_scan"}, "is_disabled": 0, "fusion_lat": 0.0, "lat": 38.922627166666665, "is_reserved": 0}, {"lon": -77.0383295, "fusion_lon": 0.0, "bike_id": "0a3af7d475756f85d77becedacdbb5f9", "type": "electric_scooter", "name": "0a3af7d475756f85d77becedacdbb5f9", "rental_uris": {"android": "https://dc.lft.to/lastmile_qr_scan", "ios": "https://dc.lft.to/lastmile_qr_scan"}, "is_disabled": 0, "fusion_lat": 0.0, "lat": 38.911042, "is_reserved": 0}, {"lon": -77.04275083333333, "fusion_lon": 0.0, "bike_id": "d3e5d5d1f655a23fa35478c0c41e2879", "type": "electric_scooter", "name": "d3e5d5d1f655a23fa35478c0c41e2879", "rental_uris": {"android": "https://dc.lft.to/lastmile_qr_scan", "ios": "https://dc.lft.to/lastmile_qr_scan"}, "is_disabled": 0, "fusion_lat": 0.0, "lat": 38.90575183333333, "is_reserved": 0}, {"lon": -77.03831816666667, "fusion_lon": 0.0, "bike_id": "e52021b510f16e58db7e2ad4db00c0be", "type": "electric_scooter", "name": "e52021b510f16e58db7e2ad4db00c0be", "rental_uris": {"android": "https://dc.lft.to/lastmile_qr_scan", "ios": "https://dc.lft.to/lastmile_qr_scan"}, "is_disabled": 0, "fusion_lat": 0.0, "lat": 38.931414333333336, "is_reserved": 0}, {"lon": -77.0428895, "fusion_lon": 0.0, "bike_id": "d5fdf6bf348d7628446ef966e3f96067", "type": "electric_bike", "name": "d5fdf6bf348d7628446ef966e3f96067", "rental_uris": {"android": "https://dc.lft.to/lastmile_qr_scan", "ios": "https://dc.lft.to/lastmile_qr_scan"}, "is_disabled": 0, "fusion_lat": 0.0, "lat": 39.03426066666667, "is_reserved": 0}, {"lon": -77.02169683333334, "fusion_lon": 0.0, "bike_id": "72d06443c30221555197518b1121c299", "type": "electric_scooter", "name": "72d06443c30221555197518b1121c299", "rental_uris": {"android": "https://dc.lft.to/lastmile_qr_scan", "ios": "https://dc.lft.to/lastmile_qr_scan"}, "is_disabled": 0, "fusion_lat": 0.0, "lat": 38.910119, "is_reserved": 0}, {"lon": -77.036157, "fusion_lon": 0.0, "bike_id": "845c2705f2b1efcafc994fac481d2de0", "type": "electric_scooter", "name": "845c2705f2b1efcafc994fac481d2de0", "rental_uris": {"android": "https://dc.lft.to/lastmile_qr_scan", "ios": "https://dc.lft.to/lastmile_qr_scan"}, "is_disabled": 0, "fusion_lat": 0.0, "lat": 38.9173105, "is_reserved": 0}, {"lon": -77.03634216666667, "fusion_lon": 0.0, "bike_id": "323167ef1f96bf7628fa527a10720a3d", "type": "electric_scooter", "name": "323167ef1f96bf7628fa527a10720a3d", "rental_uris": {"android": "https://dc.lft.to/lastmile_qr_scan", "ios": "https://dc.lft.to/lastmile_qr_scan"}, "is_disabled": 0, "fusion_lat": 0.0, "lat": 38.92449383333334, "is_reserved": 0}, {"lon": -76.97782783333334, "fusion_lon": 0.0, "bike_id": "5ac4730023e4a6cf2052d48cf73bc24a", "type": "electric_scooter", "name": "5ac4730023e4a6cf2052d48cf73bc24a", "rental_uris": {"android": "https://dc.lft.to/lastmile_qr_scan", "ios": "https://dc.lft.to/lastmile_qr_scan"}, "is_disabled": 0, "fusion_lat": 0.0, "lat": 38.90571883333333, "is_reserved": 0}, {"lon": -77.04518016666667, "fusion_lon": 0.0, "bike_id": "e3ec020f9f45edc94b091615c567ad64", "type": "electric_scooter", "name": "e3ec020f9f45edc94b091615c567ad64", "rental_uris": {"android": "https://dc.lft.to/lastmile_qr_scan", "ios": "https://dc.lft.to/lastmile_qr_scan"}, "is_disabled": 0, "fusion_lat": 0.0, "lat": 38.90363716666667, "is_reserved": 0}, {"lon": -77.00062366666667, "fusion_lon": 0.0, "bike_id": "3017c7a84274f64223dcffe4f737748f", "type": "electric_scooter", "name": "3017c7a84274f64223dcffe4f737748f", "rental_uris": {"android": "https://dc.lft.to/lastmile_qr_scan", "ios": "https://dc.lft.to/lastmile_qr_scan"}, "is_disabled": 0, "fusion_lat": 0.0, "lat": 38.876916666666666, "is_reserved": 0}, {"lon": -77.03381716666667, "fusion_lon": 0.0, "bike_id": "2b1e0e1b32aa2c9beb2cc7ba7dd41790", "type": "electric_scooter", "name": "2b1e0e1b32aa2c9beb2cc7ba7dd41790", "rental_uris": {"android": "https://dc.lft.to/lastmile_qr_scan", "ios": "https://dc.lft.to/lastmile_qr_scan"}, "is_disabled": 0, "fusion_lat": 0.0, "lat": 38.921586166666664, "is_reserved": 0}, {"lon": -77.029919, "fusion_lon": 0.0, "bike_id": "5f41203337fce24e4fb565becca8b7d9", "type": "electric_scooter", "name": "5f41203337fce24e4fb565becca8b7d9", "rental_uris": {"android": "https://dc.lft.to/lastmile_qr_scan", "ios": "https://dc.lft.to/lastmile_qr_scan"}, "is_disabled": 0, "fusion_lat": 0.0, "lat": 38.897315666666664, "is_reserved": 0}, {"lon": -77.02426116666666, "fusion_lon": 0.0, "bike_id": "79b0d74989ef682ffcdd8902931a7965", "type": "electric_scooter", "name": "79b0d74989ef682ffcdd8902931a7965", "rental_uris": {"android": "https://dc.lft.to/lastmile_qr_scan", "ios": "https://dc.lft.to/lastmile_qr_scan"}, "is_disabled": 0, "fusion_lat": 0.0, "lat": 38.89696716666667, "is_reserved": 0}, {"lon": -77.08923066666667, "fusion_lon": 0.0, "bike_id": "fe7aa5283a09d51972de6c3a94c8fb30", "type": "electric_bike", "name": "fe7aa5283a09d51972de6c3a94c8fb30", "rental_uris": {"android": "https://dc.lft.to/lastmile_qr_scan", "ios": "https://dc.lft.to/lastmile_qr_scan"}, "is_disabled": 0, "fusion_lat": 0.0, "lat": 38.863367833333335, "is_reserved": 0}, {"lon": -77.0391245, "fusion_lon": 0.0, "bike_id": "6016394d320d565f46f3889053e141e6", "type": "electric_scooter", "name": "6016394d320d565f46f3889053e141e6", "rental_uris": {"android": "https://dc.lft.to/lastmile_qr_scan", "ios": "https://dc.lft.to/lastmile_qr_scan"}, "is_disabled": 0, "fusion_lat": 0.0, "lat": 38.92481683333333, "is_reserved": 0}, {"lon": -76.99798766666666, "fusion_lon": 0.0, "bike_id": "e7a6558334db6e65ebb6771ff0905d40", "type": "electric_bike", "name": "e7a6558334db6e65ebb6771ff0905d40", "rental_uris": {"android": "https://dc.lft.to/lastmile_qr_scan", "ios": "https://dc.lft.to/lastmile_qr_scan"}, "is_disabled": 0, "fusion_lat": 0.0, "lat": 38.95086966666667, "is_reserved": 0}, {"lon": -76.95758566666666, "fusion_lon": 0.0, "bike_id": "6979d4edd27358bc9a4c5b6d59b8def4", "type": "electric_scooter", "name": "6979d4edd27358bc9a4c5b6d59b8def4", "rental_uris": {"android": "https://dc.lft.to/lastmile_qr_scan", "ios": "https://dc.lft.to/lastmile_qr_scan"}, "is_disabled": 0, "fusion_lat": 0.0, "lat": 38.8842905, "is_reserved": 0}, {"lon": -77.03591016666667, "fusion_lon": 0.0, "bike_id": "3e965205a5ae3550013b455c2337d7a4", "type": "electric_scooter", "name": "3e965205a5ae3550013b455c2337d7a4", "rental_uris": {"android": "https://dc.lft.to/lastmile_qr_scan", "ios": "https://dc.lft.to/lastmile_qr_scan"}, "is_disabled": 0, "fusion_lat": 0.0, "lat": 38.93676833333333, "is_reserved": 0}, {"lon": -77.02291583333333, "fusion_lon": 0.0, "bike_id": "d895c5001feb8e89f0c5bf9969a3b49f", "type": "electric_scooter", "name": "d895c5001feb8e89f0c5bf9969a3b49f", "rental_uris": {"android": "https://dc.lft.to/lastmile_qr_scan", "ios": "https://dc.lft.to/lastmile_qr_scan"}, "is_disabled": 0, "fusion_lat": 0.0, "lat": 38.926973, "is_reserved": 0}, {"lon": -77.0057895, "fusion_lon": 0.0, "bike_id": "bfd01ff501ff016cc027766dbcf10bce", "type": "electric_scooter", "name": "bfd01ff501ff016cc027766dbcf10bce", "rental_uris": {"android": "https://dc.lft.to/lastmile_qr_scan", "ios": "https://dc.lft.to/lastmile_qr_scan"}, "is_disabled": 0, "fusion_lat": 0.0, "lat": 38.92941916666667, "is_reserved": 0}, {"lon": -77.00870683333333, "fusion_lon": 0.0, "bike_id": "bc2cc0faa0030fb89becf0b2b4d15006", "type": "electric_bike", "name": "bc2cc0faa0030fb89becf0b2b4d15006", "rental_uris": {"android": "https://dc.lft.to/lastmile_qr_scan", "ios": "https://dc.lft.to/lastmile_qr_scan"}, "is_disabled": 0, "fusion_lat": 0.0, "lat": 38.964659, "is_reserved": 0}, {"lon": -77.02981533333333, "fusion_lon": 0.0, "bike_id": "8bdc5cfc7813cd289e4739e337c58272", "type": "electric_scooter", "name": "8bdc5cfc7813cd289e4739e337c58272", "rental_uris": {"android": "https://dc.lft.to/lastmile_qr_scan", "ios": "https://dc.lft.to/lastmile_qr_scan"}, "is_disabled": 0, "fusion_lat": 0.0, "lat": 38.92275733333334, "is_reserved": 0}, {"lon": -76.94654966666667, "fusion_lon": 0.0, "bike_id": "85752b1abdd1daf3d0a594775b588df3", "type": "electric_scooter", "name": "85752b1abdd1daf3d0a594775b588df3", "rental_uris": {"android": "https://dc.lft.to/lastmile_qr_scan", "ios": "https://dc.lft.to/lastmile_qr_scan"}, "is_disabled": 0, "fusion_lat": 0.0, "lat": 38.89824383333333, "is_reserved": 0}, {"lon": -77.02124533333334, "fusion_lon": 0.0, "bike_id": "d34989aa219a688c8aa18e4a371ada09", "type": "electric_scooter", "name": "d34989aa219a688c8aa18e4a371ada09", "rental_uris": {"android": "https://dc.lft.to/lastmile_qr_scan", "ios": "https://dc.lft.to/lastmile_qr_scan"}, "is_disabled": 0, "fusion_lat": 0.0, "lat": 38.92238316666667, "is_reserved": 0}, {"lon": -77.0349735, "fusion_lon": 0.0, "bike_id": "3cd7a3e05202981971fc5009d4ed5ceb", "type": "electric_scooter", "name": "3cd7a3e05202981971fc5009d4ed5ceb", "rental_uris": {"android": "https://dc.lft.to/lastmile_qr_scan", "ios": "https://dc.lft.to/lastmile_qr_scan"}, "is_disabled": 0, "fusion_lat": 0.0, "lat": 38.92349316666667, "is_reserved": 0}, {"lon": -77.08660316666666, "fusion_lon": 0.0, "bike_id": "d8c46080f5a82ff6575f94e25782bb53", "type": "electric_bike", "name": "d8c46080f5a82ff6575f94e25782bb53", "rental_uris": {"android": "https://dc.lft.to/lastmile_qr_scan", "ios": "https://dc.lft.to/lastmile_qr_scan"}, "is_disabled": 0, "fusion_lat": 0.0, "lat": 38.86248466666667, "is_reserved": 0}, {"lon": -77.026386, "fusion_lon": 0.0, "bike_id": "ddb378b2029f13f64642f942bca74dfe", "type": "electric_scooter", "name": "ddb378b2029f13f64642f942bca74dfe", "rental_uris": {"android": "https://dc.lft.to/lastmile_qr_scan", "ios": "https://dc.lft.to/lastmile_qr_scan"}, "is_disabled": 0, "fusion_lat": 0.0, "lat": 38.936562333333335, "is_reserved": 0}, {"lon": -77.00188866666667, "fusion_lon": 0.0, "bike_id": "e1f9057169ded2be9c0ca409a2a2d6f5", "type": "electric_scooter", "name": "e1f9057169ded2be9c0ca409a2a2d6f5", "rental_uris": {"android": "https://dc.lft.to/lastmile_qr_scan", "ios": "https://dc.lft.to/lastmile_qr_scan"}, "is_disabled": 0, "fusion_lat": 0.0, "lat": 38.876713, "is_reserved": 0}, {"lon": -77.05169533333333, "fusion_lon": 0.0, "bike_id": "10cde86a8f20e732cc6196d2a63c6b0f", "type": "electric_scooter", "name": "10cde86a8f20e732cc6196d2a63c6b0f", "rental_uris": {"android": "https://dc.lft.to/lastmile_qr_scan", "ios": "https://dc.lft.to/lastmile_qr_scan"}, "is_disabled": 0, "fusion_lat": 0.0, "lat": 38.92404833333333, "is_reserved": 0}, {"lon": -77.00066116666666, "fusion_lon": 0.0, "bike_id": "1a07d055e59ca607caade0819e7d9517", "type": "electric_scooter", "name": "1a07d055e59ca607caade0819e7d9517", "rental_uris": {"android": "https://dc.lft.to/lastmile_qr_scan", "ios": "https://dc.lft.to/lastmile_qr_scan"}, "is_disabled": 0, "fusion_lat": 0.0, "lat": 38.83891066666666, "is_reserved": 0}, {"lon": -77.02715566666667, "fusion_lon": 0.0, "bike_id": "ee9eb50996ee06fc3747b2bcf67f2084", "type": "electric_scooter", "name": "ee9eb50996ee06fc3747b2bcf67f2084", "rental_uris": {"android": "https://dc.lft.to/lastmile_qr_scan", "ios": "https://dc.lft.to/lastmile_qr_scan"}, "is_disabled": 0, "fusion_lat": 0.0, "lat": 38.917203, "is_reserved": 0}, {"lon": -77.04253716666666, "fusion_lon": 0.0, "bike_id": "ba78d090ce6709439aee354ed52fca4e", "type": "electric_scooter", "name": "ba78d090ce6709439aee354ed52fca4e", "rental_uris": {"android": "https://dc.lft.to/lastmile_qr_scan", "ios": "https://dc.lft.to/lastmile_qr_scan"}, "is_disabled": 0, "fusion_lat": 0.0, "lat": 38.92246383333333, "is_reserved": 0}, {"lon": -77.0297395, "fusion_lon": 0.0, "bike_id": "8cb88ffcf4ac972d62d849bb8705e19c", "type": "electric_scooter", "name": "8cb88ffcf4ac972d62d849bb8705e19c", "rental_uris": {"android": "https://dc.lft.to/lastmile_qr_scan", "ios": "https://dc.lft.to/lastmile_qr_scan"}, "is_disabled": 0, "fusion_lat": 0.0, "lat": 38.9177885, "is_reserved": 0}, {"lon": -77.06951, "fusion_lon": 0.0, "bike_id": "c834e3d440b55490e90f42fe0d814b79", "type": "electric_bike", "name": "c834e3d440b55490e90f42fe0d814b79", "rental_uris": {"android": "https://dc.lft.to/lastmile_qr_scan", "ios": "https://dc.lft.to/lastmile_qr_scan"}, "is_disabled": 0, "fusion_lat": 0.0, "lat": 38.99535, "is_reserved": 0}, {"lon": -76.93398416666666, "fusion_lon": 0.0, "bike_id": "dea5c53f853e0c3726123612e8976c19", "type": "electric_scooter", "name": "dea5c53f853e0c3726123612e8976c19", "rental_uris": {"android": "https://dc.lft.to/lastmile_qr_scan", "ios": "https://dc.lft.to/lastmile_qr_scan"}, "is_disabled": 0, "fusion_lat": 0.0, "lat": 38.898912833333334, "is_reserved": 0}, {"lon": -77.027502, "fusion_lon": 0.0, "bike_id": "87ae19445c00115b6b50a4fe65c516c6", "type": "electric_scooter", "name": "87ae19445c00115b6b50a4fe65c516c6", "rental_uris": {"android": "https://dc.lft.to/lastmile_qr_scan", "ios": "https://dc.lft.to/lastmile_qr_scan"}, "is_disabled": 0, "fusion_lat": 0.0, "lat": 38.943010666666666, "is_reserved": 0}, {"lon": -77.03441083333334, "fusion_lon": 0.0, "bike_id": "51b5f697cb2f84e9d88d5adfdb7e8e8e", "type": "electric_scooter", "name": "51b5f697cb2f84e9d88d5adfdb7e8e8e", "rental_uris": {"android": "https://dc.lft.to/lastmile_qr_scan", "ios": "https://dc.lft.to/lastmile_qr_scan"}, "is_disabled": 0, "fusion_lat": 0.0, "lat": 38.903944333333335, "is_reserved": 0}, {"lon": -77.034188, "fusion_lon": 0.0, "bike_id": "ab770be348ae201b7cd92e819a8c1c5f", "type": "electric_scooter", "name": "ab770be348ae201b7cd92e819a8c1c5f", "rental_uris": {"android": "https://dc.lft.to/lastmile_qr_scan", "ios": "https://dc.lft.to/lastmile_qr_scan"}, "is_disabled": 0, "fusion_lat": 0.0, "lat": 38.9037325, "is_reserved": 0}, {"lon": -77.02489283333334, "fusion_lon": 0.0, "bike_id": "dd30c7585f5326d244e56f687ebb4ba0", "type": "electric_scooter", "name": "dd30c7585f5326d244e56f687ebb4ba0", "rental_uris": {"android": "https://dc.lft.to/lastmile_qr_scan", "ios": "https://dc.lft.to/lastmile_qr_scan"}, "is_disabled": 0, "fusion_lat": 0.0, "lat": 38.94182416666666, "is_reserved": 0}, {"lon": -76.99779383333333, "fusion_lon": 0.0, "bike_id": "102083a902b305d56b4c6ad84f4060da", "type": "electric_scooter", "name": "102083a902b305d56b4c6ad84f4060da", "rental_uris": {"android": "https://dc.lft.to/lastmile_qr_scan", "ios": "https://dc.lft.to/lastmile_qr_scan"}, "is_disabled": 0, "fusion_lat": 0.0, "lat": 38.844373166666664, "is_reserved": 0}, {"lon": -77.0468345, "fusion_lon": 0.0, "bike_id": "519938ef38b71f22c191eae42058c8f5", "type": "electric_scooter", "name": "519938ef38b71f22c191eae42058c8f5", "rental_uris": {"android": "https://dc.lft.to/lastmile_qr_scan", "ios": "https://dc.lft.to/lastmile_qr_scan"}, "is_disabled": 0, "fusion_lat": 0.0, "lat": 38.8988385, "is_reserved": 0}, {"lon": -76.98770416666666, "fusion_lon": 0.0, "bike_id": "c131b52bc399876e7934e1ad916d6d26", "type": "electric_scooter", "name": "c131b52bc399876e7934e1ad916d6d26", "rental_uris": {"android": "https://dc.lft.to/lastmile_qr_scan", "ios": "https://dc.lft.to/lastmile_qr_scan"}, "is_disabled": 0, "fusion_lat": 0.0, "lat": 38.90016416666667, "is_reserved": 0}, {"lon": -77.02476883333334, "fusion_lon": 0.0, "bike_id": "b95d0add1fac7fe7ba3ef21830aac150", "type": "electric_scooter", "name": "b95d0add1fac7fe7ba3ef21830aac150", "rental_uris": {"android": "https://dc.lft.to/lastmile_qr_scan", "ios": "https://dc.lft.to/lastmile_qr_scan"}, "is_disabled": 0, "fusion_lat": 0.0, "lat": 38.931029, "is_reserved": 0}, {"lon": -77.027177, "fusion_lon": 0.0, "bike_id": "1ffee36688b3d61f12385cae06d77339", "type": "electric_scooter", "name": "1ffee36688b3d61f12385cae06d77339", "rental_uris": {"android": "https://dc.lft.to/lastmile_qr_scan", "ios": "https://dc.lft.to/lastmile_qr_scan"}, "is_disabled": 0, "fusion_lat": 0.0, "lat": 38.90789566666667, "is_reserved": 0}, {"lon": -77.03850783333333, "fusion_lon": 0.0, "bike_id": "ed9164b95a0c170ce37e6b105e27046a", "type": "electric_scooter", "name": "ed9164b95a0c170ce37e6b105e27046a", "rental_uris": {"android": "https://dc.lft.to/lastmile_qr_scan", "ios": "https://dc.lft.to/lastmile_qr_scan"}, "is_disabled": 0, "fusion_lat": 0.0, "lat": 38.90316283333333, "is_reserved": 0}, {"lon": -77.04534583333333, "fusion_lon": 0.0, "bike_id": "2803e3368b3f934b6c4d993a20b441a9", "type": "electric_scooter", "name": "2803e3368b3f934b6c4d993a20b441a9", "rental_uris": {"android": "https://dc.lft.to/lastmile_qr_scan", "ios": "https://dc.lft.to/lastmile_qr_scan"}, "is_disabled": 0, "fusion_lat": 0.0, "lat": 38.894748, "is_reserved": 0}, {"lon": -77.03447966666667, "fusion_lon": 0.0, "bike_id": "54151f10b901d1d5cb0a3305ca7ea0d8", "type": "electric_scooter", "name": "54151f10b901d1d5cb0a3305ca7ea0d8", "rental_uris": {"android": "https://dc.lft.to/lastmile_qr_scan", "ios": "https://dc.lft.to/lastmile_qr_scan"}, "is_disabled": 0, "fusion_lat": 0.0, "lat": 38.902586166666666, "is_reserved": 0}, {"lon": -77.0326245, "fusion_lon": 0.0, "bike_id": "12cedd7b2b3f8eabf2cc2dc0eb7d2731", "type": "electric_scooter", "name": "12cedd7b2b3f8eabf2cc2dc0eb7d2731", "rental_uris": {"android": "https://dc.lft.to/lastmile_qr_scan", "ios": "https://dc.lft.to/lastmile_qr_scan"}, "is_disabled": 0, "fusion_lat": 0.0, "lat": 38.89723866666667, "is_reserved": 0}, {"lon": -76.93734333333333, "fusion_lon": 0.0, "bike_id": "f01e80c1f5b11629bfc3686203353873", "type": "electric_scooter", "name": "f01e80c1f5b11629bfc3686203353873", "rental_uris": {"android": "https://dc.lft.to/lastmile_qr_scan", "ios": "https://dc.lft.to/lastmile_qr_scan"}, "is_disabled": 0, "fusion_lat": 0.0, "lat": 38.89019483333333, "is_reserved": 0}, {"lon": -77.027163, "fusion_lon": 0.0, "bike_id": "a7c56606fcc8776e2d97b2bc6eec492f", "type": "electric_scooter", "name": "a7c56606fcc8776e2d97b2bc6eec492f", "rental_uris": {"android": "https://dc.lft.to/lastmile_qr_scan", "ios": "https://dc.lft.to/lastmile_qr_scan"}, "is_disabled": 0, "fusion_lat": 0.0, "lat": 38.91721366666667, "is_reserved": 0}, {"lon": -77.02289916666666, "fusion_lon": 0.0, "bike_id": "f47b07a0ade9a602fbe3dfd361805c35", "type": "electric_scooter", "name": "f47b07a0ade9a602fbe3dfd361805c35", "rental_uris": {"android": "https://dc.lft.to/lastmile_qr_scan", "ios": "https://dc.lft.to/lastmile_qr_scan"}, "is_disabled": 0, "fusion_lat": 0.0, "lat": 38.916887833333334, "is_reserved": 0}, {"lon": -77.045853, "fusion_lon": 0.0, "bike_id": "dd75e3e28e96603e21009f1af759a0ff", "type": "electric_scooter", "name": "dd75e3e28e96603e21009f1af759a0ff", "rental_uris": {"android": "https://dc.lft.to/lastmile_qr_scan", "ios": "https://dc.lft.to/lastmile_qr_scan"}, "is_disabled": 0, "fusion_lat": 0.0, "lat": 38.92152933333333, "is_reserved": 0}, {"lon": -76.9041885, "fusion_lon": 0.0, "bike_id": "364909e86b7466f133f1eda9103c5975", "type": "electric_bike", "name": "364909e86b7466f133f1eda9103c5975", "rental_uris": {"android": "https://dc.lft.to/lastmile_qr_scan", "ios": "https://dc.lft.to/lastmile_qr_scan"}, "is_disabled": 0, "fusion_lat": 0.0, "lat": 38.9405395, "is_reserved": 0}, {"lon": -77.00816766666667, "fusion_lon": 0.0, "bike_id": "5494dc0e7916994f07dfb388cb7172f1", "type": "electric_scooter", "name": "5494dc0e7916994f07dfb388cb7172f1", "rental_uris": {"android": "https://dc.lft.to/lastmile_qr_scan", "ios": "https://dc.lft.to/lastmile_qr_scan"}, "is_disabled": 0, "fusion_lat": 0.0, "lat": 38.831608333333335, "is_reserved": 0}, {"lon": -77.04329683333333, "fusion_lon": 0.0, "bike_id": "9ec8fd373c0afaa076ea6eafbbdcfe06", "type": "electric_scooter", "name": "9ec8fd373c0afaa076ea6eafbbdcfe06", "rental_uris": {"android": "https://dc.lft.to/lastmile_qr_scan", "ios": "https://dc.lft.to/lastmile_qr_scan"}, "is_disabled": 0, "fusion_lat": 0.0, "lat": 38.90420233333333, "is_reserved": 0}, {"lon": -77.035695, "fusion_lon": 0.0, "bike_id": "f72bfbbbccced5aa1780983e6c437ceb", "type": "electric_scooter", "name": "f72bfbbbccced5aa1780983e6c437ceb", "rental_uris": {"android": "https://dc.lft.to/lastmile_qr_scan", "ios": "https://dc.lft.to/lastmile_qr_scan"}, "is_disabled": 0, "fusion_lat": 0.0, "lat": 38.91882533333333, "is_reserved": 0}, {"lon": -77.0384895, "fusion_lon": 0.0, "bike_id": "97ecd1e5b43f85c91c59f808602f2ec3", "type": "electric_scooter", "name": "97ecd1e5b43f85c91c59f808602f2ec3", "rental_uris": {"android": "https://dc.lft.to/lastmile_qr_scan", "ios": "https://dc.lft.to/lastmile_qr_scan"}, "is_disabled": 0, "fusion_lat": 0.0, "lat": 38.90326666666667, "is_reserved": 0}, {"lon": -77.0258555, "fusion_lon": 0.0, "bike_id": "21149d52d4658e9cf1e29e940348a94a", "type": "electric_scooter", "name": "21149d52d4658e9cf1e29e940348a94a", "rental_uris": {"android": "https://dc.lft.to/lastmile_qr_scan", "ios": "https://dc.lft.to/lastmile_qr_scan"}, "is_disabled": 0, "fusion_lat": 0.0, "lat": 38.920353, "is_reserved": 0}, {"lon": -77.03351783333333, "fusion_lon": 0.0, "bike_id": "70df3d8b0ec6fe55cadb7f6f883babc8", "type": "electric_scooter", "name": "70df3d8b0ec6fe55cadb7f6f883babc8", "rental_uris": {"android": "https://dc.lft.to/lastmile_qr_scan", "ios": "https://dc.lft.to/lastmile_qr_scan"}, "is_disabled": 0, "fusion_lat": 0.0, "lat": 38.92883116666667, "is_reserved": 0}, {"lon": -77.00225283333333, "fusion_lon": 0.0, "bike_id": "804eed2d3c91f1cc17db58e933550879", "type": "electric_scooter", "name": "804eed2d3c91f1cc17db58e933550879", "rental_uris": {"android": "https://dc.lft.to/lastmile_qr_scan", "ios": "https://dc.lft.to/lastmile_qr_scan"}, "is_disabled": 0, "fusion_lat": 0.0, "lat": 38.925096, "is_reserved": 0}, {"lon": -76.94642116666667, "fusion_lon": 0.0, "bike_id": "2fe0b009b02ca200380c977db63ab65e", "type": "electric_scooter", "name": "2fe0b009b02ca200380c977db63ab65e", "rental_uris": {"android": "https://dc.lft.to/lastmile_qr_scan", "ios": "https://dc.lft.to/lastmile_qr_scan"}, "is_disabled": 0, "fusion_lat": 0.0, "lat": 38.8986115, "is_reserved": 0}, {"lon": -77.07239533333333, "fusion_lon": 0.0, "bike_id": "6bdf8d4ce9028471fb091b0a1e34ba72", "type": "electric_scooter", "name": "6bdf8d4ce9028471fb091b0a1e34ba72", "rental_uris": {"android": "https://dc.lft.to/lastmile_qr_scan", "ios": "https://dc.lft.to/lastmile_qr_scan"}, "is_disabled": 0, "fusion_lat": 0.0, "lat": 38.93955483333333, "is_reserved": 0}, {"lon": -77.12526516666667, "fusion_lon": 0.0, "bike_id": "010fa5c52155d04b067ea6c228ffdebf", "type": "electric_bike", "name": "010fa5c52155d04b067ea6c228ffdebf", "rental_uris": {"android": "https://dc.lft.to/lastmile_qr_scan", "ios": "https://dc.lft.to/lastmile_qr_scan"}, "is_disabled": 0, "fusion_lat": 0.0, "lat": 39.05631433333333, "is_reserved": 0}, {"lon": -77.02599866666667, "fusion_lon": 0.0, "bike_id": "90b320ea631359dd46bf31727c2e1c6d", "type": "electric_scooter", "name": "90b320ea631359dd46bf31727c2e1c6d", "rental_uris": {"android": "https://dc.lft.to/lastmile_qr_scan", "ios": "https://dc.lft.to/lastmile_qr_scan"}, "is_disabled": 0, "fusion_lat": 0.0, "lat": 38.90676033333333, "is_reserved": 0}, {"lon": -77.012556, "fusion_lon": 0.0, "bike_id": "d8b858e267bfc3256793f683e2b344b7", "type": "electric_scooter", "name": "d8b858e267bfc3256793f683e2b344b7", "rental_uris": {"android": "https://dc.lft.to/lastmile_qr_scan", "ios": "https://dc.lft.to/lastmile_qr_scan"}, "is_disabled": 0, "fusion_lat": 0.0, "lat": 38.918175833333336, "is_reserved": 0}, {"lon": -76.97176866666666, "fusion_lon": 0.0, "bike_id": "a847ffdc5445bc7457840cd539160555", "type": "electric_scooter", "name": "a847ffdc5445bc7457840cd539160555", "rental_uris": {"android": "https://dc.lft.to/lastmile_qr_scan", "ios": "https://dc.lft.to/lastmile_qr_scan"}, "is_disabled": 0, "fusion_lat": 0.0, "lat": 38.861368166666665, "is_reserved": 0}, {"lon": -77.04654366666666, "fusion_lon": 0.0, "bike_id": "87a0c110eb688e7bae296b6abfb1a7d9", "type": "electric_scooter", "name": "87a0c110eb688e7bae296b6abfb1a7d9", "rental_uris": {"android": "https://dc.lft.to/lastmile_qr_scan", "ios": "https://dc.lft.to/lastmile_qr_scan"}, "is_disabled": 0, "fusion_lat": 0.0, "lat": 38.902198166666665, "is_reserved": 0}, {"lon": -77.04205633333333, "fusion_lon": 0.0, "bike_id": "cc876c619402c819c94c4febacbebded", "type": "electric_scooter", "name": "cc876c619402c819c94c4febacbebded", "rental_uris": {"android": "https://dc.lft.to/lastmile_qr_scan", "ios": "https://dc.lft.to/lastmile_qr_scan"}, "is_disabled": 0, "fusion_lat": 0.0, "lat": 38.921009166666664, "is_reserved": 0}, {"lon": -77.02456116666667, "fusion_lon": 0.0, "bike_id": "f905fa4458c4e561a3a4bc4302452de6", "type": "electric_scooter", "name": "f905fa4458c4e561a3a4bc4302452de6", "rental_uris": {"android": "https://dc.lft.to/lastmile_qr_scan", "ios": "https://dc.lft.to/lastmile_qr_scan"}, "is_disabled": 0, "fusion_lat": 0.0, "lat": 38.90867216666667, "is_reserved": 0}, {"lon": -76.990078, "fusion_lon": 0.0, "bike_id": "9cd7e6749970e65def6feed25ec2f9d8", "type": "electric_scooter", "name": "9cd7e6749970e65def6feed25ec2f9d8", "rental_uris": {"android": "https://dc.lft.to/lastmile_qr_scan", "ios": "https://dc.lft.to/lastmile_qr_scan"}, "is_disabled": 0, "fusion_lat": 0.0, "lat": 38.90386516666667, "is_reserved": 0}, {"lon": -77.05736116666667, "fusion_lon": 0.0, "bike_id": "0136439a7754d7d7e01fc9fe17a860a8", "type": "electric_scooter", "name": "0136439a7754d7d7e01fc9fe17a860a8", "rental_uris": {"android": "https://dc.lft.to/lastmile_qr_scan", "ios": "https://dc.lft.to/lastmile_qr_scan"}, "is_disabled": 0, "fusion_lat": 0.0, "lat": 38.933751666666666, "is_reserved": 0}, {"lon": -77.01222066666666, "fusion_lon": 0.0, "bike_id": "e73e77da7fbaa9971f6aba954e8ec06f", "type": "electric_scooter", "name": "e73e77da7fbaa9971f6aba954e8ec06f", "rental_uris": {"android": "https://dc.lft.to/lastmile_qr_scan", "ios": "https://dc.lft.to/lastmile_qr_scan"}, "is_disabled": 0, "fusion_lat": 0.0, "lat": 38.91548233333333, "is_reserved": 0}, {"lon": -77.0586525, "fusion_lon": 0.0, "bike_id": "2d75e64180670ce4204ad19e1c45997a", "type": "electric_bike", "name": "2d75e64180670ce4204ad19e1c45997a", "rental_uris": {"android": "https://dc.lft.to/lastmile_qr_scan", "ios": "https://dc.lft.to/lastmile_qr_scan"}, "is_disabled": 0, "fusion_lat": 0.0, "lat": 38.93606166666667, "is_reserved": 0}, {"lon": -77.00608183333334, "fusion_lon": 0.0, "bike_id": "aaaf5671688c5a5816a9a146f7ab4ffe", "type": "electric_scooter", "name": "aaaf5671688c5a5816a9a146f7ab4ffe", "rental_uris": {"android": "https://dc.lft.to/lastmile_qr_scan", "ios": "https://dc.lft.to/lastmile_qr_scan"}, "is_disabled": 0, "fusion_lat": 0.0, "lat": 38.911186666666666, "is_reserved": 0}, {"lon": -77.07758016666666, "fusion_lon": 0.0, "bike_id": "a882cfaacf8eb3f5f4d6136be898a3ef", "type": "electric_scooter", "name": "a882cfaacf8eb3f5f4d6136be898a3ef", "rental_uris": {"android": "https://dc.lft.to/lastmile_qr_scan", "ios": "https://dc.lft.to/lastmile_qr_scan"}, "is_disabled": 0, "fusion_lat": 0.0, "lat": 38.919995666666665, "is_reserved": 0}, {"lon": -77.01181616666666, "fusion_lon": 0.0, "bike_id": "4d27bf30f9a585f58fd929c6e4847dc1", "type": "electric_scooter", "name": "4d27bf30f9a585f58fd929c6e4847dc1", "rental_uris": {"android": "https://dc.lft.to/lastmile_qr_scan", "ios": "https://dc.lft.to/lastmile_qr_scan"}, "is_disabled": 0, "fusion_lat": 0.0, "lat": 38.900377, "is_reserved": 0}, {"lon": -76.9833805, "fusion_lon": 0.0, "bike_id": "5d1cb0f77bbdc323c6b96585b4be805a", "type": "electric_scooter", "name": "5d1cb0f77bbdc323c6b96585b4be805a", "rental_uris": {"android": "https://dc.lft.to/lastmile_qr_scan", "ios": "https://dc.lft.to/lastmile_qr_scan"}, "is_disabled": 0, "fusion_lat": 0.0, "lat": 38.86564766666667, "is_reserved": 0}, {"lon": -77.01741483333333, "fusion_lon": 0.0, "bike_id": "cb8c6c86ef22b33397cca9da4fd69048", "type": "electric_scooter", "name": "cb8c6c86ef22b33397cca9da4fd69048", "rental_uris": {"android": "https://dc.lft.to/lastmile_qr_scan", "ios": "https://dc.lft.to/lastmile_qr_scan"}, "is_disabled": 0, "fusion_lat": 0.0, "lat": 38.92045783333333, "is_reserved": 0}, {"lon": -77.04851983333333, "fusion_lon": 0.0, "bike_id": "014e68f03a1c0f822b24c49cbbeebe1c", "type": "electric_scooter", "name": "014e68f03a1c0f822b24c49cbbeebe1c", "rental_uris": {"android": "https://dc.lft.to/lastmile_qr_scan", "ios": "https://dc.lft.to/lastmile_qr_scan"}, "is_disabled": 0, "fusion_lat": 0.0, "lat": 38.91525, "is_reserved": 0}, {"lon": -77.03454783333333, "fusion_lon": 0.0, "bike_id": "d4f339bb1c4615ea5117d6ccfd686f7a", "type": "electric_scooter", "name": "d4f339bb1c4615ea5117d6ccfd686f7a", "rental_uris": {"android": "https://dc.lft.to/lastmile_qr_scan", "ios": "https://dc.lft.to/lastmile_qr_scan"}, "is_disabled": 0, "fusion_lat": 0.0, "lat": 38.903032333333336, "is_reserved": 0}, {"lon": -77.031883, "fusion_lon": 0.0, "bike_id": "313836738f17f8eacb5a809110ed9fb2", "type": "electric_scooter", "name": "313836738f17f8eacb5a809110ed9fb2", "rental_uris": {"android": "https://dc.lft.to/lastmile_qr_scan", "ios": "https://dc.lft.to/lastmile_qr_scan"}, "is_disabled": 0, "fusion_lat": 0.0, "lat": 38.92486133333333, "is_reserved": 0}, {"lon": -77.0709055, "fusion_lon": 0.0, "bike_id": "37a04515a1b128b2eaf191ac41f9767c", "type": "electric_bike", "name": "37a04515a1b128b2eaf191ac41f9767c", "rental_uris": {"android": "https://dc.lft.to/lastmile_qr_scan", "ios": "https://dc.lft.to/lastmile_qr_scan"}, "is_disabled": 0, "fusion_lat": 0.0, "lat": 38.89471266666666, "is_reserved": 0}, {"lon": -77.016196, "fusion_lon": 0.0, "bike_id": "356011a88b8bf6e2de0adcd776e9f599", "type": "electric_scooter", "name": "356011a88b8bf6e2de0adcd776e9f599", "rental_uris": {"android": "https://dc.lft.to/lastmile_qr_scan", "ios": "https://dc.lft.to/lastmile_qr_scan"}, "is_disabled": 0, "fusion_lat": 0.0, "lat": 38.901835166666665, "is_reserved": 0}, {"lon": -77.00055016666667, "fusion_lon": 0.0, "bike_id": "5d9463ca1245be98c57e887a89f858c6", "type": "electric_scooter", "name": "5d9463ca1245be98c57e887a89f858c6", "rental_uris": {"android": "https://dc.lft.to/lastmile_qr_scan", "ios": "https://dc.lft.to/lastmile_qr_scan"}, "is_disabled": 0, "fusion_lat": 0.0, "lat": 38.92362033333333, "is_reserved": 0}, {"lon": -76.99257083333333, "fusion_lon": 0.0, "bike_id": "e11103b89b622b186b000c88e5a0d18f", "type": "electric_scooter", "name": "e11103b89b622b186b000c88e5a0d18f", "rental_uris": {"android": "https://dc.lft.to/lastmile_qr_scan", "ios": "https://dc.lft.to/lastmile_qr_scan"}, "is_disabled": 0, "fusion_lat": 0.0, "lat": 38.8981445, "is_reserved": 0}, {"lon": -76.99994183333334, "fusion_lon": 0.0, "bike_id": "2537bb0cbbb93021e0e864727a1bafed", "type": "electric_scooter", "name": "2537bb0cbbb93021e0e864727a1bafed", "rental_uris": {"android": "https://dc.lft.to/lastmile_qr_scan", "ios": "https://dc.lft.to/lastmile_qr_scan"}, "is_disabled": 0, "fusion_lat": 0.0, "lat": 38.87496, "is_reserved": 0}, {"lon": -76.9800635, "fusion_lon": 0.0, "bike_id": "677108b8e0756d1fc59adcf77b379734", "type": "electric_scooter", "name": "677108b8e0756d1fc59adcf77b379734", "rental_uris": {"android": "https://dc.lft.to/lastmile_qr_scan", "ios": "https://dc.lft.to/lastmile_qr_scan"}, "is_disabled": 0, "fusion_lat": 0.0, "lat": 38.86429183333333, "is_reserved": 0}, {"lon": -77.02558783333333, "fusion_lon": 0.0, "bike_id": "a48ac0097ce024006bf0d54723a129c5", "type": "electric_scooter", "name": "a48ac0097ce024006bf0d54723a129c5", "rental_uris": {"android": "https://dc.lft.to/lastmile_qr_scan", "ios": "https://dc.lft.to/lastmile_qr_scan"}, "is_disabled": 0, "fusion_lat": 0.0, "lat": 38.941759833333336, "is_reserved": 0}, {"lon": -77.03303266666667, "fusion_lon": 0.0, "bike_id": "6c5584c1ca81386c1bbb1dd4ab9ee335", "type": "electric_scooter", "name": "6c5584c1ca81386c1bbb1dd4ab9ee335", "rental_uris": {"android": "https://dc.lft.to/lastmile_qr_scan", "ios": "https://dc.lft.to/lastmile_qr_scan"}, "is_disabled": 0, "fusion_lat": 0.0, "lat": 38.95638133333333, "is_reserved": 0}, {"lon": -77.00689483333333, "fusion_lon": 0.0, "bike_id": "fc503e68e5b5cbcb1528c7b8948db51c", "type": "electric_scooter", "name": "fc503e68e5b5cbcb1528c7b8948db51c", "rental_uris": {"android": "https://dc.lft.to/lastmile_qr_scan", "ios": "https://dc.lft.to/lastmile_qr_scan"}, "is_disabled": 0, "fusion_lat": 0.0, "lat": 38.900245, "is_reserved": 0}, {"lon": -77.0296955, "fusion_lon": 0.0, "bike_id": "14b17f5a4850ad6055dd477d61800976", "type": "electric_scooter", "name": "14b17f5a4850ad6055dd477d61800976", "rental_uris": {"android": "https://dc.lft.to/lastmile_qr_scan", "ios": "https://dc.lft.to/lastmile_qr_scan"}, "is_disabled": 0, "fusion_lat": 0.0, "lat": 38.91299333333333, "is_reserved": 0}, {"lon": -77.03839983333333, "fusion_lon": 0.0, "bike_id": "ced32b82ffb0921ff35dfd461afb3cfa", "type": "electric_scooter", "name": "ced32b82ffb0921ff35dfd461afb3cfa", "rental_uris": {"android": "https://dc.lft.to/lastmile_qr_scan", "ios": "https://dc.lft.to/lastmile_qr_scan"}, "is_disabled": 0, "fusion_lat": 0.0, "lat": 38.90292216666667, "is_reserved": 0}, {"lon": -76.99039633333334, "fusion_lon": 0.0, "bike_id": "6d83a36d7247f9dc79413ed277f02120", "type": "electric_scooter", "name": "6d83a36d7247f9dc79413ed277f02120", "rental_uris": {"android": "https://dc.lft.to/lastmile_qr_scan", "ios": "https://dc.lft.to/lastmile_qr_scan"}, "is_disabled": 0, "fusion_lat": 0.0, "lat": 38.86390983333333, "is_reserved": 0}, {"lon": -77.04013683333334, "fusion_lon": 0.0, "bike_id": "15a63a0539c7ab47c5cd47c35182842c", "type": "electric_scooter", "name": "15a63a0539c7ab47c5cd47c35182842c", "rental_uris": {"android": "https://dc.lft.to/lastmile_qr_scan", "ios": "https://dc.lft.to/lastmile_qr_scan"}, "is_disabled": 0, "fusion_lat": 0.0, "lat": 38.896269, "is_reserved": 0}, {"lon": -77.03711733333333, "fusion_lon": 0.0, "bike_id": "e2f206f41f13cd338c1ebe19574ae4d2", "type": "electric_scooter", "name": "e2f206f41f13cd338c1ebe19574ae4d2", "rental_uris": {"android": "https://dc.lft.to/lastmile_qr_scan", "ios": "https://dc.lft.to/lastmile_qr_scan"}, "is_disabled": 0, "fusion_lat": 0.0, "lat": 38.90248416666667, "is_reserved": 0}, {"lon": -76.98339266666666, "fusion_lon": 0.0, "bike_id": "52a3e90d11ea315a1bb9b6bb22c419fa", "type": "electric_scooter", "name": "52a3e90d11ea315a1bb9b6bb22c419fa", "rental_uris": {"android": "https://dc.lft.to/lastmile_qr_scan", "ios": "https://dc.lft.to/lastmile_qr_scan"}, "is_disabled": 0, "fusion_lat": 0.0, "lat": 38.86562, "is_reserved": 0}, {"lon": -77.05858866666667, "fusion_lon": 0.0, "bike_id": "8f98f644403db63cc432efbc29ac91c6", "type": "electric_scooter", "name": "8f98f644403db63cc432efbc29ac91c6", "rental_uris": {"android": "https://dc.lft.to/lastmile_qr_scan", "ios": "https://dc.lft.to/lastmile_qr_scan"}, "is_disabled": 0, "fusion_lat": 0.0, "lat": 38.9360825, "is_reserved": 0}, {"lon": -76.999845, "fusion_lon": 0.0, "bike_id": "4cb5d98a12fc71e51740ff96da634b58", "type": "electric_scooter", "name": "4cb5d98a12fc71e51740ff96da634b58", "rental_uris": {"android": "https://dc.lft.to/lastmile_qr_scan", "ios": "https://dc.lft.to/lastmile_qr_scan"}, "is_disabled": 0, "fusion_lat": 0.0, "lat": 38.874775166666666, "is_reserved": 0}, {"lon": -77.00749583333334, "fusion_lon": 0.0, "bike_id": "4dcbc8d83aaef3abf155c7fbc6d922c5", "type": "electric_scooter", "name": "4dcbc8d83aaef3abf155c7fbc6d922c5", "rental_uris": {"android": "https://dc.lft.to/lastmile_qr_scan", "ios": "https://dc.lft.to/lastmile_qr_scan"}, "is_disabled": 0, "fusion_lat": 0.0, "lat": 38.89838916666667, "is_reserved": 0}, {"lon": -77.05227883333333, "fusion_lon": 0.0, "bike_id": "2e0b65771f85e86eb045fddfc5fbc89c", "type": "electric_scooter", "name": "2e0b65771f85e86eb045fddfc5fbc89c", "rental_uris": {"android": "https://dc.lft.to/lastmile_qr_scan", "ios": "https://dc.lft.to/lastmile_qr_scan"}, "is_disabled": 0, "fusion_lat": 0.0, "lat": 38.924473666666664, "is_reserved": 0}, {"lon": -77.0466345, "fusion_lon": 0.0, "bike_id": "480dfbc0a5b790be85d5c1dc48307307", "type": "electric_bike", "name": "480dfbc0a5b790be85d5c1dc48307307", "rental_uris": {"android": "https://dc.lft.to/lastmile_qr_scan", "ios": "https://dc.lft.to/lastmile_qr_scan"}, "is_disabled": 0, "fusion_lat": 0.0, "lat": 38.904207666666665, "is_reserved": 0}, {"lon": -76.94638616666667, "fusion_lon": 0.0, "bike_id": "d148555721e0cc55f3492a4c97d0aac6", "type": "electric_scooter", "name": "d148555721e0cc55f3492a4c97d0aac6", "rental_uris": {"android": "https://dc.lft.to/lastmile_qr_scan", "ios": "https://dc.lft.to/lastmile_qr_scan"}, "is_disabled": 0, "fusion_lat": 0.0, "lat": 38.8985945, "is_reserved": 0}, {"lon": -76.97551283333334, "fusion_lon": 0.0, "bike_id": "bb28395347535bcb5ead3c5aed36123f", "type": "electric_scooter", "name": "bb28395347535bcb5ead3c5aed36123f", "rental_uris": {"android": "https://dc.lft.to/lastmile_qr_scan", "ios": "https://dc.lft.to/lastmile_qr_scan"}, "is_disabled": 0, "fusion_lat": 0.0, "lat": 38.903230666666666, "is_reserved": 0}, {"lon": -76.9860785, "fusion_lon": 0.0, "bike_id": "8ba52332f8f3f428a495d082675852b7", "type": "electric_scooter", "name": "8ba52332f8f3f428a495d082675852b7", "rental_uris": {"android": "https://dc.lft.to/lastmile_qr_scan", "ios": "https://dc.lft.to/lastmile_qr_scan"}, "is_disabled": 0, "fusion_lat": 0.0, "lat": 38.882803333333335, "is_reserved": 0}, {"lon": -77.076453, "fusion_lon": 0.0, "bike_id": "4baf39eeba3b76f68ed80020158bfd15", "type": "electric_bike", "name": "4baf39eeba3b76f68ed80020158bfd15", "rental_uris": {"android": "https://dc.lft.to/lastmile_qr_scan", "ios": "https://dc.lft.to/lastmile_qr_scan"}, "is_disabled": 0, "fusion_lat": 0.0, "lat": 38.908738166666666, "is_reserved": 0}, {"lon": -77.04193466666666, "fusion_lon": 0.0, "bike_id": "50af930de7a38cfb8b7f4763a150af9c", "type": "electric_scooter", "name": "50af930de7a38cfb8b7f4763a150af9c", "rental_uris": {"android": "https://dc.lft.to/lastmile_qr_scan", "ios": "https://dc.lft.to/lastmile_qr_scan"}, "is_disabled": 0, "fusion_lat": 0.0, "lat": 38.9055045, "is_reserved": 0}, {"lon": -76.98764283333334, "fusion_lon": 0.0, "bike_id": "078d01ca0df49c374913e867907bba7a", "type": "electric_scooter", "name": "078d01ca0df49c374913e867907bba7a", "rental_uris": {"android": "https://dc.lft.to/lastmile_qr_scan", "ios": "https://dc.lft.to/lastmile_qr_scan"}, "is_disabled": 0, "fusion_lat": 0.0, "lat": 38.90032016666667, "is_reserved": 0}, {"lon": -77.02096283333333, "fusion_lon": 0.0, "bike_id": "09398e57071bac1927123796cc1dbebb", "type": "electric_scooter", "name": "09398e57071bac1927123796cc1dbebb", "rental_uris": {"android": "https://dc.lft.to/lastmile_qr_scan", "ios": "https://dc.lft.to/lastmile_qr_scan"}, "is_disabled": 0, "fusion_lat": 0.0, "lat": 38.8818655, "is_reserved": 0}, {"lon": -76.98602233333334, "fusion_lon": 0.0, "bike_id": "ef2d6ba34522f5da363a64b8c6b78ebd", "type": "electric_scooter", "name": "ef2d6ba34522f5da363a64b8c6b78ebd", "rental_uris": {"android": "https://dc.lft.to/lastmile_qr_scan", "ios": "https://dc.lft.to/lastmile_qr_scan"}, "is_disabled": 0, "fusion_lat": 0.0, "lat": 38.90015916666667, "is_reserved": 0}, {"lon": -77.03220066666667, "fusion_lon": 0.0, "bike_id": "6c6337713ff45222a1aaf556d4083693", "type": "electric_scooter", "name": "6c6337713ff45222a1aaf556d4083693", "rental_uris": {"android": "https://dc.lft.to/lastmile_qr_scan", "ios": "https://dc.lft.to/lastmile_qr_scan"}, "is_disabled": 0, "fusion_lat": 0.0, "lat": 38.91846966666667, "is_reserved": 0}, {"lon": -77.03848466666666, "fusion_lon": 0.0, "bike_id": "ee6f4e08c6d0d44fb07705ba84100e69", "type": "electric_scooter", "name": "ee6f4e08c6d0d44fb07705ba84100e69", "rental_uris": {"android": "https://dc.lft.to/lastmile_qr_scan", "ios": "https://dc.lft.to/lastmile_qr_scan"}, "is_disabled": 0, "fusion_lat": 0.0, "lat": 38.9029355, "is_reserved": 0}, {"lon": -77.01355016666666, "fusion_lon": 0.0, "bike_id": "8eb3295df42efbba8d3ec1106089e0be", "type": "electric_scooter", "name": "8eb3295df42efbba8d3ec1106089e0be", "rental_uris": {"android": "https://dc.lft.to/lastmile_qr_scan", "ios": "https://dc.lft.to/lastmile_qr_scan"}, "is_disabled": 0, "fusion_lat": 0.0, "lat": 38.8922135, "is_reserved": 0}, {"lon": -76.98566166666667, "fusion_lon": 0.0, "bike_id": "f8376ab70a82c51c92a41cd6327c9fc5", "type": "electric_scooter", "name": "f8376ab70a82c51c92a41cd6327c9fc5", "rental_uris": {"android": "https://dc.lft.to/lastmile_qr_scan", "ios": "https://dc.lft.to/lastmile_qr_scan"}, "is_disabled": 0, "fusion_lat": 0.0, "lat": 38.866846, "is_reserved": 0}, {"lon": -76.965281, "fusion_lon": 0.0, "bike_id": "384fb23e052abd708652dbf9e690618c", "type": "electric_scooter", "name": "384fb23e052abd708652dbf9e690618c", "rental_uris": {"android": "https://dc.lft.to/lastmile_qr_scan", "ios": "https://dc.lft.to/lastmile_qr_scan"}, "is_disabled": 0, "fusion_lat": 0.0, "lat": 38.87630383333333, "is_reserved": 0}, {"lon": -77.03056416666666, "fusion_lon": 0.0, "bike_id": "39e39d6d52f340aa0390e4596a98dee7", "type": "electric_scooter", "name": "39e39d6d52f340aa0390e4596a98dee7", "rental_uris": {"android": "https://dc.lft.to/lastmile_qr_scan", "ios": "https://dc.lft.to/lastmile_qr_scan"}, "is_disabled": 0, "fusion_lat": 0.0, "lat": 38.91702683333333, "is_reserved": 0}, {"lon": -77.040226, "fusion_lon": 0.0, "bike_id": "6969f15554e65e9c3a4762a7db1a4997", "type": "electric_scooter", "name": "6969f15554e65e9c3a4762a7db1a4997", "rental_uris": {"android": "https://dc.lft.to/lastmile_qr_scan", "ios": "https://dc.lft.to/lastmile_qr_scan"}, "is_disabled": 0, "fusion_lat": 0.0, "lat": 38.92169083333334, "is_reserved": 0}, {"lon": -77.02935983333333, "fusion_lon": 0.0, "bike_id": "f8470923cae358818694ce88015a3e9e", "type": "electric_scooter", "name": "f8470923cae358818694ce88015a3e9e", "rental_uris": {"android": "https://dc.lft.to/lastmile_qr_scan", "ios": "https://dc.lft.to/lastmile_qr_scan"}, "is_disabled": 0, "fusion_lat": 0.0, "lat": 38.902700833333334, "is_reserved": 0}, {"lon": -76.9889555, "fusion_lon": 0.0, "bike_id": "99f29bbf651058bd85e9b7846116d2e1", "type": "electric_scooter", "name": "99f29bbf651058bd85e9b7846116d2e1", "rental_uris": {"android": "https://dc.lft.to/lastmile_qr_scan", "ios": "https://dc.lft.to/lastmile_qr_scan"}, "is_disabled": 0, "fusion_lat": 0.0, "lat": 38.86664566666666, "is_reserved": 0}, {"lon": -77.078615, "fusion_lon": 0.0, "bike_id": "9c4a87b1965fe27bdd0abfc8835a0e57", "type": "electric_scooter", "name": "9c4a87b1965fe27bdd0abfc8835a0e57", "rental_uris": {"android": "https://dc.lft.to/lastmile_qr_scan", "ios": "https://dc.lft.to/lastmile_qr_scan"}, "is_disabled": 0, "fusion_lat": 0.0, "lat": 38.93161766666667, "is_reserved": 0}, {"lon": -77.00888783333333, "fusion_lon": 0.0, "bike_id": "b71dc49176df762566d7dec29671b554", "type": "electric_scooter", "name": "b71dc49176df762566d7dec29671b554", "rental_uris": {"android": "https://dc.lft.to/lastmile_qr_scan", "ios": "https://dc.lft.to/lastmile_qr_scan"}, "is_disabled": 0, "fusion_lat": 0.0, "lat": 38.9145145, "is_reserved": 0}, {"lon": -77.05001533333333, "fusion_lon": 0.0, "bike_id": "bdb82b369e510d417e4686c9f005b79d", "type": "electric_scooter", "name": "bdb82b369e510d417e4686c9f005b79d", "rental_uris": {"android": "https://dc.lft.to/lastmile_qr_scan", "ios": "https://dc.lft.to/lastmile_qr_scan"}, "is_disabled": 0, "fusion_lat": 0.0, "lat": 38.901281, "is_reserved": 0}, {"lon": -77.0631125, "fusion_lon": 0.0, "bike_id": "052cd59e5cb473bd24e8fb2993bbd0d1", "type": "electric_bike", "name": "052cd59e5cb473bd24e8fb2993bbd0d1", "rental_uris": {"android": "https://dc.lft.to/lastmile_qr_scan", "ios": "https://dc.lft.to/lastmile_qr_scan"}, "is_disabled": 0, "fusion_lat": 0.0, "lat": 38.798568833333334, "is_reserved": 0}, {"lon": -77.02551216666667, "fusion_lon": 0.0, "bike_id": "ea58dbc7b1bd0b72a81d280975dc0770", "type": "electric_scooter", "name": "ea58dbc7b1bd0b72a81d280975dc0770", "rental_uris": {"android": "https://dc.lft.to/lastmile_qr_scan", "ios": "https://dc.lft.to/lastmile_qr_scan"}, "is_disabled": 0, "fusion_lat": 0.0, "lat": 38.930921, "is_reserved": 0}, {"lon": -76.99583533333333, "fusion_lon": 0.0, "bike_id": "752c8ffd54423be5680ef63acb01229f", "type": "electric_scooter", "name": "752c8ffd54423be5680ef63acb01229f", "rental_uris": {"android": "https://dc.lft.to/lastmile_qr_scan", "ios": "https://dc.lft.to/lastmile_qr_scan"}, "is_disabled": 0, "fusion_lat": 0.0, "lat": 38.85177, "is_reserved": 0}, {"lon": -77.0274365, "fusion_lon": 0.0, "bike_id": "317d5f83bee210530e1b7b89bf403d34", "type": "electric_scooter", "name": "317d5f83bee210530e1b7b89bf403d34", "rental_uris": {"android": "https://dc.lft.to/lastmile_qr_scan", "ios": "https://dc.lft.to/lastmile_qr_scan"}, "is_disabled": 0, "fusion_lat": 0.0, "lat": 38.95237816666667, "is_reserved": 0}, {"lon": -77.02276316666666, "fusion_lon": 0.0, "bike_id": "13eff6d6ca589a0806c83e90959c1a35", "type": "electric_scooter", "name": "13eff6d6ca589a0806c83e90959c1a35", "rental_uris": {"android": "https://dc.lft.to/lastmile_qr_scan", "ios": "https://dc.lft.to/lastmile_qr_scan"}, "is_disabled": 0, "fusion_lat": 0.0, "lat": 38.89533516666667, "is_reserved": 0}, {"lon": -77.01781833333334, "fusion_lon": 0.0, "bike_id": "94bf6ca7ca7298a3f081aedf05582ca7", "type": "electric_scooter", "name": "94bf6ca7ca7298a3f081aedf05582ca7", "rental_uris": {"android": "https://dc.lft.to/lastmile_qr_scan", "ios": "https://dc.lft.to/lastmile_qr_scan"}, "is_disabled": 0, "fusion_lat": 0.0, "lat": 38.87771866666667, "is_reserved": 0}, {"lon": -76.99780683333333, "fusion_lon": 0.0, "bike_id": "d2b53d9d2642cefa7734a0285c50f165", "type": "electric_scooter", "name": "d2b53d9d2642cefa7734a0285c50f165", "rental_uris": {"android": "https://dc.lft.to/lastmile_qr_scan", "ios": "https://dc.lft.to/lastmile_qr_scan"}, "is_disabled": 0, "fusion_lat": 0.0, "lat": 38.84438983333333, "is_reserved": 0}, {"lon": -76.965269, "fusion_lon": 0.0, "bike_id": "bbf69b68cb53e322b84e35703546c883", "type": "electric_bike", "name": "bbf69b68cb53e322b84e35703546c883", "rental_uris": {"android": "https://dc.lft.to/lastmile_qr_scan", "ios": "https://dc.lft.to/lastmile_qr_scan"},