{"data": {"bikes": [{"lat": 38.9212125, "is_disabled": 0, "type": "electric_scooter", "lon": -77.04432066666666, "bike_id": "f49324e08cc5a163d05f45ba1af4faa1", "fusion_lat": 0.0, "name": "f49324e08cc5a163d05f45ba1af4faa1", "is_reserved": 0, "rental_uris": {"android": "https://dc.lft.to/lastmile_qr_scan", "ios": "https://dc.lft.to/lastmile_qr_scan"}, "fusion_lon": 0.0}, {"lat": 38.912894333333334, "is_disabled": 0, "type": "electric_bike", "lon": -77.0448995, "bike_id": "c23927293cdd5cd1e0cacfa2e441f32a", "fusion_lat": 0.0, "name": "c23927293cdd5cd1e0cacfa2e441f32a", "is_reserved": 0, "rental_uris": {"android": "https://dc.lft.to/lastmile_qr_scan", "ios": "https://dc.lft.to/lastmile_qr_scan"}, "fusion_lon": 0.0}, {"lat": 38.863431166666665, "is_disabled": 0, "type": "electric_scooter", "lon": -76.99006216666666, "bike_id": "15b1f5319b0e5af49fad50feff6c6bd3", "fusion_lat": 0.0, "name": "15b1f5319b0e5af49fad50feff6c6bd3", "is_reserved": 0, "rental_uris": {"android": "https://dc.lft.to/lastmile_qr_scan", "ios": "https://dc.lft.to/lastmile_qr_scan"}, "fusion_lon": 0.0}, {"lat": 38.95776733333334, "is_disabled": 0, "type": "electric_scooter", "lon": -77.024662, "bike_id": "ae5eaad6d8f14f27acbb97e58b7641f6", "fusion_lat": 0.0, "name": "ae5eaad6d8f14f27acbb97e58b7641f6", "is_reserved": 0, "rental_uris": {"android": "https://dc.lft.to/lastmile_qr_scan", "ios": "https://dc.lft.to/lastmile_qr_scan"}, "fusion_lon": 0.0}, {"lat": 38.89807483333333, "is_disabled": 0, "type": "electric_scooter", "lon": -77.0328665, "bike_id": "ab9856a282265ab6a3773fa843862bc7", "fusion_lat": 0.0, "name": "ab9856a282265ab6a3773fa843862bc7", "is_reserved": 0, "rental_uris": {"android": "https://dc.lft.to/lastmile_qr_scan", "ios": "https://dc.lft.to/lastmile_qr_scan"}, "fusion_lon": 0.0}, {"lat": 38.8428975, "is_disabled": 0, "type": "electric_scooter", "lon": -76.9995565, "bike_id": "5f3fa85890bb37874269a4bb0f863d43", "fusion_lat": 0.0, "name": "5f3fa85890bb37874269a4bb0f863d43", "is_reserved": 0, "rental_uris": {"android": "https://dc.lft.to/lastmile_qr_scan", "ios": "https://dc.lft.to/lastmile_qr_scan"}, "fusion_lon": 0.0}, {"lat": 38.899167166666665, "is_disabled": 0, "type": "electric_scooter", "lon": -76.93381333333333, "bike_id": "97442d93b829f25b710b1603670a9867", "fusion_lat": 0.0, "name": "97442d93b829f25b710b1603670a9867", "is_reserved": 0, "rental_uris": {"android": "https://dc.lft.to/lastmile_qr_scan", "ios": "https://dc.lft.to/lastmile_qr_scan"}, "fusion_lon": 0.0}, {"lat": 38.95550883333333, "is_disabled": 0, "type": "electric_bike", "lon": -76.93540083333333, "bike_id": "c832412f4ceb03970654afc4146c1951", "fusion_lat": 0.0, "name": "c832412f4ceb03970654afc4146c1951", "is_reserved": 0, "rental_uris": {"android": "https://dc.lft.to/lastmile_qr_scan", "ios": "https://dc.lft.to/lastmile_qr_scan"}, "fusion_lon": 0.0}, {"lat": 38.900325, "is_disabled": 0, "type": "electric_scooter", "lon": -77.02900883333334, "bike_id": "bc0dcb10be24385fd473ad8c203212dd", "fusion_lat": 0.0, "name": "bc0dcb10be24385fd473ad8c203212dd", "is_reserved": 0, "rental_uris": {"android": "https://dc.lft.to/lastmile_qr_scan", "ios": "https://dc.lft.to/lastmile_qr_scan"}, "fusion_lon": 0.0}, {"lat": 38.90436583333333, "is_disabled": 0, "type": "electric_scooter", "lon": -77.031954, "bike_id": "77485da028e241ba302098c6f1653742", "fusion_lat": 0.0, "name": "77485da028e241ba302098c6f1653742", "is_reserved": 0, "rental_uris": {"android": "https://dc.lft.to/lastmile_qr_scan", "ios": "https://dc.lft.to/lastmile_qr_scan"}, "fusion_lon": 0.0}, {"lat": 38.866566, "is_disabled": 0, "type": "electric_scooter", "lon": -76.98886533333334, "bike_id": "dd45b7ad1fb453b13df6214e2162968a", "fusion_lat": 0.0, "name": "dd45b7ad1fb453b13df6214e2162968a", "is_reserved": 0, "rental_uris": {"android": "https://dc.lft.to/lastmile_qr_scan", "ios": "https://dc.lft.to/lastmile_qr_scan"}, "fusion_lon": 0.0}, {"lat": 38.918402666666665, "is_disabled": 0, "type": "electric_scooter", "lon": -77.03206583333333, "bike_id": "cbccce72786bd166e96e5d4bf1a57201", "fusion_lat": 0.0, "name": "cbccce72786bd166e96e5d4bf1a57201", "is_reserved": 0, "rental_uris": {"android": "https://dc.lft.to/lastmile_qr_scan", "ios": "https://dc.lft.to/lastmile_qr_scan"}, "fusion_lon": 0.0}, {"lat": 38.89511516666666, "is_disabled": 0, "type": "electric_scooter", "lon": -76.977356, "bike_id": "764504d307707b901406a4d4d07f858c", "fusion_lat": 0.0, "name": "764504d307707b901406a4d4d07f858c", "is_reserved": 0, "rental_uris": {"android": "https://dc.lft.to/lastmile_qr_scan", "ios": "https://dc.lft.to/lastmile_qr_scan"}, "fusion_lon": 0.0}, {"lat": 38.872263, "is_disabled": 0, "type": "electric_scooter", "lon": -77.01642966666667, "bike_id": "03eaf4d3ee5aac3ee155477ebebf7071", "fusion_lat": 0.0, "name": "03eaf4d3ee5aac3ee155477ebebf7071", "is_reserved": 0, "rental_uris": {"android": "https://dc.lft.to/lastmile_qr_scan", "ios": "https://dc.lft.to/lastmile_qr_scan"}, "fusion_lon": 0.0}, {"lat": 38.928766333333336, "is_disabled": 0, "type": "electric_scooter", "lon": -77.03303233333334, "bike_id": "5331820a8362f12527361368d547523d", "fusion_lat": 0.0, "name": "5331820a8362f12527361368d547523d", "is_reserved": 0, "rental_uris": {"android": "https://dc.lft.to/lastmile_qr_scan", "ios": "https://dc.lft.to/lastmile_qr_scan"}, "fusion_lon": 0.0}, {"lat": 38.933951666666665, "is_disabled": 0, "type": "electric_scooter", "lon": -77.04136433333333, "bike_id": "2dd1e8520cd751c169a480d1824cf924", "fusion_lat": 0.0, "name": "2dd1e8520cd751c169a480d1824cf924", "is_reserved": 0, "rental_uris": {"android": "https://dc.lft.to/lastmile_qr_scan", "ios": "https://dc.lft.to/lastmile_qr_scan"}, "fusion_lon": 0.0}, {"lat": 38.9549065, "is_disabled": 0, "type": "electric_scooter", "lon": -77.06558116666666, "bike_id": "4ae87b889bbb2862bded91315cd2d1ad", "fusion_lat": 0.0, "name": "4ae87b889bbb2862bded91315cd2d1ad", "is_reserved": 0, "rental_uris": {"android": "https://dc.lft.to/lastmile_qr_scan", "ios": "https://dc.lft.to/lastmile_qr_scan"}, "fusion_lon": 0.0}, {"lat": 38.917051, "is_disabled": 0, "type": "electric_scooter", "lon": -77.00457466666667, "bike_id": "30b715e4f13582962fea14d613ed7282", "fusion_lat": 0.0, "name": "30b715e4f13582962fea14d613ed7282", "is_reserved": 0, "rental_uris": {"android": "https://dc.lft.to/lastmile_qr_scan", "ios": "https://dc.lft.to/lastmile_qr_scan"}, "fusion_lon": 0.0}, {"lat": 38.922391833333336, "is_disabled": 0, "type": "electric_scooter", "lon": -77.04258983333334, "bike_id": "f99d699c4cd135b87d71f6d743a69867", "fusion_lat": 0.0, "name": "f99d699c4cd135b87d71f6d743a69867", "is_reserved": 0, "rental_uris": {"android": "https://dc.lft.to/lastmile_qr_scan", "ios": "https://dc.lft.to/lastmile_qr_scan"}, "fusion_lon": 0.0}, {"lat": 38.922212333333334, "is_disabled": 0, "type": "electric_scooter", "lon": -77.04400733333334, "bike_id": "caf5468908a1254f6129a9da8d298ced", "fusion_lat": 0.0, "name": "caf5468908a1254f6129a9da8d298ced", "is_reserved": 0, "rental_uris": {"android": "https://dc.lft.to/lastmile_qr_scan", "ios": "https://dc.lft.to/lastmile_qr_scan"}, "fusion_lon": 0.0}, {"lat": 38.9055085, "is_disabled": 0, "type": "electric_scooter", "lon": -77.04663066666667, "bike_id": "98f7ceaec608bc25e27cb734333bcf70", "fusion_lat": 0.0, "name": "98f7ceaec608bc25e27cb734333bcf70", "is_reserved": 0, "rental_uris": {"android": "https://dc.lft.to/lastmile_qr_scan", "ios": "https://dc.lft.to/lastmile_qr_scan"}, "fusion_lon": 0.0}, {"lat": 38.90620166666667, "is_disabled": 0, "type": "electric_scooter", "lon": -77.04342266666667, "bike_id": "0f490bb1772d11b23e623bdadb449f1e", "fusion_lat": 0.0, "name": "0f490bb1772d11b23e623bdadb449f1e", "is_reserved": 0, "rental_uris": {"android": "https://dc.lft.to/lastmile_qr_scan", "ios": "https://dc.lft.to/lastmile_qr_scan"}, "fusion_lon": 0.0}, {"lat": 38.90703166666667, "is_disabled": 0, "type": "electric_scooter", "lon": -77.049023, "bike_id": "35453f6ee8d0a2046d10a476b0a145cd", "fusion_lat": 0.0, "name": "35453f6ee8d0a2046d10a476b0a145cd", "is_reserved": 0, "rental_uris": {"android": "https://dc.lft.to/lastmile_qr_scan", "ios": "https://dc.lft.to/lastmile_qr_scan"}, "fusion_lon": 0.0}, {"lat": 38.898810166666664, "is_disabled": 0, "type": "electric_scooter", "lon": -76.93179966666666, "bike_id": "a7d3b560e6be39ab9ec6380d09d215ee", "fusion_lat": 0.0, "name": "a7d3b560e6be39ab9ec6380d09d215ee", "is_reserved": 0, "rental_uris": {"android": "https://dc.lft.to/lastmile_qr_scan", "ios": "https://dc.lft.to/lastmile_qr_scan"}, "fusion_lon": 0.0}, {"lat": 38.9112905, "is_disabled": 0, "type": "electric_scooter", "lon": -77.03185683333334, "bike_id": "728a08ff8c8052d90471ca00019873b9", "fusion_lat": 0.0, "name": "728a08ff8c8052d90471ca00019873b9", "is_reserved": 0, "rental_uris": {"android": "https://dc.lft.to/lastmile_qr_scan", "ios": "https://dc.lft.to/lastmile_qr_scan"}, "fusion_lon": 0.0}, {"lat": 38.920661333333335, "is_disabled": 0, "type": "electric_scooter", "lon": -77.04379, "bike_id": "be2418174e915cc398f0a2ddb331924e", "fusion_lat": 0.0, "name": "be2418174e915cc398f0a2ddb331924e", "is_reserved": 0, "rental_uris": {"android": "https://dc.lft.to/lastmile_qr_scan", "ios": "https://dc.lft.to/lastmile_qr_scan"}, "fusion_lon": 0.0}, {"lat": 38.8960195, "is_disabled": 0, "type": "electric_scooter", "lon": -77.0543855, "bike_id": "eae7d8a91330abefa9edf1c543bd87f2", "fusion_lat": 0.0, "name": "eae7d8a91330abefa9edf1c543bd87f2", "is_reserved": 0, "rental_uris": {"android": "https://dc.lft.to/lastmile_qr_scan", "ios": "https://dc.lft.to/lastmile_qr_scan"}, "fusion_lon": 0.0}, {"lat": 38.94020283333333, "is_disabled": 0, "type": "electric_scooter", "lon": -77.07175166666667, "bike_id": "cb739eb3d9001b77a89c99284976bfae", "fusion_lat": 0.0, "name": "cb739eb3d9001b77a89c99284976bfae", "is_reserved": 0, "rental_uris": {"android": "https://dc.lft.to/lastmile_qr_scan", "ios": "https://dc.lft.to/lastmile_qr_scan"}, "fusion_lon": 0.0}, {"lat": 38.850506, "is_disabled": 0, "type": "electric_bike", "lon": -76.97321166666667, "bike_id": "3848ef4998b4ac64e1b80847c46a722c", "fusion_lat": 0.0, "name": "3848ef4998b4ac64e1b80847c46a722c", "is_reserved": 0, "rental_uris": {"android": "https://dc.lft.to/lastmile_qr_scan", "ios": "https://dc.lft.to/lastmile_qr_scan"}, "fusion_lon": 0.0}, {"lat": 38.904977, "is_disabled": 0, "type": "electric_scooter", "lon": -77.06208116666667, "bike_id": "cb4199bba87f3d725f64561629849cf8", "fusion_lat": 0.0, "name": "cb4199bba87f3d725f64561629849cf8", "is_reserved": 0, "rental_uris": {"android": "https://dc.lft.to/lastmile_qr_scan", "ios": "https://dc.lft.to/lastmile_qr_scan"}, "fusion_lon": 0.0}, {"lat": 38.922348166666666, "is_disabled": 0, "type": "electric_scooter", "lon": -77.0457635, "bike_id": "ad67f71e8c55046bcfb4d299d7410d6f", "fusion_lat": 0.0, "name": "ad67f71e8c55046bcfb4d299d7410d6f", "is_reserved": 0, "rental_uris": {"android": "https://dc.lft.to/lastmile_qr_scan", "ios": "https://dc.lft.to/lastmile_qr_scan"}, "fusion_lon": 0.0}, {"lat": 38.9004995, "is_disabled": 0, "type": "electric_scooter", "lon": -77.0077025, "bike_id": "b762d6d67476506945440246417a9057", "fusion_lat": 0.0, "name": "b762d6d67476506945440246417a9057", "is_reserved": 0, "rental_uris": {"android": "https://dc.lft.to/lastmile_qr_scan", "ios": "https://dc.lft.to/lastmile_qr_scan"}, "fusion_lon": 0.0}, {"lat": 38.984209666666665, "is_disabled": 0, "type": "electric_scooter", "lon": -77.02670483333333, "bike_id": "ee349475fc165cf0942dfd655975cda8", "fusion_lat": 0.0, "name": "ee349475fc165cf0942dfd655975cda8", "is_reserved": 0, "rental_uris": {"android": "https://dc.lft.to/lastmile_qr_scan", "ios": "https://dc.lft.to/lastmile_qr_scan"}, "fusion_lon": 0.0}, {"lat": 38.964764333333335, "is_disabled": 0, "type": "electric_bike", "lon": -77.08796516666666, "bike_id": "9d62d60ebb6b22407f598caf174f46c7", "fusion_lat": 0.0, "name": "9d62d60ebb6b22407f598caf174f46c7", "is_reserved": 0, "rental_uris": {"android": "https://dc.lft.to/lastmile_qr_scan", "ios": "https://dc.lft.to/lastmile_qr_scan"}, "fusion_lon": 0.0}, {"lat": 38.93914766666666, "is_disabled": 0, "type": "electric_scooter", "lon": -77.032896, "bike_id": "03e0bcbe249fd43dd9b0403e82470344", "fusion_lat": 0.0, "name": "03e0bcbe249fd43dd9b0403e82470344", "is_reserved": 0, "rental_uris": {"android": "https://dc.lft.to/lastmile_qr_scan", "ios": "https://dc.lft.to/lastmile_qr_scan"}, "fusion_lon": 0.0}, {"lat": 38.9283955, "is_disabled": 0, "type": "electric_scooter", "lon": -77.03251783333333, "bike_id": "9707e610b85affb927eebcb5b0cc95de", "fusion_lat": 0.0, "name": "9707e610b85affb927eebcb5b0cc95de", "is_reserved": 0, "rental_uris": {"android": "https://dc.lft.to/lastmile_qr_scan", "ios": "https://dc.lft.to/lastmile_qr_scan"}, "fusion_lon": 0.0}, {"lat": 38.887967, "is_disabled": 0, "type": "electric_scooter", "lon": -76.93364933333334, "bike_id": "fbd0ec52127ccde55775de8b6dfbec52", "fusion_lat": 0.0, "name": "fbd0ec52127ccde55775de8b6dfbec52", "is_reserved": 0, "rental_uris": {"android": "https://dc.lft.to/lastmile_qr_scan", "ios": "https://dc.lft.to/lastmile_qr_scan"}, "fusion_lon": 0.0}, {"lat": 38.89211566666667, "is_disabled": 0, "type": "electric_scooter", "lon": -77.01700183333334, "bike_id": "5207fab94ff724ae9181ba34ddeb3285", "fusion_lat": 0.0, "name": "5207fab94ff724ae9181ba34ddeb3285", "is_reserved": 0, "rental_uris": {"android": "https://dc.lft.to/lastmile_qr_scan", "ios": "https://dc.lft.to/lastmile_qr_scan"}, "fusion_lon": 0.0}, {"lat": 38.966051666666665, "is_disabled": 0, "type": "electric_scooter", "lon": -77.02320133333333, "bike_id": "9930df1beb2d08f1160b2c95c8c3e5d7", "fusion_lat": 0.0, "name": "9930df1beb2d08f1160b2c95c8c3e5d7", "is_reserved": 0, "rental_uris": {"android": "https://dc.lft.to/lastmile_qr_scan", "ios": "https://dc.lft.to/lastmile_qr_scan"}, "fusion_lon": 0.0}, {"lat": 38.9066, "is_disabled": 0, "type": "electric_bike", "lon": -77.02464483333333, "bike_id": "6d0012e126dda73097989a47baa394a3", "fusion_lat": 0.0, "name": "6d0012e126dda73097989a47baa394a3", "is_reserved": 0, "rental_uris": {"android": "https://dc.lft.to/lastmile_qr_scan", "ios": "https://dc.lft.to/lastmile_qr_scan"}, "fusion_lon": 0.0}, {"lat": 38.88090433333333, "is_disabled": 0, "type": "electric_scooter", "lon": -76.99261483333333, "bike_id": "5a5c6ffbb0083eaa8bb2c6ba760bd4e9", "fusion_lat": 0.0, "name": "5a5c6ffbb0083eaa8bb2c6ba760bd4e9", "is_reserved": 0, "rental_uris": {"android": "https://dc.lft.to/lastmile_qr_scan", "ios": "https://dc.lft.to/lastmile_qr_scan"}, "fusion_lon": 0.0}, {"lat": 38.80431466666667, "is_disabled": 0, "type": "electric_bike", "lon": -77.042389, "bike_id": "279d38ada9221fdce58501c28f122431", "fusion_lat": 0.0, "name": "279d38ada9221fdce58501c28f122431", "is_reserved": 0, "rental_uris": {"android": "https://dc.lft.to/lastmile_qr_scan", "ios": "https://dc.lft.to/lastmile_qr_scan"}, "fusion_lon": 0.0}, {"lat": 38.82783766666667, "is_disabled": 0, "type": "electric_bike", "lon": -77.009259, "bike_id": "de4565b00d80d5a0104104a950a4fec6", "fusion_lat": 0.0, "name": "de4565b00d80d5a0104104a950a4fec6", "is_reserved": 0, "rental_uris": {"android": "https://dc.lft.to/lastmile_qr_scan", "ios": "https://dc.lft.to/lastmile_qr_scan"}, "fusion_lon": 0.0}, {"lat": 38.88359583333333, "is_disabled": 0, "type": "electric_scooter", "lon": -76.99487966666666, "bike_id": "b36de9a7b77bc8d8dd11097495ecc103", "fusion_lat": 0.0, "name": "b36de9a7b77bc8d8dd11097495ecc103", "is_reserved": 0, "rental_uris": {"android": "https://dc.lft.to/lastmile_qr_scan", "ios": "https://dc.lft.to/lastmile_qr_scan"}, "fusion_lon": 0.0}, {"lat": 39.05204, "is_disabled": 0, "type": "electric_bike", "lon": -77.109185, "bike_id": "1409baed825ca80a385174e5bf5bc8d6", "fusion_lat": 0.0, "name": "1409baed825ca80a385174e5bf5bc8d6", "is_reserved": 0, "rental_uris": {"android": "https://dc.lft.to/lastmile_qr_scan", "ios": "https://dc.lft.to/lastmile_qr_scan"}, "fusion_lon": 0.0}, {"lat": 38.916740833333336, "is_disabled": 0, "type": "electric_scooter", "lon": -77.03114333333333, "bike_id": "49068be588a1e046814c9439fb6dbeed", "fusion_lat": 0.0, "name": "49068be588a1e046814c9439fb6dbeed", "is_reserved": 0, "rental_uris": {"android": "https://dc.lft.to/lastmile_qr_scan", "ios": "https://dc.lft.to/lastmile_qr_scan"}, "fusion_lon": 0.0}, {"lat": 38.896895, "is_disabled": 0, "type": "electric_scooter", "lon": -77.02133883333333, "bike_id": "b0b92dcadb90435643edd8dcbbe598fd", "fusion_lat": 0.0, "name": "b0b92dcadb90435643edd8dcbbe598fd", "is_reserved": 0, "rental_uris": {"android": "https://dc.lft.to/lastmile_qr_scan", "ios": "https://dc.lft.to/lastmile_qr_scan"}, "fusion_lon": 0.0}, {"lat": 38.907354166666664, "is_disabled": 0, "type": "electric_scooter", "lon": -77.03436233333333, "bike_id": "f079cadb7989bae59999bc939ea47c96", "fusion_lat": 0.0, "name": "f079cadb7989bae59999bc939ea47c96", "is_reserved": 0, "rental_uris": {"android": "https://dc.lft.to/lastmile_qr_scan", "ios": "https://dc.lft.to/lastmile_qr_scan"}, "fusion_lon": 0.0}, {"lat": 38.90576433333333, "is_disabled": 0, "type": "electric_scooter", "lon": -77.045863, "bike_id": "b1f585770ef859ef5480e74f41bc8c3f", "fusion_lat": 0.0, "name": "b1f585770ef859ef5480e74f41bc8c3f", "is_reserved": 0, "rental_uris": {"android": "https://dc.lft.to/lastmile_qr_scan", "ios": "https://dc.lft.to/lastmile_qr_scan"}, "fusion_lon": 0.0}, {"lat": 38.912156333333336, "is_disabled": 0, "type": "electric_scooter", "lon": -77.07598133333333, "bike_id": "9697d979888b0c8110513eabeacbce92", "fusion_lat": 0.0, "name": "9697d979888b0c8110513eabeacbce92", "is_reserved": 0, "rental_uris": {"android": "https://dc.lft.to/lastmile_qr_scan", "ios": "https://dc.lft.to/lastmile_qr_scan"}, "fusion_lon": 0.0}, {"lat": 38.916765, "is_disabled": 0, "type": "electric_scooter", "lon": -77.0298025, "bike_id": "94f8eff5c57a0984acf3a88708a0e894", "fusion_lat": 0.0, "name": "94f8eff5c57a0984acf3a88708a0e894", "is_reserved": 0, "rental_uris": {"android": "https://dc.lft.to/lastmile_qr_scan", "ios": "https://dc.lft.to/lastmile_qr_scan"}, "fusion_lon": 0.0}, {"lat": 38.91773766666667, "is_disabled": 0, "type": "electric_scooter", "lon": -77.03580616666666, "bike_id": "e0afa19a3373235cb4506cf9934bbedf", "fusion_lat": 0.0, "name": "e0afa19a3373235cb4506cf9934bbedf", "is_reserved": 0, "rental_uris": {"android": "https://dc.lft.to/lastmile_qr_scan", "ios": "https://dc.lft.to/lastmile_qr_scan"}, "fusion_lon": 0.0}, {"lat": 38.9168575, "is_disabled": 0, "type": "electric_scooter", "lon": -77.02660166666666, "bike_id": "d9598615df9ddf13558c55ad9576e27d", "fusion_lat": 0.0, "name": "d9598615df9ddf13558c55ad9576e27d", "is_reserved": 0, "rental_uris": {"android": "https://dc.lft.to/lastmile_qr_scan", "ios": "https://dc.lft.to/lastmile_qr_scan"}, "fusion_lon": 0.0}, {"lat": 38.90958916666666, "is_disabled": 0, "type": "electric_scooter", "lon": -77.031442, "bike_id": "a3e3394ab9d610f8165f3dc6d7fb9e86", "fusion_lat": 0.0, "name": "a3e3394ab9d610f8165f3dc6d7fb9e86", "is_reserved": 0, "rental_uris": {"android": "https://dc.lft.to/lastmile_qr_scan", "ios": "https://dc.lft.to/lastmile_qr_scan"}, "fusion_lon": 0.0}, {"lat": 38.932548, "is_disabled": 0, "type": "electric_scooter", "lon": -77.03281183333333, "bike_id": "90ce56feaafd6b3a71d41df8e88f6372", "fusion_lat": 0.0, "name": "90ce56feaafd6b3a71d41df8e88f6372", "is_reserved": 0, "rental_uris": {"android": "https://dc.lft.to/lastmile_qr_scan", "ios": "https://dc.lft.to/lastmile_qr_scan"}, "fusion_lon": 0.0}, {"lat": 38.93879883333334, "is_disabled": 0, "type": "electric_scooter", "lon": -77.03284716666667, "bike_id": "56c9ad120ef798f2e61024d7ff6cb350", "fusion_lat": 0.0, "name": "56c9ad120ef798f2e61024d7ff6cb350", "is_reserved": 0, "rental_uris": {"android": "https://dc.lft.to/lastmile_qr_scan", "ios": "https://dc.lft.to/lastmile_qr_scan"}, "fusion_lon": 0.0}, {"lat": 38.8572335, "is_disabled": 0, "type": "electric_scooter", "lon": -76.978938, "bike_id": "940fb903f9c07fea5c33e128eaffc075", "fusion_lat": 0.0, "name": "940fb903f9c07fea5c33e128eaffc075", "is_reserved": 0, "rental_uris": {"android": "https://dc.lft.to/lastmile_qr_scan", "ios": "https://dc.lft.to/lastmile_qr_scan"}, "fusion_lon": 0.0}, {"lat": 38.907913, "is_disabled": 0, "type": "electric_scooter", "lon": -77.03671233333333, "bike_id": "1910e8ecf4705256c55a3bb0a15ef386", "fusion_lat": 0.0, "name": "1910e8ecf4705256c55a3bb0a15ef386", "is_reserved": 0, "rental_uris": {"android": "https://dc.lft.to/lastmile_qr_scan", "ios": "https://dc.lft.to/lastmile_qr_scan"}, "fusion_lon": 0.0}, {"lat": 38.8849215, "is_disabled": 0, "type": "electric_scooter", "lon": -77.00715216666667, "bike_id": "c6d74b9f06b6e17e49826633c36ca915", "fusion_lat": 0.0, "name": "c6d74b9f06b6e17e49826633c36ca915", "is_reserved": 0, "rental_uris": {"android": "https://dc.lft.to/lastmile_qr_scan", "ios": "https://dc.lft.to/lastmile_qr_scan"}, "fusion_lon": 0.0}, {"lat": 38.9082665, "is_disabled": 0, "type": "electric_scooter", "lon": -76.99683166666667, "bike_id": "5f00ced15f89e3ec7d966a7a5dc15934", "fusion_lat": 0.0, "name": "5f00ced15f89e3ec7d966a7a5dc15934", "is_reserved": 0, "rental_uris": {"android": "https://dc.lft.to/lastmile_qr_scan", "ios": "https://dc.lft.to/lastmile_qr_scan"}, "fusion_lon": 0.0}, {"lat": 38.86973016666666, "is_disabled": 0, "type": "electric_bike", "lon": -76.95990133333333, "bike_id": "920d8e06432975f9366239c53ad2309f", "fusion_lat": 0.0, "name": "920d8e06432975f9366239c53ad2309f", "is_reserved": 0, "rental_uris": {"android": "https://dc.lft.to/lastmile_qr_scan", "ios": "https://dc.lft.to/lastmile_qr_scan"}, "fusion_lon": 0.0}, {"lat": 38.87493116666667, "is_disabled": 0, "type": "electric_scooter", "lon": -77.001782, "bike_id": "ac675ab4d4eabb6a7aa9837343a2a680", "fusion_lat": 0.0, "name": "ac675ab4d4eabb6a7aa9837343a2a680", "is_reserved": 0, "rental_uris": {"android": "https://dc.lft.to/lastmile_qr_scan", "ios": "https://dc.lft.to/lastmile_qr_scan"}, "fusion_lon": 0.0}, {"lat": 38.89810683333333, "is_disabled": 0, "type": "electric_scooter", "lon": -77.03160333333334, "bike_id": "9d9164240d8b2834b6443de571eb2d7c", "fusion_lat": 0.0, "name": "9d9164240d8b2834b6443de571eb2d7c", "is_reserved": 0, "rental_uris": {"android": "https://dc.lft.to/lastmile_qr_scan", "ios": "https://dc.lft.to/lastmile_qr_scan"}, "fusion_lon": 0.0}, {"lat": 38.895480166666665, "is_disabled": 0, "type": "electric_scooter", "lon": -77.0218685, "bike_id": "8664543be33ecbe5b816fdd9bc546135", "fusion_lat": 0.0, "name": "8664543be33ecbe5b816fdd9bc546135", "is_reserved": 0, "rental_uris": {"android": "https://dc.lft.to/lastmile_qr_scan", "ios": "https://dc.lft.to/lastmile_qr_scan"}, "fusion_lon": 0.0}, {"lat": 38.89738333333333, "is_disabled": 0, "type": "electric_scooter", "lon": -77.04689983333333, "bike_id": "f9ef4161965c9ce28e2d857c99ebd6f0", "fusion_lat": 0.0, "name": "f9ef4161965c9ce28e2d857c99ebd6f0", "is_reserved": 0, "rental_uris": {"android": "https://dc.lft.to/lastmile_qr_scan", "ios": "https://dc.lft.to/lastmile_qr_scan"}, "fusion_lon": 0.0}, {"lat": 38.92155266666666, "is_disabled": 0, "type": "electric_scooter", "lon": -77.038427, "bike_id": "9b6668da672c96582f059dab700bfb18", "fusion_lat": 0.0, "name": "9b6668da672c96582f059dab700bfb18", "is_reserved": 0, "rental_uris": {"android": "https://dc.lft.to/lastmile_qr_scan", "ios": "https://dc.lft.to/lastmile_qr_scan"}, "fusion_lon": 0.0}, {"lat": 38.89220616666667, "is_disabled": 0, "type": "electric_scooter", "lon": -77.02688716666667, "bike_id": "d97c7af2a352a98cb3a98c0ec93ffb3b", "fusion_lat": 0.0, "name": "d97c7af2a352a98cb3a98c0ec93ffb3b", "is_reserved": 0, "rental_uris": {"android": "https://dc.lft.to/lastmile_qr_scan", "ios": "https://dc.lft.to/lastmile_qr_scan"}, "fusion_lon": 0.0}, {"lat": 38.984990833333335, "is_disabled": 0, "type": "electric_bike", "lon": -76.9820075, "bike_id": "a969b08e25d5145ae9097f75c17f81e7", "fusion_lat": 0.0, "name": "a969b08e25d5145ae9097f75c17f81e7", "is_reserved": 0, "rental_uris": {"android": "https://dc.lft.to/lastmile_qr_scan", "ios": "https://dc.lft.to/lastmile_qr_scan"}, "fusion_lon": 0.0}, {"lat": 38.822613, "is_disabled": 0, "type": "electric_bike", "lon": -77.0581645, "bike_id": "d2cfd540b30a02bae036b3a0e9e2aad4", "fusion_lat": 0.0, "name": "d2cfd540b30a02bae036b3a0e9e2aad4", "is_reserved": 0, "rental_uris": {"android": "https://dc.lft.to/lastmile_qr_scan", "ios": "https://dc.lft.to/lastmile_qr_scan"}, "fusion_lon": 0.0}, {"lat": 38.89642333333333, "is_disabled": 0, "type": "electric_scooter", "lon": -77.00905933333334, "bike_id": "3b8440867e3e707023d635e18fadd61b", "fusion_lat": 0.0, "name": "3b8440867e3e707023d635e18fadd61b", "is_reserved": 0, "rental_uris": {"android": "https://dc.lft.to/lastmile_qr_scan", "ios": "https://dc.lft.to/lastmile_qr_scan"}, "fusion_lon": 0.0}, {"lat": 38.92227166666667, "is_disabled": 0, "type": "electric_scooter", "lon": -77.04129066666667, "bike_id": "f3134f5708b0d7a5319c63ad3816aadd", "fusion_lat": 0.0, "name": "f3134f5708b0d7a5319c63ad3816aadd", "is_reserved": 0, "rental_uris": {"android": "https://dc.lft.to/lastmile_qr_scan", "ios": "https://dc.lft.to/lastmile_qr_scan"}, "fusion_lon": 0.0}, {"lat": 38.884809, "is_disabled": 0, "type": "electric_scooter", "lon": -76.9453295, "bike_id": "5ca0f6fea410797cebdcf480a4cb15f8", "fusion_lat": 0.0, "name": "5ca0f6fea410797cebdcf480a4cb15f8", "is_reserved": 0, "rental_uris": {"android": "https://dc.lft.to/lastmile_qr_scan", "ios": "https://dc.lft.to/lastmile_qr_scan"}, "fusion_lon": 0.0}, {"lat": 38.903218833333334, "is_disabled": 0, "type": "electric_scooter", "lon": -77.02580783333333, "bike_id": "95a55069cf66b1d93aea3c7fa0178255", "fusion_lat": 0.0, "name": "95a55069cf66b1d93aea3c7fa0178255", "is_reserved": 0, "rental_uris": {"android": "https://dc.lft.to/lastmile_qr_scan", "ios": "https://dc.lft.to/lastmile_qr_scan"}, "fusion_lon": 0.0}, {"lat": 38.91522116666667, "is_disabled": 0, "type": "electric_scooter", "lon": -77.0199915, "bike_id": "3a2b04f8e6de3163848f48e34ae49170", "fusion_lat": 0.0, "name": "3a2b04f8e6de3163848f48e34ae49170", "is_reserved": 0, "rental_uris": {"android": "https://dc.lft.to/lastmile_qr_scan", "ios": "https://dc.lft.to/lastmile_qr_scan"}, "fusion_lon": 0.0}, {"lat": 38.88161516666667, "is_disabled": 0, "type": "electric_scooter", "lon": -76.92973233333333, "bike_id": "7ae150b2200e3a45bd3820e09734eacd", "fusion_lat": 0.0, "name": "7ae150b2200e3a45bd3820e09734eacd", "is_reserved": 0, "rental_uris": {"android": "https://dc.lft.to/lastmile_qr_scan", "ios": "https://dc.lft.to/lastmile_qr_scan"}, "fusion_lon": 0.0}, {"lat": 38.90873633333333, "is_disabled": 0, "type": "electric_scooter", "lon": -76.9981775, "bike_id": "14c0e107d6900f95364d57602f01a717", "fusion_lat": 0.0, "name": "14c0e107d6900f95364d57602f01a717", "is_reserved": 0, "rental_uris": {"android": "https://dc.lft.to/lastmile_qr_scan", "ios": "https://dc.lft.to/lastmile_qr_scan"}, "fusion_lon": 0.0}, {"lat": 38.92108833333333, "is_disabled": 0, "type": "electric_scooter", "lon": -77.04226716666666, "bike_id": "0ae657b28b926dbc329b1cc35e977a36", "fusion_lat": 0.0, "name": "0ae657b28b926dbc329b1cc35e977a36", "is_reserved": 0, "rental_uris": {"android": "https://dc.lft.to/lastmile_qr_scan", "ios": "https://dc.lft.to/lastmile_qr_scan"}, "fusion_lon": 0.0}, {"lat": 38.924534333333334, "is_disabled": 0, "type": "electric_scooter", "lon": -77.05774483333333, "bike_id": "84fc100343deb6884272fc7906d38eac", "fusion_lat": 0.0, "name": "84fc100343deb6884272fc7906d38eac", "is_reserved": 0, "rental_uris": {"android": "https://dc.lft.to/lastmile_qr_scan", "ios": "https://dc.lft.to/lastmile_qr_scan"}, "fusion_lon": 0.0}, {"lat": 38.9362925, "is_disabled": 0, "type": "electric_scooter", "lon": -77.05884383333333, "bike_id": "d89b81c263b80e71cb5d8fdebcc56c4b", "fusion_lat": 0.0, "name": "d89b81c263b80e71cb5d8fdebcc56c4b", "is_reserved": 0, "rental_uris": {"android": "https://dc.lft.to/lastmile_qr_scan", "ios": "https://dc.lft.to/lastmile_qr_scan"}, "fusion_lon": 0.0}, {"lat": 38.89595883333333, "is_disabled": 0, "type": "electric_scooter", "lon": -76.95521916666667, "bike_id": "609f2dbef8e7900a0277c1378d2ad9ec", "fusion_lat": 0.0, "name": "609f2dbef8e7900a0277c1378d2ad9ec", "is_reserved": 0, "rental_uris": {"android": "https://dc.lft.to/lastmile_qr_scan", "ios": "https://dc.lft.to/lastmile_qr_scan"}, "fusion_lon": 0.0}, {"lat": 38.902600166666666, "is_disabled": 0, "type": "electric_scooter", "lon": -77.03977766666667, "bike_id": "6520ff24c145e18cde61bcbc49348222", "fusion_lat": 0.0, "name": "6520ff24c145e18cde61bcbc49348222", "is_reserved": 0, "rental_uris": {"android": "https://dc.lft.to/lastmile_qr_scan", "ios": "https://dc.lft.to/lastmile_qr_scan"}, "fusion_lon": 0.0}, {"lat": 38.924664166666666, "is_disabled": 0, "type": "electric_scooter", "lon": -77.03385883333333, "bike_id": "55b8a11341c6fdd7225ea42f7af7320b", "fusion_lat": 0.0, "name": "55b8a11341c6fdd7225ea42f7af7320b", "is_reserved": 0, "rental_uris": {"android": "https://dc.lft.to/lastmile_qr_scan", "ios": "https://dc.lft.to/lastmile_qr_scan"}, "fusion_lon": 0.0}, {"lat": 38.900259166666665, "is_disabled": 0, "type": "electric_scooter", "lon": -77.01180383333333, "bike_id": "eb5d89c832eca3f4583311ee0003ea61", "fusion_lat": 0.0, "name": "eb5d89c832eca3f4583311ee0003ea61", "is_reserved": 0, "rental_uris": {"android": "https://dc.lft.to/lastmile_qr_scan", "ios": "https://dc.lft.to/lastmile_qr_scan"}, "fusion_lon": 0.0}, {"lat": 38.89606933333334, "is_disabled": 0, "type": "electric_scooter", "lon": -77.02801216666667, "bike_id": "0d17bff20e3d96c9413f9842975c3927", "fusion_lat": 0.0, "name": "0d17bff20e3d96c9413f9842975c3927", "is_reserved": 0, "rental_uris": {"android": "https://dc.lft.to/lastmile_qr_scan", "ios": "https://dc.lft.to/lastmile_qr_scan"}, "fusion_lon": 0.0}, {"lat": 38.88726183333333, "is_disabled": 0, "type": "electric_scooter", "lon": -77.0138965, "bike_id": "f426969de82d8bab916b00331e3f71be", "fusion_lat": 0.0, "name": "f426969de82d8bab916b00331e3f71be", "is_reserved": 0, "rental_uris": {"android": "https://dc.lft.to/lastmile_qr_scan", "ios": "https://dc.lft.to/lastmile_qr_scan"}, "fusion_lon": 0.0}, {"lat": 38.872954666666665, "is_disabled": 0, "type": "electric_bike", "lon": -77.01569516666666, "bike_id": "b3c4c03fcdfef2178500ec624e953303", "fusion_lat": 0.0, "name": "b3c4c03fcdfef2178500ec624e953303", "is_reserved": 0, "rental_uris": {"android": "https://dc.lft.to/lastmile_qr_scan", "ios": "https://dc.lft.to/lastmile_qr_scan"}, "fusion_lon": 0.0}, {"lat": 38.9212105, "is_disabled": 0, "type": "electric_scooter", "lon": -77.01805566666667, "bike_id": "9a4e930d2b60f6323fe957f57dbd5515", "fusion_lat": 0.0, "name": "9a4e930d2b60f6323fe957f57dbd5515", "is_reserved": 0, "rental_uris": {"android": "https://dc.lft.to/lastmile_qr_scan", "ios": "https://dc.lft.to/lastmile_qr_scan"}, "fusion_lon": 0.0}, {"lat": 38.9155345, "is_disabled": 0, "type": "electric_scooter", "lon": -77.03167683333334, "bike_id": "5350ce067b53738e5b0014f2a2817516", "fusion_lat": 0.0, "name": "5350ce067b53738e5b0014f2a2817516", "is_reserved": 0, "rental_uris": {"android": "https://dc.lft.to/lastmile_qr_scan", "ios": "https://dc.lft.to/lastmile_qr_scan"}, "fusion_lon": 0.0}, {"lat": 38.9229795, "is_disabled": 0, "type": "electric_scooter", "lon": -77.02245733333334, "bike_id": "fc4ad4da48045bbe377b56f5e9a8fe49", "fusion_lat": 0.0, "name": "fc4ad4da48045bbe377b56f5e9a8fe49", "is_reserved": 0, "rental_uris": {"android": "https://dc.lft.to/lastmile_qr_scan", "ios": "https://dc.lft.to/lastmile_qr_scan"}, "fusion_lon": 0.0}, {"lat": 38.94166966666667, "is_disabled": 0, "type": "electric_scooter", "lon": -77.02342716666666, "bike_id": "024416de0b7c3f2c74f36d1c7609ca0e", "fusion_lat": 0.0, "name": "024416de0b7c3f2c74f36d1c7609ca0e", "is_reserved": 0, "rental_uris": {"android": "https://dc.lft.to/lastmile_qr_scan", "ios": "https://dc.lft.to/lastmile_qr_scan"}, "fusion_lon": 0.0}, {"lat": 38.94942416666667, "is_disabled": 0, "type": "electric_scooter", "lon": -77.02022683333334, "bike_id": "e68b21be41246381de0d6c8542e77636", "fusion_lat": 0.0, "name": "e68b21be41246381de0d6c8542e77636", "is_reserved": 0, "rental_uris": {"android": "https://dc.lft.to/lastmile_qr_scan", "ios": "https://dc.lft.to/lastmile_qr_scan"}, "fusion_lon": 0.0}, {"lat": 38.8626975, "is_disabled": 0, "type": "electric_scooter", "lon": -76.99229266666667, "bike_id": "4f8c2fe764218f996b85ec69099da782", "fusion_lat": 0.0, "name": "4f8c2fe764218f996b85ec69099da782", "is_reserved": 0, "rental_uris": {"android": "https://dc.lft.to/lastmile_qr_scan", "ios": "https://dc.lft.to/lastmile_qr_scan"}, "fusion_lon": 0.0}, {"lat": 38.91694583333334, "is_disabled": 0, "type": "electric_scooter", "lon": -77.03271066666667, "bike_id": "b0f65f8d006974cd8b6b16058de4383a", "fusion_lat": 0.0, "name": "b0f65f8d006974cd8b6b16058de4383a", "is_reserved": 0, "rental_uris": {"android": "https://dc.lft.to/lastmile_qr_scan", "ios": "https://dc.lft.to/lastmile_qr_scan"}, "fusion_lon": 0.0}, {"lat": 38.91918616666667, "is_disabled": 0, "type": "electric_scooter", "lon": -77.0319015, "bike_id": "9fcd216a1d77bbc1ebca74cadc7c500b", "fusion_lat": 0.0, "name": "9fcd216a1d77bbc1ebca74cadc7c500b", "is_reserved": 0, "rental_uris": {"android": "https://dc.lft.to/lastmile_qr_scan", "ios": "https://dc.lft.to/lastmile_qr_scan"}, "fusion_lon": 0.0}, {"lat": 38.9049095, "is_disabled": 0, "type": "electric_scooter", "lon": -77.06270716666667, "bike_id": "7ec7931e52cda7cb0c64c01c2d48171b", "fusion_lat": 0.0, "name": "7ec7931e52cda7cb0c64c01c2d48171b", "is_reserved": 0, "rental_uris": {"android": "https://dc.lft.to/lastmile_qr_scan", "ios": "https://dc.lft.to/lastmile_qr_scan"}, "fusion_lon": 0.0}, {"lat": 38.900502333333336, "is_disabled": 0, "type": "electric_scooter", "lon": -77.013969, "bike_id": "12965b7daef0cd5ad432fa628743d197", "fusion_lat": 0.0, "name": "12965b7daef0cd5ad432fa628743d197", "is_reserved": 0, "rental_uris": {"android": "https://dc.lft.to/lastmile_qr_scan", "ios": "https://dc.lft.to/lastmile_qr_scan"}, "fusion_lon": 0.0}, {"lat": 38.93097783333333, "is_disabled": 0, "type": "electric_scooter", "lon": -76.96727266666667, "bike_id": "351d6e005a9bd4a856ac37a1f8de840d", "fusion_lat": 0.0, "name": "351d6e005a9bd4a856ac37a1f8de840d", "is_reserved": 0, "rental_uris": {"android": "https://dc.lft.to/lastmile_qr_scan", "ios": "https://dc.lft.to/lastmile_qr_scan"}, "fusion_lon": 0.0}, {"lat": 38.91902433333333, "is_disabled": 0, "type": "electric_scooter", "lon": -77.046337, "bike_id": "a5538772151cda13deed8757940eb76e", "fusion_lat": 0.0, "name": "a5538772151cda13deed8757940eb76e", "is_reserved": 0, "rental_uris": {"android": "https://dc.lft.to/lastmile_qr_scan", "ios": "https://dc.lft.to/lastmile_qr_scan"}, "fusion_lon": 0.0}, {"lat": 38.91684166666667, "is_disabled": 0, "type": "electric_scooter", "lon": -77.0308835, "bike_id": "3cfd1e6fe0f722f76120e10d35aaeb20", "fusion_lat": 0.0, "name": "3cfd1e6fe0f722f76120e10d35aaeb20", "is_reserved": 0, "rental_uris": {"android": "https://dc.lft.to/lastmile_qr_scan", "ios": "https://dc.lft.to/lastmile_qr_scan"}, "fusion_lon": 0.0}, {"lat": 38.93891083333333, "is_disabled": 0, "type": "electric_scooter", "lon": -77.06058416666667, "bike_id": "d39370ba8cb73d06dd7320e9a2633090", "fusion_lat": 0.0, "name": "d39370ba8cb73d06dd7320e9a2633090", "is_reserved": 0, "rental_uris": {"android": "https://dc.lft.to/lastmile_qr_scan", "ios": "https://dc.lft.to/lastmile_qr_scan"}, "fusion_lon": 0.0}, {"lat": 38.91208816666666, "is_disabled": 0, "type": "electric_scooter", "lon": -77.03856566666667, "bike_id": "7d27d887000582f1c16e6c7227cb64ad", "fusion_lat": 0.0, "name": "7d27d887000582f1c16e6c7227cb64ad", "is_reserved": 0, "rental_uris": {"android": "https://dc.lft.to/lastmile_qr_scan", "ios": "https://dc.lft.to/lastmile_qr_scan"}, "fusion_lon": 0.0}, {"lat": 38.914047, "is_disabled": 0, "type": "electric_scooter", "lon": -77.01845316666666, "bike_id": "85fb32363cfe7762f8fad930c0767498", "fusion_lat": 0.0, "name": "85fb32363cfe7762f8fad930c0767498", "is_reserved": 0, "rental_uris": {"android": "https://dc.lft.to/lastmile_qr_scan", "ios": "https://dc.lft.to/lastmile_qr_scan"}, "fusion_lon": 0.0}, {"lat": 38.93251683333333, "is_disabled": 0, "type": "electric_scooter", "lon": -77.02969183333333, "bike_id": "75b49d050a4f08d820b6f892b1cf0236", "fusion_lat": 0.0, "name": "75b49d050a4f08d820b6f892b1cf0236", "is_reserved": 0, "rental_uris": {"android": "https://dc.lft.to/lastmile_qr_scan", "ios": "https://dc.lft.to/lastmile_qr_scan"}, "fusion_lon": 0.0}, {"lat": 38.86286616666667, "is_disabled": 0, "type": "electric_bike", "lon": -77.06391383333333, "bike_id": "7e52d57fa1aa3d8fe9fd7f8ee54a4820", "fusion_lat": 0.0, "name": "7e52d57fa1aa3d8fe9fd7f8ee54a4820", "is_reserved": 0, "rental_uris": {"android": "https://dc.lft.to/lastmile_qr_scan", "ios": "https://dc.lft.to/lastmile_qr_scan"}, "fusion_lon": 0.0}, {"lat": 38.863723666666665, "is_disabled": 0, "type": "electric_scooter", "lon": -76.9906175, "bike_id": "c678e04519f7352a43ea01af0093ed23", "fusion_lat": 0.0, "name": "c678e04519f7352a43ea01af0093ed23", "is_reserved": 0, "rental_uris": {"android": "https://dc.lft.to/lastmile_qr_scan", "ios": "https://dc.lft.to/lastmile_qr_scan"}, "fusion_lon": 0.0}, {"lat": 38.9528305, "is_disabled": 0, "type": "electric_bike", "lon": -77.0698425, "bike_id": "65015a6f6f3709dc3d7ea18012593dc4", "fusion_lat": 0.0, "name": "65015a6f6f3709dc3d7ea18012593dc4", "is_reserved": 0, "rental_uris": {"android": "https://dc.lft.to/lastmile_qr_scan", "ios": "https://dc.lft.to/lastmile_qr_scan"}, "fusion_lon": 0.0}, {"lat": 38.90490916666667, "is_disabled": 0, "type": "electric_scooter", "lon": -77.0512405, "bike_id": "da3838f2f590cd0acefd858cea637975", "fusion_lat": 0.0, "name": "da3838f2f590cd0acefd858cea637975", "is_reserved": 0, "rental_uris": {"android": "https://dc.lft.to/lastmile_qr_scan", "ios": "https://dc.lft.to/lastmile_qr_scan"}, "fusion_lon": 0.0}, {"lat": 38.909768166666666, "is_disabled": 0, "type": "electric_scooter", "lon": -77.04804633333333, "bike_id": "1a1cacfe67967e66145cfe7a2b19cc27", "fusion_lat": 0.0, "name": "1a1cacfe67967e66145cfe7a2b19cc27", "is_reserved": 0, "rental_uris": {"android": "https://dc.lft.to/lastmile_qr_scan", "ios": "https://dc.lft.to/lastmile_qr_scan"}, "fusion_lon": 0.0}, {"lat": 38.86521166666667, "is_disabled": 0, "type": "electric_scooter", "lon": -76.990383, "bike_id": "94c597055a1a550aafda4ebdf7188668", "fusion_lat": 0.0, "name": "94c597055a1a550aafda4ebdf7188668", "is_reserved": 0, "rental_uris": {"android": "https://dc.lft.to/lastmile_qr_scan", "ios": "https://dc.lft.to/lastmile_qr_scan"}, "fusion_lon": 0.0}, {"lat": 38.93700416666667, "is_disabled": 0, "type": "electric_scooter", "lon": -77.02400283333333, "bike_id": "594df36bbf893e52eb16c5410748edc9", "fusion_lat": 0.0, "name": "594df36bbf893e52eb16c5410748edc9", "is_reserved": 0, "rental_uris": {"android": "https://dc.lft.to/lastmile_qr_scan", "ios": "https://dc.lft.to/lastmile_qr_scan"}, "fusion_lon": 0.0}, {"lat": 38.89396266666667, "is_disabled": 0, "type": "electric_scooter", "lon": -77.0108035, "bike_id": "9af6993c0140cdbd289244be2fb436a3", "fusion_lat": 0.0, "name": "9af6993c0140cdbd289244be2fb436a3", "is_reserved": 0, "rental_uris": {"android": "https://dc.lft.to/lastmile_qr_scan", "ios": "https://dc.lft.to/lastmile_qr_scan"}, "fusion_lon": 0.0}, {"lat": 38.91947483333333, "is_disabled": 0, "type": "electric_scooter", "lon": -77.04151783333333, "bike_id": "16e178ed539bcfefc76403d07d52e70d", "fusion_lat": 0.0, "name": "16e178ed539bcfefc76403d07d52e70d", "is_reserved": 0, "rental_uris": {"android": "https://dc.lft.to/lastmile_qr_scan", "ios": "https://dc.lft.to/lastmile_qr_scan"}, "fusion_lon": 0.0}, {"lat": 38.90572133333333, "is_disabled": 0, "type": "electric_scooter", "lon": -77.04090683333334, "bike_id": "816942617fea72d1fbe20e6715404f47", "fusion_lat": 0.0, "name": "816942617fea72d1fbe20e6715404f47", "is_reserved": 0, "rental_uris": {"android": "https://dc.lft.to/lastmile_qr_scan", "ios": "https://dc.lft.to/lastmile_qr_scan"}, "fusion_lon": 0.0}, {"lat": 38.912510833333336, "is_disabled": 0, "type": "electric_scooter", "lon": -77.044497, "bike_id": "18ebb14009a35a9dad060ef0fc9ac8de", "fusion_lat": 0.0, "name": "18ebb14009a35a9dad060ef0fc9ac8de", "is_reserved": 0, "rental_uris": {"android": "https://dc.lft.to/lastmile_qr_scan", "ios": "https://dc.lft.to/lastmile_qr_scan"}, "fusion_lon": 0.0}, {"lat": 38.89499516666667, "is_disabled": 0, "type": "electric_bike", "lon": -77.073794, "bike_id": "56a2f86a134425467d4b511b62d22039", "fusion_lat": 0.0, "name": "56a2f86a134425467d4b511b62d22039", "is_reserved": 0, "rental_uris": {"android": "https://dc.lft.to/lastmile_qr_scan", "ios": "https://dc.lft.to/lastmile_qr_scan"}, "fusion_lon": 0.0}, {"lat": 38.894943166666664, "is_disabled": 0, "type": "electric_scooter", "lon": -77.022989, "bike_id": "d73f48ab752c748e5d72befd3c06d709", "fusion_lat": 0.0, "name": "d73f48ab752c748e5d72befd3c06d709", "is_reserved": 0, "rental_uris": {"android": "https://dc.lft.to/lastmile_qr_scan", "ios": "https://dc.lft.to/lastmile_qr_scan"}, "fusion_lon": 0.0}, {"lat": 38.89345516666667, "is_disabled": 0, "type": "electric_scooter", "lon": -76.9493505, "bike_id": "d53efedf67a6bf3ff1274cdefe42afbb", "fusion_lat": 0.0, "name": "d53efedf67a6bf3ff1274cdefe42afbb", "is_reserved": 0, "rental_uris": {"android": "https://dc.lft.to/lastmile_qr_scan", "ios": "https://dc.lft.to/lastmile_qr_scan"}, "fusion_lon": 0.0}, {"lat": 38.92158383333334, "is_disabled": 0, "type": "electric_scooter", "lon": -77.03384166666666, "bike_id": "005510c9a459b9b39298dc32de3f4440", "fusion_lat": 0.0, "name": "005510c9a459b9b39298dc32de3f4440", "is_reserved": 0, "rental_uris": {"android": "https://dc.lft.to/lastmile_qr_scan", "ios": "https://dc.lft.to/lastmile_qr_scan"}, "fusion_lon": 0.0}, {"lat": 38.93469283333334, "is_disabled": 0, "type": "electric_scooter", "lon": -77.0192875, "bike_id": "fc387406f3f3048cb4c86ba332b56b19", "fusion_lat": 0.0, "name": "fc387406f3f3048cb4c86ba332b56b19", "is_reserved": 0, "rental_uris": {"android": "https://dc.lft.to/lastmile_qr_scan", "ios": "https://dc.lft.to/lastmile_qr_scan"}, "fusion_lon": 0.0}, {"lat": 38.902745, "is_disabled": 0, "type": "electric_scooter", "lon": -77.03857183333334, "bike_id": "c40cfb5b727fd312d9b1bad3ad4e49e5", "fusion_lat": 0.0, "name": "c40cfb5b727fd312d9b1bad3ad4e49e5", "is_reserved": 0, "rental_uris": {"android": "https://dc.lft.to/lastmile_qr_scan", "ios": "https://dc.lft.to/lastmile_qr_scan"}, "fusion_lon": 0.0}, {"lat": 38.944273333333335, "is_disabled": 0, "type": "electric_scooter", "lon": -76.99210183333334, "bike_id": "a17b9db2d237a2ba39cd4f3abb5d010f", "fusion_lat": 0.0, "name": "a17b9db2d237a2ba39cd4f3abb5d010f", "is_reserved": 0, "rental_uris": {"android": "https://dc.lft.to/lastmile_qr_scan", "ios": "https://dc.lft.to/lastmile_qr_scan"}, "fusion_lon": 0.0}, {"lat": 38.88122933333333, "is_disabled": 0, "type": "electric_scooter", "lon": -77.00100683333334, "bike_id": "6eeb773c572b7283264336be3d7fc60f", "fusion_lat": 0.0, "name": "6eeb773c572b7283264336be3d7fc60f", "is_reserved": 0, "rental_uris": {"android": "https://dc.lft.to/lastmile_qr_scan", "ios": "https://dc.lft.to/lastmile_qr_scan"}, "fusion_lon": 0.0}, {"lat": 38.885021, "is_disabled": 0, "type": "electric_scooter", "lon": -77.00569433333334, "bike_id": "6ae16fe5de9b604f44d093a0941d63f0", "fusion_lat": 0.0, "name": "6ae16fe5de9b604f44d093a0941d63f0", "is_reserved": 0, "rental_uris": {"android": "https://dc.lft.to/lastmile_qr_scan", "ios": "https://dc.lft.to/lastmile_qr_scan"}, "fusion_lon": 0.0}, {"lat": 38.9323915, "is_disabled": 0, "type": "electric_scooter", "lon": -77.038561, "bike_id": "679c640378780ad1566ac8b94a5203f1", "fusion_lat": 0.0, "name": "679c640378780ad1566ac8b94a5203f1", "is_reserved": 0, "rental_uris": {"android": "https://dc.lft.to/lastmile_qr_scan", "ios": "https://dc.lft.to/lastmile_qr_scan"}, "fusion_lon": 0.0}, {"lat": 38.89798583333334, "is_disabled": 0, "type": "electric_scooter", "lon": -77.03300333333334, "bike_id": "a49ea12e0237542da3ce54f5080ffa80", "fusion_lat": 0.0, "name": "a49ea12e0237542da3ce54f5080ffa80", "is_reserved": 0, "rental_uris": {"android": "https://dc.lft.to/lastmile_qr_scan", "ios": "https://dc.lft.to/lastmile_qr_scan"}, "fusion_lon": 0.0}, {"lat": 38.916626, "is_disabled": 0, "type": "electric_scooter", "lon": -77.04216983333333, "bike_id": "d8b4904b47a4dc17449e4073134eca3c", "fusion_lat": 0.0, "name": "d8b4904b47a4dc17449e4073134eca3c", "is_reserved": 0, "rental_uris": {"android": "https://dc.lft.to/lastmile_qr_scan", "ios": "https://dc.lft.to/lastmile_qr_scan"}, "fusion_lon": 0.0}, {"lat": 38.857894333333334, "is_disabled": 0, "type": "electric_bike", "lon": -76.98748016666667, "bike_id": "84ec8554f916ec77455340695dc16851", "fusion_lat": 0.0, "name": "84ec8554f916ec77455340695dc16851", "is_reserved": 0, "rental_uris": {"android": "https://dc.lft.to/lastmile_qr_scan", "ios": "https://dc.lft.to/lastmile_qr_scan"}, "fusion_lon": 0.0}, {"lat": 38.873727833333334, "is_disabled": 0, "type": "electric_scooter", "lon": -77.00096016666667, "bike_id": "229bf1f2e154ea38671c70bbef6df7f5", "fusion_lat": 0.0, "name": "229bf1f2e154ea38671c70bbef6df7f5", "is_reserved": 0, "rental_uris": {"android": "https://dc.lft.to/lastmile_qr_scan", "ios": "https://dc.lft.to/lastmile_qr_scan"}, "fusion_lon": 0.0}, {"lat": 38.91817416666667, "is_disabled": 0, "type": "electric_scooter", "lon": -77.0047875, "bike_id": "240833021b5fab4ed7da1eae7b404ee6", "fusion_lat": 0.0, "name": "240833021b5fab4ed7da1eae7b404ee6", "is_reserved": 0, "rental_uris": {"android": "https://dc.lft.to/lastmile_qr_scan", "ios": "https://dc.lft.to/lastmile_qr_scan"}, "fusion_lon": 0.0}, {"lat": 38.912518166666665, "is_disabled": 0, "type": "electric_bike", "lon": -77.0223115, "bike_id": "8bebd7014b4fca18e5ba2e5790e88190", "fusion_lat": 0.0, "name": "8bebd7014b4fca18e5ba2e5790e88190", "is_reserved": 0, "rental_uris": {"android": "https://dc.lft.to/lastmile_qr_scan", "ios": "https://dc.lft.to/lastmile_qr_scan"}, "fusion_lon": 0.0}, {"lat": 38.884868, "is_disabled": 0, "type": "electric_bike", "lon": -77.00601516666667, "bike_id": "3d120e8ef6b0d063c23774ee8a5b5734", "fusion_lat": 0.0, "name": "3d120e8ef6b0d063c23774ee8a5b5734", "is_reserved": 0, "rental_uris": {"android": "https://dc.lft.to/lastmile_qr_scan", "ios": "https://dc.lft.to/lastmile_qr_scan"}, "fusion_lon": 0.0}, {"lat": 38.91914033333333, "is_disabled": 0, "type": "electric_scooter", "lon": -77.0338195, "bike_id": "7e34180398cf816d1dc029e11957fee6", "fusion_lat": 0.0, "name": "7e34180398cf816d1dc029e11957fee6", "is_reserved": 0, "rental_uris": {"android": "https://dc.lft.to/lastmile_qr_scan", "ios": "https://dc.lft.to/lastmile_qr_scan"}, "fusion_lon": 0.0}, {"lat": 38.8753345, "is_disabled": 0, "type": "electric_scooter", "lon": -77.0051255, "bike_id": "5503d1fff38a524f0b7dc4264e505e20", "fusion_lat": 0.0, "name": "5503d1fff38a524f0b7dc4264e505e20", "is_reserved": 0, "rental_uris": {"android": "https://dc.lft.to/lastmile_qr_scan", "ios": "https://dc.lft.to/lastmile_qr_scan"}, "fusion_lon": 0.0}, {"lat": 38.92020983333333, "is_disabled": 0, "type": "electric_scooter", "lon": -77.03136233333333, "bike_id": "785b1fc25e8a84d717445e718d412172", "fusion_lat": 0.0, "name": "785b1fc25e8a84d717445e718d412172", "is_reserved": 0, "rental_uris": {"android": "https://dc.lft.to/lastmile_qr_scan", "ios": "https://dc.lft.to/lastmile_qr_scan"}, "fusion_lon": 0.0}, {"lat": 38.898038166666666, "is_disabled": 0, "type": "electric_scooter", "lon": -77.03302633333334, "bike_id": "d60594d1f207f7ba22ef332acf7b7c59", "fusion_lat": 0.0, "name": "d60594d1f207f7ba22ef332acf7b7c59", "is_reserved": 0, "rental_uris": {"android": "https://dc.lft.to/lastmile_qr_scan", "ios": "https://dc.lft.to/lastmile_qr_scan"}, "fusion_lon": 0.0}, {"lat": 38.91255833333334, "is_disabled": 0, "type": "electric_scooter", "lon": -77.03911766666667, "bike_id": "5e71008ae41048cf244efc94a5f1cda5", "fusion_lat": 0.0, "name": "5e71008ae41048cf244efc94a5f1cda5", "is_reserved": 0, "rental_uris": {"android": "https://dc.lft.to/lastmile_qr_scan", "ios": "https://dc.lft.to/lastmile_qr_scan"}, "fusion_lon": 0.0}, {"lat": 38.88540166666667, "is_disabled": 0, "type": "electric_bike", "lon": -77.11789183333333, "bike_id": "5022708ad80b32cb0f16ddbe1bf3ec2c", "fusion_lat": 0.0, "name": "5022708ad80b32cb0f16ddbe1bf3ec2c", "is_reserved": 0, "rental_uris": {"android": "https://dc.lft.to/lastmile_qr_scan", "ios": "https://dc.lft.to/lastmile_qr_scan"}, "fusion_lon": 0.0}, {"lat": 38.88452616666667, "is_disabled": 0, "type": "electric_scooter", "lon": -76.92949766666666, "bike_id": "d737c9988e8882bf2bd587b40b96baf8", "fusion_lat": 0.0, "name": "d737c9988e8882bf2bd587b40b96baf8", "is_reserved": 0, "rental_uris": {"android": "https://dc.lft.to/lastmile_qr_scan", "ios": "https://dc.lft.to/lastmile_qr_scan"}, "fusion_lon": 0.0}, {"lat": 38.998529, "is_disabled": 0, "type": "electric_bike", "lon": -77.02909383333333, "bike_id": "15f0950f54340e6729c9aff769a5676e", "fusion_lat": 0.0, "name": "15f0950f54340e6729c9aff769a5676e", "is_reserved": 0, "rental_uris": {"android": "https://dc.lft.to/lastmile_qr_scan", "ios": "https://dc.lft.to/lastmile_qr_scan"}, "fusion_lon": 0.0}, {"lat": 38.87197533333333, "is_disabled": 0, "type": "electric_scooter", "lon": -77.0061465, "bike_id": "c34dff80ae1472c5f1c9cd87f69b821c", "fusion_lat": 0.0, "name": "c34dff80ae1472c5f1c9cd87f69b821c", "is_reserved": 0, "rental_uris": {"android": "https://dc.lft.to/lastmile_qr_scan", "ios": "https://dc.lft.to/lastmile_qr_scan"}, "fusion_lon": 0.0}, {"lat": 38.9181825, "is_disabled": 0, "type": "electric_scooter", "lon": -77.02708666666666, "bike_id": "9bcf9479e7ece811d1ab2111f04bc845", "fusion_lat": 0.0, "name": "9bcf9479e7ece811d1ab2111f04bc845", "is_reserved": 0, "rental_uris": {"android": "https://dc.lft.to/lastmile_qr_scan", "ios": "https://dc.lft.to/lastmile_qr_scan"}, "fusion_lon": 0.0}, {"lat": 38.9375405, "is_disabled": 0, "type": "electric_scooter", "lon": -77.032885, "bike_id": "551ca2456290cc07032f4bf4934f1c8c", "fusion_lat": 0.0, "name": "551ca2456290cc07032f4bf4934f1c8c", "is_reserved": 0, "rental_uris": {"android": "https://dc.lft.to/lastmile_qr_scan", "ios": "https://dc.lft.to/lastmile_qr_scan"}, "fusion_lon": 0.0}, {"lat": 38.9342805, "is_disabled": 0, "type": "electric_scooter", "lon": -76.96513016666667, "bike_id": "f3f62924a6ac53cdcc0e1c28485d52ce", "fusion_lat": 0.0, "name": "f3f62924a6ac53cdcc0e1c28485d52ce", "is_reserved": 0, "rental_uris": {"android": "https://dc.lft.to/lastmile_qr_scan", "ios": "https://dc.lft.to/lastmile_qr_scan"}, "fusion_lon": 0.0}, {"lat": 38.9155915, "is_disabled": 0, "type": "electric_scooter", "lon": -77.03869466666667, "bike_id": "5e8355c79909f30d3c57162021dae464", "fusion_lat": 0.0, "name": "5e8355c79909f30d3c57162021dae464", "is_reserved": 0, "rental_uris": {"android": "https://dc.lft.to/lastmile_qr_scan", "ios": "https://dc.lft.to/lastmile_qr_scan"}, "fusion_lon": 0.0}, {"lat": 38.887134833333334, "is_disabled": 0, "type": "electric_bike", "lon": -77.13306383333334, "bike_id": "aba6bd8672ed40818f109990ccf209c8", "fusion_lat": 0.0, "name": "aba6bd8672ed40818f109990ccf209c8", "is_reserved": 0, "rental_uris": {"android": "https://dc.lft.to/lastmile_qr_scan", "ios": "https://dc.lft.to/lastmile_qr_scan"}, "fusion_lon": 0.0}, {"lat": 38.936613666666666, "is_disabled": 0, "type": "electric_scooter", "lon": -77.03646533333334, "bike_id": "141b40674baf054902bb22b4c24e5cdc", "fusion_lat": 0.0, "name": "141b40674baf054902bb22b4c24e5cdc", "is_reserved": 0, "rental_uris": {"android": "https://dc.lft.to/lastmile_qr_scan", "ios": "https://dc.lft.to/lastmile_qr_scan"}, "fusion_lon": 0.0}, {"lat": 38.900322333333335, "is_disabled": 0, "type": "electric_scooter", "lon": -77.00569266666666, "bike_id": "8c8e52d4303d81830324b46ef58ed036", "fusion_lat": 0.0, "name": "8c8e52d4303d81830324b46ef58ed036", "is_reserved": 0, "rental_uris": {"android": "https://dc.lft.to/lastmile_qr_scan", "ios": "https://dc.lft.to/lastmile_qr_scan"}, "fusion_lon": 0.0}, {"lat": 38.905254666666664, "is_disabled": 0, "type": "electric_scooter", "lon": -77.06786166666667, "bike_id": "eed0e27600314057a4f36a46004fdb6e", "fusion_lat": 0.0, "name": "eed0e27600314057a4f36a46004fdb6e", "is_reserved": 0, "rental_uris": {"android": "https://dc.lft.to/lastmile_qr_scan", "ios": "https://dc.lft.to/lastmile_qr_scan"}, "fusion_lon": 0.0}, {"lat": 38.8937195, "is_disabled": 0, "type": "electric_scooter", "lon": -77.0481285, "bike_id": "9a8278a17bd7f7b2b3119ee7b1b0dbc4", "fusion_lat": 0.0, "name": "9a8278a17bd7f7b2b3119ee7b1b0dbc4", "is_reserved": 0, "rental_uris": {"android": "https://dc.lft.to/lastmile_qr_scan", "ios": "https://dc.lft.to/lastmile_qr_scan"}, "fusion_lon": 0.0}, {"lat": 38.907745, "is_disabled": 0, "type": "electric_scooter", "lon": -77.0383665, "bike_id": "a2cf6c0a46724fe68bc921b730c006b8", "fusion_lat": 0.0, "name": "a2cf6c0a46724fe68bc921b730c006b8", "is_reserved": 0, "rental_uris": {"android": "https://dc.lft.to/lastmile_qr_scan", "ios": "https://dc.lft.to/lastmile_qr_scan"}, "fusion_lon": 0.0}, {"lat": 38.89184066666667, "is_disabled": 0, "type": "electric_bike", "lon": -77.12262066666666, "bike_id": "b3bdc32db8971d85ae2f19ce3b16b131", "fusion_lat": 0.0, "name": "b3bdc32db8971d85ae2f19ce3b16b131", "is_reserved": 0, "rental_uris": {"android": "https://dc.lft.to/lastmile_qr_scan", "ios": "https://dc.lft.to/lastmile_qr_scan"}, "fusion_lon": 0.0}, {"lat": 38.85804983333333, "is_disabled": 0, "type": "electric_scooter", "lon": -76.98657683333333, "bike_id": "27be846eff70cf47ce289a7c4e1a29ba", "fusion_lat": 0.0, "name": "27be846eff70cf47ce289a7c4e1a29ba", "is_reserved": 0, "rental_uris": {"android": "https://dc.lft.to/lastmile_qr_scan", "ios": "https://dc.lft.to/lastmile_qr_scan"}, "fusion_lon": 0.0}, {"lat": 38.91005066666666, "is_disabled": 0, "type": "electric_scooter", "lon": -77.034785, "bike_id": "563c67b207ac04ebdb421da9456925cb", "fusion_lat": 0.0, "name": "563c67b207ac04ebdb421da9456925cb", "is_reserved": 0, "rental_uris": {"android": "https://dc.lft.to/lastmile_qr_scan", "ios": "https://dc.lft.to/lastmile_qr_scan"}, "fusion_lon": 0.0}, {"lat": 38.923791333333334, "is_disabled": 0, "type": "electric_scooter", "lon": -77.0408185, "bike_id": "cfc602f82754b80056d0d84b484acaf7", "fusion_lat": 0.0, "name": "cfc602f82754b80056d0d84b484acaf7", "is_reserved": 0, "rental_uris": {"android": "https://dc.lft.to/lastmile_qr_scan", "ios": "https://dc.lft.to/lastmile_qr_scan"}, "fusion_lon": 0.0}, {"lat": 38.89059966666667, "is_disabled": 0, "type": "electric_scooter", "lon": -76.94334983333333, "bike_id": "464a07155f250cbb6aaaf769559e363a", "fusion_lat": 0.0, "name": "464a07155f250cbb6aaaf769559e363a", "is_reserved": 0, "rental_uris": {"android": "https://dc.lft.to/lastmile_qr_scan", "ios": "https://dc.lft.to/lastmile_qr_scan"}, "fusion_lon": 0.0}, {"lat": 38.9308315, "is_disabled": 0, "type": "electric_scooter", "lon": -77.02797466666667, "bike_id": "66e124076c4762275d16ee4607f84c35", "fusion_lat": 0.0, "name": "66e124076c4762275d16ee4607f84c35", "is_reserved": 0, "rental_uris": {"android": "https://dc.lft.to/lastmile_qr_scan", "ios": "https://dc.lft.to/lastmile_qr_scan"}, "fusion_lon": 0.0}, {"lat": 38.907172833333334, "is_disabled": 0, "type": "electric_scooter", "lon": -77.02328516666667, "bike_id": "ebac673ed51fecae48382855a8b9f0fd", "fusion_lat": 0.0, "name": "ebac673ed51fecae48382855a8b9f0fd", "is_reserved": 0, "rental_uris": {"android": "https://dc.lft.to/lastmile_qr_scan", "ios": "https://dc.lft.to/lastmile_qr_scan"}, "fusion_lon": 0.0}, {"lat": 38.963885, "is_disabled": 0, "type": "electric_scooter", "lon": -77.02602416666667, "bike_id": "935a40f0e0b3c4ae30ffdca3edb6cb9b", "fusion_lat": 0.0, "name": "935a40f0e0b3c4ae30ffdca3edb6cb9b", "is_reserved": 0, "rental_uris": {"android": "https://dc.lft.to/lastmile_qr_scan", "ios": "https://dc.lft.to/lastmile_qr_scan"}, "fusion_lon": 0.0}, {"lat": 38.9085155, "is_disabled": 0, "type": "electric_scooter", "lon": -76.9994815, "bike_id": "f83c9aaea1b892a2ac236d325afcfcac", "fusion_lat": 0.0, "name": "f83c9aaea1b892a2ac236d325afcfcac", "is_reserved": 0, "rental_uris": {"android": "https://dc.lft.to/lastmile_qr_scan", "ios": "https://dc.lft.to/lastmile_qr_scan"}, "fusion_lon": 0.0}, {"lat": 38.924612, "is_disabled": 0, "type": "electric_bike", "lon": -77.20852, "bike_id": "1c63276a60e431d94261b04d8fca4911", "fusion_lat": 0.0, "name": "1c63276a60e431d94261b04d8fca4911", "is_reserved": 0, "rental_uris": {"android": "https://dc.lft.to/lastmile_qr_scan", "ios": "https://dc.lft.to/lastmile_qr_scan"}, "fusion_lon": 0.0}, {"lat": 38.951786, "is_disabled": 0, "type": "electric_scooter", "lon": -77.02616583333334, "bike_id": "7ef504a2deaf6ab784456592d56531e9", "fusion_lat": 0.0, "name": "7ef504a2deaf6ab784456592d56531e9", "is_reserved": 0, "rental_uris": {"android": "https://dc.lft.to/lastmile_qr_scan", "ios": "https://dc.lft.to/lastmile_qr_scan"}, "fusion_lon": 0.0}, {"lat": 38.954033833333334, "is_disabled": 0, "type": "electric_scooter", "lon": -77.0274975, "bike_id": "4ec084c5c2b65fecbe022314d7272e45", "fusion_lat": 0.0, "name": "4ec084c5c2b65fecbe022314d7272e45", "is_reserved": 0, "rental_uris": {"android": "https://dc.lft.to/lastmile_qr_scan", "ios": "https://dc.lft.to/lastmile_qr_scan"}, "fusion_lon": 0.0}, {"lat": 38.929976333333336, "is_disabled": 0, "type": "electric_scooter", "lon": -77.03660966666666, "bike_id": "9df6ca418a0405fe0d92a9bdf0716d68", "fusion_lat": 0.0, "name": "9df6ca418a0405fe0d92a9bdf0716d68", "is_reserved": 0, "rental_uris": {"android": "https://dc.lft.to/lastmile_qr_scan", "ios": "https://dc.lft.to/lastmile_qr_scan"}, "fusion_lon": 0.0}, {"lat": 38.90066066666667, "is_disabled": 0, "type": "electric_scooter", "lon": -77.0173275, "bike_id": "4d4ab74747a90d6b22624d999a333166", "fusion_lat": 0.0, "name": "4d4ab74747a90d6b22624d999a333166", "is_reserved": 0, "rental_uris": {"android": "https://dc.lft.to/lastmile_qr_scan", "ios": "https://dc.lft.to/lastmile_qr_scan"}, "fusion_lon": 0.0}, {"lat": 38.8983155, "is_disabled": 0, "type": "electric_bike", "lon": -77.0433565, "bike_id": "3fe765409fda74c91c7d0e04f54a76a3", "fusion_lat": 0.0, "name": "3fe765409fda74c91c7d0e04f54a76a3", "is_reserved": 0, "rental_uris": {"android": "https://dc.lft.to/lastmile_qr_scan", "ios": "https://dc.lft.to/lastmile_qr_scan"}, "fusion_lon": 0.0}, {"lat": 38.9038485, "is_disabled": 0, "type": "electric_scooter", "lon": -77.03977783333333, "bike_id": "bb2175244329044f287ec1c18b0f3cb2", "fusion_lat": 0.0, "name": "bb2175244329044f287ec1c18b0f3cb2", "is_reserved": 0, "rental_uris": {"android": "https://dc.lft.to/lastmile_qr_scan", "ios": "https://dc.lft.to/lastmile_qr_scan"}, "fusion_lon": 0.0}, {"lat": 38.905517, "is_disabled": 0, "type": "electric_scooter", "lon": -77.0569265, "bike_id": "b5d50bee95ee91e91229bfd1cf837388", "fusion_lat": 0.0, "name": "b5d50bee95ee91e91229bfd1cf837388", "is_reserved": 0, "rental_uris": {"android": "https://dc.lft.to/lastmile_qr_scan", "ios": "https://dc.lft.to/lastmile_qr_scan"}, "fusion_lon": 0.0}, {"lat": 38.902284333333334, "is_disabled": 0, "type": "electric_scooter", "lon": -77.04840933333334, "bike_id": "894c88859d82ea7be1a927bb96f4859f", "fusion_lat": 0.0, "name": "894c88859d82ea7be1a927bb96f4859f", "is_reserved": 0, "rental_uris": {"android": "https://dc.lft.to/lastmile_qr_scan", "ios": "https://dc.lft.to/lastmile_qr_scan"}, "fusion_lon": 0.0}, {"lat": 38.922181333333334, "is_disabled": 0, "type": "electric_scooter", "lon": -77.04246766666667, "bike_id": "041ce590d99e203bfac67dfe3d82560b", "fusion_lat": 0.0, "name": "041ce590d99e203bfac67dfe3d82560b", "is_reserved": 0, "rental_uris": {"android": "https://dc.lft.to/lastmile_qr_scan", "ios": "https://dc.lft.to/lastmile_qr_scan"}, "fusion_lon": 0.0}, {"lat": 38.888091, "is_disabled": 0, "type": "electric_bike", "lon": -77.03830383333333, "bike_id": "1f8534ac0dcaca3576b0c8a6af0779df", "fusion_lat": 0.0, "name": "1f8534ac0dcaca3576b0c8a6af0779df", "is_reserved": 0, "rental_uris": {"android": "https://dc.lft.to/lastmile_qr_scan", "ios": "https://dc.lft.to/lastmile_qr_scan"}, "fusion_lon": 0.0}, {"lat": 38.89354, "is_disabled": 0, "type": "electric_bike", "lon": -77.187416, "bike_id": "9f85061456628aa42820ae8732ffab27", "fusion_lat": 0.0, "name": "9f85061456628aa42820ae8732ffab27", "is_reserved": 0, "rental_uris": {"android": "https://dc.lft.to/lastmile_qr_scan", "ios": "https://dc.lft.to/lastmile_qr_scan"}, "fusion_lon": 0.0}, {"lat": 38.934286166666666, "is_disabled": 0, "type": "electric_scooter", "lon": -77.02376816666667, "bike_id": "a1f64db7880930c7983cd4b98b44f7be", "fusion_lat": 0.0, "name": "a1f64db7880930c7983cd4b98b44f7be", "is_reserved": 0, "rental_uris": {"android": "https://dc.lft.to/lastmile_qr_scan", "ios": "https://dc.lft.to/lastmile_qr_scan"}, "fusion_lon": 0.0}, {"lat": 38.916434, "is_disabled": 0, "type": "electric_scooter", "lon": -77.00069216666667, "bike_id": "6d337f3cad80b2389b795a44c8970592", "fusion_lat": 0.0, "name": "6d337f3cad80b2389b795a44c8970592", "is_reserved": 0, "rental_uris": {"android": "https://dc.lft.to/lastmile_qr_scan", "ios": "https://dc.lft.to/lastmile_qr_scan"}, "fusion_lon": 0.0}, {"lat": 38.918473, "is_disabled": 0, "type": "electric_scooter", "lon": -77.04500283333333, "bike_id": "6f9949e5d31e1dc3a1d4fd0686ea158c", "fusion_lat": 0.0, "name": "6f9949e5d31e1dc3a1d4fd0686ea158c", "is_reserved": 0, "rental_uris": {"android": "https://dc.lft.to/lastmile_qr_scan", "ios": "https://dc.lft.to/lastmile_qr_scan"}, "fusion_lon": 0.0}, {"lat": 38.88087066666667, "is_disabled": 0, "type": "electric_scooter", "lon": -76.992689, "bike_id": "bc3acb2d8bda4c806bca285c2ae6cf72", "fusion_lat": 0.0, "name": "bc3acb2d8bda4c806bca285c2ae6cf72", "is_reserved": 0, "rental_uris": {"android": "https://dc.lft.to/lastmile_qr_scan", "ios": "https://dc.lft.to/lastmile_qr_scan"}, "fusion_lon": 0.0}, {"lat": 38.933849333333335, "is_disabled": 0, "type": "electric_scooter", "lon": -77.035806, "bike_id": "d99c0fa2308e7cecc46b4aba9f6b7531", "fusion_lat": 0.0, "name": "d99c0fa2308e7cecc46b4aba9f6b7531", "is_reserved": 0, "rental_uris": {"android": "https://dc.lft.to/lastmile_qr_scan", "ios": "https://dc.lft.to/lastmile_qr_scan"}, "fusion_lon": 0.0}, {"lat": 38.897092, "is_disabled": 0, "type": "electric_scooter", "lon": -77.03073316666666, "bike_id": "1060865e2d536d8e5c7399dfcea279da", "fusion_lat": 0.0, "name": "1060865e2d536d8e5c7399dfcea279da", "is_reserved": 0, "rental_uris": {"android": "https://dc.lft.to/lastmile_qr_scan", "ios": "https://dc.lft.to/lastmile_qr_scan"}, "fusion_lon": 0.0}, {"lat": 38.90954466666667, "is_disabled": 0, "type": "electric_scooter", "lon": -77.02376533333333, "bike_id": "9803f0df75a8b5f663c5b36ea9bb82fc", "fusion_lat": 0.0, "name": "9803f0df75a8b5f663c5b36ea9bb82fc", "is_reserved": 0, "rental_uris": {"android": "https://dc.lft.to/lastmile_qr_scan", "ios": "https://dc.lft.to/lastmile_qr_scan"}, "fusion_lon": 0.0}, {"lat": 38.90560633333333, "is_disabled": 0, "type": "electric_scooter", "lon": -77.062857, "bike_id": "e089aa6395f18ca40537ed5b2c895999", "fusion_lat": 0.0, "name": "e089aa6395f18ca40537ed5b2c895999", "is_reserved": 0, "rental_uris": {"android": "https://dc.lft.to/lastmile_qr_scan", "ios": "https://dc.lft.to/lastmile_qr_scan"}, "fusion_lon": 0.0}, {"lat": 38.925059833333336, "is_disabled": 0, "type": "electric_scooter", "lon": -77.0388305, "bike_id": "6f0c64a6967fcc1e9672bcdc6f0ab75d", "fusion_lat": 0.0, "name": "6f0c64a6967fcc1e9672bcdc6f0ab75d", "is_reserved": 0, "rental_uris": {"android": "https://dc.lft.to/lastmile_qr_scan", "ios": "https://dc.lft.to/lastmile_qr_scan"}, "fusion_lon": 0.0}, {"lat": 38.86221166666667, "is_disabled": 0, "type": "electric_scooter", "lon": -76.99463433333334, "bike_id": "29c57756a6d98bb4a37a8a636b95230e", "fusion_lat": 0.0, "name": "29c57756a6d98bb4a37a8a636b95230e", "is_reserved": 0, "rental_uris": {"android": "https://dc.lft.to/lastmile_qr_scan", "ios": "https://dc.lft.to/lastmile_qr_scan"}, "fusion_lon": 0.0}, {"lat": 38.9216035, "is_disabled": 0, "type": "electric_scooter", "lon": -77.03233533333334, "bike_id": "36f814b4ab8c470ee163a2f97f55b2d6", "fusion_lat": 0.0, "name": "36f814b4ab8c470ee163a2f97f55b2d6", "is_reserved": 0, "rental_uris": {"android": "https://dc.lft.to/lastmile_qr_scan", "ios": "https://dc.lft.to/lastmile_qr_scan"}, "fusion_lon": 0.0}, {"lat": 38.973223, "is_disabled": 0, "type": "electric_bike", "lon": -77.0215015, "bike_id": "730844ca3d6ea198191e9ea3f787bc92", "fusion_lat": 0.0, "name": "730844ca3d6ea198191e9ea3f787bc92", "is_reserved": 0, "rental_uris": {"android": "https://dc.lft.to/lastmile_qr_scan", "ios": "https://dc.lft.to/lastmile_qr_scan"}, "fusion_lon": 0.0}, {"lat": 38.902744166666665, "is_disabled": 0, "type": "electric_scooter", "lon": -77.03864616666667, "bike_id": "ff61fb0202191d89da9a2ddfb23ec627", "fusion_lat": 0.0, "name": "ff61fb0202191d89da9a2ddfb23ec627", "is_reserved": 0, "rental_uris": {"android": "https://dc.lft.to/lastmile_qr_scan", "ios": "https://dc.lft.to/lastmile_qr_scan"}, "fusion_lon": 0.0}, {"lat": 38.897810166666666, "is_disabled": 0, "type": "electric_scooter", "lon": -77.0320315, "bike_id": "007640f26a6b78df95512d10e3052c1b", "fusion_lat": 0.0, "name": "007640f26a6b78df95512d10e3052c1b", "is_reserved": 0, "rental_uris": {"android": "https://dc.lft.to/lastmile_qr_scan", "ios": "https://dc.lft.to/lastmile_qr_scan"}, "fusion_lon": 0.0}, {"lat": 38.9093515, "is_disabled": 0, "type": "electric_scooter", "lon": -77.0447235, "bike_id": "7502375bd0cc508a4c9a492d1c479dfb", "fusion_lat": 0.0, "name": "7502375bd0cc508a4c9a492d1c479dfb", "is_reserved": 0, "rental_uris": {"android": "https://dc.lft.to/lastmile_qr_scan", "ios": "https://dc.lft.to/lastmile_qr_scan"}, "fusion_lon": 0.0}, {"lat": 38.91781183333333, "is_disabled": 0, "type": "electric_scooter", "lon": -77.02307883333333, "bike_id": "31f0fdd03d9b3eb385193197cf7babc2", "fusion_lat": 0.0, "name": "31f0fdd03d9b3eb385193197cf7babc2", "is_reserved": 0, "rental_uris": {"android": "https://dc.lft.to/lastmile_qr_scan", "ios": "https://dc.lft.to/lastmile_qr_scan"}, "fusion_lon": 0.0}, {"lat": 38.84419783333333, "is_disabled": 0, "type": "electric_scooter", "lon": -76.99779116666667, "bike_id": "cc004cb24f46fa36155c9aaec207d816", "fusion_lat": 0.0, "name": "cc004cb24f46fa36155c9aaec207d816", "is_reserved": 0, "rental_uris": {"android": "https://dc.lft.to/lastmile_qr_scan", "ios": "https://dc.lft.to/lastmile_qr_scan"}, "fusion_lon": 0.0}, {"lat": 38.92064233333333, "is_disabled": 0, "type": "electric_scooter", "lon": -77.04380933333333, "bike_id": "69b54a36b31c89f211deb859d6b6a631", "fusion_lat": 0.0, "name": "69b54a36b31c89f211deb859d6b6a631", "is_reserved": 0, "rental_uris": {"android": "https://dc.lft.to/lastmile_qr_scan", "ios": "https://dc.lft.to/lastmile_qr_scan"}, "fusion_lon": 0.0}, {"lat": 38.917049166666665, "is_disabled": 0, "type": "electric_scooter", "lon": -77.02635583333333, "bike_id": "c942e92ceb3db7b52a004fde97599efa", "fusion_lat": 0.0, "name": "c942e92ceb3db7b52a004fde97599efa", "is_reserved": 0, "rental_uris": {"android": "https://dc.lft.to/lastmile_qr_scan", "ios": "https://dc.lft.to/lastmile_qr_scan"}, "fusion_lon": 0.0}, {"lat": 38.94547683333333, "is_disabled": 0, "type": "electric_bike", "lon": -76.8954225, "bike_id": "32c31682a861c7191639c973be98924c", "fusion_lat": 0.0, "name": "32c31682a861c7191639c973be98924c", "is_reserved": 0, "rental_uris": {"android": "https://dc.lft.to/lastmile_qr_scan", "ios": "https://dc.lft.to/lastmile_qr_scan"}, "fusion_lon": 0.0}, {"lat": 38.91845383333333, "is_disabled": 0, "type": "electric_scooter", "lon": -77.044972, "bike_id": "3f60d56aefb070a3459a67cc8b850533", "fusion_lat": 0.0, "name": "3f60d56aefb070a3459a67cc8b850533", "is_reserved": 0, "rental_uris": {"android": "https://dc.lft.to/lastmile_qr_scan", "ios": "https://dc.lft.to/lastmile_qr_scan"}, "fusion_lon": 0.0}, {"lat": 38.89527183333333, "is_disabled": 0, "type": "electric_scooter", "lon": -77.03211116666667, "bike_id": "3de157d6221bc5a50bd0b92c27e8f3dc", "fusion_lat": 0.0, "name": "3de157d6221bc5a50bd0b92c27e8f3dc", "is_reserved": 0, "rental_uris": {"android": "https://dc.lft.to/lastmile_qr_scan", "ios": "https://dc.lft.to/lastmile_qr_scan"}, "fusion_lon": 0.0}, {"lat": 38.92308716666667, "is_disabled": 0, "type": "electric_scooter", "lon": -77.04623316666667, "bike_id": "174e143a19bbef99377b134b576cc9f2", "fusion_lat": 0.0, "name": "174e143a19bbef99377b134b576cc9f2", "is_reserved": 0, "rental_uris": {"android": "https://dc.lft.to/lastmile_qr_scan", "ios": "https://dc.lft.to/lastmile_qr_scan"}, "fusion_lon": 0.0}, {"lat": 38.923352, "is_disabled": 0, "type": "electric_scooter", "lon": -77.05055216666666, "bike_id": "90f7f8c6ff99c8783c011d1655262076", "fusion_lat": 0.0, "name": "90f7f8c6ff99c8783c011d1655262076", "is_reserved": 0, "rental_uris": {"android": "https://dc.lft.to/lastmile_qr_scan", "ios": "https://dc.lft.to/lastmile_qr_scan"}, "fusion_lon": 0.0}, {"lat": 38.863861, "is_disabled": 0, "type": "electric_bike", "lon": -76.98993716666666, "bike_id": "f9b08c8817bc13406056a80dd592217a", "fusion_lat": 0.0, "name": "f9b08c8817bc13406056a80dd592217a", "is_reserved": 0, "rental_uris": {"android": "https://dc.lft.to/lastmile_qr_scan", "ios": "https://dc.lft.to/lastmile_qr_scan"}, "fusion_lon": 0.0}, {"lat": 39.00004916666666, "is_disabled": 0, "type": "electric_bike", "lon": -76.91076416666667, "bike_id": "9f9a709f12346ff0b4e6c54886eca939", "fusion_lat": 0.0, "name": "9f9a709f12346ff0b4e6c54886eca939", "is_reserved": 0, "rental_uris": {"android": "https://dc.lft.to/lastmile_qr_scan", "ios": "https://dc.lft.to/lastmile_qr_scan"}, "fusion_lon": 0.0}, {"lat": 38.95194433333333, "is_disabled": 0, "type": "electric_bike", "lon": -76.96730866666667, "bike_id": "e3a6013eb4ace0069c9f33e96bf03a88", "fusion_lat": 0.0, "name": "e3a6013eb4ace0069c9f33e96bf03a88", "is_reserved": 0, "rental_uris": {"android": "https://dc.lft.to/lastmile_qr_scan", "ios": "https://dc.lft.to/lastmile_qr_scan"}, "fusion_lon": 0.0}, {"lat": 38.9294835, "is_disabled": 0, "type": "electric_scooter", "lon": -77.05501783333334, "bike_id": "653a663b6b1dc4846d3e3f328f7cb18a", "fusion_lat": 0.0, "name": "653a663b6b1dc4846d3e3f328f7cb18a", "is_reserved": 0, "rental_uris": {"android": "https://dc.lft.to/lastmile_qr_scan", "ios": "https://dc.lft.to/lastmile_qr_scan"}, "fusion_lon": 0.0}, {"lat": 38.9068425, "is_disabled": 0, "type": "electric_scooter", "lon": -77.0636005, "bike_id": "459174b0a4532caee378a60ad15f6abe", "fusion_lat": 0.0, "name": "459174b0a4532caee378a60ad15f6abe", "is_reserved": 0, "rental_uris": {"android": "https://dc.lft.to/lastmile_qr_scan", "ios": "https://dc.lft.to/lastmile_qr_scan"}, "fusion_lon": 0.0}, {"lat": 38.9036605, "is_disabled": 0, "type": "electric_scooter", "lon": -77.0109155, "bike_id": "da5f48d38e4649af94912437deee861e", "fusion_lat": 0.0, "name": "da5f48d38e4649af94912437deee861e", "is_reserved": 0, "rental_uris": {"android": "https://dc.lft.to/lastmile_qr_scan", "ios": "https://dc.lft.to/lastmile_qr_scan"}, "fusion_lon": 0.0}, {"lat": 38.868096333333334, "is_disabled": 0, "type": "electric_bike", "lon": -76.98026783333333, "bike_id": "e337126411ea2292d22ce3c48bd00bbb", "fusion_lat": 0.0, "name": "e337126411ea2292d22ce3c48bd00bbb", "is_reserved": 0, "rental_uris": {"android": "https://dc.lft.to/lastmile_qr_scan", "ios": "https://dc.lft.to/lastmile_qr_scan"}, "fusion_lon": 0.0}, {"lat": 38.892190666666664, "is_disabled": 0, "type": "electric_scooter", "lon": -77.02446683333334, "bike_id": "aca39a07d3bdb57596ea2950afb0eb37", "fusion_lat": 0.0, "name": "aca39a07d3bdb57596ea2950afb0eb37", "is_reserved": 0, "rental_uris": {"android": "https://dc.lft.to/lastmile_qr_scan", "ios": "https://dc.lft.to/lastmile_qr_scan"}, "fusion_lon": 0.0}, {"lat": 38.9068445, "is_disabled": 0, "type": "electric_scooter", "lon": -77.03593666666667, "bike_id": "7896926acfc19ddb5ba6be0e2bf5fddd", "fusion_lat": 0.0, "name": "7896926acfc19ddb5ba6be0e2bf5fddd", "is_reserved": 0, "rental_uris": {"android": "https://dc.lft.to/lastmile_qr_scan", "ios": "https://dc.lft.to/lastmile_qr_scan"}, "fusion_lon": 0.0}, {"lat": 38.93726, "is_disabled": 0, "type": "electric_scooter", "lon": -77.0244285, "bike_id": "1c622c5399d0fb424a0e2e119eb852d5", "fusion_lat": 0.0, "name": "1c622c5399d0fb424a0e2e119eb852d5", "is_reserved": 0, "rental_uris": {"android": "https://dc.lft.to/lastmile_qr_scan", "ios": "https://dc.lft.to/lastmile_qr_scan"}, "fusion_lon": 0.0}, {"lat": 38.858059833333336, "is_disabled": 0, "type": "electric_scooter", "lon": -76.98653916666666, "bike_id": "5622074a196fae5d9dce3785bb4e67b8", "fusion_lat": 0.0, "name": "5622074a196fae5d9dce3785bb4e67b8", "is_reserved": 0, "rental_uris": {"android": "https://dc.lft.to/lastmile_qr_scan", "ios": "https://dc.lft.to/lastmile_qr_scan"}, "fusion_lon": 0.0}, {"lat": 38.94200266666667, "is_disabled": 0, "type": "electric_bike", "lon": -77.01827933333334, "bike_id": "2c5a599046de7748dd0ff5153bf4ac5e", "fusion_lat": 0.0, "name": "2c5a599046de7748dd0ff5153bf4ac5e", "is_reserved": 0, "rental_uris": {"android": "https://dc.lft.to/lastmile_qr_scan", "ios": "https://dc.lft.to/lastmile_qr_scan"}, "fusion_lon": 0.0}, {"lat": 38.897167333333336, "is_disabled": 0, "type": "electric_scooter", "lon": -77.00799216666667, "bike_id": "057c9efa856ae69519843cf1e2bdfcf5", "fusion_lat": 0.0, "name": "057c9efa856ae69519843cf1e2bdfcf5", "is_reserved": 0, "rental_uris": {"android": "https://dc.lft.to/lastmile_qr_scan", "ios": "https://dc.lft.to/lastmile_qr_scan"}, "fusion_lon": 0.0}, {"lat": 38.943037333333336, "is_disabled": 0, "type": "electric_scooter", "lon": -77.06175316666666, "bike_id": "97efd593ed4528f0b4511a5061fcdbf2", "fusion_lat": 0.0, "name": "97efd593ed4528f0b4511a5061fcdbf2", "is_reserved": 0, "rental_uris": {"android": "https://dc.lft.to/lastmile_qr_scan", "ios": "https://dc.lft.to/lastmile_qr_scan"}, "fusion_lon": 0.0}, {"lat": 38.9177585, "is_disabled": 0, "type": "electric_scooter", "lon": -77.0231185, "bike_id": "59060a92760ad3ff30c3c61470a7732a", "fusion_lat": 0.0, "name": "59060a92760ad3ff30c3c61470a7732a", "is_reserved": 0, "rental_uris": {"android": "https://dc.lft.to/lastmile_qr_scan", "ios": "https://dc.lft.to/lastmile_qr_scan"}, "fusion_lon": 0.0}, {"lat": 38.907315833333335, "is_disabled": 0, "type": "electric_scooter", "lon": -77.042036, "bike_id": "81dd01b46d768e385930d676922687b6", "fusion_lat": 0.0, "name": "81dd01b46d768e385930d676922687b6", "is_reserved": 0, "rental_uris": {"android": "https://dc.lft.to/lastmile_qr_scan", "ios": "https://dc.lft.to/lastmile_qr_scan"}, "fusion_lon": 0.0}, {"lat": 38.892148, "is_disabled": 0, "type": "electric_scooter", "lon": -77.02149016666667, "bike_id": "7af109eb9c3ac827db879a6b24c6c4ce", "fusion_lat": 0.0, "name": "7af109eb9c3ac827db879a6b24c6c4ce", "is_reserved": 0, "rental_uris": {"android": "https://dc.lft.to/lastmile_qr_scan", "ios": "https://dc.lft.to/lastmile_qr_scan"}, "fusion_lon": 0.0}, {"lat": 38.985927, "is_disabled": 0, "type": "electric_bike", "lon": -77.03755983333333, "bike_id": "33550af7a4b62fd4d75b91a2ae703877", "fusion_lat": 0.0, "name": "33550af7a4b62fd4d75b91a2ae703877", "is_reserved": 0, "rental_uris": {"android": "https://dc.lft.to/lastmile_qr_scan", "ios": "https://dc.lft.to/lastmile_qr_scan"}, "fusion_lon": 0.0}, {"lat": 38.89776366666667, "is_disabled": 0, "type": "electric_scooter", "lon": -77.02721666666666, "bike_id": "105d61ac9f83a1c630da35318305d9fa", "fusion_lat": 0.0, "name": "105d61ac9f83a1c630da35318305d9fa", "is_reserved": 0, "rental_uris": {"android": "https://dc.lft.to/lastmile_qr_scan", "ios": "https://dc.lft.to/lastmile_qr_scan"}, "fusion_lon": 0.0}, {"lat": 38.887789166666664, "is_disabled": 0, "type": "electric_scooter", "lon": -76.97644116666666, "bike_id": "3a319c75a3d9da43329ef15b7890cd33", "fusion_lat": 0.0, "name": "3a319c75a3d9da43329ef15b7890cd33", "is_reserved": 0, "rental_uris": {"android": "https://dc.lft.to/lastmile_qr_scan", "ios": "https://dc.lft.to/lastmile_qr_scan"}, "fusion_lon": 0.0}, {"lat": 38.92783633333333, "is_disabled": 0, "type": "electric_scooter", "lon": -77.031532, "bike_id": "5174fbe08322c04a222c9ac1d28ef6c9", "fusion_lat": 0.0, "name": "5174fbe08322c04a222c9ac1d28ef6c9", "is_reserved": 0, "rental_uris": {"android": "https://dc.lft.to/lastmile_qr_scan", "ios": "https://dc.lft.to/lastmile_qr_scan"}, "fusion_lon": 0.0}, {"lat": 38.901597333333335, "is_disabled": 0, "type": "electric_scooter", "lon": -77.04657733333333, "bike_id": "6101df7cb6221abc2de74607b1441f18", "fusion_lat": 0.0, "name": "6101df7cb6221abc2de74607b1441f18", "is_reserved": 0, "rental_uris": {"android": "https://dc.lft.to/lastmile_qr_scan", "ios": "https://dc.lft.to/lastmile_qr_scan"}, "fusion_lon": 0.0}, {"lat": 38.90002633333334, "is_disabled": 0, "type": "electric_scooter", "lon": -76.99119983333334, "bike_id": "26859331629a8b25b48a1b942e570ddf", "fusion_lat": 0.0, "name": "26859331629a8b25b48a1b942e570ddf", "is_reserved": 0, "rental_uris": {"android": "https://dc.lft.to/lastmile_qr_scan", "ios": "https://dc.lft.to/lastmile_qr_scan"}, "fusion_lon": 0.0}, {"lat": 38.91021283333333, "is_disabled": 0, "type": "electric_scooter", "lon": -77.0346005, "bike_id": "ec35993de1d1fbdaac0bd758a8d39a40", "fusion_lat": 0.0, "name": "ec35993de1d1fbdaac0bd758a8d39a40", "is_reserved": 0, "rental_uris": {"android": "https://dc.lft.to/lastmile_qr_scan", "ios": "https://dc.lft.to/lastmile_qr_scan"}, "fusion_lon": 0.0}, {"lat": 38.85213916666667, "is_disabled": 0, "type": "electric_bike", "lon": -77.1295555, "bike_id": "e0c0525473afac2f9845e45895b9a1d7", "fusion_lat": 0.0, "name": "e0c0525473afac2f9845e45895b9a1d7", "is_reserved": 0, "rental_uris": {"android": "https://dc.lft.to/lastmile_qr_scan", "ios": "https://dc.lft.to/lastmile_qr_scan"}, "fusion_lon": 0.0}, {"lat": 38.91107066666667, "is_disabled": 0, "type": "electric_scooter", "lon": -77.04501833333333, "bike_id": "caf7983d81ac917f18aa0bb205105bd8", "fusion_lat": 0.0, "name": "caf7983d81ac917f18aa0bb205105bd8", "is_reserved": 0, "rental_uris": {"android": "https://dc.lft.to/lastmile_qr_scan", "ios": "https://dc.lft.to/lastmile_qr_scan"}, "fusion_lon": 0.0}, {"lat": 38.921281666666665, "is_disabled": 0, "type": "electric_scooter", "lon": -77.01793716666667, "bike_id": "ed07b6860914ad4928e23e960a67f71c", "fusion_lat": 0.0, "name": "ed07b6860914ad4928e23e960a67f71c", "is_reserved": 0, "rental_uris": {"android": "https://dc.lft.to/lastmile_qr_scan", "ios": "https://dc.lft.to/lastmile_qr_scan"}, "fusion_lon": 0.0}, {"lat": 38.86590966666667, "is_disabled": 0, "type": "electric_bike", "lon": -76.93225783333334, "bike_id": "a46b96d1c9fdad4da678a18f5ccae3cd", "fusion_lat": 0.0, "name": "a46b96d1c9fdad4da678a18f5ccae3cd", "is_reserved": 0, "rental_uris": {"android": "https://dc.lft.to/lastmile_qr_scan", "ios": "https://dc.lft.to/lastmile_qr_scan"}, "fusion_lon": 0.0}, {"lat": 38.900516333333336, "is_disabled": 0, "type": "electric_scooter", "lon": -77.00762333333333, "bike_id": "81d28403b5b2fba5f706c7a621c2ee39", "fusion_lat": 0.0, "name": "81d28403b5b2fba5f706c7a621c2ee39", "is_reserved": 0, "rental_uris": {"android": "https://dc.lft.to/lastmile_qr_scan", "ios": "https://dc.lft.to/lastmile_qr_scan"}, "fusion_lon": 0.0}, {"lat": 38.91547583333333, "is_disabled": 0, "type": "electric_scooter", "lon": -77.0384535, "bike_id": "1bc7b80d383ccb20572e08c396b7f919", "fusion_lat": 0.0, "name": "1bc7b80d383ccb20572e08c396b7f919", "is_reserved": 0, "rental_uris": {"android": "https://dc.lft.to/lastmile_qr_scan", "ios": "https://dc.lft.to/lastmile_qr_scan"}, "fusion_lon": 0.0}, {"lat": 38.913209, "is_disabled": 0, "type": "electric_scooter", "lon": -77.031975, "bike_id": "af111df2c25c1aceee8231cad776dcfc", "fusion_lat": 0.0, "name": "af111df2c25c1aceee8231cad776dcfc", "is_reserved": 0, "rental_uris": {"android": "https://dc.lft.to/lastmile_qr_scan", "ios": "https://dc.lft.to/lastmile_qr_scan"}, "fusion_lon": 0.0}, {"lat": 38.9217045, "is_disabled": 0, "type": "electric_scooter", "lon": -77.05140166666666, "bike_id": "e39b5314e4f54f34a2f8a04b3be9d257", "fusion_lat": 0.0, "name": "e39b5314e4f54f34a2f8a04b3be9d257", "is_reserved": 0, "rental_uris": {"android": "https://dc.lft.to/lastmile_qr_scan", "ios": "https://dc.lft.to/lastmile_qr_scan"}, "fusion_lon": 0.0}, {"lat": 38.98460033333333, "is_disabled": 0, "type": "electric_bike", "lon": -76.95529266666667, "bike_id": "2bd6c869f35315d05018c0c96b4ce7b6", "fusion_lat": 0.0, "name": "2bd6c869f35315d05018c0c96b4ce7b6", "is_reserved": 0, "rental_uris": {"android": "https://dc.lft.to/lastmile_qr_scan", "ios": "https://dc.lft.to/lastmile_qr_scan"}, "fusion_lon": 0.0}, {"lat": 38.92433183333333, "is_disabled": 0, "type": "electric_scooter", "lon": -77.04014766666667, "bike_id": "da27fbe1f27b1cd2cdcc0b5f33cc96ef", "fusion_lat": 0.0, "name": "da27fbe1f27b1cd2cdcc0b5f33cc96ef", "is_reserved": 0, "rental_uris": {"android": "https://dc.lft.to/lastmile_qr_scan", "ios": "https://dc.lft.to/lastmile_qr_scan"}, "fusion_lon": 0.0}, {"lat": 38.89720116666667, "is_disabled": 0, "type": "electric_scooter", "lon": -77.00714116666667, "bike_id": "0444796e8bf323c9e52b0fc06bc64012", "fusion_lat": 0.0, "name": "0444796e8bf323c9e52b0fc06bc64012", "is_reserved": 0, "rental_uris": {"android": "https://dc.lft.to/lastmile_qr_scan", "ios": "https://dc.lft.to/lastmile_qr_scan"}, "fusion_lon": 0.0}, {"lat": 38.90711, "is_disabled": 0, "type": "electric_scooter", "lon": -77.02682, "bike_id": "f5d2f05b801f2f89ccc0fc12b09ea475", "fusion_lat": 0.0, "name": "f5d2f05b801f2f89ccc0fc12b09ea475", "is_reserved": 0, "rental_uris": {"android": "https://dc.lft.to/lastmile_qr_scan", "ios": "https://dc.lft.to/lastmile_qr_scan"}, "fusion_lon": 0.0}, {"lat": 38.89992066666667, "is_disabled": 0, "type": "electric_scooter", "lon": -77.0061925, "bike_id": "15da757e8be0c6402a374b5d9aea02d9", "fusion_lat": 0.0, "name": "15da757e8be0c6402a374b5d9aea02d9", "is_reserved": 0, "rental_uris": {"android": "https://dc.lft.to/lastmile_qr_scan", "ios": "https://dc.lft.to/lastmile_qr_scan"}, "fusion_lon": 0.0}, {"lat": 38.90492066666667, "is_disabled": 0, "type": "electric_scooter", "lon": -77.05368733333333, "bike_id": "d6727af325dc2ca2d4cc534e6c273acb", "fusion_lat": 0.0, "name": "d6727af325dc2ca2d4cc534e6c273acb", "is_reserved": 0, "rental_uris": {"android": "https://dc.lft.to/lastmile_qr_scan", "ios": "https://dc.lft.to/lastmile_qr_scan"}, "fusion_lon": 0.0}, {"lat": 38.944311666666664, "is_disabled": 0, "type": "electric_scooter", "lon": -77.0630635, "bike_id": "bb093c84c8e629a1c2c481df63825781", "fusion_lat": 0.0, "name": "bb093c84c8e629a1c2c481df63825781", "is_reserved": 0, "rental_uris": {"android": "https://dc.lft.to/lastmile_qr_scan", "ios": "https://dc.lft.to/lastmile_qr_scan"}, "fusion_lon": 0.0}, {"lat": 38.87470316666667, "is_disabled": 0, "type": "electric_scooter", "lon": -77.00553116666667, "bike_id": "0171f0a2e0393a20f8359c18c3a7c38f", "fusion_lat": 0.0, "name": "0171f0a2e0393a20f8359c18c3a7c38f", "is_reserved": 0, "rental_uris": {"android": "https://dc.lft.to/lastmile_qr_scan", "ios": "https://dc.lft.to/lastmile_qr_scan"}, "fusion_lon": 0.0}, {"lat": 38.92050116666667, "is_disabled": 0, "type": "electric_scooter", "lon": -77.0242825, "bike_id": "7b180694aed716d8f8e609cf688480e8", "fusion_lat": 0.0, "name": "7b180694aed716d8f8e609cf688480e8", "is_reserved": 0, "rental_uris": {"android": "https://dc.lft.to/lastmile_qr_scan", "ios": "https://dc.lft.to/lastmile_qr_scan"}, "fusion_lon": 0.0}, {"lat": 38.9050595, "is_disabled": 0, "type": "electric_scooter", "lon": -77.05078166666667, "bike_id": "ace83935de9801bd7ffa194cf9e90e3d", "fusion_lat": 0.0, "name": "ace83935de9801bd7ffa194cf9e90e3d", "is_reserved": 0, "rental_uris": {"android": "https://dc.lft.to/lastmile_qr_scan", "ios": "https://dc.lft.to/lastmile_qr_scan"}, "fusion_lon": 0.0}, {"lat": 38.911183666666666, "is_disabled": 0, "type": "electric_scooter", "lon": -77.02227483333333, "bike_id": "c510c40aa88b73be21221cb4eab31e49", "fusion_lat": 0.0, "name": "c510c40aa88b73be21221cb4eab31e49", "is_reserved": 0, "rental_uris": {"android": "https://dc.lft.to/lastmile_qr_scan", "ios": "https://dc.lft.to/lastmile_qr_scan"}, "fusion_lon": 0.0}, {"lat": 38.90812416666667, "is_disabled": 0, "type": "electric_scooter", "lon": -76.99717816666667, "bike_id": "005d0cb22f024de90157706e8ef0de9d", "fusion_lat": 0.0, "name": "005d0cb22f024de90157706e8ef0de9d", "is_reserved": 0, "rental_uris": {"android": "https://dc.lft.to/lastmile_qr_scan", "ios": "https://dc.lft.to/lastmile_qr_scan"}, "fusion_lon": 0.0}, {"lat": 38.92186433333333, "is_disabled": 0, "type": "electric_scooter", "lon": -77.0319335, "bike_id": "e80dd4a6563b32270670dd7660ee81fb", "fusion_lat": 0.0, "name": "e80dd4a6563b32270670dd7660ee81fb", "is_reserved": 0, "rental_uris": {"android": "https://dc.lft.to/lastmile_qr_scan", "ios": "https://dc.lft.to/lastmile_qr_scan"}, "fusion_lon": 0.0}, {"lat": 38.871476333333334, "is_disabled": 0, "type": "electric_bike", "lon": -76.9367155, "bike_id": "e0950d2e689fce64068b546875b48594", "fusion_lat": 0.0, "name": "e0950d2e689fce64068b546875b48594", "is_reserved": 0, "rental_uris": {"android": "https://dc.lft.to/lastmile_qr_scan", "ios": "https://dc.lft.to/lastmile_qr_scan"}, "fusion_lon": 0.0}, {"lat": 38.94453216666667, "is_disabled": 0, "type": "electric_bike", "lon": -77.02331033333333, "bike_id": "df98c297b919790f8d2ec72c0c1453e6", "fusion_lat": 0.0, "name": "df98c297b919790f8d2ec72c0c1453e6", "is_reserved": 0, "rental_uris": {"android": "https://dc.lft.to/lastmile_qr_scan", "ios": "https://dc.lft.to/lastmile_qr_scan"}, "fusion_lon": 0.0}, {"lat": 38.883101, "is_disabled": 0, "type": "electric_scooter", "lon": -77.00935016666666, "bike_id": "cc0b63f0ab6acac1a38ecf4ef247d357", "fusion_lat": 0.0, "name": "cc0b63f0ab6acac1a38ecf4ef247d357", "is_reserved": 0, "rental_uris": {"android": "https://dc.lft.to/lastmile_qr_scan", "ios": "https://dc.lft.to/lastmile_qr_scan"}, "fusion_lon": 0.0}, {"lat": 38.89248583333333, "is_disabled": 0, "type": "electric_scooter", "lon": -76.94338233333333, "bike_id": "5af5b3d4ab7f79c6f1ac408c86bfb73d", "fusion_lat": 0.0, "name": "5af5b3d4ab7f79c6f1ac408c86bfb73d", "is_reserved": 0, "rental_uris": {"android": "https://dc.lft.to/lastmile_qr_scan", "ios": "https://dc.lft.to/lastmile_qr_scan"}, "fusion_lon": 0.0}, {"lat": 38.923600666666665, "is_disabled": 0, "type": "electric_scooter", "lon": -77.04159566666667, "bike_id": "6a8f001f3871cc751b52d53b14442b79", "fusion_lat": 0.0, "name": "6a8f001f3871cc751b52d53b14442b79", "is_reserved": 0, "rental_uris": {"android": "https://dc.lft.to/lastmile_qr_scan", "ios": "https://dc.lft.to/lastmile_qr_scan"}, "fusion_lon": 0.0}, {"lat": 38.947824, "is_disabled": 0, "type": "electric_scooter", "lon": -77.07945266666667, "bike_id": "789e41c28b700816aeb5a5fc02402fb8", "fusion_lat": 0.0, "name": "789e41c28b700816aeb5a5fc02402fb8", "is_reserved": 0, "rental_uris": {"android": "https://dc.lft.to/lastmile_qr_scan", "ios": "https://dc.lft.to/lastmile_qr_scan"}, "fusion_lon": 0.0}, {"lat": 38.9069565, "is_disabled": 0, "type": "electric_scooter", "lon": -77.04350383333333, "bike_id": "b69076bfc6d35d061ea5203ee51c7cbc", "fusion_lat": 0.0, "name": "b69076bfc6d35d061ea5203ee51c7cbc", "is_reserved": 0, "rental_uris": {"android": "https://dc.lft.to/lastmile_qr_scan", "ios": "https://dc.lft.to/lastmile_qr_scan"}, "fusion_lon": 0.0}, {"lat": 38.9033155, "is_disabled": 0, "type": "electric_scooter", "lon": -77.03895716666666, "bike_id": "5556408238b2da81699327d19fe6bb45", "fusion_lat": 0.0, "name": "5556408238b2da81699327d19fe6bb45", "is_reserved": 0, "rental_uris": {"android": "https://dc.lft.to/lastmile_qr_scan", "ios": "https://dc.lft.to/lastmile_qr_scan"}, "fusion_lon": 0.0}, {"lat": 38.90518766666667, "is_disabled": 0, "type": "electric_scooter", "lon": -77.06454016666666, "bike_id": "496a79cb15df01406a1576edf932b25e", "fusion_lat": 0.0, "name": "496a79cb15df01406a1576edf932b25e", "is_reserved": 0, "rental_uris": {"android": "https://dc.lft.to/lastmile_qr_scan", "ios": "https://dc.lft.to/lastmile_qr_scan"}, "fusion_lon": 0.0}, {"lat": 38.890401833333335, "is_disabled": 0, "type": "electric_scooter", "lon": -76.9409365, "bike_id": "2e04647e4001dc14f862782ee90dfc50", "fusion_lat": 0.0, "name": "2e04647e4001dc14f862782ee90dfc50", "is_reserved": 0, "rental_uris": {"android": "https://dc.lft.to/lastmile_qr_scan", "ios": "https://dc.lft.to/lastmile_qr_scan"}, "fusion_lon": 0.0}, {"lat": 38.95886216666667, "is_disabled": 0, "type": "electric_bike", "lon": -76.92487733333333, "bike_id": "7124f8e61c45dfdef8fca113d7ec5358", "fusion_lat": 0.0, "name": "7124f8e61c45dfdef8fca113d7ec5358", "is_reserved": 0, "rental_uris": {"android": "https://dc.lft.to/lastmile_qr_scan", "ios": "https://dc.lft.to/lastmile_qr_scan"}, "fusion_lon": 0.0}, {"lat": 38.91740733333334, "is_disabled": 0, "type": "electric_scooter", "lon": -77.03197133333333, "bike_id": "c57658e71f9be44925d7b783b28fb647", "fusion_lat": 0.0, "name": "c57658e71f9be44925d7b783b28fb647", "is_reserved": 0, "rental_uris": {"android": "https://dc.lft.to/lastmile_qr_scan", "ios": "https://dc.lft.to/lastmile_qr_scan"}, "fusion_lon": 0.0}, {"lat": 38.908044, "is_disabled": 0, "type": "electric_scooter", "lon": -77.0433735, "bike_id": "e7445d5659fae8be8e35a2736533e7e2", "fusion_lat": 0.0, "name": "e7445d5659fae8be8e35a2736533e7e2", "is_reserved": 0, "rental_uris": {"android": "https://dc.lft.to/lastmile_qr_scan", "ios": "https://dc.lft.to/lastmile_qr_scan"}, "fusion_lon": 0.0}, {"lat": 38.92095166666667, "is_disabled": 0, "type": "electric_scooter", "lon": -77.04371183333333, "bike_id": "4d39c4aed5a00e60e3c64552a1152bab", "fusion_lat": 0.0, "name": "4d39c4aed5a00e60e3c64552a1152bab", "is_reserved": 0, "rental_uris": {"android": "https://dc.lft.to/lastmile_qr_scan", "ios": "https://dc.lft.to/lastmile_qr_scan"}, "fusion_lon": 0.0}, {"lat": 38.905583666666665, "is_disabled": 0, "type": "electric_scooter", "lon": -77.04337783333334, "bike_id": "7c9bd3d6eae3237e41dc11459a905291", "fusion_lat": 0.0, "name": "7c9bd3d6eae3237e41dc11459a905291", "is_reserved": 0, "rental_uris": {"android": "https://dc.lft.to/lastmile_qr_scan", "ios": "https://dc.lft.to/lastmile_qr_scan"}, "fusion_lon": 0.0}, {"lat": 38.871866833333335, "is_disabled": 0, "type": "electric_scooter", "lon": -76.97383483333333, "bike_id": "42d81190a7d80a789bce5228e9d1706f", "fusion_lat": 0.0, "name": "42d81190a7d80a789bce5228e9d1706f", "is_reserved": 0, "rental_uris": {"android": "https://dc.lft.to/lastmile_qr_scan", "ios": "https://dc.lft.to/lastmile_qr_scan"}, "fusion_lon": 0.0}, {"lat": 38.90859366666667, "is_disabled": 0, "type": "electric_scooter", "lon": -77.00617433333333, "bike_id": "5c6aa31f734dcbf4589ef250de927bea", "fusion_lat": 0.0, "name": "5c6aa31f734dcbf4589ef250de927bea", "is_reserved": 0, "rental_uris": {"android": "https://dc.lft.to/lastmile_qr_scan", "ios": "https://dc.lft.to/lastmile_qr_scan"}, "fusion_lon": 0.0}, {"lat": 38.906698166666665, "is_disabled": 0, "type": "electric_scooter", "lon": -76.9878665, "bike_id": "a9fe77ad37c3a9c36df84cbc9cc695a7", "fusion_lat": 0.0, "name": "a9fe77ad37c3a9c36df84cbc9cc695a7", "is_reserved": 0, "rental_uris": {"android": "https://dc.lft.to/lastmile_qr_scan", "ios": "https://dc.lft.to/lastmile_qr_scan"}, "fusion_lon": 0.0}, {"lat": 38.900009, "is_disabled": 0, "type": "electric_scooter", "lon": -77.05258533333334, "bike_id": "e5522bffac9e710191858b20409eaed8", "fusion_lat": 0.0, "name": "e5522bffac9e710191858b20409eaed8", "is_reserved": 0, "rental_uris": {"android": "https://dc.lft.to/lastmile_qr_scan", "ios": "https://dc.lft.to/lastmile_qr_scan"}, "fusion_lon": 0.0}, {"lat": 38.90638116666667, "is_disabled": 0, "type": "electric_scooter", "lon": -77.042531, "bike_id": "7b90f6a57ca0ce4d07caba55093a34ca", "fusion_lat": 0.0, "name": "7b90f6a57ca0ce4d07caba55093a34ca", "is_reserved": 0, "rental_uris": {"android": "https://dc.lft.to/lastmile_qr_scan", "ios": "https://dc.lft.to/lastmile_qr_scan"}, "fusion_lon": 0.0}, {"lat": 38.92549983333333, "is_disabled": 0, "type": "electric_scooter", "lon": -77.03662366666667, "bike_id": "61dfff3d3658a1a82ddbf7c2ae4cf1bd", "fusion_lat": 0.0, "name": "61dfff3d3658a1a82ddbf7c2ae4cf1bd", "is_reserved": 0, "rental_uris": {"android": "https://dc.lft.to/lastmile_qr_scan", "ios": "https://dc.lft.to/lastmile_qr_scan"}, "fusion_lon": 0.0}, {"lat": 38.895348, "is_disabled": 0, "type": "electric_scooter", "lon": -77.04836333333333, "bike_id": "9cf40b3204321a7240d4e09cf467306f", "fusion_lat": 0.0, "name": "9cf40b3204321a7240d4e09cf467306f", "is_reserved": 0, "rental_uris": {"android": "https://dc.lft.to/lastmile_qr_scan", "ios": "https://dc.lft.to/lastmile_qr_scan"}, "fusion_lon": 0.0}, {"lat": 38.892773, "is_disabled": 0, "type": "electric_scooter", "lon": -77.050384, "bike_id": "146060f9d4a64d6010e1d97b05a2de74", "fusion_lat": 0.0, "name": "146060f9d4a64d6010e1d97b05a2de74", "is_reserved": 0, "rental_uris": {"android": "https://dc.lft.to/lastmile_qr_scan", "ios": "https://dc.lft.to/lastmile_qr_scan"}, "fusion_lon": 0.0}, {"lat": 38.93030483333333, "is_disabled": 0, "type": "electric_scooter", "lon": -77.03224683333333, "bike_id": "7720e50fbbf45af2e6b3dc8bc23d9af9", "fusion_lat": 0.0, "name": "7720e50fbbf45af2e6b3dc8bc23d9af9", "is_reserved": 0, "rental_uris": {"android": "https://dc.lft.to/lastmile_qr_scan", "ios": "https://dc.lft.to/lastmile_qr_scan"}, "fusion_lon": 0.0}, {"lat": 38.89712383333333, "is_disabled": 0, "type": "electric_scooter", "lon": -77.0311865, "bike_id": "91e0954bf3932c715338376043a175fb", "fusion_lat": 0.0, "name": "91e0954bf3932c715338376043a175fb", "is_reserved": 0, "rental_uris": {"android": "https://dc.lft.to/lastmile_qr_scan", "ios": "https://dc.lft.to/lastmile_qr_scan"}, "fusion_lon": 0.0}, {"lat": 38.92480916666667, "is_disabled": 0, "type": "electric_scooter", "lon": -77.02722733333333, "bike_id": "6a958c5dc0193294e6aae3395a522e99", "fusion_lat": 0.0, "name": "6a958c5dc0193294e6aae3395a522e99", "is_reserved": 0, "rental_uris": {"android": "https://dc.lft.to/lastmile_qr_scan", "ios": "https://dc.lft.to/lastmile_qr_scan"}, "fusion_lon": 0.0}, {"lat": 38.9331475, "is_disabled": 0, "type": "electric_scooter", "lon": -77.02927833333334, "bike_id": "283ebc5da085e2406cd1a0965d0b4419", "fusion_lat": 0.0, "name": "283ebc5da085e2406cd1a0965d0b4419", "is_reserved": 0, "rental_uris": {"android": "https://dc.lft.to/lastmile_qr_scan", "ios": "https://dc.lft.to/lastmile_qr_scan"}, "fusion_lon": 0.0}, {"lat": 38.90602066666667, "is_disabled": 0, "type": "electric_scooter", "lon": -77.03985583333333, "bike_id": "ef63d56a002a1b478c947087dd48359f", "fusion_lat": 0.0, "name": "ef63d56a002a1b478c947087dd48359f", "is_reserved": 0, "rental_uris": {"android": "https://dc.lft.to/lastmile_qr_scan", "ios": "https://dc.lft.to/lastmile_qr_scan"}, "fusion_lon": 0.0}, {"lat": 38.906830166666666, "is_disabled": 0, "type": "electric_scooter", "lon": -77.02696183333333, "bike_id": "eb8115a160734fd962f72698380c6c70", "fusion_lat": 0.0, "name": "eb8115a160734fd962f72698380c6c70", "is_reserved": 0, "rental_uris": {"android": "https://dc.lft.to/lastmile_qr_scan", "ios": "https://dc.lft.to/lastmile_qr_scan"}, "fusion_lon": 0.0}, {"lat": 38.934894666666665, "is_disabled": 0, "type": "electric_scooter", "lon": -77.0327545, "bike_id": "d1be8d721d3251349f870322d5808be5", "fusion_lat": 0.0, "name": "d1be8d721d3251349f870322d5808be5", "is_reserved": 0, "rental_uris": {"android": "https://dc.lft.to/lastmile_qr_scan", "ios": "https://dc.lft.to/lastmile_qr_scan"}, "fusion_lon": 0.0}, {"lat": 38.898811333333335, "is_disabled": 0, "type": "electric_scooter", "lon": -76.93180866666667, "bike_id": "77fd3bf5afaff66ea128ec5d516db815", "fusion_lat": 0.0, "name": "77fd3bf5afaff66ea128ec5d516db815", "is_reserved": 0, "rental_uris": {"android": "https://dc.lft.to/lastmile_qr_scan", "ios": "https://dc.lft.to/lastmile_qr_scan"}, "fusion_lon": 0.0}, {"lat": 38.93488116666666, "is_disabled": 0, "type": "electric_scooter", "lon": -77.0727775, "bike_id": "1fe8f49aef2b9a4587b0aa4c7b827de9", "fusion_lat": 0.0, "name": "1fe8f49aef2b9a4587b0aa4c7b827de9", "is_reserved": 0, "rental_uris": {"android": "https://dc.lft.to/lastmile_qr_scan", "ios": "https://dc.lft.to/lastmile_qr_scan"}, "fusion_lon": 0.0}, {"lat": 38.90954, "is_disabled": 0, "type": "electric_scooter", "lon": -77.03473866666667, "bike_id": "54eeea8dd305966e9ef12033c9cef0f6", "fusion_lat": 0.0, "name": "54eeea8dd305966e9ef12033c9cef0f6", "is_reserved": 0, "rental_uris": {"android": "https://dc.lft.to/lastmile_qr_scan", "ios": "https://dc.lft.to/lastmile_qr_scan"}, "fusion_lon": 0.0}, {"lat": 38.906743, "is_disabled": 0, "type": "electric_scooter", "lon": -77.02380883333333, "bike_id": "d2621c625bb671be0de6081b1ad2625c", "fusion_lat": 0.0, "name": "d2621c625bb671be0de6081b1ad2625c", "is_reserved": 0, "rental_uris": {"android": "https://dc.lft.to/lastmile_qr_scan", "ios": "https://dc.lft.to/lastmile_qr_scan"}, "fusion_lon": 0.0}, {"lat": 38.9051245, "is_disabled": 0, "type": "electric_scooter", "lon": -77.06866433333333, "bike_id": "2b6a99d9c45ad158b7df82069f854363", "fusion_lat": 0.0, "name": "2b6a99d9c45ad158b7df82069f854363", "is_reserved": 0, "rental_uris": {"android": "https://dc.lft.to/lastmile_qr_scan", "ios": "https://dc.lft.to/lastmile_qr_scan"}, "fusion_lon": 0.0}, {"lat": 38.877783666666666, "is_disabled": 0, "type": "electric_scooter", "lon": -77.01441516666667, "bike_id": "7d0685e69354392ebc706a381b0945c2", "fusion_lat": 0.0, "name": "7d0685e69354392ebc706a381b0945c2", "is_reserved": 0, "rental_uris": {"android": "https://dc.lft.to/lastmile_qr_scan", "ios": "https://dc.lft.to/lastmile_qr_scan"}, "fusion_lon": 0.0}, {"lat": 38.89986116666667, "is_disabled": 0, "type": "electric_bike", "lon": -76.98121533333334, "bike_id": "60cd5f603e3aa41a23fc8d4fbc598ae9", "fusion_lat": 0.0, "name": "60cd5f603e3aa41a23fc8d4fbc598ae9", "is_reserved": 0, "rental_uris": {"android": "https://dc.lft.to/lastmile_qr_scan", "ios": "https://dc.lft.to/lastmile_qr_scan"}, "fusion_lon": 0.0}, {"lat": 38.89167783333333, "is_disabled": 0, "type": "electric_scooter", "lon": -77.01549966666667, "bike_id": "1e95e406f0c08aa23d158fda9abdf4fc", "fusion_lat": 0.0, "name": "1e95e406f0c08aa23d158fda9abdf4fc", "is_reserved": 0, "rental_uris": {"android": "https://dc.lft.to/lastmile_qr_scan", "ios": "https://dc.lft.to/lastmile_qr_scan"}, "fusion_lon": 0.0}, {"lat": 38.9197725, "is_disabled": 0, "type": "electric_scooter", "lon": -77.041855, "bike_id": "0c4614c5d8cc068e9e16a1766c9a9724", "fusion_lat": 0.0, "name": "0c4614c5d8cc068e9e16a1766c9a9724", "is_reserved": 0, "rental_uris": {"android": "https://dc.lft.to/lastmile_qr_scan", "ios": "https://dc.lft.to/lastmile_qr_scan"}, "fusion_lon": 0.0}, {"lat": 38.927496166666664, "is_disabled": 0, "type": "electric_scooter", "lon": -77.00599566666666, "bike_id": "02b04c9ff511709eaeb8de2c47ce5837", "fusion_lat": 0.0, "name": "02b04c9ff511709eaeb8de2c47ce5837", "is_reserved": 0, "rental_uris": {"android": "https://dc.lft.to/lastmile_qr_scan", "ios": "https://dc.lft.to/lastmile_qr_scan"}, "fusion_lon": 0.0}, {"lat": 38.9011765, "is_disabled": 0, "type": "electric_scooter", "lon": -77.0288335, "bike_id": "1a5eb5525c873c21729b2d2266adf4bf", "fusion_lat": 0.0, "name": "1a5eb5525c873c21729b2d2266adf4bf", "is_reserved": 0, "rental_uris": {"android": "https://dc.lft.to/lastmile_qr_scan", "ios": "https://dc.lft.to/lastmile_qr_scan"}, "fusion_lon": 0.0}, {"lat": 38.885155166666664, "is_disabled": 0, "type": "electric_scooter", "lon": -77.0056885, "bike_id": "ce1955fda777e20981847fa441d58e3e", "fusion_lat": 0.0, "name": "ce1955fda777e20981847fa441d58e3e", "is_reserved": 0, "rental_uris": {"android": "https://dc.lft.to/lastmile_qr_scan", "ios": "https://dc.lft.to/lastmile_qr_scan"}, "fusion_lon": 0.0},