{"data": {"bikes": [{"fusion_lon": 0.0, "is_reserved": 0, "type": "electric_scooter", "lon": -77.02981566666666, "fusion_lat": 0.0, "name": "53f11299a115d598131cb2c8a5500cb6", "bike_id": "53f11299a115d598131cb2c8a5500cb6", "lat": 38.90720966666667, "is_disabled": 0, "rental_uris": {"ios": "https://dc.lft.to/lastmile_qr_scan", "android": "https://dc.lft.to/lastmile_qr_scan"}}, {"fusion_lon": 0.0, "is_reserved": 0, "type": "electric_scooter", "lon": -77.02066933333333, "fusion_lat": 0.0, "name": "ce22ae260a7eddbf17807c197f856d06", "bike_id": "ce22ae260a7eddbf17807c197f856d06", "lat": 38.92118383333333, "is_disabled": 0, "rental_uris": {"ios": "https://dc.lft.to/lastmile_qr_scan", "android": "https://dc.lft.to/lastmile_qr_scan"}}, {"fusion_lon": 0.0, "is_reserved": 0, "type": "electric_scooter", "lon": -77.0219515, "fusion_lat": 0.0, "name": "4c0c0838a47411435bff3dea3fb89cc2", "bike_id": "4c0c0838a47411435bff3dea3fb89cc2", "lat": 38.9248315, "is_disabled": 0, "rental_uris": {"ios": "https://dc.lft.to/lastmile_qr_scan", "android": "https://dc.lft.to/lastmile_qr_scan"}}, {"fusion_lon": 0.0, "is_reserved": 0, "type": "electric_scooter", "lon": -77.02928866666667, "fusion_lat": 0.0, "name": "c041a6ae05ca24b1ea2d4b140081e825", "bike_id": "c041a6ae05ca24b1ea2d4b140081e825", "lat": 38.9427605, "is_disabled": 0, "rental_uris": {"ios": "https://dc.lft.to/lastmile_qr_scan", "android": "https://dc.lft.to/lastmile_qr_scan"}}, {"fusion_lon": 0.0, "is_reserved": 0, "type": "electric_scooter", "lon": -77.01778883333333, "fusion_lat": 0.0, "name": "a337f589a36449263b9bcf9398293fc0", "bike_id": "a337f589a36449263b9bcf9398293fc0", "lat": 38.87744516666667, "is_disabled": 0, "rental_uris": {"ios": "https://dc.lft.to/lastmile_qr_scan", "android": "https://dc.lft.to/lastmile_qr_scan"}}, {"fusion_lon": 0.0, "is_reserved": 0, "type": "electric_scooter", "lon": -77.04659933333333, "fusion_lat": 0.0, "name": "94e73d444986277067a0795d71eded8e", "bike_id": "94e73d444986277067a0795d71eded8e", "lat": 38.89251133333333, "is_disabled": 0, "rental_uris": {"ios": "https://dc.lft.to/lastmile_qr_scan", "android": "https://dc.lft.to/lastmile_qr_scan"}}, {"fusion_lon": 0.0, "is_reserved": 0, "type": "electric_scooter", "lon": -77.0259105, "fusion_lat": 0.0, "name": "11a9411c8c7d9b5016039a9bc19488b1", "bike_id": "11a9411c8c7d9b5016039a9bc19488b1", "lat": 38.883593833333336, "is_disabled": 0, "rental_uris": {"ios": "https://dc.lft.to/lastmile_qr_scan", "android": "https://dc.lft.to/lastmile_qr_scan"}}, {"fusion_lon": 0.0, "is_reserved": 0, "type": "electric_scooter", "lon": -77.00710083333334, "fusion_lat": 0.0, "name": "6a3209a43690fb18892388a1df61b4a3", "bike_id": "6a3209a43690fb18892388a1df61b4a3", "lat": 38.884872, "is_disabled": 0, "rental_uris": {"ios": "https://dc.lft.to/lastmile_qr_scan", "android": "https://dc.lft.to/lastmile_qr_scan"}}, {"fusion_lon": 0.0, "is_reserved": 0, "type": "electric_scooter", "lon": -77.04502333333333, "fusion_lat": 0.0, "name": "8fb11ae805051e24314734bc077990e1", "bike_id": "8fb11ae805051e24314734bc077990e1", "lat": 38.90018466666667, "is_disabled": 0, "rental_uris": {"ios": "https://dc.lft.to/lastmile_qr_scan", "android": "https://dc.lft.to/lastmile_qr_scan"}}, {"fusion_lon": 0.0, "is_reserved": 0, "type": "electric_scooter", "lon": -77.02170983333333, "fusion_lat": 0.0, "name": "af8f1b7a3bf819f3891133f1194a2069", "bike_id": "af8f1b7a3bf819f3891133f1194a2069", "lat": 38.924867666666664, "is_disabled": 0, "rental_uris": {"ios": "https://dc.lft.to/lastmile_qr_scan", "android": "https://dc.lft.to/lastmile_qr_scan"}}, {"fusion_lon": 0.0, "is_reserved": 0, "type": "electric_bike", "lon": -77.03274916666666, "fusion_lat": 0.0, "name": "802f557e23f5d40c95da73ac6ff4b3d1", "bike_id": "802f557e23f5d40c95da73ac6ff4b3d1", "lat": 38.96124616666667, "is_disabled": 0, "rental_uris": {"ios": "https://dc.lft.to/lastmile_qr_scan", "android": "https://dc.lft.to/lastmile_qr_scan"}}, {"fusion_lon": 0.0, "is_reserved": 0, "type": "electric_scooter", "lon": -77.0211065, "fusion_lat": 0.0, "name": "54913e5bc4739595ad41520d43eda625", "bike_id": "54913e5bc4739595ad41520d43eda625", "lat": 38.930075333333335, "is_disabled": 0, "rental_uris": {"ios": "https://dc.lft.to/lastmile_qr_scan", "android": "https://dc.lft.to/lastmile_qr_scan"}}, {"fusion_lon": 0.0, "is_reserved": 0, "type": "electric_scooter", "lon": -77.02946766666666, "fusion_lat": 0.0, "name": "c98f229cb96e20381a5a69886a49524e", "bike_id": "c98f229cb96e20381a5a69886a49524e", "lat": 38.89518316666667, "is_disabled": 0, "rental_uris": {"ios": "https://dc.lft.to/lastmile_qr_scan", "android": "https://dc.lft.to/lastmile_qr_scan"}}, {"fusion_lon": 0.0, "is_reserved": 0, "type": "electric_scooter", "lon": -77.03340833333333, "fusion_lat": 0.0, "name": "be68cd9957c17006a80685a7c651b115", "bike_id": "be68cd9957c17006a80685a7c651b115", "lat": 38.8922465, "is_disabled": 0, "rental_uris": {"ios": "https://dc.lft.to/lastmile_qr_scan", "android": "https://dc.lft.to/lastmile_qr_scan"}}, {"fusion_lon": 0.0, "is_reserved": 0, "type": "electric_scooter", "lon": -76.99716, "fusion_lat": 0.0, "name": "bc0b619c45c67885da1f27ea10753128", "bike_id": "bc0b619c45c67885da1f27ea10753128", "lat": 38.90779966666667, "is_disabled": 0, "rental_uris": {"ios": "https://dc.lft.to/lastmile_qr_scan", "android": "https://dc.lft.to/lastmile_qr_scan"}}, {"fusion_lon": 0.0, "is_reserved": 0, "type": "electric_scooter", "lon": -77.018603, "fusion_lat": 0.0, "name": "d9c5c9b770a0d5113c49f32000f2c2bb", "bike_id": "d9c5c9b770a0d5113c49f32000f2c2bb", "lat": 38.914957666666666, "is_disabled": 0, "rental_uris": {"ios": "https://dc.lft.to/lastmile_qr_scan", "android": "https://dc.lft.to/lastmile_qr_scan"}}, {"fusion_lon": 0.0, "is_reserved": 0, "type": "electric_scooter", "lon": -77.00091883333333, "fusion_lat": 0.0, "name": "b8ac617c4fdb51968953fb23dc4c47cb", "bike_id": "b8ac617c4fdb51968953fb23dc4c47cb", "lat": 38.91201933333333, "is_disabled": 0, "rental_uris": {"ios": "https://dc.lft.to/lastmile_qr_scan", "android": "https://dc.lft.to/lastmile_qr_scan"}}, {"fusion_lon": 0.0, "is_reserved": 0, "type": "electric_scooter", "lon": -77.03665516666666, "fusion_lat": 0.0, "name": "812b808a3e945107837bdfaef7a92e29", "bike_id": "812b808a3e945107837bdfaef7a92e29", "lat": 38.92118216666667, "is_disabled": 0, "rental_uris": {"ios": "https://dc.lft.to/lastmile_qr_scan", "android": "https://dc.lft.to/lastmile_qr_scan"}}, {"fusion_lon": 0.0, "is_reserved": 0, "type": "electric_scooter", "lon": -77.06606616666667, "fusion_lat": 0.0, "name": "fd24d4beb28e17bfe7e0dae8411e5cdc", "bike_id": "fd24d4beb28e17bfe7e0dae8411e5cdc", "lat": 38.936625166666666, "is_disabled": 0, "rental_uris": {"ios": "https://dc.lft.to/lastmile_qr_scan", "android": "https://dc.lft.to/lastmile_qr_scan"}}, {"fusion_lon": 0.0, "is_reserved": 0, "type": "electric_scooter", "lon": -77.03598133333334, "fusion_lat": 0.0, "name": "0e35afff1bbd1ca0b0ac71f8c374e7f5", "bike_id": "0e35afff1bbd1ca0b0ac71f8c374e7f5", "lat": 38.939573333333335, "is_disabled": 0, "rental_uris": {"ios": "https://dc.lft.to/lastmile_qr_scan", "android": "https://dc.lft.to/lastmile_qr_scan"}}, {"fusion_lon": 0.0, "is_reserved": 0, "type": "electric_scooter", "lon": -77.04657816666666, "fusion_lat": 0.0, "name": "23d86b41635eb49937373a08e9ef0ce4", "bike_id": "23d86b41635eb49937373a08e9ef0ce4", "lat": 38.892543, "is_disabled": 0, "rental_uris": {"ios": "https://dc.lft.to/lastmile_qr_scan", "android": "https://dc.lft.to/lastmile_qr_scan"}}, {"fusion_lon": 0.0, "is_reserved": 0, "type": "electric_scooter", "lon": -77.03185633333334, "fusion_lat": 0.0, "name": "721837784bc99d9d7348e7b2a391b20b", "bike_id": "721837784bc99d9d7348e7b2a391b20b", "lat": 38.8938665, "is_disabled": 0, "rental_uris": {"ios": "https://dc.lft.to/lastmile_qr_scan", "android": "https://dc.lft.to/lastmile_qr_scan"}}, {"fusion_lon": 0.0, "is_reserved": 0, "type": "electric_scooter", "lon": -77.02295766666667, "fusion_lat": 0.0, "name": "30b9b28f81f96dbe236ac9f4d1b5c3f9", "bike_id": "30b9b28f81f96dbe236ac9f4d1b5c3f9", "lat": 38.9251625, "is_disabled": 0, "rental_uris": {"ios": "https://dc.lft.to/lastmile_qr_scan", "android": "https://dc.lft.to/lastmile_qr_scan"}}, {"fusion_lon": 0.0, "is_reserved": 0, "type": "electric_scooter", "lon": -77.01983366666667, "fusion_lat": 0.0, "name": "980fd45be04c528ef644f5ab873f90d6", "bike_id": "980fd45be04c528ef644f5ab873f90d6", "lat": 38.8838725, "is_disabled": 0, "rental_uris": {"ios": "https://dc.lft.to/lastmile_qr_scan", "android": "https://dc.lft.to/lastmile_qr_scan"}}, {"fusion_lon": 0.0, "is_reserved": 0, "type": "electric_scooter", "lon": -77.021682, "fusion_lat": 0.0, "name": "3710c11b4da26c33ac9376719633f6b5", "bike_id": "3710c11b4da26c33ac9376719633f6b5", "lat": 38.914195666666664, "is_disabled": 0, "rental_uris": {"ios": "https://dc.lft.to/lastmile_qr_scan", "android": "https://dc.lft.to/lastmile_qr_scan"}}, {"fusion_lon": 0.0, "is_reserved": 0, "type": "electric_scooter", "lon": -77.04025716666666, "fusion_lat": 0.0, "name": "1a7036cbf4ea9f18bf917565c451bb9d", "bike_id": "1a7036cbf4ea9f18bf917565c451bb9d", "lat": 38.93058883333333, "is_disabled": 0, "rental_uris": {"ios": "https://dc.lft.to/lastmile_qr_scan", "android": "https://dc.lft.to/lastmile_qr_scan"}}, {"fusion_lon": 0.0, "is_reserved": 0, "type": "electric_scooter", "lon": -77.048374, "fusion_lat": 0.0, "name": "d514512f22f720e5e82a57c7720428ba", "bike_id": "d514512f22f720e5e82a57c7720428ba", "lat": 38.900449, "is_disabled": 0, "rental_uris": {"ios": "https://dc.lft.to/lastmile_qr_scan", "android": "https://dc.lft.to/lastmile_qr_scan"}}, {"fusion_lon": 0.0, "is_reserved": 0, "type": "electric_scooter", "lon": -77.0062755, "fusion_lat": 0.0, "name": "da8bb7b03a9ea882d6b99227fe0fbd8d", "bike_id": "da8bb7b03a9ea882d6b99227fe0fbd8d", "lat": 38.87173533333333, "is_disabled": 0, "rental_uris": {"ios": "https://dc.lft.to/lastmile_qr_scan", "android": "https://dc.lft.to/lastmile_qr_scan"}}, {"fusion_lon": 0.0, "is_reserved": 0, "type": "electric_scooter", "lon": -77.00227916666667, "fusion_lat": 0.0, "name": "df6503de00a5f9c22c5236350d8e4b27", "bike_id": "df6503de00a5f9c22c5236350d8e4b27", "lat": 38.9250935, "is_disabled": 0, "rental_uris": {"ios": "https://dc.lft.to/lastmile_qr_scan", "android": "https://dc.lft.to/lastmile_qr_scan"}}, {"fusion_lon": 0.0, "is_reserved": 0, "type": "electric_scooter", "lon": -77.06611333333333, "fusion_lat": 0.0, "name": "8141e76954bf5bae3a1a9c0753dd3537", "bike_id": "8141e76954bf5bae3a1a9c0753dd3537", "lat": 38.93660166666667, "is_disabled": 0, "rental_uris": {"ios": "https://dc.lft.to/lastmile_qr_scan", "android": "https://dc.lft.to/lastmile_qr_scan"}}, {"fusion_lon": 0.0, "is_reserved": 0, "type": "electric_scooter", "lon": -77.03441383333333, "fusion_lat": 0.0, "name": "53c91a1c07297c7d45918ee2fb79d158", "bike_id": "53c91a1c07297c7d45918ee2fb79d158", "lat": 38.921449, "is_disabled": 0, "rental_uris": {"ios": "https://dc.lft.to/lastmile_qr_scan", "android": "https://dc.lft.to/lastmile_qr_scan"}}, {"fusion_lon": 0.0, "is_reserved": 0, "type": "electric_scooter", "lon": -77.00068683333333, "fusion_lat": 0.0, "name": "dff1e9a80bec692ea34c5277012eb48a", "bike_id": "dff1e9a80bec692ea34c5277012eb48a", "lat": 38.8826255, "is_disabled": 0, "rental_uris": {"ios": "https://dc.lft.to/lastmile_qr_scan", "android": "https://dc.lft.to/lastmile_qr_scan"}}, {"fusion_lon": 0.0, "is_reserved": 0, "type": "electric_bike", "lon": -77.09336483333334, "fusion_lat": 0.0, "name": "7a5ac6218012423e93bd06184738d611", "bike_id": "7a5ac6218012423e93bd06184738d611", "lat": 38.9823315, "is_disabled": 0, "rental_uris": {"ios": "https://dc.lft.to/lastmile_qr_scan", "android": "https://dc.lft.to/lastmile_qr_scan"}}, {"fusion_lon": 0.0, "is_reserved": 0, "type": "electric_scooter", "lon": -77.0347305, "fusion_lat": 0.0, "name": "5ba503194dc818d41161586ee486aa96", "bike_id": "5ba503194dc818d41161586ee486aa96", "lat": 38.922488333333334, "is_disabled": 0, "rental_uris": {"ios": "https://dc.lft.to/lastmile_qr_scan", "android": "https://dc.lft.to/lastmile_qr_scan"}}, {"fusion_lon": 0.0, "is_reserved": 0, "type": "electric_scooter", "lon": -77.03784916666666, "fusion_lat": 0.0, "name": "9e258fc2bebd9d45e39949e889bcd6f9", "bike_id": "9e258fc2bebd9d45e39949e889bcd6f9", "lat": 38.92378183333334, "is_disabled": 0, "rental_uris": {"ios": "https://dc.lft.to/lastmile_qr_scan", "android": "https://dc.lft.to/lastmile_qr_scan"}}, {"fusion_lon": 0.0, "is_reserved": 0, "type": "electric_scooter", "lon": -77.0454415, "fusion_lat": 0.0, "name": "7b87bee4ee7665e35bb08f75fa310960", "bike_id": "7b87bee4ee7665e35bb08f75fa310960", "lat": 38.91319383333333, "is_disabled": 0, "rental_uris": {"ios": "https://dc.lft.to/lastmile_qr_scan", "android": "https://dc.lft.to/lastmile_qr_scan"}}, {"fusion_lon": 0.0, "is_reserved": 0, "type": "electric_scooter", "lon": -77.0261565, "fusion_lat": 0.0, "name": "4d30cfe757be8536e99cde6a9f436b76", "bike_id": "4d30cfe757be8536e99cde6a9f436b76", "lat": 38.892221, "is_disabled": 0, "rental_uris": {"ios": "https://dc.lft.to/lastmile_qr_scan", "android": "https://dc.lft.to/lastmile_qr_scan"}}, {"fusion_lon": 0.0, "is_reserved": 0, "type": "electric_scooter", "lon": -77.05420216666667, "fusion_lat": 0.0, "name": "03c048ad10aaacbab719bf2c55e0cd20", "bike_id": "03c048ad10aaacbab719bf2c55e0cd20", "lat": 38.928409333333335, "is_disabled": 0, "rental_uris": {"ios": "https://dc.lft.to/lastmile_qr_scan", "android": "https://dc.lft.to/lastmile_qr_scan"}}, {"fusion_lon": 0.0, "is_reserved": 0, "type": "electric_scooter", "lon": -77.0415795, "fusion_lat": 0.0, "name": "524a387d46f5b454dc595fbe0eea9aed", "bike_id": "524a387d46f5b454dc595fbe0eea9aed", "lat": 38.90147416666667, "is_disabled": 0, "rental_uris": {"ios": "https://dc.lft.to/lastmile_qr_scan", "android": "https://dc.lft.to/lastmile_qr_scan"}}, {"fusion_lon": 0.0, "is_reserved": 0, "type": "electric_scooter", "lon": -76.98038983333333, "fusion_lat": 0.0, "name": "c3b7638ea024c439a9165dc37c1c614d", "bike_id": "c3b7638ea024c439a9165dc37c1c614d", "lat": 38.8897035, "is_disabled": 0, "rental_uris": {"ios": "https://dc.lft.to/lastmile_qr_scan", "android": "https://dc.lft.to/lastmile_qr_scan"}}, {"fusion_lon": 0.0, "is_reserved": 0, "type": "electric_scooter", "lon": -77.02695633333333, "fusion_lat": 0.0, "name": "77fdde3100438d8689822d388e34b8ea", "bike_id": "77fdde3100438d8689822d388e34b8ea", "lat": 38.91544716666667, "is_disabled": 0, "rental_uris": {"ios": "https://dc.lft.to/lastmile_qr_scan", "android": "https://dc.lft.to/lastmile_qr_scan"}}, {"fusion_lon": 0.0, "is_reserved": 0, "type": "electric_scooter", "lon": -77.0509415, "fusion_lat": 0.0, "name": "7ecb00ae6e1429aee35fd5ff8e375ca9", "bike_id": "7ecb00ae6e1429aee35fd5ff8e375ca9", "lat": 38.915529, "is_disabled": 0, "rental_uris": {"ios": "https://dc.lft.to/lastmile_qr_scan", "android": "https://dc.lft.to/lastmile_qr_scan"}}, {"fusion_lon": 0.0, "is_reserved": 0, "type": "electric_scooter", "lon": -77.022749, "fusion_lat": 0.0, "name": "291778c708bb655a30b857b76128c6a8", "bike_id": "291778c708bb655a30b857b76128c6a8", "lat": 38.88737283333333, "is_disabled": 0, "rental_uris": {"ios": "https://dc.lft.to/lastmile_qr_scan", "android": "https://dc.lft.to/lastmile_qr_scan"}}, {"fusion_lon": 0.0, "is_reserved": 0, "type": "electric_scooter", "lon": -77.0099945, "fusion_lat": 0.0, "name": "5bdce6ada2207938af7d9f2db54bfd5d", "bike_id": "5bdce6ada2207938af7d9f2db54bfd5d", "lat": 38.910351, "is_disabled": 0, "rental_uris": {"ios": "https://dc.lft.to/lastmile_qr_scan", "android": "https://dc.lft.to/lastmile_qr_scan"}}, {"fusion_lon": 0.0, "is_reserved": 0, "type": "electric_scooter", "lon": -77.034438, "fusion_lat": 0.0, "name": "cf69c34d655b9c06ef5399a46ec1d5a5", "bike_id": "cf69c34d655b9c06ef5399a46ec1d5a5", "lat": 38.91906516666667, "is_disabled": 0, "rental_uris": {"ios": "https://dc.lft.to/lastmile_qr_scan", "android": "https://dc.lft.to/lastmile_qr_scan"}}, {"fusion_lon": 0.0, "is_reserved": 0, "type": "electric_bike", "lon": -77.13936216666667, "fusion_lat": 0.0, "name": "5599d7bc4796c2eee880146ef5b79052", "bike_id": "5599d7bc4796c2eee880146ef5b79052", "lat": 38.8467685, "is_disabled": 0, "rental_uris": {"ios": "https://dc.lft.to/lastmile_qr_scan", "android": "https://dc.lft.to/lastmile_qr_scan"}}, {"fusion_lon": 0.0, "is_reserved": 0, "type": "electric_scooter", "lon": -77.022714, "fusion_lat": 0.0, "name": "49d4b36d1bcc4540003a17ff2cc6e90c", "bike_id": "49d4b36d1bcc4540003a17ff2cc6e90c", "lat": 38.924824666666666, "is_disabled": 0, "rental_uris": {"ios": "https://dc.lft.to/lastmile_qr_scan", "android": "https://dc.lft.to/lastmile_qr_scan"}}, {"fusion_lon": 0.0, "is_reserved": 0, "type": "electric_scooter", "lon": -77.04503133333333, "fusion_lat": 0.0, "name": "dc9150e69137591c51f34ace20aee4df", "bike_id": "dc9150e69137591c51f34ace20aee4df", "lat": 38.892228333333335, "is_disabled": 0, "rental_uris": {"ios": "https://dc.lft.to/lastmile_qr_scan", "android": "https://dc.lft.to/lastmile_qr_scan"}}, {"fusion_lon": 0.0, "is_reserved": 0, "type": "electric_bike", "lon": -76.986591, "fusion_lat": 0.0, "name": "e604b87a3c7b8b2761500c276c9699ad", "bike_id": "e604b87a3c7b8b2761500c276c9699ad", "lat": 38.97471066666667, "is_disabled": 0, "rental_uris": {"ios": "https://dc.lft.to/lastmile_qr_scan", "android": "https://dc.lft.to/lastmile_qr_scan"}}, {"fusion_lon": 0.0, "is_reserved": 0, "type": "electric_bike", "lon": -77.01353816666666, "fusion_lat": 0.0, "name": "923b6896900fc2ec8048de5cd511d93f", "bike_id": "923b6896900fc2ec8048de5cd511d93f", "lat": 39.0292055, "is_disabled": 0, "rental_uris": {"ios": "https://dc.lft.to/lastmile_qr_scan", "android": "https://dc.lft.to/lastmile_qr_scan"}}, {"fusion_lon": 0.0, "is_reserved": 0, "type": "electric_scooter", "lon": -77.025096, "fusion_lat": 0.0, "name": "d13e44cfd909ad4e22ba0d89d15b2349", "bike_id": "d13e44cfd909ad4e22ba0d89d15b2349", "lat": 38.915528333333334, "is_disabled": 0, "rental_uris": {"ios": "https://dc.lft.to/lastmile_qr_scan", "android": "https://dc.lft.to/lastmile_qr_scan"}}, {"fusion_lon": 0.0, "is_reserved": 0, "type": "electric_bike", "lon": -76.970742, "fusion_lat": 0.0, "name": "6fd3303f6d7a85d170f25b16739d4a2d", "bike_id": "6fd3303f6d7a85d170f25b16739d4a2d", "lat": 38.84644083333333, "is_disabled": 0, "rental_uris": {"ios": "https://dc.lft.to/lastmile_qr_scan", "android": "https://dc.lft.to/lastmile_qr_scan"}}, {"fusion_lon": 0.0, "is_reserved": 0, "type": "electric_scooter", "lon": -76.99797333333333, "fusion_lat": 0.0, "name": "e00e805396140207c7259d4a56e25385", "bike_id": "e00e805396140207c7259d4a56e25385", "lat": 38.90847566666667, "is_disabled": 0, "rental_uris": {"ios": "https://dc.lft.to/lastmile_qr_scan", "android": "https://dc.lft.to/lastmile_qr_scan"}}, {"fusion_lon": 0.0, "is_reserved": 0, "type": "electric_scooter", "lon": -76.996092, "fusion_lat": 0.0, "name": "6a105a3127f82fff8e43f5913ee6865b", "bike_id": "6a105a3127f82fff8e43f5913ee6865b", "lat": 38.88716083333333, "is_disabled": 0, "rental_uris": {"ios": "https://dc.lft.to/lastmile_qr_scan", "android": "https://dc.lft.to/lastmile_qr_scan"}}, {"fusion_lon": 0.0, "is_reserved": 0, "type": "electric_scooter", "lon": -77.0070835, "fusion_lat": 0.0, "name": "3e39bb657bfd3dfabe279c417735ca4a", "bike_id": "3e39bb657bfd3dfabe279c417735ca4a", "lat": 38.878986166666664, "is_disabled": 0, "rental_uris": {"ios": "https://dc.lft.to/lastmile_qr_scan", "android": "https://dc.lft.to/lastmile_qr_scan"}}, {"fusion_lon": 0.0, "is_reserved": 0, "type": "electric_scooter", "lon": -77.0305365, "fusion_lat": 0.0, "name": "86e8715ce315e0b81ec5f8bb2ecab6e7", "bike_id": "86e8715ce315e0b81ec5f8bb2ecab6e7", "lat": 38.926691, "is_disabled": 0, "rental_uris": {"ios": "https://dc.lft.to/lastmile_qr_scan", "android": "https://dc.lft.to/lastmile_qr_scan"}}, {"fusion_lon": 0.0, "is_reserved": 0, "type": "electric_scooter", "lon": -77.04641116666667, "fusion_lat": 0.0, "name": "35e548e1a1582bbc90b362dd1fb5fe28", "bike_id": "35e548e1a1582bbc90b362dd1fb5fe28", "lat": 38.89224166666666, "is_disabled": 0, "rental_uris": {"ios": "https://dc.lft.to/lastmile_qr_scan", "android": "https://dc.lft.to/lastmile_qr_scan"}}, {"fusion_lon": 0.0, "is_reserved": 0, "type": "electric_bike", "lon": -77.00433633333333, "fusion_lat": 0.0, "name": "905febc53fa1cfaad29e83405260fe2c", "bike_id": "905febc53fa1cfaad29e83405260fe2c", "lat": 38.83488233333333, "is_disabled": 0, "rental_uris": {"ios": "https://dc.lft.to/lastmile_qr_scan", "android": "https://dc.lft.to/lastmile_qr_scan"}}, {"fusion_lon": 0.0, "is_reserved": 0, "type": "electric_scooter", "lon": -77.02220533333333, "fusion_lat": 0.0, "name": "d1d37bf20c55e4d1b66e2d461219769a", "bike_id": "d1d37bf20c55e4d1b66e2d461219769a", "lat": 38.91268633333333, "is_disabled": 0, "rental_uris": {"ios": "https://dc.lft.to/lastmile_qr_scan", "android": "https://dc.lft.to/lastmile_qr_scan"}}, {"fusion_lon": 0.0, "is_reserved": 0, "type": "electric_bike", "lon": -77.0075425, "fusion_lat": 0.0, "name": "b44d2645000517c2b283aceae37008f5", "bike_id": "b44d2645000517c2b283aceae37008f5", "lat": 38.8779415, "is_disabled": 0, "rental_uris": {"ios": "https://dc.lft.to/lastmile_qr_scan", "android": "https://dc.lft.to/lastmile_qr_scan"}}, {"fusion_lon": 0.0, "is_reserved": 0, "type": "electric_scooter", "lon": -77.04737583333333, "fusion_lat": 0.0, "name": "1a4247563860a73014e2a8a47920d13b", "bike_id": "1a4247563860a73014e2a8a47920d13b", "lat": 38.908513666666664, "is_disabled": 0, "rental_uris": {"ios": "https://dc.lft.to/lastmile_qr_scan", "android": "https://dc.lft.to/lastmile_qr_scan"}}, {"fusion_lon": 0.0, "is_reserved": 0, "type": "electric_scooter", "lon": -77.04249766666666, "fusion_lat": 0.0, "name": "45d14e8661823431d287fcc29eb1e3c4", "bike_id": "45d14e8661823431d287fcc29eb1e3c4", "lat": 38.92200733333333, "is_disabled": 0, "rental_uris": {"ios": "https://dc.lft.to/lastmile_qr_scan", "android": "https://dc.lft.to/lastmile_qr_scan"}}, {"fusion_lon": 0.0, "is_reserved": 0, "type": "electric_scooter", "lon": -77.04488666666667, "fusion_lat": 0.0, "name": "bb6116fef8c0acf404c89d361e0b686a", "bike_id": "bb6116fef8c0acf404c89d361e0b686a", "lat": 38.90735316666667, "is_disabled": 0, "rental_uris": {"ios": "https://dc.lft.to/lastmile_qr_scan", "android": "https://dc.lft.to/lastmile_qr_scan"}}, {"fusion_lon": 0.0, "is_reserved": 0, "type": "electric_bike", "lon": -77.359764, "fusion_lat": 0.0, "name": "d4d4532a8c31a1777d13c44eb568f180", "bike_id": "d4d4532a8c31a1777d13c44eb568f180", "lat": 38.957057666666664, "is_disabled": 0, "rental_uris": {"ios": "https://dc.lft.to/lastmile_qr_scan", "android": "https://dc.lft.to/lastmile_qr_scan"}}, {"fusion_lon": 0.0, "is_reserved": 0, "type": "electric_bike", "lon": -76.95139933333333, "fusion_lat": 0.0, "name": "72ed36ab3de4aba91a9af18634d6eba0", "bike_id": "72ed36ab3de4aba91a9af18634d6eba0", "lat": 39.084359166666665, "is_disabled": 0, "rental_uris": {"ios": "https://dc.lft.to/lastmile_qr_scan", "android": "https://dc.lft.to/lastmile_qr_scan"}}, {"fusion_lon": 0.0, "is_reserved": 0, "type": "electric_scooter", "lon": -77.02215533333333, "fusion_lat": 0.0, "name": "5284f99715b225df32b98387fbe57844", "bike_id": "5284f99715b225df32b98387fbe57844", "lat": 38.92471333333334, "is_disabled": 0, "rental_uris": {"ios": "https://dc.lft.to/lastmile_qr_scan", "android": "https://dc.lft.to/lastmile_qr_scan"}}, {"fusion_lon": 0.0, "is_reserved": 0, "type": "electric_scooter", "lon": -77.0221175, "fusion_lat": 0.0, "name": "8e3d12f6f3459f267be1cf7c2023bd13", "bike_id": "8e3d12f6f3459f267be1cf7c2023bd13", "lat": 38.897330833333335, "is_disabled": 0, "rental_uris": {"ios": "https://dc.lft.to/lastmile_qr_scan", "android": "https://dc.lft.to/lastmile_qr_scan"}}, {"fusion_lon": 0.0, "is_reserved": 0, "type": "electric_scooter", "lon": -76.97798716666667, "fusion_lat": 0.0, "name": "1eacb434f4780d548fd1836f5beb4283", "bike_id": "1eacb434f4780d548fd1836f5beb4283", "lat": 38.90610016666667, "is_disabled": 0, "rental_uris": {"ios": "https://dc.lft.to/lastmile_qr_scan", "android": "https://dc.lft.to/lastmile_qr_scan"}}, {"fusion_lon": 0.0, "is_reserved": 0, "type": "electric_scooter", "lon": -76.98948166666666, "fusion_lat": 0.0, "name": "6773845235abae2435972edb84dd47fd", "bike_id": "6773845235abae2435972edb84dd47fd", "lat": 38.903908333333334, "is_disabled": 0, "rental_uris": {"ios": "https://dc.lft.to/lastmile_qr_scan", "android": "https://dc.lft.to/lastmile_qr_scan"}}, {"fusion_lon": 0.0, "is_reserved": 0, "type": "electric_scooter", "lon": -77.03396833333333, "fusion_lat": 0.0, "name": "0013500955eb0e9e8e7b38fc2acf94da", "bike_id": "0013500955eb0e9e8e7b38fc2acf94da", "lat": 38.917003, "is_disabled": 0, "rental_uris": {"ios": "https://dc.lft.to/lastmile_qr_scan", "android": "https://dc.lft.to/lastmile_qr_scan"}}, {"fusion_lon": 0.0, "is_reserved": 0, "type": "electric_bike", "lon": -77.09691166666667, "fusion_lat": 0.0, "name": "9d8f82cfdb1f3e2a9f90dbec9f9d86cf", "bike_id": "9d8f82cfdb1f3e2a9f90dbec9f9d86cf", "lat": 38.88699966666667, "is_disabled": 0, "rental_uris": {"ios": "https://dc.lft.to/lastmile_qr_scan", "android": "https://dc.lft.to/lastmile_qr_scan"}}, {"fusion_lon": 0.0, "is_reserved": 0, "type": "electric_scooter", "lon": -77.02318333333334, "fusion_lat": 0.0, "name": "4fffd8aec7f6401cbbaaed48329399f7", "bike_id": "4fffd8aec7f6401cbbaaed48329399f7", "lat": 38.924201, "is_disabled": 0, "rental_uris": {"ios": "https://dc.lft.to/lastmile_qr_scan", "android": "https://dc.lft.to/lastmile_qr_scan"}}, {"fusion_lon": 0.0, "is_reserved": 0, "type": "electric_scooter", "lon": -77.01679883333334, "fusion_lat": 0.0, "name": "262d4425cac539e7f98f0c99a132159a", "bike_id": "262d4425cac539e7f98f0c99a132159a", "lat": 38.90034933333333, "is_disabled": 0, "rental_uris": {"ios": "https://dc.lft.to/lastmile_qr_scan", "android": "https://dc.lft.to/lastmile_qr_scan"}}, {"fusion_lon": 0.0, "is_reserved": 0, "type": "electric_scooter", "lon": -76.930332, "fusion_lat": 0.0, "name": "0db2def969feafc5b57510e3ae18a7ba", "bike_id": "0db2def969feafc5b57510e3ae18a7ba", "lat": 38.883844833333335, "is_disabled": 0, "rental_uris": {"ios": "https://dc.lft.to/lastmile_qr_scan", "android": "https://dc.lft.to/lastmile_qr_scan"}}, {"fusion_lon": 0.0, "is_reserved": 0, "type": "electric_scooter", "lon": -76.93263466666667, "fusion_lat": 0.0, "name": "7ad3f807926bf09b68fb73e07a56389e", "bike_id": "7ad3f807926bf09b68fb73e07a56389e", "lat": 38.887739333333336, "is_disabled": 0, "rental_uris": {"ios": "https://dc.lft.to/lastmile_qr_scan", "android": "https://dc.lft.to/lastmile_qr_scan"}}, {"fusion_lon": 0.0, "is_reserved": 0, "type": "electric_scooter", "lon": -77.03185516666667, "fusion_lat": 0.0, "name": "185aa4192c70d4f3de80c2b9d48c88c4", "bike_id": "185aa4192c70d4f3de80c2b9d48c88c4", "lat": 38.933111833333335, "is_disabled": 0, "rental_uris": {"ios": "https://dc.lft.to/lastmile_qr_scan", "android": "https://dc.lft.to/lastmile_qr_scan"}}, {"fusion_lon": 0.0, "is_reserved": 0, "type": "electric_scooter", "lon": -77.0424455, "fusion_lat": 0.0, "name": "1693cece289a725032be2b02632b8c29", "bike_id": "1693cece289a725032be2b02632b8c29", "lat": 38.90788033333333, "is_disabled": 0, "rental_uris": {"ios": "https://dc.lft.to/lastmile_qr_scan", "android": "https://dc.lft.to/lastmile_qr_scan"}}, {"fusion_lon": 0.0, "is_reserved": 0, "type": "electric_scooter", "lon": -77.05025133333334, "fusion_lat": 0.0, "name": "ba03e088964f1f6752b4a1eeab27439c", "bike_id": "ba03e088964f1f6752b4a1eeab27439c", "lat": 38.892601166666665, "is_disabled": 0, "rental_uris": {"ios": "https://dc.lft.to/lastmile_qr_scan", "android": "https://dc.lft.to/lastmile_qr_scan"}}, {"fusion_lon": 0.0, "is_reserved": 0, "type": "electric_scooter", "lon": -77.0251045, "fusion_lat": 0.0, "name": "d8c14cd2feb98281b071c59f2b658058", "bike_id": "d8c14cd2feb98281b071c59f2b658058", "lat": 38.91104283333333, "is_disabled": 0, "rental_uris": {"ios": "https://dc.lft.to/lastmile_qr_scan", "android": "https://dc.lft.to/lastmile_qr_scan"}}, {"fusion_lon": 0.0, "is_reserved": 0, "type": "electric_scooter", "lon": -77.023491, "fusion_lat": 0.0, "name": "19b1a11913562710b6bd88d746c27290", "bike_id": "19b1a11913562710b6bd88d746c27290", "lat": 38.90212866666667, "is_disabled": 0, "rental_uris": {"ios": "https://dc.lft.to/lastmile_qr_scan", "android": "https://dc.lft.to/lastmile_qr_scan"}}, {"fusion_lon": 0.0, "is_reserved": 0, "type": "electric_scooter", "lon": -77.01758833333334, "fusion_lat": 0.0, "name": "d0707873c1c44ca3b6db5ffd1220a525", "bike_id": "d0707873c1c44ca3b6db5ffd1220a525", "lat": 38.876701, "is_disabled": 0, "rental_uris": {"ios": "https://dc.lft.to/lastmile_qr_scan", "android": "https://dc.lft.to/lastmile_qr_scan"}}, {"fusion_lon": 0.0, "is_reserved": 0, "type": "electric_scooter", "lon": -77.02139633333333, "fusion_lat": 0.0, "name": "2b98a1ecb7a0b5026598ab7fef1bb838", "bike_id": "2b98a1ecb7a0b5026598ab7fef1bb838", "lat": 38.9248215, "is_disabled": 0, "rental_uris": {"ios": "https://dc.lft.to/lastmile_qr_scan", "android": "https://dc.lft.to/lastmile_qr_scan"}}, {"fusion_lon": 0.0, "is_reserved": 0, "type": "electric_scooter", "lon": -76.923149, "fusion_lat": 0.0, "name": "a1b2c98dc6d0c88213021f721b7effc8", "bike_id": "a1b2c98dc6d0c88213021f721b7effc8", "lat": 38.89383866666667, "is_disabled": 0, "rental_uris": {"ios": "https://dc.lft.to/lastmile_qr_scan", "android": "https://dc.lft.to/lastmile_qr_scan"}}, {"fusion_lon": 0.0, "is_reserved": 0, "type": "electric_scooter", "lon": -77.03176266666667, "fusion_lat": 0.0, "name": "fedd628137cee6f359de79a630d02c85", "bike_id": "fedd628137cee6f359de79a630d02c85", "lat": 38.894627, "is_disabled": 0, "rental_uris": {"ios": "https://dc.lft.to/lastmile_qr_scan", "android": "https://dc.lft.to/lastmile_qr_scan"}}, {"fusion_lon": 0.0, "is_reserved": 0, "type": "electric_scooter", "lon": -77.033561, "fusion_lat": 0.0, "name": "5c5682e526f14982c790f1a2b1fd6629", "bike_id": "5c5682e526f14982c790f1a2b1fd6629", "lat": 38.88473783333333, "is_disabled": 0, "rental_uris": {"ios": "https://dc.lft.to/lastmile_qr_scan", "android": "https://dc.lft.to/lastmile_qr_scan"}}, {"fusion_lon": 0.0, "is_reserved": 0, "type": "electric_scooter", "lon": -77.04531966666667, "fusion_lat": 0.0, "name": "8e33123b9d11c52c4ae54031ef2612d7", "bike_id": "8e33123b9d11c52c4ae54031ef2612d7", "lat": 38.911992166666664, "is_disabled": 0, "rental_uris": {"ios": "https://dc.lft.to/lastmile_qr_scan", "android": "https://dc.lft.to/lastmile_qr_scan"}}, {"fusion_lon": 0.0, "is_reserved": 0, "type": "electric_scooter", "lon": -77.0366175, "fusion_lat": 0.0, "name": "b42cc019236a2dd306ad5d430ed11323", "bike_id": "b42cc019236a2dd306ad5d430ed11323", "lat": 38.9228405, "is_disabled": 0, "rental_uris": {"ios": "https://dc.lft.to/lastmile_qr_scan", "android": "https://dc.lft.to/lastmile_qr_scan"}}, {"fusion_lon": 0.0, "is_reserved": 0, "type": "electric_scooter", "lon": -76.9921555, "fusion_lat": 0.0, "name": "df89521a58d90a39ba3d710db7b4094c", "bike_id": "df89521a58d90a39ba3d710db7b4094c", "lat": 38.89351666666666, "is_disabled": 0, "rental_uris": {"ios": "https://dc.lft.to/lastmile_qr_scan", "android": "https://dc.lft.to/lastmile_qr_scan"}}, {"fusion_lon": 0.0, "is_reserved": 0, "type": "electric_bike", "lon": -76.93546433333333, "fusion_lat": 0.0, "name": "c6b9b99ff333ae065e5e51a3fc2aa89c", "bike_id": "c6b9b99ff333ae065e5e51a3fc2aa89c", "lat": 38.876441666666665, "is_disabled": 0, "rental_uris": {"ios": "https://dc.lft.to/lastmile_qr_scan", "android": "https://dc.lft.to/lastmile_qr_scan"}}, {"fusion_lon": 0.0, "is_reserved": 0, "type": "electric_scooter", "lon": -77.02097866666666, "fusion_lat": 0.0, "name": "96618f75bd31b7a0c1db0aa299a5cb1a", "bike_id": "96618f75bd31b7a0c1db0aa299a5cb1a", "lat": 38.912087166666666, "is_disabled": 0, "rental_uris": {"ios": "https://dc.lft.to/lastmile_qr_scan", "android": "https://dc.lft.to/lastmile_qr_scan"}}, {"fusion_lon": 0.0, "is_reserved": 0, "type": "electric_scooter", "lon": -77.05312633333334, "fusion_lat": 0.0, "name": "bd2e732eedee2a82cb47da2f7292eb30", "bike_id": "bd2e732eedee2a82cb47da2f7292eb30", "lat": 38.90721383333333, "is_disabled": 0, "rental_uris": {"ios": "https://dc.lft.to/lastmile_qr_scan", "android": "https://dc.lft.to/lastmile_qr_scan"}}, {"fusion_lon": 0.0, "is_reserved": 0, "type": "electric_scooter", "lon": -77.02592133333333, "fusion_lat": 0.0, "name": "1144cf9d93224fbe48be31d9cc6c9caa", "bike_id": "1144cf9d93224fbe48be31d9cc6c9caa", "lat": 38.90420983333333, "is_disabled": 0, "rental_uris": {"ios": "https://dc.lft.to/lastmile_qr_scan", "android": "https://dc.lft.to/lastmile_qr_scan"}}, {"fusion_lon": 0.0, "is_reserved": 0, "type": "electric_bike", "lon": -77.03760516666667, "fusion_lat": 0.0, "name": "b178af8c446dec6655b809d261b61ffe", "bike_id": "b178af8c446dec6655b809d261b61ffe", "lat": 38.92868716666667, "is_disabled": 0, "rental_uris": {"ios": "https://dc.lft.to/lastmile_qr_scan", "android": "https://dc.lft.to/lastmile_qr_scan"}}, {"fusion_lon": 0.0, "is_reserved": 0, "type": "electric_bike", "lon": -77.02976233333334, "fusion_lat": 0.0, "name": "59250b162ab2c48138cf184be390259b", "bike_id": "59250b162ab2c48138cf184be390259b", "lat": 38.88384966666667, "is_disabled": 0, "rental_uris": {"ios": "https://dc.lft.to/lastmile_qr_scan", "android": "https://dc.lft.to/lastmile_qr_scan"}}, {"fusion_lon": 0.0, "is_reserved": 0, "type": "electric_scooter", "lon": -77.036598, "fusion_lat": 0.0, "name": "0b80e10a21934a03972c149f9b48cf35", "bike_id": "0b80e10a21934a03972c149f9b48cf35", "lat": 38.923304, "is_disabled": 0, "rental_uris": {"ios": "https://dc.lft.to/lastmile_qr_scan", "android": "https://dc.lft.to/lastmile_qr_scan"}}, {"fusion_lon": 0.0, "is_reserved": 0, "type": "electric_scooter", "lon": -77.03846516666667, "fusion_lat": 0.0, "name": "7596a888e6e8f22f9ae4c9213c2dc925", "bike_id": "7596a888e6e8f22f9ae4c9213c2dc925", "lat": 38.926599333333336, "is_disabled": 0, "rental_uris": {"ios": "https://dc.lft.to/lastmile_qr_scan", "android": "https://dc.lft.to/lastmile_qr_scan"}}, {"fusion_lon": 0.0, "is_reserved": 0, "type": "electric_scooter", "lon": -77.04233416666666, "fusion_lat": 0.0, "name": "3845d97a6f68201ff91d37cc30bc5aad", "bike_id": "3845d97a6f68201ff91d37cc30bc5aad", "lat": 38.90790466666667, "is_disabled": 0, "rental_uris": {"ios": "https://dc.lft.to/lastmile_qr_scan", "android": "https://dc.lft.to/lastmile_qr_scan"}}, {"fusion_lon": 0.0, "is_reserved": 0, "type": "electric_scooter", "lon": -77.021179, "fusion_lat": 0.0, "name": "9c9a8d456866e916cd7c2de7f3da560d", "bike_id": "9c9a8d456866e916cd7c2de7f3da560d", "lat": 38.91752133333333, "is_disabled": 0, "rental_uris": {"ios": "https://dc.lft.to/lastmile_qr_scan", "android": "https://dc.lft.to/lastmile_qr_scan"}}, {"fusion_lon": 0.0, "is_reserved": 0, "type": "electric_bike", "lon": -76.98360816666667, "fusion_lat": 0.0, "name": "681135a34e6148263d612b0a759c32f2", "bike_id": "681135a34e6148263d612b0a759c32f2", "lat": 38.9715425, "is_disabled": 0, "rental_uris": {"ios": "https://dc.lft.to/lastmile_qr_scan", "android": "https://dc.lft.to/lastmile_qr_scan"}}, {"fusion_lon": 0.0, "is_reserved": 0, "type": "electric_scooter", "lon": -77.0466105, "fusion_lat": 0.0, "name": "b0846a084e797ef9b8d7f38db50eea92", "bike_id": "b0846a084e797ef9b8d7f38db50eea92", "lat": 38.9101645, "is_disabled": 0, "rental_uris": {"ios": "https://dc.lft.to/lastmile_qr_scan", "android": "https://dc.lft.to/lastmile_qr_scan"}}, {"fusion_lon": 0.0, "is_reserved": 0, "type": "electric_scooter", "lon": -77.05947, "fusion_lat": 0.0, "name": "f5de9c6d18548b0e84210b7a8c16819f", "bike_id": "f5de9c6d18548b0e84210b7a8c16819f", "lat": 38.9019095, "is_disabled": 0, "rental_uris": {"ios": "https://dc.lft.to/lastmile_qr_scan", "android": "https://dc.lft.to/lastmile_qr_scan"}}, {"fusion_lon": 0.0, "is_reserved": 0, "type": "electric_scooter", "lon": -77.01984833333333, "fusion_lat": 0.0, "name": "d7e97afe0229dff8dfeeb1d415591158", "bike_id": "d7e97afe0229dff8dfeeb1d415591158", "lat": 38.943952833333334, "is_disabled": 0, "rental_uris": {"ios": "https://dc.lft.to/lastmile_qr_scan", "android": "https://dc.lft.to/lastmile_qr_scan"}}, {"fusion_lon": 0.0, "is_reserved": 0, "type": "electric_scooter", "lon": -77.01083866666667, "fusion_lat": 0.0, "name": "97858ce531682b57486fe67b33f62991", "bike_id": "97858ce531682b57486fe67b33f62991", "lat": 38.91158983333333, "is_disabled": 0, "rental_uris": {"ios": "https://dc.lft.to/lastmile_qr_scan", "android": "https://dc.lft.to/lastmile_qr_scan"}}, {"fusion_lon": 0.0, "is_reserved": 0, "type": "electric_bike", "lon": -77.09026733333333, "fusion_lat": 0.0, "name": "6d6f130fc7523648551646cc6b7b5945", "bike_id": "6d6f130fc7523648551646cc6b7b5945", "lat": 38.926485166666666, "is_disabled": 0, "rental_uris": {"ios": "https://dc.lft.to/lastmile_qr_scan", "android": "https://dc.lft.to/lastmile_qr_scan"}}, {"fusion_lon": 0.0, "is_reserved": 0, "type": "electric_scooter", "lon": -76.927215, "fusion_lat": 0.0, "name": "f7cc0a6ccf2c617aa305f9cf468f3c6c", "bike_id": "f7cc0a6ccf2c617aa305f9cf468f3c6c", "lat": 38.880351166666664, "is_disabled": 0, "rental_uris": {"ios": "https://dc.lft.to/lastmile_qr_scan", "android": "https://dc.lft.to/lastmile_qr_scan"}}, {"fusion_lon": 0.0, "is_reserved": 0, "type": "electric_scooter", "lon": -76.93911833333334, "fusion_lat": 0.0, "name": "25d31c65f5748a5125557ab769f64f33", "bike_id": "25d31c65f5748a5125557ab769f64f33", "lat": 38.89704916666667, "is_disabled": 0, "rental_uris": {"ios": "https://dc.lft.to/lastmile_qr_scan", "android": "https://dc.lft.to/lastmile_qr_scan"}}, {"fusion_lon": 0.0, "is_reserved": 0, "type": "electric_scooter", "lon": -77.02024683333333, "fusion_lat": 0.0, "name": "cac47f494b03d2a5a80f576578ed2868", "bike_id": "cac47f494b03d2a5a80f576578ed2868", "lat": 38.9216535, "is_disabled": 0, "rental_uris": {"ios": "https://dc.lft.to/lastmile_qr_scan", "android": "https://dc.lft.to/lastmile_qr_scan"}}, {"fusion_lon": 0.0, "is_reserved": 0, "type": "electric_scooter", "lon": -76.97931216666667, "fusion_lat": 0.0, "name": "ce00cb4b186ab54a616cb28e38490ade", "bike_id": "ce00cb4b186ab54a616cb28e38490ade", "lat": 38.906862833333335, "is_disabled": 0, "rental_uris": {"ios": "https://dc.lft.to/lastmile_qr_scan", "android": "https://dc.lft.to/lastmile_qr_scan"}}, {"fusion_lon": 0.0, "is_reserved": 0, "type": "electric_scooter", "lon": -77.038163, "fusion_lat": 0.0, "name": "69847ee582f917aaa37a3544bbc42c9c", "bike_id": "69847ee582f917aaa37a3544bbc42c9c", "lat": 38.924822166666665, "is_disabled": 0, "rental_uris": {"ios": "https://dc.lft.to/lastmile_qr_scan", "android": "https://dc.lft.to/lastmile_qr_scan"}}, {"fusion_lon": 0.0, "is_reserved": 0, "type": "electric_scooter", "lon": -77.0271325, "fusion_lat": 0.0, "name": "63386ea9a88b2a81f828a91f42b4e685", "bike_id": "63386ea9a88b2a81f828a91f42b4e685", "lat": 38.924668833333335, "is_disabled": 0, "rental_uris": {"ios": "https://dc.lft.to/lastmile_qr_scan", "android": "https://dc.lft.to/lastmile_qr_scan"}}, {"fusion_lon": 0.0, "is_reserved": 0, "type": "electric_scooter", "lon": -77.03279866666666, "fusion_lat": 0.0, "name": "b7dc96780b9c0a8c2916ae9481125978", "bike_id": "b7dc96780b9c0a8c2916ae9481125978", "lat": 38.9311185, "is_disabled": 0, "rental_uris": {"ios": "https://dc.lft.to/lastmile_qr_scan", "android": "https://dc.lft.to/lastmile_qr_scan"}}, {"fusion_lon": 0.0, "is_reserved": 0, "type": "electric_scooter", "lon": -77.04175733333334, "fusion_lat": 0.0, "name": "a2b2787f26098d182adf21a4b0bcdacc", "bike_id": "a2b2787f26098d182adf21a4b0bcdacc", "lat": 38.905416, "is_disabled": 0, "rental_uris": {"ios": "https://dc.lft.to/lastmile_qr_scan", "android": "https://dc.lft.to/lastmile_qr_scan"}}, {"fusion_lon": 0.0, "is_reserved": 0, "type": "electric_scooter", "lon": -77.0604705, "fusion_lat": 0.0, "name": "769e1c1a01bf4512ff193ab29477b3e7", "bike_id": "769e1c1a01bf4512ff193ab29477b3e7", "lat": 38.905146, "is_disabled": 0, "rental_uris": {"ios": "https://dc.lft.to/lastmile_qr_scan", "android": "https://dc.lft.to/lastmile_qr_scan"}}, {"fusion_lon": 0.0, "is_reserved": 0, "type": "electric_scooter", "lon": -77.05527133333334, "fusion_lat": 0.0, "name": "80abae1e92acc099d163650a8706daea", "bike_id": "80abae1e92acc099d163650a8706daea", "lat": 38.900270666666664, "is_disabled": 0, "rental_uris": {"ios": "https://dc.lft.to/lastmile_qr_scan", "android": "https://dc.lft.to/lastmile_qr_scan"}}, {"fusion_lon": 0.0, "is_reserved": 0, "type": "electric_scooter", "lon": -77.0415385, "fusion_lat": 0.0, "name": "dfe32f5863e2129f573d29f585a364f3", "bike_id": "dfe32f5863e2129f573d29f585a364f3", "lat": 38.8821995, "is_disabled": 0, "rental_uris": {"ios": "https://dc.lft.to/lastmile_qr_scan", "android": "https://dc.lft.to/lastmile_qr_scan"}}, {"fusion_lon": 0.0, "is_reserved": 0, "type": "electric_bike", "lon": -76.99703233333334, "fusion_lat": 0.0, "name": "a70b12cda60ca03cc45e7a1eddb64689", "bike_id": "a70b12cda60ca03cc45e7a1eddb64689", "lat": 38.83864066666667, "is_disabled": 0, "rental_uris": {"ios": "https://dc.lft.to/lastmile_qr_scan", "android": "https://dc.lft.to/lastmile_qr_scan"}}, {"fusion_lon": 0.0, "is_reserved": 0, "type": "electric_scooter", "lon": -77.02354216666667, "fusion_lat": 0.0, "name": "7d933129bf31673525da236b95833791", "bike_id": "7d933129bf31673525da236b95833791", "lat": 38.93530783333333, "is_disabled": 0, "rental_uris": {"ios": "https://dc.lft.to/lastmile_qr_scan", "android": "https://dc.lft.to/lastmile_qr_scan"}}, {"fusion_lon": 0.0, "is_reserved": 0, "type": "electric_bike", "lon": -76.93175683333334, "fusion_lat": 0.0, "name": "3f1cb1f31991fa0d68dd39fe973960c9", "bike_id": "3f1cb1f31991fa0d68dd39fe973960c9", "lat": 38.902173, "is_disabled": 0, "rental_uris": {"ios": "https://dc.lft.to/lastmile_qr_scan", "android": "https://dc.lft.to/lastmile_qr_scan"}}, {"fusion_lon": 0.0, "is_reserved": 0, "type": "electric_scooter", "lon": -77.02795216666667, "fusion_lat": 0.0, "name": "cfeacf58fe84062d2455796ff133ad44", "bike_id": "cfeacf58fe84062d2455796ff133ad44", "lat": 38.90124, "is_disabled": 0, "rental_uris": {"ios": "https://dc.lft.to/lastmile_qr_scan", "android": "https://dc.lft.to/lastmile_qr_scan"}}, {"fusion_lon": 0.0, "is_reserved": 0, "type": "electric_scooter", "lon": -77.03572116666666, "fusion_lat": 0.0, "name": "a2a48d40a5b4a985131e1151a5773bce", "bike_id": "a2a48d40a5b4a985131e1151a5773bce", "lat": 38.901322, "is_disabled": 0, "rental_uris": {"ios": "https://dc.lft.to/lastmile_qr_scan", "android": "https://dc.lft.to/lastmile_qr_scan"}}, {"fusion_lon": 0.0, "is_reserved": 0, "type": "electric_scooter", "lon": -77.02159233333333, "fusion_lat": 0.0, "name": "f2d3b36b86fbf6364af5e2506a7c17e7", "bike_id": "f2d3b36b86fbf6364af5e2506a7c17e7", "lat": 38.92614066666667, "is_disabled": 0, "rental_uris": {"ios": "https://dc.lft.to/lastmile_qr_scan", "android": "https://dc.lft.to/lastmile_qr_scan"}}, {"fusion_lon": 0.0, "is_reserved": 0, "type": "electric_scooter", "lon": -77.0241555, "fusion_lat": 0.0, "name": "da9d8819f76081d31a56ce249a5e4a4e", "bike_id": "da9d8819f76081d31a56ce249a5e4a4e", "lat": 38.899347666666664, "is_disabled": 0, "rental_uris": {"ios": "https://dc.lft.to/lastmile_qr_scan", "android": "https://dc.lft.to/lastmile_qr_scan"}}, {"fusion_lon": 0.0, "is_reserved": 0, "type": "electric_bike", "lon": -76.91800333333333, "fusion_lat": 0.0, "name": "9313a38d340ab9f38a9d41f13b03b517", "bike_id": "9313a38d340ab9f38a9d41f13b03b517", "lat": 39.000066333333336, "is_disabled": 0, "rental_uris": {"ios": "https://dc.lft.to/lastmile_qr_scan", "android": "https://dc.lft.to/lastmile_qr_scan"}}, {"fusion_lon": 0.0, "is_reserved": 0, "type": "electric_bike", "lon": -77.22905233333333, "fusion_lat": 0.0, "name": "ffcb5c512f834590dfe1b2c2047944d7", "bike_id": "ffcb5c512f834590dfe1b2c2047944d7", "lat": 38.8703345, "is_disabled": 0, "rental_uris": {"ios": "https://dc.lft.to/lastmile_qr_scan", "android": "https://dc.lft.to/lastmile_qr_scan"}}, {"fusion_lon": 0.0, "is_reserved": 0, "type": "electric_scooter", "lon": -76.9934675, "fusion_lat": 0.0, "name": "73c7dbb5984e7b350d817170bf6d8679", "bike_id": "73c7dbb5984e7b350d817170bf6d8679", "lat": 38.900208166666665, "is_disabled": 0, "rental_uris": {"ios": "https://dc.lft.to/lastmile_qr_scan", "android": "https://dc.lft.to/lastmile_qr_scan"}}, {"fusion_lon": 0.0, "is_reserved": 0, "type": "electric_scooter", "lon": -77.02218166666667, "fusion_lat": 0.0, "name": "fb89c5a263ab41ef74eac17e0c37d067", "bike_id": "fb89c5a263ab41ef74eac17e0c37d067", "lat": 38.89603666666667, "is_disabled": 0, "rental_uris": {"ios": "https://dc.lft.to/lastmile_qr_scan", "android": "https://dc.lft.to/lastmile_qr_scan"}}, {"fusion_lon": 0.0, "is_reserved": 0, "type": "electric_scooter", "lon": -77.0199995, "fusion_lat": 0.0, "name": "ada8b30fdf9c90e7584adc6838573a6b", "bike_id": "ada8b30fdf9c90e7584adc6838573a6b", "lat": 38.915854333333336, "is_disabled": 0, "rental_uris": {"ios": "https://dc.lft.to/lastmile_qr_scan", "android": "https://dc.lft.to/lastmile_qr_scan"}}, {"fusion_lon": 0.0, "is_reserved": 0, "type": "electric_scooter", "lon": -77.0228805, "fusion_lat": 0.0, "name": "fa4c3fdf791ffda6f86a70a9fc2f9124", "bike_id": "fa4c3fdf791ffda6f86a70a9fc2f9124", "lat": 38.9168775, "is_disabled": 0, "rental_uris": {"ios": "https://dc.lft.to/lastmile_qr_scan", "android": "https://dc.lft.to/lastmile_qr_scan"}}, {"fusion_lon": 0.0, "is_reserved": 0, "type": "electric_scooter", "lon": -77.06084866666667, "fusion_lat": 0.0, "name": "c32fd200b9c990c17a262461590c4db4", "bike_id": "c32fd200b9c990c17a262461590c4db4", "lat": 38.910481, "is_disabled": 0, "rental_uris": {"ios": "https://dc.lft.to/lastmile_qr_scan", "android": "https://dc.lft.to/lastmile_qr_scan"}}, {"fusion_lon": 0.0, "is_reserved": 0, "type": "electric_scooter", "lon": -77.02068666666666, "fusion_lat": 0.0, "name": "a92e26516ff3b09a79ec7608ec65a93e", "bike_id": "a92e26516ff3b09a79ec7608ec65a93e", "lat": 38.921183166666665, "is_disabled": 0, "rental_uris": {"ios": "https://dc.lft.to/lastmile_qr_scan", "android": "https://dc.lft.to/lastmile_qr_scan"}}, {"fusion_lon": 0.0, "is_reserved": 0, "type": "electric_scooter", "lon": -77.03063283333333, "fusion_lat": 0.0, "name": "310936e71a79baf328fc64d79b80f60e", "bike_id": "310936e71a79baf328fc64d79b80f60e", "lat": 38.922504, "is_disabled": 0, "rental_uris": {"ios": "https://dc.lft.to/lastmile_qr_scan", "android": "https://dc.lft.to/lastmile_qr_scan"}}, {"fusion_lon": 0.0, "is_reserved": 0, "type": "electric_scooter", "lon": -77.04186833333333, "fusion_lat": 0.0, "name": "cf0255bb79ee18a8cecbf96d5dc90eb9", "bike_id": "cf0255bb79ee18a8cecbf96d5dc90eb9", "lat": 38.916910666666666, "is_disabled": 0, "rental_uris": {"ios": "https://dc.lft.to/lastmile_qr_scan", "android": "https://dc.lft.to/lastmile_qr_scan"}}, {"fusion_lon": 0.0, "is_reserved": 0, "type": "electric_scooter", "lon": -76.9949125, "fusion_lat": 0.0, "name": "c64798973889672623afc2113e1613ed", "bike_id": "c64798973889672623afc2113e1613ed", "lat": 38.8940035, "is_disabled": 0, "rental_uris": {"ios": "https://dc.lft.to/lastmile_qr_scan", "android": "https://dc.lft.to/lastmile_qr_scan"}}, {"fusion_lon": 0.0, "is_reserved": 0, "type": "electric_scooter", "lon": -77.0365995, "fusion_lat": 0.0, "name": "02150b618a50c5f52fb3f120fbb774db", "bike_id": "02150b618a50c5f52fb3f120fbb774db", "lat": 38.9183285, "is_disabled": 0, "rental_uris": {"ios": "https://dc.lft.to/lastmile_qr_scan", "android": "https://dc.lft.to/lastmile_qr_scan"}}, {"fusion_lon": 0.0, "is_reserved": 0, "type": "electric_scooter", "lon": -77.04414, "fusion_lat": 0.0, "name": "5e51f4fa7cd8e03d597fd7b2090b8c1a", "bike_id": "5e51f4fa7cd8e03d597fd7b2090b8c1a", "lat": 38.896164, "is_disabled": 0, "rental_uris": {"ios": "https://dc.lft.to/lastmile_qr_scan", "android": "https://dc.lft.to/lastmile_qr_scan"}}, {"fusion_lon": 0.0, "is_reserved": 0, "type": "electric_scooter", "lon": -77.03713116666667, "fusion_lat": 0.0, "name": "c77a7781e2927ab0311f24daf4495df2", "bike_id": "c77a7781e2927ab0311f24daf4495df2", "lat": 38.9263775, "is_disabled": 0, "rental_uris": {"ios": "https://dc.lft.to/lastmile_qr_scan", "android": "https://dc.lft.to/lastmile_qr_scan"}}, {"fusion_lon": 0.0, "is_reserved": 0, "type": "electric_scooter", "lon": -76.99153433333333, "fusion_lat": 0.0, "name": "290e130461f11e8b739ba556770684bb", "bike_id": "290e130461f11e8b739ba556770684bb", "lat": 38.90044016666667, "is_disabled": 0, "rental_uris": {"ios": "https://dc.lft.to/lastmile_qr_scan", "android": "https://dc.lft.to/lastmile_qr_scan"}}, {"fusion_lon": 0.0, "is_reserved": 0, "type": "electric_scooter", "lon": -77.0179105, "fusion_lat": 0.0, "name": "e6ac834e995017dbb80c7923faff3862", "bike_id": "e6ac834e995017dbb80c7923faff3862", "lat": 38.91989683333333, "is_disabled": 0, "rental_uris": {"ios": "https://dc.lft.to/lastmile_qr_scan", "android": "https://dc.lft.to/lastmile_qr_scan"}}, {"fusion_lon": 0.0, "is_reserved": 0, "type": "electric_scooter", "lon": -77.03206633333333, "fusion_lat": 0.0, "name": "a984ae1475ca5b196190bc682bbb4327", "bike_id": "a984ae1475ca5b196190bc682bbb4327", "lat": 38.892285333333334, "is_disabled": 0, "rental_uris": {"ios": "https://dc.lft.to/lastmile_qr_scan", "android": "https://dc.lft.to/lastmile_qr_scan"}}, {"fusion_lon": 0.0, "is_reserved": 0, "type": "electric_scooter", "lon": -77.02180883333334, "fusion_lat": 0.0, "name": "fb41ff4c5582c3fa3249bdd76330d693", "bike_id": "fb41ff4c5582c3fa3249bdd76330d693", "lat": 38.89468016666667, "is_disabled": 0, "rental_uris": {"ios": "https://dc.lft.to/lastmile_qr_scan", "android": "https://dc.lft.to/lastmile_qr_scan"}}, {"fusion_lon": 0.0, "is_reserved": 0, "type": "electric_scooter", "lon": -77.034953, "fusion_lat": 0.0, "name": "f63be4457412140b250846d08011cc4d", "bike_id": "f63be4457412140b250846d08011cc4d", "lat": 38.928835666666664, "is_disabled": 0, "rental_uris": {"ios": "https://dc.lft.to/lastmile_qr_scan", "android": "https://dc.lft.to/lastmile_qr_scan"}}, {"fusion_lon": 0.0, "is_reserved": 0, "type": "electric_scooter", "lon": -77.04684816666666, "fusion_lat": 0.0, "name": "ebdeaf062c51feb57ebb083fa076a225", "bike_id": "ebdeaf062c51feb57ebb083fa076a225", "lat": 38.892220333333334, "is_disabled": 0, "rental_uris": {"ios": "https://dc.lft.to/lastmile_qr_scan", "android": "https://dc.lft.to/lastmile_qr_scan"}}, {"fusion_lon": 0.0, "is_reserved": 0, "type": "electric_scooter", "lon": -77.04411166666667, "fusion_lat": 0.0, "name": "1f102c16ef3e13e6b0cbc896890ef300", "bike_id": "1f102c16ef3e13e6b0cbc896890ef300", "lat": 38.909819166666665, "is_disabled": 0, "rental_uris": {"ios": "https://dc.lft.to/lastmile_qr_scan", "android": "https://dc.lft.to/lastmile_qr_scan"}}, {"fusion_lon": 0.0, "is_reserved": 0, "type": "electric_scooter", "lon": -77.01753533333333, "fusion_lat": 0.0, "name": "d36e95b24da882f0c1cb2dd606472a17", "bike_id": "d36e95b24da882f0c1cb2dd606472a17", "lat": 38.90249216666667, "is_disabled": 0, "rental_uris": {"ios": "https://dc.lft.to/lastmile_qr_scan", "android": "https://dc.lft.to/lastmile_qr_scan"}}, {"fusion_lon": 0.0, "is_reserved": 0, "type": "electric_scooter", "lon": -77.02298466666667, "fusion_lat": 0.0, "name": "b50803fa389e45ad1af13069a847ff4a", "bike_id": "b50803fa389e45ad1af13069a847ff4a", "lat": 38.916876, "is_disabled": 0, "rental_uris": {"ios": "https://dc.lft.to/lastmile_qr_scan", "android": "https://dc.lft.to/lastmile_qr_scan"}}, {"fusion_lon": 0.0, "is_reserved": 0, "type": "electric_scooter", "lon": -77.01397133333333, "fusion_lat": 0.0, "name": "51a42230fcba471548c2b6ac09579ee4", "bike_id": "51a42230fcba471548c2b6ac09579ee4", "lat": 38.919465, "is_disabled": 0, "rental_uris": {"ios": "https://dc.lft.to/lastmile_qr_scan", "android": "https://dc.lft.to/lastmile_qr_scan"}}, {"fusion_lon": 0.0, "is_reserved": 0, "type": "electric_bike", "lon": -76.99653083333334, "fusion_lat": 0.0, "name": "7493de41599840ffe47ffadbfd7eb7db", "bike_id": "7493de41599840ffe47ffadbfd7eb7db", "lat": 38.967775, "is_disabled": 0, "rental_uris": {"ios": "https://dc.lft.to/lastmile_qr_scan", "android": "https://dc.lft.to/lastmile_qr_scan"}}, {"fusion_lon": 0.0, "is_reserved": 0, "type": "electric_bike", "lon": -77.04014866666667, "fusion_lat": 0.0, "name": "5147d1300e77687ef28b12da77891cf7", "bike_id": "5147d1300e77687ef28b12da77891cf7", "lat": 38.90360166666667, "is_disabled": 0, "rental_uris": {"ios": "https://dc.lft.to/lastmile_qr_scan", "android": "https://dc.lft.to/lastmile_qr_scan"}}, {"fusion_lon": 0.0, "is_reserved": 0, "type": "electric_bike", "lon": -77.113235, "fusion_lat": 0.0, "name": "4928e960c9834dc3b92ba402d9ce4379", "bike_id": "4928e960c9834dc3b92ba402d9ce4379", "lat": 38.80403, "is_disabled": 0, "rental_uris": {"ios": "https://dc.lft.to/lastmile_qr_scan", "android": "https://dc.lft.to/lastmile_qr_scan"}}, {"fusion_lon": 0.0, "is_reserved": 0, "type": "electric_scooter", "lon": -77.03237783333333, "fusion_lat": 0.0, "name": "a7eabe886355cee583eed46e30e6adf8", "bike_id": "a7eabe886355cee583eed46e30e6adf8", "lat": 38.899353833333336, "is_disabled": 0, "rental_uris": {"ios": "https://dc.lft.to/lastmile_qr_scan", "android": "https://dc.lft.to/lastmile_qr_scan"}}, {"fusion_lon": 0.0, "is_reserved": 0, "type": "electric_scooter", "lon": -77.03677066666667, "fusion_lat": 0.0, "name": "0a74224781dd4a43438d4fae9d78c64a", "bike_id": "0a74224781dd4a43438d4fae9d78c64a", "lat": 38.91561733333333, "is_disabled": 0, "rental_uris": {"ios": "https://dc.lft.to/lastmile_qr_scan", "android": "https://dc.lft.to/lastmile_qr_scan"}}, {"fusion_lon": 0.0, "is_reserved": 0, "type": "electric_scooter", "lon": -76.98699983333333, "fusion_lat": 0.0, "name": "51d282ebe21d565454e00150599fa466", "bike_id": "51d282ebe21d565454e00150599fa466", "lat": 38.9005915, "is_disabled": 0, "rental_uris": {"ios": "https://dc.lft.to/lastmile_qr_scan", "android": "https://dc.lft.to/lastmile_qr_scan"}}, {"fusion_lon": 0.0, "is_reserved": 0, "type": "electric_scooter", "lon": -77.01433383333334, "fusion_lat": 0.0, "name": "e2088430a1ad4d615cec34b553f368f9", "bike_id": "e2088430a1ad4d615cec34b553f368f9", "lat": 38.913128, "is_disabled": 0, "rental_uris": {"ios": "https://dc.lft.to/lastmile_qr_scan", "android": "https://dc.lft.to/lastmile_qr_scan"}}, {"fusion_lon": 0.0, "is_reserved": 0, "type": "electric_scooter", "lon": -77.04352216666666, "fusion_lat": 0.0, "name": "07c008c639e3c4648c8d7d056566a7c4", "bike_id": "07c008c639e3c4648c8d7d056566a7c4", "lat": 38.92163083333333, "is_disabled": 0, "rental_uris": {"ios": "https://dc.lft.to/lastmile_qr_scan", "android": "https://dc.lft.to/lastmile_qr_scan"}}, {"fusion_lon": 0.0, "is_reserved": 0, "type": "electric_scooter", "lon": -77.04232183333333, "fusion_lat": 0.0, "name": "ec1f43fabef9b49e1b201f694c1b6eb0", "bike_id": "ec1f43fabef9b49e1b201f694c1b6eb0", "lat": 38.92197766666666, "is_disabled": 0, "rental_uris": {"ios": "https://dc.lft.to/lastmile_qr_scan", "android": "https://dc.lft.to/lastmile_qr_scan"}}, {"fusion_lon": 0.0, "is_reserved": 0, "type": "electric_bike", "lon": -77.085746, "fusion_lat": 0.0, "name": "d1fff0758ecbd7f9e8ad85b8a87f1fbd", "bike_id": "d1fff0758ecbd7f9e8ad85b8a87f1fbd", "lat": 38.87422866666667, "is_disabled": 0, "rental_uris": {"ios": "https://dc.lft.to/lastmile_qr_scan", "android": "https://dc.lft.to/lastmile_qr_scan"}}, {"fusion_lon": 0.0, "is_reserved": 0, "type": "electric_scooter", "lon": -76.99514166666667, "fusion_lat": 0.0, "name": "b70ea53fb1cacbea80dff5cf12c77c17", "bike_id": "b70ea53fb1cacbea80dff5cf12c77c17", "lat": 38.88374533333333, "is_disabled": 0, "rental_uris": {"ios": "https://dc.lft.to/lastmile_qr_scan", "android": "https://dc.lft.to/lastmile_qr_scan"}}, {"fusion_lon": 0.0, "is_reserved": 0, "type": "electric_scooter", "lon": -77.06604633333333, "fusion_lat": 0.0, "name": "49d85ca7a5b70e4f7d0226731122a1dc", "bike_id": "49d85ca7a5b70e4f7d0226731122a1dc", "lat": 38.9052225, "is_disabled": 0, "rental_uris": {"ios": "https://dc.lft.to/lastmile_qr_scan", "android": "https://dc.lft.to/lastmile_qr_scan"}}, {"fusion_lon": 0.0, "is_reserved": 0, "type": "electric_scooter", "lon": -77.02270033333333, "fusion_lat": 0.0, "name": "b8b6942db1d359b4281539bf2b1df5a4", "bike_id": "b8b6942db1d359b4281539bf2b1df5a4", "lat": 38.881327, "is_disabled": 0, "rental_uris": {"ios": "https://dc.lft.to/lastmile_qr_scan", "android": "https://dc.lft.to/lastmile_qr_scan"}}, {"fusion_lon": 0.0, "is_reserved": 0, "type": "electric_scooter", "lon": -77.01797583333334, "fusion_lat": 0.0, "name": "60967f0ae316815e72e93aa94118dc37", "bike_id": "60967f0ae316815e72e93aa94118dc37", "lat": 38.919875833333336, "is_disabled": 0, "rental_uris": {"ios": "https://dc.lft.to/lastmile_qr_scan", "android": "https://dc.lft.to/lastmile_qr_scan"}}, {"fusion_lon": 0.0, "is_reserved": 0, "type": "electric_scooter", "lon": -77.043652, "fusion_lat": 0.0, "name": "72d0a122395988f5b8c5b9939d6c687b", "bike_id": "72d0a122395988f5b8c5b9939d6c687b", "lat": 38.9205825, "is_disabled": 0, "rental_uris": {"ios": "https://dc.lft.to/lastmile_qr_scan", "android": "https://dc.lft.to/lastmile_qr_scan"}}, {"fusion_lon": 0.0, "is_reserved": 0, "type": "electric_scooter", "lon": -77.0344015, "fusion_lat": 0.0, "name": "703285d3778fd4e223f1bb19d44a7e1a", "bike_id": "703285d3778fd4e223f1bb19d44a7e1a", "lat": 38.904047166666665, "is_disabled": 0, "rental_uris": {"ios": "https://dc.lft.to/lastmile_qr_scan", "android": "https://dc.lft.to/lastmile_qr_scan"}}, {"fusion_lon": 0.0, "is_reserved": 0, "type": "electric_scooter", "lon": -77.037506, "fusion_lat": 0.0, "name": "2be9f65e78d0247006554ab81ca62b25", "bike_id": "2be9f65e78d0247006554ab81ca62b25", "lat": 38.916845, "is_disabled": 0, "rental_uris": {"ios": "https://dc.lft.to/lastmile_qr_scan", "android": "https://dc.lft.to/lastmile_qr_scan"}}, {"fusion_lon": 0.0, "is_reserved": 0, "type": "electric_bike", "lon": -77.07752, "fusion_lat": 0.0, "name": "290d91a78d726c51fb55ccd790d9512e", "bike_id": "290d91a78d726c51fb55ccd790d9512e", "lat": 38.84191766666667, "is_disabled": 0, "rental_uris": {"ios": "https://dc.lft.to/lastmile_qr_scan", "android": "https://dc.lft.to/lastmile_qr_scan"}}, {"fusion_lon": 0.0, "is_reserved": 0, "type": "electric_scooter", "lon": -76.94932733333333, "fusion_lat": 0.0, "name": "9a160e4e5b55ad88049e7b75c6c3b899", "bike_id": "9a160e4e5b55ad88049e7b75c6c3b899", "lat": 38.895310333333335, "is_disabled": 0, "rental_uris": {"ios": "https://dc.lft.to/lastmile_qr_scan", "android": "https://dc.lft.to/lastmile_qr_scan"}}, {"fusion_lon": 0.0, "is_reserved": 0, "type": "electric_scooter", "lon": -77.042442, "fusion_lat": 0.0, "name": "1de35d70be8be40ebbfcd2c6cea5210c", "bike_id": "1de35d70be8be40ebbfcd2c6cea5210c", "lat": 38.922216666666664, "is_disabled": 0, "rental_uris": {"ios": "https://dc.lft.to/lastmile_qr_scan", "android": "https://dc.lft.to/lastmile_qr_scan"}}, {"fusion_lon": 0.0, "is_reserved": 0, "type": "electric_scooter", "lon": -76.98771666666667, "fusion_lat": 0.0, "name": "f1e409eead9fa186bcafc7348c17f023", "bike_id": "f1e409eead9fa186bcafc7348c17f023", "lat": 38.9119975, "is_disabled": 0, "rental_uris": {"ios": "https://dc.lft.to/lastmile_qr_scan", "android": "https://dc.lft.to/lastmile_qr_scan"}}, {"fusion_lon": 0.0, "is_reserved": 0, "type": "electric_scooter", "lon": -77.01993766666666, "fusion_lat": 0.0, "name": "0bd9bc730dce6a92ff98318fb93f357e", "bike_id": "0bd9bc730dce6a92ff98318fb93f357e", "lat": 38.885911166666666, "is_disabled": 0, "rental_uris": {"ios": "https://dc.lft.to/lastmile_qr_scan", "android": "https://dc.lft.to/lastmile_qr_scan"}}, {"fusion_lon": 0.0, "is_reserved": 0, "type": "electric_scooter", "lon": -77.0269495, "fusion_lat": 0.0, "name": "3d7192775712a7660ce3f440cf186b76", "bike_id": "3d7192775712a7660ce3f440cf186b76", "lat": 38.910385833333336, "is_disabled": 0, "rental_uris": {"ios": "https://dc.lft.to/lastmile_qr_scan", "android": "https://dc.lft.to/lastmile_qr_scan"}}, {"fusion_lon": 0.0, "is_reserved": 0, "type": "electric_scooter", "lon": -77.02509866666666, "fusion_lat": 0.0, "name": "3f78a6a711f2dc819ff06bdac661ae79", "bike_id": "3f78a6a711f2dc819ff06bdac661ae79", "lat": 38.892328, "is_disabled": 0, "rental_uris": {"ios": "https://dc.lft.to/lastmile_qr_scan", "android": "https://dc.lft.to/lastmile_qr_scan"}}, {"fusion_lon": 0.0, "is_reserved": 0, "type": "electric_scooter", "lon": -77.04228183333333, "fusion_lat": 0.0, "name": "aea5a1bac7acebf4b4cfc368edce74ad", "bike_id": "aea5a1bac7acebf4b4cfc368edce74ad", "lat": 38.907405833333335, "is_disabled": 0, "rental_uris": {"ios": "https://dc.lft.to/lastmile_qr_scan", "android": "https://dc.lft.to/lastmile_qr_scan"}}, {"fusion_lon": 0.0, "is_reserved": 0, "type": "electric_scooter", "lon": -77.0313335, "fusion_lat": 0.0, "name": "f4fd148ed6670c3754a41f6d38ce9ed7", "bike_id": "f4fd148ed6670c3754a41f6d38ce9ed7", "lat": 38.911073, "is_disabled": 0, "rental_uris": {"ios": "https://dc.lft.to/lastmile_qr_scan", "android": "https://dc.lft.to/lastmile_qr_scan"}}, {"fusion_lon": 0.0, "is_reserved": 0, "type": "electric_scooter", "lon": -77.00979483333333, "fusion_lat": 0.0, "name": "af91d94fe24e0f01fda0dbad69c9f2f1", "bike_id": "af91d94fe24e0f01fda0dbad69c9f2f1", "lat": 38.906999166666665, "is_disabled": 0, "rental_uris": {"ios": "https://dc.lft.to/lastmile_qr_scan", "android": "https://dc.lft.to/lastmile_qr_scan"}}, {"fusion_lon": 0.0, "is_reserved": 0, "type": "electric_scooter", "lon": -77.02319366666667, "fusion_lat": 0.0, "name": "60899078f7767121f0c8f7c29e7d91a5", "bike_id": "60899078f7767121f0c8f7c29e7d91a5", "lat": 38.920903833333334, "is_disabled": 0, "rental_uris": {"ios": "https://dc.lft.to/lastmile_qr_scan", "android": "https://dc.lft.to/lastmile_qr_scan"}}, {"fusion_lon": 0.0, "is_reserved": 0, "type": "electric_scooter", "lon": -77.03275733333334, "fusion_lat": 0.0, "name": "69be94faf52830bcce9539565f3cc845", "bike_id": "69be94faf52830bcce9539565f3cc845", "lat": 38.898984, "is_disabled": 0, "rental_uris": {"ios": "https://dc.lft.to/lastmile_qr_scan", "android": "https://dc.lft.to/lastmile_qr_scan"}}, {"fusion_lon": 0.0, "is_reserved": 0, "type": "electric_scooter", "lon": -76.99621433333333, "fusion_lat": 0.0, "name": "61c0ec725c386305743119fc367c8f25", "bike_id": "61c0ec725c386305743119fc367c8f25", "lat": 38.90897616666667, "is_disabled": 0, "rental_uris": {"ios": "https://dc.lft.to/lastmile_qr_scan", "android": "https://dc.lft.to/lastmile_qr_scan"}}, {"fusion_lon": 0.0, "is_reserved": 0, "type": "electric_bike", "lon": -77.0766295, "fusion_lat": 0.0, "name": "480f8239a1cabb6a5b3b51c5d33879d2", "bike_id": "480f8239a1cabb6a5b3b51c5d33879d2", "lat": 38.809748, "is_disabled": 0, "rental_uris": {"ios": "https://dc.lft.to/lastmile_qr_scan", "android": "https://dc.lft.to/lastmile_qr_scan"}}, {"fusion_lon": 0.0, "is_reserved": 0, "type": "electric_scooter", "lon": -77.02143616666666, "fusion_lat": 0.0, "name": "28baf468598af36a632c2d686cb7b7a2", "bike_id": "28baf468598af36a632c2d686cb7b7a2", "lat": 38.90001633333333, "is_disabled": 0, "rental_uris": {"ios": "https://dc.lft.to/lastmile_qr_scan", "android": "https://dc.lft.to/lastmile_qr_scan"}}, {"fusion_lon": 0.0, "is_reserved": 0, "type": "electric_scooter", "lon": -77.06251216666666, "fusion_lat": 0.0, "name": "154ca127b820ed0b7861dbd64418f082", "bike_id": "154ca127b820ed0b7861dbd64418f082", "lat": 38.913157166666664, "is_disabled": 0, "rental_uris": {"ios": "https://dc.lft.to/lastmile_qr_scan", "android": "https://dc.lft.to/lastmile_qr_scan"}}, {"fusion_lon": 0.0, "is_reserved": 0, "type": "electric_scooter", "lon": -77.07310333333334, "fusion_lat": 0.0, "name": "1850b7884921d0ff063f18877dc419f4", "bike_id": "1850b7884921d0ff063f18877dc419f4", "lat": 38.91202833333333, "is_disabled": 0, "rental_uris": {"ios": "https://dc.lft.to/lastmile_qr_scan", "android": "https://dc.lft.to/lastmile_qr_scan"}}, {"fusion_lon": 0.0, "is_reserved": 0, "type": "electric_scooter", "lon": -77.03204866666667, "fusion_lat": 0.0, "name": "da25d26c3889004781d4eab055555d1b", "bike_id": "da25d26c3889004781d4eab055555d1b", "lat": 38.906969333333336, "is_disabled": 0, "rental_uris": {"ios": "https://dc.lft.to/lastmile_qr_scan", "android": "https://dc.lft.to/lastmile_qr_scan"}}, {"fusion_lon": 0.0, "is_reserved": 0, "type": "electric_scooter", "lon": -77.02250333333333, "fusion_lat": 0.0, "name": "eeb607185038f3f61ec2a52461f0b03a", "bike_id": "eeb607185038f3f61ec2a52461f0b03a", "lat": 38.92467283333333, "is_disabled": 0, "rental_uris": {"ios": "https://dc.lft.to/lastmile_qr_scan", "android": "https://dc.lft.to/lastmile_qr_scan"}}, {"fusion_lon": 0.0, "is_reserved": 0, "type": "electric_scooter", "lon": -77.02712233333334, "fusion_lat": 0.0, "name": "593d0a4278b4d628027f2b84dcfd884e", "bike_id": "593d0a4278b4d628027f2b84dcfd884e", "lat": 38.90005716666667, "is_disabled": 0, "rental_uris": {"ios": "https://dc.lft.to/lastmile_qr_scan", "android": "https://dc.lft.to/lastmile_qr_scan"}}, {"fusion_lon": 0.0, "is_reserved": 0, "type": "electric_scooter", "lon": -77.0249445, "fusion_lat": 0.0, "name": "48990711cef575ced80214c1e71fcb66", "bike_id": "48990711cef575ced80214c1e71fcb66", "lat": 38.91805333333333, "is_disabled": 0, "rental_uris": {"ios": "https://dc.lft.to/lastmile_qr_scan", "android": "https://dc.lft.to/lastmile_qr_scan"}}, {"fusion_lon": 0.0, "is_reserved": 0, "type": "electric_scooter", "lon": -77.05094516666666, "fusion_lat": 0.0, "name": "414a2531d552461e145fb09289d10bc1", "bike_id": "414a2531d552461e145fb09289d10bc1", "lat": 38.923658833333334, "is_disabled": 0, "rental_uris": {"ios": "https://dc.lft.to/lastmile_qr_scan", "android": "https://dc.lft.to/lastmile_qr_scan"}}, {"fusion_lon": 0.0, "is_reserved": 0, "type": "electric_scooter", "lon": -77.06271933333333, "fusion_lat": 0.0, "name": "0fdf65c7007c51e7ac78e0160fbe4dfc", "bike_id": "0fdf65c7007c51e7ac78e0160fbe4dfc", "lat": 38.90572483333333, "is_disabled": 0, "rental_uris": {"ios": "https://dc.lft.to/lastmile_qr_scan", "android": "https://dc.lft.to/lastmile_qr_scan"}}, {"fusion_lon": 0.0, "is_reserved": 0, "type": "electric_scooter", "lon": -77.03250783333333, "fusion_lat": 0.0, "name": "3d053b8464878e8b190623ab636e3fe8", "bike_id": "3d053b8464878e8b190623ab636e3fe8", "lat": 38.91119283333333, "is_disabled": 0, "rental_uris": {"ios": "https://dc.lft.to/lastmile_qr_scan", "android": "https://dc.lft.to/lastmile_qr_scan"}}, {"fusion_lon": 0.0, "is_reserved": 0, "type": "electric_scooter", "lon": -77.07256066666666, "fusion_lat": 0.0, "name": "7220e78985af8ec90f9f9899a9509727", "bike_id": "7220e78985af8ec90f9f9899a9509727", "lat": 38.90785966666667, "is_disabled": 0, "rental_uris": {"ios": "https://dc.lft.to/lastmile_qr_scan", "android": "https://dc.lft.to/lastmile_qr_scan"}}, {"fusion_lon": 0.0, "is_reserved": 0, "type": "electric_scooter", "lon": -77.04502683333334, "fusion_lat": 0.0, "name": "c91232afcb65e1ce20c1489b2442feda", "bike_id": "c91232afcb65e1ce20c1489b2442feda", "lat": 38.899703333333335, "is_disabled": 0, "rental_uris": {"ios": "https://dc.lft.to/lastmile_qr_scan", "android": "https://dc.lft.to/lastmile_qr_scan"}}, {"fusion_lon": 0.0, "is_reserved": 0, "type": "electric_scooter", "lon": -77.02215583333333, "fusion_lat": 0.0, "name": "4c633969cf9ba4f2823b43238bba3768", "bike_id": "4c633969cf9ba4f2823b43238bba3768", "lat": 38.91016616666667, "is_disabled": 0, "rental_uris": {"ios": "https://dc.lft.to/lastmile_qr_scan", "android": "https://dc.lft.to/lastmile_qr_scan"}}, {"fusion_lon": 0.0, "is_reserved": 0, "type": "electric_scooter", "lon": -77.04045783333333, "fusion_lat": 0.0, "name": "b43ce69f43d7183a248d3bf4674215a4", "bike_id": "b43ce69f43d7183a248d3bf4674215a4", "lat": 38.9010985, "is_disabled": 0, "rental_uris": {"ios": "https://dc.lft.to/lastmile_qr_scan", "android": "https://dc.lft.to/lastmile_qr_scan"}}, {"fusion_lon": 0.0, "is_reserved": 0, "type": "electric_scooter", "lon": -77.03257516666666, "fusion_lat": 0.0, "name": "846b8881c203a64c83be9b5662be8711", "bike_id": "846b8881c203a64c83be9b5662be8711", "lat": 38.9292035, "is_disabled": 0, "rental_uris": {"ios": "https://dc.lft.to/lastmile_qr_scan", "android": "https://dc.lft.to/lastmile_qr_scan"}}, {"fusion_lon": 0.0, "is_reserved": 0, "type": "electric_scooter", "lon": -77.04687483333333, "fusion_lat": 0.0, "name": "118628aef9394defa6f663d78a292444", "bike_id": "118628aef9394defa6f663d78a292444", "lat": 38.89223033333333, "is_disabled": 0, "rental_uris": {"ios": "https://dc.lft.to/lastmile_qr_scan", "android": "https://dc.lft.to/lastmile_qr_scan"}}, {"fusion_lon": 0.0, "is_reserved": 0, "type": "electric_bike", "lon": -77.09899116666666, "fusion_lat": 0.0, "name": "11322b359444b1743f17a67a7e0cc40a", "bike_id": "11322b359444b1743f17a67a7e0cc40a", "lat": 38.96182666666667, "is_disabled": 0, "rental_uris": {"ios": "https://dc.lft.to/lastmile_qr_scan", "android": "https://dc.lft.to/lastmile_qr_scan"}}, {"fusion_lon": 0.0, "is_reserved": 0, "type": "electric_scooter", "lon": -77.00957116666666, "fusion_lat": 0.0, "name": "50f20e327270924071ea8b6d298fc33d", "bike_id": "50f20e327270924071ea8b6d298fc33d", "lat": 38.87657883333333, "is_disabled": 0, "rental_uris": {"ios": "https://dc.lft.to/lastmile_qr_scan", "android": "https://dc.lft.to/lastmile_qr_scan"}}, {"fusion_lon": 0.0, "is_reserved": 0, "type": "electric_scooter", "lon": -77.04146216666666, "fusion_lat": 0.0, "name": "0a71f5c30c60dd433e819a745d826dde", "bike_id": "0a71f5c30c60dd433e819a745d826dde", "lat": 38.906023833333336, "is_disabled": 0, "rental_uris": {"ios": "https://dc.lft.to/lastmile_qr_scan", "android": "https://dc.lft.to/lastmile_qr_scan"}}, {"fusion_lon": 0.0, "is_reserved": 0, "type": "electric_scooter", "lon": -76.93531966666667, "fusion_lat": 0.0, "name": "bafcfb56f5e2c02374dde7b67882f4bf", "bike_id": "bafcfb56f5e2c02374dde7b67882f4bf", "lat": 38.878946, "is_disabled": 0, "rental_uris": {"ios": "https://dc.lft.to/lastmile_qr_scan", "android": "https://dc.lft.to/lastmile_qr_scan"}}, {"fusion_lon": 0.0, "is_reserved": 0, "type": "electric_scooter", "lon": -76.98908466666667, "fusion_lat": 0.0, "name": "dd5eb11595cdaf10246c2d5ffb4235c8", "bike_id": "dd5eb11595cdaf10246c2d5ffb4235c8", "lat": 38.858142666666666, "is_disabled": 0, "rental_uris": {"ios": "https://dc.lft.to/lastmile_qr_scan", "android": "https://dc.lft.to/lastmile_qr_scan"}}, {"fusion_lon": 0.0, "is_reserved": 0, "type": "electric_bike", "lon": -76.96985616666667, "fusion_lat": 0.0, "name": "1ff5d983d055fff745b25cdf966159cb", "bike_id": "1ff5d983d055fff745b25cdf966159cb", "lat": 38.864913, "is_disabled": 0, "rental_uris": {"ios": "https://dc.lft.to/lastmile_qr_scan", "android": "https://dc.lft.to/lastmile_qr_scan"}}, {"fusion_lon": 0.0, "is_reserved": 0, "type": "electric_scooter", "lon": -77.04225533333333, "fusion_lat": 0.0, "name": "5fbc2c7e72ce2b717adc4be57fec4e34", "bike_id": "5fbc2c7e72ce2b717adc4be57fec4e34", "lat": 38.921527833333336, "is_disabled": 0, "rental_uris": {"ios": "https://dc.lft.to/lastmile_qr_scan", "android": "https://dc.lft.to/lastmile_qr_scan"}}, {"fusion_lon": 0.0, "is_reserved": 0, "type": "electric_scooter", "lon": -77.009199, "fusion_lat": 0.0, "name": "c0a573e22ed9c72d155e7ac36e3552d8", "bike_id": "c0a573e22ed9c72d155e7ac36e3552d8", "lat": 38.89727966666667, "is_disabled": 0, "rental_uris": {"ios": "https://dc.lft.to/lastmile_qr_scan", "android": "https://dc.lft.to/lastmile_qr_scan"}}, {"fusion_lon": 0.0, "is_reserved": 0, "type": "electric_scooter", "lon": -77.00595783333333, "fusion_lat": 0.0, "name": "4c335242ed04e05b432bdc0ee1c3f198", "bike_id": "4c335242ed04e05b432bdc0ee1c3f198", "lat": 38.907009, "is_disabled": 0, "rental_uris": {"ios": "https://dc.lft.to/lastmile_qr_scan", "android": "https://dc.lft.to/lastmile_qr_scan"}}, {"fusion_lon": 0.0, "is_reserved": 0, "type": "electric_scooter", "lon": -77.03894433333333, "fusion_lat": 0.0, "name": "b31ebccd1baa931150065f74b0253352", "bike_id": "b31ebccd1baa931150065f74b0253352", "lat": 38.92223333333333, "is_disabled": 0, "rental_uris": {"ios": "https://dc.lft.to/lastmile_qr_scan", "android": "https://dc.lft.to/lastmile_qr_scan"}}, {"fusion_lon": 0.0, "is_reserved": 0, "type": "electric_scooter", "lon": -77.022246, "fusion_lat": 0.0, "name": "4330c36a40340290b1bf04d29586abc3", "bike_id": "4330c36a40340290b1bf04d29586abc3", "lat": 38.912668833333335, "is_disabled": 0, "rental_uris": {"ios": "https://dc.lft.to/lastmile_qr_scan", "android": "https://dc.lft.to/lastmile_qr_scan"}}, {"fusion_lon": 0.0, "is_reserved": 0, "type": "electric_scooter", "lon": -77.02319066666666, "fusion_lat": 0.0, "name": "2e9fc46203c86ba53a717db1565f9455", "bike_id": "2e9fc46203c86ba53a717db1565f9455", "lat": 38.917917833333334, "is_disabled": 0, "rental_uris": {"ios": "https://dc.lft.to/lastmile_qr_scan", "android": "https://dc.lft.to/lastmile_qr_scan"}}, {"fusion_lon": 0.0, "is_reserved": 0, "type": "electric_scooter", "lon": -77.03340633333333, "fusion_lat": 0.0, "name": "45249c36cda768f72b5cd0934f732311", "bike_id": "45249c36cda768f72b5cd0934f732311", "lat": 38.928767, "is_disabled": 0, "rental_uris": {"ios": "https://dc.lft.to/lastmile_qr_scan", "android": "https://dc.lft.to/lastmile_qr_scan"}}, {"fusion_lon": 0.0, "is_reserved": 0, "type": "electric_scooter", "lon": -77.06353966666667, "fusion_lat": 0.0, "name": "fa4e0c8f7f8ebc9af6e321c29245469f", "bike_id": "fa4e0c8f7f8ebc9af6e321c29245469f", "lat": 38.944395, "is_disabled": 0, "rental_uris": {"ios": "https://dc.lft.to/lastmile_qr_scan", "android": "https://dc.lft.to/lastmile_qr_scan"}}, {"fusion_lon": 0.0, "is_reserved": 0, "type": "electric_scooter", "lon": -77.04653383333333, "fusion_lat": 0.0, "name": "bd07698f4c1792206fc1b55e09afe68e", "bike_id": "bd07698f4c1792206fc1b55e09afe68e", "lat": 38.892757833333334, "is_disabled": 0, "rental_uris": {"ios": "https://dc.lft.to/lastmile_qr_scan", "android": "https://dc.lft.to/lastmile_qr_scan"}}, {"fusion_lon": 0.0, "is_reserved": 0, "type": "electric_scooter", "lon": -77.00798183333333, "fusion_lat": 0.0, "name": "e5e98a9b3d9aecdcd0573af4b2b70996", "bike_id": "e5e98a9b3d9aecdcd0573af4b2b70996", "lat": 38.89717516666666, "is_disabled": 0, "rental_uris": {"ios": "https://dc.lft.to/lastmile_qr_scan", "android": "https://dc.lft.to/lastmile_qr_scan"}}, {"fusion_lon": 0.0, "is_reserved": 0, "type": "electric_scooter", "lon": -77.044862, "fusion_lat": 0.0, "name": "b6749649eed10f744119e3c484ae1e45", "bike_id": "b6749649eed10f744119e3c484ae1e45", "lat": 38.9047945, "is_disabled": 0, "rental_uris": {"ios": "https://dc.lft.to/lastmile_qr_scan", "android": "https://dc.lft.to/lastmile_qr_scan"}}, {"fusion_lon": 0.0, "is_reserved": 0, "type": "electric_scooter", "lon": -77.039969, "fusion_lat": 0.0, "name": "226f96f20c3ed005191c69126ea05604", "bike_id": "226f96f20c3ed005191c69126ea05604", "lat": 38.9141335, "is_disabled": 0, "rental_uris": {"ios": "https://dc.lft.to/lastmile_qr_scan", "android": "https://dc.lft.to/lastmile_qr_scan"}}, {"fusion_lon": 0.0, "is_reserved": 0, "type": "electric_scooter", "lon": -77.01671516666667, "fusion_lat": 0.0, "name": "cae06f610a68d87e668043590d539510", "bike_id": "cae06f610a68d87e668043590d539510", "lat": 38.90034583333333, "is_disabled": 0, "rental_uris": {"ios": "https://dc.lft.to/lastmile_qr_scan", "android": "https://dc.lft.to/lastmile_qr_scan"}}, {"fusion_lon": 0.0, "is_reserved": 0, "type": "electric_bike", "lon": -76.92519766666666, "fusion_lat": 0.0, "name": "213187d5c03db18bd6ceaaaf4a960cd4", "bike_id": "213187d5c03db18bd6ceaaaf4a960cd4", "lat": 38.95919, "is_disabled": 0, "rental_uris": {"ios": "https://dc.lft.to/lastmile_qr_scan", "android": "https://dc.lft.to/lastmile_qr_scan"}}, {"fusion_lon": 0.0, "is_reserved": 0, "type": "electric_scooter", "lon": -77.00066133333333, "fusion_lat": 0.0, "name": "86312ed181b49da23453cfc96a80a5dd", "bike_id": "86312ed181b49da23453cfc96a80a5dd", "lat": 38.876828, "is_disabled": 0, "rental_uris": {"ios": "https://dc.lft.to/lastmile_qr_scan", "android": "https://dc.lft.to/lastmile_qr_scan"}}, {"fusion_lon": 0.0, "is_reserved": 0, "type": "electric_scooter", "lon": -77.02189016666667, "fusion_lat": 0.0, "name": "9b725178ffae774e28ceb915ccf57c88", "bike_id": "9b725178ffae774e28ceb915ccf57c88", "lat": 38.90599316666667, "is_disabled": 0, "rental_uris": {"ios": "https://dc.lft.to/lastmile_qr_scan", "android": "https://dc.lft.to/lastmile_qr_scan"}}, {"fusion_lon": 0.0, "is_reserved": 0, "type": "electric_scooter", "lon": -77.03210533333333, "fusion_lat": 0.0, "name": "cce706bf9f8324eb50eff8a3bf2b8ec9", "bike_id": "cce706bf9f8324eb50eff8a3bf2b8ec9", "lat": 38.92577716666667, "is_disabled": 0, "rental_uris": {"ios": "https://dc.lft.to/lastmile_qr_scan", "android": "https://dc.lft.to/lastmile_qr_scan"}}, {"fusion_lon": 0.0, "is_reserved": 0, "type": "electric_scooter", "lon": -77.01363816666667, "fusion_lat": 0.0, "name": "61ee79ecbe6bd9f36bf184e4c23a4edc", "bike_id": "61ee79ecbe6bd9f36bf184e4c23a4edc", "lat": 38.863666333333335, "is_disabled": 0, "rental_uris": {"ios": "https://dc.lft.to/lastmile_qr_scan", "android": "https://dc.lft.to/lastmile_qr_scan"}}, {"fusion_lon": 0.0, "is_reserved": 0, "type": "electric_scooter", "lon": -77.05135166666666, "fusion_lat": 0.0, "name": "efaf43ee27d1809bdd3d563f85030d1a", "bike_id": "efaf43ee27d1809bdd3d563f85030d1a", "lat": 38.927245166666665, "is_disabled": 0, "rental_uris": {"ios": "https://dc.lft.to/lastmile_qr_scan", "android": "https://dc.lft.to/lastmile_qr_scan"}}, {"fusion_lon": 0.0, "is_reserved": 0, "type": "electric_scooter", "lon": -77.04003066666667, "fusion_lat": 0.0, "name": "6c112dbce0bcdabf22dbf2adf10f94a2", "bike_id": "6c112dbce0bcdabf22dbf2adf10f94a2", "lat": 38.903586833333335, "is_disabled": 0, "rental_uris": {"ios": "https://dc.lft.to/lastmile_qr_scan", "android": "https://dc.lft.to/lastmile_qr_scan"}}, {"fusion_lon": 0.0, "is_reserved": 0, "type": "electric_scooter", "lon": -77.056333, "fusion_lat": 0.0, "name": "89f3d9facdfa5be647296a23b552ac86", "bike_id": "89f3d9facdfa5be647296a23b552ac86", "lat": 38.9069375, "is_disabled": 0, "rental_uris": {"ios": "https://dc.lft.to/lastmile_qr_scan", "android": "https://dc.lft.to/lastmile_qr_scan"}}, {"fusion_lon": 0.0, "is_reserved": 0, "type": "electric_scooter", "lon": -77.0224635, "fusion_lat": 0.0, "name": "56ac9aa2a356c61efcdd6a78d4a84de2", "bike_id": "56ac9aa2a356c61efcdd6a78d4a84de2", "lat": 38.924543166666666, "is_disabled": 0, "rental_uris": {"ios": "https://dc.lft.to/lastmile_qr_scan", "android": "https://dc.lft.to/lastmile_qr_scan"}}, {"fusion_lon": 0.0, "is_reserved": 0, "type": "electric_scooter", "lon": -77.04226633333333, "fusion_lat": 0.0, "name": "724d5bc4abc78cf4c66c14c1e862816b", "bike_id": "724d5bc4abc78cf4c66c14c1e862816b", "lat": 38.921617, "is_disabled": 0, "rental_uris": {"ios": "https://dc.lft.to/lastmile_qr_scan", "android": "https://dc.lft.to/lastmile_qr_scan"}}, {"fusion_lon": 0.0, "is_reserved": 0, "type": "electric_scooter", "lon": -77.0188805, "fusion_lat": 0.0, "name": "377eca2edb36607548798077f04c263c", "bike_id": "377eca2edb36607548798077f04c263c", "lat": 38.914784, "is_disabled": 0, "rental_uris": {"ios": "https://dc.lft.to/lastmile_qr_scan", "android": "https://dc.lft.to/lastmile_qr_scan"}}, {"fusion_lon": 0.0, "is_reserved": 0, "type": "electric_scooter", "lon": -77.037712, "fusion_lat": 0.0, "name": "2fde751509832884b6dc9de16a4beb27", "bike_id": "2fde751509832884b6dc9de16a4beb27", "lat": 38.916808833333334, "is_disabled": 0, "rental_uris": {"ios": "https://dc.lft.to/lastmile_qr_scan", "android": "https://dc.lft.to/lastmile_qr_scan"}}, {"fusion_lon": 0.0, "is_reserved": 0, "type": "electric_scooter", "lon": -77.01407733333333, "fusion_lat": 0.0, "name": "6a44550b9edca3f53b66e98b4f42bb5b", "bike_id": "6a44550b9edca3f53b66e98b4f42bb5b", "lat": 38.928134666666665, "is_disabled": 0, "rental_uris": {"ios": "https://dc.lft.to/lastmile_qr_scan", "android": "https://dc.lft.to/lastmile_qr_scan"}}, {"fusion_lon": 0.0, "is_reserved": 0, "type": "electric_scooter", "lon": -76.93236366666666, "fusion_lat": 0.0, "name": "c774195198628a6e7614c149f795402b", "bike_id": "c774195198628a6e7614c149f795402b", "lat": 38.898815166666665, "is_disabled": 0, "rental_uris": {"ios": "https://dc.lft.to/lastmile_qr_scan", "android": "https://dc.lft.to/lastmile_qr_scan"}}, {"fusion_lon": 0.0, "is_reserved": 0, "type": "electric_scooter", "lon": -77.0320155, "fusion_lat": 0.0, "name": "1292c23775db0b991b0d0cc25b588f23", "bike_id": "1292c23775db0b991b0d0cc25b588f23", "lat": 38.900543166666665, "is_disabled": 0, "rental_uris": {"ios": "https://dc.lft.to/lastmile_qr_scan", "android": "https://dc.lft.to/lastmile_qr_scan"}}, {"fusion_lon": 0.0, "is_reserved": 0, "type": "electric_scooter", "lon": -76.99956516666667, "fusion_lat": 0.0, "name": "ac6fc7ad413a2e5c8b3fab59843a0350", "bike_id": "ac6fc7ad413a2e5c8b3fab59843a0350", "lat": 38.893012166666665, "is_disabled": 0, "rental_uris": {"ios": "https://dc.lft.to/lastmile_qr_scan", "android": "https://dc.lft.to/lastmile_qr_scan"}}, {"fusion_lon": 0.0, "is_reserved": 0, "type": "electric_scooter", "lon": -77.029763, "fusion_lat": 0.0, "name": "0b177bf8846999d4019f6e3c059827eb", "bike_id": "0b177bf8846999d4019f6e3c059827eb", "lat": 38.9405215, "is_disabled": 0, "rental_uris": {"ios": "https://dc.lft.to/lastmile_qr_scan", "android": "https://dc.lft.to/lastmile_qr_scan"}}, {"fusion_lon": 0.0, "is_reserved": 0, "type": "electric_scooter", "lon": -77.04120866666666, "fusion_lat": 0.0, "name": "9ac5c2440a76d329d6b7efbbdd9940be", "bike_id": "9ac5c2440a76d329d6b7efbbdd9940be", "lat": 38.91185083333333, "is_disabled": 0, "rental_uris": {"ios": "https://dc.lft.to/lastmile_qr_scan", "android": "https://dc.lft.to/lastmile_qr_scan"}}, {"fusion_lon": 0.0, "is_reserved": 0, "type": "electric_scooter", "lon": -77.03102133333333, "fusion_lat": 0.0, "name": "a881fed9b1b6c4fdf2594f80c9d7d56e", "bike_id": "a881fed9b1b6c4fdf2594f80c9d7d56e", "lat": 38.92864466666666, "is_disabled": 0, "rental_uris": {"ios": "https://dc.lft.to/lastmile_qr_scan", "android": "https://dc.lft.to/lastmile_qr_scan"}}, {"fusion_lon": 0.0, "is_reserved": 0, "type": "electric_scooter", "lon": -77.00459433333333, "fusion_lat": 0.0, "name": "9fc723b694dc2c40bd313b08d7dd9a19", "bike_id": "9fc723b694dc2c40bd313b08d7dd9a19", "lat": 38.90906066666667, "is_disabled": 0, "rental_uris": {"ios": "https://dc.lft.to/lastmile_qr_scan", "android": "https://dc.lft.to/lastmile_qr_scan"}}, {"fusion_lon": 0.0, "is_reserved": 0, "type": "electric_scooter", "lon": -77.04014266666667, "fusion_lat": 0.0, "name": "30e2852afff035f9b97b815a3b570cd3", "bike_id": "30e2852afff035f9b97b815a3b570cd3", "lat": 38.92241216666667, "is_disabled": 0, "rental_uris": {"ios": "https://dc.lft.to/lastmile_qr_scan", "android": "https://dc.lft.to/lastmile_qr_scan"}}, {"fusion_lon": 0.0, "is_reserved": 0, "type": "electric_scooter", "lon": -77.03750516666666, "fusion_lat": 0.0, "name": "0df35053e6d109ad8f612df0516c71de", "bike_id": "0df35053e6d109ad8f612df0516c71de", "lat": 38.91695516666667, "is_disabled": 0, "rental_uris": {"ios": "https://dc.lft.to/lastmile_qr_scan", "android": "https://dc.lft.to/lastmile_qr_scan"}}, {"fusion_lon": 0.0, "is_reserved": 0, "type": "electric_scooter", "lon": -77.006015, "fusion_lat": 0.0, "name": "fa7fdda177a79d3a8a5751434ae058e7", "bike_id": "fa7fdda177a79d3a8a5751434ae058e7", "lat": 38.906988166666665, "is_disabled": 0, "rental_uris": {"ios": "https://dc.lft.to/lastmile_qr_scan", "android": "https://dc.lft.to/lastmile_qr_scan"}}, {"fusion_lon": 0.0, "is_reserved": 0, "type": "electric_scooter", "lon": -77.0363655, "fusion_lat": 0.0, "name": "515100250a556dd40c9855da9386a984", "bike_id": "515100250a556dd40c9855da9386a984", "lat": 38.90680116666667, "is_disabled": 0, "rental_uris": {"ios": "https://dc.lft.to/lastmile_qr_scan", "android": "https://dc.lft.to/lastmile_qr_scan"}}, {"fusion_lon": 0.0, "is_reserved": 0, "type": "electric_scooter", "lon": -76.926008, "fusion_lat": 0.0, "name": "6b21389c32fb3b9afd53c3f15d22e68b", "bike_id": "6b21389c32fb3b9afd53c3f15d22e68b", "lat": 38.8981755, "is_disabled": 0, "rental_uris": {"ios": "https://dc.lft.to/lastmile_qr_scan", "android": "https://dc.lft.to/lastmile_qr_scan"}}, {"fusion_lon": 0.0, "is_reserved": 0, "type": "electric_scooter", "lon": -76.97572733333334, "fusion_lat": 0.0, "name": "2fbd954e6f3687ed3df04f268432af0d", "bike_id": "2fbd954e6f3687ed3df04f268432af0d", "lat": 38.903371, "is_disabled": 0, "rental_uris": {"ios": "https://dc.lft.to/lastmile_qr_scan", "android": "https://dc.lft.to/lastmile_qr_scan"}}, {"fusion_lon": 0.0, "is_reserved": 0, "type": "electric_scooter", "lon": -77.06296183333333, "fusion_lat": 0.0, "name": "238371e5316ee6ad209f71ed972c38d1", "bike_id": "238371e5316ee6ad209f71ed972c38d1", "lat": 38.90396633333334, "is_disabled": 0, "rental_uris": {"ios": "https://dc.lft.to/lastmile_qr_scan", "android": "https://dc.lft.to/lastmile_qr_scan"}}, {"fusion_lon": 0.0, "is_reserved": 0, "type": "electric_scooter", "lon": -77.03433733333334, "fusion_lat": 0.0, "name": "13bb02b47db795b5d53d6b39429bfe43", "bike_id": "13bb02b47db795b5d53d6b39429bfe43", "lat": 38.939679166666664, "is_disabled": 0, "rental_uris": {"ios": "https://dc.lft.to/lastmile_qr_scan", "android": "https://dc.lft.to/lastmile_qr_scan"}}, {"fusion_lon": 0.0, "is_reserved": 0, "type": "electric_scooter", "lon": -77.00364016666667, "fusion_lat": 0.0, "name": "cd48574ceb8e722aed5473916e6c7ec9", "bike_id": "cd48574ceb8e722aed5473916e6c7ec9", "lat": 38.89942933333333, "is_disabled": 0, "rental_uris": {"ios": "https://dc.lft.to/lastmile_qr_scan", "android": "https://dc.lft.to/lastmile_qr_scan"}}, {"fusion_lon": 0.0, "is_reserved": 0, "type": "electric_scooter", "lon": -77.02707866666667, "fusion_lat": 0.0, "name": "b3c0cef36939f4f545f3c20c3dc23c05", "bike_id": "b3c0cef36939f4f545f3c20c3dc23c05", "lat": 38.923284, "is_disabled": 0, "rental_uris": {"ios": "https://dc.lft.to/lastmile_qr_scan", "android": "https://dc.lft.to/lastmile_qr_scan"}}, {"fusion_lon": 0.0, "is_reserved": 0, "type": "electric_scooter", "lon": -76.97751533333333, "fusion_lat": 0.0, "name": "6d8b4dee3874f1898bd79118cd01f789", "bike_id": "6d8b4dee3874f1898bd79118cd01f789", "lat": 38.8877005, "is_disabled": 0, "rental_uris": {"ios": "https://dc.lft.to/lastmile_qr_scan", "android": "https://dc.lft.to/lastmile_qr_scan"}}, {"fusion_lon": 0.0, "is_reserved": 0, "type": "electric_scooter", "lon": -77.01559566666667, "fusion_lat": 0.0, "name": "6ae521b8ee22956434fa210bd6ece599", "bike_id": "6ae521b8ee22956434fa210bd6ece599", "lat": 38.89174383333334, "is_disabled": 0, "rental_uris": {"ios": "https://dc.lft.to/lastmile_qr_scan", "android": "https://dc.lft.to/lastmile_qr_scan"}}, {"fusion_lon": 0.0, "is_reserved": 0, "type": "electric_scooter", "lon": -77.02968416666667, "fusion_lat": 0.0, "name": "8094b7d782bd009f0766070e8c9abe17", "bike_id": "8094b7d782bd009f0766070e8c9abe17", "lat": 38.907801166666665, "is_disabled": 0, "rental_uris": {"ios": "https://dc.lft.to/lastmile_qr_scan", "android": "https://dc.lft.to/lastmile_qr_scan"}}, {"fusion_lon": 0.0, "is_reserved": 0, "type": "electric_bike", "lon": -77.01303566666667, "fusion_lat": 0.0, "name": "02054dec0ea3a171ea390cb7210675bf", "bike_id": "02054dec0ea3a171ea390cb7210675bf", "lat": 39.0037575, "is_disabled": 0, "rental_uris": {"ios": "https://dc.lft.to/lastmile_qr_scan", "android": "https://dc.lft.to/lastmile_qr_scan"}}, {"fusion_lon": 0.0, "is_reserved": 0, "type": "electric_scooter", "lon": -77.05519516666666, "fusion_lat": 0.0, "name": "1723aafbd850db229c2cc98943e81cfa", "bike_id": "1723aafbd850db229c2cc98943e81cfa", "lat": 38.929598166666665, "is_disabled": 0, "rental_uris": {"ios": "https://dc.lft.to/lastmile_qr_scan", "android": "https://dc.lft.to/lastmile_qr_scan"}}, {"fusion_lon": 0.0, "is_reserved": 0, "type": "electric_scooter", "lon": -76.99856733333333, "fusion_lat": 0.0, "name": "9558b5577db6bbf0ebb5f04db6f3ed3f", "bike_id": "9558b5577db6bbf0ebb5f04db6f3ed3f", "lat": 38.83764583333333, "is_disabled": 0, "rental_uris": {"ios": "https://dc.lft.to/lastmile_qr_scan", "android": "https://dc.lft.to/lastmile_qr_scan"}}, {"fusion_lon": 0.0, "is_reserved": 0, "type": "electric_bike", "lon": -76.9429595, "fusion_lat": 0.0, "name": "668b3c6bea63e54eaf09d64ea21454f1", "bike_id": "668b3c6bea63e54eaf09d64ea21454f1", "lat": 38.953620666666666, "is_disabled": 0, "rental_uris": {"ios": "https://dc.lft.to/lastmile_qr_scan", "android": "https://dc.lft.to/lastmile_qr_scan"}}, {"fusion_lon": 0.0, "is_reserved": 0, "type": "electric_scooter", "lon": -77.032856, "fusion_lat": 0.0, "name": "552f56b56dae498366fb4457c11a1ab1", "bike_id": "552f56b56dae498366fb4457c11a1ab1", "lat": 38.9296905, "is_disabled": 0, "rental_uris": {"ios": "https://dc.lft.to/lastmile_qr_scan", "android": "https://dc.lft.to/lastmile_qr_scan"}}, {"fusion_lon": 0.0, "is_reserved": 0, "type": "electric_scooter", "lon": -76.996938, "fusion_lat": 0.0, "name": "da386098f3ed384277401e018c4b943c", "bike_id": "da386098f3ed384277401e018c4b943c", "lat": 38.88423566666667, "is_disabled": 0, "rental_uris": {"ios": "https://dc.lft.to/lastmile_qr_scan", "android": "https://dc.lft.to/lastmile_qr_scan"}}, {"fusion_lon": 0.0, "is_reserved": 0, "type": "electric_scooter", "lon": -77.021116, "fusion_lat": 0.0, "name": "2ca0324b7d0ade6f844d6ccceb5db499", "bike_id": "2ca0324b7d0ade6f844d6ccceb5db499", "lat": 38.899695333333334, "is_disabled": 0, "rental_uris": {"ios": "https://dc.lft.to/lastmile_qr_scan", "android": "https://dc.lft.to/lastmile_qr_scan"}}, {"fusion_lon": 0.0, "is_reserved": 0, "type": "electric_scooter", "lon": -77.02216016666667, "fusion_lat": 0.0, "name": "04f62f481f5c46fcac6ffeb7266517bb", "bike_id": "04f62f481f5c46fcac6ffeb7266517bb", "lat": 38.892204, "is_disabled": 0, "rental_uris": {"ios": "https://dc.lft.to/lastmile_qr_scan", "android": "https://dc.lft.to/lastmile_qr_scan"}}, {"fusion_lon": 0.0, "is_reserved": 0, "type": "electric_scooter", "lon": -77.01985333333333, "fusion_lat": 0.0, "name": "b92e89c2de8273f2a19f8826b942a2ed", "bike_id": "b92e89c2de8273f2a19f8826b942a2ed", "lat": 38.910683166666665, "is_disabled": 0, "rental_uris": {"ios": "https://dc.lft.to/lastmile_qr_scan", "android": "https://dc.lft.to/lastmile_qr_scan"}}, {"fusion_lon": 0.0, "is_reserved": 0, "type": "electric_scooter", "lon": -77.02228266666667, "fusion_lat": 0.0, "name": "5afd1fe0dd78e6250dec7656d408763e", "bike_id": "5afd1fe0dd78e6250dec7656d408763e", "lat": 38.897882833333334, "is_disabled": 0, "rental_uris": {"ios": "https://dc.lft.to/lastmile_qr_scan", "android": "https://dc.lft.to/lastmile_qr_scan"}}, {"fusion_lon": 0.0, "is_reserved": 0, "type": "electric_scooter", "lon": -77.023915, "fusion_lat": 0.0, "name": "e076659faec1ac61c9bdc099d127b9ef", "bike_id": "e076659faec1ac61c9bdc099d127b9ef", "lat": 38.937026, "is_disabled": 0, "rental_uris": {"ios": "https://dc.lft.to/lastmile_qr_scan", "android": "https://dc.lft.to/lastmile_qr_scan"}}, {"fusion_lon": 0.0, "is_reserved": 0, "type": "electric_bike", "lon": -77.00117216666666, "fusion_lat": 0.0, "name": "67137907c7c601dfb6c90c8e8de3cfb8", "bike_id": "67137907c7c601dfb6c90c8e8de3cfb8", "lat": 38.92538016666666, "is_disabled": 0, "rental_uris": {"ios": "https://dc.lft.to/lastmile_qr_scan", "android": "https://dc.lft.to/lastmile_qr_scan"}}, {"fusion_lon": 0.0, "is_reserved": 0, "type": "electric_scooter", "lon": -77.04192383333333, "fusion_lat": 0.0, "name": "5f5d0012ad421ee7c43c61466651680f", "bike_id": "5f5d0012ad421ee7c43c61466651680f", "lat": 38.892218166666666, "is_disabled": 0, "rental_uris": {"ios": "https://dc.lft.to/lastmile_qr_scan", "android": "https://dc.lft.to/lastmile_qr_scan"}}, {"fusion_lon": 0.0, "is_reserved": 0, "type": "electric_scooter", "lon": -77.01276483333334, "fusion_lat": 0.0, "name": "a300b23d4f29f5b093aa0d1626e1ef8f", "bike_id": "a300b23d4f29f5b093aa0d1626e1ef8f", "lat": 38.9565255, "is_disabled": 0, "rental_uris": {"ios": "https://dc.lft.to/lastmile_qr_scan", "android": "https://dc.lft.to/lastmile_qr_scan"}}, {"fusion_lon": 0.0, "is_reserved": 0, "type": "electric_scooter", "lon": -77.03710166666667, "fusion_lat": 0.0, "name": "c598398acfbe91b7db61c788879f67bc", "bike_id": "c598398acfbe91b7db61c788879f67bc", "lat": 38.913337166666665, "is_disabled": 0, "rental_uris": {"ios": "https://dc.lft.to/lastmile_qr_scan", "android": "https://dc.lft.to/lastmile_qr_scan"}}, {"fusion_lon": 0.0, "is_reserved": 0, "type": "electric_scooter", "lon": -77.00428233333334, "fusion_lat": 0.0, "name": "2f88d258042fff664175367a98a44e4d", "bike_id": "2f88d258042fff664175367a98a44e4d", "lat": 38.876634, "is_disabled": 0, "rental_uris": {"ios": "https://dc.lft.to/lastmile_qr_scan", "android": "https://dc.lft.to/lastmile_qr_scan"}}, {"fusion_lon": 0.0, "is_reserved": 0, "type": "electric_scooter", "lon": -76.9485715, "fusion_lat": 0.0, "name": "d2b7ea028bd84bdbb8ca26316c97da0d", "bike_id": "d2b7ea028bd84bdbb8ca26316c97da0d", "lat": 38.866823333333336, "is_disabled": 0, "rental_uris": {"ios": "https://dc.lft.to/lastmile_qr_scan", "android": "https://dc.lft.to/lastmile_qr_scan"}}, {"fusion_lon": 0.0, "is_reserved": 0, "type": "electric_scooter", "lon": -76.949612, "fusion_lat": 0.0, "name": "fa2c922e4cde6851c3ac10679b709c6c", "bike_id": "fa2c922e4cde6851c3ac10679b709c6c", "lat": 38.904923833333335, "is_disabled": 0, "rental_uris": {"ios": "https://dc.lft.to/lastmile_qr_scan", "android": "https://dc.lft.to/lastmile_qr_scan"}}, {"fusion_lon": 0.0, "is_reserved": 0, "type": "electric_scooter", "lon": -77.06528633333333, "fusion_lat": 0.0, "name": "5d98ab535293fd60683d3024894bd726", "bike_id": "5d98ab535293fd60683d3024894bd726", "lat": 38.905241833333335, "is_disabled": 0, "rental_uris": {"ios": "https://dc.lft.to/lastmile_qr_scan", "android": "https://dc.lft.to/lastmile_qr_scan"}}, {"fusion_lon": 0.0, "is_reserved": 0, "type": "electric_scooter", "lon": -77.02634783333333, "fusion_lat": 0.0, "name": "6f8351392df6c0a1017b7db2e4daceee", "bike_id": "6f8351392df6c0a1017b7db2e4daceee", "lat": 38.8847585, "is_disabled": 0, "rental_uris": {"ios": "https://dc.lft.to/lastmile_qr_scan", "android": "https://dc.lft.to/lastmile_qr_scan"}}, {"fusion_lon": 0.0, "is_reserved": 0, "type": "electric_scooter", "lon": -76.98233183333333, "fusion_lat": 0.0, "name": "49fba057b38015aa8585c1eb36fa9f66", "bike_id": "49fba057b38015aa8585c1eb36fa9f66", "lat": 38.85628633333334, "is_disabled": 0, "rental_uris": {"ios": "https://dc.lft.to/lastmile_qr_scan", "android": "https://dc.lft.to/lastmile_qr_scan"}}, {"fusion_lon": 0.0, "is_reserved": 0, "type": "electric_scooter", "lon": -77.03661033333333, "fusion_lat": 0.0, "name": "9c52bb7c67f7fced924579708032d7ea", "bike_id": "9c52bb7c67f7fced924579708032d7ea", "lat": 38.921190333333335, "is_disabled": 0, "rental_uris": {"ios": "https://dc.lft.to/lastmile_qr_scan", "android": "https://dc.lft.to/lastmile_qr_scan"}}, {"fusion_lon": 0.0, "is_reserved": 0, "type": "electric_scooter", "lon": -77.042456, "fusion_lat": 0.0, "name": "6265a35cfdb34f7ac7eb8f9a18223f6c", "bike_id": "6265a35cfdb34f7ac7eb8f9a18223f6c", "lat": 38.907664833333335, "is_disabled": 0, "rental_uris": {"ios": "https://dc.lft.to/lastmile_qr_scan", "android": "https://dc.lft.to/lastmile_qr_scan"}}, {"fusion_lon": 0.0, "is_reserved": 0, "type": "electric_scooter", "lon": -77.02371166666667, "fusion_lat": 0.0, "name": "50349828f03ee2ccaae6cc3bbc686da4", "bike_id": "50349828f03ee2ccaae6cc3bbc686da4", "lat": 38.892188833333336, "is_disabled": 0, "rental_uris": {"ios": "https://dc.lft.to/lastmile_qr_scan", "android": "https://dc.lft.to/lastmile_qr_scan"}}, {"fusion_lon": 0.0, "is_reserved": 0, "type": "electric_scooter", "lon": -77.0401235, "fusion_lat": 0.0, "name": "1aeec31aa3b3dd5021c4b7a2474b02b0", "bike_id": "1aeec31aa3b3dd5021c4b7a2474b02b0", "lat": 38.90148883333333, "is_disabled": 0, "rental_uris": {"ios": "https://dc.lft.to/lastmile_qr_scan", "android": "https://dc.lft.to/lastmile_qr_scan"}}, {"fusion_lon": 0.0, "is_reserved": 0, "type": "electric_bike", "lon": -77.024, "fusion_lat": 0.0, "name": "6513efda9577693c5c8c9d06ed4b20a7", "bike_id": "6513efda9577693c5c8c9d06ed4b20a7", "lat": 38.91601433333334, "is_disabled": 0, "rental_uris": {"ios": "https://dc.lft.to/lastmile_qr_scan", "android": "https://dc.lft.to/lastmile_qr_scan"}}, {"fusion_lon": 0.0, "is_reserved": 0, "type": "electric_bike", "lon": -77.05744016666667, "fusion_lat": 0.0, "name": "cd432b7abec10cafe198abbeb2aa63b9", "bike_id": "cd432b7abec10cafe198abbeb2aa63b9", "lat": 38.80767516666667, "is_disabled": 0, "rental_uris": {"ios": "https://dc.lft.to/lastmile_qr_scan", "android": "https://dc.lft.to/lastmile_qr_scan"}}, {"fusion_lon": 0.0, "is_reserved": 0, "type": "electric_scooter", "lon": -77.03855166666666, "fusion_lat": 0.0, "name": "e0ba5801016c4893a7fa8245d486aeed", "bike_id": "e0ba5801016c4893a7fa8245d486aeed", "lat": 38.91195, "is_disabled": 0, "rental_uris": {"ios": "https://dc.lft.to/lastmile_qr_scan", "android": "https://dc.lft.to/lastmile_qr_scan"}}, {"fusion_lon": 0.0, "is_reserved": 0, "type": "electric_scooter", "lon": -76.9979805, "fusion_lat": 0.0, "name": "499e20cfda21f64689cd4843568e6b47", "bike_id": "499e20cfda21f64689cd4843568e6b47", "lat": 38.90848283333333, "is_disabled": 0, "rental_uris": {"ios": "https://dc.lft.to/lastmile_qr_scan", "android": "https://dc.lft.to/lastmile_qr_scan"}}, {"fusion_lon": 0.0, "is_reserved": 0, "type": "electric_scooter", "lon": -77.0272095, "fusion_lat": 0.0, "name": "7aed0281d3a4d9e93b8ee3b670cc870b", "bike_id": "7aed0281d3a4d9e93b8ee3b670cc870b", "lat": 38.9240525, "is_disabled": 0, "rental_uris": {"ios": "https://dc.lft.to/lastmile_qr_scan", "android": "https://dc.lft.to/lastmile_qr_scan"}}, {"fusion_lon": 0.0, "is_reserved": 0, "type": "electric_bike", "lon": -77.10919066666666, "fusion_lat": 0.0, "name": "cbd465b8b0839a3f33c3738e14d58aca", "bike_id": "cbd465b8b0839a3f33c3738e14d58aca", "lat": 39.052029166666664, "is_disabled": 0, "rental_uris": {"ios": "https://dc.lft.to/lastmile_qr_scan", "android": "https://dc.lft.to/lastmile_qr_scan"}}, {"fusion_lon": 0.0, "is_reserved": 0, "type": "electric_scooter", "lon": -77.02314466666667, "fusion_lat": 0.0, "name": "c7f1d987383e8bf2667514848989d8fe", "bike_id": "c7f1d987383e8bf2667514848989d8fe", "lat": 38.94922666666667, "is_disabled": 0, "rental_uris": {"ios": "https://dc.lft.to/lastmile_qr_scan", "android": "https://dc.lft.to/lastmile_qr_scan"}}, {"fusion_lon": 0.0, "is_reserved": 0, "type": "electric_scooter", "lon": -77.03401333333333, "fusion_lat": 0.0, "name": "efc68d70a2f9251f2f8ffd291599ca91", "bike_id": "efc68d70a2f9251f2f8ffd291599ca91", "lat": 38.926355, "is_disabled": 0, "rental_uris": {"ios": "https://dc.lft.to/lastmile_qr_scan", "android": "https://dc.lft.to/lastmile_qr_scan"}}, {"fusion_lon": 0.0, "is_reserved": 0, "type": "electric_scooter", "lon": -77.01361916666667, "fusion_lat": 0.0, "name": "6c04754dd87a1fdcbc45c71f6a828238", "bike_id": "6c04754dd87a1fdcbc45c71f6a828238", "lat": 38.871613833333335, "is_disabled": 0, "rental_uris": {"ios": "https://dc.lft.to/lastmile_qr_scan", "android": "https://dc.lft.to/lastmile_qr_scan"}}, {"fusion_lon": 0.0, "is_reserved": 0, "type": "electric_scooter", "lon": -77.04375266666666, "fusion_lat": 0.0, "name": "b74fa7fddab8b206ff2c60d30cdd521d", "bike_id": "b74fa7fddab8b206ff2c60d30cdd521d", "lat": 38.89604883333333, "is_disabled": 0, "rental_uris": {"ios": "https://dc.lft.to/lastmile_qr_scan", "android": "https://dc.lft.to/lastmile_qr_scan"}}, {"fusion_lon": 0.0, "is_reserved": 0, "type": "electric_scooter", "lon": -77.02343433333333, "fusion_lat": 0.0, "name": "79fcf2cdca0ebbe664e2f8dbc2f46755", "bike_id": "79fcf2cdca0ebbe664e2f8dbc2f46755", "lat": 38.9086125, "is_disabled": 0, "rental_uris": {"ios": "https://dc.lft.to/lastmile_qr_scan", "android": "https://dc.lft.to/lastmile_qr_scan"}}, {"fusion_lon": 0.0, "is_reserved": 0, "type": "electric_scooter", "lon": -77.02935316666667, "fusion_lat": 0.0, "name": "a856ac6e039d148cc74b14b1f2c92864", "bike_id": "a856ac6e039d148cc74b14b1f2c92864", "lat": 38.88455833333333, "is_disabled": 0, "rental_uris": {"ios": "https://dc.lft.to/lastmile_qr_scan", "android": "https://dc.lft.to/lastmile_qr_scan"}},