{"data": {"bikes": [{"name": "acc3ba46bc058426cbb723e90fbf262f", "fusion_lat": 0.0, "type": "electric_scooter", "lat": 38.912615333333335, "is_reserved": 0, "is_disabled": 0, "fusion_lon": 0.0, "bike_id": "acc3ba46bc058426cbb723e90fbf262f", "lon": -77.03636533333334, "rental_uris": {"ios": "https://dc.lft.to/lastmile_qr_scan", "android": "https://dc.lft.to/lastmile_qr_scan"}}, {"name": "a9d3b121300be54e1f274661cc9ce700", "fusion_lat": 0.0, "type": "electric_scooter", "lat": 38.876527, "is_reserved": 0, "is_disabled": 0, "fusion_lon": 0.0, "bike_id": "a9d3b121300be54e1f274661cc9ce700", "lon": -77.00430416666667, "rental_uris": {"ios": "https://dc.lft.to/lastmile_qr_scan", "android": "https://dc.lft.to/lastmile_qr_scan"}}, {"name": "8e201f95392668f2f400021213cced4d", "fusion_lat": 0.0, "type": "electric_scooter", "lat": 38.9161145, "is_reserved": 0, "is_disabled": 0, "fusion_lon": 0.0, "bike_id": "8e201f95392668f2f400021213cced4d", "lon": -77.02291483333333, "rental_uris": {"ios": "https://dc.lft.to/lastmile_qr_scan", "android": "https://dc.lft.to/lastmile_qr_scan"}}, {"name": "bfd2ce276135e1cde265b7ea9bde86ce", "fusion_lat": 0.0, "type": "electric_scooter", "lat": 38.8951505, "is_reserved": 0, "is_disabled": 0, "fusion_lon": 0.0, "bike_id": "bfd2ce276135e1cde265b7ea9bde86ce", "lon": -76.99153733333333, "rental_uris": {"ios": "https://dc.lft.to/lastmile_qr_scan", "android": "https://dc.lft.to/lastmile_qr_scan"}}, {"name": "f57d61b068cb7bc0da2ed2d9f3f659d8", "fusion_lat": 0.0, "type": "electric_scooter", "lat": 38.92067816666667, "is_reserved": 0, "is_disabled": 0, "fusion_lon": 0.0, "bike_id": "f57d61b068cb7bc0da2ed2d9f3f659d8", "lon": -77.03212733333334, "rental_uris": {"ios": "https://dc.lft.to/lastmile_qr_scan", "android": "https://dc.lft.to/lastmile_qr_scan"}}, {"name": "e172475dbf79a04fc0955fc641f2614f", "fusion_lat": 0.0, "type": "electric_scooter", "lat": 38.93238233333334, "is_reserved": 0, "is_disabled": 0, "fusion_lon": 0.0, "bike_id": "e172475dbf79a04fc0955fc641f2614f", "lon": -77.03850233333333, "rental_uris": {"ios": "https://dc.lft.to/lastmile_qr_scan", "android": "https://dc.lft.to/lastmile_qr_scan"}}, {"name": "f9d931c2aa96366280924d2e9de74cdf", "fusion_lat": 0.0, "type": "electric_scooter", "lat": 38.892194833333335, "is_reserved": 0, "is_disabled": 0, "fusion_lon": 0.0, "bike_id": "f9d931c2aa96366280924d2e9de74cdf", "lon": -77.03983566666666, "rental_uris": {"ios": "https://dc.lft.to/lastmile_qr_scan", "android": "https://dc.lft.to/lastmile_qr_scan"}}, {"name": "44c0a59b11b4fe0982a4d9f579a5e576", "fusion_lat": 0.0, "type": "electric_scooter", "lat": 38.915464666666665, "is_reserved": 0, "is_disabled": 0, "fusion_lon": 0.0, "bike_id": "44c0a59b11b4fe0982a4d9f579a5e576", "lon": -77.03839183333334, "rental_uris": {"ios": "https://dc.lft.to/lastmile_qr_scan", "android": "https://dc.lft.to/lastmile_qr_scan"}}, {"name": "1188a71eff0cca531ca4a6894a248614", "fusion_lat": 0.0, "type": "electric_bike", "lat": 38.89043516666667, "is_reserved": 0, "is_disabled": 0, "fusion_lon": 0.0, "bike_id": "1188a71eff0cca531ca4a6894a248614", "lon": -77.04936583333334, "rental_uris": {"ios": "https://dc.lft.to/lastmile_qr_scan", "android": "https://dc.lft.to/lastmile_qr_scan"}}, {"name": "28312f7717af72ad3bc4c3f731a025e5", "fusion_lat": 0.0, "type": "electric_scooter", "lat": 38.9312375, "is_reserved": 0, "is_disabled": 0, "fusion_lon": 0.0, "bike_id": "28312f7717af72ad3bc4c3f731a025e5", "lon": -77.021977, "rental_uris": {"ios": "https://dc.lft.to/lastmile_qr_scan", "android": "https://dc.lft.to/lastmile_qr_scan"}}, {"name": "d847c4399d4fc8605a2d7b43dee4cabd", "fusion_lat": 0.0, "type": "electric_scooter", "lat": 38.8922525, "is_reserved": 0, "is_disabled": 0, "fusion_lon": 0.0, "bike_id": "d847c4399d4fc8605a2d7b43dee4cabd", "lon": -77.03179366666667, "rental_uris": {"ios": "https://dc.lft.to/lastmile_qr_scan", "android": "https://dc.lft.to/lastmile_qr_scan"}}, {"name": "4ddf816f7dd67328ff311f24784c8333", "fusion_lat": 0.0, "type": "electric_scooter", "lat": 38.88971933333333, "is_reserved": 0, "is_disabled": 0, "fusion_lon": 0.0, "bike_id": "4ddf816f7dd67328ff311f24784c8333", "lon": -76.99181616666667, "rental_uris": {"ios": "https://dc.lft.to/lastmile_qr_scan", "android": "https://dc.lft.to/lastmile_qr_scan"}}, {"name": "623f8cc7b2731ffb488587c92cfe6ddf", "fusion_lat": 0.0, "type": "electric_bike", "lat": 38.89900133333333, "is_reserved": 0, "is_disabled": 0, "fusion_lon": 0.0, "bike_id": "623f8cc7b2731ffb488587c92cfe6ddf", "lon": -76.989594, "rental_uris": {"ios": "https://dc.lft.to/lastmile_qr_scan", "android": "https://dc.lft.to/lastmile_qr_scan"}}, {"name": "7a780a0edd4ace0d7cfd989ab1e8f781", "fusion_lat": 0.0, "type": "electric_scooter", "lat": 38.910056166666664, "is_reserved": 0, "is_disabled": 0, "fusion_lon": 0.0, "bike_id": "7a780a0edd4ace0d7cfd989ab1e8f781", "lon": -77.04419583333333, "rental_uris": {"ios": "https://dc.lft.to/lastmile_qr_scan", "android": "https://dc.lft.to/lastmile_qr_scan"}}, {"name": "54b4ab0e35100dbce8b29bafe82962f9", "fusion_lat": 0.0, "type": "electric_bike", "lat": 38.8827585, "is_reserved": 0, "is_disabled": 0, "fusion_lon": 0.0, "bike_id": "54b4ab0e35100dbce8b29bafe82962f9", "lon": -76.93238816666667, "rental_uris": {"ios": "https://dc.lft.to/lastmile_qr_scan", "android": "https://dc.lft.to/lastmile_qr_scan"}}, {"name": "38ddfc6555fe0b76eb792d7e3069bf3e", "fusion_lat": 0.0, "type": "electric_scooter", "lat": 38.892339166666666, "is_reserved": 0, "is_disabled": 0, "fusion_lon": 0.0, "bike_id": "38ddfc6555fe0b76eb792d7e3069bf3e", "lon": -77.01513616666666, "rental_uris": {"ios": "https://dc.lft.to/lastmile_qr_scan", "android": "https://dc.lft.to/lastmile_qr_scan"}}, {"name": "66f486faedba14b084f7a273a8acf978", "fusion_lat": 0.0, "type": "electric_scooter", "lat": 38.913303, "is_reserved": 0, "is_disabled": 0, "fusion_lon": 0.0, "bike_id": "66f486faedba14b084f7a273a8acf978", "lon": -77.04867216666666, "rental_uris": {"ios": "https://dc.lft.to/lastmile_qr_scan", "android": "https://dc.lft.to/lastmile_qr_scan"}}, {"name": "b0995827189c87dce649d3eb01a57be4", "fusion_lat": 0.0, "type": "electric_scooter", "lat": 38.91560116666667, "is_reserved": 0, "is_disabled": 0, "fusion_lon": 0.0, "bike_id": "b0995827189c87dce649d3eb01a57be4", "lon": -77.01202683333334, "rental_uris": {"ios": "https://dc.lft.to/lastmile_qr_scan", "android": "https://dc.lft.to/lastmile_qr_scan"}}, {"name": "96f7b7334545b808588af0ed5498d64b", "fusion_lat": 0.0, "type": "electric_bike", "lat": 38.97089183333333, "is_reserved": 0, "is_disabled": 0, "fusion_lon": 0.0, "bike_id": "96f7b7334545b808588af0ed5498d64b", "lon": -77.06966183333333, "rental_uris": {"ios": "https://dc.lft.to/lastmile_qr_scan", "android": "https://dc.lft.to/lastmile_qr_scan"}}, {"name": "07d4bacfb1cd1564a58ff8a4cdec2088", "fusion_lat": 0.0, "type": "electric_scooter", "lat": 38.91190316666667, "is_reserved": 0, "is_disabled": 0, "fusion_lon": 0.0, "bike_id": "07d4bacfb1cd1564a58ff8a4cdec2088", "lon": -77.04535833333334, "rental_uris": {"ios": "https://dc.lft.to/lastmile_qr_scan", "android": "https://dc.lft.to/lastmile_qr_scan"}}, {"name": "f091d3946e2c65312e93f7d639b0ede1", "fusion_lat": 0.0, "type": "electric_scooter", "lat": 38.87643516666667, "is_reserved": 0, "is_disabled": 0, "fusion_lon": 0.0, "bike_id": "f091d3946e2c65312e93f7d639b0ede1", "lon": -77.00417566666667, "rental_uris": {"ios": "https://dc.lft.to/lastmile_qr_scan", "android": "https://dc.lft.to/lastmile_qr_scan"}}, {"name": "26c0d192289c4f1b50566efdd1ad8696", "fusion_lat": 0.0, "type": "electric_scooter", "lat": 38.901172333333335, "is_reserved": 0, "is_disabled": 0, "fusion_lon": 0.0, "bike_id": "26c0d192289c4f1b50566efdd1ad8696", "lon": -77.046332, "rental_uris": {"ios": "https://dc.lft.to/lastmile_qr_scan", "android": "https://dc.lft.to/lastmile_qr_scan"}}, {"name": "d66657c90b527a031f474f34d34e7c0b", "fusion_lat": 0.0, "type": "electric_scooter", "lat": 38.88813566666666, "is_reserved": 0, "is_disabled": 0, "fusion_lon": 0.0, "bike_id": "d66657c90b527a031f474f34d34e7c0b", "lon": -77.04932083333334, "rental_uris": {"ios": "https://dc.lft.to/lastmile_qr_scan", "android": "https://dc.lft.to/lastmile_qr_scan"}}, {"name": "7fa9fd0e77aeb333cb6889194561df52", "fusion_lat": 0.0, "type": "electric_bike", "lat": 38.863726666666665, "is_reserved": 0, "is_disabled": 0, "fusion_lon": 0.0, "bike_id": "7fa9fd0e77aeb333cb6889194561df52", "lon": -77.12900233333333, "rental_uris": {"ios": "https://dc.lft.to/lastmile_qr_scan", "android": "https://dc.lft.to/lastmile_qr_scan"}}, {"name": "9da0fd1b2925fb901fc1eb5cfb48b136", "fusion_lat": 0.0, "type": "electric_scooter", "lat": 38.92624433333334, "is_reserved": 0, "is_disabled": 0, "fusion_lon": 0.0, "bike_id": "9da0fd1b2925fb901fc1eb5cfb48b136", "lon": -77.03788416666667, "rental_uris": {"ios": "https://dc.lft.to/lastmile_qr_scan", "android": "https://dc.lft.to/lastmile_qr_scan"}}, {"name": "43adf80bc66efeeec989d3ef75e13c59", "fusion_lat": 0.0, "type": "electric_scooter", "lat": 38.920216, "is_reserved": 0, "is_disabled": 0, "fusion_lon": 0.0, "bike_id": "43adf80bc66efeeec989d3ef75e13c59", "lon": -77.03122766666667, "rental_uris": {"ios": "https://dc.lft.to/lastmile_qr_scan", "android": "https://dc.lft.to/lastmile_qr_scan"}}, {"name": "0a1e15a327b337d0eca164e608ff8f38", "fusion_lat": 0.0, "type": "electric_scooter", "lat": 38.90547466666666, "is_reserved": 0, "is_disabled": 0, "fusion_lon": 0.0, "bike_id": "0a1e15a327b337d0eca164e608ff8f38", "lon": -77.00547116666667, "rental_uris": {"ios": "https://dc.lft.to/lastmile_qr_scan", "android": "https://dc.lft.to/lastmile_qr_scan"}}, {"name": "82e983c5743be2ca935337fa3298f4a1", "fusion_lat": 0.0, "type": "electric_scooter", "lat": 38.91064883333333, "is_reserved": 0, "is_disabled": 0, "fusion_lon": 0.0, "bike_id": "82e983c5743be2ca935337fa3298f4a1", "lon": -77.00855666666666, "rental_uris": {"ios": "https://dc.lft.to/lastmile_qr_scan", "android": "https://dc.lft.to/lastmile_qr_scan"}}, {"name": "db80315289eda88cd5df4431f33c7aac", "fusion_lat": 0.0, "type": "electric_scooter", "lat": 38.90124516666667, "is_reserved": 0, "is_disabled": 0, "fusion_lon": 0.0, "bike_id": "db80315289eda88cd5df4431f33c7aac", "lon": -77.02525816666666, "rental_uris": {"ios": "https://dc.lft.to/lastmile_qr_scan", "android": "https://dc.lft.to/lastmile_qr_scan"}}, {"name": "70ee100468279c1b2ce0510e57747168", "fusion_lat": 0.0, "type": "electric_scooter", "lat": 38.9373875, "is_reserved": 0, "is_disabled": 0, "fusion_lon": 0.0, "bike_id": "70ee100468279c1b2ce0510e57747168", "lon": -77.03255266666666, "rental_uris": {"ios": "https://dc.lft.to/lastmile_qr_scan", "android": "https://dc.lft.to/lastmile_qr_scan"}}, {"name": "daa2c34288e2908b7bde74ebc363021c", "fusion_lat": 0.0, "type": "electric_scooter", "lat": 38.9013995, "is_reserved": 0, "is_disabled": 0, "fusion_lon": 0.0, "bike_id": "daa2c34288e2908b7bde74ebc363021c", "lon": -76.97414266666667, "rental_uris": {"ios": "https://dc.lft.to/lastmile_qr_scan", "android": "https://dc.lft.to/lastmile_qr_scan"}}, {"name": "55c83ca8e45695945be61bdecc302055", "fusion_lat": 0.0, "type": "electric_scooter", "lat": 38.86244966666667, "is_reserved": 0, "is_disabled": 0, "fusion_lon": 0.0, "bike_id": "55c83ca8e45695945be61bdecc302055", "lon": -76.995309, "rental_uris": {"ios": "https://dc.lft.to/lastmile_qr_scan", "android": "https://dc.lft.to/lastmile_qr_scan"}}, {"name": "1e73bd5df455fd55aca7a0cb4d17b12e", "fusion_lat": 0.0, "type": "electric_scooter", "lat": 38.9129325, "is_reserved": 0, "is_disabled": 0, "fusion_lon": 0.0, "bike_id": "1e73bd5df455fd55aca7a0cb4d17b12e", "lon": -77.061193, "rental_uris": {"ios": "https://dc.lft.to/lastmile_qr_scan", "android": "https://dc.lft.to/lastmile_qr_scan"}}, {"name": "dac915b07436e390ef9caba3a622f2ed", "fusion_lat": 0.0, "type": "electric_scooter", "lat": 38.865005333333336, "is_reserved": 0, "is_disabled": 0, "fusion_lon": 0.0, "bike_id": "dac915b07436e390ef9caba3a622f2ed", "lon": -76.99000466666666, "rental_uris": {"ios": "https://dc.lft.to/lastmile_qr_scan", "android": "https://dc.lft.to/lastmile_qr_scan"}}, {"name": "1dd4b007e7d882978d42d75776f70408", "fusion_lat": 0.0, "type": "electric_scooter", "lat": 38.942495, "is_reserved": 0, "is_disabled": 0, "fusion_lon": 0.0, "bike_id": "1dd4b007e7d882978d42d75776f70408", "lon": -77.0413345, "rental_uris": {"ios": "https://dc.lft.to/lastmile_qr_scan", "android": "https://dc.lft.to/lastmile_qr_scan"}}, {"name": "aef5a067c2adaaeea136cb4a973cd366", "fusion_lat": 0.0, "type": "electric_scooter", "lat": 38.907258166666665, "is_reserved": 0, "is_disabled": 0, "fusion_lon": 0.0, "bike_id": "aef5a067c2adaaeea136cb4a973cd366", "lon": -77.01069833333334, "rental_uris": {"ios": "https://dc.lft.to/lastmile_qr_scan", "android": "https://dc.lft.to/lastmile_qr_scan"}}, {"name": "e20f9b937eeaaa5bc828c573380c8cc9", "fusion_lat": 0.0, "type": "electric_scooter", "lat": 38.91820216666667, "is_reserved": 0, "is_disabled": 0, "fusion_lon": 0.0, "bike_id": "e20f9b937eeaaa5bc828c573380c8cc9", "lon": -77.0241935, "rental_uris": {"ios": "https://dc.lft.to/lastmile_qr_scan", "android": "https://dc.lft.to/lastmile_qr_scan"}}, {"name": "72fd279e6c5948d2ed01f1c6bd4f7150", "fusion_lat": 0.0, "type": "electric_scooter", "lat": 38.88529416666667, "is_reserved": 0, "is_disabled": 0, "fusion_lon": 0.0, "bike_id": "72fd279e6c5948d2ed01f1c6bd4f7150", "lon": -76.98057333333334, "rental_uris": {"ios": "https://dc.lft.to/lastmile_qr_scan", "android": "https://dc.lft.to/lastmile_qr_scan"}}, {"name": "620cb9a8f8381abfe42eabeb5100f2d8", "fusion_lat": 0.0, "type": "electric_scooter", "lat": 38.90507516666667, "is_reserved": 0, "is_disabled": 0, "fusion_lon": 0.0, "bike_id": "620cb9a8f8381abfe42eabeb5100f2d8", "lon": -77.04866433333333, "rental_uris": {"ios": "https://dc.lft.to/lastmile_qr_scan", "android": "https://dc.lft.to/lastmile_qr_scan"}}, {"name": "42796f369962565c49f0ddddbe717dd5", "fusion_lat": 0.0, "type": "electric_scooter", "lat": 38.876161, "is_reserved": 0, "is_disabled": 0, "fusion_lon": 0.0, "bike_id": "42796f369962565c49f0ddddbe717dd5", "lon": -77.00738566666666, "rental_uris": {"ios": "https://dc.lft.to/lastmile_qr_scan", "android": "https://dc.lft.to/lastmile_qr_scan"}}, {"name": "0868497f6620b64485a0429f43e9164b", "fusion_lat": 0.0, "type": "electric_bike", "lat": 38.8752535, "is_reserved": 0, "is_disabled": 0, "fusion_lon": 0.0, "bike_id": "0868497f6620b64485a0429f43e9164b", "lon": -77.19908183333334, "rental_uris": {"ios": "https://dc.lft.to/lastmile_qr_scan", "android": "https://dc.lft.to/lastmile_qr_scan"}}, {"name": "e208fdd7ceac78a16ce87e281c597e5f", "fusion_lat": 0.0, "type": "electric_scooter", "lat": 38.90244083333333, "is_reserved": 0, "is_disabled": 0, "fusion_lon": 0.0, "bike_id": "e208fdd7ceac78a16ce87e281c597e5f", "lon": -77.03070933333333, "rental_uris": {"ios": "https://dc.lft.to/lastmile_qr_scan", "android": "https://dc.lft.to/lastmile_qr_scan"}}, {"name": "da0c90f7284dea3188adb9bf670ff4b6", "fusion_lat": 0.0, "type": "electric_scooter", "lat": 38.89223233333333, "is_reserved": 0, "is_disabled": 0, "fusion_lon": 0.0, "bike_id": "da0c90f7284dea3188adb9bf670ff4b6", "lon": -77.03186816666667, "rental_uris": {"ios": "https://dc.lft.to/lastmile_qr_scan", "android": "https://dc.lft.to/lastmile_qr_scan"}}, {"name": "75047915c161afa5bca80cc5c77dc8c2", "fusion_lat": 0.0, "type": "electric_scooter", "lat": 38.9034275, "is_reserved": 0, "is_disabled": 0, "fusion_lon": 0.0, "bike_id": "75047915c161afa5bca80cc5c77dc8c2", "lon": -77.03956283333333, "rental_uris": {"ios": "https://dc.lft.to/lastmile_qr_scan", "android": "https://dc.lft.to/lastmile_qr_scan"}}, {"name": "d1fb7652d7108d69e25ca0d6a4420a73", "fusion_lat": 0.0, "type": "electric_scooter", "lat": 38.9181815, "is_reserved": 0, "is_disabled": 0, "fusion_lon": 0.0, "bike_id": "d1fb7652d7108d69e25ca0d6a4420a73", "lon": -77.02809116666667, "rental_uris": {"ios": "https://dc.lft.to/lastmile_qr_scan", "android": "https://dc.lft.to/lastmile_qr_scan"}}, {"name": "0f07e25bd267423641ee0db8251fd5c7", "fusion_lat": 0.0, "type": "electric_bike", "lat": 39.09455883333333, "is_reserved": 0, "is_disabled": 0, "fusion_lon": 0.0, "bike_id": "0f07e25bd267423641ee0db8251fd5c7", "lon": -77.14993583333333, "rental_uris": {"ios": "https://dc.lft.to/lastmile_qr_scan", "android": "https://dc.lft.to/lastmile_qr_scan"}}, {"name": "9a6c01d51c99a9e94d85403d5097f115", "fusion_lat": 0.0, "type": "electric_bike", "lat": 38.87083366666667, "is_reserved": 0, "is_disabled": 0, "fusion_lon": 0.0, "bike_id": "9a6c01d51c99a9e94d85403d5097f115", "lon": -77.012039, "rental_uris": {"ios": "https://dc.lft.to/lastmile_qr_scan", "android": "https://dc.lft.to/lastmile_qr_scan"}}, {"name": "7c1009770876876329fa459a56957e73", "fusion_lat": 0.0, "type": "electric_scooter", "lat": 38.884572666666664, "is_reserved": 0, "is_disabled": 0, "fusion_lon": 0.0, "bike_id": "7c1009770876876329fa459a56957e73", "lon": -76.9246915, "rental_uris": {"ios": "https://dc.lft.to/lastmile_qr_scan", "android": "https://dc.lft.to/lastmile_qr_scan"}}, {"name": "57826bb2decdeff59f629fa89b1db30e", "fusion_lat": 0.0, "type": "electric_scooter", "lat": 38.92718383333333, "is_reserved": 0, "is_disabled": 0, "fusion_lon": 0.0, "bike_id": "57826bb2decdeff59f629fa89b1db30e", "lon": -77.00565416666667, "rental_uris": {"ios": "https://dc.lft.to/lastmile_qr_scan", "android": "https://dc.lft.to/lastmile_qr_scan"}}, {"name": "3ce16e8618bd3a9156fab51e0dcd7df7", "fusion_lat": 0.0, "type": "electric_scooter", "lat": 38.921064, "is_reserved": 0, "is_disabled": 0, "fusion_lon": 0.0, "bike_id": "3ce16e8618bd3a9156fab51e0dcd7df7", "lon": -77.0317325, "rental_uris": {"ios": "https://dc.lft.to/lastmile_qr_scan", "android": "https://dc.lft.to/lastmile_qr_scan"}}, {"name": "83dea69d20d9fd63b69a76335592d4db", "fusion_lat": 0.0, "type": "electric_scooter", "lat": 38.8990905, "is_reserved": 0, "is_disabled": 0, "fusion_lon": 0.0, "bike_id": "83dea69d20d9fd63b69a76335592d4db", "lon": -76.933678, "rental_uris": {"ios": "https://dc.lft.to/lastmile_qr_scan", "android": "https://dc.lft.to/lastmile_qr_scan"}}, {"name": "d4f995ecb626c66b4b0bd74081aa5831", "fusion_lat": 0.0, "type": "electric_scooter", "lat": 38.879302, "is_reserved": 0, "is_disabled": 0, "fusion_lon": 0.0, "bike_id": "d4f995ecb626c66b4b0bd74081aa5831", "lon": -77.0210625, "rental_uris": {"ios": "https://dc.lft.to/lastmile_qr_scan", "android": "https://dc.lft.to/lastmile_qr_scan"}}, {"name": "7fb4d80bfc616124b103fd3d6eaae482", "fusion_lat": 0.0, "type": "electric_scooter", "lat": 38.9032405, "is_reserved": 0, "is_disabled": 0, "fusion_lon": 0.0, "bike_id": "7fb4d80bfc616124b103fd3d6eaae482", "lon": -77.02899416666666, "rental_uris": {"ios": "https://dc.lft.to/lastmile_qr_scan", "android": "https://dc.lft.to/lastmile_qr_scan"}}, {"name": "75c1402e4ebe4b46a75de57d2208ccf7", "fusion_lat": 0.0, "type": "electric_bike", "lat": 38.936711833333334, "is_reserved": 0, "is_disabled": 0, "fusion_lon": 0.0, "bike_id": "75c1402e4ebe4b46a75de57d2208ccf7", "lon": -76.95209116666666, "rental_uris": {"ios": "https://dc.lft.to/lastmile_qr_scan", "android": "https://dc.lft.to/lastmile_qr_scan"}}, {"name": "81490ebcd7d7c892f3f10939e31af49e", "fusion_lat": 0.0, "type": "electric_scooter", "lat": 38.894117333333334, "is_reserved": 0, "is_disabled": 0, "fusion_lon": 0.0, "bike_id": "81490ebcd7d7c892f3f10939e31af49e", "lon": -76.93961616666667, "rental_uris": {"ios": "https://dc.lft.to/lastmile_qr_scan", "android": "https://dc.lft.to/lastmile_qr_scan"}}, {"name": "8fb3f84a72bd0282a9f071ebb9533243", "fusion_lat": 0.0, "type": "electric_scooter", "lat": 38.8746865, "is_reserved": 0, "is_disabled": 0, "fusion_lon": 0.0, "bike_id": "8fb3f84a72bd0282a9f071ebb9533243", "lon": -77.00616083333334, "rental_uris": {"ios": "https://dc.lft.to/lastmile_qr_scan", "android": "https://dc.lft.to/lastmile_qr_scan"}}, {"name": "3323d770e8d46a69b61cd2a116e1fef8", "fusion_lat": 0.0, "type": "electric_scooter", "lat": 38.896586166666665, "is_reserved": 0, "is_disabled": 0, "fusion_lon": 0.0, "bike_id": "3323d770e8d46a69b61cd2a116e1fef8", "lon": -77.00905933333334, "rental_uris": {"ios": "https://dc.lft.to/lastmile_qr_scan", "android": "https://dc.lft.to/lastmile_qr_scan"}}, {"name": "a1a7a2956e23cea7702e4d2b3159bc36", "fusion_lat": 0.0, "type": "electric_scooter", "lat": 38.89591183333334, "is_reserved": 0, "is_disabled": 0, "fusion_lon": 0.0, "bike_id": "a1a7a2956e23cea7702e4d2b3159bc36", "lon": -77.0231225, "rental_uris": {"ios": "https://dc.lft.to/lastmile_qr_scan", "android": "https://dc.lft.to/lastmile_qr_scan"}}, {"name": "a95a1fbd0d353586e5a2b06ba379a04c", "fusion_lat": 0.0, "type": "electric_scooter", "lat": 38.87112666666667, "is_reserved": 0, "is_disabled": 0, "fusion_lon": 0.0, "bike_id": "a95a1fbd0d353586e5a2b06ba379a04c", "lon": -76.96590866666666, "rental_uris": {"ios": "https://dc.lft.to/lastmile_qr_scan", "android": "https://dc.lft.to/lastmile_qr_scan"}}, {"name": "b1142f7276654350461a2bd8092b56b5", "fusion_lat": 0.0, "type": "electric_scooter", "lat": 38.922299833333334, "is_reserved": 0, "is_disabled": 0, "fusion_lon": 0.0, "bike_id": "b1142f7276654350461a2bd8092b56b5", "lon": -77.02334183333333, "rental_uris": {"ios": "https://dc.lft.to/lastmile_qr_scan", "android": "https://dc.lft.to/lastmile_qr_scan"}}, {"name": "f9b7bfc1f322a1a77f69058ab8bf1821", "fusion_lat": 0.0, "type": "electric_scooter", "lat": 38.90132166666667, "is_reserved": 0, "is_disabled": 0, "fusion_lon": 0.0, "bike_id": "f9b7bfc1f322a1a77f69058ab8bf1821", "lon": -77.02883166666666, "rental_uris": {"ios": "https://dc.lft.to/lastmile_qr_scan", "android": "https://dc.lft.to/lastmile_qr_scan"}}, {"name": "3916e001e8ffdf6cbde02976555edfa0", "fusion_lat": 0.0, "type": "electric_scooter", "lat": 38.901718, "is_reserved": 0, "is_disabled": 0, "fusion_lon": 0.0, "bike_id": "3916e001e8ffdf6cbde02976555edfa0", "lon": -77.01612966666667, "rental_uris": {"ios": "https://dc.lft.to/lastmile_qr_scan", "android": "https://dc.lft.to/lastmile_qr_scan"}}, {"name": "dd1f4bbce12f53b43e84fe49ae7c2893", "fusion_lat": 0.0, "type": "electric_scooter", "lat": 38.9095345, "is_reserved": 0, "is_disabled": 0, "fusion_lon": 0.0, "bike_id": "dd1f4bbce12f53b43e84fe49ae7c2893", "lon": -77.04863783333333, "rental_uris": {"ios": "https://dc.lft.to/lastmile_qr_scan", "android": "https://dc.lft.to/lastmile_qr_scan"}}, {"name": "ccc4936a09dfe039710eeeb96a491ac1", "fusion_lat": 0.0, "type": "electric_scooter", "lat": 38.9070285, "is_reserved": 0, "is_disabled": 0, "fusion_lon": 0.0, "bike_id": "ccc4936a09dfe039710eeeb96a491ac1", "lon": -77.0437125, "rental_uris": {"ios": "https://dc.lft.to/lastmile_qr_scan", "android": "https://dc.lft.to/lastmile_qr_scan"}}, {"name": "67abc0f71f68fde246c0134002eb9354", "fusion_lat": 0.0, "type": "electric_bike", "lat": 38.951835833333334, "is_reserved": 0, "is_disabled": 0, "fusion_lon": 0.0, "bike_id": "67abc0f71f68fde246c0134002eb9354", "lon": -76.93544983333334, "rental_uris": {"ios": "https://dc.lft.to/lastmile_qr_scan", "android": "https://dc.lft.to/lastmile_qr_scan"}}, {"name": "4c029d326583c36b060a483de3dcc3c6", "fusion_lat": 0.0, "type": "electric_scooter", "lat": 38.903857333333335, "is_reserved": 0, "is_disabled": 0, "fusion_lon": 0.0, "bike_id": "4c029d326583c36b060a483de3dcc3c6", "lon": -77.04813566666667, "rental_uris": {"ios": "https://dc.lft.to/lastmile_qr_scan", "android": "https://dc.lft.to/lastmile_qr_scan"}}, {"name": "0a991b0067d7311fa98edb1aad911a66", "fusion_lat": 0.0, "type": "electric_bike", "lat": 38.999904, "is_reserved": 0, "is_disabled": 0, "fusion_lon": 0.0, "bike_id": "0a991b0067d7311fa98edb1aad911a66", "lon": -76.99521333333334, "rental_uris": {"ios": "https://dc.lft.to/lastmile_qr_scan", "android": "https://dc.lft.to/lastmile_qr_scan"}}, {"name": "e72aacd7b729ad8a4572c1054de23f3a", "fusion_lat": 0.0, "type": "electric_scooter", "lat": 38.89500833333334, "is_reserved": 0, "is_disabled": 0, "fusion_lon": 0.0, "bike_id": "e72aacd7b729ad8a4572c1054de23f3a", "lon": -77.046822, "rental_uris": {"ios": "https://dc.lft.to/lastmile_qr_scan", "android": "https://dc.lft.to/lastmile_qr_scan"}}, {"name": "c65a4e505d03ded553b902b6aad12830", "fusion_lat": 0.0, "type": "electric_scooter", "lat": 38.90865433333333, "is_reserved": 0, "is_disabled": 0, "fusion_lon": 0.0, "bike_id": "c65a4e505d03ded553b902b6aad12830", "lon": -77.0238555, "rental_uris": {"ios": "https://dc.lft.to/lastmile_qr_scan", "android": "https://dc.lft.to/lastmile_qr_scan"}}, {"name": "b2c016de4e8353d92eaa9969a7fcf5bb", "fusion_lat": 0.0, "type": "electric_scooter", "lat": 38.904763833333334, "is_reserved": 0, "is_disabled": 0, "fusion_lon": 0.0, "bike_id": "b2c016de4e8353d92eaa9969a7fcf5bb", "lon": -76.97329166666667, "rental_uris": {"ios": "https://dc.lft.to/lastmile_qr_scan", "android": "https://dc.lft.to/lastmile_qr_scan"}}, {"name": "600368ae052530ca5531a0b668172dda", "fusion_lat": 0.0, "type": "electric_scooter", "lat": 38.900333333333336, "is_reserved": 0, "is_disabled": 0, "fusion_lon": 0.0, "bike_id": "600368ae052530ca5531a0b668172dda", "lon": -77.00212766666667, "rental_uris": {"ios": "https://dc.lft.to/lastmile_qr_scan", "android": "https://dc.lft.to/lastmile_qr_scan"}}, {"name": "81988b4ca0fc30b7906b79b53cbc1520", "fusion_lat": 0.0, "type": "electric_scooter", "lat": 38.87318716666667, "is_reserved": 0, "is_disabled": 0, "fusion_lon": 0.0, "bike_id": "81988b4ca0fc30b7906b79b53cbc1520", "lon": -77.00104583333334, "rental_uris": {"ios": "https://dc.lft.to/lastmile_qr_scan", "android": "https://dc.lft.to/lastmile_qr_scan"}}, {"name": "c3499407cabed84d33f781bbb0ea17c3", "fusion_lat": 0.0, "type": "electric_scooter", "lat": 38.89360883333333, "is_reserved": 0, "is_disabled": 0, "fusion_lon": 0.0, "bike_id": "c3499407cabed84d33f781bbb0ea17c3", "lon": -77.00331216666666, "rental_uris": {"ios": "https://dc.lft.to/lastmile_qr_scan", "android": "https://dc.lft.to/lastmile_qr_scan"}}, {"name": "6c032827a3d76722e58533a41a72a3d8", "fusion_lat": 0.0, "type": "electric_scooter", "lat": 38.91124666666666, "is_reserved": 0, "is_disabled": 0, "fusion_lon": 0.0, "bike_id": "6c032827a3d76722e58533a41a72a3d8", "lon": -77.04373683333333, "rental_uris": {"ios": "https://dc.lft.to/lastmile_qr_scan", "android": "https://dc.lft.to/lastmile_qr_scan"}}, {"name": "bb5480a0b73f5de2a6794e2627fe3872", "fusion_lat": 0.0, "type": "electric_scooter", "lat": 38.907801166666665, "is_reserved": 0, "is_disabled": 0, "fusion_lon": 0.0, "bike_id": "bb5480a0b73f5de2a6794e2627fe3872", "lon": -77.07247266666667, "rental_uris": {"ios": "https://dc.lft.to/lastmile_qr_scan", "android": "https://dc.lft.to/lastmile_qr_scan"}}, {"name": "0247e975fbf9480a000ea97e5d48cdc3", "fusion_lat": 0.0, "type": "electric_bike", "lat": 38.959252666666664, "is_reserved": 0, "is_disabled": 0, "fusion_lon": 0.0, "bike_id": "0247e975fbf9480a000ea97e5d48cdc3", "lon": -76.92534366666666, "rental_uris": {"ios": "https://dc.lft.to/lastmile_qr_scan", "android": "https://dc.lft.to/lastmile_qr_scan"}}, {"name": "fa22959eb390025d820fe9451b5b55d2", "fusion_lat": 0.0, "type": "electric_scooter", "lat": 38.91231616666666, "is_reserved": 0, "is_disabled": 0, "fusion_lon": 0.0, "bike_id": "fa22959eb390025d820fe9451b5b55d2", "lon": -77.04874883333333, "rental_uris": {"ios": "https://dc.lft.to/lastmile_qr_scan", "android": "https://dc.lft.to/lastmile_qr_scan"}}, {"name": "4c10b454394675c5838bef28466283ba", "fusion_lat": 0.0, "type": "electric_scooter", "lat": 38.89864733333334, "is_reserved": 0, "is_disabled": 0, "fusion_lon": 0.0, "bike_id": "4c10b454394675c5838bef28466283ba", "lon": -77.03273383333334, "rental_uris": {"ios": "https://dc.lft.to/lastmile_qr_scan", "android": "https://dc.lft.to/lastmile_qr_scan"}}, {"name": "9c612c57c5bbf1b2b4406c33771b04ac", "fusion_lat": 0.0, "type": "electric_scooter", "lat": 38.92822483333333, "is_reserved": 0, "is_disabled": 0, "fusion_lon": 0.0, "bike_id": "9c612c57c5bbf1b2b4406c33771b04ac", "lon": -77.02257916666667, "rental_uris": {"ios": "https://dc.lft.to/lastmile_qr_scan", "android": "https://dc.lft.to/lastmile_qr_scan"}}, {"name": "b8f51a918e9f69c451d6c772e9f73f4a", "fusion_lat": 0.0, "type": "electric_scooter", "lat": 38.89545066666667, "is_reserved": 0, "is_disabled": 0, "fusion_lon": 0.0, "bike_id": "b8f51a918e9f69c451d6c772e9f73f4a", "lon": -76.948762, "rental_uris": {"ios": "https://dc.lft.to/lastmile_qr_scan", "android": "https://dc.lft.to/lastmile_qr_scan"}}, {"name": "d646cf97d962e6d8ba39ee9d264988b0", "fusion_lat": 0.0, "type": "electric_bike", "lat": 38.92688583333333, "is_reserved": 0, "is_disabled": 0, "fusion_lon": 0.0, "bike_id": "d646cf97d962e6d8ba39ee9d264988b0", "lon": -77.00785983333333, "rental_uris": {"ios": "https://dc.lft.to/lastmile_qr_scan", "android": "https://dc.lft.to/lastmile_qr_scan"}}, {"name": "8fa765c1ad46e054dbdc2beed733a79a", "fusion_lat": 0.0, "type": "electric_bike", "lat": 38.93952633333333, "is_reserved": 0, "is_disabled": 0, "fusion_lon": 0.0, "bike_id": "8fa765c1ad46e054dbdc2beed733a79a", "lon": -77.36094483333333, "rental_uris": {"ios": "https://dc.lft.to/lastmile_qr_scan", "android": "https://dc.lft.to/lastmile_qr_scan"}}, {"name": "ac3ab16853a0921171fd2db2358f77f2", "fusion_lat": 0.0, "type": "electric_bike", "lat": 38.877528, "is_reserved": 0, "is_disabled": 0, "fusion_lon": 0.0, "bike_id": "ac3ab16853a0921171fd2db2358f77f2", "lon": -76.97979516666666, "rental_uris": {"ios": "https://dc.lft.to/lastmile_qr_scan", "android": "https://dc.lft.to/lastmile_qr_scan"}}, {"name": "8c8b1e9777c30f66782c3a236b58d301", "fusion_lat": 0.0, "type": "electric_scooter", "lat": 38.90367466666667, "is_reserved": 0, "is_disabled": 0, "fusion_lon": 0.0, "bike_id": "8c8b1e9777c30f66782c3a236b58d301", "lon": -77.04497233333333, "rental_uris": {"ios": "https://dc.lft.to/lastmile_qr_scan", "android": "https://dc.lft.to/lastmile_qr_scan"}}, {"name": "f469c673f5dd209f373baaea49eba153", "fusion_lat": 0.0, "type": "electric_scooter", "lat": 38.91322133333333, "is_reserved": 0, "is_disabled": 0, "fusion_lon": 0.0, "bike_id": "f469c673f5dd209f373baaea49eba153", "lon": -77.03186233333334, "rental_uris": {"ios": "https://dc.lft.to/lastmile_qr_scan", "android": "https://dc.lft.to/lastmile_qr_scan"}}, {"name": "48fa859c2d481e8728059ab6e45f1a00", "fusion_lat": 0.0, "type": "electric_scooter", "lat": 38.9311705, "is_reserved": 0, "is_disabled": 0, "fusion_lon": 0.0, "bike_id": "48fa859c2d481e8728059ab6e45f1a00", "lon": -77.03858983333333, "rental_uris": {"ios": "https://dc.lft.to/lastmile_qr_scan", "android": "https://dc.lft.to/lastmile_qr_scan"}}, {"name": "cb8b50844cb0ab7540deef1736be6887", "fusion_lat": 0.0, "type": "electric_scooter", "lat": 38.908200666666666, "is_reserved": 0, "is_disabled": 0, "fusion_lon": 0.0, "bike_id": "cb8b50844cb0ab7540deef1736be6887", "lon": -77.03904283333334, "rental_uris": {"ios": "https://dc.lft.to/lastmile_qr_scan", "android": "https://dc.lft.to/lastmile_qr_scan"}}, {"name": "435e2fc61171765c369d99aec133affb", "fusion_lat": 0.0, "type": "electric_bike", "lat": 38.84592966666666, "is_reserved": 0, "is_disabled": 0, "fusion_lon": 0.0, "bike_id": "435e2fc61171765c369d99aec133affb", "lon": -76.96878883333333, "rental_uris": {"ios": "https://dc.lft.to/lastmile_qr_scan", "android": "https://dc.lft.to/lastmile_qr_scan"}}, {"name": "f97a97033f26255a2a29f052f303a000", "fusion_lat": 0.0, "type": "electric_scooter", "lat": 38.9095745, "is_reserved": 0, "is_disabled": 0, "fusion_lon": 0.0, "bike_id": "f97a97033f26255a2a29f052f303a000", "lon": -77.03424916666667, "rental_uris": {"ios": "https://dc.lft.to/lastmile_qr_scan", "android": "https://dc.lft.to/lastmile_qr_scan"}}, {"name": "bea8be8bfd6633c279c382c0d702473e", "fusion_lat": 0.0, "type": "electric_scooter", "lat": 38.9002035, "is_reserved": 0, "is_disabled": 0, "fusion_lon": 0.0, "bike_id": "bea8be8bfd6633c279c382c0d702473e", "lon": -77.05328416666667, "rental_uris": {"ios": "https://dc.lft.to/lastmile_qr_scan", "android": "https://dc.lft.to/lastmile_qr_scan"}}, {"name": "1bbe9c74b106418c6224c678f722b215", "fusion_lat": 0.0, "type": "electric_scooter", "lat": 38.923449833333336, "is_reserved": 0, "is_disabled": 0, "fusion_lon": 0.0, "bike_id": "1bbe9c74b106418c6224c678f722b215", "lon": -77.05119833333333, "rental_uris": {"ios": "https://dc.lft.to/lastmile_qr_scan", "android": "https://dc.lft.to/lastmile_qr_scan"}}, {"name": "bacf5ab60e493a5b9d04a7b02c043488", "fusion_lat": 0.0, "type": "electric_scooter", "lat": 38.87083716666667, "is_reserved": 0, "is_disabled": 0, "fusion_lon": 0.0, "bike_id": "bacf5ab60e493a5b9d04a7b02c043488", "lon": -77.01376233333333, "rental_uris": {"ios": "https://dc.lft.to/lastmile_qr_scan", "android": "https://dc.lft.to/lastmile_qr_scan"}}, {"name": "57d4bd9c3d31b7452cee5b49d6e7a541", "fusion_lat": 0.0, "type": "electric_scooter", "lat": 38.915688, "is_reserved": 0, "is_disabled": 0, "fusion_lon": 0.0, "bike_id": "57d4bd9c3d31b7452cee5b49d6e7a541", "lon": -77.0119855, "rental_uris": {"ios": "https://dc.lft.to/lastmile_qr_scan", "android": "https://dc.lft.to/lastmile_qr_scan"}}, {"name": "8f780733b5b1f6808cedefaf54ac6e5a", "fusion_lat": 0.0, "type": "electric_scooter", "lat": 38.866598, "is_reserved": 0, "is_disabled": 0, "fusion_lon": 0.0, "bike_id": "8f780733b5b1f6808cedefaf54ac6e5a", "lon": -76.98882866666666, "rental_uris": {"ios": "https://dc.lft.to/lastmile_qr_scan", "android": "https://dc.lft.to/lastmile_qr_scan"}}, {"name": "a7ef9f2c3fc967a99e06ebde34e60d12", "fusion_lat": 0.0, "type": "electric_scooter", "lat": 38.9078745, "is_reserved": 0, "is_disabled": 0, "fusion_lon": 0.0, "bike_id": "a7ef9f2c3fc967a99e06ebde34e60d12", "lon": -76.98032166666667, "rental_uris": {"ios": "https://dc.lft.to/lastmile_qr_scan", "android": "https://dc.lft.to/lastmile_qr_scan"}}, {"name": "5622411b086363fd0c882139f01c17b4", "fusion_lat": 0.0, "type": "electric_scooter", "lat": 38.912623833333335, "is_reserved": 0, "is_disabled": 0, "fusion_lon": 0.0, "bike_id": "5622411b086363fd0c882139f01c17b4", "lon": -77.03632616666667, "rental_uris": {"ios": "https://dc.lft.to/lastmile_qr_scan", "android": "https://dc.lft.to/lastmile_qr_scan"}}, {"name": "264120e2be26e495ac562b39edf3f4f6", "fusion_lat": 0.0, "type": "electric_scooter", "lat": 38.906690166666664, "is_reserved": 0, "is_disabled": 0, "fusion_lon": 0.0, "bike_id": "264120e2be26e495ac562b39edf3f4f6", "lon": -77.02706933333333, "rental_uris": {"ios": "https://dc.lft.to/lastmile_qr_scan", "android": "https://dc.lft.to/lastmile_qr_scan"}}, {"name": "e14c8ba567c8a21f32c2afe451bac2c2", "fusion_lat": 0.0, "type": "electric_scooter", "lat": 38.88121483333333, "is_reserved": 0, "is_disabled": 0, "fusion_lon": 0.0, "bike_id": "e14c8ba567c8a21f32c2afe451bac2c2", "lon": -77.01334033333333, "rental_uris": {"ios": "https://dc.lft.to/lastmile_qr_scan", "android": "https://dc.lft.to/lastmile_qr_scan"}}, {"name": "945f1928d33e7ce6f7428f21938ba966", "fusion_lat": 0.0, "type": "electric_scooter", "lat": 38.899795833333336, "is_reserved": 0, "is_disabled": 0, "fusion_lon": 0.0, "bike_id": "945f1928d33e7ce6f7428f21938ba966", "lon": -77.03174333333334, "rental_uris": {"ios": "https://dc.lft.to/lastmile_qr_scan", "android": "https://dc.lft.to/lastmile_qr_scan"}}, {"name": "7e25a9994fc4cff7d4a9720b312e29a3", "fusion_lat": 0.0, "type": "electric_bike", "lat": 38.928026333333335, "is_reserved": 0, "is_disabled": 0, "fusion_lon": 0.0, "bike_id": "7e25a9994fc4cff7d4a9720b312e29a3", "lon": -77.04367383333333, "rental_uris": {"ios": "https://dc.lft.to/lastmile_qr_scan", "android": "https://dc.lft.to/lastmile_qr_scan"}}, {"name": "99db8bb38a2c60b55726cc8c69e5a3bf", "fusion_lat": 0.0, "type": "electric_scooter", "lat": 38.910547333333334, "is_reserved": 0, "is_disabled": 0, "fusion_lon": 0.0, "bike_id": "99db8bb38a2c60b55726cc8c69e5a3bf", "lon": -77.02198183333333, "rental_uris": {"ios": "https://dc.lft.to/lastmile_qr_scan", "android": "https://dc.lft.to/lastmile_qr_scan"}}, {"name": "f75324002742800367349c19265dbcce", "fusion_lat": 0.0, "type": "electric_scooter", "lat": 38.92059183333333, "is_reserved": 0, "is_disabled": 0, "fusion_lon": 0.0, "bike_id": "f75324002742800367349c19265dbcce", "lon": -76.978032, "rental_uris": {"ios": "https://dc.lft.to/lastmile_qr_scan", "android": "https://dc.lft.to/lastmile_qr_scan"}}, {"name": "88458c80418fd9cb662b0798a9d56ca3", "fusion_lat": 0.0, "type": "electric_scooter", "lat": 38.86533433333334, "is_reserved": 0, "is_disabled": 0, "fusion_lon": 0.0, "bike_id": "88458c80418fd9cb662b0798a9d56ca3", "lon": -76.98710383333334, "rental_uris": {"ios": "https://dc.lft.to/lastmile_qr_scan", "android": "https://dc.lft.to/lastmile_qr_scan"}}, {"name": "7273af3ab96c42932d6d3323acf3541b", "fusion_lat": 0.0, "type": "electric_scooter", "lat": 38.92614583333334, "is_reserved": 0, "is_disabled": 0, "fusion_lon": 0.0, "bike_id": "7273af3ab96c42932d6d3323acf3541b", "lon": -77.0366415, "rental_uris": {"ios": "https://dc.lft.to/lastmile_qr_scan", "android": "https://dc.lft.to/lastmile_qr_scan"}}, {"name": "546a860d8452ff4d32a3102e430b3f20", "fusion_lat": 0.0, "type": "electric_scooter", "lat": 38.902486, "is_reserved": 0, "is_disabled": 0, "fusion_lon": 0.0, "bike_id": "546a860d8452ff4d32a3102e430b3f20", "lon": -77.0458985, "rental_uris": {"ios": "https://dc.lft.to/lastmile_qr_scan", "android": "https://dc.lft.to/lastmile_qr_scan"}}, {"name": "f485ad90e731804bcd9d322ffb2bfcd5", "fusion_lat": 0.0, "type": "electric_scooter", "lat": 38.915401, "is_reserved": 0, "is_disabled": 0, "fusion_lon": 0.0, "bike_id": "f485ad90e731804bcd9d322ffb2bfcd5", "lon": -77.0385415, "rental_uris": {"ios": "https://dc.lft.to/lastmile_qr_scan", "android": "https://dc.lft.to/lastmile_qr_scan"}}, {"name": "5f48724d4691dae09fbdd70f72f86121", "fusion_lat": 0.0, "type": "electric_scooter", "lat": 38.9190845, "is_reserved": 0, "is_disabled": 0, "fusion_lon": 0.0, "bike_id": "5f48724d4691dae09fbdd70f72f86121", "lon": -77.02406366666666, "rental_uris": {"ios": "https://dc.lft.to/lastmile_qr_scan", "android": "https://dc.lft.to/lastmile_qr_scan"}}, {"name": "8c04cb6da9bcbc52bf9ef048c1db86c6", "fusion_lat": 0.0, "type": "electric_bike", "lat": 38.871675333333336, "is_reserved": 0, "is_disabled": 0, "fusion_lon": 0.0, "bike_id": "8c04cb6da9bcbc52bf9ef048c1db86c6", "lon": -77.0056965, "rental_uris": {"ios": "https://dc.lft.to/lastmile_qr_scan", "android": "https://dc.lft.to/lastmile_qr_scan"}}, {"name": "52693b391a8a7091aa2706949f52fa39", "fusion_lat": 0.0, "type": "electric_scooter", "lat": 38.9026975, "is_reserved": 0, "is_disabled": 0, "fusion_lon": 0.0, "bike_id": "52693b391a8a7091aa2706949f52fa39", "lon": -77.029961, "rental_uris": {"ios": "https://dc.lft.to/lastmile_qr_scan", "android": "https://dc.lft.to/lastmile_qr_scan"}}, {"name": "abaddfe05325d7513f04a88b5af8a20b", "fusion_lat": 0.0, "type": "electric_scooter", "lat": 38.911153, "is_reserved": 0, "is_disabled": 0, "fusion_lon": 0.0, "bike_id": "abaddfe05325d7513f04a88b5af8a20b", "lon": -77.00606383333333, "rental_uris": {"ios": "https://dc.lft.to/lastmile_qr_scan", "android": "https://dc.lft.to/lastmile_qr_scan"}}, {"name": "06c24a79468b36c82d660514441c816f", "fusion_lat": 0.0, "type": "electric_scooter", "lat": 38.90070566666667, "is_reserved": 0, "is_disabled": 0, "fusion_lon": 0.0, "bike_id": "06c24a79468b36c82d660514441c816f", "lon": -77.05000516666666, "rental_uris": {"ios": "https://dc.lft.to/lastmile_qr_scan", "android": "https://dc.lft.to/lastmile_qr_scan"}}, {"name": "ea15d9a217c2d496d17253b624befe1d", "fusion_lat": 0.0, "type": "electric_scooter", "lat": 38.91715716666667, "is_reserved": 0, "is_disabled": 0, "fusion_lon": 0.0, "bike_id": "ea15d9a217c2d496d17253b624befe1d", "lon": -77.0081535, "rental_uris": {"ios": "https://dc.lft.to/lastmile_qr_scan", "android": "https://dc.lft.to/lastmile_qr_scan"}}, {"name": "269af5cd18aa860b2535cb2b57aa0a95", "fusion_lat": 0.0, "type": "electric_scooter", "lat": 38.90029116666667, "is_reserved": 0, "is_disabled": 0, "fusion_lon": 0.0, "bike_id": "269af5cd18aa860b2535cb2b57aa0a95", "lon": -77.0118055, "rental_uris": {"ios": "https://dc.lft.to/lastmile_qr_scan", "android": "https://dc.lft.to/lastmile_qr_scan"}}, {"name": "3b6b5c1fbefcc19c52ce9965fec2fce5", "fusion_lat": 0.0, "type": "electric_scooter", "lat": 38.91194333333333, "is_reserved": 0, "is_disabled": 0, "fusion_lon": 0.0, "bike_id": "3b6b5c1fbefcc19c52ce9965fec2fce5", "lon": -77.03443583333333, "rental_uris": {"ios": "https://dc.lft.to/lastmile_qr_scan", "android": "https://dc.lft.to/lastmile_qr_scan"}}, {"name": "097cc980cd9b628e8701d9114cdbab32", "fusion_lat": 0.0, "type": "electric_scooter", "lat": 38.93871166666667, "is_reserved": 0, "is_disabled": 0, "fusion_lon": 0.0, "bike_id": "097cc980cd9b628e8701d9114cdbab32", "lon": -77.0325525, "rental_uris": {"ios": "https://dc.lft.to/lastmile_qr_scan", "android": "https://dc.lft.to/lastmile_qr_scan"}}, {"name": "e516be4f5a4a17610c82658a1c181826", "fusion_lat": 0.0, "type": "electric_scooter", "lat": 38.965577, "is_reserved": 0, "is_disabled": 0, "fusion_lon": 0.0, "bike_id": "e516be4f5a4a17610c82658a1c181826", "lon": -77.01619333333333, "rental_uris": {"ios": "https://dc.lft.to/lastmile_qr_scan", "android": "https://dc.lft.to/lastmile_qr_scan"}}, {"name": "14d664954a9438ddd9e33c6d770e6a04", "fusion_lat": 0.0, "type": "electric_scooter", "lat": 38.90409366666667, "is_reserved": 0, "is_disabled": 0, "fusion_lon": 0.0, "bike_id": "14d664954a9438ddd9e33c6d770e6a04", "lon": -77.02597433333334, "rental_uris": {"ios": "https://dc.lft.to/lastmile_qr_scan", "android": "https://dc.lft.to/lastmile_qr_scan"}}, {"name": "6c6b85d03b11b2ec3c85c846c78dc6b2", "fusion_lat": 0.0, "type": "electric_scooter", "lat": 38.926825, "is_reserved": 0, "is_disabled": 0, "fusion_lon": 0.0, "bike_id": "6c6b85d03b11b2ec3c85c846c78dc6b2", "lon": -77.02787333333333, "rental_uris": {"ios": "https://dc.lft.to/lastmile_qr_scan", "android": "https://dc.lft.to/lastmile_qr_scan"}}, {"name": "9e7abe1259f62d16adf0019ff8a2f4ce", "fusion_lat": 0.0, "type": "electric_scooter", "lat": 38.931016166666666, "is_reserved": 0, "is_disabled": 0, "fusion_lon": 0.0, "bike_id": "9e7abe1259f62d16adf0019ff8a2f4ce", "lon": -77.03723983333333, "rental_uris": {"ios": "https://dc.lft.to/lastmile_qr_scan", "android": "https://dc.lft.to/lastmile_qr_scan"}}, {"name": "287188e1e862afb4a63fc549a0e73eae", "fusion_lat": 0.0, "type": "electric_scooter", "lat": 38.92319166666667, "is_reserved": 0, "is_disabled": 0, "fusion_lon": 0.0, "bike_id": "287188e1e862afb4a63fc549a0e73eae", "lon": -77.05463533333334, "rental_uris": {"ios": "https://dc.lft.to/lastmile_qr_scan", "android": "https://dc.lft.to/lastmile_qr_scan"}}, {"name": "5a93e68114b86c5c14544d009b38268a", "fusion_lat": 0.0, "type": "electric_scooter", "lat": 38.90967583333333, "is_reserved": 0, "is_disabled": 0, "fusion_lon": 0.0, "bike_id": "5a93e68114b86c5c14544d009b38268a", "lon": -77.01716233333333, "rental_uris": {"ios": "https://dc.lft.to/lastmile_qr_scan", "android": "https://dc.lft.to/lastmile_qr_scan"}}, {"name": "a183bda953180bb4e1d5da5ae51067ff", "fusion_lat": 0.0, "type": "electric_bike", "lat": 38.9286405, "is_reserved": 0, "is_disabled": 0, "fusion_lon": 0.0, "bike_id": "a183bda953180bb4e1d5da5ae51067ff", "lon": -76.96105816666666, "rental_uris": {"ios": "https://dc.lft.to/lastmile_qr_scan", "android": "https://dc.lft.to/lastmile_qr_scan"}}, {"name": "b6d6e3f384412a414b63a2b1caf89db4", "fusion_lat": 0.0, "type": "electric_scooter", "lat": 38.905767833333336, "is_reserved": 0, "is_disabled": 0, "fusion_lon": 0.0, "bike_id": "b6d6e3f384412a414b63a2b1caf89db4", "lon": -77.0489125, "rental_uris": {"ios": "https://dc.lft.to/lastmile_qr_scan", "android": "https://dc.lft.to/lastmile_qr_scan"}}, {"name": "e9eb94ea82158a77c7c2ae3d771457a4", "fusion_lat": 0.0, "type": "electric_scooter", "lat": 38.9301515, "is_reserved": 0, "is_disabled": 0, "fusion_lon": 0.0, "bike_id": "e9eb94ea82158a77c7c2ae3d771457a4", "lon": -77.03779983333334, "rental_uris": {"ios": "https://dc.lft.to/lastmile_qr_scan", "android": "https://dc.lft.to/lastmile_qr_scan"}}, {"name": "791c38750156b4beeaee6081973e8ad2", "fusion_lat": 0.0, "type": "electric_scooter", "lat": 38.906414, "is_reserved": 0, "is_disabled": 0, "fusion_lon": 0.0, "bike_id": "791c38750156b4beeaee6081973e8ad2", "lon": -77.03899683333333, "rental_uris": {"ios": "https://dc.lft.to/lastmile_qr_scan", "android": "https://dc.lft.to/lastmile_qr_scan"}}, {"name": "4f347b0870a9940fed470e94394aaa5a", "fusion_lat": 0.0, "type": "electric_scooter", "lat": 38.898461, "is_reserved": 0, "is_disabled": 0, "fusion_lon": 0.0, "bike_id": "4f347b0870a9940fed470e94394aaa5a", "lon": -77.019993, "rental_uris": {"ios": "https://dc.lft.to/lastmile_qr_scan", "android": "https://dc.lft.to/lastmile_qr_scan"}}, {"name": "84a78cdc74bb694a87b71765d2cbc7f9", "fusion_lat": 0.0, "type": "electric_scooter", "lat": 38.903708, "is_reserved": 0, "is_disabled": 0, "fusion_lon": 0.0, "bike_id": "84a78cdc74bb694a87b71765d2cbc7f9", "lon": -77.041289, "rental_uris": {"ios": "https://dc.lft.to/lastmile_qr_scan", "android": "https://dc.lft.to/lastmile_qr_scan"}}, {"name": "5df90940f8ef6930e473c46e07d95543", "fusion_lat": 0.0, "type": "electric_bike", "lat": 38.887544166666665, "is_reserved": 0, "is_disabled": 0, "fusion_lon": 0.0, "bike_id": "5df90940f8ef6930e473c46e07d95543", "lon": -76.90078733333333, "rental_uris": {"ios": "https://dc.lft.to/lastmile_qr_scan", "android": "https://dc.lft.to/lastmile_qr_scan"}}, {"name": "51f1655a61794cd3479c11cb96e1cf94", "fusion_lat": 0.0, "type": "electric_scooter", "lat": 38.943121833333336, "is_reserved": 0, "is_disabled": 0, "fusion_lon": 0.0, "bike_id": "51f1655a61794cd3479c11cb96e1cf94", "lon": -77.02478283333333, "rental_uris": {"ios": "https://dc.lft.to/lastmile_qr_scan", "android": "https://dc.lft.to/lastmile_qr_scan"}}, {"name": "895e98f4b637e56b3ca4ce383f4aaca0", "fusion_lat": 0.0, "type": "electric_scooter", "lat": 38.924491833333335, "is_reserved": 0, "is_disabled": 0, "fusion_lon": 0.0, "bike_id": "895e98f4b637e56b3ca4ce383f4aaca0", "lon": -77.03969533333333, "rental_uris": {"ios": "https://dc.lft.to/lastmile_qr_scan", "android": "https://dc.lft.to/lastmile_qr_scan"}}, {"name": "84524aa267758fd5b5cd1da35e4b482a", "fusion_lat": 0.0, "type": "electric_scooter", "lat": 38.91245466666667, "is_reserved": 0, "is_disabled": 0, "fusion_lon": 0.0, "bike_id": "84524aa267758fd5b5cd1da35e4b482a", "lon": -77.03839516666666, "rental_uris": {"ios": "https://dc.lft.to/lastmile_qr_scan", "android": "https://dc.lft.to/lastmile_qr_scan"}}, {"name": "8bbffce29775a189b46d352d4122587a", "fusion_lat": 0.0, "type": "electric_scooter", "lat": 38.88597466666667, "is_reserved": 0, "is_disabled": 0, "fusion_lon": 0.0, "bike_id": "8bbffce29775a189b46d352d4122587a", "lon": -77.0220565, "rental_uris": {"ios": "https://dc.lft.to/lastmile_qr_scan", "android": "https://dc.lft.to/lastmile_qr_scan"}}, {"name": "4e8e6cf473614dd32674ea8b8c299bf3", "fusion_lat": 0.0, "type": "electric_scooter", "lat": 38.9004725, "is_reserved": 0, "is_disabled": 0, "fusion_lon": 0.0, "bike_id": "4e8e6cf473614dd32674ea8b8c299bf3", "lon": -77.05068733333333, "rental_uris": {"ios": "https://dc.lft.to/lastmile_qr_scan", "android": "https://dc.lft.to/lastmile_qr_scan"}}, {"name": "0676ef5646707bdae9fcfc4d174ff30c", "fusion_lat": 0.0, "type": "electric_scooter", "lat": 38.92976633333333, "is_reserved": 0, "is_disabled": 0, "fusion_lon": 0.0, "bike_id": "0676ef5646707bdae9fcfc4d174ff30c", "lon": -77.01449166666667, "rental_uris": {"ios": "https://dc.lft.to/lastmile_qr_scan", "android": "https://dc.lft.to/lastmile_qr_scan"}}, {"name": "a72ee85021cfeae0d3603e9b3f4ce756", "fusion_lat": 0.0, "type": "electric_bike", "lat": 38.99986116666667, "is_reserved": 0, "is_disabled": 0, "fusion_lon": 0.0, "bike_id": "a72ee85021cfeae0d3603e9b3f4ce756", "lon": -77.080053, "rental_uris": {"ios": "https://dc.lft.to/lastmile_qr_scan", "android": "https://dc.lft.to/lastmile_qr_scan"}}, {"name": "3c2b8618900fd09f274e5798bc3eb662", "fusion_lat": 0.0, "type": "electric_scooter", "lat": 38.91254216666667, "is_reserved": 0, "is_disabled": 0, "fusion_lon": 0.0, "bike_id": "3c2b8618900fd09f274e5798bc3eb662", "lon": -77.03868433333334, "rental_uris": {"ios": "https://dc.lft.to/lastmile_qr_scan", "android": "https://dc.lft.to/lastmile_qr_scan"}}, {"name": "4d068eafda81a53dcd4ae96c5bb862b6", "fusion_lat": 0.0, "type": "electric_scooter", "lat": 38.862453, "is_reserved": 0, "is_disabled": 0, "fusion_lon": 0.0, "bike_id": "4d068eafda81a53dcd4ae96c5bb862b6", "lon": -76.99532883333333, "rental_uris": {"ios": "https://dc.lft.to/lastmile_qr_scan", "android": "https://dc.lft.to/lastmile_qr_scan"}}, {"name": "49e4d048602f9830165384a9a3b47915", "fusion_lat": 0.0, "type": "electric_bike", "lat": 38.83980666666667, "is_reserved": 0, "is_disabled": 0, "fusion_lon": 0.0, "bike_id": "49e4d048602f9830165384a9a3b47915", "lon": -77.0056985, "rental_uris": {"ios": "https://dc.lft.to/lastmile_qr_scan", "android": "https://dc.lft.to/lastmile_qr_scan"}}, {"name": "448462b3af8065b04e61341c595fdcb1", "fusion_lat": 0.0, "type": "electric_scooter", "lat": 38.8850535, "is_reserved": 0, "is_disabled": 0, "fusion_lon": 0.0, "bike_id": "448462b3af8065b04e61341c595fdcb1", "lon": -77.00568666666666, "rental_uris": {"ios": "https://dc.lft.to/lastmile_qr_scan", "android": "https://dc.lft.to/lastmile_qr_scan"}}, {"name": "a3797ada98f49160eb8ca29912ca1979", "fusion_lat": 0.0, "type": "electric_scooter", "lat": 38.889674666666664, "is_reserved": 0, "is_disabled": 0, "fusion_lon": 0.0, "bike_id": "a3797ada98f49160eb8ca29912ca1979", "lon": -76.99182333333333, "rental_uris": {"ios": "https://dc.lft.to/lastmile_qr_scan", "android": "https://dc.lft.to/lastmile_qr_scan"}}, {"name": "91abd238a22c5cfd13ef5f1050366b7e", "fusion_lat": 0.0, "type": "electric_scooter", "lat": 38.86239, "is_reserved": 0, "is_disabled": 0, "fusion_lon": 0.0, "bike_id": "91abd238a22c5cfd13ef5f1050366b7e", "lon": -76.994995, "rental_uris": {"ios": "https://dc.lft.to/lastmile_qr_scan", "android": "https://dc.lft.to/lastmile_qr_scan"}}, {"name": "7dd96217cd1b633abff252c4016047f8", "fusion_lat": 0.0, "type": "electric_scooter", "lat": 38.905291166666665, "is_reserved": 0, "is_disabled": 0, "fusion_lon": 0.0, "bike_id": "7dd96217cd1b633abff252c4016047f8", "lon": -77.050193, "rental_uris": {"ios": "https://dc.lft.to/lastmile_qr_scan", "android": "https://dc.lft.to/lastmile_qr_scan"}}, {"name": "bc007b12aae273177a8eff8fd621755b", "fusion_lat": 0.0, "type": "electric_scooter", "lat": 38.935438833333336, "is_reserved": 0, "is_disabled": 0, "fusion_lon": 0.0, "bike_id": "bc007b12aae273177a8eff8fd621755b", "lon": -77.0341785, "rental_uris": {"ios": "https://dc.lft.to/lastmile_qr_scan", "android": "https://dc.lft.to/lastmile_qr_scan"}}, {"name": "ba65e0ffc0ded4b9c251d2fe39c0d5d3", "fusion_lat": 0.0, "type": "electric_scooter", "lat": 38.921156, "is_reserved": 0, "is_disabled": 0, "fusion_lon": 0.0, "bike_id": "ba65e0ffc0ded4b9c251d2fe39c0d5d3", "lon": -77.04114683333333, "rental_uris": {"ios": "https://dc.lft.to/lastmile_qr_scan", "android": "https://dc.lft.to/lastmile_qr_scan"}}, {"name": "00985cdc9a654f7a7b8a24febb7a0a0a", "fusion_lat": 0.0, "type": "electric_scooter", "lat": 38.90668733333333, "is_reserved": 0, "is_disabled": 0, "fusion_lon": 0.0, "bike_id": "00985cdc9a654f7a7b8a24febb7a0a0a", "lon": -77.0383905, "rental_uris": {"ios": "https://dc.lft.to/lastmile_qr_scan", "android": "https://dc.lft.to/lastmile_qr_scan"}}, {"name": "cf5c337d3c9e44e9145af09180474f52", "fusion_lat": 0.0, "type": "electric_scooter", "lat": 38.9184285, "is_reserved": 0, "is_disabled": 0, "fusion_lon": 0.0, "bike_id": "cf5c337d3c9e44e9145af09180474f52", "lon": -77.02448516666666, "rental_uris": {"ios": "https://dc.lft.to/lastmile_qr_scan", "android": "https://dc.lft.to/lastmile_qr_scan"}}, {"name": "eaedb550733403e7f316c3340b256a74", "fusion_lat": 0.0, "type": "electric_scooter", "lat": 38.932876666666665, "is_reserved": 0, "is_disabled": 0, "fusion_lon": 0.0, "bike_id": "eaedb550733403e7f316c3340b256a74", "lon": -77.02328166666666, "rental_uris": {"ios": "https://dc.lft.to/lastmile_qr_scan", "android": "https://dc.lft.to/lastmile_qr_scan"}}, {"name": "ad6403c597f1a4d056d7467eb922cf49", "fusion_lat": 0.0, "type": "electric_scooter", "lat": 38.912341, "is_reserved": 0, "is_disabled": 0, "fusion_lon": 0.0, "bike_id": "ad6403c597f1a4d056d7467eb922cf49", "lon": -77.0091645, "rental_uris": {"ios": "https://dc.lft.to/lastmile_qr_scan", "android": "https://dc.lft.to/lastmile_qr_scan"}}, {"name": "221a2ca77a301234f128ea944530b0a4", "fusion_lat": 0.0, "type": "electric_bike", "lat": 38.964938, "is_reserved": 0, "is_disabled": 0, "fusion_lon": 0.0, "bike_id": "221a2ca77a301234f128ea944530b0a4", "lon": -77.06493883333333, "rental_uris": {"ios": "https://dc.lft.to/lastmile_qr_scan", "android": "https://dc.lft.to/lastmile_qr_scan"}}, {"name": "84f99d4cfda069a5ff4416f99efc696a", "fusion_lat": 0.0, "type": "electric_scooter", "lat": 38.897868, "is_reserved": 0, "is_disabled": 0, "fusion_lon": 0.0, "bike_id": "84f99d4cfda069a5ff4416f99efc696a", "lon": -76.94419033333334, "rental_uris": {"ios": "https://dc.lft.to/lastmile_qr_scan", "android": "https://dc.lft.to/lastmile_qr_scan"}}, {"name": "7cde0d979c43a64659cdbe47ad00cbcc", "fusion_lat": 0.0, "type": "electric_scooter", "lat": 38.90697566666667, "is_reserved": 0, "is_disabled": 0, "fusion_lon": 0.0, "bike_id": "7cde0d979c43a64659cdbe47ad00cbcc", "lon": -77.04162916666667, "rental_uris": {"ios": "https://dc.lft.to/lastmile_qr_scan", "android": "https://dc.lft.to/lastmile_qr_scan"}}, {"name": "568044044d0d70ca21f5f8f842fbc7c8", "fusion_lat": 0.0, "type": "electric_scooter", "lat": 38.89477183333333, "is_reserved": 0, "is_disabled": 0, "fusion_lon": 0.0, "bike_id": "568044044d0d70ca21f5f8f842fbc7c8", "lon": -77.02776133333333, "rental_uris": {"ios": "https://dc.lft.to/lastmile_qr_scan", "android": "https://dc.lft.to/lastmile_qr_scan"}}, {"name": "5d73d2d2f6337874ed44fe236614ca78", "fusion_lat": 0.0, "type": "electric_scooter", "lat": 38.902737333333334, "is_reserved": 0, "is_disabled": 0, "fusion_lon": 0.0, "bike_id": "5d73d2d2f6337874ed44fe236614ca78", "lon": -76.99860566666666, "rental_uris": {"ios": "https://dc.lft.to/lastmile_qr_scan", "android": "https://dc.lft.to/lastmile_qr_scan"}}, {"name": "377dd8e670602954866fbc68995dcdb0", "fusion_lat": 0.0, "type": "electric_scooter", "lat": 38.90571883333333, "is_reserved": 0, "is_disabled": 0, "fusion_lon": 0.0, "bike_id": "377dd8e670602954866fbc68995dcdb0", "lon": -77.04419683333333, "rental_uris": {"ios": "https://dc.lft.to/lastmile_qr_scan", "android": "https://dc.lft.to/lastmile_qr_scan"}}, {"name": "b1e11d68c98e7f8fc41795f78506b530", "fusion_lat": 0.0, "type": "electric_scooter", "lat": 38.92337583333333, "is_reserved": 0, "is_disabled": 0, "fusion_lon": 0.0, "bike_id": "b1e11d68c98e7f8fc41795f78506b530", "lon": -77.0365875, "rental_uris": {"ios": "https://dc.lft.to/lastmile_qr_scan", "android": "https://dc.lft.to/lastmile_qr_scan"}}, {"name": "ccb887c751484f8a953a2dcbef9375bd", "fusion_lat": 0.0, "type": "electric_scooter", "lat": 38.920046, "is_reserved": 0, "is_disabled": 0, "fusion_lon": 0.0, "bike_id": "ccb887c751484f8a953a2dcbef9375bd", "lon": -77.03168466666666, "rental_uris": {"ios": "https://dc.lft.to/lastmile_qr_scan", "android": "https://dc.lft.to/lastmile_qr_scan"}}, {"name": "dd2187c647a5595f5eb025cfbf290466", "fusion_lat": 0.0, "type": "electric_bike", "lat": 38.99455583333334, "is_reserved": 0, "is_disabled": 0, "fusion_lon": 0.0, "bike_id": "dd2187c647a5595f5eb025cfbf290466", "lon": -76.908168, "rental_uris": {"ios": "https://dc.lft.to/lastmile_qr_scan", "android": "https://dc.lft.to/lastmile_qr_scan"}}, {"name": "d712f5d54b51c6e25f9c5a538ba93cd4", "fusion_lat": 0.0, "type": "electric_scooter", "lat": 38.90414466666667, "is_reserved": 0, "is_disabled": 0, "fusion_lon": 0.0, "bike_id": "d712f5d54b51c6e25f9c5a538ba93cd4", "lon": -77.026013, "rental_uris": {"ios": "https://dc.lft.to/lastmile_qr_scan", "android": "https://dc.lft.to/lastmile_qr_scan"}}, {"name": "b9a26b3ac33ac51ba7bfe2bfe4acea80", "fusion_lat": 0.0, "type": "electric_bike", "lat": 38.872330833333336, "is_reserved": 0, "is_disabled": 0, "fusion_lon": 0.0, "bike_id": "b9a26b3ac33ac51ba7bfe2bfe4acea80", "lon": -77.01158266666667, "rental_uris": {"ios": "https://dc.lft.to/lastmile_qr_scan", "android": "https://dc.lft.to/lastmile_qr_scan"}}, {"name": "7cfe7d0a5a7fe1cd8834eebe361a325a", "fusion_lat": 0.0, "type": "electric_scooter", "lat": 38.883850833333334, "is_reserved": 0, "is_disabled": 0, "fusion_lon": 0.0, "bike_id": "7cfe7d0a5a7fe1cd8834eebe361a325a", "lon": -77.01750783333334, "rental_uris": {"ios": "https://dc.lft.to/lastmile_qr_scan", "android": "https://dc.lft.to/lastmile_qr_scan"}}, {"name": "cd0a20dcf7ea9ac2d2cdc05021d21c8e", "fusion_lat": 0.0, "type": "electric_scooter", "lat": 38.90731233333333, "is_reserved": 0, "is_disabled": 0, "fusion_lon": 0.0, "bike_id": "cd0a20dcf7ea9ac2d2cdc05021d21c8e", "lon": -77.00365916666667, "rental_uris": {"ios": "https://dc.lft.to/lastmile_qr_scan", "android": "https://dc.lft.to/lastmile_qr_scan"}}, {"name": "7b2cd03cc4b998c7e8dae1e366ba11db", "fusion_lat": 0.0, "type": "electric_scooter", "lat": 38.898780333333335, "is_reserved": 0, "is_disabled": 0, "fusion_lon": 0.0, "bike_id": "7b2cd03cc4b998c7e8dae1e366ba11db", "lon": -77.01976233333333, "rental_uris": {"ios": "https://dc.lft.to/lastmile_qr_scan", "android": "https://dc.lft.to/lastmile_qr_scan"}}, {"name": "3a456b631dd1e5a786ff3855b0754505", "fusion_lat": 0.0, "type": "electric_scooter", "lat": 38.90555416666667, "is_reserved": 0, "is_disabled": 0, "fusion_lon": 0.0, "bike_id": "3a456b631dd1e5a786ff3855b0754505", "lon": -77.034245, "rental_uris": {"ios": "https://dc.lft.to/lastmile_qr_scan", "android": "https://dc.lft.to/lastmile_qr_scan"}}, {"name": "6da417ab05f8976a4aa27675b2c81017", "fusion_lat": 0.0, "type": "electric_scooter", "lat": 38.90536083333333, "is_reserved": 0, "is_disabled": 0, "fusion_lon": 0.0, "bike_id": "6da417ab05f8976a4aa27675b2c81017", "lon": -77.04997183333333, "rental_uris": {"ios": "https://dc.lft.to/lastmile_qr_scan", "android": "https://dc.lft.to/lastmile_qr_scan"}}, {"name": "5e5911dff0d5a2c0463860eed87f9e0f", "fusion_lat": 0.0, "type": "electric_scooter", "lat": 38.930559, "is_reserved": 0, "is_disabled": 0, "fusion_lon": 0.0, "bike_id": "5e5911dff0d5a2c0463860eed87f9e0f", "lon": -77.02319866666667, "rental_uris": {"ios": "https://dc.lft.to/lastmile_qr_scan", "android": "https://dc.lft.to/lastmile_qr_scan"}}, {"name": "7398a3b9cd69a0c19937a146311104d9", "fusion_lat": 0.0, "type": "electric_scooter", "lat": 38.91681583333333, "is_reserved": 0, "is_disabled": 0, "fusion_lon": 0.0, "bike_id": "7398a3b9cd69a0c19937a146311104d9", "lon": -77.0122605, "rental_uris": {"ios": "https://dc.lft.to/lastmile_qr_scan", "android": "https://dc.lft.to/lastmile_qr_scan"}}, {"name": "2720ca7494177d23e11ca547005fd2b8", "fusion_lat": 0.0, "type": "electric_scooter", "lat": 38.932612166666665, "is_reserved": 0, "is_disabled": 0, "fusion_lon": 0.0, "bike_id": "2720ca7494177d23e11ca547005fd2b8", "lon": -77.03273983333334, "rental_uris": {"ios": "https://dc.lft.to/lastmile_qr_scan", "android": "https://dc.lft.to/lastmile_qr_scan"}}, {"name": "7c31a4e6632a82922722a10c2208ecc7", "fusion_lat": 0.0, "type": "electric_scooter", "lat": 38.90118183333333, "is_reserved": 0, "is_disabled": 0, "fusion_lon": 0.0, "bike_id": "7c31a4e6632a82922722a10c2208ecc7", "lon": -77.0253275, "rental_uris": {"ios": "https://dc.lft.to/lastmile_qr_scan", "android": "https://dc.lft.to/lastmile_qr_scan"}}, {"name": "e44defac4d82c4a0ca8a5118fc0e9446", "fusion_lat": 0.0, "type": "electric_scooter", "lat": 38.90265733333333, "is_reserved": 0, "is_disabled": 0, "fusion_lon": 0.0, "bike_id": "e44defac4d82c4a0ca8a5118fc0e9446", "lon": -77.04255966666666, "rental_uris": {"ios": "https://dc.lft.to/lastmile_qr_scan", "android": "https://dc.lft.to/lastmile_qr_scan"}}, {"name": "dc37d0d988b31a83c085b52afd378907", "fusion_lat": 0.0, "type": "electric_scooter", "lat": 38.91252333333333, "is_reserved": 0, "is_disabled": 0, "fusion_lon": 0.0, "bike_id": "dc37d0d988b31a83c085b52afd378907", "lon": -77.00767533333334, "rental_uris": {"ios": "https://dc.lft.to/lastmile_qr_scan", "android": "https://dc.lft.to/lastmile_qr_scan"}}, {"name": "fb76770b28bf0c63f88ae1e91ac1aa50", "fusion_lat": 0.0, "type": "electric_scooter", "lat": 38.883372333333334, "is_reserved": 0, "is_disabled": 0, "fusion_lon": 0.0, "bike_id": "fb76770b28bf0c63f88ae1e91ac1aa50", "lon": -76.93642316666667, "rental_uris": {"ios": "https://dc.lft.to/lastmile_qr_scan", "android": "https://dc.lft.to/lastmile_qr_scan"}}, {"name": "dc216ac4423f753383e9b9ba50ff94e8", "fusion_lat": 0.0, "type": "electric_scooter", "lat": 38.901902, "is_reserved": 0, "is_disabled": 0, "fusion_lon": 0.0, "bike_id": "dc216ac4423f753383e9b9ba50ff94e8", "lon": -77.021738, "rental_uris": {"ios": "https://dc.lft.to/lastmile_qr_scan", "android": "https://dc.lft.to/lastmile_qr_scan"}}, {"name": "3c33ace0deb6753676113a863c8750df", "fusion_lat": 0.0, "type": "electric_scooter", "lat": 38.9270235, "is_reserved": 0, "is_disabled": 0, "fusion_lon": 0.0, "bike_id": "3c33ace0deb6753676113a863c8750df", "lon": -77.03729083333333, "rental_uris": {"ios": "https://dc.lft.to/lastmile_qr_scan", "android": "https://dc.lft.to/lastmile_qr_scan"}}, {"name": "d9b74afb75892d089045208c4f2027e5", "fusion_lat": 0.0, "type": "electric_scooter", "lat": 38.8958135, "is_reserved": 0, "is_disabled": 0, "fusion_lon": 0.0, "bike_id": "d9b74afb75892d089045208c4f2027e5", "lon": -77.04333566666666, "rental_uris": {"ios": "https://dc.lft.to/lastmile_qr_scan", "android": "https://dc.lft.to/lastmile_qr_scan"}}, {"name": "206ddf87db537dc0f3cbf9867f901c71", "fusion_lat": 0.0, "type": "electric_bike", "lat": 38.93576083333333, "is_reserved": 0, "is_disabled": 0, "fusion_lon": 0.0, "bike_id": "206ddf87db537dc0f3cbf9867f901c71", "lon": -77.106832, "rental_uris": {"ios": "https://dc.lft.to/lastmile_qr_scan", "android": "https://dc.lft.to/lastmile_qr_scan"}}, {"name": "0e09849fceb54b51cbd9aee818fcea15", "fusion_lat": 0.0, "type": "electric_scooter", "lat": 38.863702833333335, "is_reserved": 0, "is_disabled": 0, "fusion_lon": 0.0, "bike_id": "0e09849fceb54b51cbd9aee818fcea15", "lon": -77.01363566666667, "rental_uris": {"ios": "https://dc.lft.to/lastmile_qr_scan", "android": "https://dc.lft.to/lastmile_qr_scan"}}, {"name": "0aaf5c81558a227c5539f8e66ae26c7b", "fusion_lat": 0.0, "type": "electric_scooter", "lat": 38.89726183333333, "is_reserved": 0, "is_disabled": 0, "fusion_lon": 0.0, "bike_id": "0aaf5c81558a227c5539f8e66ae26c7b", "lon": -77.04725716666667, "rental_uris": {"ios": "https://dc.lft.to/lastmile_qr_scan", "android": "https://dc.lft.to/lastmile_qr_scan"}}, {"name": "9e573cf20d72832b1003808db1f065a2", "fusion_lat": 0.0, "type": "electric_scooter", "lat": 38.90270433333333, "is_reserved": 0, "is_disabled": 0, "fusion_lon": 0.0, "bike_id": "9e573cf20d72832b1003808db1f065a2", "lon": -77.04421016666667, "rental_uris": {"ios": "https://dc.lft.to/lastmile_qr_scan", "android": "https://dc.lft.to/lastmile_qr_scan"}}, {"name": "c586e3e74c589dccb8efb51a55d7b362", "fusion_lat": 0.0, "type": "electric_scooter", "lat": 38.93931966666667, "is_reserved": 0, "is_disabled": 0, "fusion_lon": 0.0, "bike_id": "c586e3e74c589dccb8efb51a55d7b362", "lon": -77.03666966666667, "rental_uris": {"ios": "https://dc.lft.to/lastmile_qr_scan", "android": "https://dc.lft.to/lastmile_qr_scan"}}, {"name": "dc473cabbd49c266d39cec49043873cf", "fusion_lat": 0.0, "type": "electric_scooter", "lat": 38.926001166666666, "is_reserved": 0, "is_disabled": 0, "fusion_lon": 0.0, "bike_id": "dc473cabbd49c266d39cec49043873cf", "lon": -77.021554, "rental_uris": {"ios": "https://dc.lft.to/lastmile_qr_scan", "android": "https://dc.lft.to/lastmile_qr_scan"}}, {"name": "604711132a24a035077378f48b1792b5", "fusion_lat": 0.0, "type": "electric_scooter", "lat": 38.906695666666664, "is_reserved": 0, "is_disabled": 0, "fusion_lon": 0.0, "bike_id": "604711132a24a035077378f48b1792b5", "lon": -77.02699233333334, "rental_uris": {"ios": "https://dc.lft.to/lastmile_qr_scan", "android": "https://dc.lft.to/lastmile_qr_scan"}}, {"name": "3bb061455ae2e953366ba6b593bcddae", "fusion_lat": 0.0, "type": "electric_scooter", "lat": 38.93531, "is_reserved": 0, "is_disabled": 0, "fusion_lon": 0.0, "bike_id": "3bb061455ae2e953366ba6b593bcddae", "lon": -77.03402933333334, "rental_uris": {"ios": "https://dc.lft.to/lastmile_qr_scan", "android": "https://dc.lft.to/lastmile_qr_scan"}}, {"name": "1f919a17fb9e7e77afcf1193117467b7", "fusion_lat": 0.0, "type": "electric_scooter", "lat": 38.89851183333333, "is_reserved": 0, "is_disabled": 0, "fusion_lon": 0.0, "bike_id": "1f919a17fb9e7e77afcf1193117467b7", "lon": -77.039364, "rental_uris": {"ios": "https://dc.lft.to/lastmile_qr_scan", "android": "https://dc.lft.to/lastmile_qr_scan"}}, {"name": "0ea175264e32f27d5218c305ed50a448", "fusion_lat": 0.0, "type": "electric_scooter", "lat": 38.876594, "is_reserved": 0, "is_disabled": 0, "fusion_lon": 0.0, "bike_id": "0ea175264e32f27d5218c305ed50a448", "lon": -77.00066266666667, "rental_uris": {"ios": "https://dc.lft.to/lastmile_qr_scan", "android": "https://dc.lft.to/lastmile_qr_scan"}}, {"name": "7e714a48ead7f3ed92f46cf359db1754", "fusion_lat": 0.0, "type": "electric_scooter", "lat": 38.892273333333335, "is_reserved": 0, "is_disabled": 0, "fusion_lon": 0.0, "bike_id": "7e714a48ead7f3ed92f46cf359db1754", "lon": -77.05000933333334, "rental_uris": {"ios": "https://dc.lft.to/lastmile_qr_scan", "android": "https://dc.lft.to/lastmile_qr_scan"}}, {"name": "ea8572fd3b0caab8c9d0f44e4aa30b04", "fusion_lat": 0.0, "type": "electric_scooter", "lat": 38.91766283333333, "is_reserved": 0, "is_disabled": 0, "fusion_lon": 0.0, "bike_id": "ea8572fd3b0caab8c9d0f44e4aa30b04", "lon": -77.031941, "rental_uris": {"ios": "https://dc.lft.to/lastmile_qr_scan", "android": "https://dc.lft.to/lastmile_qr_scan"}}, {"name": "5e7fdcd768d6fd97482839b76626d6c0", "fusion_lat": 0.0, "type": "electric_scooter", "lat": 38.9301215, "is_reserved": 0, "is_disabled": 0, "fusion_lon": 0.0, "bike_id": "5e7fdcd768d6fd97482839b76626d6c0", "lon": -77.01253416666667, "rental_uris": {"ios": "https://dc.lft.to/lastmile_qr_scan", "android": "https://dc.lft.to/lastmile_qr_scan"}}, {"name": "d3e259aa260336d92bc6c20cf3d9bed7", "fusion_lat": 0.0, "type": "electric_bike", "lat": 38.854206166666664, "is_reserved": 0, "is_disabled": 0, "fusion_lon": 0.0, "bike_id": "d3e259aa260336d92bc6c20cf3d9bed7", "lon": -76.90958566666667, "rental_uris": {"ios": "https://dc.lft.to/lastmile_qr_scan", "android": "https://dc.lft.to/lastmile_qr_scan"}}, {"name": "dd24dd984475b780dbe70333d6cbf9a4", "fusion_lat": 0.0, "type": "electric_bike", "lat": 38.810477, "is_reserved": 0, "is_disabled": 0, "fusion_lon": 0.0, "bike_id": "dd24dd984475b780dbe70333d6cbf9a4", "lon": -77.085067, "rental_uris": {"ios": "https://dc.lft.to/lastmile_qr_scan", "android": "https://dc.lft.to/lastmile_qr_scan"}}, {"name": "b441120758756d83c3ded13a6d5a21af", "fusion_lat": 0.0, "type": "electric_scooter", "lat": 38.895229, "is_reserved": 0, "is_disabled": 0, "fusion_lon": 0.0, "bike_id": "b441120758756d83c3ded13a6d5a21af", "lon": -76.94889116666667, "rental_uris": {"ios": "https://dc.lft.to/lastmile_qr_scan", "android": "https://dc.lft.to/lastmile_qr_scan"}}, {"name": "aafc9cc3a4a68a747ed72e1b20f16b5c", "fusion_lat": 0.0, "type": "electric_scooter", "lat": 38.896832333333336, "is_reserved": 0, "is_disabled": 0, "fusion_lon": 0.0, "bike_id": "aafc9cc3a4a68a747ed72e1b20f16b5c", "lon": -77.0049885, "rental_uris": {"ios": "https://dc.lft.to/lastmile_qr_scan", "android": "https://dc.lft.to/lastmile_qr_scan"}}, {"name": "3f12b63ea2b34c09df3eb76e2b78f093", "fusion_lat": 0.0, "type": "electric_scooter", "lat": 38.9242845, "is_reserved": 0, "is_disabled": 0, "fusion_lon": 0.0, "bike_id": "3f12b63ea2b34c09df3eb76e2b78f093", "lon": -77.04246866666666, "rental_uris": {"ios": "https://dc.lft.to/lastmile_qr_scan", "android": "https://dc.lft.to/lastmile_qr_scan"}}, {"name": "b047a386cc8db1f5b8473f101be46bfe", "fusion_lat": 0.0, "type": "electric_scooter", "lat": 38.9244065, "is_reserved": 0, "is_disabled": 0, "fusion_lon": 0.0, "bike_id": "b047a386cc8db1f5b8473f101be46bfe", "lon": -77.04221116666666, "rental_uris": {"ios": "https://dc.lft.to/lastmile_qr_scan", "android": "https://dc.lft.to/lastmile_qr_scan"}}, {"name": "fd91bffc4c2f6120a5de3d22d250c515", "fusion_lat": 0.0, "type": "electric_scooter", "lat": 38.9170695, "is_reserved": 0, "is_disabled": 0, "fusion_lon": 0.0, "bike_id": "fd91bffc4c2f6120a5de3d22d250c515", "lon": -77.030827, "rental_uris": {"ios": "https://dc.lft.to/lastmile_qr_scan", "android": "https://dc.lft.to/lastmile_qr_scan"}}, {"name": "b16a8b4c247a9705cfd3737b60ed42f6", "fusion_lat": 0.0, "type": "electric_scooter", "lat": 38.8665975, "is_reserved": 0, "is_disabled": 0, "fusion_lon": 0.0, "bike_id": "b16a8b4c247a9705cfd3737b60ed42f6", "lon": -76.9888315, "rental_uris": {"ios": "https://dc.lft.to/lastmile_qr_scan", "android": "https://dc.lft.to/lastmile_qr_scan"}}, {"name": "e72034bcb2ec5274e6eafd3ee235a022", "fusion_lat": 0.0, "type": "electric_scooter", "lat": 38.88484316666667, "is_reserved": 0, "is_disabled": 0, "fusion_lon": 0.0, "bike_id": "e72034bcb2ec5274e6eafd3ee235a022", "lon": -77.00710233333334, "rental_uris": {"ios": "https://dc.lft.to/lastmile_qr_scan", "android": "https://dc.lft.to/lastmile_qr_scan"}}, {"name": "b78be1f90dca2c1c879781bd5e2c4719", "fusion_lat": 0.0, "type": "electric_scooter", "lat": 38.887404333333336, "is_reserved": 0, "is_disabled": 0, "fusion_lon": 0.0, "bike_id": "b78be1f90dca2c1c879781bd5e2c4719", "lon": -77.025702, "rental_uris": {"ios": "https://dc.lft.to/lastmile_qr_scan", "android": "https://dc.lft.to/lastmile_qr_scan"}}, {"name": "2bf76bb9b0a62df18a76c9bd78234169", "fusion_lat": 0.0, "type": "electric_scooter", "lat": 38.899553833333336, "is_reserved": 0, "is_disabled": 0, "fusion_lon": 0.0, "bike_id": "2bf76bb9b0a62df18a76c9bd78234169", "lon": -77.00910983333333, "rental_uris": {"ios": "https://dc.lft.to/lastmile_qr_scan", "android": "https://dc.lft.to/lastmile_qr_scan"}}, {"name": "760fc61880e4f3ad9e8ea69a689af37b", "fusion_lat": 0.0, "type": "electric_scooter", "lat": 38.90033533333333, "is_reserved": 0, "is_disabled": 0, "fusion_lon": 0.0, "bike_id": "760fc61880e4f3ad9e8ea69a689af37b", "lon": -77.00534866666666, "rental_uris": {"ios": "https://dc.lft.to/lastmile_qr_scan", "android": "https://dc.lft.to/lastmile_qr_scan"}}, {"name": "60a267522c8b2291a1f30a6abbcbbe1f", "fusion_lat": 0.0, "type": "electric_bike", "lat": 38.94918233333333, "is_reserved": 0, "is_disabled": 0, "fusion_lon": 0.0, "bike_id": "60a267522c8b2291a1f30a6abbcbbe1f", "lon": -77.00796766666667, "rental_uris": {"ios": "https://dc.lft.to/lastmile_qr_scan", "android": "https://dc.lft.to/lastmile_qr_scan"}}, {"name": "d88cdc829172fa926b9b7511cd61e86e", "fusion_lat": 0.0, "type": "electric_scooter", "lat": 38.89233816666667, "is_reserved": 0, "is_disabled": 0, "fusion_lon": 0.0, "bike_id": "d88cdc829172fa926b9b7511cd61e86e", "lon": -77.01507083333334, "rental_uris": {"ios": "https://dc.lft.to/lastmile_qr_scan", "android": "https://dc.lft.to/lastmile_qr_scan"}}, {"name": "d0401b0a5a1e1ee9457e70b897c78256", "fusion_lat": 0.0, "type": "electric_scooter", "lat": 38.92422716666667, "is_reserved": 0, "is_disabled": 0, "fusion_lon": 0.0, "bike_id": "d0401b0a5a1e1ee9457e70b897c78256", "lon": -77.04481916666667, "rental_uris": {"ios": "https://dc.lft.to/lastmile_qr_scan", "android": "https://dc.lft.to/lastmile_qr_scan"}}, {"name": "69bfff44ba30596f425544724dc9a87d", "fusion_lat": 0.0, "type": "electric_bike", "lat": 38.85681816666666, "is_reserved": 0, "is_disabled": 0, "fusion_lon": 0.0, "bike_id": "69bfff44ba30596f425544724dc9a87d", "lon": -77.08538283333333, "rental_uris": {"ios": "https://dc.lft.to/lastmile_qr_scan", "android": "https://dc.lft.to/lastmile_qr_scan"}}, {"name": "d8fbcd7b9c7c6d39a26598f760da9536", "fusion_lat": 0.0, "type": "electric_scooter", "lat": 38.927496, "is_reserved": 0, "is_disabled": 0, "fusion_lon": 0.0, "bike_id": "d8fbcd7b9c7c6d39a26598f760da9536", "lon": -77.02306733333333, "rental_uris": {"ios": "https://dc.lft.to/lastmile_qr_scan", "android": "https://dc.lft.to/lastmile_qr_scan"}}, {"name": "039e54281e85dbdb355993d515105808", "fusion_lat": 0.0, "type": "electric_scooter", "lat": 38.91630933333333, "is_reserved": 0, "is_disabled": 0, "fusion_lon": 0.0, "bike_id": "039e54281e85dbdb355993d515105808", "lon": -77.00094833333333, "rental_uris": {"ios": "https://dc.lft.to/lastmile_qr_scan", "android": "https://dc.lft.to/lastmile_qr_scan"}}, {"name": "a6721ceddb2593a1125f3b03bcf7968e", "fusion_lat": 0.0, "type": "electric_scooter", "lat": 38.93061, "is_reserved": 0, "is_disabled": 0, "fusion_lon": 0.0, "bike_id": "a6721ceddb2593a1125f3b03bcf7968e", "lon": -77.029732, "rental_uris": {"ios": "https://dc.lft.to/lastmile_qr_scan", "android": "https://dc.lft.to/lastmile_qr_scan"}}, {"name": "77b2779bfa3cf0837a33461407a3bd92", "fusion_lat": 0.0, "type": "electric_bike", "lat": 39.00012016666667, "is_reserved": 0, "is_disabled": 0, "fusion_lon": 0.0, "bike_id": "77b2779bfa3cf0837a33461407a3bd92", "lon": -77.01741, "rental_uris": {"ios": "https://dc.lft.to/lastmile_qr_scan", "android": "https://dc.lft.to/lastmile_qr_scan"}}, {"name": "08c87e9adcb390baaaae3437352ea3f2", "fusion_lat": 0.0, "type": "electric_scooter", "lat": 38.93955616666667, "is_reserved": 0, "is_disabled": 0, "fusion_lon": 0.0, "bike_id": "08c87e9adcb390baaaae3437352ea3f2", "lon": -77.02751366666666, "rental_uris": {"ios": "https://dc.lft.to/lastmile_qr_scan", "android": "https://dc.lft.to/lastmile_qr_scan"}}, {"name": "ecbfc4764e6b5cb9ef9db0947c9984d1", "fusion_lat": 0.0, "type": "electric_scooter", "lat": 38.918319833333335, "is_reserved": 0, "is_disabled": 0, "fusion_lon": 0.0, "bike_id": "ecbfc4764e6b5cb9ef9db0947c9984d1", "lon": -77.022946, "rental_uris": {"ios": "https://dc.lft.to/lastmile_qr_scan", "android": "https://dc.lft.to/lastmile_qr_scan"}}, {"name": "1528448857ec608ecc3bdcd8b37dc1a3", "fusion_lat": 0.0, "type": "electric_scooter", "lat": 38.88501016666667, "is_reserved": 0, "is_disabled": 0, "fusion_lon": 0.0, "bike_id": "1528448857ec608ecc3bdcd8b37dc1a3", "lon": -77.02188, "rental_uris": {"ios": "https://dc.lft.to/lastmile_qr_scan", "android": "https://dc.lft.to/lastmile_qr_scan"}}, {"name": "885995c872acc239ebc1e0147db47784", "fusion_lat": 0.0, "type": "electric_scooter", "lat": 38.905708833333335, "is_reserved": 0, "is_disabled": 0, "fusion_lon": 0.0, "bike_id": "885995c872acc239ebc1e0147db47784", "lon": -77.02216533333333, "rental_uris": {"ios": "https://dc.lft.to/lastmile_qr_scan", "android": "https://dc.lft.to/lastmile_qr_scan"}}, {"name": "3650f233e9f25d35b37cf961f370ce68", "fusion_lat": 0.0, "type": "electric_scooter", "lat": 38.87624916666667, "is_reserved": 0, "is_disabled": 0, "fusion_lon": 0.0, "bike_id": "3650f233e9f25d35b37cf961f370ce68", "lon": -77.01574933333333, "rental_uris": {"ios": "https://dc.lft.to/lastmile_qr_scan", "android": "https://dc.lft.to/lastmile_qr_scan"}}, {"name": "fb4a736e8ec6f7eb1075a3e82ae625f5", "fusion_lat": 0.0, "type": "electric_scooter", "lat": 38.917953833333335, "is_reserved": 0, "is_disabled": 0, "fusion_lon": 0.0, "bike_id": "fb4a736e8ec6f7eb1075a3e82ae625f5", "lon": -77.027115, "rental_uris": {"ios": "https://dc.lft.to/lastmile_qr_scan", "android": "https://dc.lft.to/lastmile_qr_scan"}}, {"name": "47b4ef39b4543b6001d90c1afb640328", "fusion_lat": 0.0, "type": "electric_scooter", "lat": 38.91123316666667, "is_reserved": 0, "is_disabled": 0, "fusion_lon": 0.0, "bike_id": "47b4ef39b4543b6001d90c1afb640328", "lon": -77.02198166666666, "rental_uris": {"ios": "https://dc.lft.to/lastmile_qr_scan", "android": "https://dc.lft.to/lastmile_qr_scan"}}, {"name": "468c8f872d1a4a18721747f7c6f335c9", "fusion_lat": 0.0, "type": "electric_scooter", "lat": 38.897404, "is_reserved": 0, "is_disabled": 0, "fusion_lon": 0.0, "bike_id": "468c8f872d1a4a18721747f7c6f335c9", "lon": -77.01989483333334, "rental_uris": {"ios": "https://dc.lft.to/lastmile_qr_scan", "android": "https://dc.lft.to/lastmile_qr_scan"}}, {"name": "6547738756dfde371a7bb235fa985595", "fusion_lat": 0.0, "type": "electric_scooter", "lat": 38.91707533333334, "is_reserved": 0, "is_disabled": 0, "fusion_lon": 0.0, "bike_id": "6547738756dfde371a7bb235fa985595", "lon": -77.037279, "rental_uris": {"ios": "https://dc.lft.to/lastmile_qr_scan", "android": "https://dc.lft.to/lastmile_qr_scan"}}, {"name": "a7e870686f5233c9ec7d760186869d54", "fusion_lat": 0.0, "type": "electric_scooter", "lat": 38.8695485, "is_reserved": 0, "is_disabled": 0, "fusion_lon": 0.0, "bike_id": "a7e870686f5233c9ec7d760186869d54", "lon": -77.01375916666667, "rental_uris": {"ios": "https://dc.lft.to/lastmile_qr_scan", "android": "https://dc.lft.to/lastmile_qr_scan"}}, {"name": "714c5dc8fcbe29e6548b4f377a7b24a8", "fusion_lat": 0.0, "type": "electric_scooter", "lat": 38.8649915, "is_reserved": 0, "is_disabled": 0, "fusion_lon": 0.0, "bike_id": "714c5dc8fcbe29e6548b4f377a7b24a8", "lon": -76.99000433333333, "rental_uris": {"ios": "https://dc.lft.to/lastmile_qr_scan", "android": "https://dc.lft.to/lastmile_qr_scan"}}, {"name": "fd72ebb2061aaefeaca77f8354bb6515", "fusion_lat": 0.0, "type": "electric_scooter", "lat": 38.89457866666667, "is_reserved": 0, "is_disabled": 0, "fusion_lon": 0.0, "bike_id": "fd72ebb2061aaefeaca77f8354bb6515", "lon": -77.03079916666667, "rental_uris": {"ios": "https://dc.lft.to/lastmile_qr_scan", "android": "https://dc.lft.to/lastmile_qr_scan"}}, {"name": "dbc5a43979f5663f7f8fddbb9e158022", "fusion_lat": 0.0, "type": "electric_scooter", "lat": 38.90325583333333, "is_reserved": 0, "is_disabled": 0, "fusion_lon": 0.0, "bike_id": "dbc5a43979f5663f7f8fddbb9e158022", "lon": -77.02065683333333, "rental_uris": {"ios": "https://dc.lft.to/lastmile_qr_scan", "android": "https://dc.lft.to/lastmile_qr_scan"}}, {"name": "6a2ceaaec1c548e1ed1b482cf6571c50", "fusion_lat": 0.0, "type": "electric_scooter", "lat": 38.918761333333336, "is_reserved": 0, "is_disabled": 0, "fusion_lon": 0.0, "bike_id": "6a2ceaaec1c548e1ed1b482cf6571c50", "lon": -77.04320666666666, "rental_uris": {"ios": "https://dc.lft.to/lastmile_qr_scan", "android": "https://dc.lft.to/lastmile_qr_scan"}}, {"name": "315efbd420bba6636988b15eab9833ff", "fusion_lat": 0.0, "type": "electric_scooter", "lat": 38.87372666666667, "is_reserved": 0, "is_disabled": 0, "fusion_lon": 0.0, "bike_id": "315efbd420bba6636988b15eab9833ff", "lon": -77.00031583333333, "rental_uris": {"ios": "https://dc.lft.to/lastmile_qr_scan", "android": "https://dc.lft.to/lastmile_qr_scan"}}, {"name": "969d251f9fe182593cef6655cc6ac76c", "fusion_lat": 0.0, "type": "electric_scooter", "lat": 38.91699533333333, "is_reserved": 0, "is_disabled": 0, "fusion_lon": 0.0, "bike_id": "969d251f9fe182593cef6655cc6ac76c", "lon": -77.03137366666667, "rental_uris": {"ios": "https://dc.lft.to/lastmile_qr_scan", "android": "https://dc.lft.to/lastmile_qr_scan"}}, {"name": "119decb26fa7a6f0f0bcf49faaa737c0", "fusion_lat": 0.0, "type": "electric_scooter", "lat": 38.885163666666664, "is_reserved": 0, "is_disabled": 0, "fusion_lon": 0.0, "bike_id": "119decb26fa7a6f0f0bcf49faaa737c0", "lon": -77.03356033333333, "rental_uris": {"ios": "https://dc.lft.to/lastmile_qr_scan", "android": "https://dc.lft.to/lastmile_qr_scan"}}, {"name": "a1a5fc2a1f1780fe0b485fab69257405", "fusion_lat": 0.0, "type": "electric_scooter", "lat": 38.9105625, "is_reserved": 0, "is_disabled": 0, "fusion_lon": 0.0, "bike_id": "a1a5fc2a1f1780fe0b485fab69257405", "lon": -77.04575666666666, "rental_uris": {"ios": "https://dc.lft.to/lastmile_qr_scan", "android": "https://dc.lft.to/lastmile_qr_scan"}}, {"name": "b64e357f0cb6958338b2d2c84a744c6f", "fusion_lat": 0.0, "type": "electric_scooter", "lat": 38.90676466666667, "is_reserved": 0, "is_disabled": 0, "fusion_lon": 0.0, "bike_id": "b64e357f0cb6958338b2d2c84a744c6f", "lon": -77.0348545, "rental_uris": {"ios": "https://dc.lft.to/lastmile_qr_scan", "android": "https://dc.lft.to/lastmile_qr_scan"}}, {"name": "8055af9e21900aa84301d5b4bf519dba", "fusion_lat": 0.0, "type": "electric_scooter", "lat": 38.89356683333333, "is_reserved": 0, "is_disabled": 0, "fusion_lon": 0.0, "bike_id": "8055af9e21900aa84301d5b4bf519dba", "lon": -77.04655666666666, "rental_uris": {"ios": "https://dc.lft.to/lastmile_qr_scan", "android": "https://dc.lft.to/lastmile_qr_scan"}}, {"name": "d0c42a361be57bf8094529f7dbbe2713", "fusion_lat": 0.0, "type": "electric_scooter", "lat": 38.901087, "is_reserved": 0, "is_disabled": 0, "fusion_lon": 0.0, "bike_id": "d0c42a361be57bf8094529f7dbbe2713", "lon": -77.031811, "rental_uris": {"ios": "https://dc.lft.to/lastmile_qr_scan", "android": "https://dc.lft.to/lastmile_qr_scan"}}, {"name": "39a2b5cb18b2de0b28e61a7bdff74afe", "fusion_lat": 0.0, "type": "electric_scooter", "lat": 38.916887, "is_reserved": 0, "is_disabled": 0, "fusion_lon": 0.0, "bike_id": "39a2b5cb18b2de0b28e61a7bdff74afe", "lon": -77.028972, "rental_uris": {"ios": "https://dc.lft.to/lastmile_qr_scan", "android": "https://dc.lft.to/lastmile_qr_scan"}}, {"name": "71f3319230d5a8fe106d00ba014d1923", "fusion_lat": 0.0, "type": "electric_scooter", "lat": 38.92237383333333, "is_reserved": 0, "is_disabled": 0, "fusion_lon": 0.0, "bike_id": "71f3319230d5a8fe106d00ba014d1923", "lon": -77.07312383333333, "rental_uris": {"ios": "https://dc.lft.to/lastmile_qr_scan", "android": "https://dc.lft.to/lastmile_qr_scan"}}, {"name": "e160fec657dd6ce37303474ab870dd20", "fusion_lat": 0.0, "type": "electric_scooter", "lat": 38.904667833333335, "is_reserved": 0, "is_disabled": 0, "fusion_lon": 0.0, "bike_id": "e160fec657dd6ce37303474ab870dd20", "lon": -77.03553183333334, "rental_uris": {"ios": "https://dc.lft.to/lastmile_qr_scan", "android": "https://dc.lft.to/lastmile_qr_scan"}}, {"name": "942fb9f08400f04e47b5873081a28ddb", "fusion_lat": 0.0, "type": "electric_scooter", "lat": 38.88407683333333, "is_reserved": 0, "is_disabled": 0, "fusion_lon": 0.0, "bike_id": "942fb9f08400f04e47b5873081a28ddb", "lon": -77.01750466666667, "rental_uris": {"ios": "https://dc.lft.to/lastmile_qr_scan", "android": "https://dc.lft.to/lastmile_qr_scan"}}, {"name": "ad43bb04f418d9db822d05f15dd1f166", "fusion_lat": 0.0, "type": "electric_scooter", "lat": 38.911138, "is_reserved": 0, "is_disabled": 0, "fusion_lon": 0.0, "bike_id": "ad43bb04f418d9db822d05f15dd1f166", "lon": -77.04356683333333, "rental_uris": {"ios": "https://dc.lft.to/lastmile_qr_scan", "android": "https://dc.lft.to/lastmile_qr_scan"}}, {"name": "618f6d9efb71ac06cb5caeb5ae607a83", "fusion_lat": 0.0, "type": "electric_scooter", "lat": 38.88487116666667, "is_reserved": 0, "is_disabled": 0, "fusion_lon": 0.0, "bike_id": "618f6d9efb71ac06cb5caeb5ae607a83", "lon": -77.0071365, "rental_uris": {"ios": "https://dc.lft.to/lastmile_qr_scan", "android": "https://dc.lft.to/lastmile_qr_scan"}}, {"name": "3205defb74116669aa913000178d189d", "fusion_lat": 0.0, "type": "electric_scooter", "lat": 38.91721733333333, "is_reserved": 0, "is_disabled": 0, "fusion_lon": 0.0, "bike_id": "3205defb74116669aa913000178d189d", "lon": -77.0407945, "rental_uris": {"ios": "https://dc.lft.to/lastmile_qr_scan", "android": "https://dc.lft.to/lastmile_qr_scan"}}, {"name": "ec34d951482655c796ef2b81a0f8da63", "fusion_lat": 0.0, "type": "electric_scooter", "lat": 38.897585666666664, "is_reserved": 0, "is_disabled": 0, "fusion_lon": 0.0, "bike_id": "ec34d951482655c796ef2b81a0f8da63", "lon": -77.05151283333333, "rental_uris": {"ios": "https://dc.lft.to/lastmile_qr_scan", "android": "https://dc.lft.to/lastmile_qr_scan"}}, {"name": "c80d1340b9f4e45a00ea3a54242513c9", "fusion_lat": 0.0, "type": "electric_scooter", "lat": 38.90254816666667, "is_reserved": 0, "is_disabled": 0, "fusion_lon": 0.0, "bike_id": "c80d1340b9f4e45a00ea3a54242513c9", "lon": -77.01737533333333, "rental_uris": {"ios": "https://dc.lft.to/lastmile_qr_scan", "android": "https://dc.lft.to/lastmile_qr_scan"}}, {"name": "78f6d89a3911b18d7bae6502ab7c7fcd", "fusion_lat": 0.0, "type": "electric_scooter", "lat": 38.929336, "is_reserved": 0, "is_disabled": 0, "fusion_lon": 0.0, "bike_id": "78f6d89a3911b18d7bae6502ab7c7fcd", "lon": -77.03676116666666, "rental_uris": {"ios": "https://dc.lft.to/lastmile_qr_scan", "android": "https://dc.lft.to/lastmile_qr_scan"}}, {"name": "8098180d26878d1ed1b80a9273e76b92", "fusion_lat": 0.0, "type": "electric_scooter", "lat": 38.882216166666666, "is_reserved": 0, "is_disabled": 0, "fusion_lon": 0.0, "bike_id": "8098180d26878d1ed1b80a9273e76b92", "lon": -76.99607783333333, "rental_uris": {"ios": "https://dc.lft.to/lastmile_qr_scan", "android": "https://dc.lft.to/lastmile_qr_scan"}}, {"name": "69fcc9332f0732cb7107af9f9787348e", "fusion_lat": 0.0, "type": "electric_scooter", "lat": 38.92164366666667, "is_reserved": 0, "is_disabled": 0, "fusion_lon": 0.0, "bike_id": "69fcc9332f0732cb7107af9f9787348e", "lon": -76.99397883333333, "rental_uris": {"ios": "https://dc.lft.to/lastmile_qr_scan", "android": "https://dc.lft.to/lastmile_qr_scan"}}, {"name": "99618d400e67f74110998366efbf279c", "fusion_lat": 0.0, "type": "electric_scooter", "lat": 38.905193, "is_reserved": 0, "is_disabled": 0, "fusion_lon": 0.0, "bike_id": "99618d400e67f74110998366efbf279c", "lon": -77.06448766666666, "rental_uris": {"ios": "https://dc.lft.to/lastmile_qr_scan", "android": "https://dc.lft.to/lastmile_qr_scan"}}, {"name": "7927d2062d3c3d03ad199426bb7bd8b6", "fusion_lat": 0.0, "type": "electric_bike", "lat": 38.9732105, "is_reserved": 0, "is_disabled": 0, "fusion_lon": 0.0, "bike_id": "7927d2062d3c3d03ad199426bb7bd8b6", "lon": -77.02149283333334, "rental_uris": {"ios": "https://dc.lft.to/lastmile_qr_scan", "android": "https://dc.lft.to/lastmile_qr_scan"}}, {"name": "27f5d0652b364edd7306447d452361c3", "fusion_lat": 0.0, "type": "electric_scooter", "lat": 38.899140333333335, "is_reserved": 0, "is_disabled": 0, "fusion_lon": 0.0, "bike_id": "27f5d0652b364edd7306447d452361c3", "lon": -76.93385066666667, "rental_uris": {"ios": "https://dc.lft.to/lastmile_qr_scan", "android": "https://dc.lft.to/lastmile_qr_scan"}}, {"name": "9d4cac83b99cbd3fd2dc7b2c4b41716a", "fusion_lat": 0.0, "type": "electric_bike", "lat": 38.9028755, "is_reserved": 0, "is_disabled": 0, "fusion_lon": 0.0, "bike_id": "9d4cac83b99cbd3fd2dc7b2c4b41716a", "lon": -76.9808375, "rental_uris": {"ios": "https://dc.lft.to/lastmile_qr_scan", "android": "https://dc.lft.to/lastmile_qr_scan"}}, {"name": "d4a05d868b31969d4f364f1d26a62c0f", "fusion_lat": 0.0, "type": "electric_bike", "lat": 38.88241766666667, "is_reserved": 0, "is_disabled": 0, "fusion_lon": 0.0, "bike_id": "d4a05d868b31969d4f364f1d26a62c0f", "lon": -77.17980216666666, "rental_uris": {"ios": "https://dc.lft.to/lastmile_qr_scan", "android": "https://dc.lft.to/lastmile_qr_scan"}}, {"name": "5c959d4127662b107e40e4485d18711e", "fusion_lat": 0.0, "type": "electric_scooter", "lat": 38.917991, "is_reserved": 0, "is_disabled": 0, "fusion_lon": 0.0, "bike_id": "5c959d4127662b107e40e4485d18711e", "lon": -77.02816566666667, "rental_uris": {"ios": "https://dc.lft.to/lastmile_qr_scan", "android": "https://dc.lft.to/lastmile_qr_scan"}}, {"name": "043a14e5f1876f808313b5ed489d5a92", "fusion_lat": 0.0, "type": "electric_scooter", "lat": 38.87459883333333, "is_reserved": 0, "is_disabled": 0, "fusion_lon": 0.0, "bike_id": "043a14e5f1876f808313b5ed489d5a92", "lon": -77.00178566666666, "rental_uris": {"ios": "https://dc.lft.to/lastmile_qr_scan", "android": "https://dc.lft.to/lastmile_qr_scan"}}, {"name": "d7e74a3efba1dfa37187db903275d83c", "fusion_lat": 0.0, "type": "electric_scooter", "lat": 38.91817866666667, "is_reserved": 0, "is_disabled": 0, "fusion_lon": 0.0, "bike_id": "d7e74a3efba1dfa37187db903275d83c", "lon": -77.0401765, "rental_uris": {"ios": "https://dc.lft.to/lastmile_qr_scan", "android": "https://dc.lft.to/lastmile_qr_scan"}}, {"name": "60fda328815c44bd0738dd4a69b93259", "fusion_lat": 0.0, "type": "electric_scooter", "lat": 38.90138183333333, "is_reserved": 0, "is_disabled": 0, "fusion_lon": 0.0, "bike_id": "60fda328815c44bd0738dd4a69b93259", "lon": -76.99967966666667, "rental_uris": {"ios": "https://dc.lft.to/lastmile_qr_scan", "android": "https://dc.lft.to/lastmile_qr_scan"}}, {"name": "b609eb511d7edaa3f1caf7948d326daa", "fusion_lat": 0.0, "type": "electric_scooter", "lat": 38.9307835, "is_reserved": 0, "is_disabled": 0, "fusion_lon": 0.0, "bike_id": "b609eb511d7edaa3f1caf7948d326daa", "lon": -77.02395283333334, "rental_uris": {"ios": "https://dc.lft.to/lastmile_qr_scan", "android": "https://dc.lft.to/lastmile_qr_scan"}}, {"name": "7c2668ad1a20e61f3710f6c4a7f0dc86", "fusion_lat": 0.0, "type": "electric_scooter", "lat": 38.93423716666667, "is_reserved": 0, "is_disabled": 0, "fusion_lon": 0.0, "bike_id": "7c2668ad1a20e61f3710f6c4a7f0dc86", "lon": -77.03998366666667, "rental_uris": {"ios": "https://dc.lft.to/lastmile_qr_scan", "android": "https://dc.lft.to/lastmile_qr_scan"}}, {"name": "0fe8dbf767e3b7cd2bea3d79bb298da1", "fusion_lat": 0.0, "type": "electric_bike", "lat": 38.89604833333333, "is_reserved": 0, "is_disabled": 0, "fusion_lon": 0.0, "bike_id": "0fe8dbf767e3b7cd2bea3d79bb298da1", "lon": -76.9884255, "rental_uris": {"ios": "https://dc.lft.to/lastmile_qr_scan", "android": "https://dc.lft.to/lastmile_qr_scan"}}, {"name": "a78dcfc050a1c3ca5a3a4148852d7867", "fusion_lat": 0.0, "type": "electric_scooter", "lat": 38.8681155, "is_reserved": 0, "is_disabled": 0, "fusion_lon": 0.0, "bike_id": "a78dcfc050a1c3ca5a3a4148852d7867", "lon": -76.98613983333334, "rental_uris": {"ios": "https://dc.lft.to/lastmile_qr_scan", "android": "https://dc.lft.to/lastmile_qr_scan"}}, {"name": "1e2a1586faf2a649be2a713a8138606c", "fusion_lat": 0.0, "type": "electric_scooter", "lat": 38.930038333333336, "is_reserved": 0, "is_disabled": 0, "fusion_lon": 0.0, "bike_id": "1e2a1586faf2a649be2a713a8138606c", "lon": -77.023112, "rental_uris": {"ios": "https://dc.lft.to/lastmile_qr_scan", "android": "https://dc.lft.to/lastmile_qr_scan"}}, {"name": "0790cf2ca7ac00c239cf36705a0021eb", "fusion_lat": 0.0, "type": "electric_scooter", "lat": 38.8851305, "is_reserved": 0, "is_disabled": 0, "fusion_lon": 0.0, "bike_id": "0790cf2ca7ac00c239cf36705a0021eb", "lon": -77.00337516666667, "rental_uris": {"ios": "https://dc.lft.to/lastmile_qr_scan", "android": "https://dc.lft.to/lastmile_qr_scan"}}, {"name": "c7134fc14f9985a60c2f0cdd8075bbb6", "fusion_lat": 0.0, "type": "electric_scooter", "lat": 38.900313833333335, "is_reserved": 0, "is_disabled": 0, "fusion_lon": 0.0, "bike_id": "c7134fc14f9985a60c2f0cdd8075bbb6", "lon": -77.00197133333333, "rental_uris": {"ios": "https://dc.lft.to/lastmile_qr_scan", "android": "https://dc.lft.to/lastmile_qr_scan"}}, {"name": "d3970e910c423349b79db7f1c2adb8b3", "fusion_lat": 0.0, "type": "electric_scooter", "lat": 38.937181, "is_reserved": 0, "is_disabled": 0, "fusion_lon": 0.0, "bike_id": "d3970e910c423349b79db7f1c2adb8b3", "lon": -77.02470916666667, "rental_uris": {"ios": "https://dc.lft.to/lastmile_qr_scan", "android": "https://dc.lft.to/lastmile_qr_scan"}}, {"name": "302650bf5bf46289cd7927eb33bd68e2", "fusion_lat": 0.0, "type": "electric_scooter", "lat": 38.903549166666664, "is_reserved": 0, "is_disabled": 0, "fusion_lon": 0.0, "bike_id": "302650bf5bf46289cd7927eb33bd68e2", "lon": -77.05035633333334, "rental_uris": {"ios": "https://dc.lft.to/lastmile_qr_scan", "android": "https://dc.lft.to/lastmile_qr_scan"}}, {"name": "a3c9274b81a01c367b10b126e063a752", "fusion_lat": 0.0, "type": "electric_scooter", "lat": 38.907511, "is_reserved": 0, "is_disabled": 0, "fusion_lon": 0.0, "bike_id": "a3c9274b81a01c367b10b126e063a752", "lon": -76.9833155, "rental_uris": {"ios": "https://dc.lft.to/lastmile_qr_scan", "android": "https://dc.lft.to/lastmile_qr_scan"}}, {"name": "766985c62e1d49f3c32e8b8c11146a4e", "fusion_lat": 0.0, "type": "electric_scooter", "lat": 38.9034555, "is_reserved": 0, "is_disabled": 0, "fusion_lon": 0.0, "bike_id": "766985c62e1d49f3c32e8b8c11146a4e", "lon": -77.04305633333334, "rental_uris": {"ios": "https://dc.lft.to/lastmile_qr_scan", "android": "https://dc.lft.to/lastmile_qr_scan"}}, {"name": "be2f3e0b38b2f6e909abddd3693d066b", "fusion_lat": 0.0, "type": "electric_scooter", "lat": 38.92339183333333, "is_reserved": 0, "is_disabled": 0, "fusion_lon": 0.0, "bike_id": "be2f3e0b38b2f6e909abddd3693d066b", "lon": -77.032174, "rental_uris": {"ios": "https://dc.lft.to/lastmile_qr_scan", "android": "https://dc.lft.to/lastmile_qr_scan"}}, {"name": "f1cefaa4ca207d51cfa064bad81cf190", "fusion_lat": 0.0, "type": "electric_bike", "lat": 38.910396166666665, "is_reserved": 0, "is_disabled": 0, "fusion_lon": 0.0, "bike_id": "f1cefaa4ca207d51cfa064bad81cf190", "lon": -77.07549766666666, "rental_uris": {"ios": "https://dc.lft.to/lastmile_qr_scan", "android": "https://dc.lft.to/lastmile_qr_scan"}}, {"name": "d013f7af06a9ae1458217756c5a805e2", "fusion_lat": 0.0, "type": "electric_scooter", "lat": 38.890429166666664, "is_reserved": 0, "is_disabled": 0, "fusion_lon": 0.0, "bike_id": "d013f7af06a9ae1458217756c5a805e2", "lon": -76.93752633333334, "rental_uris": {"ios": "https://dc.lft.to/lastmile_qr_scan", "android": "https://dc.lft.to/lastmile_qr_scan"}}, {"name": "23b9a80896a84a0e1ae888563ef6b15e", "fusion_lat": 0.0, "type": "electric_scooter", "lat": 38.89802266666667, "is_reserved": 0, "is_disabled": 0, "fusion_lon": 0.0, "bike_id": "23b9a80896a84a0e1ae888563ef6b15e", "lon": -77.02913283333334, "rental_uris": {"ios": "https://dc.lft.to/lastmile_qr_scan", "android": "https://dc.lft.to/lastmile_qr_scan"}}, {"name": "134d9b040bf60ca5a6a3e37580e03ea0", "fusion_lat": 0.0, "type": "electric_bike", "lat": 38.896341666666665, "is_reserved": 0, "is_disabled": 0, "fusion_lon": 0.0, "bike_id": "134d9b040bf60ca5a6a3e37580e03ea0", "lon": -77.10456066666667, "rental_uris": {"ios": "https://dc.lft.to/lastmile_qr_scan", "android": "https://dc.lft.to/lastmile_qr_scan"}}, {"name": "dbcdf38dad6435a97b31c865c2fbdf11", "fusion_lat": 0.0, "type": "electric_scooter", "lat": 38.923827833333334, "is_reserved": 0, "is_disabled": 0, "fusion_lon": 0.0, "bike_id": "dbcdf38dad6435a97b31c865c2fbdf11", "lon": -77.029763, "rental_uris": {"ios": "https://dc.lft.to/lastmile_qr_scan", "android": "https://dc.lft.to/lastmile_qr_scan"}}, {"name": "93f48a6ae6da4428b17cec2277ef9010", "fusion_lat": 0.0, "type": "electric_scooter", "lat": 38.8624675, "is_reserved": 0, "is_disabled": 0, "fusion_lon": 0.0, "bike_id": "93f48a6ae6da4428b17cec2277ef9010", "lon": -76.9952925, "rental_uris": {"ios": "https://dc.lft.to/lastmile_qr_scan", "android": "https://dc.lft.to/lastmile_qr_scan"}}, {"name": "8500f416aaf4f796a65a69adaa8792bf", "fusion_lat": 0.0, "type": "electric_scooter", "lat": 38.9215855, "is_reserved": 0, "is_disabled": 0, "fusion_lon": 0.0, "bike_id": "8500f416aaf4f796a65a69adaa8792bf", "lon": -77.033836, "rental_uris": {"ios": "https://dc.lft.to/lastmile_qr_scan", "android": "https://dc.lft.to/lastmile_qr_scan"}}, {"name": "65dad03dc682e77d350db15341e2c417", "fusion_lat": 0.0, "type": "electric_scooter", "lat": 38.9358195, "is_reserved": 0, "is_disabled": 0, "fusion_lon": 0.0, "bike_id": "65dad03dc682e77d350db15341e2c417", "lon": -77.02742666666667, "rental_uris": {"ios": "https://dc.lft.to/lastmile_qr_scan", "android": "https://dc.lft.to/lastmile_qr_scan"}}, {"name": "13999e97029ac76b36218839ce7ed2e7", "fusion_lat": 0.0, "type": "electric_scooter", "lat": 38.89710133333333, "is_reserved": 0, "is_disabled": 0, "fusion_lon": 0.0, "bike_id": "13999e97029ac76b36218839ce7ed2e7", "lon": -77.02037166666666, "rental_uris": {"ios": "https://dc.lft.to/lastmile_qr_scan", "android": "https://dc.lft.to/lastmile_qr_scan"}}, {"name": "f0c4273eed073274a323df30a6df00a0", "fusion_lat": 0.0, "type": "electric_scooter", "lat": 38.89998683333334, "is_reserved": 0, "is_disabled": 0, "fusion_lon": 0.0, "bike_id": "f0c4273eed073274a323df30a6df00a0", "lon": -77.04011533333333, "rental_uris": {"ios": "https://dc.lft.to/lastmile_qr_scan", "android": "https://dc.lft.to/lastmile_qr_scan"}}, {"name": "3680800bbf10ce4b97f748e37dc06c08", "fusion_lat": 0.0, "type": "electric_scooter", "lat": 38.895276, "is_reserved": 0, "is_disabled": 0, "fusion_lon": 0.0, "bike_id": "3680800bbf10ce4b97f748e37dc06c08", "lon": -77.03343533333333, "rental_uris": {"ios": "https://dc.lft.to/lastmile_qr_scan", "android": "https://dc.lft.to/lastmile_qr_scan"}}, {"name": "5662d2b84ea963ee328ae6f69d02f87d", "fusion_lat": 0.0, "type": "electric_scooter", "lat": 38.908436333333334, "is_reserved": 0, "is_disabled": 0, "fusion_lon": 0.0, "bike_id": "5662d2b84ea963ee328ae6f69d02f87d", "lon": -77.01095, "rental_uris": {"ios": "https://dc.lft.to/lastmile_qr_scan", "android": "https://dc.lft.to/lastmile_qr_scan"}}, {"name": "0be472e10ca90eaa2f439d5fd57a754e", "fusion_lat": 0.0, "type": "electric_scooter", "lat": 38.90121516666667, "is_reserved": 0, "is_disabled": 0, "fusion_lon": 0.0, "bike_id": "0be472e10ca90eaa2f439d5fd57a754e", "lon": -77.042185, "rental_uris": {"ios": "https://dc.lft.to/lastmile_qr_scan", "android": "https://dc.lft.to/lastmile_qr_scan"}}, {"name": "003d6411427dc025e6a8ecd9b365bceb", "fusion_lat": 0.0, "type": "electric_scooter", "lat": 38.921613, "is_reserved": 0, "is_disabled": 0, "fusion_lon": 0.0, "bike_id": "003d6411427dc025e6a8ecd9b365bceb", "lon": -77.033902, "rental_uris": {"ios": "https://dc.lft.to/lastmile_qr_scan", "android": "https://dc.lft.to/lastmile_qr_scan"}}, {"name": "1ac2c821172470a5d6b4ce5b2f88c1e8", "fusion_lat": 0.0, "type": "electric_scooter", "lat": 38.9369595, "is_reserved": 0, "is_disabled": 0, "fusion_lon": 0.0, "bike_id": "1ac2c821172470a5d6b4ce5b2f88c1e8", "lon": -77.023956, "rental_uris": {"ios": "https://dc.lft.to/lastmile_qr_scan", "android": "https://dc.lft.to/lastmile_qr_scan"}}, {"name": "6aaa53ccf9cdf425ef94028b7ade441a", "fusion_lat": 0.0, "type": "electric_scooter", "lat": 38.93546766666667, "is_reserved": 0, "is_disabled": 0, "fusion_lon": 0.0, "bike_id": "6aaa53ccf9cdf425ef94028b7ade441a", "lon": -77.03413183333333, "rental_uris": {"ios": "https://dc.lft.to/lastmile_qr_scan", "android": "https://dc.lft.to/lastmile_qr_scan"}}, {"name": "37a9286bb8cfa042296cd90e69492b74", "fusion_lat": 0.0, "type": "electric_scooter", "lat": 38.90333433333333, "is_reserved": 0, "is_disabled": 0, "fusion_lon": 0.0, "bike_id": "37a9286bb8cfa042296cd90e69492b74", "lon": -77.00569966666667, "rental_uris": {"ios": "https://dc.lft.to/lastmile_qr_scan", "android": "https://dc.lft.to/lastmile_qr_scan"}}, {"name": "5c8a30a3ee658f4094a987eeb5156170", "fusion_lat": 0.0, "type": "electric_scooter", "lat": 38.876991333333336, "is_reserved": 0, "is_disabled": 0, "fusion_lon": 0.0, "bike_id": "5c8a30a3ee658f4094a987eeb5156170", "lon": -77.01764816666666, "rental_uris": {"ios": "https://dc.lft.to/lastmile_qr_scan", "android": "https://dc.lft.to/lastmile_qr_scan"}}, {"name": "c38d7d95aeebf090f8e6da0ec118aa14", "fusion_lat": 0.0, "type": "electric_scooter", "lat": 38.9215075, "is_reserved": 0, "is_disabled": 0, "fusion_lon": 0.0, "bike_id": "c38d7d95aeebf090f8e6da0ec118aa14", "lon": -77.0386775, "rental_uris": {"ios": "https://dc.lft.to/lastmile_qr_scan", "android": "https://dc.lft.to/lastmile_qr_scan"}}, {"name": "273bef30a75afb70c398adc33ca9883f", "fusion_lat": 0.0, "type": "electric_scooter", "lat": 38.906033, "is_reserved": 0, "is_disabled": 0, "fusion_lon": 0.0, "bike_id": "273bef30a75afb70c398adc33ca9883f", "lon": -77.05625183333333, "rental_uris": {"ios": "https://dc.lft.to/lastmile_qr_scan", "android": "https://dc.lft.to/lastmile_qr_scan"}}, {"name": "939efefe0affd12629b7ea1a9ff974c3", "fusion_lat": 0.0, "type": "electric_bike", "lat": 39.024179, "is_reserved": 0, "is_disabled": 0, "fusion_lon": 0.0, "bike_id": "939efefe0affd12629b7ea1a9ff974c3", "lon": -77.12502166666667, "rental_uris": {"ios": "https://dc.lft.to/lastmile_qr_scan", "android": "https://dc.lft.to/lastmile_qr_scan"}},