{"data": {"bikes": [{"fusion_lat": 0.0, "lon": -76.94576433333333, "is_reserved": 0, "bike_id": "c07fff071da6b3ffd18edaf54e9ef9d8", "fusion_lon": 0.0, "rental_uris": {"android": "https://dc.lft.to/lastmile_qr_scan", "ios": "https://dc.lft.to/lastmile_qr_scan"}, "name": "c07fff071da6b3ffd18edaf54e9ef9d8", "type": "electric_bike", "lat": 38.93742566666667, "is_disabled": 0}, {"fusion_lat": 0.0, "lon": -77.02418966666667, "is_reserved": 0, "bike_id": "f3378623c682dee9282bbb01177d28f8", "fusion_lon": 0.0, "rental_uris": {"android": "https://dc.lft.to/lastmile_qr_scan", "ios": "https://dc.lft.to/lastmile_qr_scan"}, "name": "f3378623c682dee9282bbb01177d28f8", "type": "electric_scooter", "lat": 38.897408, "is_disabled": 0}, {"fusion_lat": 0.0, "lon": -77.050254, "is_reserved": 0, "bike_id": "f177efddf1723c06728ce3603dc513ce", "fusion_lon": 0.0, "rental_uris": {"android": "https://dc.lft.to/lastmile_qr_scan", "ios": "https://dc.lft.to/lastmile_qr_scan"}, "name": "f177efddf1723c06728ce3603dc513ce", "type": "electric_scooter", "lat": 38.923527, "is_disabled": 0}, {"fusion_lat": 0.0, "lon": -76.98018266666666, "is_reserved": 0, "bike_id": "71fdbc56698ed7e0693f2d487503749e", "fusion_lon": 0.0, "rental_uris": {"android": "https://dc.lft.to/lastmile_qr_scan", "ios": "https://dc.lft.to/lastmile_qr_scan"}, "name": "71fdbc56698ed7e0693f2d487503749e", "type": "electric_scooter", "lat": 38.8531105, "is_disabled": 0}, {"fusion_lat": 0.0, "lon": -77.03901366666666, "is_reserved": 0, "bike_id": "cd47bb937f3fbf5d4bb6dc78bd498aa5", "fusion_lon": 0.0, "rental_uris": {"android": "https://dc.lft.to/lastmile_qr_scan", "ios": "https://dc.lft.to/lastmile_qr_scan"}, "name": "cd47bb937f3fbf5d4bb6dc78bd498aa5", "type": "electric_scooter", "lat": 38.9147215, "is_disabled": 0}, {"fusion_lat": 0.0, "lon": -77.08050133333333, "is_reserved": 0, "bike_id": "2d954bdf54516fc86272b908cb8a2a45", "fusion_lon": 0.0, "rental_uris": {"android": "https://dc.lft.to/lastmile_qr_scan", "ios": "https://dc.lft.to/lastmile_qr_scan"}, "name": "2d954bdf54516fc86272b908cb8a2a45", "type": "electric_scooter", "lat": 38.94932433333334, "is_disabled": 0}, {"fusion_lat": 0.0, "lon": -77.02328833333333, "is_reserved": 0, "bike_id": "9951fab0583c2ad4ee9b15a49dcd77a2", "fusion_lon": 0.0, "rental_uris": {"android": "https://dc.lft.to/lastmile_qr_scan", "ios": "https://dc.lft.to/lastmile_qr_scan"}, "name": "9951fab0583c2ad4ee9b15a49dcd77a2", "type": "electric_scooter", "lat": 38.955267, "is_disabled": 0}, {"fusion_lat": 0.0, "lon": -77.03874183333333, "is_reserved": 0, "bike_id": "e8062ea868d959a5a390ce1ee8584774", "fusion_lon": 0.0, "rental_uris": {"android": "https://dc.lft.to/lastmile_qr_scan", "ios": "https://dc.lft.to/lastmile_qr_scan"}, "name": "e8062ea868d959a5a390ce1ee8584774", "type": "electric_scooter", "lat": 38.906523, "is_disabled": 0}, {"fusion_lat": 0.0, "lon": -77.01001916666667, "is_reserved": 0, "bike_id": "17777fb858a3f57d68829dba61672d62", "fusion_lon": 0.0, "rental_uris": {"android": "https://dc.lft.to/lastmile_qr_scan", "ios": "https://dc.lft.to/lastmile_qr_scan"}, "name": "17777fb858a3f57d68829dba61672d62", "type": "electric_scooter", "lat": 38.8963435, "is_disabled": 0}, {"fusion_lat": 0.0, "lon": -77.0395885, "is_reserved": 0, "bike_id": "9810fd6948e9c1a068d4a881ee659984", "fusion_lon": 0.0, "rental_uris": {"android": "https://dc.lft.to/lastmile_qr_scan", "ios": "https://dc.lft.to/lastmile_qr_scan"}, "name": "9810fd6948e9c1a068d4a881ee659984", "type": "electric_scooter", "lat": 38.8924005, "is_disabled": 0}, {"fusion_lat": 0.0, "lon": -77.0363735, "is_reserved": 0, "bike_id": "50860c8834378cbd4244a8c2e03d5e6e", "fusion_lon": 0.0, "rental_uris": {"android": "https://dc.lft.to/lastmile_qr_scan", "ios": "https://dc.lft.to/lastmile_qr_scan"}, "name": "50860c8834378cbd4244a8c2e03d5e6e", "type": "electric_scooter", "lat": 38.93672866666667, "is_disabled": 0}, {"fusion_lat": 0.0, "lon": -77.03165116666666, "is_reserved": 0, "bike_id": "4bb811d9b6d1a6ed7826c57a0200b4aa", "fusion_lon": 0.0, "rental_uris": {"android": "https://dc.lft.to/lastmile_qr_scan", "ios": "https://dc.lft.to/lastmile_qr_scan"}, "name": "4bb811d9b6d1a6ed7826c57a0200b4aa", "type": "electric_scooter", "lat": 38.89778716666667, "is_disabled": 0}, {"fusion_lat": 0.0, "lon": -77.0126205, "is_reserved": 0, "bike_id": "90fa1772984cf1d4152b3f2c5bc93527", "fusion_lon": 0.0, "rental_uris": {"android": "https://dc.lft.to/lastmile_qr_scan", "ios": "https://dc.lft.to/lastmile_qr_scan"}, "name": "90fa1772984cf1d4152b3f2c5bc93527", "type": "electric_scooter", "lat": 38.892419833333335, "is_disabled": 0}, {"fusion_lat": 0.0, "lon": -77.02932466666667, "is_reserved": 0, "bike_id": "5b11224409a803b4c0e702c3d723e379", "fusion_lon": 0.0, "rental_uris": {"android": "https://dc.lft.to/lastmile_qr_scan", "ios": "https://dc.lft.to/lastmile_qr_scan"}, "name": "5b11224409a803b4c0e702c3d723e379", "type": "electric_scooter", "lat": 38.898209, "is_disabled": 0}, {"fusion_lat": 0.0, "lon": -76.91872, "is_reserved": 0, "bike_id": "d9602e3616512e04e73f48a4499bb33e", "fusion_lon": 0.0, "rental_uris": {"android": "https://dc.lft.to/lastmile_qr_scan", "ios": "https://dc.lft.to/lastmile_qr_scan"}, "name": "d9602e3616512e04e73f48a4499bb33e", "type": "electric_scooter", "lat": 38.89095833333333, "is_disabled": 0}, {"fusion_lat": 0.0, "lon": -77.033339, "is_reserved": 0, "bike_id": "c5ee8a81129ed77e6353c986ce6f73a2", "fusion_lon": 0.0, "rental_uris": {"android": "https://dc.lft.to/lastmile_qr_scan", "ios": "https://dc.lft.to/lastmile_qr_scan"}, "name": "c5ee8a81129ed77e6353c986ce6f73a2", "type": "electric_scooter", "lat": 38.898408, "is_disabled": 0}, {"fusion_lat": 0.0, "lon": -77.0499355, "is_reserved": 0, "bike_id": "3de922bb4a27e8f11ab18ed954c7342b", "fusion_lon": 0.0, "rental_uris": {"android": "https://dc.lft.to/lastmile_qr_scan", "ios": "https://dc.lft.to/lastmile_qr_scan"}, "name": "3de922bb4a27e8f11ab18ed954c7342b", "type": "electric_scooter", "lat": 38.897299833333335, "is_disabled": 0}, {"fusion_lat": 0.0, "lon": -77.0331055, "is_reserved": 0, "bike_id": "6a7a4708fa73a195ba74455a2d0d8258", "fusion_lon": 0.0, "rental_uris": {"android": "https://dc.lft.to/lastmile_qr_scan", "ios": "https://dc.lft.to/lastmile_qr_scan"}, "name": "6a7a4708fa73a195ba74455a2d0d8258", "type": "electric_scooter", "lat": 38.956145, "is_disabled": 0}, {"fusion_lat": 0.0, "lon": -77.02394616666666, "is_reserved": 0, "bike_id": "2512ce9e39045be9ccb5988a79874b1d", "fusion_lon": 0.0, "rental_uris": {"android": "https://dc.lft.to/lastmile_qr_scan", "ios": "https://dc.lft.to/lastmile_qr_scan"}, "name": "2512ce9e39045be9ccb5988a79874b1d", "type": "electric_scooter", "lat": 38.9151775, "is_disabled": 0}, {"fusion_lat": 0.0, "lon": -76.99146683333333, "is_reserved": 0, "bike_id": "13fcb2b7d8dbc99665804c2863c5b031", "fusion_lon": 0.0, "rental_uris": {"android": "https://dc.lft.to/lastmile_qr_scan", "ios": "https://dc.lft.to/lastmile_qr_scan"}, "name": "13fcb2b7d8dbc99665804c2863c5b031", "type": "electric_scooter", "lat": 38.9011605, "is_disabled": 0}, {"fusion_lat": 0.0, "lon": -77.12524616666667, "is_reserved": 0, "bike_id": "962cd8517fb9a0885c572a83d12669af", "fusion_lon": 0.0, "rental_uris": {"android": "https://dc.lft.to/lastmile_qr_scan", "ios": "https://dc.lft.to/lastmile_qr_scan"}, "name": "962cd8517fb9a0885c572a83d12669af", "type": "electric_bike", "lat": 39.0563385, "is_disabled": 0}, {"fusion_lat": 0.0, "lon": -77.0750875, "is_reserved": 0, "bike_id": "7c0a86e4a1cbfacd5076b751bd619e2a", "fusion_lon": 0.0, "rental_uris": {"android": "https://dc.lft.to/lastmile_qr_scan", "ios": "https://dc.lft.to/lastmile_qr_scan"}, "name": "7c0a86e4a1cbfacd5076b751bd619e2a", "type": "electric_scooter", "lat": 38.89465216666667, "is_disabled": 0}, {"fusion_lat": 0.0, "lon": -77.051172, "is_reserved": 0, "bike_id": "c028b33b72299b6668fde095c7c11b66", "fusion_lon": 0.0, "rental_uris": {"android": "https://dc.lft.to/lastmile_qr_scan", "ios": "https://dc.lft.to/lastmile_qr_scan"}, "name": "c028b33b72299b6668fde095c7c11b66", "type": "electric_scooter", "lat": 38.9233805, "is_disabled": 0}, {"fusion_lat": 0.0, "lon": -76.97627483333333, "is_reserved": 0, "bike_id": "303bad30824104ddd5dcb60d37a17f37", "fusion_lon": 0.0, "rental_uris": {"android": "https://dc.lft.to/lastmile_qr_scan", "ios": "https://dc.lft.to/lastmile_qr_scan"}, "name": "303bad30824104ddd5dcb60d37a17f37", "type": "electric_scooter", "lat": 38.9057065, "is_disabled": 0}, {"fusion_lat": 0.0, "lon": -77.0324995, "is_reserved": 0, "bike_id": "3c9883fc468dd64e1ed6c39c3d959381", "fusion_lon": 0.0, "rental_uris": {"android": "https://dc.lft.to/lastmile_qr_scan", "ios": "https://dc.lft.to/lastmile_qr_scan"}, "name": "3c9883fc468dd64e1ed6c39c3d959381", "type": "electric_scooter", "lat": 38.902712666666666, "is_disabled": 0}, {"fusion_lat": 0.0, "lon": -76.98550183333333, "is_reserved": 0, "bike_id": "b6ade0743cc2eed70b92ca8f21011a02", "fusion_lon": 0.0, "rental_uris": {"android": "https://dc.lft.to/lastmile_qr_scan", "ios": "https://dc.lft.to/lastmile_qr_scan"}, "name": "b6ade0743cc2eed70b92ca8f21011a02", "type": "electric_scooter", "lat": 38.9103, "is_disabled": 0}, {"fusion_lat": 0.0, "lon": -77.02280783333333, "is_reserved": 0, "bike_id": "271740bc30f263b495ba886d04f037f1", "fusion_lon": 0.0, "rental_uris": {"android": "https://dc.lft.to/lastmile_qr_scan", "ios": "https://dc.lft.to/lastmile_qr_scan"}, "name": "271740bc30f263b495ba886d04f037f1", "type": "electric_scooter", "lat": 38.8945475, "is_disabled": 0}, {"fusion_lat": 0.0, "lon": -76.98959983333333, "is_reserved": 0, "bike_id": "6375985a64acb3e43b20d3a5c2e0194f", "fusion_lon": 0.0, "rental_uris": {"android": "https://dc.lft.to/lastmile_qr_scan", "ios": "https://dc.lft.to/lastmile_qr_scan"}, "name": "6375985a64acb3e43b20d3a5c2e0194f", "type": "electric_scooter", "lat": 38.900316, "is_disabled": 0}, {"fusion_lat": 0.0, "lon": -77.0216805, "is_reserved": 0, "bike_id": "ae401be68737780dc68f27b5b10bd72c", "fusion_lon": 0.0, "rental_uris": {"android": "https://dc.lft.to/lastmile_qr_scan", "ios": "https://dc.lft.to/lastmile_qr_scan"}, "name": "ae401be68737780dc68f27b5b10bd72c", "type": "electric_scooter", "lat": 38.926103833333336, "is_disabled": 0}, {"fusion_lat": 0.0, "lon": -77.04224833333333, "is_reserved": 0, "bike_id": "bd81aa4026e551f1648e07e592bf7dbc", "fusion_lon": 0.0, "rental_uris": {"android": "https://dc.lft.to/lastmile_qr_scan", "ios": "https://dc.lft.to/lastmile_qr_scan"}, "name": "bd81aa4026e551f1648e07e592bf7dbc", "type": "electric_scooter", "lat": 38.92165166666667, "is_disabled": 0}, {"fusion_lat": 0.0, "lon": -77.0120115, "is_reserved": 0, "bike_id": "06e78ee1947d7a92478f095a9d3f90e8", "fusion_lon": 0.0, "rental_uris": {"android": "https://dc.lft.to/lastmile_qr_scan", "ios": "https://dc.lft.to/lastmile_qr_scan"}, "name": "06e78ee1947d7a92478f095a9d3f90e8", "type": "electric_bike", "lat": 38.870909833333336, "is_disabled": 0}, {"fusion_lat": 0.0, "lon": -77.02302066666667, "is_reserved": 0, "bike_id": "e034c350ca49bf5d1401266343c56c09", "fusion_lon": 0.0, "rental_uris": {"android": "https://dc.lft.to/lastmile_qr_scan", "ios": "https://dc.lft.to/lastmile_qr_scan"}, "name": "e034c350ca49bf5d1401266343c56c09", "type": "electric_scooter", "lat": 38.927176833333334, "is_disabled": 0}, {"fusion_lat": 0.0, "lon": -77.01294466666667, "is_reserved": 0, "bike_id": "5d485c8c123d1ccc688575fa5b0a0c5c", "fusion_lon": 0.0, "rental_uris": {"android": "https://dc.lft.to/lastmile_qr_scan", "ios": "https://dc.lft.to/lastmile_qr_scan"}, "name": "5d485c8c123d1ccc688575fa5b0a0c5c", "type": "electric_scooter", "lat": 38.90065966666667, "is_disabled": 0}, {"fusion_lat": 0.0, "lon": -77.02568583333333, "is_reserved": 0, "bike_id": "f60b17f22f2f6364d0e00078111d1833", "fusion_lon": 0.0, "rental_uris": {"android": "https://dc.lft.to/lastmile_qr_scan", "ios": "https://dc.lft.to/lastmile_qr_scan"}, "name": "f60b17f22f2f6364d0e00078111d1833", "type": "electric_scooter", "lat": 38.92472083333333, "is_disabled": 0}, {"fusion_lat": 0.0, "lon": -77.01270483333333, "is_reserved": 0, "bike_id": "8bc8b45b17016dbbcfb1f0a7edb310a7", "fusion_lon": 0.0, "rental_uris": {"android": "https://dc.lft.to/lastmile_qr_scan", "ios": "https://dc.lft.to/lastmile_qr_scan"}, "name": "8bc8b45b17016dbbcfb1f0a7edb310a7", "type": "electric_scooter", "lat": 38.91413683333333, "is_disabled": 0}, {"fusion_lat": 0.0, "lon": -76.93374466666667, "is_reserved": 0, "bike_id": "07ebb7a3443de0dbb0dd5a4e50cb5519", "fusion_lon": 0.0, "rental_uris": {"android": "https://dc.lft.to/lastmile_qr_scan", "ios": "https://dc.lft.to/lastmile_qr_scan"}, "name": "07ebb7a3443de0dbb0dd5a4e50cb5519", "type": "electric_scooter", "lat": 38.899128166666664, "is_disabled": 0}, {"fusion_lat": 0.0, "lon": -76.950978, "is_reserved": 0, "bike_id": "2e86867d5654472d96eb101ce2ec7d5f", "fusion_lon": 0.0, "rental_uris": {"android": "https://dc.lft.to/lastmile_qr_scan", "ios": "https://dc.lft.to/lastmile_qr_scan"}, "name": "2e86867d5654472d96eb101ce2ec7d5f", "type": "electric_scooter", "lat": 38.8844885, "is_disabled": 0}, {"fusion_lat": 0.0, "lon": -77.0350505, "is_reserved": 0, "bike_id": "6153a630e45740e4fead034bddab777b", "fusion_lon": 0.0, "rental_uris": {"android": "https://dc.lft.to/lastmile_qr_scan", "ios": "https://dc.lft.to/lastmile_qr_scan"}, "name": "6153a630e45740e4fead034bddab777b", "type": "electric_scooter", "lat": 38.923352666666666, "is_disabled": 0}, {"fusion_lat": 0.0, "lon": -77.08944783333334, "is_reserved": 0, "bike_id": "86c9ac4a090071c1be7a57eddb5858b3", "fusion_lon": 0.0, "rental_uris": {"android": "https://dc.lft.to/lastmile_qr_scan", "ios": "https://dc.lft.to/lastmile_qr_scan"}, "name": "86c9ac4a090071c1be7a57eddb5858b3", "type": "electric_bike", "lat": 38.84109083333333, "is_disabled": 0}, {"fusion_lat": 0.0, "lon": -76.99601683333333, "is_reserved": 0, "bike_id": "584e173ef7a99c774162f78a88715572", "fusion_lon": 0.0, "rental_uris": {"android": "https://dc.lft.to/lastmile_qr_scan", "ios": "https://dc.lft.to/lastmile_qr_scan"}, "name": "584e173ef7a99c774162f78a88715572", "type": "electric_scooter", "lat": 38.8922795, "is_disabled": 0}, {"fusion_lat": 0.0, "lon": -77.02401133333333, "is_reserved": 0, "bike_id": "013c6b2d10496215b042ad7f59f07c50", "fusion_lon": 0.0, "rental_uris": {"android": "https://dc.lft.to/lastmile_qr_scan", "ios": "https://dc.lft.to/lastmile_qr_scan"}, "name": "013c6b2d10496215b042ad7f59f07c50", "type": "electric_scooter", "lat": 38.920044833333336, "is_disabled": 0}, {"fusion_lat": 0.0, "lon": -77.02803566666667, "is_reserved": 0, "bike_id": "0be35f2e5f358626bc36f03ed7029c93", "fusion_lon": 0.0, "rental_uris": {"android": "https://dc.lft.to/lastmile_qr_scan", "ios": "https://dc.lft.to/lastmile_qr_scan"}, "name": "0be35f2e5f358626bc36f03ed7029c93", "type": "electric_scooter", "lat": 38.8952805, "is_disabled": 0}, {"fusion_lat": 0.0, "lon": -77.02906633333333, "is_reserved": 0, "bike_id": "6ffd8215005bf4c84b46d90e2d29e0db", "fusion_lon": 0.0, "rental_uris": {"android": "https://dc.lft.to/lastmile_qr_scan", "ios": "https://dc.lft.to/lastmile_qr_scan"}, "name": "6ffd8215005bf4c84b46d90e2d29e0db", "type": "electric_scooter", "lat": 39.03747933333333, "is_disabled": 0}, {"fusion_lat": 0.0, "lon": -77.00678866666667, "is_reserved": 0, "bike_id": "f9c5b02d13fcda00732ac611da608dc0", "fusion_lon": 0.0, "rental_uris": {"android": "https://dc.lft.to/lastmile_qr_scan", "ios": "https://dc.lft.to/lastmile_qr_scan"}, "name": "f9c5b02d13fcda00732ac611da608dc0", "type": "electric_scooter", "lat": 38.90007633333333, "is_disabled": 0}, {"fusion_lat": 0.0, "lon": -76.987636, "is_reserved": 0, "bike_id": "26f39aa83e6482e9e04f200762231508", "fusion_lon": 0.0, "rental_uris": {"android": "https://dc.lft.to/lastmile_qr_scan", "ios": "https://dc.lft.to/lastmile_qr_scan"}, "name": "26f39aa83e6482e9e04f200762231508", "type": "electric_bike", "lat": 38.85770383333333, "is_disabled": 0}, {"fusion_lat": 0.0, "lon": -77.0735645, "is_reserved": 0, "bike_id": "0124f8b55435a882e4c116f87a9b81d4", "fusion_lon": 0.0, "rental_uris": {"android": "https://dc.lft.to/lastmile_qr_scan", "ios": "https://dc.lft.to/lastmile_qr_scan"}, "name": "0124f8b55435a882e4c116f87a9b81d4", "type": "electric_scooter", "lat": 38.933503, "is_disabled": 0}, {"fusion_lat": 0.0, "lon": -76.99479433333333, "is_reserved": 0, "bike_id": "7f1c6c461d8bd3a4921105e77bfcc14b", "fusion_lon": 0.0, "rental_uris": {"android": "https://dc.lft.to/lastmile_qr_scan", "ios": "https://dc.lft.to/lastmile_qr_scan"}, "name": "7f1c6c461d8bd3a4921105e77bfcc14b", "type": "electric_scooter", "lat": 38.86215283333333, "is_disabled": 0}, {"fusion_lat": 0.0, "lon": -77.04879916666667, "is_reserved": 0, "bike_id": "6ca88b2f04c3482ad913ebf10f647fc4", "fusion_lon": 0.0, "rental_uris": {"android": "https://dc.lft.to/lastmile_qr_scan", "ios": "https://dc.lft.to/lastmile_qr_scan"}, "name": "6ca88b2f04c3482ad913ebf10f647fc4", "type": "electric_scooter", "lat": 38.9155895, "is_disabled": 0}, {"fusion_lat": 0.0, "lon": -76.97424, "is_reserved": 0, "bike_id": "3a765770d1b8c30efe6f8b04e0575f11", "fusion_lon": 0.0, "rental_uris": {"android": "https://dc.lft.to/lastmile_qr_scan", "ios": "https://dc.lft.to/lastmile_qr_scan"}, "name": "3a765770d1b8c30efe6f8b04e0575f11", "type": "electric_scooter", "lat": 38.904511166666666, "is_disabled": 0}, {"fusion_lat": 0.0, "lon": -77.08069833333333, "is_reserved": 0, "bike_id": "2d8bea78f01fd246d74302f3fd99368b", "fusion_lon": 0.0, "rental_uris": {"android": "https://dc.lft.to/lastmile_qr_scan", "ios": "https://dc.lft.to/lastmile_qr_scan"}, "name": "2d8bea78f01fd246d74302f3fd99368b", "type": "electric_bike", "lat": 39.052807666666666, "is_disabled": 0}, {"fusion_lat": 0.0, "lon": -77.0342815, "is_reserved": 0, "bike_id": "8801c8e0563433dab0d8e191af0dca9c", "fusion_lon": 0.0, "rental_uris": {"android": "https://dc.lft.to/lastmile_qr_scan", "ios": "https://dc.lft.to/lastmile_qr_scan"}, "name": "8801c8e0563433dab0d8e191af0dca9c", "type": "electric_bike", "lat": 38.966194333333334, "is_disabled": 0}, {"fusion_lat": 0.0, "lon": -76.97482733333334, "is_reserved": 0, "bike_id": "01a434417839eafc334a113532addf8b", "fusion_lon": 0.0, "rental_uris": {"android": "https://dc.lft.to/lastmile_qr_scan", "ios": "https://dc.lft.to/lastmile_qr_scan"}, "name": "01a434417839eafc334a113532addf8b", "type": "electric_scooter", "lat": 38.903515666666664, "is_disabled": 0}, {"fusion_lat": 0.0, "lon": -77.02336566666666, "is_reserved": 0, "bike_id": "8f5bb889ec50fae54d71240119dd7067", "fusion_lon": 0.0, "rental_uris": {"android": "https://dc.lft.to/lastmile_qr_scan", "ios": "https://dc.lft.to/lastmile_qr_scan"}, "name": "8f5bb889ec50fae54d71240119dd7067", "type": "electric_scooter", "lat": 38.92475616666667, "is_disabled": 0}, {"fusion_lat": 0.0, "lon": -77.04042916666667, "is_reserved": 0, "bike_id": "29b1528f6ef0d41993e9d4d6cb3a9c6b", "fusion_lon": 0.0, "rental_uris": {"android": "https://dc.lft.to/lastmile_qr_scan", "ios": "https://dc.lft.to/lastmile_qr_scan"}, "name": "29b1528f6ef0d41993e9d4d6cb3a9c6b", "type": "electric_scooter", "lat": 38.918612833333334, "is_disabled": 0}, {"fusion_lat": 0.0, "lon": -77.04208516666667, "is_reserved": 0, "bike_id": "13b918ec8cfee1117b08e406ce50e33e", "fusion_lon": 0.0, "rental_uris": {"android": "https://dc.lft.to/lastmile_qr_scan", "ios": "https://dc.lft.to/lastmile_qr_scan"}, "name": "13b918ec8cfee1117b08e406ce50e33e", "type": "electric_scooter", "lat": 38.90639433333333, "is_disabled": 0}, {"fusion_lat": 0.0, "lon": -77.04888716666666, "is_reserved": 0, "bike_id": "8c31aeab0117b27e12aa9f384947f220", "fusion_lon": 0.0, "rental_uris": {"android": "https://dc.lft.to/lastmile_qr_scan", "ios": "https://dc.lft.to/lastmile_qr_scan"}, "name": "8c31aeab0117b27e12aa9f384947f220", "type": "electric_scooter", "lat": 38.909707, "is_disabled": 0}, {"fusion_lat": 0.0, "lon": -77.011336, "is_reserved": 0, "bike_id": "ade9b120b82facc737bc8b8acc499ceb", "fusion_lon": 0.0, "rental_uris": {"android": "https://dc.lft.to/lastmile_qr_scan", "ios": "https://dc.lft.to/lastmile_qr_scan"}, "name": "ade9b120b82facc737bc8b8acc499ceb", "type": "electric_scooter", "lat": 38.9159155, "is_disabled": 0}, {"fusion_lat": 0.0, "lon": -76.99159, "is_reserved": 0, "bike_id": "7440046a1cc6bd69526566b4941309a2", "fusion_lon": 0.0, "rental_uris": {"android": "https://dc.lft.to/lastmile_qr_scan", "ios": "https://dc.lft.to/lastmile_qr_scan"}, "name": "7440046a1cc6bd69526566b4941309a2", "type": "electric_scooter", "lat": 38.88329, "is_disabled": 0}, {"fusion_lat": 0.0, "lon": -77.038646, "is_reserved": 0, "bike_id": "d991a1befe6ebe5751fb61ea2a4824dd", "fusion_lon": 0.0, "rental_uris": {"android": "https://dc.lft.to/lastmile_qr_scan", "ios": "https://dc.lft.to/lastmile_qr_scan"}, "name": "d991a1befe6ebe5751fb61ea2a4824dd", "type": "electric_scooter", "lat": 38.91257916666667, "is_disabled": 0}, {"fusion_lat": 0.0, "lon": -77.03455166666667, "is_reserved": 0, "bike_id": "d0a1efc8069201bc6acef2f9657dc476", "fusion_lon": 0.0, "rental_uris": {"android": "https://dc.lft.to/lastmile_qr_scan", "ios": "https://dc.lft.to/lastmile_qr_scan"}, "name": "d0a1efc8069201bc6acef2f9657dc476", "type": "electric_scooter", "lat": 38.92542133333333, "is_disabled": 0}, {"fusion_lat": 0.0, "lon": -77.04037466666666, "is_reserved": 0, "bike_id": "e413ad67c8b363cee2403016270768eb", "fusion_lon": 0.0, "rental_uris": {"android": "https://dc.lft.to/lastmile_qr_scan", "ios": "https://dc.lft.to/lastmile_qr_scan"}, "name": "e413ad67c8b363cee2403016270768eb", "type": "electric_scooter", "lat": 38.911077, "is_disabled": 0}, {"fusion_lat": 0.0, "lon": -77.02939466666666, "is_reserved": 0, "bike_id": "7e4dfe455d460d4d87e561c3170def65", "fusion_lon": 0.0, "rental_uris": {"android": "https://dc.lft.to/lastmile_qr_scan", "ios": "https://dc.lft.to/lastmile_qr_scan"}, "name": "7e4dfe455d460d4d87e561c3170def65", "type": "electric_scooter", "lat": 38.8999615, "is_disabled": 0}, {"fusion_lat": 0.0, "lon": -77.07793633333333, "is_reserved": 0, "bike_id": "a11a0c26a6789c74fd530c6947599f3b", "fusion_lon": 0.0, "rental_uris": {"android": "https://dc.lft.to/lastmile_qr_scan", "ios": "https://dc.lft.to/lastmile_qr_scan"}, "name": "a11a0c26a6789c74fd530c6947599f3b", "type": "electric_bike", "lat": 38.996019833333335, "is_disabled": 0}, {"fusion_lat": 0.0, "lon": -77.00201716666666, "is_reserved": 0, "bike_id": "da512618c6761ff9b40ef224203c3059", "fusion_lon": 0.0, "rental_uris": {"android": "https://dc.lft.to/lastmile_qr_scan", "ios": "https://dc.lft.to/lastmile_qr_scan"}, "name": "da512618c6761ff9b40ef224203c3059", "type": "electric_scooter", "lat": 38.9023735, "is_disabled": 0}, {"fusion_lat": 0.0, "lon": -76.97008716666667, "is_reserved": 0, "bike_id": "6c71ea9961395f77f336ea8b28f5903d", "fusion_lon": 0.0, "rental_uris": {"android": "https://dc.lft.to/lastmile_qr_scan", "ios": "https://dc.lft.to/lastmile_qr_scan"}, "name": "6c71ea9961395f77f336ea8b28f5903d", "type": "electric_bike", "lat": 38.863633166666666, "is_disabled": 0}, {"fusion_lat": 0.0, "lon": -77.05858033333334, "is_reserved": 0, "bike_id": "207c411d6661de87be301e827f228f92", "fusion_lon": 0.0, "rental_uris": {"android": "https://dc.lft.to/lastmile_qr_scan", "ios": "https://dc.lft.to/lastmile_qr_scan"}, "name": "207c411d6661de87be301e827f228f92", "type": "electric_bike", "lat": 38.936087, "is_disabled": 0}, {"fusion_lat": 0.0, "lon": -76.93736616666666, "is_reserved": 0, "bike_id": "7c71bd4d4fe86977cd422ddbcbba07d3", "fusion_lon": 0.0, "rental_uris": {"android": "https://dc.lft.to/lastmile_qr_scan", "ios": "https://dc.lft.to/lastmile_qr_scan"}, "name": "7c71bd4d4fe86977cd422ddbcbba07d3", "type": "electric_scooter", "lat": 38.89014566666667, "is_disabled": 0}, {"fusion_lat": 0.0, "lon": -77.0444415, "is_reserved": 0, "bike_id": "8c668d3927bbaa213c65e728ada6f40f", "fusion_lon": 0.0, "rental_uris": {"android": "https://dc.lft.to/lastmile_qr_scan", "ios": "https://dc.lft.to/lastmile_qr_scan"}, "name": "8c668d3927bbaa213c65e728ada6f40f", "type": "electric_scooter", "lat": 38.92134083333333, "is_disabled": 0}, {"fusion_lat": 0.0, "lon": -77.01199283333334, "is_reserved": 0, "bike_id": "ebeb0659d4ce7cd68ffa28d72c47dcfc", "fusion_lon": 0.0, "rental_uris": {"android": "https://dc.lft.to/lastmile_qr_scan", "ios": "https://dc.lft.to/lastmile_qr_scan"}, "name": "ebeb0659d4ce7cd68ffa28d72c47dcfc", "type": "electric_scooter", "lat": 38.89315283333333, "is_disabled": 0}, {"fusion_lat": 0.0, "lon": -76.99794666666666, "is_reserved": 0, "bike_id": "ba19792f38c20fdb0288bde4e394cdac", "fusion_lon": 0.0, "rental_uris": {"android": "https://dc.lft.to/lastmile_qr_scan", "ios": "https://dc.lft.to/lastmile_qr_scan"}, "name": "ba19792f38c20fdb0288bde4e394cdac", "type": "electric_scooter", "lat": 38.9105595, "is_disabled": 0}, {"fusion_lat": 0.0, "lon": -76.99531816666666, "is_reserved": 0, "bike_id": "0c1bd07d9e2bacdf5c7b8e43104bbd46", "fusion_lon": 0.0, "rental_uris": {"android": "https://dc.lft.to/lastmile_qr_scan", "ios": "https://dc.lft.to/lastmile_qr_scan"}, "name": "0c1bd07d9e2bacdf5c7b8e43104bbd46", "type": "electric_scooter", "lat": 38.86207, "is_disabled": 0}, {"fusion_lat": 0.0, "lon": -77.0295015, "is_reserved": 0, "bike_id": "d6b08af7cc130c9a1130d7c260631289", "fusion_lon": 0.0, "rental_uris": {"android": "https://dc.lft.to/lastmile_qr_scan", "ios": "https://dc.lft.to/lastmile_qr_scan"}, "name": "d6b08af7cc130c9a1130d7c260631289", "type": "electric_scooter", "lat": 38.91684216666667, "is_disabled": 0}, {"fusion_lat": 0.0, "lon": -77.05753033333333, "is_reserved": 0, "bike_id": "d414368af12a773540ea222178ae1b9c", "fusion_lon": 0.0, "rental_uris": {"android": "https://dc.lft.to/lastmile_qr_scan", "ios": "https://dc.lft.to/lastmile_qr_scan"}, "name": "d414368af12a773540ea222178ae1b9c", "type": "electric_scooter", "lat": 38.93386783333333, "is_disabled": 0}, {"fusion_lat": 0.0, "lon": -77.00339566666666, "is_reserved": 0, "bike_id": "3560c895f21a3f74ca7d6bde740cde99", "fusion_lon": 0.0, "rental_uris": {"android": "https://dc.lft.to/lastmile_qr_scan", "ios": "https://dc.lft.to/lastmile_qr_scan"}, "name": "3560c895f21a3f74ca7d6bde740cde99", "type": "electric_scooter", "lat": 38.89525783333333, "is_disabled": 0}, {"fusion_lat": 0.0, "lon": -77.02495733333333, "is_reserved": 0, "bike_id": "f354276c64bc289e4b814a9576c0f34b", "fusion_lon": 0.0, "rental_uris": {"android": "https://dc.lft.to/lastmile_qr_scan", "ios": "https://dc.lft.to/lastmile_qr_scan"}, "name": "f354276c64bc289e4b814a9576c0f34b", "type": "electric_scooter", "lat": 38.937525666666666, "is_disabled": 0}, {"fusion_lat": 0.0, "lon": -77.06273766666666, "is_reserved": 0, "bike_id": "3e0556e29db827991c5a72d27c94e8f4", "fusion_lon": 0.0, "rental_uris": {"android": "https://dc.lft.to/lastmile_qr_scan", "ios": "https://dc.lft.to/lastmile_qr_scan"}, "name": "3e0556e29db827991c5a72d27c94e8f4", "type": "electric_scooter", "lat": 38.905837166666664, "is_disabled": 0}, {"fusion_lat": 0.0, "lon": -77.01527233333333, "is_reserved": 0, "bike_id": "9b1f42403f150720a0ea4847410da2ad", "fusion_lon": 0.0, "rental_uris": {"android": "https://dc.lft.to/lastmile_qr_scan", "ios": "https://dc.lft.to/lastmile_qr_scan"}, "name": "9b1f42403f150720a0ea4847410da2ad", "type": "electric_bike", "lat": 38.91868933333333, "is_disabled": 0}, {"fusion_lat": 0.0, "lon": -76.9993505, "is_reserved": 0, "bike_id": "267825effdab8f79045d88024077dcb5", "fusion_lon": 0.0, "rental_uris": {"android": "https://dc.lft.to/lastmile_qr_scan", "ios": "https://dc.lft.to/lastmile_qr_scan"}, "name": "267825effdab8f79045d88024077dcb5", "type": "electric_scooter", "lat": 38.842973666666666, "is_disabled": 0}, {"fusion_lat": 0.0, "lon": -77.0089175, "is_reserved": 0, "bike_id": "a7763e651830b2f3c6dbadc8f08aa96d", "fusion_lon": 0.0, "rental_uris": {"android": "https://dc.lft.to/lastmile_qr_scan", "ios": "https://dc.lft.to/lastmile_qr_scan"}, "name": "a7763e651830b2f3c6dbadc8f08aa96d", "type": "electric_bike", "lat": 38.9057575, "is_disabled": 0}, {"fusion_lat": 0.0, "lon": -76.94871183333333, "is_reserved": 0, "bike_id": "1174a7a82ab0d01b7e7bdb2574fa1da2", "fusion_lon": 0.0, "rental_uris": {"android": "https://dc.lft.to/lastmile_qr_scan", "ios": "https://dc.lft.to/lastmile_qr_scan"}, "name": "1174a7a82ab0d01b7e7bdb2574fa1da2", "type": "electric_scooter", "lat": 38.895473833333334, "is_disabled": 0}, {"fusion_lat": 0.0, "lon": -76.998554, "is_reserved": 0, "bike_id": "65916efa33ace921d87addfd4aef1ec7", "fusion_lon": 0.0, "rental_uris": {"android": "https://dc.lft.to/lastmile_qr_scan", "ios": "https://dc.lft.to/lastmile_qr_scan"}, "name": "65916efa33ace921d87addfd4aef1ec7", "type": "electric_scooter", "lat": 38.90010183333333, "is_disabled": 0}, {"fusion_lat": 0.0, "lon": -77.073288, "is_reserved": 0, "bike_id": "6770ac22b4eae5102973b99eb927ace5", "fusion_lon": 0.0, "rental_uris": {"android": "https://dc.lft.to/lastmile_qr_scan", "ios": "https://dc.lft.to/lastmile_qr_scan"}, "name": "6770ac22b4eae5102973b99eb927ace5", "type": "electric_scooter", "lat": 38.9260625, "is_disabled": 0}, {"fusion_lat": 0.0, "lon": -77.01078716666666, "is_reserved": 0, "bike_id": "aabdd45a323a5dc2971df4637961aab8", "fusion_lon": 0.0, "rental_uris": {"android": "https://dc.lft.to/lastmile_qr_scan", "ios": "https://dc.lft.to/lastmile_qr_scan"}, "name": "aabdd45a323a5dc2971df4637961aab8", "type": "electric_scooter", "lat": 38.91768866666666, "is_disabled": 0}, {"fusion_lat": 0.0, "lon": -77.01867083333333, "is_reserved": 0, "bike_id": "b26c4b6069afc28cf3a94fde0d970485", "fusion_lon": 0.0, "rental_uris": {"android": "https://dc.lft.to/lastmile_qr_scan", "ios": "https://dc.lft.to/lastmile_qr_scan"}, "name": "b26c4b6069afc28cf3a94fde0d970485", "type": "electric_scooter", "lat": 38.973693, "is_disabled": 0}, {"fusion_lat": 0.0, "lon": -76.99644766666667, "is_reserved": 0, "bike_id": "657408a9daecef2d3624266a6c6ddc93", "fusion_lon": 0.0, "rental_uris": {"android": "https://dc.lft.to/lastmile_qr_scan", "ios": "https://dc.lft.to/lastmile_qr_scan"}, "name": "657408a9daecef2d3624266a6c6ddc93", "type": "electric_scooter", "lat": 38.90023633333333, "is_disabled": 0}, {"fusion_lat": 0.0, "lon": -77.04197133333334, "is_reserved": 0, "bike_id": "c3b4edf0b081be2c1ee4c822430bbb39", "fusion_lon": 0.0, "rental_uris": {"android": "https://dc.lft.to/lastmile_qr_scan", "ios": "https://dc.lft.to/lastmile_qr_scan"}, "name": "c3b4edf0b081be2c1ee4c822430bbb39", "type": "electric_scooter", "lat": 38.919697166666666, "is_disabled": 0}, {"fusion_lat": 0.0, "lon": -77.0198035, "is_reserved": 0, "bike_id": "f2fd9007d52289f491cdac4a712d6cf6", "fusion_lon": 0.0, "rental_uris": {"android": "https://dc.lft.to/lastmile_qr_scan", "ios": "https://dc.lft.to/lastmile_qr_scan"}, "name": "f2fd9007d52289f491cdac4a712d6cf6", "type": "electric_scooter", "lat": 38.9127365, "is_disabled": 0}, {"fusion_lat": 0.0, "lon": -77.01982666666666, "is_reserved": 0, "bike_id": "01020c9d665e69c5f0cc1de63e5d202f", "fusion_lon": 0.0, "rental_uris": {"android": "https://dc.lft.to/lastmile_qr_scan", "ios": "https://dc.lft.to/lastmile_qr_scan"}, "name": "01020c9d665e69c5f0cc1de63e5d202f", "type": "electric_scooter", "lat": 38.91097516666667, "is_disabled": 0}, {"fusion_lat": 0.0, "lon": -77.01038033333333, "is_reserved": 0, "bike_id": "91eb578e68857f97a9fda2b2e43ef46c", "fusion_lon": 0.0, "rental_uris": {"android": "https://dc.lft.to/lastmile_qr_scan", "ios": "https://dc.lft.to/lastmile_qr_scan"}, "name": "91eb578e68857f97a9fda2b2e43ef46c", "type": "electric_scooter", "lat": 38.919138333333336, "is_disabled": 0}, {"fusion_lat": 0.0, "lon": -76.9809375, "is_reserved": 0, "bike_id": "2311123e1f3d5553188267ff08a672c9", "fusion_lon": 0.0, "rental_uris": {"android": "https://dc.lft.to/lastmile_qr_scan", "ios": "https://dc.lft.to/lastmile_qr_scan"}, "name": "2311123e1f3d5553188267ff08a672c9", "type": "electric_bike", "lat": 38.95356483333333, "is_disabled": 0}, {"fusion_lat": 0.0, "lon": -77.02371266666667, "is_reserved": 0, "bike_id": "8f3ff0a2bbe97ac240636c71a043d6e2", "fusion_lon": 0.0, "rental_uris": {"android": "https://dc.lft.to/lastmile_qr_scan", "ios": "https://dc.lft.to/lastmile_qr_scan"}, "name": "8f3ff0a2bbe97ac240636c71a043d6e2", "type": "electric_scooter", "lat": 38.919973166666665, "is_disabled": 0}, {"fusion_lat": 0.0, "lon": -77.0261545, "is_reserved": 0, "bike_id": "c21c3a7835b0798c309d36bc5d8904f4", "fusion_lon": 0.0, "rental_uris": {"android": "https://dc.lft.to/lastmile_qr_scan", "ios": "https://dc.lft.to/lastmile_qr_scan"}, "name": "c21c3a7835b0798c309d36bc5d8904f4", "type": "electric_scooter", "lat": 38.908644833333334, "is_disabled": 0}, {"fusion_lat": 0.0, "lon": -77.031371, "is_reserved": 0, "bike_id": "2d1ef1ecf25de06c89eba144316a3122", "fusion_lon": 0.0, "rental_uris": {"android": "https://dc.lft.to/lastmile_qr_scan", "ios": "https://dc.lft.to/lastmile_qr_scan"}, "name": "2d1ef1ecf25de06c89eba144316a3122", "type": "electric_scooter", "lat": 38.9256865, "is_disabled": 0}, {"fusion_lat": 0.0, "lon": -77.01362533333334, "is_reserved": 0, "bike_id": "693f08b05a87054b16e8c263884ec644", "fusion_lon": 0.0, "rental_uris": {"android": "https://dc.lft.to/lastmile_qr_scan", "ios": "https://dc.lft.to/lastmile_qr_scan"}, "name": "693f08b05a87054b16e8c263884ec644", "type": "electric_scooter", "lat": 38.86975133333333, "is_disabled": 0}, {"fusion_lat": 0.0, "lon": -77.03513116666667, "is_reserved": 0, "bike_id": "4ca831fae55b41d2548897efefc6ea4f", "fusion_lon": 0.0, "rental_uris": {"android": "https://dc.lft.to/lastmile_qr_scan", "ios": "https://dc.lft.to/lastmile_qr_scan"}, "name": "4ca831fae55b41d2548897efefc6ea4f", "type": "electric_scooter", "lat": 38.92151583333333, "is_disabled": 0}, {"fusion_lat": 0.0, "lon": -77.0216415, "is_reserved": 0, "bike_id": "36c47e97d68dabf78fa9d1e015d6637a", "fusion_lon": 0.0, "rental_uris": {"android": "https://dc.lft.to/lastmile_qr_scan", "ios": "https://dc.lft.to/lastmile_qr_scan"}, "name": "36c47e97d68dabf78fa9d1e015d6637a", "type": "electric_scooter", "lat": 38.92611933333333, "is_disabled": 0}, {"fusion_lat": 0.0, "lon": -76.99550283333333, "is_reserved": 0, "bike_id": "c84fc67708bb8b116290cfab58bc4cb2", "fusion_lon": 0.0, "rental_uris": {"android": "https://dc.lft.to/lastmile_qr_scan", "ios": "https://dc.lft.to/lastmile_qr_scan"}, "name": "c84fc67708bb8b116290cfab58bc4cb2", "type": "electric_scooter", "lat": 38.862587833333336, "is_disabled": 0}, {"fusion_lat": 0.0, "lon": -77.04879733333334, "is_reserved": 0, "bike_id": "4b70dbd15cfddff3abda490d2db511e5", "fusion_lon": 0.0, "rental_uris": {"android": "https://dc.lft.to/lastmile_qr_scan", "ios": "https://dc.lft.to/lastmile_qr_scan"}, "name": "4b70dbd15cfddff3abda490d2db511e5", "type": "electric_scooter", "lat": 38.90971, "is_disabled": 0}, {"fusion_lat": 0.0, "lon": -76.93131216666667, "is_reserved": 0, "bike_id": "6b682645ceed447ef4efea7c83ec9817", "fusion_lon": 0.0, "rental_uris": {"android": "https://dc.lft.to/lastmile_qr_scan", "ios": "https://dc.lft.to/lastmile_qr_scan"}, "name": "6b682645ceed447ef4efea7c83ec9817", "type": "electric_scooter", "lat": 38.87610266666667, "is_disabled": 0}, {"fusion_lat": 0.0, "lon": -77.02545816666667, "is_reserved": 0, "bike_id": "4571a2001d976edc521bec3a564787a3", "fusion_lon": 0.0, "rental_uris": {"android": "https://dc.lft.to/lastmile_qr_scan", "ios": "https://dc.lft.to/lastmile_qr_scan"}, "name": "4571a2001d976edc521bec3a564787a3", "type": "electric_scooter", "lat": 38.90719966666666, "is_disabled": 0}, {"fusion_lat": 0.0, "lon": -77.02361583333334, "is_reserved": 0, "bike_id": "f14aa0e558cdbccf860eabe8cde0892d", "fusion_lon": 0.0, "rental_uris": {"android": "https://dc.lft.to/lastmile_qr_scan", "ios": "https://dc.lft.to/lastmile_qr_scan"}, "name": "f14aa0e558cdbccf860eabe8cde0892d", "type": "electric_scooter", "lat": 38.892213166666664, "is_disabled": 0}, {"fusion_lat": 0.0, "lon": -77.03917716666666, "is_reserved": 0, "bike_id": "f8cf1c7a90042327ad81f02982066a57", "fusion_lon": 0.0, "rental_uris": {"android": "https://dc.lft.to/lastmile_qr_scan", "ios": "https://dc.lft.to/lastmile_qr_scan"}, "name": "f8cf1c7a90042327ad81f02982066a57", "type": "electric_scooter", "lat": 38.92311566666667, "is_disabled": 0}, {"fusion_lat": 0.0, "lon": -76.9954915, "is_reserved": 0, "bike_id": "fa3c3209cf692fd1608be0735ed10042", "fusion_lon": 0.0, "rental_uris": {"android": "https://dc.lft.to/lastmile_qr_scan", "ios": "https://dc.lft.to/lastmile_qr_scan"}, "name": "fa3c3209cf692fd1608be0735ed10042", "type": "electric_scooter", "lat": 38.92670966666667, "is_disabled": 0}, {"fusion_lat": 0.0, "lon": -77.04880266666666, "is_reserved": 0, "bike_id": "22ea031f507cefde3df1d70de4dcadd4", "fusion_lon": 0.0, "rental_uris": {"android": "https://dc.lft.to/lastmile_qr_scan", "ios": "https://dc.lft.to/lastmile_qr_scan"}, "name": "22ea031f507cefde3df1d70de4dcadd4", "type": "electric_scooter", "lat": 38.90109483333333, "is_disabled": 0}, {"fusion_lat": 0.0, "lon": -77.03257366666666, "is_reserved": 0, "bike_id": "53bc60a59a9dec44feea427997ccb38e", "fusion_lon": 0.0, "rental_uris": {"android": "https://dc.lft.to/lastmile_qr_scan", "ios": "https://dc.lft.to/lastmile_qr_scan"}, "name": "53bc60a59a9dec44feea427997ccb38e", "type": "electric_scooter", "lat": 38.923619, "is_disabled": 0}, {"fusion_lat": 0.0, "lon": -76.95148483333334, "is_reserved": 0, "bike_id": "42d0675f2fcb60050045d9ea686f56fb", "fusion_lon": 0.0, "rental_uris": {"android": "https://dc.lft.to/lastmile_qr_scan", "ios": "https://dc.lft.to/lastmile_qr_scan"}, "name": "42d0675f2fcb60050045d9ea686f56fb", "type": "electric_scooter", "lat": 38.890362, "is_disabled": 0}, {"fusion_lat": 0.0, "lon": -77.02630366666666, "is_reserved": 0, "bike_id": "e4c1449111dec15bace375597620cab4", "fusion_lon": 0.0, "rental_uris": {"android": "https://dc.lft.to/lastmile_qr_scan", "ios": "https://dc.lft.to/lastmile_qr_scan"}, "name": "e4c1449111dec15bace375597620cab4", "type": "electric_bike", "lat": 38.96214533333333, "is_disabled": 0}, {"fusion_lat": 0.0, "lon": -77.36094683333333, "is_reserved": 0, "bike_id": "da83cc4ea04324952014ae4d92b9a13c", "fusion_lon": 0.0, "rental_uris": {"android": "https://dc.lft.to/lastmile_qr_scan", "ios": "https://dc.lft.to/lastmile_qr_scan"}, "name": "da83cc4ea04324952014ae4d92b9a13c", "type": "electric_bike", "lat": 38.9395525, "is_disabled": 0}, {"fusion_lat": 0.0, "lon": -77.028974, "is_reserved": 0, "bike_id": "49bc6e1f5883f2903266531fda72c1b4", "fusion_lon": 0.0, "rental_uris": {"android": "https://dc.lft.to/lastmile_qr_scan", "ios": "https://dc.lft.to/lastmile_qr_scan"}, "name": "49bc6e1f5883f2903266531fda72c1b4", "type": "electric_scooter", "lat": 38.93984483333333, "is_disabled": 0}, {"fusion_lat": 0.0, "lon": -77.00402933333334, "is_reserved": 0, "bike_id": "1ba55ddff104be6b351d2dd89c1732a5", "fusion_lon": 0.0, "rental_uris": {"android": "https://dc.lft.to/lastmile_qr_scan", "ios": "https://dc.lft.to/lastmile_qr_scan"}, "name": "1ba55ddff104be6b351d2dd89c1732a5", "type": "electric_scooter", "lat": 38.92132383333333, "is_disabled": 0}, {"fusion_lat": 0.0, "lon": -76.986144, "is_reserved": 0, "bike_id": "37293e42bce2545ce4ce239767017c47", "fusion_lon": 0.0, "rental_uris": {"android": "https://dc.lft.to/lastmile_qr_scan", "ios": "https://dc.lft.to/lastmile_qr_scan"}, "name": "37293e42bce2545ce4ce239767017c47", "type": "electric_scooter", "lat": 38.9382675, "is_disabled": 0}, {"fusion_lat": 0.0, "lon": -77.03974366666667, "is_reserved": 0, "bike_id": "5dc5dcd5d0deffbbd7634560012f3069", "fusion_lon": 0.0, "rental_uris": {"android": "https://dc.lft.to/lastmile_qr_scan", "ios": "https://dc.lft.to/lastmile_qr_scan"}, "name": "5dc5dcd5d0deffbbd7634560012f3069", "type": "electric_scooter", "lat": 38.9202135, "is_disabled": 0}, {"fusion_lat": 0.0, "lon": -76.97704466666667, "is_reserved": 0, "bike_id": "ba23872aec26c8d15c31c9e25eb045b0", "fusion_lon": 0.0, "rental_uris": {"android": "https://dc.lft.to/lastmile_qr_scan", "ios": "https://dc.lft.to/lastmile_qr_scan"}, "name": "ba23872aec26c8d15c31c9e25eb045b0", "type": "electric_bike", "lat": 38.949152166666664, "is_disabled": 0}, {"fusion_lat": 0.0, "lon": -77.04881766666666, "is_reserved": 0, "bike_id": "e840a664e4a64086fc3f03afc4a35f16", "fusion_lon": 0.0, "rental_uris": {"android": "https://dc.lft.to/lastmile_qr_scan", "ios": "https://dc.lft.to/lastmile_qr_scan"}, "name": "e840a664e4a64086fc3f03afc4a35f16", "type": "electric_scooter", "lat": 38.909716333333336, "is_disabled": 0}, {"fusion_lat": 0.0, "lon": -77.02680933333333, "is_reserved": 0, "bike_id": "0925c6fdaa2b8e2d68f0595e56063799", "fusion_lon": 0.0, "rental_uris": {"android": "https://dc.lft.to/lastmile_qr_scan", "ios": "https://dc.lft.to/lastmile_qr_scan"}, "name": "0925c6fdaa2b8e2d68f0595e56063799", "type": "electric_scooter", "lat": 38.901108, "is_disabled": 0}, {"fusion_lat": 0.0, "lon": -77.006022, "is_reserved": 0, "bike_id": "b5a4a64f3ff6540e5b0d9aec516f2463", "fusion_lon": 0.0, "rental_uris": {"android": "https://dc.lft.to/lastmile_qr_scan", "ios": "https://dc.lft.to/lastmile_qr_scan"}, "name": "b5a4a64f3ff6540e5b0d9aec516f2463", "type": "electric_scooter", "lat": 38.88519083333333, "is_disabled": 0}, {"fusion_lat": 0.0, "lon": -77.0268385, "is_reserved": 0, "bike_id": "842d3d35695ff75394cbe90c47914be9", "fusion_lon": 0.0, "rental_uris": {"android": "https://dc.lft.to/lastmile_qr_scan", "ios": "https://dc.lft.to/lastmile_qr_scan"}, "name": "842d3d35695ff75394cbe90c47914be9", "type": "electric_scooter", "lat": 38.9023145, "is_disabled": 0}, {"fusion_lat": 0.0, "lon": -77.01752466666667, "is_reserved": 0, "bike_id": "d351140000e499492c0c0061e49f9d69", "fusion_lon": 0.0, "rental_uris": {"android": "https://dc.lft.to/lastmile_qr_scan", "ios": "https://dc.lft.to/lastmile_qr_scan"}, "name": "d351140000e499492c0c0061e49f9d69", "type": "electric_scooter", "lat": 38.88330283333333, "is_disabled": 0}, {"fusion_lat": 0.0, "lon": -77.02365566666667, "is_reserved": 0, "bike_id": "3c3afbcb276ecd1a693005ba80e6e8c0", "fusion_lon": 0.0, "rental_uris": {"android": "https://dc.lft.to/lastmile_qr_scan", "ios": "https://dc.lft.to/lastmile_qr_scan"}, "name": "3c3afbcb276ecd1a693005ba80e6e8c0", "type": "electric_scooter", "lat": 38.89222816666667, "is_disabled": 0}, {"fusion_lat": 0.0, "lon": -76.91103766666667, "is_reserved": 0, "bike_id": "b47c49643822064626db1e4bbb4947ef", "fusion_lon": 0.0, "rental_uris": {"android": "https://dc.lft.to/lastmile_qr_scan", "ios": "https://dc.lft.to/lastmile_qr_scan"}, "name": "b47c49643822064626db1e4bbb4947ef", "type": "electric_bike", "lat": 39.01055383333333, "is_disabled": 0}, {"fusion_lat": 0.0, "lon": -77.03814466666667, "is_reserved": 0, "bike_id": "203f5d8e885e23c7188000103494e990", "fusion_lon": 0.0, "rental_uris": {"android": "https://dc.lft.to/lastmile_qr_scan", "ios": "https://dc.lft.to/lastmile_qr_scan"}, "name": "203f5d8e885e23c7188000103494e990", "type": "electric_scooter", "lat": 38.914161166666666, "is_disabled": 0}, {"fusion_lat": 0.0, "lon": -77.01932883333333, "is_reserved": 0, "bike_id": "343051c0689f55c2ea945cd6421d7d88", "fusion_lon": 0.0, "rental_uris": {"android": "https://dc.lft.to/lastmile_qr_scan", "ios": "https://dc.lft.to/lastmile_qr_scan"}, "name": "343051c0689f55c2ea945cd6421d7d88", "type": "electric_scooter", "lat": 38.90550983333333, "is_disabled": 0}, {"fusion_lat": 0.0, "lon": -77.0251585, "is_reserved": 0, "bike_id": "f0fc7ac8303003befc3b445ad27e3e62", "fusion_lon": 0.0, "rental_uris": {"android": "https://dc.lft.to/lastmile_qr_scan", "ios": "https://dc.lft.to/lastmile_qr_scan"}, "name": "f0fc7ac8303003befc3b445ad27e3e62", "type": "electric_scooter", "lat": 38.930888833333334, "is_disabled": 0}, {"fusion_lat": 0.0, "lon": -77.029528, "is_reserved": 0, "bike_id": "d8146ddaa733a6d926c18e0b50e73739", "fusion_lon": 0.0, "rental_uris": {"android": "https://dc.lft.to/lastmile_qr_scan", "ios": "https://dc.lft.to/lastmile_qr_scan"}, "name": "d8146ddaa733a6d926c18e0b50e73739", "type": "electric_scooter", "lat": 38.9049985, "is_disabled": 0}, {"fusion_lat": 0.0, "lon": -76.9851185, "is_reserved": 0, "bike_id": "47f575b66763eff1742db19b448c6ac5", "fusion_lon": 0.0, "rental_uris": {"android": "https://dc.lft.to/lastmile_qr_scan", "ios": "https://dc.lft.to/lastmile_qr_scan"}, "name": "47f575b66763eff1742db19b448c6ac5", "type": "electric_scooter", "lat": 38.8665725, "is_disabled": 0}, {"fusion_lat": 0.0, "lon": -77.05128616666667, "is_reserved": 0, "bike_id": "a7ca6b75b5ad3e6242d3ec70b7d155a8", "fusion_lon": 0.0, "rental_uris": {"android": "https://dc.lft.to/lastmile_qr_scan", "ios": "https://dc.lft.to/lastmile_qr_scan"}, "name": "a7ca6b75b5ad3e6242d3ec70b7d155a8", "type": "electric_scooter", "lat": 38.90508616666666, "is_disabled": 0}, {"fusion_lat": 0.0, "lon": -77.03471416666666, "is_reserved": 0, "bike_id": "0b3dc547b9f843b04aa90d767f21b16e", "fusion_lon": 0.0, "rental_uris": {"android": "https://dc.lft.to/lastmile_qr_scan", "ios": "https://dc.lft.to/lastmile_qr_scan"}, "name": "0b3dc547b9f843b04aa90d767f21b16e", "type": "electric_scooter", "lat": 38.90812183333333, "is_disabled": 0}, {"fusion_lat": 0.0, "lon": -76.93197316666667, "is_reserved": 0, "bike_id": "738ea8b44d2dd18965eaf03385b359d1", "fusion_lon": 0.0, "rental_uris": {"android": "https://dc.lft.to/lastmile_qr_scan", "ios": "https://dc.lft.to/lastmile_qr_scan"}, "name": "738ea8b44d2dd18965eaf03385b359d1", "type": "electric_scooter", "lat": 38.898788, "is_disabled": 0}, {"fusion_lat": 0.0, "lon": -76.98557483333333, "is_reserved": 0, "bike_id": "a2665b89cd6802aa95196cdd8866d8b8", "fusion_lon": 0.0, "rental_uris": {"android": "https://dc.lft.to/lastmile_qr_scan", "ios": "https://dc.lft.to/lastmile_qr_scan"}, "name": "a2665b89cd6802aa95196cdd8866d8b8", "type": "electric_scooter", "lat": 38.910312833333336, "is_disabled": 0}, {"fusion_lat": 0.0, "lon": -77.03941466666667, "is_reserved": 0, "bike_id": "8dffb647e9dfff351f7a31d640afe14b", "fusion_lon": 0.0, "rental_uris": {"android": "https://dc.lft.to/lastmile_qr_scan", "ios": "https://dc.lft.to/lastmile_qr_scan"}, "name": "8dffb647e9dfff351f7a31d640afe14b", "type": "electric_scooter", "lat": 38.89707216666667, "is_disabled": 0}, {"fusion_lat": 0.0, "lon": -77.04481533333333, "is_reserved": 0, "bike_id": "8410278c85c515852a5ac1e4fb376a3d", "fusion_lon": 0.0, "rental_uris": {"android": "https://dc.lft.to/lastmile_qr_scan", "ios": "https://dc.lft.to/lastmile_qr_scan"}, "name": "8410278c85c515852a5ac1e4fb376a3d", "type": "electric_scooter", "lat": 38.918661, "is_disabled": 0}, {"fusion_lat": 0.0, "lon": -76.92375666666666, "is_reserved": 0, "bike_id": "db3c189de407a7d504585adfffd44448", "fusion_lon": 0.0, "rental_uris": {"android": "https://dc.lft.to/lastmile_qr_scan", "ios": "https://dc.lft.to/lastmile_qr_scan"}, "name": "db3c189de407a7d504585adfffd44448", "type": "electric_bike", "lat": 38.88373383333333, "is_disabled": 0}, {"fusion_lat": 0.0, "lon": -76.93544833333333, "is_reserved": 0, "bike_id": "cb029494d31d553a2d55b317e120afc4", "fusion_lon": 0.0, "rental_uris": {"android": "https://dc.lft.to/lastmile_qr_scan", "ios": "https://dc.lft.to/lastmile_qr_scan"}, "name": "cb029494d31d553a2d55b317e120afc4", "type": "electric_bike", "lat": 38.95547533333333, "is_disabled": 0}, {"fusion_lat": 0.0, "lon": -77.07145333333334, "is_reserved": 0, "bike_id": "5036c3c7f09e9c33e404be098c61d91d", "fusion_lon": 0.0, "rental_uris": {"android": "https://dc.lft.to/lastmile_qr_scan", "ios": "https://dc.lft.to/lastmile_qr_scan"}, "name": "5036c3c7f09e9c33e404be098c61d91d", "type": "electric_scooter", "lat": 38.92028216666667, "is_disabled": 0}, {"fusion_lat": 0.0, "lon": -77.03181033333334, "is_reserved": 0, "bike_id": "9f95efca84c3513e870f5e46d23f24e2", "fusion_lon": 0.0, "rental_uris": {"android": "https://dc.lft.to/lastmile_qr_scan", "ios": "https://dc.lft.to/lastmile_qr_scan"}, "name": "9f95efca84c3513e870f5e46d23f24e2", "type": "electric_bike", "lat": 38.92109266666667, "is_disabled": 0}, {"fusion_lat": 0.0, "lon": -76.99612333333333, "is_reserved": 0, "bike_id": "953006cdb84416581dd690fb981ada42", "fusion_lon": 0.0, "rental_uris": {"android": "https://dc.lft.to/lastmile_qr_scan", "ios": "https://dc.lft.to/lastmile_qr_scan"}, "name": "953006cdb84416581dd690fb981ada42", "type": "electric_scooter", "lat": 38.88697483333333, "is_disabled": 0}, {"fusion_lat": 0.0, "lon": -77.035959, "is_reserved": 0, "bike_id": "18bc51704a1406867cffaa0720109e68", "fusion_lon": 0.0, "rental_uris": {"android": "https://dc.lft.to/lastmile_qr_scan", "ios": "https://dc.lft.to/lastmile_qr_scan"}, "name": "18bc51704a1406867cffaa0720109e68", "type": "electric_scooter", "lat": 38.936729, "is_disabled": 0}, {"fusion_lat": 0.0, "lon": -77.02386416666667, "is_reserved": 0, "bike_id": "93c729e308da2d50a5714ab0dd77fe5c", "fusion_lon": 0.0, "rental_uris": {"android": "https://dc.lft.to/lastmile_qr_scan", "ios": "https://dc.lft.to/lastmile_qr_scan"}, "name": "93c729e308da2d50a5714ab0dd77fe5c", "type": "electric_scooter", "lat": 38.9080515, "is_disabled": 0}, {"fusion_lat": 0.0, "lon": -77.02382483333334, "is_reserved": 0, "bike_id": "4d62dac8b92e007b0dd75e2db88ceea1", "fusion_lon": 0.0, "rental_uris": {"android": "https://dc.lft.to/lastmile_qr_scan", "ios": "https://dc.lft.to/lastmile_qr_scan"}, "name": "4d62dac8b92e007b0dd75e2db88ceea1", "type": "electric_scooter", "lat": 38.90955066666667, "is_disabled": 0}, {"fusion_lat": 0.0, "lon": -77.04668533333333, "is_reserved": 0, "bike_id": "59885139b0138393478cbc3b3dd778d3", "fusion_lon": 0.0, "rental_uris": {"android": "https://dc.lft.to/lastmile_qr_scan", "ios": "https://dc.lft.to/lastmile_qr_scan"}, "name": "59885139b0138393478cbc3b3dd778d3", "type": "electric_scooter", "lat": 38.90732766666667, "is_disabled": 0}, {"fusion_lat": 0.0, "lon": -77.02177666666667, "is_reserved": 0, "bike_id": "1bc4caec86f8871e084684f2e73e3ed7", "fusion_lon": 0.0, "rental_uris": {"android": "https://dc.lft.to/lastmile_qr_scan", "ios": "https://dc.lft.to/lastmile_qr_scan"}, "name": "1bc4caec86f8871e084684f2e73e3ed7", "type": "electric_scooter", "lat": 38.909493499999996, "is_disabled": 0}, {"fusion_lat": 0.0, "lon": -77.04334316666667, "is_reserved": 0, "bike_id": "0048ca00243129db3706dc5b6cbb28e7", "fusion_lon": 0.0, "rental_uris": {"android": "https://dc.lft.to/lastmile_qr_scan", "ios": "https://dc.lft.to/lastmile_qr_scan"}, "name": "0048ca00243129db3706dc5b6cbb28e7", "type": "electric_scooter", "lat": 38.90873966666667, "is_disabled": 0}, {"fusion_lat": 0.0, "lon": -77.0284835, "is_reserved": 0, "bike_id": "f73c6e86ffedb484086f42ee9982f353", "fusion_lon": 0.0, "rental_uris": {"android": "https://dc.lft.to/lastmile_qr_scan", "ios": "https://dc.lft.to/lastmile_qr_scan"}, "name": "f73c6e86ffedb484086f42ee9982f353", "type": "electric_scooter", "lat": 38.912669333333334, "is_disabled": 0}, {"fusion_lat": 0.0, "lon": -77.01760566666667, "is_reserved": 0, "bike_id": "74df912793013127e421998813b0a78b", "fusion_lon": 0.0, "rental_uris": {"android": "https://dc.lft.to/lastmile_qr_scan", "ios": "https://dc.lft.to/lastmile_qr_scan"}, "name": "74df912793013127e421998813b0a78b", "type": "electric_scooter", "lat": 38.90268366666667, "is_disabled": 0}, {"fusion_lat": 0.0, "lon": -77.04832633333334, "is_reserved": 0, "bike_id": "94cbb73c96fd608593daf191f4aa161f", "fusion_lon": 0.0, "rental_uris": {"android": "https://dc.lft.to/lastmile_qr_scan", "ios": "https://dc.lft.to/lastmile_qr_scan"}, "name": "94cbb73c96fd608593daf191f4aa161f", "type": "electric_scooter", "lat": 38.90728716666667, "is_disabled": 0}, {"fusion_lat": 0.0, "lon": -77.00223116666666, "is_reserved": 0, "bike_id": "f5fe84fcfdcca99e81611d279962138c", "fusion_lon": 0.0, "rental_uris": {"android": "https://dc.lft.to/lastmile_qr_scan", "ios": "https://dc.lft.to/lastmile_qr_scan"}, "name": "f5fe84fcfdcca99e81611d279962138c", "type": "electric_scooter", "lat": 38.89486983333333, "is_disabled": 0}, {"fusion_lat": 0.0, "lon": -77.02538516666667, "is_reserved": 0, "bike_id": "c9bdaf812673ac6ff2047e5b3a1b5d21", "fusion_lon": 0.0, "rental_uris": {"android": "https://dc.lft.to/lastmile_qr_scan", "ios": "https://dc.lft.to/lastmile_qr_scan"}, "name": "c9bdaf812673ac6ff2047e5b3a1b5d21", "type": "electric_scooter", "lat": 38.927457833333335, "is_disabled": 0}, {"fusion_lat": 0.0, "lon": -77.022018, "is_reserved": 0, "bike_id": "3e4cc447c03c6031ddc576873268a9f9", "fusion_lon": 0.0, "rental_uris": {"android": "https://dc.lft.to/lastmile_qr_scan", "ios": "https://dc.lft.to/lastmile_qr_scan"}, "name": "3e4cc447c03c6031ddc576873268a9f9", "type": "electric_scooter", "lat": 38.9004385, "is_disabled": 0}, {"fusion_lat": 0.0, "lon": -77.04495416666667, "is_reserved": 0, "bike_id": "8a6ac344a3e27a49eb62849555efa4b5", "fusion_lon": 0.0, "rental_uris": {"android": "https://dc.lft.to/lastmile_qr_scan", "ios": "https://dc.lft.to/lastmile_qr_scan"}, "name": "8a6ac344a3e27a49eb62849555efa4b5", "type": "electric_scooter", "lat": 38.907060666666666, "is_disabled": 0}, {"fusion_lat": 0.0, "lon": -77.06129666666666, "is_reserved": 0, "bike_id": "c87c7b0b53fb1cb2ee0a3db1f7932fb9", "fusion_lon": 0.0, "rental_uris": {"android": "https://dc.lft.to/lastmile_qr_scan", "ios": "https://dc.lft.to/lastmile_qr_scan"}, "name": "c87c7b0b53fb1cb2ee0a3db1f7932fb9", "type": "electric_scooter", "lat": 38.943517, "is_disabled": 0}, {"fusion_lat": 0.0, "lon": -77.02156783333334, "is_reserved": 0, "bike_id": "2ab524b280a3efb29cdf6089eb56968e", "fusion_lon": 0.0, "rental_uris": {"android": "https://dc.lft.to/lastmile_qr_scan", "ios": "https://dc.lft.to/lastmile_qr_scan"}, "name": "2ab524b280a3efb29cdf6089eb56968e", "type": "electric_scooter", "lat": 38.92601466666667, "is_disabled": 0}, {"fusion_lat": 0.0, "lon": -77.032086, "is_reserved": 0, "bike_id": "8b6225383fea982186038baff44684a3", "fusion_lon": 0.0, "rental_uris": {"android": "https://dc.lft.to/lastmile_qr_scan", "ios": "https://dc.lft.to/lastmile_qr_scan"}, "name": "8b6225383fea982186038baff44684a3", "type": "electric_scooter", "lat": 38.89528133333334, "is_disabled": 0}, {"fusion_lat": 0.0, "lon": -77.03709766666667, "is_reserved": 0, "bike_id": "4cd143d00350bb00e447d1a509a0fec3", "fusion_lon": 0.0, "rental_uris": {"android": "https://dc.lft.to/lastmile_qr_scan", "ios": "https://dc.lft.to/lastmile_qr_scan"}, "name": "4cd143d00350bb00e447d1a509a0fec3", "type": "electric_scooter", "lat": 38.9263575, "is_disabled": 0}, {"fusion_lat": 0.0, "lon": -77.0222885, "is_reserved": 0, "bike_id": "e06fbd26e531c0cc762329ab2f93eefa", "fusion_lon": 0.0, "rental_uris": {"android": "https://dc.lft.to/lastmile_qr_scan", "ios": "https://dc.lft.to/lastmile_qr_scan"}, "name": "e06fbd26e531c0cc762329ab2f93eefa", "type": "electric_scooter", "lat": 38.892200333333335, "is_disabled": 0}, {"fusion_lat": 0.0, "lon": -77.03436416666666, "is_reserved": 0, "bike_id": "0116b3b5f69239155f8905b6d7bcac3f", "fusion_lon": 0.0, "rental_uris": {"android": "https://dc.lft.to/lastmile_qr_scan", "ios": "https://dc.lft.to/lastmile_qr_scan"}, "name": "0116b3b5f69239155f8905b6d7bcac3f", "type": "electric_scooter", "lat": 38.919395333333334, "is_disabled": 0}, {"fusion_lat": 0.0, "lon": -77.03493066666667, "is_reserved": 0, "bike_id": "56401fef0652a87fd10ac8bea0ed64ec", "fusion_lon": 0.0, "rental_uris": {"android": "https://dc.lft.to/lastmile_qr_scan", "ios": "https://dc.lft.to/lastmile_qr_scan"}, "name": "56401fef0652a87fd10ac8bea0ed64ec", "type": "electric_scooter", "lat": 38.921459166666665, "is_disabled": 0}, {"fusion_lat": 0.0, "lon": -77.043365, "is_reserved": 0, "bike_id": "d858c8d443567dcd95490da662943ded", "fusion_lon": 0.0, "rental_uris": {"android": "https://dc.lft.to/lastmile_qr_scan", "ios": "https://dc.lft.to/lastmile_qr_scan"}, "name": "d858c8d443567dcd95490da662943ded", "type": "electric_scooter", "lat": 38.8922515, "is_disabled": 0}, {"fusion_lat": 0.0, "lon": -77.0326035, "is_reserved": 0, "bike_id": "56e804b9b370b8d4c1f4969e4d83bc13", "fusion_lon": 0.0, "rental_uris": {"android": "https://dc.lft.to/lastmile_qr_scan", "ios": "https://dc.lft.to/lastmile_qr_scan"}, "name": "56e804b9b370b8d4c1f4969e4d83bc13", "type": "electric_scooter", "lat": 38.933945333333334, "is_disabled": 0}, {"fusion_lat": 0.0, "lon": -77.00625716666667, "is_reserved": 0, "bike_id": "7640576f1b43e017fcd3a92d140f0094", "fusion_lon": 0.0, "rental_uris": {"android": "https://dc.lft.to/lastmile_qr_scan", "ios": "https://dc.lft.to/lastmile_qr_scan"}, "name": "7640576f1b43e017fcd3a92d140f0094", "type": "electric_scooter", "lat": 38.87171583333333, "is_disabled": 0}, {"fusion_lat": 0.0, "lon": -76.988434, "is_reserved": 0, "bike_id": "aff92f62cc29bea1861f90004cf99eff", "fusion_lon": 0.0, "rental_uris": {"android": "https://dc.lft.to/lastmile_qr_scan", "ios": "https://dc.lft.to/lastmile_qr_scan"}, "name": "aff92f62cc29bea1861f90004cf99eff", "type": "electric_bike", "lat": 38.842765666666665, "is_disabled": 0}, {"fusion_lat": 0.0, "lon": -76.983931, "is_reserved": 0, "bike_id": "2941d864b1e7788b724f20a41388569e", "fusion_lon": 0.0, "rental_uris": {"android": "https://dc.lft.to/lastmile_qr_scan", "ios": "https://dc.lft.to/lastmile_qr_scan"}, "name": "2941d864b1e7788b724f20a41388569e", "type": "electric_scooter", "lat": 38.9269495, "is_disabled": 0}, {"fusion_lat": 0.0, "lon": -77.0228745, "is_reserved": 0, "bike_id": "927773fbcd6d6c9e43b87676162c60b8", "fusion_lon": 0.0, "rental_uris": {"android": "https://dc.lft.to/lastmile_qr_scan", "ios": "https://dc.lft.to/lastmile_qr_scan"}, "name": "927773fbcd6d6c9e43b87676162c60b8", "type": "electric_scooter", "lat": 38.916149833333336, "is_disabled": 0}, {"fusion_lat": 0.0, "lon": -77.0204045, "is_reserved": 0, "bike_id": "c9d75e09e44786480d37bdb5601eb4fb", "fusion_lon": 0.0, "rental_uris": {"android": "https://dc.lft.to/lastmile_qr_scan", "ios": "https://dc.lft.to/lastmile_qr_scan"}, "name": "c9d75e09e44786480d37bdb5601eb4fb", "type": "electric_scooter", "lat": 38.921841, "is_disabled": 0}, {"fusion_lat": 0.0, "lon": -77.04505883333333, "is_reserved": 0, "bike_id": "75c2680cdee9a6095966af7d2a063f6d", "fusion_lon": 0.0, "rental_uris": {"android": "https://dc.lft.to/lastmile_qr_scan", "ios": "https://dc.lft.to/lastmile_qr_scan"}, "name": "75c2680cdee9a6095966af7d2a063f6d", "type": "electric_scooter", "lat": 38.91106416666667, "is_disabled": 0}, {"fusion_lat": 0.0, "lon": -77.02700633333333, "is_reserved": 0, "bike_id": "9a64d1a05b8452f3ebf5a4393e39f2f0", "fusion_lon": 0.0, "rental_uris": {"android": "https://dc.lft.to/lastmile_qr_scan", "ios": "https://dc.lft.to/lastmile_qr_scan"}, "name": "9a64d1a05b8452f3ebf5a4393e39f2f0", "type": "electric_scooter", "lat": 38.915769833333336, "is_disabled": 0}, {"fusion_lat": 0.0, "lon": -76.97612183333334, "is_reserved": 0, "bike_id": "40e872a38d7f2bcf7b578f71ee7c455d", "fusion_lon": 0.0, "rental_uris": {"android": "https://dc.lft.to/lastmile_qr_scan", "ios": "https://dc.lft.to/lastmile_qr_scan"}, "name": "40e872a38d7f2bcf7b578f71ee7c455d", "type": "electric_scooter", "lat": 38.91298583333333, "is_disabled": 0}, {"fusion_lat": 0.0, "lon": -77.03614066666667, "is_reserved": 0, "bike_id": "fd7932a29030904945ca2307da1cd130", "fusion_lon": 0.0, "rental_uris": {"android": "https://dc.lft.to/lastmile_qr_scan", "ios": "https://dc.lft.to/lastmile_qr_scan"}, "name": "fd7932a29030904945ca2307da1cd130", "type": "electric_scooter", "lat": 38.930434, "is_disabled": 0}, {"fusion_lat": 0.0, "lon": -77.07825083333333, "is_reserved": 0, "bike_id": "00833b74d122f05d74ca48e5805c49e2", "fusion_lon": 0.0, "rental_uris": {"android": "https://dc.lft.to/lastmile_qr_scan", "ios": "https://dc.lft.to/lastmile_qr_scan"}, "name": "00833b74d122f05d74ca48e5805c49e2", "type": "electric_bike", "lat": 38.93637016666667, "is_disabled": 0}, {"fusion_lat": 0.0, "lon": -77.0326165, "is_reserved": 0, "bike_id": "2e41a049c4d260fbb499972a4c422245", "fusion_lon": 0.0, "rental_uris": {"android": "https://dc.lft.to/lastmile_qr_scan", "ios": "https://dc.lft.to/lastmile_qr_scan"}, "name": "2e41a049c4d260fbb499972a4c422245", "type": "electric_scooter", "lat": 38.918143, "is_disabled": 0}, {"fusion_lat": 0.0, "lon": -77.02619816666666, "is_reserved": 0, "bike_id": "af4a3ed9986ba8574779e79837b1ec84", "fusion_lon": 0.0, "rental_uris": {"android": "https://dc.lft.to/lastmile_qr_scan", "ios": "https://dc.lft.to/lastmile_qr_scan"}, "name": "af4a3ed9986ba8574779e79837b1ec84", "type": "electric_scooter", "lat": 38.89432133333333, "is_disabled": 0}, {"fusion_lat": 0.0, "lon": -76.98059033333334, "is_reserved": 0, "bike_id": "127678930397cfa4f71f56cdf99001a9", "fusion_lon": 0.0, "rental_uris": {"android": "https://dc.lft.to/lastmile_qr_scan", "ios": "https://dc.lft.to/lastmile_qr_scan"}, "name": "127678930397cfa4f71f56cdf99001a9", "type": "electric_scooter", "lat": 38.90161783333333, "is_disabled": 0}, {"fusion_lat": 0.0, "lon": -77.045721, "is_reserved": 0, "bike_id": "31baa4159873d180c58a6528f0341b6a", "fusion_lon": 0.0, "rental_uris": {"android": "https://dc.lft.to/lastmile_qr_scan", "ios": "https://dc.lft.to/lastmile_qr_scan"}, "name": "31baa4159873d180c58a6528f0341b6a", "type": "electric_scooter", "lat": 38.9212415, "is_disabled": 0}, {"fusion_lat": 0.0, "lon": -77.042353, "is_reserved": 0, "bike_id": "e36dbe8bd11c01018d66e74ac9a4bce9", "fusion_lon": 0.0, "rental_uris": {"android": "https://dc.lft.to/lastmile_qr_scan", "ios": "https://dc.lft.to/lastmile_qr_scan"}, "name": "e36dbe8bd11c01018d66e74ac9a4bce9", "type": "electric_scooter", "lat": 38.931543833333336, "is_disabled": 0}, {"fusion_lat": 0.0, "lon": -76.9993395, "is_reserved": 0, "bike_id": "9569d1f5fa3969bbd280e5ec48b503df", "fusion_lon": 0.0, "rental_uris": {"android": "https://dc.lft.to/lastmile_qr_scan", "ios": "https://dc.lft.to/lastmile_qr_scan"}, "name": "9569d1f5fa3969bbd280e5ec48b503df", "type": "electric_scooter", "lat": 38.842996, "is_disabled": 0}, {"fusion_lat": 0.0, "lon": -76.99903416666666, "is_reserved": 0, "bike_id": "f0fedf52baf991e28e2ff5f5f51cd0b9", "fusion_lon": 0.0, "rental_uris": {"android": "https://dc.lft.to/lastmile_qr_scan", "ios": "https://dc.lft.to/lastmile_qr_scan"}, "name": "f0fedf52baf991e28e2ff5f5f51cd0b9", "type": "electric_scooter", "lat": 38.948136833333336, "is_disabled": 0}, {"fusion_lat": 0.0, "lon": -76.93082133333333, "is_reserved": 0, "bike_id": "a3ef2295db9f630471e1d679f65b2c79", "fusion_lon": 0.0, "rental_uris": {"android": "https://dc.lft.to/lastmile_qr_scan", "ios": "https://dc.lft.to/lastmile_qr_scan"}, "name": "a3ef2295db9f630471e1d679f65b2c79", "type": "electric_scooter", "lat": 38.90164816666667, "is_disabled": 0}, {"fusion_lat": 0.0, "lon": -77.02165333333333, "is_reserved": 0, "bike_id": "9c39bf63024ca7187c6de51b0979e517", "fusion_lon": 0.0, "rental_uris": {"android": "https://dc.lft.to/lastmile_qr_scan", "ios": "https://dc.lft.to/lastmile_qr_scan"}, "name": "9c39bf63024ca7187c6de51b0979e517", "type": "electric_scooter", "lat": 38.92609066666667, "is_disabled": 0}, {"fusion_lat": 0.0, "lon": -77.03701666666667, "is_reserved": 0, "bike_id": "9156565f8715890b24b0fb96d0b7737f", "fusion_lon": 0.0, "rental_uris": {"android": "https://dc.lft.to/lastmile_qr_scan", "ios": "https://dc.lft.to/lastmile_qr_scan"}, "name": "9156565f8715890b24b0fb96d0b7737f", "type": "electric_scooter", "lat": 38.92611866666667, "is_disabled": 0}, {"fusion_lat": 0.0, "lon": -77.0324875, "is_reserved": 0, "bike_id": "5407fc420ad628501a75c2809e3076d8", "fusion_lon": 0.0, "rental_uris": {"android": "https://dc.lft.to/lastmile_qr_scan", "ios": "https://dc.lft.to/lastmile_qr_scan"}, "name": "5407fc420ad628501a75c2809e3076d8", "type": "electric_bike", "lat": 38.92911566666667, "is_disabled": 0}, {"fusion_lat": 0.0, "lon": -77.021267, "is_reserved": 0, "bike_id": "a1183b965342db5409cf57cd35450a4b", "fusion_lon": 0.0, "rental_uris": {"android": "https://dc.lft.to/lastmile_qr_scan", "ios": "https://dc.lft.to/lastmile_qr_scan"}, "name": "a1183b965342db5409cf57cd35450a4b", "type": "electric_scooter", "lat": 38.896457, "is_disabled": 0}, {"fusion_lat": 0.0, "lon": -77.1273325, "is_reserved": 0, "bike_id": "5d9e79f872ae997f7295127880008ac9", "fusion_lon": 0.0, "rental_uris": {"android": "https://dc.lft.to/lastmile_qr_scan", "ios": "https://dc.lft.to/lastmile_qr_scan"}, "name": "5d9e79f872ae997f7295127880008ac9", "type": "electric_bike", "lat": 38.895618, "is_disabled": 0}, {"fusion_lat": 0.0, "lon": -77.04142383333334, "is_reserved": 0, "bike_id": "ef03f9bd2c5bdcb89612513f661b6be8", "fusion_lon": 0.0, "rental_uris": {"android": "https://dc.lft.to/lastmile_qr_scan", "ios": "https://dc.lft.to/lastmile_qr_scan"}, "name": "ef03f9bd2c5bdcb89612513f661b6be8", "type": "electric_bike", "lat": 38.82315633333333, "is_disabled": 0}, {"fusion_lat": 0.0, "lon": -77.0423935, "is_reserved": 0, "bike_id": "4feea6d781fd819efe885570a9351525", "fusion_lon": 0.0, "rental_uris": {"android": "https://dc.lft.to/lastmile_qr_scan", "ios": "https://dc.lft.to/lastmile_qr_scan"}, "name": "4feea6d781fd819efe885570a9351525", "type": "electric_scooter", "lat": 38.92182783333333, "is_disabled": 0}, {"fusion_lat": 0.0, "lon": -77.03303133333333, "is_reserved": 0, "bike_id": "5d60634990fd49a26d6befba81726e43", "fusion_lon": 0.0, "rental_uris": {"android": "https://dc.lft.to/lastmile_qr_scan", "ios": "https://dc.lft.to/lastmile_qr_scan"}, "name": "5d60634990fd49a26d6befba81726e43", "type": "electric_scooter", "lat": 38.93786983333333, "is_disabled": 0}, {"fusion_lat": 0.0, "lon": -76.99478783333333, "is_reserved": 0, "bike_id": "c439345b2c70a5cb5183b364a7d042df", "fusion_lon": 0.0, "rental_uris": {"android": "https://dc.lft.to/lastmile_qr_scan", "ios": "https://dc.lft.to/lastmile_qr_scan"}, "name": "c439345b2c70a5cb5183b364a7d042df", "type": "electric_scooter", "lat": 38.86214566666666, "is_disabled": 0}, {"fusion_lat": 0.0, "lon": -77.1393245, "is_reserved": 0, "bike_id": "dd65d6324b4313ab9f3787a34742b8ab", "fusion_lon": 0.0, "rental_uris": {"android": "https://dc.lft.to/lastmile_qr_scan", "ios": "https://dc.lft.to/lastmile_qr_scan"}, "name": "dd65d6324b4313ab9f3787a34742b8ab", "type": "electric_bike", "lat": 38.87296, "is_disabled": 0}, {"fusion_lat": 0.0, "lon": -77.04422916666667, "is_reserved": 0, "bike_id": "b18a0cc89db2da0e78298f30eaae846d", "fusion_lon": 0.0, "rental_uris": {"android": "https://dc.lft.to/lastmile_qr_scan", "ios": "https://dc.lft.to/lastmile_qr_scan"}, "name": "b18a0cc89db2da0e78298f30eaae846d", "type": "electric_scooter", "lat": 38.90226, "is_disabled": 0}, {"fusion_lat": 0.0, "lon": -77.01665333333334, "is_reserved": 0, "bike_id": "3eeda1ab613acedff9ae14289695a28f", "fusion_lon": 0.0, "rental_uris": {"android": "https://dc.lft.to/lastmile_qr_scan", "ios": "https://dc.lft.to/lastmile_qr_scan"}, "name": "3eeda1ab613acedff9ae14289695a28f", "type": "electric_scooter", "lat": 38.881150166666664, "is_disabled": 0}, {"fusion_lat": 0.0, "lon": -76.97206233333333, "is_reserved": 0, "bike_id": "d91d069972fab1467516cab9268044e6", "fusion_lon": 0.0, "rental_uris": {"android": "https://dc.lft.to/lastmile_qr_scan", "ios": "https://dc.lft.to/lastmile_qr_scan"}, "name": "d91d069972fab1467516cab9268044e6", "type": "electric_bike", "lat": 38.892901333333334, "is_disabled": 0}, {"fusion_lat": 0.0, "lon": -77.0384305, "is_reserved": 0, "bike_id": "19ad5cf2d1e0a0bb72402ff3ec53dbda", "fusion_lon": 0.0, "rental_uris": {"android": "https://dc.lft.to/lastmile_qr_scan", "ios": "https://dc.lft.to/lastmile_qr_scan"}, "name": "19ad5cf2d1e0a0bb72402ff3ec53dbda", "type": "electric_scooter", "lat": 38.91114116666667, "is_disabled": 0}, {"fusion_lat": 0.0, "lon": -77.00444, "is_reserved": 0, "bike_id": "70af4421aecf6c7422fffd2abe5dac2a", "fusion_lon": 0.0, "rental_uris": {"android": "https://dc.lft.to/lastmile_qr_scan", "ios": "https://dc.lft.to/lastmile_qr_scan"}, "name": "70af4421aecf6c7422fffd2abe5dac2a", "type": "electric_scooter", "lat": 38.91329116666667, "is_disabled": 0}, {"fusion_lat": 0.0, "lon": -77.01162616666667, "is_reserved": 0, "bike_id": "4fd65d61921fb2e394df9fb41e2dd1ce", "fusion_lon": 0.0, "rental_uris": {"android": "https://dc.lft.to/lastmile_qr_scan", "ios": "https://dc.lft.to/lastmile_qr_scan"}, "name": "4fd65d61921fb2e394df9fb41e2dd1ce", "type": "electric_scooter", "lat": 38.9698955, "is_disabled": 0}, {"fusion_lat": 0.0, "lon": -77.04522233333333, "is_reserved": 0, "bike_id": "bdd20bf455ea8d0df65cb0d901ec9d3b", "fusion_lon": 0.0, "rental_uris": {"android": "https://dc.lft.to/lastmile_qr_scan", "ios": "https://dc.lft.to/lastmile_qr_scan"}, "name": "bdd20bf455ea8d0df65cb0d901ec9d3b", "type": "electric_scooter", "lat": 38.912889666666665, "is_disabled": 0}, {"fusion_lat": 0.0, "lon": -76.98262516666666, "is_reserved": 0, "bike_id": "a07cc4d3a6191ecfe7ac1331269def58", "fusion_lon": 0.0, "rental_uris": {"android": "https://dc.lft.to/lastmile_qr_scan", "ios": "https://dc.lft.to/lastmile_qr_scan"}, "name": "a07cc4d3a6191ecfe7ac1331269def58", "type": "electric_scooter", "lat": 38.86304483333333, "is_disabled": 0}, {"fusion_lat": 0.0, "lon": -77.02584366666666, "is_reserved": 0, "bike_id": "184125e2a2cad667f69746ec30b4914f", "fusion_lon": 0.0, "rental_uris": {"android": "https://dc.lft.to/lastmile_qr_scan", "ios": "https://dc.lft.to/lastmile_qr_scan"}, "name": "184125e2a2cad667f69746ec30b4914f", "type": "electric_scooter", "lat": 38.92055716666667, "is_disabled": 0}, {"fusion_lat": 0.0, "lon": -77.0451315, "is_reserved": 0, "bike_id": "1ed5d2f0d5ad44de154088b93e6d17ed", "fusion_lon": 0.0, "rental_uris": {"android": "https://dc.lft.to/lastmile_qr_scan", "ios": "https://dc.lft.to/lastmile_qr_scan"}, "name": "1ed5d2f0d5ad44de154088b93e6d17ed", "type": "electric_scooter", "lat": 38.912924333333336, "is_disabled": 0}, {"fusion_lat": 0.0, "lon": -77.02842766666667, "is_reserved": 0, "bike_id": "d3f942a4e1ffc0bbd54408fa4a917809", "fusion_lon": 0.0, "rental_uris": {"android": "https://dc.lft.to/lastmile_qr_scan", "ios": "https://dc.lft.to/lastmile_qr_scan"}, "name": "d3f942a4e1ffc0bbd54408fa4a917809", "type": "electric_scooter", "lat": 38.904302666666666, "is_disabled": 0}, {"fusion_lat": 0.0, "lon": -77.0272325, "is_reserved": 0, "bike_id": "eb60b45df7e1eecc22db2e3decb2eabc", "fusion_lon": 0.0, "rental_uris": {"android": "https://dc.lft.to/lastmile_qr_scan", "ios": "https://dc.lft.to/lastmile_qr_scan"}, "name": "eb60b45df7e1eecc22db2e3decb2eabc", "type": "electric_scooter", "lat": 38.949541833333335, "is_disabled": 0}, {"fusion_lat": 0.0, "lon": -77.00598416666666, "is_reserved": 0, "bike_id": "8b5b265da4e55767474ddd2f7f6235ea", "fusion_lon": 0.0, "rental_uris": {"android": "https://dc.lft.to/lastmile_qr_scan", "ios": "https://dc.lft.to/lastmile_qr_scan"}, "name": "8b5b265da4e55767474ddd2f7f6235ea", "type": "electric_scooter", "lat": 38.88518716666667, "is_disabled": 0}, {"fusion_lat": 0.0, "lon": -77.02563183333334, "is_reserved": 0, "bike_id": "5a0ad699d5ce9e502897902b2b31ead3", "fusion_lon": 0.0, "rental_uris": {"android": "https://dc.lft.to/lastmile_qr_scan", "ios": "https://dc.lft.to/lastmile_qr_scan"}, "name": "5a0ad699d5ce9e502897902b2b31ead3", "type": "electric_scooter", "lat": 38.93859833333333, "is_disabled": 0}, {"fusion_lat": 0.0, "lon": -77.04488383333333, "is_reserved": 0, "bike_id": "ed49a60816e35099ed6badc955258c1b", "fusion_lon": 0.0, "rental_uris": {"android": "https://dc.lft.to/lastmile_qr_scan", "ios": "https://dc.lft.to/lastmile_qr_scan"}, "name": "ed49a60816e35099ed6badc955258c1b", "type": "electric_scooter", "lat": 38.9038425, "is_disabled": 0}, {"fusion_lat": 0.0, "lon": -77.02694683333333, "is_reserved": 0, "bike_id": "be8c98a94cb84e1e8e7c9322a676163c", "fusion_lon": 0.0, "rental_uris": {"android": "https://dc.lft.to/lastmile_qr_scan", "ios": "https://dc.lft.to/lastmile_qr_scan"}, "name": "be8c98a94cb84e1e8e7c9322a676163c", "type": "electric_scooter", "lat": 38.91249883333333, "is_disabled": 0}, {"fusion_lat": 0.0, "lon": -77.05216433333334, "is_reserved": 0, "bike_id": "0770b0b3d80ad485480dc881b991e377", "fusion_lon": 0.0, "rental_uris": {"android": "https://dc.lft.to/lastmile_qr_scan", "ios": "https://dc.lft.to/lastmile_qr_scan"}, "name": "0770b0b3d80ad485480dc881b991e377", "type": "electric_scooter", "lat": 38.915616166666666, "is_disabled": 0}, {"fusion_lat": 0.0, "lon": -76.9336525, "is_reserved": 0, "bike_id": "af2f5f2460d1ffa59098d3037f3c2164", "fusion_lon": 0.0, "rental_uris": {"android": "https://dc.lft.to/lastmile_qr_scan", "ios": "https://dc.lft.to/lastmile_qr_scan"}, "name": "af2f5f2460d1ffa59098d3037f3c2164", "type": "electric_scooter", "lat": 38.88798166666667, "is_disabled": 0}, {"fusion_lat": 0.0, "lon": -77.042369, "is_reserved": 0, "bike_id": "96c0c5850cc88c2b8f5903353111baac", "fusion_lon": 0.0, "rental_uris": {"android": "https://dc.lft.to/lastmile_qr_scan", "ios": "https://dc.lft.to/lastmile_qr_scan"}, "name": "96c0c5850cc88c2b8f5903353111baac", "type": "electric_scooter", "lat": 38.91118183333333, "is_disabled": 0}, {"fusion_lat": 0.0, "lon": -77.02873383333333, "is_reserved": 0, "bike_id": "d50b55a2e5d7884bbb25e6f0dfce1b7f", "fusion_lon": 0.0, "rental_uris": {"android": "https://dc.lft.to/lastmile_qr_scan", "ios": "https://dc.lft.to/lastmile_qr_scan"}, "name": "d50b55a2e5d7884bbb25e6f0dfce1b7f", "type": "electric_scooter", "lat": 38.95085733333333, "is_disabled": 0}, {"fusion_lat": 0.0, "lon": -76.98697433333334, "is_reserved": 0, "bike_id": "73a93e4b75bfa003bbf8433aedc1bb54", "fusion_lon": 0.0, "rental_uris": {"android": "https://dc.lft.to/lastmile_qr_scan", "ios": "https://dc.lft.to/lastmile_qr_scan"}, "name": "73a93e4b75bfa003bbf8433aedc1bb54", "type": "electric_scooter", "lat": 38.8625795, "is_disabled": 0}, {"fusion_lat": 0.0, "lon": -77.0630245, "is_reserved": 0, "bike_id": "2318f0f3f072ba2a0c6165586dbde7b3", "fusion_lon": 0.0, "rental_uris": {"android": "https://dc.lft.to/lastmile_qr_scan", "ios": "https://dc.lft.to/lastmile_qr_scan"}, "name": "2318f0f3f072ba2a0c6165586dbde7b3", "type": "electric_scooter", "lat": 38.903946833333336, "is_disabled": 0}, {"fusion_lat": 0.0, "lon": -77.01155616666667, "is_reserved": 0, "bike_id": "d0eac24c85eb5740eb78dc60f4edb940", "fusion_lon": 0.0, "rental_uris": {"android": "https://dc.lft.to/lastmile_qr_scan", "ios": "https://dc.lft.to/lastmile_qr_scan"}, "name": "d0eac24c85eb5740eb78dc60f4edb940", "type": "electric_scooter", "lat": 38.900387, "is_disabled": 0}, {"fusion_lat": 0.0, "lon": -77.06329016666666, "is_reserved": 0, "bike_id": "609e3962a94169b957935f0c5f3fc65a", "fusion_lon": 0.0, "rental_uris": {"android": "https://dc.lft.to/lastmile_qr_scan", "ios": "https://dc.lft.to/lastmile_qr_scan"}, "name": "609e3962a94169b957935f0c5f3fc65a", "type": "electric_scooter", "lat": 38.90771816666667, "is_disabled": 0}, {"fusion_lat": 0.0, "lon": -77.07257466666667, "is_reserved": 0, "bike_id": "9adc8d601f2e6a58a529621b79b462ff", "fusion_lon": 0.0, "rental_uris": {"android": "https://dc.lft.to/lastmile_qr_scan", "ios": "https://dc.lft.to/lastmile_qr_scan"}, "name": "9adc8d601f2e6a58a529621b79b462ff", "type": "electric_scooter", "lat": 38.90782733333333, "is_disabled": 0}, {"fusion_lat": 0.0, "lon": -77.02145416666667, "is_reserved": 0, "bike_id": "88cb6ecc5c8bcb3d2c6c256c6b738663", "fusion_lon": 0.0, "rental_uris": {"android": "https://dc.lft.to/lastmile_qr_scan", "ios": "https://dc.lft.to/lastmile_qr_scan"}, "name": "88cb6ecc5c8bcb3d2c6c256c6b738663", "type": "electric_scooter", "lat": 38.923197, "is_disabled": 0}, {"fusion_lat": 0.0, "lon": -77.0326165, "is_reserved": 0, "bike_id": "4feee497b69aebeaed6d2d1a7282ebf1", "fusion_lon": 0.0, "rental_uris": {"android": "https://dc.lft.to/lastmile_qr_scan", "ios": "https://dc.lft.to/lastmile_qr_scan"}, "name": "4feee497b69aebeaed6d2d1a7282ebf1", "type": "electric_scooter", "lat": 38.9044795, "is_disabled": 0}, {"fusion_lat": 0.0, "lon": -77.00727616666667, "is_reserved": 0, "bike_id": "f373a05c0a9e3fb1346d21783bc7a443", "fusion_lon": 0.0, "rental_uris": {"android": "https://dc.lft.to/lastmile_qr_scan", "ios": "https://dc.lft.to/lastmile_qr_scan"}, "name": "f373a05c0a9e3fb1346d21783bc7a443", "type": "electric_scooter", "lat": 38.897081666666665, "is_disabled": 0}, {"fusion_lat": 0.0, "lon": -76.98195266666667, "is_reserved": 0, "bike_id": "9aecfdcf31f618cde953b42aa15c0bf9", "fusion_lon": 0.0, "rental_uris": {"android": "https://dc.lft.to/lastmile_qr_scan", "ios": "https://dc.lft.to/lastmile_qr_scan"}, "name": "9aecfdcf31f618cde953b42aa15c0bf9", "type": "electric_scooter", "lat": 38.902818, "is_disabled": 0}, {"fusion_lat": 0.0, "lon": -77.02767716666666, "is_reserved": 0, "bike_id": "3031019838d029967e61c84830cf9c99", "fusion_lon": 0.0, "rental_uris": {"android": "https://dc.lft.to/lastmile_qr_scan", "ios": "https://dc.lft.to/lastmile_qr_scan"}, "name": "3031019838d029967e61c84830cf9c99", "type": "electric_scooter", "lat": 38.95424116666667, "is_disabled": 0}, {"fusion_lat": 0.0, "lon": -77.132411, "is_reserved": 0, "bike_id": "9a7422d62cf202f6fa9a3a54fe67c080", "fusion_lon": 0.0, "rental_uris": {"android": "https://dc.lft.to/lastmile_qr_scan", "ios": "https://dc.lft.to/lastmile_qr_scan"}, "name": "9a7422d62cf202f6fa9a3a54fe67c080", "type": "electric_bike", "lat": 38.8056325, "is_disabled": 0}, {"fusion_lat": 0.0, "lon": -77.031573, "is_reserved": 0, "bike_id": "16bc749da24dd13ce60149005a58d60a", "fusion_lon": 0.0, "rental_uris": {"android": "https://dc.lft.to/lastmile_qr_scan", "ios": "https://dc.lft.to/lastmile_qr_scan"}, "name": "16bc749da24dd13ce60149005a58d60a", "type": "electric_scooter", "lat": 38.906054833333336, "is_disabled": 0}, {"fusion_lat": 0.0, "lon": -77.0228495, "is_reserved": 0, "bike_id": "0affd00f9db1ed5340e724f76d91bc7c", "fusion_lon": 0.0, "rental_uris": {"android": "https://dc.lft.to/lastmile_qr_scan", "ios": "https://dc.lft.to/lastmile_qr_scan"}, "name": "0affd00f9db1ed5340e724f76d91bc7c", "type": "electric_scooter", "lat": 38.93532183333333, "is_disabled": 0}, {"fusion_lat": 0.0, "lon": -77.05345833333334, "is_reserved": 0, "bike_id": "3e38ede9e7228c6023c59de1f6b6ee17", "fusion_lon": 0.0, "rental_uris": {"android": "https://dc.lft.to/lastmile_qr_scan", "ios": "https://dc.lft.to/lastmile_qr_scan"}, "name": "3e38ede9e7228c6023c59de1f6b6ee17", "type": "electric_scooter", "lat": 38.92366, "is_disabled": 0}, {"fusion_lat": 0.0, "lon": -77.0001055, "is_reserved": 0, "bike_id": "3f3f199cc90c240d3d6e9dacab84e866", "fusion_lon": 0.0, "rental_uris": {"android": "https://dc.lft.to/lastmile_qr_scan", "ios": "https://dc.lft.to/lastmile_qr_scan"}, "name": "3f3f199cc90c240d3d6e9dacab84e866", "type": "electric_scooter", "lat": 38.90762633333333, "is_disabled": 0}, {"fusion_lat": 0.0, "lon": -77.04234033333333, "is_reserved": 0, "bike_id": "be5f9ba205da23fe72e16bdbce5bfe46", "fusion_lon": 0.0, "rental_uris": {"android": "https://dc.lft.to/lastmile_qr_scan", "ios": "https://dc.lft.to/lastmile_qr_scan"}, "name": "be5f9ba205da23fe72e16bdbce5bfe46", "type": "electric_scooter", "lat": 38.911205, "is_disabled": 0}, {"fusion_lat": 0.0, "lon": -77.03840766666667, "is_reserved": 0, "bike_id": "31667c563d8a6009911aa35056bb5527", "fusion_lon": 0.0, "rental_uris": {"android": "https://dc.lft.to/lastmile_qr_scan", "ios": "https://dc.lft.to/lastmile_qr_scan"}, "name": "31667c563d8a6009911aa35056bb5527", "type": "electric_scooter", "lat": 38.91190533333334, "is_disabled": 0}, {"fusion_lat": 0.0, "lon": -77.02657383333333, "is_reserved": 0, "bike_id": "add80a940b68d2563e48f780680ab04f", "fusion_lon": 0.0, "rental_uris": {"android": "https://dc.lft.to/lastmile_qr_scan", "ios": "https://dc.lft.to/lastmile_qr_scan"}, "name": "add80a940b68d2563e48f780680ab04f", "type": "electric_scooter", "lat": 38.97571283333333, "is_disabled": 0}, {"fusion_lat": 0.0, "lon": -76.93641516666666, "is_reserved": 0, "bike_id": "ff4c5f780c4ac50727b6434e611d76be", "fusion_lon": 0.0, "rental_uris": {"android": "https://dc.lft.to/lastmile_qr_scan", "ios": "https://dc.lft.to/lastmile_qr_scan"}, "name": "ff4c5f780c4ac50727b6434e611d76be", "type": "electric_scooter", "lat": 38.90064, "is_disabled": 0}, {"fusion_lat": 0.0, "lon": -77.04771166666667, "is_reserved": 0, "bike_id": "2e2367414901fc2525c941d8bdb0a4e3", "fusion_lon": 0.0, "rental_uris": {"android": "https://dc.lft.to/lastmile_qr_scan", "ios": "https://dc.lft.to/lastmile_qr_scan"}, "name": "2e2367414901fc2525c941d8bdb0a4e3", "type": "electric_scooter", "lat": 38.900835666666666, "is_disabled": 0}, {"fusion_lat": 0.0, "lon": -77.04667116666667, "is_reserved": 0, "bike_id": "b721e779d7b66669b1c3297391780f2d", "fusion_lon": 0.0, "rental_uris": {"android": "https://dc.lft.to/lastmile_qr_scan", "ios": "https://dc.lft.to/lastmile_qr_scan"}, "name": "b721e779d7b66669b1c3297391780f2d", "type": "electric_scooter", "lat": 38.90733566666667, "is_disabled": 0}, {"fusion_lat": 0.0, "lon": -76.94933916666666, "is_reserved": 0, "bike_id": "a5146a0c3137fffbd2a4ea6aa0ab059d", "fusion_lon": 0.0, "rental_uris": {"android": "https://dc.lft.to/lastmile_qr_scan", "ios": "https://dc.lft.to/lastmile_qr_scan"}, "name": "a5146a0c3137fffbd2a4ea6aa0ab059d", "type": "electric_scooter", "lat": 38.89342766666667, "is_disabled": 0}, {"fusion_lat": 0.0, "lon": -77.04664466666667, "is_reserved": 0, "bike_id": "cb09ad66845293c6b64cf569734d9a8e", "fusion_lon": 0.0, "rental_uris": {"android": "https://dc.lft.to/lastmile_qr_scan", "ios": "https://dc.lft.to/lastmile_qr_scan"}, "name": "cb09ad66845293c6b64cf569734d9a8e", "type": "electric_scooter", "lat": 38.90738833333333, "is_disabled": 0}, {"fusion_lat": 0.0, "lon": -77.03105566666666, "is_reserved": 0, "bike_id": "3b635260fa1a933af9b8f01ea0134301", "fusion_lon": 0.0, "rental_uris": {"android": "https://dc.lft.to/lastmile_qr_scan", "ios": "https://dc.lft.to/lastmile_qr_scan"}, "name": "3b635260fa1a933af9b8f01ea0134301", "type": "electric_scooter", "lat": 38.9507655, "is_disabled": 0}, {"fusion_lat": 0.0, "lon": -76.930222, "is_reserved": 0, "bike_id": "474ff24a2d0a19fdcaa185f7d15bb448", "fusion_lon": 0.0, "rental_uris": {"android": "https://dc.lft.to/lastmile_qr_scan", "ios": "https://dc.lft.to/lastmile_qr_scan"}, "name": "474ff24a2d0a19fdcaa185f7d15bb448", "type": "electric_bike", "lat": 38.896519833333336, "is_disabled": 0}, {"fusion_lat": 0.0, "lon": -77.00203766666667, "is_reserved": 0, "bike_id": "ac6eaa558fc0db24c786babfc197249a", "fusion_lon": 0.0, "rental_uris": {"android": "https://dc.lft.to/lastmile_qr_scan", "ios": "https://dc.lft.to/lastmile_qr_scan"}, "name": "ac6eaa558fc0db24c786babfc197249a", "type": "electric_scooter", "lat": 38.902352, "is_disabled": 0}, {"fusion_lat": 0.0, "lon": -77.03204133333334, "is_reserved": 0, "bike_id": "26f190305e269a26a18df23160f52af8", "fusion_lon": 0.0, "rental_uris": {"android": "https://dc.lft.to/lastmile_qr_scan", "ios": "https://dc.lft.to/lastmile_qr_scan"}, "name": "26f190305e269a26a18df23160f52af8", "type": "electric_scooter", "lat": 38.90547883333333, "is_disabled": 0}, {"fusion_lat": 0.0, "lon": -77.08398483333333, "is_reserved": 0, "bike_id": "2107419335df07e23f6c1884ed92cd3a", "fusion_lon": 0.0, "rental_uris": {"android": "https://dc.lft.to/lastmile_qr_scan", "ios": "https://dc.lft.to/lastmile_qr_scan"}, "name": "2107419335df07e23f6c1884ed92cd3a", "type": "electric_scooter", "lat": 38.90797216666667, "is_disabled": 0}, {"fusion_lat": 0.0, "lon": -77.03821766666667, "is_reserved": 0, "bike_id": "f9a362918ef1f4efb13cad6c0ba4690b", "fusion_lon": 0.0, "rental_uris": {"android": "https://dc.lft.to/lastmile_qr_scan", "ios": "https://dc.lft.to/lastmile_qr_scan"}, "name": "f9a362918ef1f4efb13cad6c0ba4690b", "type": "electric_scooter", "lat": 38.904275166666665, "is_disabled": 0}, {"fusion_lat": 0.0, "lon": -76.995107, "is_reserved": 0, "bike_id": "4dfcb60cec09f81d5c5d242d767af8e7", "fusion_lon": 0.0, "rental_uris": {"android": "https://dc.lft.to/lastmile_qr_scan", "ios": "https://dc.lft.to/lastmile_qr_scan"}, "name": "4dfcb60cec09f81d5c5d242d767af8e7", "type": "electric_scooter", "lat": 38.88010116666667, "is_disabled": 0}, {"fusion_lat": 0.0, "lon": -77.03449766666667, "is_reserved": 0, "bike_id": "b9697efa9bbd5aeda48d9ad86b6ef43c", "fusion_lon": 0.0, "rental_uris": {"android": "https://dc.lft.to/lastmile_qr_scan", "ios": "https://dc.lft.to/lastmile_qr_scan"}, "name": "b9697efa9bbd5aeda48d9ad86b6ef43c", "type": "electric_scooter", "lat": 38.918205666666665, "is_disabled": 0}, {"fusion_lat": 0.0, "lon": -77.00335766666667, "is_reserved": 0, "bike_id": "438a87f4d80865acfcaed9a056bdaf5c", "fusion_lon": 0.0, "rental_uris": {"android": "https://dc.lft.to/lastmile_qr_scan", "ios": "https://dc.lft.to/lastmile_qr_scan"}, "name": "438a87f4d80865acfcaed9a056bdaf5c", "type": "electric_scooter", "lat": 38.895234, "is_disabled": 0}, {"fusion_lat": 0.0, "lon": -77.02675483333333, "is_reserved": 0, "bike_id": "a0bb6c57c96f954b176daaccea6c486f", "fusion_lon": 0.0, "rental_uris": {"android": "https://dc.lft.to/lastmile_qr_scan", "ios": "https://dc.lft.to/lastmile_qr_scan"}, "name": "a0bb6c57c96f954b176daaccea6c486f", "type": "electric_scooter", "lat": 38.984296666666665, "is_disabled": 0}, {"fusion_lat": 0.0, "lon": -77.064947, "is_reserved": 0, "bike_id": "29f0ceaed9e29e44a3ec37151a4d38ff", "fusion_lon": 0.0, "rental_uris": {"android": "https://dc.lft.to/lastmile_qr_scan", "ios": "https://dc.lft.to/lastmile_qr_scan"}, "name": "29f0ceaed9e29e44a3ec37151a4d38ff", "type": "electric_scooter", "lat": 38.929082666666666, "is_disabled": 0}, {"fusion_lat": 0.0, "lon": -77.0089115, "is_reserved": 0, "bike_id": "231a6f50d7bf98eab4e52c5f9ebddca8", "fusion_lon": 0.0, "rental_uris": {"android": "https://dc.lft.to/lastmile_qr_scan", "ios": "https://dc.lft.to/lastmile_qr_scan"}, "name": "231a6f50d7bf98eab4e52c5f9ebddca8", "type": "electric_scooter", "lat": 38.917132, "is_disabled": 0}, {"fusion_lat": 0.0, "lon": -76.99467316666667, "is_reserved": 0, "bike_id": "d46d8932a6d4664dddbbb03935f1becb", "fusion_lon": 0.0, "rental_uris": {"android": "https://dc.lft.to/lastmile_qr_scan", "ios": "https://dc.lft.to/lastmile_qr_scan"}, "name": "d46d8932a6d4664dddbbb03935f1becb", "type": "electric_scooter", "lat": 38.862276, "is_disabled": 0}, {"fusion_lat": 0.0, "lon": -77.02617083333334, "is_reserved": 0, "bike_id": "539354ca7879128cd1de8e5bfeea4c23", "fusion_lon": 0.0, "rental_uris": {"android": "https://dc.lft.to/lastmile_qr_scan", "ios": "https://dc.lft.to/lastmile_qr_scan"}, "name": "539354ca7879128cd1de8e5bfeea4c23", "type": "electric_scooter", "lat": 38.892391, "is_disabled": 0}, {"fusion_lat": 0.0, "lon": -77.028379, "is_reserved": 0, "bike_id": "813c4f4e92148d37adad8c8bc6f74811", "fusion_lon": 0.0, "rental_uris": {"android": "https://dc.lft.to/lastmile_qr_scan", "ios": "https://dc.lft.to/lastmile_qr_scan"}, "name": "813c4f4e92148d37adad8c8bc6f74811", "type": "electric_scooter", "lat": 38.9285665, "is_disabled": 0}, {"fusion_lat": 0.0, "lon": -77.05144133333333, "is_reserved": 0, "bike_id": "b1740ee494f18e472ae15ee380885ca2", "fusion_lon": 0.0, "rental_uris": {"android": "https://dc.lft.to/lastmile_qr_scan", "ios": "https://dc.lft.to/lastmile_qr_scan"}, "name": "b1740ee494f18e472ae15ee380885ca2", "type": "electric_scooter", "lat": 38.90559016666667, "is_disabled": 0}, {"fusion_lat": 0.0, "lon": -77.03400466666666, "is_reserved": 0, "bike_id": "fc77a4ef35f786e8efed8017e92cba9f", "fusion_lon": 0.0, "rental_uris": {"android": "https://dc.lft.to/lastmile_qr_scan", "ios": "https://dc.lft.to/lastmile_qr_scan"}, "name": "fc77a4ef35f786e8efed8017e92cba9f", "type": "electric_scooter", "lat": 38.92347983333333, "is_disabled": 0}, {"fusion_lat": 0.0, "lon": -76.98448666666667, "is_reserved": 0, "bike_id": "8e709069bc8b06fca7382fa07c51e1a3", "fusion_lon": 0.0, "rental_uris": {"android": "https://dc.lft.to/lastmile_qr_scan", "ios": "https://dc.lft.to/lastmile_qr_scan"}, "name": "8e709069bc8b06fca7382fa07c51e1a3", "type": "electric_bike", "lat": 38.85523083333333, "is_disabled": 0}, {"fusion_lat": 0.0, "lon": -77.0121095, "is_reserved": 0, "bike_id": "d4eb10c6e97e7d6ff8989bb982af57de", "fusion_lon": 0.0, "rental_uris": {"android": "https://dc.lft.to/lastmile_qr_scan", "ios": "https://dc.lft.to/lastmile_qr_scan"}, "name": "d4eb10c6e97e7d6ff8989bb982af57de", "type": "electric_scooter", "lat": 38.91837816666666, "is_disabled": 0}, {"fusion_lat": 0.0, "lon": -76.99126133333333, "is_reserved": 0, "bike_id": "495182599c3ab058c3eb91d14d2a3617", "fusion_lon": 0.0, "rental_uris": {"android": "https://dc.lft.to/lastmile_qr_scan", "ios": "https://dc.lft.to/lastmile_qr_scan"}, "name": "495182599c3ab058c3eb91d14d2a3617", "type": "electric_scooter", "lat": 38.86203966666667, "is_disabled": 0}, {"fusion_lat": 0.0, "lon": -77.04288116666666, "is_reserved": 0, "bike_id": "76270a72af48ad95e9a3e7e820e223d1", "fusion_lon": 0.0, "rental_uris": {"android": "https://dc.lft.to/lastmile_qr_scan", "ios": "https://dc.lft.to/lastmile_qr_scan"}, "name": "76270a72af48ad95e9a3e7e820e223d1", "type": "electric_scooter", "lat": 38.90439516666667, "is_disabled": 0}, {"fusion_lat": 0.0, "lon": -77.01393333333333, "is_reserved": 0, "bike_id": "73dc512bfc9c135499bcc0281e8ea9df", "fusion_lon": 0.0, "rental_uris": {"android": "https://dc.lft.to/lastmile_qr_scan", "ios": "https://dc.lft.to/lastmile_qr_scan"}, "name": "73dc512bfc9c135499bcc0281e8ea9df", "type": "electric_scooter", "lat": 38.928588166666664, "is_disabled": 0}, {"fusion_lat": 0.0, "lon": -77.03823933333334, "is_reserved": 0, "bike_id": "e0bee85f80601b180e748d3940280256", "fusion_lon": 0.0, "rental_uris": {"android": "https://dc.lft.to/lastmile_qr_scan", "ios": "https://dc.lft.to/lastmile_qr_scan"}, "name": "e0bee85f80601b180e748d3940280256", "type": "electric_scooter", "lat": 38.916905666666665, "is_disabled": 0}, {"fusion_lat": 0.0, "lon": -77.0349855, "is_reserved": 0, "bike_id": "7880031725a945364db47604a579d1d6", "fusion_lon": 0.0, "rental_uris": {"android": "https://dc.lft.to/lastmile_qr_scan", "ios": "https://dc.lft.to/lastmile_qr_scan"}, "name": "7880031725a945364db47604a579d1d6", "type": "electric_scooter", "lat": 38.932672833333335, "is_disabled": 0}, {"fusion_lat": 0.0, "lon": -77.03060766666667, "is_reserved": 0, "bike_id": "4f6a54a546ba99b27ca994bfcc9bbc5c", "fusion_lon": 0.0, "rental_uris": {"android": "https://dc.lft.to/lastmile_qr_scan", "ios": "https://dc.lft.to/lastmile_qr_scan"}, "name": "4f6a54a546ba99b27ca994bfcc9bbc5c", "type": "electric_scooter", "lat": 38.923700833333335, "is_disabled": 0}, {"fusion_lat": 0.0, "lon": -77.027449, "is_reserved": 0, "bike_id": "1ce301b9d22d910504538fc03bce7941", "fusion_lon": 0.0, "rental_uris": {"android": "https://dc.lft.to/lastmile_qr_scan", "ios": "https://dc.lft.to/lastmile_qr_scan"}, "name": "1ce301b9d22d910504538fc03bce7941", "type": "electric_scooter", "lat": 38.924037166666665, "is_disabled": 0}, {"fusion_lat": 0.0, "lon": -77.01912266666666, "is_reserved": 0, "bike_id": "a908aac6e867590fd726dfed0ec11b6a", "fusion_lon": 0.0, "rental_uris": {"android": "https://dc.lft.to/lastmile_qr_scan", "ios": "https://dc.lft.to/lastmile_qr_scan"}, "name": "a908aac6e867590fd726dfed0ec11b6a", "type": "electric_scooter", "lat": 38.941179166666664, "is_disabled": 0}, {"fusion_lat": 0.0, "lon": -77.02850633333334, "is_reserved": 0, "bike_id": "49adece169323da26fa502ee6a148b07", "fusion_lon": 0.0, "rental_uris": {"android": "https://dc.lft.to/lastmile_qr_scan", "ios": "https://dc.lft.to/lastmile_qr_scan"}, "name": "49adece169323da26fa502ee6a148b07", "type": "electric_scooter", "lat": 38.911645, "is_disabled": 0}, {"fusion_lat": 0.0, "lon": -77.0020185, "is_reserved": 0, "bike_id": "28a7334f60feb53c2d11ca46037a212c", "fusion_lon": 0.0, "rental_uris": {"android": "https://dc.lft.to/lastmile_qr_scan", "ios": "https://dc.lft.to/lastmile_qr_scan"}, "name": "28a7334f60feb53c2d11ca46037a212c", "type": "electric_scooter", "lat": 38.90242583333333, "is_disabled": 0}, {"fusion_lat": 0.0, "lon": -77.05423083333334, "is_reserved": 0, "bike_id": "dc61fc78ce9b11e8643140d3ea45bf5b", "fusion_lon": 0.0, "rental_uris": {"android": "https://dc.lft.to/lastmile_qr_scan", "ios": "https://dc.lft.to/lastmile_qr_scan"}, "name": "dc61fc78ce9b11e8643140d3ea45bf5b", "type": "electric_scooter", "lat": 38.923626166666665, "is_disabled": 0}, {"fusion_lat": 0.0, "lon": -77.04256966666667, "is_reserved": 0, "bike_id": "1a6d804c6cf8df847a09cfa93bb62d2a", "fusion_lon": 0.0, "rental_uris": {"android": "https://dc.lft.to/lastmile_qr_scan", "ios": "https://dc.lft.to/lastmile_qr_scan"}, "name": "1a6d804c6cf8df847a09cfa93bb62d2a", "type": "electric_scooter", "lat": 38.90637016666667, "is_disabled": 0}, {"fusion_lat": 0.0, "lon": -77.02093533333333, "is_reserved": 0, "bike_id": "70e70c1a9f428bc01872db6214e96c63", "fusion_lon": 0.0, "rental_uris": {"android": "https://dc.lft.to/lastmile_qr_scan", "ios": "https://dc.lft.to/lastmile_qr_scan"}, "name": "70e70c1a9f428bc01872db6214e96c63", "type": "electric_scooter", "lat": 38.914237, "is_disabled": 0}, {"fusion_lat": 0.0, "lon": -77.01012, "is_reserved": 0, "bike_id": "a03a1ccc990a0deeb6ab3e3dff6fc641", "fusion_lon": 0.0, "rental_uris": {"android": "https://dc.lft.to/lastmile_qr_scan", "ios": "https://dc.lft.to/lastmile_qr_scan"}, "name": "a03a1ccc990a0deeb6ab3e3dff6fc641", "type": "electric_bike", "lat": 38.87963333333333, "is_disabled": 0}, {"fusion_lat": 0.0, "lon": -77.02891233333334, "is_reserved": 0, "bike_id": "b1a71558a88cec382cda05c4a42a0df8", "fusion_lon": 0.0, "rental_uris": {"android": "https://dc.lft.to/lastmile_qr_scan", "ios": "https://dc.lft.to/lastmile_qr_scan"}, "name": "b1a71558a88cec382cda05c4a42a0df8", "type": "electric_scooter", "lat": 38.903202666666665, "is_disabled": 0}, {"fusion_lat": 0.0, "lon": -77.04660783333334, "is_reserved": 0, "bike_id": "7dd4e3f3ec6330d94e4debf8b590db86", "fusion_lon": 0.0, "rental_uris": {"android": "https://dc.lft.to/lastmile_qr_scan", "ios": "https://dc.lft.to/lastmile_qr_scan"}, "name": "7dd4e3f3ec6330d94e4debf8b590db86", "type": "electric_scooter", "lat": 38.913402166666664, "is_disabled": 0}, {"fusion_lat": 0.0, "lon": -77.01987233333334, "is_reserved": 0, "bike_id": "391e597cf159d078bce5ab7162dd6dac", "fusion_lon": 0.0, "rental_uris": {"android": "https://dc.lft.to/lastmile_qr_scan", "ios": "https://dc.lft.to/lastmile_qr_scan"}, "name": "391e597cf159d078bce5ab7162dd6dac", "type": "electric_scooter", "lat": 38.91433516666667, "is_disabled": 0}, {"fusion_lat": 0.0, "lon": -77.02494366666667, "is_reserved": 0, "bike_id": "5b0b68dba001cab952a590628f4ce711", "fusion_lon": 0.0, "rental_uris": {"android": "https://dc.lft.to/lastmile_qr_scan", "ios": "https://dc.lft.to/lastmile_qr_scan"}, "name": "5b0b68dba001cab952a590628f4ce711", "type": "electric_scooter", "lat": 38.93859116666667, "is_disabled": 0}, {"fusion_lat": 0.0, "lon": -77.04079216666666, "is_reserved": 0, "bike_id": "d8c3d9695acaebc83068e7d3f7414472", "fusion_lon": 0.0, "rental_uris": {"android": "https://dc.lft.to/lastmile_qr_scan", "ios": "https://dc.lft.to/lastmile_qr_scan"}, "name": "d8c3d9695acaebc83068e7d3f7414472", "type": "electric_scooter", "lat": 38.917069, "is_disabled": 0}, {"fusion_lat": 0.0, "lon": -77.0269265, "is_reserved": 0, "bike_id": "6c1ed7037cfd4ee661f661ce3b111ce9", "fusion_lon": 0.0, "rental_uris": {"android": "https://dc.lft.to/lastmile_qr_scan", "ios": "https://dc.lft.to/lastmile_qr_scan"}, "name": "6c1ed7037cfd4ee661f661ce3b111ce9", "type": "electric_scooter", "lat": 38.9124575, "is_disabled": 0}, {"fusion_lat": 0.0, "lon": -76.99832783333333, "is_reserved": 0, "bike_id": "9ddc4edaca2bb7d7c648acc04b284dba", "fusion_lon": 0.0, "rental_uris": {"android": "https://dc.lft.to/lastmile_qr_scan", "ios": "https://dc.lft.to/lastmile_qr_scan"}, "name": "9ddc4edaca2bb7d7c648acc04b284dba", "type": "electric_scooter", "lat": 38.90856266666667, "is_disabled": 0}, {"fusion_lat": 0.0, "lon": -77.02234266666666, "is_reserved": 0, "bike_id": "ee3ab80ddea7c6e4f8b6f78a64c8c74e", "fusion_lon": 0.0, "rental_uris": {"android": "https://dc.lft.to/lastmile_qr_scan", "ios": "https://dc.lft.to/lastmile_qr_scan"}, "name": "ee3ab80ddea7c6e4f8b6f78a64c8c74e", "type": "electric_bike", "lat": 38.956826666666664, "is_disabled": 0}, {"fusion_lat": 0.0, "lon": -77.03396916666667, "is_reserved": 0, "bike_id": "0102b1e540cfaf4ff36c87a138d021c9", "fusion_lon": 0.0, "rental_uris": {"android": "https://dc.lft.to/lastmile_qr_scan", "ios": "https://dc.lft.to/lastmile_qr_scan"}, "name": "0102b1e540cfaf4ff36c87a138d021c9", "type": "electric_scooter", "lat": 38.923056333333335, "is_disabled": 0}, {"fusion_lat": 0.0, "lon": -77.0241015, "is_reserved": 0, "bike_id": "9f49d354a864a036afbdc472144e3bd1", "fusion_lon": 0.0, "rental_uris": {"android": "https://dc.lft.to/lastmile_qr_scan", "ios": "https://dc.lft.to/lastmile_qr_scan"}, "name": "9f49d354a864a036afbdc472144e3bd1", "type": "electric_scooter", "lat": 38.95705866666667, "is_disabled": 0}, {"fusion_lat": 0.0, "lon": -77.03078233333333, "is_reserved": 0, "bike_id": "38a492795a2829001e6b1646513aa980", "fusion_lon": 0.0, "rental_uris": {"android": "https://dc.lft.to/lastmile_qr_scan", "ios": "https://dc.lft.to/lastmile_qr_scan"}, "name": "38a492795a2829001e6b1646513aa980", "type": "electric_scooter", "lat": 38.91755766666667, "is_disabled": 0}, {"fusion_lat": 0.0, "lon": -76.93143783333333, "is_reserved": 0, "bike_id": "a05cd26002c7822840e47efd3d5bfaa6", "fusion_lon": 0.0, "rental_uris": {"android": "https://dc.lft.to/lastmile_qr_scan", "ios": "https://dc.lft.to/lastmile_qr_scan"}, "name": "a05cd26002c7822840e47efd3d5bfaa6", "type": "electric_scooter", "lat": 38.880757, "is_disabled": 0}, {"fusion_lat": 0.0, "lon": -77.1033035, "is_reserved": 0, "bike_id": "d12ca3d027fe85e2862bbc612454e08f", "fusion_lon": 0.0, "rental_uris": {"android": "https://dc.lft.to/lastmile_qr_scan", "ios": "https://dc.lft.to/lastmile_qr_scan"}, "name": "d12ca3d027fe85e2862bbc612454e08f", "type": "electric_bike", "lat": 38.8741695, "is_disabled": 0}, {"fusion_lat": 0.0, "lon": -77.00791333333333, "is_reserved": 0, "bike_id": "5f3f8ec03ee01100caaf03975fd1c600", "fusion_lon": 0.0, "rental_uris": {"android": "https://dc.lft.to/lastmile_qr_scan", "ios": "https://dc.lft.to/lastmile_qr_scan"}, "name": "5f3f8ec03ee01100caaf03975fd1c600", "type": "electric_scooter", "lat": 38.906489666666666, "is_disabled": 0}, {"fusion_lat": 0.0, "lon": -76.99389916666667, "is_reserved": 0, "bike_id": "9a1704538d25b2c66747a890985a0816", "fusion_lon": 0.0, "rental_uris": {"android": "https://dc.lft.to/lastmile_qr_scan", "ios": "https://dc.lft.to/lastmile_qr_scan"}, "name": "9a1704538d25b2c66747a890985a0816", "type": "electric_scooter", "lat": 38.89728066666667, "is_disabled": 0}, {"fusion_lat": 0.0, "lon": -77.00392116666667, "is_reserved": 0, "bike_id": "8d75d99330d5039b6b5fa02cfbae4536", "fusion_lon": 0.0, "rental_uris": {"android": "https://dc.lft.to/lastmile_qr_scan", "ios": "https://dc.lft.to/lastmile_qr_scan"}, "name": "8d75d99330d5039b6b5fa02cfbae4536", "type": "electric_scooter", "lat": 38.90569983333334, "is_disabled": 0}, {"fusion_lat": 0.0, "lon": -77.00595633333333, "is_reserved": 0, "bike_id": "5c8a3d200d3428777f62490617698e24", "fusion_lon": 0.0, "rental_uris": {"android": "https://dc.lft.to/lastmile_qr_scan", "ios": "https://dc.lft.to/lastmile_qr_scan"}, "name": "5c8a3d200d3428777f62490617698e24", "type": "electric_scooter", "lat": 38.905562833333335, "is_disabled": 0}, {"fusion_lat": 0.0, "lon": -76.98779166666667, "is_reserved": 0, "bike_id": "d96fd970c94f550efaac33cff9ab00a9", "fusion_lon": 0.0, "rental_uris": {"android": "https://dc.lft.to/lastmile_qr_scan", "ios": "https://dc.lft.to/lastmile_qr_scan"}, "name": "d96fd970c94f550efaac33cff9ab00a9", "type": "electric_scooter", "lat": 38.84466483333333, "is_disabled": 0}, {"fusion_lat": 0.0, "lon": -77.03487566666666, "is_reserved": 0, "bike_id": "9cc1b0a3cba498da348c9ce99531b268", "fusion_lon": 0.0, "rental_uris": {"android": "https://dc.lft.to/lastmile_qr_scan", "ios": "https://dc.lft.to/lastmile_qr_scan"}, "name": "9cc1b0a3cba498da348c9ce99531b268", "type": "electric_scooter", "lat": 38.92476633333333, "is_disabled": 0}, {"fusion_lat": 0.0, "lon": -77.04355583333333, "is_reserved": 0, "bike_id": "be4b50e120b3580b90001640defb4fcf", "fusion_lon": 0.0, "rental_uris": {"android": "https://dc.lft.to/lastmile_qr_scan", "ios": "https://dc.lft.to/lastmile_qr_scan"}, "name": "be4b50e120b3580b90001640defb4fcf", "type": "electric_scooter", "lat": 38.9072595, "is_disabled": 0},