{"data": {"bikes": [{"fusion_lat": 0.0, "name": "1df9c96192f49b7b0d884e4902ab7f30", "is_disabled": 0, "rental_uris": {"android": "https://dc.lft.to/lastmile_qr_scan", "ios": "https://dc.lft.to/lastmile_qr_scan"}, "fusion_lon": 0.0, "lat": 38.884428666666665, "bike_id": "1df9c96192f49b7b0d884e4902ab7f30", "type": "electric_scooter", "is_reserved": 0, "lon": -77.0255905}, {"fusion_lat": 0.0, "name": "49dfcdf7e5b4eee8768a0e36c5b664e3", "is_disabled": 0, "rental_uris": {"android": "https://dc.lft.to/lastmile_qr_scan", "ios": "https://dc.lft.to/lastmile_qr_scan"}, "fusion_lon": 0.0, "lat": 38.90661383333333, "bike_id": "49dfcdf7e5b4eee8768a0e36c5b664e3", "type": "electric_bike", "is_reserved": 0, "lon": -77.00897566666667}, {"fusion_lat": 0.0, "name": "fb717250ad04b938475c57450397f625", "is_disabled": 0, "rental_uris": {"android": "https://dc.lft.to/lastmile_qr_scan", "ios": "https://dc.lft.to/lastmile_qr_scan"}, "fusion_lon": 0.0, "lat": 38.91779116666667, "bike_id": "fb717250ad04b938475c57450397f625", "type": "electric_scooter", "is_reserved": 0, "lon": -77.02341266666667}, {"fusion_lat": 0.0, "name": "6ed44c536cfed0027cf2839a80a05233", "is_disabled": 0, "rental_uris": {"android": "https://dc.lft.to/lastmile_qr_scan", "ios": "https://dc.lft.to/lastmile_qr_scan"}, "fusion_lon": 0.0, "lat": 38.900557166666665, "bike_id": "6ed44c536cfed0027cf2839a80a05233", "type": "electric_scooter", "is_reserved": 0, "lon": -77.01388933333334}, {"fusion_lat": 0.0, "name": "073fe606406cc0e806a258fa5079eb37", "is_disabled": 0, "rental_uris": {"android": "https://dc.lft.to/lastmile_qr_scan", "ios": "https://dc.lft.to/lastmile_qr_scan"}, "fusion_lon": 0.0, "lat": 38.8905335, "bike_id": "073fe606406cc0e806a258fa5079eb37", "type": "electric_scooter", "is_reserved": 0, "lon": -77.01972166666667}, {"fusion_lat": 0.0, "name": "24e21891fb29ed072522bb182f5393ed", "is_disabled": 0, "rental_uris": {"android": "https://dc.lft.to/lastmile_qr_scan", "ios": "https://dc.lft.to/lastmile_qr_scan"}, "fusion_lon": 0.0, "lat": 38.909698, "bike_id": "24e21891fb29ed072522bb182f5393ed", "type": "electric_scooter", "is_reserved": 0, "lon": -77.01714416666667}, {"fusion_lat": 0.0, "name": "984fd22cb8286deef4bad4827ef8a4bf", "is_disabled": 0, "rental_uris": {"android": "https://dc.lft.to/lastmile_qr_scan", "ios": "https://dc.lft.to/lastmile_qr_scan"}, "fusion_lon": 0.0, "lat": 38.906865833333335, "bike_id": "984fd22cb8286deef4bad4827ef8a4bf", "type": "electric_scooter", "is_reserved": 0, "lon": -77.02718783333333}, {"fusion_lat": 0.0, "name": "1385e5da8ded170f64b82ec4183af233", "is_disabled": 0, "rental_uris": {"android": "https://dc.lft.to/lastmile_qr_scan", "ios": "https://dc.lft.to/lastmile_qr_scan"}, "fusion_lon": 0.0, "lat": 38.941199, "bike_id": "1385e5da8ded170f64b82ec4183af233", "type": "electric_bike", "is_reserved": 0, "lon": -76.99032716666666}, {"fusion_lat": 0.0, "name": "5ba1ac618173ea4d269d5d7611454af2", "is_disabled": 0, "rental_uris": {"android": "https://dc.lft.to/lastmile_qr_scan", "ios": "https://dc.lft.to/lastmile_qr_scan"}, "fusion_lon": 0.0, "lat": 38.923680833333336, "bike_id": "5ba1ac618173ea4d269d5d7611454af2", "type": "electric_scooter", "is_reserved": 0, "lon": -77.031833}, {"fusion_lat": 0.0, "name": "9c2abdce5959707f1cd83f5427902a74", "is_disabled": 0, "rental_uris": {"android": "https://dc.lft.to/lastmile_qr_scan", "ios": "https://dc.lft.to/lastmile_qr_scan"}, "fusion_lon": 0.0, "lat": 38.9025955, "bike_id": "9c2abdce5959707f1cd83f5427902a74", "type": "electric_scooter", "is_reserved": 0, "lon": -76.97453216666666}, {"fusion_lat": 0.0, "name": "9925953b10a080fb2f3c3407444393b2", "is_disabled": 0, "rental_uris": {"android": "https://dc.lft.to/lastmile_qr_scan", "ios": "https://dc.lft.to/lastmile_qr_scan"}, "fusion_lon": 0.0, "lat": 38.860142833333335, "bike_id": "9925953b10a080fb2f3c3407444393b2", "type": "electric_bike", "is_reserved": 0, "lon": -77.12808066666666}, {"fusion_lat": 0.0, "name": "60b4b810844f2dbf9b211c91f0125070", "is_disabled": 0, "rental_uris": {"android": "https://dc.lft.to/lastmile_qr_scan", "ios": "https://dc.lft.to/lastmile_qr_scan"}, "fusion_lon": 0.0, "lat": 38.90153866666667, "bike_id": "60b4b810844f2dbf9b211c91f0125070", "type": "electric_scooter", "is_reserved": 0, "lon": -77.02310116666666}, {"fusion_lat": 0.0, "name": "46aa6c6a8e1705db310dab36c63e9ad2", "is_disabled": 0, "rental_uris": {"android": "https://dc.lft.to/lastmile_qr_scan", "ios": "https://dc.lft.to/lastmile_qr_scan"}, "fusion_lon": 0.0, "lat": 38.912963166666664, "bike_id": "46aa6c6a8e1705db310dab36c63e9ad2", "type": "electric_scooter", "is_reserved": 0, "lon": -77.02785066666667}, {"fusion_lat": 0.0, "name": "7572d61011fae8bc5d13595d3aa243c1", "is_disabled": 0, "rental_uris": {"android": "https://dc.lft.to/lastmile_qr_scan", "ios": "https://dc.lft.to/lastmile_qr_scan"}, "fusion_lon": 0.0, "lat": 38.90778566666667, "bike_id": "7572d61011fae8bc5d13595d3aa243c1", "type": "electric_scooter", "is_reserved": 0, "lon": -77.04219833333333}, {"fusion_lat": 0.0, "name": "a3537839b9c82ea91da2e6d8c8dab310", "is_disabled": 0, "rental_uris": {"android": "https://dc.lft.to/lastmile_qr_scan", "ios": "https://dc.lft.to/lastmile_qr_scan"}, "fusion_lon": 0.0, "lat": 38.92317933333333, "bike_id": "a3537839b9c82ea91da2e6d8c8dab310", "type": "electric_scooter", "is_reserved": 0, "lon": -77.020457}, {"fusion_lat": 0.0, "name": "907210ec0f029631033f278abffeac7f", "is_disabled": 0, "rental_uris": {"android": "https://dc.lft.to/lastmile_qr_scan", "ios": "https://dc.lft.to/lastmile_qr_scan"}, "fusion_lon": 0.0, "lat": 38.93522433333333, "bike_id": "907210ec0f029631033f278abffeac7f", "type": "electric_scooter", "is_reserved": 0, "lon": -77.032623}, {"fusion_lat": 0.0, "name": "cbe08c9f0955c7c91fb8dc2b5312f93e", "is_disabled": 0, "rental_uris": {"android": "https://dc.lft.to/lastmile_qr_scan", "ios": "https://dc.lft.to/lastmile_qr_scan"}, "fusion_lon": 0.0, "lat": 38.904668, "bike_id": "cbe08c9f0955c7c91fb8dc2b5312f93e", "type": "electric_scooter", "is_reserved": 0, "lon": -77.03239383333333}, {"fusion_lat": 0.0, "name": "6d258098cd3516a7faaf4c4d8c694a58", "is_disabled": 0, "rental_uris": {"android": "https://dc.lft.to/lastmile_qr_scan", "ios": "https://dc.lft.to/lastmile_qr_scan"}, "fusion_lon": 0.0, "lat": 38.930758166666664, "bike_id": "6d258098cd3516a7faaf4c4d8c694a58", "type": "electric_scooter", "is_reserved": 0, "lon": -77.07760633333334}, {"fusion_lat": 0.0, "name": "895968ff3696fe3e7a05af5ca18f8c84", "is_disabled": 0, "rental_uris": {"android": "https://dc.lft.to/lastmile_qr_scan", "ios": "https://dc.lft.to/lastmile_qr_scan"}, "fusion_lon": 0.0, "lat": 38.913306166666665, "bike_id": "895968ff3696fe3e7a05af5ca18f8c84", "type": "electric_scooter", "is_reserved": 0, "lon": -77.03170466666667}, {"fusion_lat": 0.0, "name": "0e330d9e703b6e35181fd1edc3d1bacc", "is_disabled": 0, "rental_uris": {"android": "https://dc.lft.to/lastmile_qr_scan", "ios": "https://dc.lft.to/lastmile_qr_scan"}, "fusion_lon": 0.0, "lat": 38.888063333333335, "bike_id": "0e330d9e703b6e35181fd1edc3d1bacc", "type": "electric_scooter", "is_reserved": 0, "lon": -76.983583}, {"fusion_lat": 0.0, "name": "c88a5e19ef799bb5aa6457bfc12bf838", "is_disabled": 0, "rental_uris": {"android": "https://dc.lft.to/lastmile_qr_scan", "ios": "https://dc.lft.to/lastmile_qr_scan"}, "fusion_lon": 0.0, "lat": 38.8995325, "bike_id": "c88a5e19ef799bb5aa6457bfc12bf838", "type": "electric_scooter", "is_reserved": 0, "lon": -77.0547175}, {"fusion_lat": 0.0, "name": "2ac7d91bac3496e1110e80f213f6664b", "is_disabled": 0, "rental_uris": {"android": "https://dc.lft.to/lastmile_qr_scan", "ios": "https://dc.lft.to/lastmile_qr_scan"}, "fusion_lon": 0.0, "lat": 38.92416816666667, "bike_id": "2ac7d91bac3496e1110e80f213f6664b", "type": "electric_scooter", "is_reserved": 0, "lon": -77.02013733333334}, {"fusion_lat": 0.0, "name": "79e458840f2356d87f9216c79c99662f", "is_disabled": 0, "rental_uris": {"android": "https://dc.lft.to/lastmile_qr_scan", "ios": "https://dc.lft.to/lastmile_qr_scan"}, "fusion_lon": 0.0, "lat": 38.926835, "bike_id": "79e458840f2356d87f9216c79c99662f", "type": "electric_scooter", "is_reserved": 0, "lon": -77.03147}, {"fusion_lat": 0.0, "name": "9d8798f5cb41c80a3c0e59524ceda723", "is_disabled": 0, "rental_uris": {"android": "https://dc.lft.to/lastmile_qr_scan", "ios": "https://dc.lft.to/lastmile_qr_scan"}, "fusion_lon": 0.0, "lat": 38.8737755, "bike_id": "9d8798f5cb41c80a3c0e59524ceda723", "type": "electric_scooter", "is_reserved": 0, "lon": -77.00059733333333}, {"fusion_lat": 0.0, "name": "fc72cdd8342db4befbcd34ed227f43b5", "is_disabled": 0, "rental_uris": {"android": "https://dc.lft.to/lastmile_qr_scan", "ios": "https://dc.lft.to/lastmile_qr_scan"}, "fusion_lon": 0.0, "lat": 38.9134635, "bike_id": "fc72cdd8342db4befbcd34ed227f43b5", "type": "electric_bike", "is_reserved": 0, "lon": -76.98900433333333}, {"fusion_lat": 0.0, "name": "56a2f053f9665c412b4abb90201c7bad", "is_disabled": 0, "rental_uris": {"android": "https://dc.lft.to/lastmile_qr_scan", "ios": "https://dc.lft.to/lastmile_qr_scan"}, "fusion_lon": 0.0, "lat": 38.87188416666667, "bike_id": "56a2f053f9665c412b4abb90201c7bad", "type": "electric_scooter", "is_reserved": 0, "lon": -77.0062875}, {"fusion_lat": 0.0, "name": "ccbd9a12dd173e761c73ddd5a4c3d9ea", "is_disabled": 0, "rental_uris": {"android": "https://dc.lft.to/lastmile_qr_scan", "ios": "https://dc.lft.to/lastmile_qr_scan"}, "fusion_lon": 0.0, "lat": 38.9029485, "bike_id": "ccbd9a12dd173e761c73ddd5a4c3d9ea", "type": "electric_scooter", "is_reserved": 0, "lon": -76.99260133333334}, {"fusion_lat": 0.0, "name": "1209c776da65912d92b83647e5be67bc", "is_disabled": 0, "rental_uris": {"android": "https://dc.lft.to/lastmile_qr_scan", "ios": "https://dc.lft.to/lastmile_qr_scan"}, "fusion_lon": 0.0, "lat": 38.916055166666666, "bike_id": "1209c776da65912d92b83647e5be67bc", "type": "electric_scooter", "is_reserved": 0, "lon": -77.02111166666667}, {"fusion_lat": 0.0, "name": "3a3b08e46cce208a2c717f61152f47b5", "is_disabled": 0, "rental_uris": {"android": "https://dc.lft.to/lastmile_qr_scan", "ios": "https://dc.lft.to/lastmile_qr_scan"}, "fusion_lon": 0.0, "lat": 38.944351166666664, "bike_id": "3a3b08e46cce208a2c717f61152f47b5", "type": "electric_bike", "is_reserved": 0, "lon": -77.0260765}, {"fusion_lat": 0.0, "name": "eb63d623e1f6a6e282b7e083496449b1", "is_disabled": 0, "rental_uris": {"android": "https://dc.lft.to/lastmile_qr_scan", "ios": "https://dc.lft.to/lastmile_qr_scan"}, "fusion_lon": 0.0, "lat": 38.919490833333334, "bike_id": "eb63d623e1f6a6e282b7e083496449b1", "type": "electric_scooter", "is_reserved": 0, "lon": -77.032024}, {"fusion_lat": 0.0, "name": "f0a2b5743050824eb7cb5a92768e1ad3", "is_disabled": 0, "rental_uris": {"android": "https://dc.lft.to/lastmile_qr_scan", "ios": "https://dc.lft.to/lastmile_qr_scan"}, "fusion_lon": 0.0, "lat": 38.79021633333333, "bike_id": "f0a2b5743050824eb7cb5a92768e1ad3", "type": "electric_bike", "is_reserved": 0, "lon": -77.01549583333333}, {"fusion_lat": 0.0, "name": "11909dcc0bbc32c8d58af33aebb8d5b3", "is_disabled": 0, "rental_uris": {"android": "https://dc.lft.to/lastmile_qr_scan", "ios": "https://dc.lft.to/lastmile_qr_scan"}, "fusion_lon": 0.0, "lat": 38.93595883333333, "bike_id": "11909dcc0bbc32c8d58af33aebb8d5b3", "type": "electric_scooter", "is_reserved": 0, "lon": -77.02298766666667}, {"fusion_lat": 0.0, "name": "8ff52d3c943f9c49b5d434422d528463", "is_disabled": 0, "rental_uris": {"android": "https://dc.lft.to/lastmile_qr_scan", "ios": "https://dc.lft.to/lastmile_qr_scan"}, "fusion_lon": 0.0, "lat": 38.9227425, "bike_id": "8ff52d3c943f9c49b5d434422d528463", "type": "electric_scooter", "is_reserved": 0, "lon": -77.042388}, {"fusion_lat": 0.0, "name": "d972941d19b7734c387d543d93c984af", "is_disabled": 0, "rental_uris": {"android": "https://dc.lft.to/lastmile_qr_scan", "ios": "https://dc.lft.to/lastmile_qr_scan"}, "fusion_lon": 0.0, "lat": 38.890893166666665, "bike_id": "d972941d19b7734c387d543d93c984af", "type": "electric_scooter", "is_reserved": 0, "lon": -76.91931033333333}, {"fusion_lat": 0.0, "name": "ed3e13604367833039ef3170e084a9cd", "is_disabled": 0, "rental_uris": {"android": "https://dc.lft.to/lastmile_qr_scan", "ios": "https://dc.lft.to/lastmile_qr_scan"}, "fusion_lon": 0.0, "lat": 38.87892383333333, "bike_id": "ed3e13604367833039ef3170e084a9cd", "type": "electric_scooter", "is_reserved": 0, "lon": -77.022049}, {"fusion_lat": 0.0, "name": "7bf9e3949375757d6406b1d62dace94f", "is_disabled": 0, "rental_uris": {"android": "https://dc.lft.to/lastmile_qr_scan", "ios": "https://dc.lft.to/lastmile_qr_scan"}, "fusion_lon": 0.0, "lat": 38.9207515, "bike_id": "7bf9e3949375757d6406b1d62dace94f", "type": "electric_scooter", "is_reserved": 0, "lon": -76.99177883333333}, {"fusion_lat": 0.0, "name": "93004db9856b0265d5842e50e17d0e9a", "is_disabled": 0, "rental_uris": {"android": "https://dc.lft.to/lastmile_qr_scan", "ios": "https://dc.lft.to/lastmile_qr_scan"}, "fusion_lon": 0.0, "lat": 38.926729333333334, "bike_id": "93004db9856b0265d5842e50e17d0e9a", "type": "electric_scooter", "is_reserved": 0, "lon": -77.030549}, {"fusion_lat": 0.0, "name": "e54c5ce380c4be6a50276052ab871b30", "is_disabled": 0, "rental_uris": {"android": "https://dc.lft.to/lastmile_qr_scan", "ios": "https://dc.lft.to/lastmile_qr_scan"}, "fusion_lon": 0.0, "lat": 38.926828, "bike_id": "e54c5ce380c4be6a50276052ab871b30", "type": "electric_scooter", "is_reserved": 0, "lon": -77.03232166666666}, {"fusion_lat": 0.0, "name": "4c3644d09fbeb657d426491fec208dac", "is_disabled": 0, "rental_uris": {"android": "https://dc.lft.to/lastmile_qr_scan", "ios": "https://dc.lft.to/lastmile_qr_scan"}, "fusion_lon": 0.0, "lat": 38.91540283333333, "bike_id": "4c3644d09fbeb657d426491fec208dac", "type": "electric_scooter", "is_reserved": 0, "lon": -76.98367133333333}, {"fusion_lat": 0.0, "name": "b63307a1bbf4413d4d0a803e83804e55", "is_disabled": 0, "rental_uris": {"android": "https://dc.lft.to/lastmile_qr_scan", "ios": "https://dc.lft.to/lastmile_qr_scan"}, "fusion_lon": 0.0, "lat": 38.87642116666667, "bike_id": "b63307a1bbf4413d4d0a803e83804e55", "type": "electric_scooter", "is_reserved": 0, "lon": -77.01473883333334}, {"fusion_lat": 0.0, "name": "d7330ac580c983650caf4a11d82a2b37", "is_disabled": 0, "rental_uris": {"android": "https://dc.lft.to/lastmile_qr_scan", "ios": "https://dc.lft.to/lastmile_qr_scan"}, "fusion_lon": 0.0, "lat": 38.90343633333333, "bike_id": "d7330ac580c983650caf4a11d82a2b37", "type": "electric_scooter", "is_reserved": 0, "lon": -76.9747645}, {"fusion_lat": 0.0, "name": "f8b0aab8b5140e0684b4f46072630c28", "is_disabled": 0, "rental_uris": {"android": "https://dc.lft.to/lastmile_qr_scan", "ios": "https://dc.lft.to/lastmile_qr_scan"}, "fusion_lon": 0.0, "lat": 38.897267166666666, "bike_id": "f8b0aab8b5140e0684b4f46072630c28", "type": "electric_scooter", "is_reserved": 0, "lon": -77.00755933333333}, {"fusion_lat": 0.0, "name": "79d23aaee130a0e90a8dcb1829c618d7", "is_disabled": 0, "rental_uris": {"android": "https://dc.lft.to/lastmile_qr_scan", "ios": "https://dc.lft.to/lastmile_qr_scan"}, "fusion_lon": 0.0, "lat": 38.938315, "bike_id": "79d23aaee130a0e90a8dcb1829c618d7", "type": "electric_scooter", "is_reserved": 0, "lon": -77.02647633333333}, {"fusion_lat": 0.0, "name": "c5cbf4dae319d3a9e23eed60ccf5ee1c", "is_disabled": 0, "rental_uris": {"android": "https://dc.lft.to/lastmile_qr_scan", "ios": "https://dc.lft.to/lastmile_qr_scan"}, "fusion_lon": 0.0, "lat": 38.90926283333334, "bike_id": "c5cbf4dae319d3a9e23eed60ccf5ee1c", "type": "electric_scooter", "is_reserved": 0, "lon": -77.0625675}, {"fusion_lat": 0.0, "name": "8f1ab5b9209ddef4c20423201d402f4a", "is_disabled": 0, "rental_uris": {"android": "https://dc.lft.to/lastmile_qr_scan", "ios": "https://dc.lft.to/lastmile_qr_scan"}, "fusion_lon": 0.0, "lat": 38.935291, "bike_id": "8f1ab5b9209ddef4c20423201d402f4a", "type": "electric_scooter", "is_reserved": 0, "lon": -77.04513983333334}, {"fusion_lat": 0.0, "name": "e5d157029c0812cea87abbad98f66ce0", "is_disabled": 0, "rental_uris": {"android": "https://dc.lft.to/lastmile_qr_scan", "ios": "https://dc.lft.to/lastmile_qr_scan"}, "fusion_lon": 0.0, "lat": 38.8981725, "bike_id": "e5d157029c0812cea87abbad98f66ce0", "type": "electric_scooter", "is_reserved": 0, "lon": -77.046824}, {"fusion_lat": 0.0, "name": "dc1da73630df1d12422e4a77d20214fe", "is_disabled": 0, "rental_uris": {"android": "https://dc.lft.to/lastmile_qr_scan", "ios": "https://dc.lft.to/lastmile_qr_scan"}, "fusion_lon": 0.0, "lat": 38.88404583333333, "bike_id": "dc1da73630df1d12422e4a77d20214fe", "type": "electric_scooter", "is_reserved": 0, "lon": -77.00837583333333}, {"fusion_lat": 0.0, "name": "3a64ace50c2baed683ffbb39981ccc78", "is_disabled": 0, "rental_uris": {"android": "https://dc.lft.to/lastmile_qr_scan", "ios": "https://dc.lft.to/lastmile_qr_scan"}, "fusion_lon": 0.0, "lat": 38.92079966666667, "bike_id": "3a64ace50c2baed683ffbb39981ccc78", "type": "electric_scooter", "is_reserved": 0, "lon": -77.02315316666666}, {"fusion_lat": 0.0, "name": "fba28a3524900aa3ad6f0893ce7b23a8", "is_disabled": 0, "rental_uris": {"android": "https://dc.lft.to/lastmile_qr_scan", "ios": "https://dc.lft.to/lastmile_qr_scan"}, "fusion_lon": 0.0, "lat": 38.900909166666665, "bike_id": "fba28a3524900aa3ad6f0893ce7b23a8", "type": "electric_scooter", "is_reserved": 0, "lon": -77.05067166666667}, {"fusion_lat": 0.0, "name": "7be360226ee10084faedbf4f7a347e1f", "is_disabled": 0, "rental_uris": {"android": "https://dc.lft.to/lastmile_qr_scan", "ios": "https://dc.lft.to/lastmile_qr_scan"}, "fusion_lon": 0.0, "lat": 38.973640333333336, "bike_id": "7be360226ee10084faedbf4f7a347e1f", "type": "electric_scooter", "is_reserved": 0, "lon": -77.012972}, {"fusion_lat": 0.0, "name": "8bc03fab775bfbfe36e409d91b9f26e0", "is_disabled": 0, "rental_uris": {"android": "https://dc.lft.to/lastmile_qr_scan", "ios": "https://dc.lft.to/lastmile_qr_scan"}, "fusion_lon": 0.0, "lat": 38.862555, "bike_id": "8bc03fab775bfbfe36e409d91b9f26e0", "type": "electric_bike", "is_reserved": 0, "lon": -76.983494}, {"fusion_lat": 0.0, "name": "c8a946eaf0d6e8fa25fdee94041529f2", "is_disabled": 0, "rental_uris": {"android": "https://dc.lft.to/lastmile_qr_scan", "ios": "https://dc.lft.to/lastmile_qr_scan"}, "fusion_lon": 0.0, "lat": 38.96640033333333, "bike_id": "c8a946eaf0d6e8fa25fdee94041529f2", "type": "electric_bike", "is_reserved": 0, "lon": -77.02752583333333}, {"fusion_lat": 0.0, "name": "8be06a100eddeba6f92b51b353e2d03d", "is_disabled": 0, "rental_uris": {"android": "https://dc.lft.to/lastmile_qr_scan", "ios": "https://dc.lft.to/lastmile_qr_scan"}, "fusion_lon": 0.0, "lat": 38.9037485, "bike_id": "8be06a100eddeba6f92b51b353e2d03d", "type": "electric_scooter", "is_reserved": 0, "lon": -77.067155}, {"fusion_lat": 0.0, "name": "0471c273eca401a7fc2fa4d4be93ecf2", "is_disabled": 0, "rental_uris": {"android": "https://dc.lft.to/lastmile_qr_scan", "ios": "https://dc.lft.to/lastmile_qr_scan"}, "fusion_lon": 0.0, "lat": 38.928667833333336, "bike_id": "0471c273eca401a7fc2fa4d4be93ecf2", "type": "electric_scooter", "is_reserved": 0, "lon": -77.073343}, {"fusion_lat": 0.0, "name": "bb54e8a5b6cc1502a1f0bc229b437091", "is_disabled": 0, "rental_uris": {"android": "https://dc.lft.to/lastmile_qr_scan", "ios": "https://dc.lft.to/lastmile_qr_scan"}, "fusion_lon": 0.0, "lat": 38.91009483333333, "bike_id": "bb54e8a5b6cc1502a1f0bc229b437091", "type": "electric_scooter", "is_reserved": 0, "lon": -77.05273383333333}, {"fusion_lat": 0.0, "name": "5090c98f71185a133dda0eb34aa176c2", "is_disabled": 0, "rental_uris": {"android": "https://dc.lft.to/lastmile_qr_scan", "ios": "https://dc.lft.to/lastmile_qr_scan"}, "fusion_lon": 0.0, "lat": 38.8836265, "bike_id": "5090c98f71185a133dda0eb34aa176c2", "type": "electric_scooter", "is_reserved": 0, "lon": -77.0136065}, {"fusion_lat": 0.0, "name": "6c9ed16aa49292586fb7701bbc48c64b", "is_disabled": 0, "rental_uris": {"android": "https://dc.lft.to/lastmile_qr_scan", "ios": "https://dc.lft.to/lastmile_qr_scan"}, "fusion_lon": 0.0, "lat": 38.93675283333334, "bike_id": "6c9ed16aa49292586fb7701bbc48c64b", "type": "electric_scooter", "is_reserved": 0, "lon": -77.03635733333333}, {"fusion_lat": 0.0, "name": "4d2b49c80473a31d7362c44e6258b535", "is_disabled": 0, "rental_uris": {"android": "https://dc.lft.to/lastmile_qr_scan", "ios": "https://dc.lft.to/lastmile_qr_scan"}, "fusion_lon": 0.0, "lat": 38.90516383333333, "bike_id": "4d2b49c80473a31d7362c44e6258b535", "type": "electric_scooter", "is_reserved": 0, "lon": -77.0679625}, {"fusion_lat": 0.0, "name": "5254e571380c15a48fa1242674b765d5", "is_disabled": 0, "rental_uris": {"android": "https://dc.lft.to/lastmile_qr_scan", "ios": "https://dc.lft.to/lastmile_qr_scan"}, "fusion_lon": 0.0, "lat": 38.8839775, "bike_id": "5254e571380c15a48fa1242674b765d5", "type": "electric_scooter", "is_reserved": 0, "lon": -76.93053633333334}, {"fusion_lat": 0.0, "name": "3e5811a47ba0a5d7118ebb45a312e296", "is_disabled": 0, "rental_uris": {"android": "https://dc.lft.to/lastmile_qr_scan", "ios": "https://dc.lft.to/lastmile_qr_scan"}, "fusion_lon": 0.0, "lat": 38.84190133333333, "bike_id": "3e5811a47ba0a5d7118ebb45a312e296", "type": "electric_bike", "is_reserved": 0, "lon": -77.07755516666667}, {"fusion_lat": 0.0, "name": "d5fec79abe9deeb88598b916e1f6d49b", "is_disabled": 0, "rental_uris": {"android": "https://dc.lft.to/lastmile_qr_scan", "ios": "https://dc.lft.to/lastmile_qr_scan"}, "fusion_lon": 0.0, "lat": 38.9035745, "bike_id": "d5fec79abe9deeb88598b916e1f6d49b", "type": "electric_scooter", "is_reserved": 0, "lon": -77.0610875}, {"fusion_lat": 0.0, "name": "763f7c99d09730c99af0402be258b62d", "is_disabled": 0, "rental_uris": {"android": "https://dc.lft.to/lastmile_qr_scan", "ios": "https://dc.lft.to/lastmile_qr_scan"}, "fusion_lon": 0.0, "lat": 38.89844166666666, "bike_id": "763f7c99d09730c99af0402be258b62d", "type": "electric_scooter", "is_reserved": 0, "lon": -77.0263135}, {"fusion_lat": 0.0, "name": "6112e26544e0510e2ab806f9d2a0381e", "is_disabled": 0, "rental_uris": {"android": "https://dc.lft.to/lastmile_qr_scan", "ios": "https://dc.lft.to/lastmile_qr_scan"}, "fusion_lon": 0.0, "lat": 38.89781033333333, "bike_id": "6112e26544e0510e2ab806f9d2a0381e", "type": "electric_scooter", "is_reserved": 0, "lon": -77.02190566666667}, {"fusion_lat": 0.0, "name": "01b2b4d43e59b960052958b9338c2e6e", "is_disabled": 0, "rental_uris": {"android": "https://dc.lft.to/lastmile_qr_scan", "ios": "https://dc.lft.to/lastmile_qr_scan"}, "fusion_lon": 0.0, "lat": 38.897292166666666, "bike_id": "01b2b4d43e59b960052958b9338c2e6e", "type": "electric_scooter", "is_reserved": 0, "lon": -77.055204}, {"fusion_lat": 0.0, "name": "103fdd711033eb4bc3920b093df9e650", "is_disabled": 0, "rental_uris": {"android": "https://dc.lft.to/lastmile_qr_scan", "ios": "https://dc.lft.to/lastmile_qr_scan"}, "fusion_lon": 0.0, "lat": 38.940939, "bike_id": "103fdd711033eb4bc3920b093df9e650", "type": "electric_scooter", "is_reserved": 0, "lon": -77.06183}, {"fusion_lat": 0.0, "name": "c58fbd7614969e483761dc579071ec19", "is_disabled": 0, "rental_uris": {"android": "https://dc.lft.to/lastmile_qr_scan", "ios": "https://dc.lft.to/lastmile_qr_scan"}, "fusion_lon": 0.0, "lat": 38.92174333333333, "bike_id": "c58fbd7614969e483761dc579071ec19", "type": "electric_scooter", "is_reserved": 0, "lon": -77.03186566666666}, {"fusion_lat": 0.0, "name": "b4601db8b43fc0f05f5a1d3bb2453c9a", "is_disabled": 0, "rental_uris": {"android": "https://dc.lft.to/lastmile_qr_scan", "ios": "https://dc.lft.to/lastmile_qr_scan"}, "fusion_lon": 0.0, "lat": 38.8839045, "bike_id": "b4601db8b43fc0f05f5a1d3bb2453c9a", "type": "electric_scooter", "is_reserved": 0, "lon": -76.93056766666666}, {"fusion_lat": 0.0, "name": "c39806e3990b17d40a580bea9c5bf88c", "is_disabled": 0, "rental_uris": {"android": "https://dc.lft.to/lastmile_qr_scan", "ios": "https://dc.lft.to/lastmile_qr_scan"}, "fusion_lon": 0.0, "lat": 38.85774083333333, "bike_id": "c39806e3990b17d40a580bea9c5bf88c", "type": "electric_bike", "is_reserved": 0, "lon": -76.98774183333333}, {"fusion_lat": 0.0, "name": "702001762f338d008636369c6eb1ee12", "is_disabled": 0, "rental_uris": {"android": "https://dc.lft.to/lastmile_qr_scan", "ios": "https://dc.lft.to/lastmile_qr_scan"}, "fusion_lon": 0.0, "lat": 38.8853685, "bike_id": "702001762f338d008636369c6eb1ee12", "type": "electric_scooter", "is_reserved": 0, "lon": -77.000644}, {"fusion_lat": 0.0, "name": "87f004791634ddd2e6823bf9bec0ecda", "is_disabled": 0, "rental_uris": {"android": "https://dc.lft.to/lastmile_qr_scan", "ios": "https://dc.lft.to/lastmile_qr_scan"}, "fusion_lon": 0.0, "lat": 38.88539333333333, "bike_id": "87f004791634ddd2e6823bf9bec0ecda", "type": "electric_scooter", "is_reserved": 0, "lon": -77.000689}, {"fusion_lat": 0.0, "name": "a8ef338a3af903fce8d0cd01d35086ca", "is_disabled": 0, "rental_uris": {"android": "https://dc.lft.to/lastmile_qr_scan", "ios": "https://dc.lft.to/lastmile_qr_scan"}, "fusion_lon": 0.0, "lat": 38.90456833333333, "bike_id": "a8ef338a3af903fce8d0cd01d35086ca", "type": "electric_scooter", "is_reserved": 0, "lon": -77.001629}, {"fusion_lat": 0.0, "name": "51f64eb89da5367a93b8ca10d49b6991", "is_disabled": 0, "rental_uris": {"android": "https://dc.lft.to/lastmile_qr_scan", "ios": "https://dc.lft.to/lastmile_qr_scan"}, "fusion_lon": 0.0, "lat": 38.9042745, "bike_id": "51f64eb89da5367a93b8ca10d49b6991", "type": "electric_scooter", "is_reserved": 0, "lon": -76.9498105}, {"fusion_lat": 0.0, "name": "020accaf1a93283e8f76cb6de35454fe", "is_disabled": 0, "rental_uris": {"android": "https://dc.lft.to/lastmile_qr_scan", "ios": "https://dc.lft.to/lastmile_qr_scan"}, "fusion_lon": 0.0, "lat": 38.89352066666667, "bike_id": "020accaf1a93283e8f76cb6de35454fe", "type": "electric_scooter", "is_reserved": 0, "lon": -77.03970616666666}, {"fusion_lat": 0.0, "name": "00cc14adbdc1206f7cd359883163b2d0", "is_disabled": 0, "rental_uris": {"android": "https://dc.lft.to/lastmile_qr_scan", "ios": "https://dc.lft.to/lastmile_qr_scan"}, "fusion_lon": 0.0, "lat": 38.901440666666666, "bike_id": "00cc14adbdc1206f7cd359883163b2d0", "type": "electric_scooter", "is_reserved": 0, "lon": -77.03474066666666}, {"fusion_lat": 0.0, "name": "12a236305be6d0b69c3f6b370c936969", "is_disabled": 0, "rental_uris": {"android": "https://dc.lft.to/lastmile_qr_scan", "ios": "https://dc.lft.to/lastmile_qr_scan"}, "fusion_lon": 0.0, "lat": 38.91316466666667, "bike_id": "12a236305be6d0b69c3f6b370c936969", "type": "electric_scooter", "is_reserved": 0, "lon": -77.01447516666667}, {"fusion_lat": 0.0, "name": "021b0d1fb486aadeb5a13319dbd25862", "is_disabled": 0, "rental_uris": {"android": "https://dc.lft.to/lastmile_qr_scan", "ios": "https://dc.lft.to/lastmile_qr_scan"}, "fusion_lon": 0.0, "lat": 38.940794833333335, "bike_id": "021b0d1fb486aadeb5a13319dbd25862", "type": "electric_scooter", "is_reserved": 0, "lon": -77.02393833333333}, {"fusion_lat": 0.0, "name": "6dc3f83f56533245a438d122b0ed7c6d", "is_disabled": 0, "rental_uris": {"android": "https://dc.lft.to/lastmile_qr_scan", "ios": "https://dc.lft.to/lastmile_qr_scan"}, "fusion_lon": 0.0, "lat": 38.928219166666665, "bike_id": "6dc3f83f56533245a438d122b0ed7c6d", "type": "electric_scooter", "is_reserved": 0, "lon": -77.02253866666666}, {"fusion_lat": 0.0, "name": "5401b414cb51018de8eec7893cb38df2", "is_disabled": 0, "rental_uris": {"android": "https://dc.lft.to/lastmile_qr_scan", "ios": "https://dc.lft.to/lastmile_qr_scan"}, "fusion_lon": 0.0, "lat": 38.926148833333336, "bike_id": "5401b414cb51018de8eec7893cb38df2", "type": "electric_scooter", "is_reserved": 0, "lon": -77.03957316666667}, {"fusion_lat": 0.0, "name": "74829170acc5ff83550906c088666f39", "is_disabled": 0, "rental_uris": {"android": "https://dc.lft.to/lastmile_qr_scan", "ios": "https://dc.lft.to/lastmile_qr_scan"}, "fusion_lon": 0.0, "lat": 38.928056833333336, "bike_id": "74829170acc5ff83550906c088666f39", "type": "electric_scooter", "is_reserved": 0, "lon": -77.04364033333333}, {"fusion_lat": 0.0, "name": "ea620eb1d8239bd09a8464962e4ecd32", "is_disabled": 0, "rental_uris": {"android": "https://dc.lft.to/lastmile_qr_scan", "ios": "https://dc.lft.to/lastmile_qr_scan"}, "fusion_lon": 0.0, "lat": 38.9644335, "bike_id": "ea620eb1d8239bd09a8464962e4ecd32", "type": "electric_bike", "is_reserved": 0, "lon": -77.02075966666666}, {"fusion_lat": 0.0, "name": "03078b14bdff65d55688be9f1e462317", "is_disabled": 0, "rental_uris": {"android": "https://dc.lft.to/lastmile_qr_scan", "ios": "https://dc.lft.to/lastmile_qr_scan"}, "fusion_lon": 0.0, "lat": 38.89219883333333, "bike_id": "03078b14bdff65d55688be9f1e462317", "type": "electric_scooter", "is_reserved": 0, "lon": -77.02219983333333}, {"fusion_lat": 0.0, "name": "a6f43e1b46b363f8f331b7cc11359aa7", "is_disabled": 0, "rental_uris": {"android": "https://dc.lft.to/lastmile_qr_scan", "ios": "https://dc.lft.to/lastmile_qr_scan"}, "fusion_lon": 0.0, "lat": 38.920212, "bike_id": "a6f43e1b46b363f8f331b7cc11359aa7", "type": "electric_scooter", "is_reserved": 0, "lon": -77.08196133333334}, {"fusion_lat": 0.0, "name": "a7c80ceb59ab6c814117b68b79e38080", "is_disabled": 0, "rental_uris": {"android": "https://dc.lft.to/lastmile_qr_scan", "ios": "https://dc.lft.to/lastmile_qr_scan"}, "fusion_lon": 0.0, "lat": 38.93702733333333, "bike_id": "a7c80ceb59ab6c814117b68b79e38080", "type": "electric_scooter", "is_reserved": 0, "lon": -77.06101483333333}, {"fusion_lat": 0.0, "name": "c5545c20be23b1e32b76d2387f9d48b1", "is_disabled": 0, "rental_uris": {"android": "https://dc.lft.to/lastmile_qr_scan", "ios": "https://dc.lft.to/lastmile_qr_scan"}, "fusion_lon": 0.0, "lat": 38.904304333333336, "bike_id": "c5545c20be23b1e32b76d2387f9d48b1", "type": "electric_scooter", "is_reserved": 0, "lon": -77.05153766666666}, {"fusion_lat": 0.0, "name": "7c9a900d28796ea423191b56d16371b4", "is_disabled": 0, "rental_uris": {"android": "https://dc.lft.to/lastmile_qr_scan", "ios": "https://dc.lft.to/lastmile_qr_scan"}, "fusion_lon": 0.0, "lat": 38.8483815, "bike_id": "7c9a900d28796ea423191b56d16371b4", "type": "electric_bike", "is_reserved": 0, "lon": -77.079179}, {"fusion_lat": 0.0, "name": "d9e8ac1ea343c643297137583f9dd4e3", "is_disabled": 0, "rental_uris": {"android": "https://dc.lft.to/lastmile_qr_scan", "ios": "https://dc.lft.to/lastmile_qr_scan"}, "fusion_lon": 0.0, "lat": 38.911078333333336, "bike_id": "d9e8ac1ea343c643297137583f9dd4e3", "type": "electric_scooter", "is_reserved": 0, "lon": -77.04390683333334}, {"fusion_lat": 0.0, "name": "d1482b312a8e38f044b40e19d196bc89", "is_disabled": 0, "rental_uris": {"android": "https://dc.lft.to/lastmile_qr_scan", "ios": "https://dc.lft.to/lastmile_qr_scan"}, "fusion_lon": 0.0, "lat": 38.9086395, "bike_id": "d1482b312a8e38f044b40e19d196bc89", "type": "electric_scooter", "is_reserved": 0, "lon": -77.0231095}, {"fusion_lat": 0.0, "name": "7177fb14a3eaa38338b94209d65070e7", "is_disabled": 0, "rental_uris": {"android": "https://dc.lft.to/lastmile_qr_scan", "ios": "https://dc.lft.to/lastmile_qr_scan"}, "fusion_lon": 0.0, "lat": 38.918135166666666, "bike_id": "7177fb14a3eaa38338b94209d65070e7", "type": "electric_scooter", "is_reserved": 0, "lon": -77.03199866666667}, {"fusion_lat": 0.0, "name": "8473116d17ca5c8e4537e9feca8d87e8", "is_disabled": 0, "rental_uris": {"android": "https://dc.lft.to/lastmile_qr_scan", "ios": "https://dc.lft.to/lastmile_qr_scan"}, "fusion_lon": 0.0, "lat": 38.932055, "bike_id": "8473116d17ca5c8e4537e9feca8d87e8", "type": "electric_scooter", "is_reserved": 0, "lon": -77.0366635}, {"fusion_lat": 0.0, "name": "78eb1d2e6a00a3f315c7ab2a07b621cb", "is_disabled": 0, "rental_uris": {"android": "https://dc.lft.to/lastmile_qr_scan", "ios": "https://dc.lft.to/lastmile_qr_scan"}, "fusion_lon": 0.0, "lat": 38.90237116666667, "bike_id": "78eb1d2e6a00a3f315c7ab2a07b621cb", "type": "electric_scooter", "is_reserved": 0, "lon": -77.03469466666667}, {"fusion_lat": 0.0, "name": "9cf5105920d73ed55c31652c44246a79", "is_disabled": 0, "rental_uris": {"android": "https://dc.lft.to/lastmile_qr_scan", "ios": "https://dc.lft.to/lastmile_qr_scan"}, "fusion_lon": 0.0, "lat": 38.887074166666665, "bike_id": "9cf5105920d73ed55c31652c44246a79", "type": "electric_scooter", "is_reserved": 0, "lon": -76.99676483333333}, {"fusion_lat": 0.0, "name": "383de478f25b750d4c71411c2f27b2af", "is_disabled": 0, "rental_uris": {"android": "https://dc.lft.to/lastmile_qr_scan", "ios": "https://dc.lft.to/lastmile_qr_scan"}, "fusion_lon": 0.0, "lat": 38.934454, "bike_id": "383de478f25b750d4c71411c2f27b2af", "type": "electric_scooter", "is_reserved": 0, "lon": -77.03872016666666}, {"fusion_lat": 0.0, "name": "d47f01cb813121e02be735286bb3cd8a", "is_disabled": 0, "rental_uris": {"android": "https://dc.lft.to/lastmile_qr_scan", "ios": "https://dc.lft.to/lastmile_qr_scan"}, "fusion_lon": 0.0, "lat": 38.91406333333333, "bike_id": "d47f01cb813121e02be735286bb3cd8a", "type": "electric_scooter", "is_reserved": 0, "lon": -77.03178616666666}, {"fusion_lat": 0.0, "name": "a5b83b389162bd7b378ca0777115e668", "is_disabled": 0, "rental_uris": {"android": "https://dc.lft.to/lastmile_qr_scan", "ios": "https://dc.lft.to/lastmile_qr_scan"}, "fusion_lon": 0.0, "lat": 38.900944333333335, "bike_id": "a5b83b389162bd7b378ca0777115e668", "type": "electric_bike", "is_reserved": 0, "lon": -77.05921816666667}, {"fusion_lat": 0.0, "name": "4428d1f55b40c544946391700a1dd1ea", "is_disabled": 0, "rental_uris": {"android": "https://dc.lft.to/lastmile_qr_scan", "ios": "https://dc.lft.to/lastmile_qr_scan"}, "fusion_lon": 0.0, "lat": 38.91545833333333, "bike_id": "4428d1f55b40c544946391700a1dd1ea", "type": "electric_scooter", "is_reserved": 0, "lon": -77.03254283333334}, {"fusion_lat": 0.0, "name": "7c385d7075a16a81740cfa579aacb2c7", "is_disabled": 0, "rental_uris": {"android": "https://dc.lft.to/lastmile_qr_scan", "ios": "https://dc.lft.to/lastmile_qr_scan"}, "fusion_lon": 0.0, "lat": 38.919171166666665, "bike_id": "7c385d7075a16a81740cfa579aacb2c7", "type": "electric_scooter", "is_reserved": 0, "lon": -77.02399166666666}, {"fusion_lat": 0.0, "name": "f8eb7f20b44366cce5a1259cdf10bdb5", "is_disabled": 0, "rental_uris": {"android": "https://dc.lft.to/lastmile_qr_scan", "ios": "https://dc.lft.to/lastmile_qr_scan"}, "fusion_lon": 0.0, "lat": 38.91211116666667, "bike_id": "f8eb7f20b44366cce5a1259cdf10bdb5", "type": "electric_scooter", "is_reserved": 0, "lon": -77.04512966666667}, {"fusion_lat": 0.0, "name": "795d2f5e8849e5e54e16f0936d16a39e", "is_disabled": 0, "rental_uris": {"android": "https://dc.lft.to/lastmile_qr_scan", "ios": "https://dc.lft.to/lastmile_qr_scan"}, "fusion_lon": 0.0, "lat": 38.906567833333334, "bike_id": "795d2f5e8849e5e54e16f0936d16a39e", "type": "electric_scooter", "is_reserved": 0, "lon": -77.00963}, {"fusion_lat": 0.0, "name": "c30acfdc7b2224de04bcf723d584881a", "is_disabled": 0, "rental_uris": {"android": "https://dc.lft.to/lastmile_qr_scan", "ios": "https://dc.lft.to/lastmile_qr_scan"}, "fusion_lon": 0.0, "lat": 38.915598333333335, "bike_id": "c30acfdc7b2224de04bcf723d584881a", "type": "electric_scooter", "is_reserved": 0, "lon": -77.032464}, {"fusion_lat": 0.0, "name": "442d6b94813bc2a33f4d640f9bc4f857", "is_disabled": 0, "rental_uris": {"android": "https://dc.lft.to/lastmile_qr_scan", "ios": "https://dc.lft.to/lastmile_qr_scan"}, "fusion_lon": 0.0, "lat": 38.91854933333333, "bike_id": "442d6b94813bc2a33f4d640f9bc4f857", "type": "electric_bike", "is_reserved": 0, "lon": -76.9609225}, {"fusion_lat": 0.0, "name": "28543c05d9ee7f0e249735dadfea9300", "is_disabled": 0, "rental_uris": {"android": "https://dc.lft.to/lastmile_qr_scan", "ios": "https://dc.lft.to/lastmile_qr_scan"}, "fusion_lon": 0.0, "lat": 38.81335683333333, "bike_id": "28543c05d9ee7f0e249735dadfea9300", "type": "electric_bike", "is_reserved": 0, "lon": -77.05100533333334}, {"fusion_lat": 0.0, "name": "5f13a951e72a4bc6916752c17796ba27", "is_disabled": 0, "rental_uris": {"android": "https://dc.lft.to/lastmile_qr_scan", "ios": "https://dc.lft.to/lastmile_qr_scan"}, "fusion_lon": 0.0, "lat": 38.9110065, "bike_id": "5f13a951e72a4bc6916752c17796ba27", "type": "electric_scooter", "is_reserved": 0, "lon": -77.02403233333334}, {"fusion_lat": 0.0, "name": "a0e1351bfbf09c880a5794ee3b5a36db", "is_disabled": 0, "rental_uris": {"android": "https://dc.lft.to/lastmile_qr_scan", "ios": "https://dc.lft.to/lastmile_qr_scan"}, "fusion_lon": 0.0, "lat": 38.913235, "bike_id": "a0e1351bfbf09c880a5794ee3b5a36db", "type": "electric_scooter", "is_reserved": 0, "lon": -77.03166366666666}, {"fusion_lat": 0.0, "name": "21730dc68d846bc7afb1a63097378ccf", "is_disabled": 0, "rental_uris": {"android": "https://dc.lft.to/lastmile_qr_scan", "ios": "https://dc.lft.to/lastmile_qr_scan"}, "fusion_lon": 0.0, "lat": 38.9284135, "bike_id": "21730dc68d846bc7afb1a63097378ccf", "type": "electric_scooter", "is_reserved": 0, "lon": -76.9935665}, {"fusion_lat": 0.0, "name": "210a364ad46c71a279d49fbc0a8dc960", "is_disabled": 0, "rental_uris": {"android": "https://dc.lft.to/lastmile_qr_scan", "ios": "https://dc.lft.to/lastmile_qr_scan"}, "fusion_lon": 0.0, "lat": 38.902675, "bike_id": "210a364ad46c71a279d49fbc0a8dc960", "type": "electric_scooter", "is_reserved": 0, "lon": -77.06115983333333}, {"fusion_lat": 0.0, "name": "3facf4012d8658168978e705b2f9e354", "is_disabled": 0, "rental_uris": {"android": "https://dc.lft.to/lastmile_qr_scan", "ios": "https://dc.lft.to/lastmile_qr_scan"}, "fusion_lon": 0.0, "lat": 38.925587166666666, "bike_id": "3facf4012d8658168978e705b2f9e354", "type": "electric_scooter", "is_reserved": 0, "lon": -77.0354615}, {"fusion_lat": 0.0, "name": "c8b5b16f5cd674e4a4c1377a7fcb476f", "is_disabled": 0, "rental_uris": {"android": "https://dc.lft.to/lastmile_qr_scan", "ios": "https://dc.lft.to/lastmile_qr_scan"}, "fusion_lon": 0.0, "lat": 38.95574766666667, "bike_id": "c8b5b16f5cd674e4a4c1377a7fcb476f", "type": "electric_bike", "is_reserved": 0, "lon": -77.010068}, {"fusion_lat": 0.0, "name": "07dd928d26bad63a6d34ca6053acb296", "is_disabled": 0, "rental_uris": {"android": "https://dc.lft.to/lastmile_qr_scan", "ios": "https://dc.lft.to/lastmile_qr_scan"}, "fusion_lon": 0.0, "lat": 38.929939166666664, "bike_id": "07dd928d26bad63a6d34ca6053acb296", "type": "electric_scooter", "is_reserved": 0, "lon": -77.03227966666667}, {"fusion_lat": 0.0, "name": "a3f492e7dff918012795169c0e4d10a5", "is_disabled": 0, "rental_uris": {"android": "https://dc.lft.to/lastmile_qr_scan", "ios": "https://dc.lft.to/lastmile_qr_scan"}, "fusion_lon": 0.0, "lat": 38.9305215, "bike_id": "a3f492e7dff918012795169c0e4d10a5", "type": "electric_scooter", "is_reserved": 0, "lon": -77.03268133333333}, {"fusion_lat": 0.0, "name": "7347e6c68b786e092216167c5115cee8", "is_disabled": 0, "rental_uris": {"android": "https://dc.lft.to/lastmile_qr_scan", "ios": "https://dc.lft.to/lastmile_qr_scan"}, "fusion_lon": 0.0, "lat": 38.9587755, "bike_id": "7347e6c68b786e092216167c5115cee8", "type": "electric_bike", "is_reserved": 0, "lon": -76.97055883333333}, {"fusion_lat": 0.0, "name": "7a807b8bbc6efaf6f7e330539c010824", "is_disabled": 0, "rental_uris": {"android": "https://dc.lft.to/lastmile_qr_scan", "ios": "https://dc.lft.to/lastmile_qr_scan"}, "fusion_lon": 0.0, "lat": 38.91783383333333, "bike_id": "7a807b8bbc6efaf6f7e330539c010824", "type": "electric_scooter", "is_reserved": 0, "lon": -77.02371366666667}, {"fusion_lat": 0.0, "name": "ecd1ec6298f5a3e10dff423cbac5cb12", "is_disabled": 0, "rental_uris": {"android": "https://dc.lft.to/lastmile_qr_scan", "ios": "https://dc.lft.to/lastmile_qr_scan"}, "fusion_lon": 0.0, "lat": 38.946203833333335, "bike_id": "ecd1ec6298f5a3e10dff423cbac5cb12", "type": "electric_scooter", "is_reserved": 0, "lon": -77.0328175}, {"fusion_lat": 0.0, "name": "74bb0b6e1fb91798054e083f9388cf07", "is_disabled": 0, "rental_uris": {"android": "https://dc.lft.to/lastmile_qr_scan", "ios": "https://dc.lft.to/lastmile_qr_scan"}, "fusion_lon": 0.0, "lat": 38.8901305, "bike_id": "74bb0b6e1fb91798054e083f9388cf07", "type": "electric_scooter", "is_reserved": 0, "lon": -76.93739533333333}, {"fusion_lat": 0.0, "name": "9d3e93504da10b90bc84eeb1459ddc9a", "is_disabled": 0, "rental_uris": {"android": "https://dc.lft.to/lastmile_qr_scan", "ios": "https://dc.lft.to/lastmile_qr_scan"}, "fusion_lon": 0.0, "lat": 38.932194833333334, "bike_id": "9d3e93504da10b90bc84eeb1459ddc9a", "type": "electric_scooter", "is_reserved": 0, "lon": -77.04420433333334}, {"fusion_lat": 0.0, "name": "b656c1c9889895b14e001ca02f970652", "is_disabled": 0, "rental_uris": {"android": "https://dc.lft.to/lastmile_qr_scan", "ios": "https://dc.lft.to/lastmile_qr_scan"}, "fusion_lon": 0.0, "lat": 38.842805166666665, "bike_id": "b656c1c9889895b14e001ca02f970652", "type": "electric_bike", "is_reserved": 0, "lon": -76.98845133333333}, {"fusion_lat": 0.0, "name": "3eae1647b16bea7fdca8042bab34343b", "is_disabled": 0, "rental_uris": {"android": "https://dc.lft.to/lastmile_qr_scan", "ios": "https://dc.lft.to/lastmile_qr_scan"}, "fusion_lon": 0.0, "lat": 38.90027833333333, "bike_id": "3eae1647b16bea7fdca8042bab34343b", "type": "electric_scooter", "is_reserved": 0, "lon": -77.0117665}, {"fusion_lat": 0.0, "name": "2b5b5fc75725c686456da31230140e34", "is_disabled": 0, "rental_uris": {"android": "https://dc.lft.to/lastmile_qr_scan", "ios": "https://dc.lft.to/lastmile_qr_scan"}, "fusion_lon": 0.0, "lat": 38.93871983333333, "bike_id": "2b5b5fc75725c686456da31230140e34", "type": "electric_scooter", "is_reserved": 0, "lon": -77.032286}, {"fusion_lat": 0.0, "name": "4f27399913571029ccbbabcc45bdde5a", "is_disabled": 0, "rental_uris": {"android": "https://dc.lft.to/lastmile_qr_scan", "ios": "https://dc.lft.to/lastmile_qr_scan"}, "fusion_lon": 0.0, "lat": 38.89993283333333, "bike_id": "4f27399913571029ccbbabcc45bdde5a", "type": "electric_scooter", "is_reserved": 0, "lon": -76.99505716666667}, {"fusion_lat": 0.0, "name": "3e0990ac2b614aa644a326728bc588cc", "is_disabled": 0, "rental_uris": {"android": "https://dc.lft.to/lastmile_qr_scan", "ios": "https://dc.lft.to/lastmile_qr_scan"}, "fusion_lon": 0.0, "lat": 38.91606983333333, "bike_id": "3e0990ac2b614aa644a326728bc588cc", "type": "electric_scooter", "is_reserved": 0, "lon": -77.022989}, {"fusion_lat": 0.0, "name": "914bc14e45b8a13a0550f7f96a6143df", "is_disabled": 0, "rental_uris": {"android": "https://dc.lft.to/lastmile_qr_scan", "ios": "https://dc.lft.to/lastmile_qr_scan"}, "fusion_lon": 0.0, "lat": 39.0361405, "bike_id": "914bc14e45b8a13a0550f7f96a6143df", "type": "electric_bike", "is_reserved": 0, "lon": -77.05553366666666}, {"fusion_lat": 0.0, "name": "bbca0539f96d741f40b94677fea72f24", "is_disabled": 0, "rental_uris": {"android": "https://dc.lft.to/lastmile_qr_scan", "ios": "https://dc.lft.to/lastmile_qr_scan"}, "fusion_lon": 0.0, "lat": 38.91907283333333, "bike_id": "bbca0539f96d741f40b94677fea72f24", "type": "electric_scooter", "is_reserved": 0, "lon": -77.0239715}, {"fusion_lat": 0.0, "name": "fe05723c71f15fe95ffb8cbd40dfdd93", "is_disabled": 0, "rental_uris": {"android": "https://dc.lft.to/lastmile_qr_scan", "ios": "https://dc.lft.to/lastmile_qr_scan"}, "fusion_lon": 0.0, "lat": 38.90852566666667, "bike_id": "fe05723c71f15fe95ffb8cbd40dfdd93", "type": "electric_scooter", "is_reserved": 0, "lon": -77.06374566666666}, {"fusion_lat": 0.0, "name": "f7f3a5a432fc540e90c5ef69e5da8c7f", "is_disabled": 0, "rental_uris": {"android": "https://dc.lft.to/lastmile_qr_scan", "ios": "https://dc.lft.to/lastmile_qr_scan"}, "fusion_lon": 0.0, "lat": 38.91634466666667, "bike_id": "f7f3a5a432fc540e90c5ef69e5da8c7f", "type": "electric_scooter", "is_reserved": 0, "lon": -77.05058016666666}, {"fusion_lat": 0.0, "name": "29905f57dbd6d9e76915484ddf912627", "is_disabled": 0, "rental_uris": {"android": "https://dc.lft.to/lastmile_qr_scan", "ios": "https://dc.lft.to/lastmile_qr_scan"}, "fusion_lon": 0.0, "lat": 38.9052535, "bike_id": "29905f57dbd6d9e76915484ddf912627", "type": "electric_scooter", "is_reserved": 0, "lon": -77.029718}, {"fusion_lat": 0.0, "name": "fdc04118c1f20b86a8a271597e763ecc", "is_disabled": 0, "rental_uris": {"android": "https://dc.lft.to/lastmile_qr_scan", "ios": "https://dc.lft.to/lastmile_qr_scan"}, "fusion_lon": 0.0, "lat": 38.914278833333334, "bike_id": "fdc04118c1f20b86a8a271597e763ecc", "type": "electric_scooter", "is_reserved": 0, "lon": -77.03215366666667}, {"fusion_lat": 0.0, "name": "3704741a4cf6347dadc6053a56cee5e0", "is_disabled": 0, "rental_uris": {"android": "https://dc.lft.to/lastmile_qr_scan", "ios": "https://dc.lft.to/lastmile_qr_scan"}, "fusion_lon": 0.0, "lat": 38.88156433333333, "bike_id": "3704741a4cf6347dadc6053a56cee5e0", "type": "electric_scooter", "is_reserved": 0, "lon": -77.0268135}, {"fusion_lat": 0.0, "name": "d18f826fcbff526503c92d2bb6f0a750", "is_disabled": 0, "rental_uris": {"android": "https://dc.lft.to/lastmile_qr_scan", "ios": "https://dc.lft.to/lastmile_qr_scan"}, "fusion_lon": 0.0, "lat": 38.8622105, "bike_id": "d18f826fcbff526503c92d2bb6f0a750", "type": "electric_bike", "is_reserved": 0, "lon": -76.99555133333334}, {"fusion_lat": 0.0, "name": "a7830ffcb5e0fac99bf0bed711200ea8", "is_disabled": 0, "rental_uris": {"android": "https://dc.lft.to/lastmile_qr_scan", "ios": "https://dc.lft.to/lastmile_qr_scan"}, "fusion_lon": 0.0, "lat": 38.92695616666666, "bike_id": "a7830ffcb5e0fac99bf0bed711200ea8", "type": "electric_scooter", "is_reserved": 0, "lon": -77.02080283333333}, {"fusion_lat": 0.0, "name": "0ebd06d83d32c8926818c1f00cdff5df", "is_disabled": 0, "rental_uris": {"android": "https://dc.lft.to/lastmile_qr_scan", "ios": "https://dc.lft.to/lastmile_qr_scan"}, "fusion_lon": 0.0, "lat": 38.92544816666667, "bike_id": "0ebd06d83d32c8926818c1f00cdff5df", "type": "electric_scooter", "is_reserved": 0, "lon": -77.0429765}, {"fusion_lat": 0.0, "name": "4a60430ac09693315c537d4ad69f483a", "is_disabled": 0, "rental_uris": {"android": "https://dc.lft.to/lastmile_qr_scan", "ios": "https://dc.lft.to/lastmile_qr_scan"}, "fusion_lon": 0.0, "lat": 38.953803, "bike_id": "4a60430ac09693315c537d4ad69f483a", "type": "electric_bike", "is_reserved": 0, "lon": -76.97962166666667}, {"fusion_lat": 0.0, "name": "5272e4a4e925eaa9d8a9ceea0091cbdc", "is_disabled": 0, "rental_uris": {"android": "https://dc.lft.to/lastmile_qr_scan", "ios": "https://dc.lft.to/lastmile_qr_scan"}, "fusion_lon": 0.0, "lat": 38.91998783333333, "bike_id": "5272e4a4e925eaa9d8a9ceea0091cbdc", "type": "electric_scooter", "is_reserved": 0, "lon": -77.0713785}, {"fusion_lat": 0.0, "name": "8b86c6d950303fc7b425aa6a763791d7", "is_disabled": 0, "rental_uris": {"android": "https://dc.lft.to/lastmile_qr_scan", "ios": "https://dc.lft.to/lastmile_qr_scan"}, "fusion_lon": 0.0, "lat": 38.92621, "bike_id": "8b86c6d950303fc7b425aa6a763791d7", "type": "electric_scooter", "is_reserved": 0, "lon": -77.04322766666667}, {"fusion_lat": 0.0, "name": "a56189cd576c3faac6367b47f7eb6bc5", "is_disabled": 0, "rental_uris": {"android": "https://dc.lft.to/lastmile_qr_scan", "ios": "https://dc.lft.to/lastmile_qr_scan"}, "fusion_lon": 0.0, "lat": 38.91332033333333, "bike_id": "a56189cd576c3faac6367b47f7eb6bc5", "type": "electric_scooter", "is_reserved": 0, "lon": -77.04784266666667}, {"fusion_lat": 0.0, "name": "04d8fe056a6fa35cf186c2cffa09d391", "is_disabled": 0, "rental_uris": {"android": "https://dc.lft.to/lastmile_qr_scan", "ios": "https://dc.lft.to/lastmile_qr_scan"}, "fusion_lon": 0.0, "lat": 38.931186, "bike_id": "04d8fe056a6fa35cf186c2cffa09d391", "type": "electric_scooter", "is_reserved": 0, "lon": -77.02100466666667}, {"fusion_lat": 0.0, "name": "c0b901ed27e3a5e46722a5ca34a06a9c", "is_disabled": 0, "rental_uris": {"android": "https://dc.lft.to/lastmile_qr_scan", "ios": "https://dc.lft.to/lastmile_qr_scan"}, "fusion_lon": 0.0, "lat": 38.90026533333333, "bike_id": "c0b901ed27e3a5e46722a5ca34a06a9c", "type": "electric_scooter", "is_reserved": 0, "lon": -77.00033516666667}, {"fusion_lat": 0.0, "name": "8e75e04422c10e6c4d0bf74a7eb89ee5", "is_disabled": 0, "rental_uris": {"android": "https://dc.lft.to/lastmile_qr_scan", "ios": "https://dc.lft.to/lastmile_qr_scan"}, "fusion_lon": 0.0, "lat": 38.96233983333333, "bike_id": "8e75e04422c10e6c4d0bf74a7eb89ee5", "type": "electric_bike", "is_reserved": 0, "lon": -76.92802466666667}, {"fusion_lat": 0.0, "name": "50c63012c0b3c2d6b6fe1be2c508c798", "is_disabled": 0, "rental_uris": {"android": "https://dc.lft.to/lastmile_qr_scan", "ios": "https://dc.lft.to/lastmile_qr_scan"}, "fusion_lon": 0.0, "lat": 38.924786, "bike_id": "50c63012c0b3c2d6b6fe1be2c508c798", "type": "electric_scooter", "is_reserved": 0, "lon": -77.02650966666667}, {"fusion_lat": 0.0, "name": "75890ee32dd1d43f97a4f56e869a5939", "is_disabled": 0, "rental_uris": {"android": "https://dc.lft.to/lastmile_qr_scan", "ios": "https://dc.lft.to/lastmile_qr_scan"}, "fusion_lon": 0.0, "lat": 38.9069675, "bike_id": "75890ee32dd1d43f97a4f56e869a5939", "type": "electric_scooter", "is_reserved": 0, "lon": -77.04509666666667}, {"fusion_lat": 0.0, "name": "f7c375e53e80115b947ec91b9376cdb7", "is_disabled": 0, "rental_uris": {"android": "https://dc.lft.to/lastmile_qr_scan", "ios": "https://dc.lft.to/lastmile_qr_scan"}, "fusion_lon": 0.0, "lat": 38.90609666666667, "bike_id": "f7c375e53e80115b947ec91b9376cdb7", "type": "electric_scooter", "is_reserved": 0, "lon": -77.02681}, {"fusion_lat": 0.0, "name": "48182f0872badadf43fcc0e741096aa3", "is_disabled": 0, "rental_uris": {"android": "https://dc.lft.to/lastmile_qr_scan", "ios": "https://dc.lft.to/lastmile_qr_scan"}, "fusion_lon": 0.0, "lat": 38.918178833333336, "bike_id": "48182f0872badadf43fcc0e741096aa3", "type": "electric_scooter", "is_reserved": 0, "lon": -77.0393885}, {"fusion_lat": 0.0, "name": "48fc747c1c8d5016c0f2c69bcd227d83", "is_disabled": 0, "rental_uris": {"android": "https://dc.lft.to/lastmile_qr_scan", "ios": "https://dc.lft.to/lastmile_qr_scan"}, "fusion_lon": 0.0, "lat": 38.93451183333333, "bike_id": "48fc747c1c8d5016c0f2c69bcd227d83", "type": "electric_scooter", "is_reserved": 0, "lon": -77.03878883333333}, {"fusion_lat": 0.0, "name": "00fc1589f13ca6cb3340ffd4f3c86344", "is_disabled": 0, "rental_uris": {"android": "https://dc.lft.to/lastmile_qr_scan", "ios": "https://dc.lft.to/lastmile_qr_scan"}, "fusion_lon": 0.0, "lat": 38.93291116666666, "bike_id": "00fc1589f13ca6cb3340ffd4f3c86344", "type": "electric_scooter", "is_reserved": 0, "lon": -77.02445383333334}, {"fusion_lat": 0.0, "name": "7715db26e5201e2f973637f89f853a65", "is_disabled": 0, "rental_uris": {"android": "https://dc.lft.to/lastmile_qr_scan", "ios": "https://dc.lft.to/lastmile_qr_scan"}, "fusion_lon": 0.0, "lat": 38.906111333333335, "bike_id": "7715db26e5201e2f973637f89f853a65", "type": "electric_scooter", "is_reserved": 0, "lon": -77.04126016666666}, {"fusion_lat": 0.0, "name": "38d6b93593062d62f25e6eafc0f9fb2a", "is_disabled": 0, "rental_uris": {"android": "https://dc.lft.to/lastmile_qr_scan", "ios": "https://dc.lft.to/lastmile_qr_scan"}, "fusion_lon": 0.0, "lat": 38.959503, "bike_id": "38d6b93593062d62f25e6eafc0f9fb2a", "type": "electric_scooter", "is_reserved": 0, "lon": -77.008985}, {"fusion_lat": 0.0, "name": "c6c01d68e8239fe40b8fd160f2bc57f1", "is_disabled": 0, "rental_uris": {"android": "https://dc.lft.to/lastmile_qr_scan", "ios": "https://dc.lft.to/lastmile_qr_scan"}, "fusion_lon": 0.0, "lat": 38.89232416666667, "bike_id": "c6c01d68e8239fe40b8fd160f2bc57f1", "type": "electric_scooter", "is_reserved": 0, "lon": -77.0500525}, {"fusion_lat": 0.0, "name": "b6503f5f11f2ac0c93e4c4f9862e9a18", "is_disabled": 0, "rental_uris": {"android": "https://dc.lft.to/lastmile_qr_scan", "ios": "https://dc.lft.to/lastmile_qr_scan"}, "fusion_lon": 0.0, "lat": 38.90664, "bike_id": "b6503f5f11f2ac0c93e4c4f9862e9a18", "type": "electric_scooter", "is_reserved": 0, "lon": -77.0091695}, {"fusion_lat": 0.0, "name": "e087b378ebfd913fae8f1f16da49b267", "is_disabled": 0, "rental_uris": {"android": "https://dc.lft.to/lastmile_qr_scan", "ios": "https://dc.lft.to/lastmile_qr_scan"}, "fusion_lon": 0.0, "lat": 38.95670333333333, "bike_id": "e087b378ebfd913fae8f1f16da49b267", "type": "electric_bike", "is_reserved": 0, "lon": -77.0113155}, {"fusion_lat": 0.0, "name": "2671efc669f953304299096207ba845d", "is_disabled": 0, "rental_uris": {"android": "https://dc.lft.to/lastmile_qr_scan", "ios": "https://dc.lft.to/lastmile_qr_scan"}, "fusion_lon": 0.0, "lat": 38.8796125, "bike_id": "2671efc669f953304299096207ba845d", "type": "electric_scooter", "is_reserved": 0, "lon": -77.00848766666667}, {"fusion_lat": 0.0, "name": "aa256e44af8610675abc36f6325e1aa3", "is_disabled": 0, "rental_uris": {"android": "https://dc.lft.to/lastmile_qr_scan", "ios": "https://dc.lft.to/lastmile_qr_scan"}, "fusion_lon": 0.0, "lat": 38.92012783333333, "bike_id": "aa256e44af8610675abc36f6325e1aa3", "type": "electric_scooter", "is_reserved": 0, "lon": -77.01745816666667}, {"fusion_lat": 0.0, "name": "bf7bec3dd85eaa1b8286772e1e6e908b", "is_disabled": 0, "rental_uris": {"android": "https://dc.lft.to/lastmile_qr_scan", "ios": "https://dc.lft.to/lastmile_qr_scan"}, "fusion_lon": 0.0, "lat": 38.91310216666667, "bike_id": "bf7bec3dd85eaa1b8286772e1e6e908b", "type": "electric_scooter", "is_reserved": 0, "lon": -77.04557683333333}, {"fusion_lat": 0.0, "name": "b43ded9dd33a30c46f1fffab9b241468", "is_disabled": 0, "rental_uris": {"android": "https://dc.lft.to/lastmile_qr_scan", "ios": "https://dc.lft.to/lastmile_qr_scan"}, "fusion_lon": 0.0, "lat": 38.903713333333336, "bike_id": "b43ded9dd33a30c46f1fffab9b241468", "type": "electric_scooter", "is_reserved": 0, "lon": -77.017694}, {"fusion_lat": 0.0, "name": "3159498be2595635ca7202d8df93a308", "is_disabled": 0, "rental_uris": {"android": "https://dc.lft.to/lastmile_qr_scan", "ios": "https://dc.lft.to/lastmile_qr_scan"}, "fusion_lon": 0.0, "lat": 38.88020733333333, "bike_id": "3159498be2595635ca7202d8df93a308", "type": "electric_bike", "is_reserved": 0, "lon": -77.02482166666667}, {"fusion_lat": 0.0, "name": "9f100df40dd396cd0b446d47d976e481", "is_disabled": 0, "rental_uris": {"android": "https://dc.lft.to/lastmile_qr_scan", "ios": "https://dc.lft.to/lastmile_qr_scan"}, "fusion_lon": 0.0, "lat": 38.92873766666666, "bike_id": "9f100df40dd396cd0b446d47d976e481", "type": "electric_scooter", "is_reserved": 0, "lon": -76.99555683333334}, {"fusion_lat": 0.0, "name": "06a231ac241344d99e3ebe02f4c79832", "is_disabled": 0, "rental_uris": {"android": "https://dc.lft.to/lastmile_qr_scan", "ios": "https://dc.lft.to/lastmile_qr_scan"}, "fusion_lon": 0.0, "lat": 38.900228166666665, "bike_id": "06a231ac241344d99e3ebe02f4c79832", "type": "electric_scooter", "is_reserved": 0, "lon": -76.99140433333334}, {"fusion_lat": 0.0, "name": "b6e576403508dd4297d046c5dac78faf", "is_disabled": 0, "rental_uris": {"android": "https://dc.lft.to/lastmile_qr_scan", "ios": "https://dc.lft.to/lastmile_qr_scan"}, "fusion_lon": 0.0, "lat": 38.916731166666665, "bike_id": "b6e576403508dd4297d046c5dac78faf", "type": "electric_scooter", "is_reserved": 0, "lon": -77.02714483333334}, {"fusion_lat": 0.0, "name": "ddd41453c358e6eb9f6923a7c5c59522", "is_disabled": 0, "rental_uris": {"android": "https://dc.lft.to/lastmile_qr_scan", "ios": "https://dc.lft.to/lastmile_qr_scan"}, "fusion_lon": 0.0, "lat": 38.88406666666667, "bike_id": "ddd41453c358e6eb9f6923a7c5c59522", "type": "electric_scooter", "is_reserved": 0, "lon": -77.02004183333334}, {"fusion_lat": 0.0, "name": "4edb0da3c674ae625e5a50f3c15c0e10", "is_disabled": 0, "rental_uris": {"android": "https://dc.lft.to/lastmile_qr_scan", "ios": "https://dc.lft.to/lastmile_qr_scan"}, "fusion_lon": 0.0, "lat": 38.88261, "bike_id": "4edb0da3c674ae625e5a50f3c15c0e10", "type": "electric_scooter", "is_reserved": 0, "lon": -76.99960066666667}, {"fusion_lat": 0.0, "name": "fd6c7f855336f1b62316c31e104d5c0c", "is_disabled": 0, "rental_uris": {"android": "https://dc.lft.to/lastmile_qr_scan", "ios": "https://dc.lft.to/lastmile_qr_scan"}, "fusion_lon": 0.0, "lat": 38.83157283333333, "bike_id": "fd6c7f855336f1b62316c31e104d5c0c", "type": "electric_bike", "is_reserved": 0, "lon": -76.99547433333333}, {"fusion_lat": 0.0, "name": "32972ac9a7207db594ab366ef5b84ca2", "is_disabled": 0, "rental_uris": {"android": "https://dc.lft.to/lastmile_qr_scan", "ios": "https://dc.lft.to/lastmile_qr_scan"}, "fusion_lon": 0.0, "lat": 38.91804966666667, "bike_id": "32972ac9a7207db594ab366ef5b84ca2", "type": "electric_scooter", "is_reserved": 0, "lon": -77.02495466666667}, {"fusion_lat": 0.0, "name": "05e9de312613cd5d51b6412a871d9bfe", "is_disabled": 0, "rental_uris": {"android": "https://dc.lft.to/lastmile_qr_scan", "ios": "https://dc.lft.to/lastmile_qr_scan"}, "fusion_lon": 0.0, "lat": 38.91435833333333, "bike_id": "05e9de312613cd5d51b6412a871d9bfe", "type": "electric_scooter", "is_reserved": 0, "lon": -76.99356783333333}, {"fusion_lat": 0.0, "name": "8f68fe821fb0c7bb7bc917cad01e0be6", "is_disabled": 0, "rental_uris": {"android": "https://dc.lft.to/lastmile_qr_scan", "ios": "https://dc.lft.to/lastmile_qr_scan"}, "fusion_lon": 0.0, "lat": 38.93314, "bike_id": "8f68fe821fb0c7bb7bc917cad01e0be6", "type": "electric_bike", "is_reserved": 0, "lon": -77.03218133333333}, {"fusion_lat": 0.0, "name": "4d8eb4c14db07e07d1f29861f85d6c08", "is_disabled": 0, "rental_uris": {"android": "https://dc.lft.to/lastmile_qr_scan", "ios": "https://dc.lft.to/lastmile_qr_scan"}, "fusion_lon": 0.0, "lat": 38.92899033333333, "bike_id": "4d8eb4c14db07e07d1f29861f85d6c08", "type": "electric_scooter", "is_reserved": 0, "lon": -77.02140133333333}, {"fusion_lat": 0.0, "name": "0b8b87c80f9db870fd20b2a3bb815740", "is_disabled": 0, "rental_uris": {"android": "https://dc.lft.to/lastmile_qr_scan", "ios": "https://dc.lft.to/lastmile_qr_scan"}, "fusion_lon": 0.0, "lat": 38.90215166666667, "bike_id": "0b8b87c80f9db870fd20b2a3bb815740", "type": "electric_scooter", "is_reserved": 0, "lon": -76.98615833333334}, {"fusion_lat": 0.0, "name": "93f1b90f645981fe97092b8efc94008c", "is_disabled": 0, "rental_uris": {"android": "https://dc.lft.to/lastmile_qr_scan", "ios": "https://dc.lft.to/lastmile_qr_scan"}, "fusion_lon": 0.0, "lat": 38.939625166666666, "bike_id": "93f1b90f645981fe97092b8efc94008c", "type": "electric_scooter", "is_reserved": 0, "lon": -77.03283133333333}, {"fusion_lat": 0.0, "name": "014cfe197ad3bde91675c35382577600", "is_disabled": 0, "rental_uris": {"android": "https://dc.lft.to/lastmile_qr_scan", "ios": "https://dc.lft.to/lastmile_qr_scan"}, "fusion_lon": 0.0, "lat": 38.917418833333336, "bike_id": "014cfe197ad3bde91675c35382577600", "type": "electric_scooter", "is_reserved": 0, "lon": -77.06902616666666}, {"fusion_lat": 0.0, "name": "94be2a4ffb58bf35c929accd008d89b8", "is_disabled": 0, "rental_uris": {"android": "https://dc.lft.to/lastmile_qr_scan", "ios": "https://dc.lft.to/lastmile_qr_scan"}, "fusion_lon": 0.0, "lat": 38.88510766666667, "bike_id": "94be2a4ffb58bf35c929accd008d89b8", "type": "electric_scooter", "is_reserved": 0, "lon": -77.011165}, {"fusion_lat": 0.0, "name": "77baa42a730567fb667db5acdc50a80e", "is_disabled": 0, "rental_uris": {"android": "https://dc.lft.to/lastmile_qr_scan", "ios": "https://dc.lft.to/lastmile_qr_scan"}, "fusion_lon": 0.0, "lat": 38.9220275, "bike_id": "77baa42a730567fb667db5acdc50a80e", "type": "electric_scooter", "is_reserved": 0, "lon": -77.03774866666667}, {"fusion_lat": 0.0, "name": "a2f66c4dba445b3d1bc8cba921d4a0c4", "is_disabled": 0, "rental_uris": {"android": "https://dc.lft.to/lastmile_qr_scan", "ios": "https://dc.lft.to/lastmile_qr_scan"}, "fusion_lon": 0.0, "lat": 38.935878, "bike_id": "a2f66c4dba445b3d1bc8cba921d4a0c4", "type": "electric_scooter", "is_reserved": 0, "lon": -77.0334565}, {"fusion_lat": 0.0, "name": "b004279806f456a8064550144d0bc0b9", "is_disabled": 0, "rental_uris": {"android": "https://dc.lft.to/lastmile_qr_scan", "ios": "https://dc.lft.to/lastmile_qr_scan"}, "fusion_lon": 0.0, "lat": 38.9975115, "bike_id": "b004279806f456a8064550144d0bc0b9", "type": "electric_bike", "is_reserved": 0, "lon": -77.02682}, {"fusion_lat": 0.0, "name": "6a04120cd7dd40c73de443eb2ce0ec2c", "is_disabled": 0, "rental_uris": {"android": "https://dc.lft.to/lastmile_qr_scan", "ios": "https://dc.lft.to/lastmile_qr_scan"}, "fusion_lon": 0.0, "lat": 38.90868016666667, "bike_id": "6a04120cd7dd40c73de443eb2ce0ec2c", "type": "electric_scooter", "is_reserved": 0, "lon": -77.03229116666667}, {"fusion_lat": 0.0, "name": "3fde8e092cca2c85ffee8354bbd881aa", "is_disabled": 0, "rental_uris": {"android": "https://dc.lft.to/lastmile_qr_scan", "ios": "https://dc.lft.to/lastmile_qr_scan"}, "fusion_lon": 0.0, "lat": 38.896767833333335, "bike_id": "3fde8e092cca2c85ffee8354bbd881aa", "type": "electric_scooter", "is_reserved": 0, "lon": -77.051015}, {"fusion_lat": 0.0, "name": "f2646f3f2960a787ae9ee0dd562de1e7", "is_disabled": 0, "rental_uris": {"android": "https://dc.lft.to/lastmile_qr_scan", "ios": "https://dc.lft.to/lastmile_qr_scan"}, "fusion_lon": 0.0, "lat": 38.924482833333336, "bike_id": "f2646f3f2960a787ae9ee0dd562de1e7", "type": "electric_scooter", "is_reserved": 0, "lon": -77.00882533333333}, {"fusion_lat": 0.0, "name": "6e8caea4d62e65e5434f31cde6272128", "is_disabled": 0, "rental_uris": {"android": "https://dc.lft.to/lastmile_qr_scan", "ios": "https://dc.lft.to/lastmile_qr_scan"}, "fusion_lon": 0.0, "lat": 38.903892666666664, "bike_id": "6e8caea4d62e65e5434f31cde6272128", "type": "electric_scooter", "is_reserved": 0, "lon": -77.01760733333333}, {"fusion_lat": 0.0, "name": "8e19e88a58e74f8ba39907c3d6ecd78c", "is_disabled": 0, "rental_uris": {"android": "https://dc.lft.to/lastmile_qr_scan", "ios": "https://dc.lft.to/lastmile_qr_scan"}, "fusion_lon": 0.0, "lat": 38.88314866666666, "bike_id": "8e19e88a58e74f8ba39907c3d6ecd78c", "type": "electric_scooter", "is_reserved": 0, "lon": -77.0139055}, {"fusion_lat": 0.0, "name": "4b26c4abc621a07a0cbcfe57234015f7", "is_disabled": 0, "rental_uris": {"android": "https://dc.lft.to/lastmile_qr_scan", "ios": "https://dc.lft.to/lastmile_qr_scan"}, "fusion_lon": 0.0, "lat": 38.92286716666667, "bike_id": "4b26c4abc621a07a0cbcfe57234015f7", "type": "electric_scooter", "is_reserved": 0, "lon": -77.0233555}, {"fusion_lat": 0.0, "name": "1ee109beec7e8673d4623e0df56c2956", "is_disabled": 0, "rental_uris": {"android": "https://dc.lft.to/lastmile_qr_scan", "ios": "https://dc.lft.to/lastmile_qr_scan"}, "fusion_lon": 0.0, "lat": 38.961823, "bike_id": "1ee109beec7e8673d4623e0df56c2956", "type": "electric_bike", "is_reserved": 0, "lon": -77.05268283333334}, {"fusion_lat": 0.0, "name": "226978eab501a3eb55df720fc1b9e81d", "is_disabled": 0, "rental_uris": {"android": "https://dc.lft.to/lastmile_qr_scan", "ios": "https://dc.lft.to/lastmile_qr_scan"}, "fusion_lon": 0.0, "lat": 38.892184, "bike_id": "226978eab501a3eb55df720fc1b9e81d", "type": "electric_scooter", "is_reserved": 0, "lon": -77.02222816666666}, {"fusion_lat": 0.0, "name": "b4f02ec2f2f656858e72421e965136a6", "is_disabled": 0, "rental_uris": {"android": "https://dc.lft.to/lastmile_qr_scan", "ios": "https://dc.lft.to/lastmile_qr_scan"}, "fusion_lon": 0.0, "lat": 38.891177666666664, "bike_id": "b4f02ec2f2f656858e72421e965136a6", "type": "electric_scooter", "is_reserved": 0, "lon": -76.9438265}, {"fusion_lat": 0.0, "name": "b612bcb8098c0d290a9eb045586adb17", "is_disabled": 0, "rental_uris": {"android": "https://dc.lft.to/lastmile_qr_scan", "ios": "https://dc.lft.to/lastmile_qr_scan"}, "fusion_lon": 0.0, "lat": 38.90512183333333, "bike_id": "b612bcb8098c0d290a9eb045586adb17", "type": "electric_scooter", "is_reserved": 0, "lon": -77.03177466666666}, {"fusion_lat": 0.0, "name": "d97ffc03c3a7f08a2c9af5738f8599db", "is_disabled": 0, "rental_uris": {"android": "https://dc.lft.to/lastmile_qr_scan", "ios": "https://dc.lft.to/lastmile_qr_scan"}, "fusion_lon": 0.0, "lat": 38.862088666666665, "bike_id": "d97ffc03c3a7f08a2c9af5738f8599db", "type": "electric_scooter", "is_reserved": 0, "lon": -76.99470716666667}, {"fusion_lat": 0.0, "name": "e36082926d9233ce08dc72312f9c34d3", "is_disabled": 0, "rental_uris": {"android": "https://dc.lft.to/lastmile_qr_scan", "ios": "https://dc.lft.to/lastmile_qr_scan"}, "fusion_lon": 0.0, "lat": 38.89709883333333, "bike_id": "e36082926d9233ce08dc72312f9c34d3", "type": "electric_scooter", "is_reserved": 0, "lon": -77.01323366666666}, {"fusion_lat": 0.0, "name": "2931706e07b8de8e76cd62f678d26def", "is_disabled": 0, "rental_uris": {"android": "https://dc.lft.to/lastmile_qr_scan", "ios": "https://dc.lft.to/lastmile_qr_scan"}, "fusion_lon": 0.0, "lat": 38.9244045, "bike_id": "2931706e07b8de8e76cd62f678d26def", "type": "electric_scooter", "is_reserved": 0, "lon": -77.0446495}, {"fusion_lat": 0.0, "name": "d21fa5e2b854945057f0f266967d9b7b", "is_disabled": 0, "rental_uris": {"android": "https://dc.lft.to/lastmile_qr_scan", "ios": "https://dc.lft.to/lastmile_qr_scan"}, "fusion_lon": 0.0, "lat": 38.97378066666667, "bike_id": "d21fa5e2b854945057f0f266967d9b7b", "type": "electric_scooter", "is_reserved": 0, "lon": -77.01290433333334}, {"fusion_lat": 0.0, "name": "5d198c9ce119558540ed24a905a7416c", "is_disabled": 0, "rental_uris": {"android": "https://dc.lft.to/lastmile_qr_scan", "ios": "https://dc.lft.to/lastmile_qr_scan"}, "fusion_lon": 0.0, "lat": 38.91325333333333, "bike_id": "5d198c9ce119558540ed24a905a7416c", "type": "electric_scooter", "is_reserved": 0, "lon": -77.0318925}, {"fusion_lat": 0.0, "name": "2793aa57eddb7c512be8c4c951295f11", "is_disabled": 0, "rental_uris": {"android": "https://dc.lft.to/lastmile_qr_scan", "ios": "https://dc.lft.to/lastmile_qr_scan"}, "fusion_lon": 0.0, "lat": 38.9096065, "bike_id": "2793aa57eddb7c512be8c4c951295f11", "type": "electric_scooter", "is_reserved": 0, "lon": -77.0461235}, {"fusion_lat": 0.0, "name": "8f5c6158d05c6b01283babe14a848d4c", "is_disabled": 0, "rental_uris": {"android": "https://dc.lft.to/lastmile_qr_scan", "ios": "https://dc.lft.to/lastmile_qr_scan"}, "fusion_lon": 0.0, "lat": 38.922497, "bike_id": "8f5c6158d05c6b01283babe14a848d4c", "type": "electric_scooter", "is_reserved": 0, "lon": -77.0426055}, {"fusion_lat": 0.0, "name": "a68979f53ffff8a7283f4de371a63b97", "is_disabled": 0, "rental_uris": {"android": "https://dc.lft.to/lastmile_qr_scan", "ios": "https://dc.lft.to/lastmile_qr_scan"}, "fusion_lon": 0.0, "lat": 38.928761333333334, "bike_id": "a68979f53ffff8a7283f4de371a63b97", "type": "electric_scooter", "is_reserved": 0, "lon": -77.03253333333333}, {"fusion_lat": 0.0, "name": "de70fa326cc43d8261e6539014dcb71c", "is_disabled": 0, "rental_uris": {"android": "https://dc.lft.to/lastmile_qr_scan", "ios": "https://dc.lft.to/lastmile_qr_scan"}, "fusion_lon": 0.0, "lat": 38.98473083333333, "bike_id": "de70fa326cc43d8261e6539014dcb71c", "type": "electric_scooter", "is_reserved": 0, "lon": -77.026449}, {"fusion_lat": 0.0, "name": "98e470391e5fab1bd2b135ceec7fb4cd", "is_disabled": 0, "rental_uris": {"android": "https://dc.lft.to/lastmile_qr_scan", "ios": "https://dc.lft.to/lastmile_qr_scan"}, "fusion_lon": 0.0, "lat": 38.953113333333334, "bike_id": "98e470391e5fab1bd2b135ceec7fb4cd", "type": "electric_scooter", "is_reserved": 0, "lon": -77.022515}, {"fusion_lat": 0.0, "name": "3076ed4f3575cb788913d90192e494e3", "is_disabled": 0, "rental_uris": {"android": "https://dc.lft.to/lastmile_qr_scan", "ios": "https://dc.lft.to/lastmile_qr_scan"}, "fusion_lon": 0.0, "lat": 38.992241166666666, "bike_id": "3076ed4f3575cb788913d90192e494e3", "type": "electric_bike", "is_reserved": 0, "lon": -76.9441385}, {"fusion_lat": 0.0, "name": "9743df26bfa51c2af4612babe1bae779", "is_disabled": 0, "rental_uris": {"android": "https://dc.lft.to/lastmile_qr_scan", "ios": "https://dc.lft.to/lastmile_qr_scan"}, "fusion_lon": 0.0, "lat": 38.87742433333333, "bike_id": "9743df26bfa51c2af4612babe1bae779", "type": "electric_scooter", "is_reserved": 0, "lon": -76.97029783333333}, {"fusion_lat": 0.0, "name": "a4f0e22e2f4b0a5c0beb8ab39213ac2a", "is_disabled": 0, "rental_uris": {"android": "https://dc.lft.to/lastmile_qr_scan", "ios": "https://dc.lft.to/lastmile_qr_scan"}, "fusion_lon": 0.0, "lat": 38.952765166666666, "bike_id": "a4f0e22e2f4b0a5c0beb8ab39213ac2a", "type": "electric_scooter", "is_reserved": 0, "lon": -77.0686805}, {"fusion_lat": 0.0, "name": "9cf05037b40729fdbc861f30ea55edf8", "is_disabled": 0, "rental_uris": {"android": "https://dc.lft.to/lastmile_qr_scan", "ios": "https://dc.lft.to/lastmile_qr_scan"}, "fusion_lon": 0.0, "lat": 38.92878016666667, "bike_id": "9cf05037b40729fdbc861f30ea55edf8", "type": "electric_scooter", "is_reserved": 0, "lon": -77.02669016666667}, {"fusion_lat": 0.0, "name": "214f2c129112b496ff8dc40d29febfb6", "is_disabled": 0, "rental_uris": {"android": "https://dc.lft.to/lastmile_qr_scan", "ios": "https://dc.lft.to/lastmile_qr_scan"}, "fusion_lon": 0.0, "lat": 38.916700666666664, "bike_id": "214f2c129112b496ff8dc40d29febfb6", "type": "electric_bike", "is_reserved": 0, "lon": -76.9822685}, {"fusion_lat": 0.0, "name": "32fd20c0dc0f2d25ad8aefa50b86dece", "is_disabled": 0, "rental_uris": {"android": "https://dc.lft.to/lastmile_qr_scan", "ios": "https://dc.lft.to/lastmile_qr_scan"}, "fusion_lon": 0.0, "lat": 38.8851055, "bike_id": "32fd20c0dc0f2d25ad8aefa50b86dece", "type": "electric_scooter", "is_reserved": 0, "lon": -77.01479566666667}, {"fusion_lat": 0.0, "name": "2c6f182933e1fd668fc51f1446bcc685", "is_disabled": 0, "rental_uris": {"android": "https://dc.lft.to/lastmile_qr_scan", "ios": "https://dc.lft.to/lastmile_qr_scan"}, "fusion_lon": 0.0, "lat": 38.949783, "bike_id": "2c6f182933e1fd668fc51f1446bcc685", "type": "electric_scooter", "is_reserved": 0, "lon": -77.02699483333333}, {"fusion_lat": 0.0, "name": "a6a104afabab7982836413f7ec57fe1e", "is_disabled": 0, "rental_uris": {"android": "https://dc.lft.to/lastmile_qr_scan", "ios": "https://dc.lft.to/lastmile_qr_scan"}, "fusion_lon": 0.0, "lat": 38.905079666666666, "bike_id": "a6a104afabab7982836413f7ec57fe1e", "type": "electric_scooter", "is_reserved": 0, "lon": -77.0513515}, {"fusion_lat": 0.0, "name": "b348a6cb5c92c18836a3435cbc201741", "is_disabled": 0, "rental_uris": {"android": "https://dc.lft.to/lastmile_qr_scan", "ios": "https://dc.lft.to/lastmile_qr_scan"}, "fusion_lon": 0.0, "lat": 38.92536066666667, "bike_id": "b348a6cb5c92c18836a3435cbc201741", "type": "electric_scooter", "is_reserved": 0, "lon": -77.05116283333334}, {"fusion_lat": 0.0, "name": "4b80624c574f97d869a6fd75376dd0d3", "is_disabled": 0, "rental_uris": {"android": "https://dc.lft.to/lastmile_qr_scan", "ios": "https://dc.lft.to/lastmile_qr_scan"}, "fusion_lon": 0.0, "lat": 38.943888, "bike_id": "4b80624c574f97d869a6fd75376dd0d3", "type": "electric_scooter", "is_reserved": 0, "lon": -77.03209866666667}, {"fusion_lat": 0.0, "name": "4954427cfc4a2fb9ab533681ef120fee", "is_disabled": 0, "rental_uris": {"android": "https://dc.lft.to/lastmile_qr_scan", "ios": "https://dc.lft.to/lastmile_qr_scan"}, "fusion_lon": 0.0, "lat": 38.92094, "bike_id": "4954427cfc4a2fb9ab533681ef120fee", "type": "electric_scooter", "is_reserved": 0, "lon": -77.02322183333334}, {"fusion_lat": 0.0, "name": "244d74fa3ee8ac6efc967e1052f13e41", "is_disabled": 0, "rental_uris": {"android": "https://dc.lft.to/lastmile_qr_scan", "ios": "https://dc.lft.to/lastmile_qr_scan"}, "fusion_lon": 0.0, "lat": 38.953455, "bike_id": "244d74fa3ee8ac6efc967e1052f13e41", "type": "electric_scooter", "is_reserved": 0, "lon": -77.07952633333333}, {"fusion_lat": 0.0, "name": "1a3e5ba55d656c2b4c15d2048c60bdea", "is_disabled": 0, "rental_uris": {"android": "https://dc.lft.to/lastmile_qr_scan", "ios": "https://dc.lft.to/lastmile_qr_scan"}, "fusion_lon": 0.0, "lat": 38.87567083333333, "bike_id": "1a3e5ba55d656c2b4c15d2048c60bdea", "type": "electric_scooter", "is_reserved": 0, "lon": -77.00772216666667}, {"fusion_lat": 0.0, "name": "28d2c90e5271a806b20ec1522b3718ee", "is_disabled": 0, "rental_uris": {"android": "https://dc.lft.to/lastmile_qr_scan", "ios": "https://dc.lft.to/lastmile_qr_scan"}, "fusion_lon": 0.0, "lat": 38.868505166666665, "bike_id": "28d2c90e5271a806b20ec1522b3718ee", "type": "electric_scooter", "is_reserved": 0, "lon": -76.9883055}, {"fusion_lat": 0.0, "name": "5233f9bbc14bb9380a63a853e77b4dc3", "is_disabled": 0, "rental_uris": {"android": "https://dc.lft.to/lastmile_qr_scan", "ios": "https://dc.lft.to/lastmile_qr_scan"}, "fusion_lon": 0.0, "lat": 38.95082683333333, "bike_id": "5233f9bbc14bb9380a63a853e77b4dc3", "type": "electric_scooter", "is_reserved": 0, "lon": -77.027136}, {"fusion_lat": 0.0, "name": "7842ede803331a7546d0f3ae1fb03082", "is_disabled": 0, "rental_uris": {"android": "https://dc.lft.to/lastmile_qr_scan", "ios": "https://dc.lft.to/lastmile_qr_scan"}, "fusion_lon": 0.0, "lat": 38.92482233333333, "bike_id": "7842ede803331a7546d0f3ae1fb03082", "type": "electric_scooter", "is_reserved": 0, "lon": -77.02585266666667}, {"fusion_lat": 0.0, "name": "b3a863c4b34a76aff4ca98fc8020baf6", "is_disabled": 0, "rental_uris": {"android": "https://dc.lft.to/lastmile_qr_scan", "ios": "https://dc.lft.to/lastmile_qr_scan"}, "fusion_lon": 0.0, "lat": 38.876179666666665, "bike_id": "b3a863c4b34a76aff4ca98fc8020baf6", "type": "electric_scooter", "is_reserved": 0, "lon": -77.00089666666666}, {"fusion_lat": 0.0, "name": "4d8e89d93b1b39e790c35ea339aa2660", "is_disabled": 0, "rental_uris": {"android": "https://dc.lft.to/lastmile_qr_scan", "ios": "https://dc.lft.to/lastmile_qr_scan"}, "fusion_lon": 0.0, "lat": 38.949189, "bike_id": "4d8e89d93b1b39e790c35ea339aa2660", "type": "electric_bike", "is_reserved": 0, "lon": -77.00836616666666}, {"fusion_lat": 0.0, "name": "e4bb10061237b037aee479e3862ca147", "is_disabled": 0, "rental_uris": {"android": "https://dc.lft.to/lastmile_qr_scan", "ios": "https://dc.lft.to/lastmile_qr_scan"}, "fusion_lon": 0.0, "lat": 38.9141515, "bike_id": "e4bb10061237b037aee479e3862ca147", "type": "electric_scooter", "is_reserved": 0, "lon": -77.02135466666667}, {"fusion_lat": 0.0, "name": "770448a81a36d526c994bb4d59227b35", "is_disabled": 0, "rental_uris": {"android": "https://dc.lft.to/lastmile_qr_scan", "ios": "https://dc.lft.to/lastmile_qr_scan"}, "fusion_lon": 0.0, "lat": 38.90635416666667, "bike_id": "770448a81a36d526c994bb4d59227b35", "type": "electric_scooter", "is_reserved": 0, "lon": -77.048677}, {"fusion_lat": 0.0, "name": "d96086ac4b25f0d1bbe8c4ed43a1930b", "is_disabled": 0, "rental_uris": {"android": "https://dc.lft.to/lastmile_qr_scan", "ios": "https://dc.lft.to/lastmile_qr_scan"}, "fusion_lon": 0.0, "lat": 38.9115425, "bike_id": "d96086ac4b25f0d1bbe8c4ed43a1930b", "type": "electric_scooter", "is_reserved": 0, "lon": -76.987262}, {"fusion_lat": 0.0, "name": "ab714cb197d21bb321a840827f8657ff", "is_disabled": 0, "rental_uris": {"android": "https://dc.lft.to/lastmile_qr_scan", "ios": "https://dc.lft.to/lastmile_qr_scan"}, "fusion_lon": 0.0, "lat": 38.89857116666667, "bike_id": "ab714cb197d21bb321a840827f8657ff", "type": "electric_scooter", "is_reserved": 0, "lon": -77.02217783333333}, {"fusion_lat": 0.0, "name": "141d99aae3e057b0d04736159b596a96", "is_disabled": 0, "rental_uris": {"android": "https://dc.lft.to/lastmile_qr_scan", "ios": "https://dc.lft.to/lastmile_qr_scan"}, "fusion_lon": 0.0, "lat": 38.90944433333333, "bike_id": "141d99aae3e057b0d04736159b596a96", "type": "electric_scooter", "is_reserved": 0, "lon": -77.03858716666667}, {"fusion_lat": 0.0, "name": "7d8510ab3c31c6256fecd66011f18999", "is_disabled": 0, "rental_uris": {"android": "https://dc.lft.to/lastmile_qr_scan", "ios": "https://dc.lft.to/lastmile_qr_scan"}, "fusion_lon": 0.0, "lat": 38.87996483333333, "bike_id": "7d8510ab3c31c6256fecd66011f18999", "type": "electric_scooter", "is_reserved": 0, "lon": -76.98540416666667}, {"fusion_lat": 0.0, "name": "242faa6d0a24b1cce1759a87e57e2775", "is_disabled": 0, "rental_uris": {"android": "https://dc.lft.to/lastmile_qr_scan", "ios": "https://dc.lft.to/lastmile_qr_scan"}, "fusion_lon": 0.0, "lat": 38.919481166666664, "bike_id": "242faa6d0a24b1cce1759a87e57e2775", "type": "electric_scooter", "is_reserved": 0, "lon": -77.04165816666666}, {"fusion_lat": 0.0, "name": "f917d67632a32b1d04152ed1d2fb39ca", "is_disabled": 0, "rental_uris": {"android": "https://dc.lft.to/lastmile_qr_scan", "ios": "https://dc.lft.to/lastmile_qr_scan"}, "fusion_lon": 0.0, "lat": 38.904051, "bike_id": "f917d67632a32b1d04152ed1d2fb39ca", "type": "electric_scooter", "is_reserved": 0, "lon": -77.036741}, {"fusion_lat": 0.0, "name": "c3080488e41e7a5a2307a630ee956a9c", "is_disabled": 0, "rental_uris": {"android": "https://dc.lft.to/lastmile_qr_scan", "ios": "https://dc.lft.to/lastmile_qr_scan"}, "fusion_lon": 0.0, "lat": 38.914899, "bike_id": "c3080488e41e7a5a2307a630ee956a9c", "type": "electric_scooter", "is_reserved": 0, "lon": -77.01423883333334}, {"fusion_lat": 0.0, "name": "04085214ff589cf7487ea538495f4d96", "is_disabled": 0, "rental_uris": {"android": "https://dc.lft.to/lastmile_qr_scan", "ios": "https://dc.lft.to/lastmile_qr_scan"}, "fusion_lon": 0.0, "lat": 38.893931, "bike_id": "04085214ff589cf7487ea538495f4d96", "type": "electric_scooter", "is_reserved": 0, "lon": -77.02187616666667}, {"fusion_lat": 0.0, "name": "06ca8538786d5eeb72e15874d1d15ff3", "is_disabled": 0, "rental_uris": {"android": "https://dc.lft.to/lastmile_qr_scan", "ios": "https://dc.lft.to/lastmile_qr_scan"}, "fusion_lon": 0.0, "lat": 38.874455, "bike_id": "06ca8538786d5eeb72e15874d1d15ff3", "type": "electric_scooter", "is_reserved": 0, "lon": -77.00041466666667}, {"fusion_lat": 0.0, "name": "0a029f7870cfb7a4c1cf0530aef1c66b", "is_disabled": 0, "rental_uris": {"android": "https://dc.lft.to/lastmile_qr_scan", "ios": "https://dc.lft.to/lastmile_qr_scan"}, "fusion_lon": 0.0, "lat": 38.96590316666666, "bike_id": "0a029f7870cfb7a4c1cf0530aef1c66b", "type": "electric_scooter", "is_reserved": 0, "lon": -77.0159545}, {"fusion_lat": 0.0, "name": "889bc6e0ef255a09cacabf3827daabeb", "is_disabled": 0, "rental_uris": {"android": "https://dc.lft.to/lastmile_qr_scan", "ios": "https://dc.lft.to/lastmile_qr_scan"}, "fusion_lon": 0.0, "lat": 38.91957716666667, "bike_id": "889bc6e0ef255a09cacabf3827daabeb", "type": "electric_scooter", "is_reserved": 0, "lon": -77.03207733333333}, {"fusion_lat": 0.0, "name": "5703cbe002811d2e7574c5e9242bb82b", "is_disabled": 0, "rental_uris": {"android": "https://dc.lft.to/lastmile_qr_scan", "ios": "https://dc.lft.to/lastmile_qr_scan"}, "fusion_lon": 0.0, "lat": 38.93383, "bike_id": "5703cbe002811d2e7574c5e9242bb82b", "type": "electric_scooter", "is_reserved": 0, "lon": -77.0389175}, {"fusion_lat": 0.0, "name": "45b19383a8529bbaa981eadb322883ff", "is_disabled": 0, "rental_uris": {"android": "https://dc.lft.to/lastmile_qr_scan", "ios": "https://dc.lft.to/lastmile_qr_scan"}, "fusion_lon": 0.0, "lat": 38.91472616666667, "bike_id": "45b19383a8529bbaa981eadb322883ff", "type": "electric_scooter", "is_reserved": 0, "lon": -76.984432}, {"fusion_lat": 0.0, "name": "b1ba4edc0680f97323770aee6b42d095", "is_disabled": 0, "rental_uris": {"android": "https://dc.lft.to/lastmile_qr_scan", "ios": "https://dc.lft.to/lastmile_qr_scan"}, "fusion_lon": 0.0, "lat": 38.912393, "bike_id": "b1ba4edc0680f97323770aee6b42d095", "type": "electric_scooter", "is_reserved": 0, "lon": -77.0092155}, {"fusion_lat": 0.0, "name": "0ef3363cb7a24cde8c9ee60957bba1ae", "is_disabled": 0, "rental_uris": {"android": "https://dc.lft.to/lastmile_qr_scan", "ios": "https://dc.lft.to/lastmile_qr_scan"}, "fusion_lon": 0.0, "lat": 38.870416166666665, "bike_id": "0ef3363cb7a24cde8c9ee60957bba1ae", "type": "electric_scooter", "is_reserved": 0, "lon": -77.01010833333333}, {"fusion_lat": 0.0, "name": "f27aa8bb1f0ef5b115b85f51f26751c6", "is_disabled": 0, "rental_uris": {"android": "https://dc.lft.to/lastmile_qr_scan", "ios": "https://dc.lft.to/lastmile_qr_scan"}, "fusion_lon": 0.0, "lat": 38.997757666666665, "bike_id": "f27aa8bb1f0ef5b115b85f51f26751c6", "type": "electric_bike", "is_reserved": 0, "lon": -77.04722733333334}, {"fusion_lat": 0.0, "name": "1076f52e3bdeb86e973eaae2ed7f8b5b", "is_disabled": 0, "rental_uris": {"android": "https://dc.lft.to/lastmile_qr_scan", "ios": "https://dc.lft.to/lastmile_qr_scan"}, "fusion_lon": 0.0, "lat": 38.90336116666667, "bike_id": "1076f52e3bdeb86e973eaae2ed7f8b5b", "type": "electric_scooter", "is_reserved": 0, "lon": -77.0529595}, {"fusion_lat": 0.0, "name": "87f23eefe9e7f2b89fb2e2db98099064", "is_disabled": 0, "rental_uris": {"android": "https://dc.lft.to/lastmile_qr_scan", "ios": "https://dc.lft.to/lastmile_qr_scan"}, "fusion_lon": 0.0, "lat": 38.90528116666667, "bike_id": "87f23eefe9e7f2b89fb2e2db98099064", "type": "electric_scooter", "is_reserved": 0, "lon": -77.06144266666666}, {"fusion_lat": 0.0, "name": "849ce8d2d28359d7f243c7418a531ef7", "is_disabled": 0, "rental_uris": {"android": "https://dc.lft.to/lastmile_qr_scan", "ios": "https://dc.lft.to/lastmile_qr_scan"}, "fusion_lon": 0.0, "lat": 38.92373383333333, "bike_id": "849ce8d2d28359d7f243c7418a531ef7", "type": "electric_scooter", "is_reserved": 0, "lon": -77.02916766666667}, {"fusion_lat": 0.0, "name": "1da543c3e94145982a3d8159d19bb077", "is_disabled": 0, "rental_uris": {"android": "https://dc.lft.to/lastmile_qr_scan", "ios": "https://dc.lft.to/lastmile_qr_scan"}, "fusion_lon": 0.0, "lat": 38.90585866666667, "bike_id": "1da543c3e94145982a3d8159d19bb077", "type": "electric_scooter", "is_reserved": 0, "lon": -77.00647966666666}, {"fusion_lat": 0.0, "name": "2f647705f421fd4250a750fac6fc28fa", "is_disabled": 0, "rental_uris": {"android": "https://dc.lft.to/lastmile_qr_scan", "ios": "https://dc.lft.to/lastmile_qr_scan"}, "fusion_lon": 0.0, "lat": 38.90408816666667, "bike_id": "2f647705f421fd4250a750fac6fc28fa", "type": "electric_scooter", "is_reserved": 0, "lon": -76.9733275}, {"fusion_lat": 0.0, "name": "c6c3e1c084cb4a992ac3d02b3bed7d81", "is_disabled": 0, "rental_uris": {"android": "https://dc.lft.to/lastmile_qr_scan", "ios": "https://dc.lft.to/lastmile_qr_scan"}, "fusion_lon": 0.0, "lat": 38.80761233333333, "bike_id": "c6c3e1c084cb4a992ac3d02b3bed7d81", "type": "electric_bike", "is_reserved": 0, "lon": -77.09472333333333}, {"fusion_lat": 0.0, "name": "7604a9d49583528fcdaa5ff3a5aa3851", "is_disabled": 0, "rental_uris": {"android": "https://dc.lft.to/lastmile_qr_scan", "ios": "https://dc.lft.to/lastmile_qr_scan"}, "fusion_lon": 0.0, "lat": 38.90538383333333, "bike_id": "7604a9d49583528fcdaa5ff3a5aa3851", "type": "electric_scooter", "is_reserved": 0, "lon": -77.06271133333334}, {"fusion_lat": 0.0, "name": "fa41db70ec79095d50e5b0c17aa455af", "is_disabled": 0, "rental_uris": {"android": "https://dc.lft.to/lastmile_qr_scan", "ios": "https://dc.lft.to/lastmile_qr_scan"}, "fusion_lon": 0.0, "lat": 38.92073166666667, "bike_id": "fa41db70ec79095d50e5b0c17aa455af", "type": "electric_scooter", "is_reserved": 0, "lon": -77.04096133333333}, {"fusion_lat": 0.0, "name": "de10782dfaff9155e2fef6499c1fd30a", "is_disabled": 0, "rental_uris": {"android": "https://dc.lft.to/lastmile_qr_scan", "ios": "https://dc.lft.to/lastmile_qr_scan"}, "fusion_lon": 0.0, "lat": 38.94123233333333, "bike_id": "de10782dfaff9155e2fef6499c1fd30a", "type": "electric_scooter", "is_reserved": 0, "lon": -77.026499}, {"fusion_lat": 0.0, "name": "2aa444d20ac9034c6c7157b969df635d", "is_disabled": 0, "rental_uris": {"android": "https://dc.lft.to/lastmile_qr_scan", "ios": "https://dc.lft.to/lastmile_qr_scan"}, "fusion_lon": 0.0, "lat": 38.91401533333333, "bike_id": "2aa444d20ac9034c6c7157b969df635d", "type": "electric_scooter", "is_reserved": 0, "lon": -77.03175233333333}, {"fusion_lat": 0.0, "name": "bb1e1f13ed9842b26db9bdcbb1e55021", "is_disabled": 0, "rental_uris": {"android": "https://dc.lft.to/lastmile_qr_scan", "ios": "https://dc.lft.to/lastmile_qr_scan"}, "fusion_lon": 0.0, "lat": 38.90602333333333, "bike_id": "bb1e1f13ed9842b26db9bdcbb1e55021", "type": "electric_scooter", "is_reserved": 0, "lon": -77.04558333333334}, {"fusion_lat": 0.0, "name": "1670eb4d6ddc159d22b805dd189511e1", "is_disabled": 0, "rental_uris": {"android": "https://dc.lft.to/lastmile_qr_scan", "ios": "https://dc.lft.to/lastmile_qr_scan"}, "fusion_lon": 0.0, "lat": 38.87410233333333, "bike_id": "1670eb4d6ddc159d22b805dd189511e1", "type": "electric_scooter", "is_reserved": 0, "lon": -77.00072933333334}, {"fusion_lat": 0.0, "name": "d78a638b9a81372980bc0099d702cff3", "is_disabled": 0, "rental_uris": {"android": "https://dc.lft.to/lastmile_qr_scan", "ios": "https://dc.lft.to/lastmile_qr_scan"}, "fusion_lon": 0.0, "lat": 38.87918483333333, "bike_id": "d78a638b9a81372980bc0099d702cff3", "type": "electric_scooter", "is_reserved": 0, "lon": -77.013752}, {"fusion_lat": 0.0, "name": "033010f8295e36cc298e09f769260f50", "is_disabled": 0, "rental_uris": {"android": "https://dc.lft.to/lastmile_qr_scan", "ios": "https://dc.lft.to/lastmile_qr_scan"}, "fusion_lon": 0.0, "lat": 38.92668966666667, "bike_id": "033010f8295e36cc298e09f769260f50", "type": "electric_scooter", "is_reserved": 0, "lon": -77.03800133333333}, {"fusion_lat": 0.0, "name": "5d9705de487d97812bfadb8b9a19878a", "is_disabled": 0, "rental_uris": {"android": "https://dc.lft.to/lastmile_qr_scan", "ios": "https://dc.lft.to/lastmile_qr_scan"}, "fusion_lon": 0.0, "lat": 38.928814, "bike_id": "5d9705de487d97812bfadb8b9a19878a", "type": "electric_scooter", "is_reserved": 0, "lon": -77.01363933333333}, {"fusion_lat": 0.0, "name": "60afcab58f971d0e84964694569661ad", "is_disabled": 0, "rental_uris": {"android": "https://dc.lft.to/lastmile_qr_scan", "ios": "https://dc.lft.to/lastmile_qr_scan"}, "fusion_lon": 0.0, "lat": 38.922990666666664, "bike_id": "60afcab58f971d0e84964694569661ad", "type": "electric_scooter", "is_reserved": 0, "lon": -77.01826916666667}, {"fusion_lat": 0.0, "name": "807b4ccd81b83a36fd5bdeae441f10bf", "is_disabled": 0, "rental_uris": {"android": "https://dc.lft.to/lastmile_qr_scan", "ios": "https://dc.lft.to/lastmile_qr_scan"}, "fusion_lon": 0.0, "lat": 38.91556883333333, "bike_id": "807b4ccd81b83a36fd5bdeae441f10bf", "type": "electric_scooter", "is_reserved": 0, "lon": -77.038657}, {"fusion_lat": 0.0, "name": "0435fbb2727841a4699fec45d812f420", "is_disabled": 0, "rental_uris": {"android": "https://dc.lft.to/lastmile_qr_scan", "ios": "https://dc.lft.to/lastmile_qr_scan"}, "fusion_lon": 0.0, "lat": 38.923205833333334, "bike_id": "0435fbb2727841a4699fec45d812f420", "type": "electric_scooter", "is_reserved": 0, "lon": -77.03821566666667}, {"fusion_lat": 0.0, "name": "805faad4ce04f5858f356b2eaaf81f40", "is_disabled": 0, "rental_uris": {"android": "https://dc.lft.to/lastmile_qr_scan", "ios": "https://dc.lft.to/lastmile_qr_scan"}, "fusion_lon": 0.0, "lat": 38.9161695, "bike_id": "805faad4ce04f5858f356b2eaaf81f40", "type": "electric_scooter", "is_reserved": 0, "lon": -77.03151733333333}, {"fusion_lat": 0.0, "name": "93c0c9c730e253c074c40d33f4608c0f", "is_disabled": 0, "rental_uris": {"android": "https://dc.lft.to/lastmile_qr_scan", "ios": "https://dc.lft.to/lastmile_qr_scan"}, "fusion_lon": 0.0, "lat": 38.90248916666667, "bike_id": "93c0c9c730e253c074c40d33f4608c0f", "type": "electric_scooter", "is_reserved": 0, "lon": -77.017938}, {"fusion_lat": 0.0, "name": "bc4077d8425114bf70aa62d093e5a60a", "is_disabled": 0, "rental_uris": {"android": "https://dc.lft.to/lastmile_qr_scan", "ios": "https://dc.lft.to/lastmile_qr_scan"}, "fusion_lon": 0.0, "lat": 38.9003555, "bike_id": "bc4077d8425114bf70aa62d093e5a60a", "type": "electric_scooter", "is_reserved": 0, "lon": -77.01180466666666}, {"fusion_lat": 0.0, "name": "a6fb3718c7ee45d12ef8b154d5f5fb39", "is_disabled": 0, "rental_uris": {"android": "https://dc.lft.to/lastmile_qr_scan", "ios": "https://dc.lft.to/lastmile_qr_scan"}, "fusion_lon": 0.0, "lat": 38.909979166666666, "bike_id": "a6fb3718c7ee45d12ef8b154d5f5fb39", "type": "electric_scooter", "is_reserved": 0, "lon": -77.027004}, {"fusion_lat": 0.0, "name": "2d292c3a887c247a25d85321c80b253a", "is_disabled": 0, "rental_uris": {"android": "https://dc.lft.to/lastmile_qr_scan", "ios": "https://dc.lft.to/lastmile_qr_scan"}, "fusion_lon": 0.0, "lat": 38.9661855, "bike_id": "2d292c3a887c247a25d85321c80b253a", "type": "electric_bike", "is_reserved": 0, "lon": -77.034347}, {"fusion_lat": 0.0, "name": "3d659865c4f85ba045cdf6f6cfdf2baa", "is_disabled": 0, "rental_uris": {"android": "https://dc.lft.to/lastmile_qr_scan", "ios": "https://dc.lft.to/lastmile_qr_scan"}, "fusion_lon": 0.0, "lat": 38.9051805, "bike_id": "3d659865c4f85ba045cdf6f6cfdf2baa", "type": "electric_scooter", "is_reserved": 0, "lon": -77.06151516666667}, {"fusion_lat": 0.0, "name": "498d89809f4f49d1f917a6fa89ac8b35", "is_disabled": 0, "rental_uris": {"android": "https://dc.lft.to/lastmile_qr_scan", "ios": "https://dc.lft.to/lastmile_qr_scan"}, "fusion_lon": 0.0, "lat": 38.91515533333333, "bike_id": "498d89809f4f49d1f917a6fa89ac8b35", "type": "electric_scooter", "is_reserved": 0, "lon": -77.03213766666667}, {"fusion_lat": 0.0, "name": "24849db86ac83106b75488f260507f04", "is_disabled": 0, "rental_uris": {"android": "https://dc.lft.to/lastmile_qr_scan", "ios": "https://dc.lft.to/lastmile_qr_scan"}, "fusion_lon": 0.0, "lat": 38.9057905, "bike_id": "24849db86ac83106b75488f260507f04", "type": "electric_scooter", "is_reserved": 0, "lon": -77.008064}, {"fusion_lat": 0.0, "name": "8bcf7dc8d4265bfb8732b8c37f1dd1c7", "is_disabled": 0, "rental_uris": {"android": "https://dc.lft.to/lastmile_qr_scan", "ios": "https://dc.lft.to/lastmile_qr_scan"}, "fusion_lon": 0.0, "lat": 38.90226633333333, "bike_id": "8bcf7dc8d4265bfb8732b8c37f1dd1c7", "type": "electric_scooter", "is_reserved": 0, "lon": -77.05477533333334}, {"fusion_lat": 0.0, "name": "f42ca7b84917f2dcf1a536ae5566a503", "is_disabled": 0, "rental_uris": {"android": "https://dc.lft.to/lastmile_qr_scan", "ios": "https://dc.lft.to/lastmile_qr_scan"}, "fusion_lon": 0.0, "lat": 38.94337516666667, "bike_id": "f42ca7b84917f2dcf1a536ae5566a503", "type": "electric_scooter", "is_reserved": 0, "lon": -77.06063233333333}, {"fusion_lat": 0.0, "name": "9effdae5906dde920488f7bd33dd8f3d", "is_disabled": 0, "rental_uris": {"android": "https://dc.lft.to/lastmile_qr_scan", "ios": "https://dc.lft.to/lastmile_qr_scan"}, "fusion_lon": 0.0, "lat": 38.91650766666667, "bike_id": "9effdae5906dde920488f7bd33dd8f3d", "type": "electric_scooter", "is_reserved": 0, "lon": -77.03695883333333}, {"fusion_lat": 0.0, "name": "2d5de7f01c129f0bdddd887caaaee27d", "is_disabled": 0, "rental_uris": {"android": "https://dc.lft.to/lastmile_qr_scan", "ios": "https://dc.lft.to/lastmile_qr_scan"}, "fusion_lon": 0.0, "lat": 38.916858500000004, "bike_id": "2d5de7f01c129f0bdddd887caaaee27d", "type": "electric_scooter", "is_reserved": 0, "lon": -77.04084416666667}, {"fusion_lat": 0.0, "name": "8f307ec042947bd7984d8940768b4cc1", "is_disabled": 0, "rental_uris": {"android": "https://dc.lft.to/lastmile_qr_scan", "ios": "https://dc.lft.to/lastmile_qr_scan"}, "fusion_lon": 0.0, "lat": 38.914274166666665, "bike_id": "8f307ec042947bd7984d8940768b4cc1", "type": "electric_scooter", "is_reserved": 0, "lon": -77.01410533333333}, {"fusion_lat": 0.0, "name": "1059bfd65406706e0e0b2f3e7e73f870", "is_disabled": 0, "rental_uris": {"android": "https://dc.lft.to/lastmile_qr_scan", "ios": "https://dc.lft.to/lastmile_qr_scan"}, "fusion_lon": 0.0, "lat": 38.87229883333333, "bike_id": "1059bfd65406706e0e0b2f3e7e73f870", "type": "electric_scooter", "is_reserved": 0, "lon": -77.01769833333333}, {"fusion_lat": 0.0, "name": "7e57143ad0dd5f5c9c47aee0169e522e", "is_disabled": 0, "rental_uris": {"android": "https://dc.lft.to/lastmile_qr_scan", "ios": "https://dc.lft.to/lastmile_qr_scan"}, "fusion_lon": 0.0, "lat": 38.91882533333333, "bike_id": "7e57143ad0dd5f5c9c47aee0169e522e", "type": "electric_scooter", "is_reserved": 0, "lon": -77.0230575}, {"fusion_lat": 0.0, "name": "7d9fd646b25c0a9b2f1983e3225d709e", "is_disabled": 0, "rental_uris": {"android": "https://dc.lft.to/lastmile_qr_scan", "ios": "https://dc.lft.to/lastmile_qr_scan"}, "fusion_lon": 0.0, "lat": 38.90027666666667, "bike_id": "7d9fd646b25c0a9b2f1983e3225d709e", "type": "electric_scooter", "is_reserved": 0, "lon": -76.99805983333333}, {"fusion_lat": 0.0, "name": "492a2aeb7ac40c140d607e1309a2288a", "is_disabled": 0, "rental_uris": {"android": "https://dc.lft.to/lastmile_qr_scan", "ios": "https://dc.lft.to/lastmile_qr_scan"}, "fusion_lon": 0.0, "lat": 38.92428366666667, "bike_id": "492a2aeb7ac40c140d607e1309a2288a", "type": "electric_scooter", "is_reserved": 0, "lon": -77.0271035}, {"fusion_lat": 0.0, "name": "629edb58ce2a102a8d07ee60359cbd8d", "is_disabled": 0, "rental_uris": {"android": "https://dc.lft.to/lastmile_qr_scan", "ios": "https://dc.lft.to/lastmile_qr_scan"}, "fusion_lon": 0.0, "lat": 38.9649115, "bike_id": "629edb58ce2a102a8d07ee60359cbd8d", "type": "electric_bike", "is_reserved": 0, "lon": -77.022179}, {"fusion_lat": 0.0, "name": "f4e92c980eddc126342686479a0a76ac", "is_disabled": 0, "rental_uris": {"android": "https://dc.lft.to/lastmile_qr_scan", "ios": "https://dc.lft.to/lastmile_qr_scan"}, "fusion_lon": 0.0, "lat": 38.88229483333333, "bike_id": "f4e92c980eddc126342686479a0a76ac", "type": "electric_scooter", "is_reserved": 0, "lon": -77.026214}, {"fusion_lat": 0.0, "name": "25ceb437cc7f486cf57269e7a32250f3", "is_disabled": 0, "rental_uris": {"android": "https://dc.lft.to/lastmile_qr_scan", "ios": "https://dc.lft.to/lastmile_qr_scan"}, "fusion_lon": 0.0, "lat": 38.90132633333333, "bike_id": "25ceb437cc7f486cf57269e7a32250f3", "type": "electric_scooter", "is_reserved": 0, "lon": -77.02293466666667}, {"fusion_lat": 0.0, "name": "17acbd50ff2ac67ecba0b81dd2bfc75d", "is_disabled": 0, "rental_uris": {"android": "https://dc.lft.to/lastmile_qr_scan", "ios": "https://dc.lft.to/lastmile_qr_scan"}, "fusion_lon": 0.0, "lat": 38.884898, "bike_id": "17acbd50ff2ac67ecba0b81dd2bfc75d", "type": "electric_scooter", "is_reserved": 0, "lon": -77.00720566666666}, {"fusion_lat": 0.0, "name": "9dab232ee962e7a52f4645afd54951c1", "is_disabled": 0, "rental_uris": {"android": "https://dc.lft.to/lastmile_qr_scan", "ios": "https://dc.lft.to/lastmile_qr_scan"}, "fusion_lon": 0.0, "lat": 38.878134, "bike_id": "9dab232ee962e7a52f4645afd54951c1", "type": "electric_scooter", "is_reserved": 0, "lon": -77.013274}, {"fusion_lat": 0.0, "name": "06c6fa4103eb37c8eed35c5a94fb8b0c", "is_disabled": 0, "rental_uris": {"android": "https://dc.lft.to/lastmile_qr_scan", "ios": "https://dc.lft.to/lastmile_qr_scan"}, "fusion_lon": 0.0, "lat": 38.90972633333333, "bike_id": "06c6fa4103eb37c8eed35c5a94fb8b0c", "type": "electric_scooter", "is_reserved": 0, "lon": -77.03215766666666}, {"fusion_lat": 0.0, "name": "c5d31aea347940a4105dd1809e9c2fab", "is_disabled": 0, "rental_uris": {"android": "https://dc.lft.to/lastmile_qr_scan", "ios": "https://dc.lft.to/lastmile_qr_scan"}, "fusion_lon": 0.0, "lat": 38.924417, "bike_id": "c5d31aea347940a4105dd1809e9c2fab", "type": "electric_scooter", "is_reserved": 0, "lon": -77.020259}, {"fusion_lat": 0.0, "name": "d514c980328006dd879621ac6061d96a", "is_disabled": 0, "rental_uris": {"android": "https://dc.lft.to/lastmile_qr_scan", "ios": "https://dc.lft.to/lastmile_qr_scan"}, "fusion_lon": 0.0, "lat": 38.926879166666666, "bike_id": "d514c980328006dd879621ac6061d96a", "type": "electric_scooter", "is_reserved": 0, "lon": -77.02286933333333}, {"fusion_lat": 0.0, "name": "3f2d1128f70ed73c29bb040d5f23f4e0", "is_disabled": 0, "rental_uris": {"android": "https://dc.lft.to/lastmile_qr_scan", "ios": "https://dc.lft.to/lastmile_qr_scan"}, "fusion_lon": 0.0, "lat": 38.898739666666664, "bike_id": "3f2d1128f70ed73c29bb040d5f23f4e0", "type": "electric_scooter", "is_reserved": 0, "lon": -76.931853}, {"fusion_lat": 0.0, "name": "25867a8507ffd90f9d61678a1279f0d2", "is_disabled": 0, "rental_uris": {"android": "https://dc.lft.to/lastmile_qr_scan", "ios": "https://dc.lft.to/lastmile_qr_scan"}, "fusion_lon": 0.0, "lat": 38.8768725, "bike_id": "25867a8507ffd90f9d61678a1279f0d2", "type": "electric_scooter", "is_reserved": 0, "lon": -77.00723716666667}, {"fusion_lat": 0.0, "name": "daba6d7df494c4dbf2805e761122763c", "is_disabled": 0, "rental_uris": {"android": "https://dc.lft.to/lastmile_qr_scan", "ios": "https://dc.lft.to/lastmile_qr_scan"}, "fusion_lon": 0.0, "lat": 38.9111455, "bike_id": "daba6d7df494c4dbf2805e761122763c", "type": "electric_scooter", "is_reserved": 0, "lon": -77.0373015}, {"fusion_lat": 0.0, "name": "7124a57c14659e8b759c95f66e71cc39", "is_disabled": 0, "rental_uris": {"android": "https://dc.lft.to/lastmile_qr_scan", "ios": "https://dc.lft.to/lastmile_qr_scan"}, "fusion_lon": 0.0, "lat": 38.924761, "bike_id": "7124a57c14659e8b759c95f66e71cc39", "type": "electric_scooter", "is_reserved": 0, "lon": -77.03918583333333}, {"fusion_lat": 0.0, "name": "22357c2e414570656d281e2da4f30a87", "is_disabled": 0, "rental_uris": {"android": "https://dc.lft.to/lastmile_qr_scan", "ios": "https://dc.lft.to/lastmile_qr_scan"}, "fusion_lon": 0.0, "lat": 38.9944395, "bike_id": "22357c2e414570656d281e2da4f30a87", "type": "electric_bike", "is_reserved": 0, "lon": -76.99591233333334}, {"fusion_lat": 0.0, "name": "10006e4f36c45fef5587c9de791860d7", "is_disabled": 0, "rental_uris": {"android": "https://dc.lft.to/lastmile_qr_scan", "ios": "https://dc.lft.to/lastmile_qr_scan"}, "fusion_lon": 0.0, "lat": 38.903058, "bike_id": "10006e4f36c45fef5587c9de791860d7", "type": "electric_scooter", "is_reserved": 0, "lon": -76.97655666666667}, {"fusion_lat": 0.0, "name": "f15e55bb578724d413d7006d7245a9df", "is_disabled": 0, "rental_uris": {"android": "https://dc.lft.to/lastmile_qr_scan", "ios": "https://dc.lft.to/lastmile_qr_scan"}, "fusion_lon": 0.0, "lat": 38.884763666666665, "bike_id": "f15e55bb578724d413d7006d7245a9df", "type": "electric_scooter", "is_reserved": 0, "lon": -77.02375066666667}, {"fusion_lat": 0.0, "name": "2bcc544533a312868304c3335a733f11", "is_disabled": 0, "rental_uris": {"android": "https://dc.lft.to/lastmile_qr_scan", "ios": "https://dc.lft.to/lastmile_qr_scan"}, "fusion_lon": 0.0, "lat": 38.902427, "bike_id": "2bcc544533a312868304c3335a733f11", "type": "electric_scooter", "is_reserved": 0, "lon": -77.01614733333334}, {"fusion_lat": 0.0, "name": "b0fa5311cb73d15cad8199e15ac23b56", "is_disabled": 0, "rental_uris": {"android": "https://dc.lft.to/lastmile_qr_scan", "ios": "https://dc.lft.to/lastmile_qr_scan"}, "fusion_lon": 0.0, "lat": 38.9404555, "bike_id": "b0fa5311cb73d15cad8199e15ac23b56", "type": "electric_bike", "is_reserved": 0, "lon": -76.90421383333333}, {"fusion_lat": 0.0, "name": "29075c478a675bae6793ceec3220d36c", "is_disabled": 0, "rental_uris": {"android": "https://dc.lft.to/lastmile_qr_scan", "ios": "https://dc.lft.to/lastmile_qr_scan"}, "fusion_lon": 0.0, "lat": 38.92098033333333, "bike_id": "29075c478a675bae6793ceec3220d36c", "type": "electric_scooter", "is_reserved": 0, "lon": -77.0318785}, {"fusion_lat": 0.0, "name": "4cd950ce4254e709f38006aab4ef8751", "is_disabled": 0, "rental_uris": {"android": "https://dc.lft.to/lastmile_qr_scan", "ios": "https://dc.lft.to/lastmile_qr_scan"}, "fusion_lon": 0.0, "lat": 38.909811833333336, "bike_id": "4cd950ce4254e709f38006aab4ef8751", "type": "electric_scooter", "is_reserved": 0, "lon": -77.03386666666667}, {"fusion_lat": 0.0, "name": "68c91b14af262685f755173641ca531a", "is_disabled": 0, "rental_uris": {"android": "https://dc.lft.to/lastmile_qr_scan", "ios": "https://dc.lft.to/lastmile_qr_scan"}, "fusion_lon": 0.0, "lat": 38.933678666666665, "bike_id": "68c91b14af262685f755173641ca531a", "type": "electric_scooter", "is_reserved": 0, "lon": -77.04205883333333}, {"fusion_lat": 0.0, "name": "ddaca3da2cf6438e0ce5444311c486d9", "is_disabled": 0, "rental_uris": {"android": "https://dc.lft.to/lastmile_qr_scan", "ios": "https://dc.lft.to/lastmile_qr_scan"}, "fusion_lon": 0.0, "lat": 38.902345, "bike_id": "ddaca3da2cf6438e0ce5444311c486d9", "type": "electric_scooter", "is_reserved": 0, "lon": -77.019319}, {"fusion_lat": 0.0, "name": "477cc4898562ec374cf0b123ea342466", "is_disabled": 0, "rental_uris": {"android": "https://dc.lft.to/lastmile_qr_scan", "ios": "https://dc.lft.to/lastmile_qr_scan"}, "fusion_lon": 0.0, "lat": 38.903825833333336, "bike_id": "477cc4898562ec374cf0b123ea342466", "type": "electric_scooter", "is_reserved": 0, "lon": -77.01829733333334}, {"fusion_lat": 0.0, "name": "74e4293df58f93dcd5a39286a772198d", "is_disabled": 0, "rental_uris": {"android": "https://dc.lft.to/lastmile_qr_scan", "ios": "https://dc.lft.to/lastmile_qr_scan"},