{"data": {"bikes": [{"lat": 38.916232, "is_disabled": 0, "type": "electric_scooter", "lon": -77.03271683333334, "bike_id": "906b87af664e8db14903d811f6dc3d2c", "fusion_lat": 0.0, "name": "906b87af664e8db14903d811f6dc3d2c", "is_reserved": 0, "rental_uris": {"android": "https://dc.lft.to/lastmile_qr_scan", "ios": "https://dc.lft.to/lastmile_qr_scan"}, "fusion_lon": 0.0}, {"lat": 38.931076833333336, "is_disabled": 0, "type": "electric_scooter", "lon": -77.03468283333333, "bike_id": "ca6ba05cb1ca2a547079afadddb17400", "fusion_lat": 0.0, "name": "ca6ba05cb1ca2a547079afadddb17400", "is_reserved": 0, "rental_uris": {"android": "https://dc.lft.to/lastmile_qr_scan", "ios": "https://dc.lft.to/lastmile_qr_scan"}, "fusion_lon": 0.0}, {"lat": 38.90159033333333, "is_disabled": 0, "type": "electric_scooter", "lon": -76.98070933333334, "bike_id": "155aba9af946e2c1ca40ccbd0b9891c0", "fusion_lat": 0.0, "name": "155aba9af946e2c1ca40ccbd0b9891c0", "is_reserved": 0, "rental_uris": {"android": "https://dc.lft.to/lastmile_qr_scan", "ios": "https://dc.lft.to/lastmile_qr_scan"}, "fusion_lon": 0.0}, {"lat": 38.93093533333333, "is_disabled": 0, "type": "electric_scooter", "lon": -77.02510366666667, "bike_id": "cbe8ded7efaf12889d64773c7c7a3963", "fusion_lat": 0.0, "name": "cbe8ded7efaf12889d64773c7c7a3963", "is_reserved": 0, "rental_uris": {"android": "https://dc.lft.to/lastmile_qr_scan", "ios": "https://dc.lft.to/lastmile_qr_scan"}, "fusion_lon": 0.0}, {"lat": 38.871554833333334, "is_disabled": 0, "type": "electric_scooter", "lon": -77.01313233333333, "bike_id": "a4d09d073935bd6ff6281b9bb0abe7b5", "fusion_lat": 0.0, "name": "a4d09d073935bd6ff6281b9bb0abe7b5", "is_reserved": 0, "rental_uris": {"android": "https://dc.lft.to/lastmile_qr_scan", "ios": "https://dc.lft.to/lastmile_qr_scan"}, "fusion_lon": 0.0}, {"lat": 38.84572883333333, "is_disabled": 0, "type": "electric_bike", "lon": -77.09622466666667, "bike_id": "56727b5fbb7f3d003f90b8fad29285b3", "fusion_lat": 0.0, "name": "56727b5fbb7f3d003f90b8fad29285b3", "is_reserved": 0, "rental_uris": {"android": "https://dc.lft.to/lastmile_qr_scan", "ios": "https://dc.lft.to/lastmile_qr_scan"}, "fusion_lon": 0.0}, {"lat": 38.83682233333333, "is_disabled": 0, "type": "electric_scooter", "lon": -77.10305633333333, "bike_id": "71b3946ff618f255a7ed5083711f7b3f", "fusion_lat": 0.0, "name": "71b3946ff618f255a7ed5083711f7b3f", "is_reserved": 0, "rental_uris": {"android": "https://dc.lft.to/lastmile_qr_scan", "ios": "https://dc.lft.to/lastmile_qr_scan"}, "fusion_lon": 0.0}, {"lat": 38.92082533333333, "is_disabled": 0, "type": "electric_scooter", "lon": -77.02416533333333, "bike_id": "759bc4bb3b706657ea3ab9f5b51ba243", "fusion_lat": 0.0, "name": "759bc4bb3b706657ea3ab9f5b51ba243", "is_reserved": 0, "rental_uris": {"android": "https://dc.lft.to/lastmile_qr_scan", "ios": "https://dc.lft.to/lastmile_qr_scan"}, "fusion_lon": 0.0}, {"lat": 38.902304666666666, "is_disabled": 0, "type": "electric_scooter", "lon": -77.05343033333334, "bike_id": "3aa440fa3ea2b85043d85fc75173bd0e", "fusion_lat": 0.0, "name": "3aa440fa3ea2b85043d85fc75173bd0e", "is_reserved": 0, "rental_uris": {"android": "https://dc.lft.to/lastmile_qr_scan", "ios": "https://dc.lft.to/lastmile_qr_scan"}, "fusion_lon": 0.0}, {"lat": 38.8671145, "is_disabled": 0, "type": "electric_scooter", "lon": -76.987265, "bike_id": "54497c8cab3a8138cf42447d30670b5b", "fusion_lat": 0.0, "name": "54497c8cab3a8138cf42447d30670b5b", "is_reserved": 0, "rental_uris": {"android": "https://dc.lft.to/lastmile_qr_scan", "ios": "https://dc.lft.to/lastmile_qr_scan"}, "fusion_lon": 0.0}, {"lat": 38.9116375, "is_disabled": 0, "type": "electric_bike", "lon": -77.00287966666667, "bike_id": "4cd29d2c3ba57de5c4da0c268f6ed244", "fusion_lat": 0.0, "name": "4cd29d2c3ba57de5c4da0c268f6ed244", "is_reserved": 0, "rental_uris": {"android": "https://dc.lft.to/lastmile_qr_scan", "ios": "https://dc.lft.to/lastmile_qr_scan"}, "fusion_lon": 0.0}, {"lat": 38.904743, "is_disabled": 0, "type": "electric_scooter", "lon": -77.00731066666667, "bike_id": "331bf8670dfe210644af207d9e212d8f", "fusion_lat": 0.0, "name": "331bf8670dfe210644af207d9e212d8f", "is_reserved": 0, "rental_uris": {"android": "https://dc.lft.to/lastmile_qr_scan", "ios": "https://dc.lft.to/lastmile_qr_scan"}, "fusion_lon": 0.0}, {"lat": 38.871407833333336, "is_disabled": 0, "type": "electric_bike", "lon": -76.9370585, "bike_id": "07db4f121efd7dd9c39eefb8775cce57", "fusion_lat": 0.0, "name": "07db4f121efd7dd9c39eefb8775cce57", "is_reserved": 0, "rental_uris": {"android": "https://dc.lft.to/lastmile_qr_scan", "ios": "https://dc.lft.to/lastmile_qr_scan"}, "fusion_lon": 0.0}, {"lat": 38.900031, "is_disabled": 0, "type": "electric_scooter", "lon": -76.98808766666667, "bike_id": "76caa7493bec8fb9b3e45060f93dc1c0", "fusion_lat": 0.0, "name": "76caa7493bec8fb9b3e45060f93dc1c0", "is_reserved": 0, "rental_uris": {"android": "https://dc.lft.to/lastmile_qr_scan", "ios": "https://dc.lft.to/lastmile_qr_scan"}, "fusion_lon": 0.0}, {"lat": 38.884281333333334, "is_disabled": 0, "type": "electric_bike", "lon": -76.95756266666666, "bike_id": "2c201f2425fd42018ee5c9cbb59544c6", "fusion_lat": 0.0, "name": "2c201f2425fd42018ee5c9cbb59544c6", "is_reserved": 0, "rental_uris": {"android": "https://dc.lft.to/lastmile_qr_scan", "ios": "https://dc.lft.to/lastmile_qr_scan"}, "fusion_lon": 0.0}, {"lat": 38.802681166666666, "is_disabled": 0, "type": "electric_bike", "lon": -77.08110483333333, "bike_id": "20dfc5c0acdf47b3c5f04a181c35f3d5", "fusion_lat": 0.0, "name": "20dfc5c0acdf47b3c5f04a181c35f3d5", "is_reserved": 0, "rental_uris": {"android": "https://dc.lft.to/lastmile_qr_scan", "ios": "https://dc.lft.to/lastmile_qr_scan"}, "fusion_lon": 0.0}, {"lat": 38.905524666666665, "is_disabled": 0, "type": "electric_scooter", "lon": -77.0569995, "bike_id": "fa9dcf6242f95f4a9b70a68600f34047", "fusion_lat": 0.0, "name": "fa9dcf6242f95f4a9b70a68600f34047", "is_reserved": 0, "rental_uris": {"android": "https://dc.lft.to/lastmile_qr_scan", "ios": "https://dc.lft.to/lastmile_qr_scan"}, "fusion_lon": 0.0}, {"lat": 38.91415533333333, "is_disabled": 0, "type": "electric_scooter", "lon": -77.02232633333334, "bike_id": "7cc1051f8f51f4f297ffcead8a3d4524", "fusion_lat": 0.0, "name": "7cc1051f8f51f4f297ffcead8a3d4524", "is_reserved": 0, "rental_uris": {"android": "https://dc.lft.to/lastmile_qr_scan", "ios": "https://dc.lft.to/lastmile_qr_scan"}, "fusion_lon": 0.0}, {"lat": 38.93331333333333, "is_disabled": 0, "type": "electric_scooter", "lon": -77.02376216666667, "bike_id": "3ac7d079e1dd5b47f9765c6651320481", "fusion_lat": 0.0, "name": "3ac7d079e1dd5b47f9765c6651320481", "is_reserved": 0, "rental_uris": {"android": "https://dc.lft.to/lastmile_qr_scan", "ios": "https://dc.lft.to/lastmile_qr_scan"}, "fusion_lon": 0.0}, {"lat": 38.918189, "is_disabled": 0, "type": "electric_scooter", "lon": -77.02614016666666, "bike_id": "2c8eccd576f01f56c4d2a1db6d4adea1", "fusion_lat": 0.0, "name": "2c8eccd576f01f56c4d2a1db6d4adea1", "is_reserved": 0, "rental_uris": {"android": "https://dc.lft.to/lastmile_qr_scan", "ios": "https://dc.lft.to/lastmile_qr_scan"}, "fusion_lon": 0.0}, {"lat": 38.917098, "is_disabled": 0, "type": "electric_scooter", "lon": -77.03077266666666, "bike_id": "9743ee7a2d53fe432056989ac688055b", "fusion_lat": 0.0, "name": "9743ee7a2d53fe432056989ac688055b", "is_reserved": 0, "rental_uris": {"android": "https://dc.lft.to/lastmile_qr_scan", "ios": "https://dc.lft.to/lastmile_qr_scan"}, "fusion_lon": 0.0}, {"lat": 38.909622, "is_disabled": 0, "type": "electric_scooter", "lon": -77.0405625, "bike_id": "16ddb8d2c266b06499529122445f99f6", "fusion_lat": 0.0, "name": "16ddb8d2c266b06499529122445f99f6", "is_reserved": 0, "rental_uris": {"android": "https://dc.lft.to/lastmile_qr_scan", "ios": "https://dc.lft.to/lastmile_qr_scan"}, "fusion_lon": 0.0}, {"lat": 38.91825333333333, "is_disabled": 0, "type": "electric_scooter", "lon": -77.04529316666667, "bike_id": "3787aa58782689e5b6a467c37ce73d2d", "fusion_lat": 0.0, "name": "3787aa58782689e5b6a467c37ce73d2d", "is_reserved": 0, "rental_uris": {"android": "https://dc.lft.to/lastmile_qr_scan", "ios": "https://dc.lft.to/lastmile_qr_scan"}, "fusion_lon": 0.0}, {"lat": 38.9540435, "is_disabled": 0, "type": "electric_scooter", "lon": -77.027507, "bike_id": "be550385bc2984ccf16f05b154421d21", "fusion_lat": 0.0, "name": "be550385bc2984ccf16f05b154421d21", "is_reserved": 0, "rental_uris": {"android": "https://dc.lft.to/lastmile_qr_scan", "ios": "https://dc.lft.to/lastmile_qr_scan"}, "fusion_lon": 0.0}, {"lat": 39.029329833333335, "is_disabled": 0, "type": "electric_bike", "lon": -77.04930766666666, "bike_id": "7b5d5027553427fa6c54ab343d75b2dc", "fusion_lat": 0.0, "name": "7b5d5027553427fa6c54ab343d75b2dc", "is_reserved": 0, "rental_uris": {"android": "https://dc.lft.to/lastmile_qr_scan", "ios": "https://dc.lft.to/lastmile_qr_scan"}, "fusion_lon": 0.0}, {"lat": 38.899823833333336, "is_disabled": 0, "type": "electric_scooter", "lon": -77.02289116666667, "bike_id": "495c3b83c47a3a9f3103f7a645b80cf0", "fusion_lat": 0.0, "name": "495c3b83c47a3a9f3103f7a645b80cf0", "is_reserved": 0, "rental_uris": {"android": "https://dc.lft.to/lastmile_qr_scan", "ios": "https://dc.lft.to/lastmile_qr_scan"}, "fusion_lon": 0.0}, {"lat": 38.954043666666664, "is_disabled": 0, "type": "electric_scooter", "lon": -77.0274995, "bike_id": "56f40ec9f15ae6eb44b52765e1a9b15d", "fusion_lat": 0.0, "name": "56f40ec9f15ae6eb44b52765e1a9b15d", "is_reserved": 0, "rental_uris": {"android": "https://dc.lft.to/lastmile_qr_scan", "ios": "https://dc.lft.to/lastmile_qr_scan"}, "fusion_lon": 0.0}, {"lat": 38.87667166666667, "is_disabled": 0, "type": "electric_scooter", "lon": -77.003977, "bike_id": "d9662c085573349e33b5f5582b10615f", "fusion_lat": 0.0, "name": "d9662c085573349e33b5f5582b10615f", "is_reserved": 0, "rental_uris": {"android": "https://dc.lft.to/lastmile_qr_scan", "ios": "https://dc.lft.to/lastmile_qr_scan"}, "fusion_lon": 0.0}, {"lat": 38.959204666666665, "is_disabled": 0, "type": "electric_bike", "lon": -77.03114583333333, "bike_id": "ef8651b4e0069d43e91685ab6959c91a", "fusion_lat": 0.0, "name": "ef8651b4e0069d43e91685ab6959c91a", "is_reserved": 0, "rental_uris": {"android": "https://dc.lft.to/lastmile_qr_scan", "ios": "https://dc.lft.to/lastmile_qr_scan"}, "fusion_lon": 0.0}, {"lat": 38.90862683333334, "is_disabled": 0, "type": "electric_bike", "lon": -77.080749, "bike_id": "e2cb5139269ba7c692c066feacfa5c33", "fusion_lat": 0.0, "name": "e2cb5139269ba7c692c066feacfa5c33", "is_reserved": 0, "rental_uris": {"android": "https://dc.lft.to/lastmile_qr_scan", "ios": "https://dc.lft.to/lastmile_qr_scan"}, "fusion_lon": 0.0}, {"lat": 38.91725516666666, "is_disabled": 0, "type": "electric_scooter", "lon": -77.04106683333333, "bike_id": "cabb60bf18948c0b18d7286498c3dc4c", "fusion_lat": 0.0, "name": "cabb60bf18948c0b18d7286498c3dc4c", "is_reserved": 0, "rental_uris": {"android": "https://dc.lft.to/lastmile_qr_scan", "ios": "https://dc.lft.to/lastmile_qr_scan"}, "fusion_lon": 0.0}, {"lat": 38.923468666666665, "is_disabled": 0, "type": "electric_scooter", "lon": -77.033668, "bike_id": "acb161f4b2a3c6328044a484993a3c03", "fusion_lat": 0.0, "name": "acb161f4b2a3c6328044a484993a3c03", "is_reserved": 0, "rental_uris": {"android": "https://dc.lft.to/lastmile_qr_scan", "ios": "https://dc.lft.to/lastmile_qr_scan"}, "fusion_lon": 0.0}, {"lat": 38.91982083333333, "is_disabled": 0, "type": "electric_scooter", "lon": -76.97311733333333, "bike_id": "5341cdc3e6b96b69fd7f80c9a621134d", "fusion_lat": 0.0, "name": "5341cdc3e6b96b69fd7f80c9a621134d", "is_reserved": 0, "rental_uris": {"android": "https://dc.lft.to/lastmile_qr_scan", "ios": "https://dc.lft.to/lastmile_qr_scan"}, "fusion_lon": 0.0}, {"lat": 38.884732166666666, "is_disabled": 0, "type": "electric_scooter", "lon": -76.9926355, "bike_id": "b6f81adfcd9e2b82c52aff58c58d537b", "fusion_lat": 0.0, "name": "b6f81adfcd9e2b82c52aff58c58d537b", "is_reserved": 0, "rental_uris": {"android": "https://dc.lft.to/lastmile_qr_scan", "ios": "https://dc.lft.to/lastmile_qr_scan"}, "fusion_lon": 0.0}, {"lat": 38.88077283333333, "is_disabled": 0, "type": "electric_scooter", "lon": -76.98531333333334, "bike_id": "eac47597209b2fbbe7f083f758b3fbad", "fusion_lat": 0.0, "name": "eac47597209b2fbbe7f083f758b3fbad", "is_reserved": 0, "rental_uris": {"android": "https://dc.lft.to/lastmile_qr_scan", "ios": "https://dc.lft.to/lastmile_qr_scan"}, "fusion_lon": 0.0}, {"lat": 38.96022216666667, "is_disabled": 0, "type": "electric_bike", "lon": -77.01728883333334, "bike_id": "882451839b3fb6aa2df3c9fc0f614628", "fusion_lat": 0.0, "name": "882451839b3fb6aa2df3c9fc0f614628", "is_reserved": 0, "rental_uris": {"android": "https://dc.lft.to/lastmile_qr_scan", "ios": "https://dc.lft.to/lastmile_qr_scan"}, "fusion_lon": 0.0}, {"lat": 38.95070283333333, "is_disabled": 0, "type": "electric_scooter", "lon": -77.00875733333334, "bike_id": "dbcc399a429b41be87bb7d4d5eaa5459", "fusion_lat": 0.0, "name": "dbcc399a429b41be87bb7d4d5eaa5459", "is_reserved": 0, "rental_uris": {"android": "https://dc.lft.to/lastmile_qr_scan", "ios": "https://dc.lft.to/lastmile_qr_scan"}, "fusion_lon": 0.0}, {"lat": 38.85733066666667, "is_disabled": 0, "type": "electric_scooter", "lon": -76.99438333333333, "bike_id": "d6f5fb0834a51f82a27824d2ff89c420", "fusion_lat": 0.0, "name": "d6f5fb0834a51f82a27824d2ff89c420", "is_reserved": 0, "rental_uris": {"android": "https://dc.lft.to/lastmile_qr_scan", "ios": "https://dc.lft.to/lastmile_qr_scan"}, "fusion_lon": 0.0}, {"lat": 38.90139033333333, "is_disabled": 0, "type": "electric_scooter", "lon": -77.041413, "bike_id": "dd3b1c1b7120e8353624d81d5fae9fbd", "fusion_lat": 0.0, "name": "dd3b1c1b7120e8353624d81d5fae9fbd", "is_reserved": 0, "rental_uris": {"android": "https://dc.lft.to/lastmile_qr_scan", "ios": "https://dc.lft.to/lastmile_qr_scan"}, "fusion_lon": 0.0}, {"lat": 38.90931583333333, "is_disabled": 0, "type": "electric_scooter", "lon": -77.03848966666666, "bike_id": "f7521bd31020fa882498d55f58ee98ff", "fusion_lat": 0.0, "name": "f7521bd31020fa882498d55f58ee98ff", "is_reserved": 0, "rental_uris": {"android": "https://dc.lft.to/lastmile_qr_scan", "ios": "https://dc.lft.to/lastmile_qr_scan"}, "fusion_lon": 0.0}, {"lat": 38.944465, "is_disabled": 0, "type": "electric_scooter", "lon": -77.0233975, "bike_id": "78f37b9f60c5444ef4f1eb8a26df21ee", "fusion_lat": 0.0, "name": "78f37b9f60c5444ef4f1eb8a26df21ee", "is_reserved": 0, "rental_uris": {"android": "https://dc.lft.to/lastmile_qr_scan", "ios": "https://dc.lft.to/lastmile_qr_scan"}, "fusion_lon": 0.0}, {"lat": 38.90956216666667, "is_disabled": 0, "type": "electric_scooter", "lon": -77.04797466666666, "bike_id": "ebb1ba1ecae6da338703fe70b1246416", "fusion_lat": 0.0, "name": "ebb1ba1ecae6da338703fe70b1246416", "is_reserved": 0, "rental_uris": {"android": "https://dc.lft.to/lastmile_qr_scan", "ios": "https://dc.lft.to/lastmile_qr_scan"}, "fusion_lon": 0.0}, {"lat": 38.9212925, "is_disabled": 0, "type": "electric_scooter", "lon": -77.03999166666667, "bike_id": "f272aad62b726645c7888f9c80017343", "fusion_lat": 0.0, "name": "f272aad62b726645c7888f9c80017343", "is_reserved": 0, "rental_uris": {"android": "https://dc.lft.to/lastmile_qr_scan", "ios": "https://dc.lft.to/lastmile_qr_scan"}, "fusion_lon": 0.0}, {"lat": 38.95736483333334, "is_disabled": 0, "type": "electric_bike", "lon": -77.02325416666666, "bike_id": "9ce82f101350c395a048e48334041c0f", "fusion_lat": 0.0, "name": "9ce82f101350c395a048e48334041c0f", "is_reserved": 0, "rental_uris": {"android": "https://dc.lft.to/lastmile_qr_scan", "ios": "https://dc.lft.to/lastmile_qr_scan"}, "fusion_lon": 0.0}, {"lat": 38.90265433333333, "is_disabled": 0, "type": "electric_scooter", "lon": -77.01843983333333, "bike_id": "6bf59c37019ee9df0e14b8fde80ce334", "fusion_lat": 0.0, "name": "6bf59c37019ee9df0e14b8fde80ce334", "is_reserved": 0, "rental_uris": {"android": "https://dc.lft.to/lastmile_qr_scan", "ios": "https://dc.lft.to/lastmile_qr_scan"}, "fusion_lon": 0.0}, {"lat": 38.9278915, "is_disabled": 0, "type": "electric_scooter", "lon": -77.031508, "bike_id": "32c9470c46bf2216941eac56e620df30", "fusion_lat": 0.0, "name": "32c9470c46bf2216941eac56e620df30", "is_reserved": 0, "rental_uris": {"android": "https://dc.lft.to/lastmile_qr_scan", "ios": "https://dc.lft.to/lastmile_qr_scan"}, "fusion_lon": 0.0}, {"lat": 38.852206833333334, "is_disabled": 0, "type": "electric_bike", "lon": -77.12961483333333, "bike_id": "1a9db9192c11fa321753b786714e0f5f", "fusion_lat": 0.0, "name": "1a9db9192c11fa321753b786714e0f5f", "is_reserved": 0, "rental_uris": {"android": "https://dc.lft.to/lastmile_qr_scan", "ios": "https://dc.lft.to/lastmile_qr_scan"}, "fusion_lon": 0.0}, {"lat": 38.92170266666667, "is_disabled": 0, "type": "electric_scooter", "lon": -77.05136233333333, "bike_id": "3c40886e63625bc0645d1fa826ecc469", "fusion_lat": 0.0, "name": "3c40886e63625bc0645d1fa826ecc469", "is_reserved": 0, "rental_uris": {"android": "https://dc.lft.to/lastmile_qr_scan", "ios": "https://dc.lft.to/lastmile_qr_scan"}, "fusion_lon": 0.0}, {"lat": 38.96216533333333, "is_disabled": 0, "type": "electric_bike", "lon": -77.02777966666666, "bike_id": "c4cf5a1326a78ca4dac513470dca0987", "fusion_lat": 0.0, "name": "c4cf5a1326a78ca4dac513470dca0987", "is_reserved": 0, "rental_uris": {"android": "https://dc.lft.to/lastmile_qr_scan", "ios": "https://dc.lft.to/lastmile_qr_scan"}, "fusion_lon": 0.0}, {"lat": 38.899132333333334, "is_disabled": 0, "type": "electric_scooter", "lon": -77.00345983333334, "bike_id": "58fb755e1460286163b9b9253cc89ee0", "fusion_lat": 0.0, "name": "58fb755e1460286163b9b9253cc89ee0", "is_reserved": 0, "rental_uris": {"android": "https://dc.lft.to/lastmile_qr_scan", "ios": "https://dc.lft.to/lastmile_qr_scan"}, "fusion_lon": 0.0}, {"lat": 38.93451433333333, "is_disabled": 0, "type": "electric_scooter", "lon": -77.03237883333334, "bike_id": "980b403030d9065a6ab1d381b462d883", "fusion_lat": 0.0, "name": "980b403030d9065a6ab1d381b462d883", "is_reserved": 0, "rental_uris": {"android": "https://dc.lft.to/lastmile_qr_scan", "ios": "https://dc.lft.to/lastmile_qr_scan"}, "fusion_lon": 0.0}, {"lat": 38.932239, "is_disabled": 0, "type": "electric_scooter", "lon": -77.04409583333333, "bike_id": "590dbdea44d4e68528ee858fb5b71483", "fusion_lat": 0.0, "name": "590dbdea44d4e68528ee858fb5b71483", "is_reserved": 0, "rental_uris": {"android": "https://dc.lft.to/lastmile_qr_scan", "ios": "https://dc.lft.to/lastmile_qr_scan"}, "fusion_lon": 0.0}, {"lat": 38.923359166666664, "is_disabled": 0, "type": "electric_scooter", "lon": -77.04463083333333, "bike_id": "bd80992c53b64654c24f27f9adcdcd62", "fusion_lat": 0.0, "name": "bd80992c53b64654c24f27f9adcdcd62", "is_reserved": 0, "rental_uris": {"android": "https://dc.lft.to/lastmile_qr_scan", "ios": "https://dc.lft.to/lastmile_qr_scan"}, "fusion_lon": 0.0}, {"lat": 38.911020666666666, "is_disabled": 0, "type": "electric_scooter", "lon": -77.03701966666667, "bike_id": "0b83460bbe5fb6a31e0e55ee92f1a2f7", "fusion_lat": 0.0, "name": "0b83460bbe5fb6a31e0e55ee92f1a2f7", "is_reserved": 0, "rental_uris": {"android": "https://dc.lft.to/lastmile_qr_scan", "ios": "https://dc.lft.to/lastmile_qr_scan"}, "fusion_lon": 0.0}, {"lat": 38.985950333333335, "is_disabled": 0, "type": "electric_bike", "lon": -77.037523, "bike_id": "d42f1051325aa3b3054ef0a8cc004030", "fusion_lat": 0.0, "name": "d42f1051325aa3b3054ef0a8cc004030", "is_reserved": 0, "rental_uris": {"android": "https://dc.lft.to/lastmile_qr_scan", "ios": "https://dc.lft.to/lastmile_qr_scan"}, "fusion_lon": 0.0}, {"lat": 38.9165125, "is_disabled": 0, "type": "electric_scooter", "lon": -77.043036, "bike_id": "12784d3d1342d7d59709feb72af961b8", "fusion_lat": 0.0, "name": "12784d3d1342d7d59709feb72af961b8", "is_reserved": 0, "rental_uris": {"android": "https://dc.lft.to/lastmile_qr_scan", "ios": "https://dc.lft.to/lastmile_qr_scan"}, "fusion_lon": 0.0}, {"lat": 38.90647766666667, "is_disabled": 0, "type": "electric_scooter", "lon": -77.01205283333333, "bike_id": "52dbb77da2e26acc41d9c92cae51e55f", "fusion_lat": 0.0, "name": "52dbb77da2e26acc41d9c92cae51e55f", "is_reserved": 0, "rental_uris": {"android": "https://dc.lft.to/lastmile_qr_scan", "ios": "https://dc.lft.to/lastmile_qr_scan"}, "fusion_lon": 0.0}, {"lat": 38.910726333333336, "is_disabled": 0, "type": "electric_scooter", "lon": -77.01640616666667, "bike_id": "d9cc9ce7bb6048176e761123dfa597fb", "fusion_lat": 0.0, "name": "d9cc9ce7bb6048176e761123dfa597fb", "is_reserved": 0, "rental_uris": {"android": "https://dc.lft.to/lastmile_qr_scan", "ios": "https://dc.lft.to/lastmile_qr_scan"}, "fusion_lon": 0.0}, {"lat": 38.952463333333334, "is_disabled": 0, "type": "electric_bike", "lon": -76.98235116666666, "bike_id": "2032ca68f435a151bdf4703aa2beaeaa", "fusion_lat": 0.0, "name": "2032ca68f435a151bdf4703aa2beaeaa", "is_reserved": 0, "rental_uris": {"android": "https://dc.lft.to/lastmile_qr_scan", "ios": "https://dc.lft.to/lastmile_qr_scan"}, "fusion_lon": 0.0}, {"lat": 38.900556, "is_disabled": 0, "type": "electric_scooter", "lon": -77.00763166666667, "bike_id": "88e3ff10c43100ed831011ec1de9858c", "fusion_lat": 0.0, "name": "88e3ff10c43100ed831011ec1de9858c", "is_reserved": 0, "rental_uris": {"android": "https://dc.lft.to/lastmile_qr_scan", "ios": "https://dc.lft.to/lastmile_qr_scan"}, "fusion_lon": 0.0}, {"lat": 38.865971, "is_disabled": 0, "type": "electric_bike", "lon": -76.9322815, "bike_id": "714b255d9229541b4baec47e5eb751ba", "fusion_lat": 0.0, "name": "714b255d9229541b4baec47e5eb751ba", "is_reserved": 0, "rental_uris": {"android": "https://dc.lft.to/lastmile_qr_scan", "ios": "https://dc.lft.to/lastmile_qr_scan"}, "fusion_lon": 0.0}, {"lat": 38.92027066666667, "is_disabled": 0, "type": "electric_scooter", "lon": -77.0439015, "bike_id": "a8325edf1eab0d22ccdadf5e9b3b7303", "fusion_lat": 0.0, "name": "a8325edf1eab0d22ccdadf5e9b3b7303", "is_reserved": 0, "rental_uris": {"android": "https://dc.lft.to/lastmile_qr_scan", "ios": "https://dc.lft.to/lastmile_qr_scan"}, "fusion_lon": 0.0}, {"lat": 38.8963325, "is_disabled": 0, "type": "electric_scooter", "lon": -77.03205383333334, "bike_id": "68f4a1dbc399ae84323e10bb2bd6cc29", "fusion_lat": 0.0, "name": "68f4a1dbc399ae84323e10bb2bd6cc29", "is_reserved": 0, "rental_uris": {"android": "https://dc.lft.to/lastmile_qr_scan", "ios": "https://dc.lft.to/lastmile_qr_scan"}, "fusion_lon": 0.0}, {"lat": 38.899552, "is_disabled": 0, "type": "electric_scooter", "lon": -77.05175866666667, "bike_id": "6ddd5b62df137ed15a2b1837a3694bc7", "fusion_lat": 0.0, "name": "6ddd5b62df137ed15a2b1837a3694bc7", "is_reserved": 0, "rental_uris": {"android": "https://dc.lft.to/lastmile_qr_scan", "ios": "https://dc.lft.to/lastmile_qr_scan"}, "fusion_lon": 0.0}, {"lat": 38.946033166666666, "is_disabled": 0, "type": "electric_scooter", "lon": -77.02981033333333, "bike_id": "cac7085062e902d64c0acee9c8f0cfa4", "fusion_lat": 0.0, "name": "cac7085062e902d64c0acee9c8f0cfa4", "is_reserved": 0, "rental_uris": {"android": "https://dc.lft.to/lastmile_qr_scan", "ios": "https://dc.lft.to/lastmile_qr_scan"}, "fusion_lon": 0.0}, {"lat": 38.92409033333333, "is_disabled": 0, "type": "electric_scooter", "lon": -77.0444085, "bike_id": "6941459bc40a800b505ca34a219cdd4b", "fusion_lat": 0.0, "name": "6941459bc40a800b505ca34a219cdd4b", "is_reserved": 0, "rental_uris": {"android": "https://dc.lft.to/lastmile_qr_scan", "ios": "https://dc.lft.to/lastmile_qr_scan"}, "fusion_lon": 0.0}, {"lat": 38.91052233333333, "is_disabled": 0, "type": "electric_scooter", "lon": -77.015252, "bike_id": "2b76ba5fa7d450911fcbd29bd5414563", "fusion_lat": 0.0, "name": "2b76ba5fa7d450911fcbd29bd5414563", "is_reserved": 0, "rental_uris": {"android": "https://dc.lft.to/lastmile_qr_scan", "ios": "https://dc.lft.to/lastmile_qr_scan"}, "fusion_lon": 0.0}, {"lat": 38.86478733333333, "is_disabled": 0, "type": "electric_scooter", "lon": -76.9745985, "bike_id": "22b1ec22bf558cefc2c1e90f2e0edc0d", "fusion_lat": 0.0, "name": "22b1ec22bf558cefc2c1e90f2e0edc0d", "is_reserved": 0, "rental_uris": {"android": "https://dc.lft.to/lastmile_qr_scan", "ios": "https://dc.lft.to/lastmile_qr_scan"}, "fusion_lon": 0.0}, {"lat": 38.874762833333335, "is_disabled": 0, "type": "electric_scooter", "lon": -77.01067733333333, "bike_id": "c6dd9a2f3b32d714e790897d8f793d16", "fusion_lat": 0.0, "name": "c6dd9a2f3b32d714e790897d8f793d16", "is_reserved": 0, "rental_uris": {"android": "https://dc.lft.to/lastmile_qr_scan", "ios": "https://dc.lft.to/lastmile_qr_scan"}, "fusion_lon": 0.0}, {"lat": 38.9024095, "is_disabled": 0, "type": "electric_scooter", "lon": -77.028393, "bike_id": "25d1cba167aec57f75c0ea050519823c", "fusion_lat": 0.0, "name": "25d1cba167aec57f75c0ea050519823c", "is_reserved": 0, "rental_uris": {"android": "https://dc.lft.to/lastmile_qr_scan", "ios": "https://dc.lft.to/lastmile_qr_scan"}, "fusion_lon": 0.0}, {"lat": 38.89958766666667, "is_disabled": 0, "type": "electric_scooter", "lon": -77.05093133333334, "bike_id": "778e9552de2fee3f85979222eb680db4", "fusion_lat": 0.0, "name": "778e9552de2fee3f85979222eb680db4", "is_reserved": 0, "rental_uris": {"android": "https://dc.lft.to/lastmile_qr_scan", "ios": "https://dc.lft.to/lastmile_qr_scan"}, "fusion_lon": 0.0}, {"lat": 38.897477, "is_disabled": 0, "type": "electric_scooter", "lon": -77.0468455, "bike_id": "80ec80b200d02f63410eef9f7c5f82e0", "fusion_lat": 0.0, "name": "80ec80b200d02f63410eef9f7c5f82e0", "is_reserved": 0, "rental_uris": {"android": "https://dc.lft.to/lastmile_qr_scan", "ios": "https://dc.lft.to/lastmile_qr_scan"}, "fusion_lon": 0.0}, {"lat": 38.91253316666667, "is_disabled": 0, "type": "electric_scooter", "lon": -77.03865266666666, "bike_id": "28d278ac591c2f899e2c4e5d8830275e", "fusion_lat": 0.0, "name": "28d278ac591c2f899e2c4e5d8830275e", "is_reserved": 0, "rental_uris": {"android": "https://dc.lft.to/lastmile_qr_scan", "ios": "https://dc.lft.to/lastmile_qr_scan"}, "fusion_lon": 0.0}, {"lat": 38.922796166666664, "is_disabled": 0, "type": "electric_scooter", "lon": -77.04248666666666, "bike_id": "190cc7415758375111d88145c276ba93", "fusion_lat": 0.0, "name": "190cc7415758375111d88145c276ba93", "is_reserved": 0, "rental_uris": {"android": "https://dc.lft.to/lastmile_qr_scan", "ios": "https://dc.lft.to/lastmile_qr_scan"}, "fusion_lon": 0.0}, {"lat": 38.89220983333333, "is_disabled": 0, "type": "electric_scooter", "lon": -77.02641816666667, "bike_id": "38efc9baf742b3d09ae20a0c3b03667e", "fusion_lat": 0.0, "name": "38efc9baf742b3d09ae20a0c3b03667e", "is_reserved": 0, "rental_uris": {"android": "https://dc.lft.to/lastmile_qr_scan", "ios": "https://dc.lft.to/lastmile_qr_scan"}, "fusion_lon": 0.0}, {"lat": 38.87677216666667, "is_disabled": 0, "type": "electric_scooter", "lon": -77.01787716666666, "bike_id": "ae21f71c9c2cccd31c05ef6a02c2f1d1", "fusion_lat": 0.0, "name": "ae21f71c9c2cccd31c05ef6a02c2f1d1", "is_reserved": 0, "rental_uris": {"android": "https://dc.lft.to/lastmile_qr_scan", "ios": "https://dc.lft.to/lastmile_qr_scan"}, "fusion_lon": 0.0}, {"lat": 38.906854333333335, "is_disabled": 0, "type": "electric_scooter", "lon": -76.99963866666667, "bike_id": "6839defa74c34e2b0f6e82735739dd80", "fusion_lat": 0.0, "name": "6839defa74c34e2b0f6e82735739dd80", "is_reserved": 0, "rental_uris": {"android": "https://dc.lft.to/lastmile_qr_scan", "ios": "https://dc.lft.to/lastmile_qr_scan"}, "fusion_lon": 0.0}, {"lat": 38.926191833333334, "is_disabled": 0, "type": "electric_scooter", "lon": -77.03784433333334, "bike_id": "e8a41ead4b22ddeffc605749f9cae8a2", "fusion_lat": 0.0, "name": "e8a41ead4b22ddeffc605749f9cae8a2", "is_reserved": 0, "rental_uris": {"android": "https://dc.lft.to/lastmile_qr_scan", "ios": "https://dc.lft.to/lastmile_qr_scan"}, "fusion_lon": 0.0}, {"lat": 38.902942333333336, "is_disabled": 0, "type": "electric_scooter", "lon": -77.0533005, "bike_id": "21010d7d1779a26c94cb98bf080562b2", "fusion_lat": 0.0, "name": "21010d7d1779a26c94cb98bf080562b2", "is_reserved": 0, "rental_uris": {"android": "https://dc.lft.to/lastmile_qr_scan", "ios": "https://dc.lft.to/lastmile_qr_scan"}, "fusion_lon": 0.0}, {"lat": 38.91923116666667, "is_disabled": 0, "type": "electric_scooter", "lon": -77.033916, "bike_id": "7a6ef1d3fd88d857025a180db1c469b8", "fusion_lat": 0.0, "name": "7a6ef1d3fd88d857025a180db1c469b8", "is_reserved": 0, "rental_uris": {"android": "https://dc.lft.to/lastmile_qr_scan", "ios": "https://dc.lft.to/lastmile_qr_scan"}, "fusion_lon": 0.0}, {"lat": 38.8948315, "is_disabled": 0, "type": "electric_scooter", "lon": -76.9495315, "bike_id": "2967ee5a6b4cdfaf37c7561cc24f2613", "fusion_lat": 0.0, "name": "2967ee5a6b4cdfaf37c7561cc24f2613", "is_reserved": 0, "rental_uris": {"android": "https://dc.lft.to/lastmile_qr_scan", "ios": "https://dc.lft.to/lastmile_qr_scan"}, "fusion_lon": 0.0}, {"lat": 38.862217666666666, "is_disabled": 0, "type": "electric_scooter", "lon": -76.98369566666666, "bike_id": "c02807c84c5b9d564e92418a27b5093a", "fusion_lat": 0.0, "name": "c02807c84c5b9d564e92418a27b5093a", "is_reserved": 0, "rental_uris": {"android": "https://dc.lft.to/lastmile_qr_scan", "ios": "https://dc.lft.to/lastmile_qr_scan"}, "fusion_lon": 0.0}, {"lat": 38.91702, "is_disabled": 0, "type": "electric_scooter", "lon": -77.0298975, "bike_id": "0165797a56128b49edbe81a6181fc598", "fusion_lat": 0.0, "name": "0165797a56128b49edbe81a6181fc598", "is_reserved": 0, "rental_uris": {"android": "https://dc.lft.to/lastmile_qr_scan", "ios": "https://dc.lft.to/lastmile_qr_scan"}, "fusion_lon": 0.0}, {"lat": 38.9616405, "is_disabled": 0, "type": "electric_scooter", "lon": -77.02786933333333, "bike_id": "c05b75cc4afbd593b72151e1679e1e84", "fusion_lat": 0.0, "name": "c05b75cc4afbd593b72151e1679e1e84", "is_reserved": 0, "rental_uris": {"android": "https://dc.lft.to/lastmile_qr_scan", "ios": "https://dc.lft.to/lastmile_qr_scan"}, "fusion_lon": 0.0}, {"lat": 38.910105333333334, "is_disabled": 0, "type": "electric_scooter", "lon": -76.9938835, "bike_id": "e39e3e3da47134eb643c388420f318e7", "fusion_lat": 0.0, "name": "e39e3e3da47134eb643c388420f318e7", "is_reserved": 0, "rental_uris": {"android": "https://dc.lft.to/lastmile_qr_scan", "ios": "https://dc.lft.to/lastmile_qr_scan"}, "fusion_lon": 0.0}, {"lat": 38.866186, "is_disabled": 0, "type": "electric_scooter", "lon": -76.98658733333333, "bike_id": "0416663b4e696acbc9e8a27d4caeb637", "fusion_lat": 0.0, "name": "0416663b4e696acbc9e8a27d4caeb637", "is_reserved": 0, "rental_uris": {"android": "https://dc.lft.to/lastmile_qr_scan", "ios": "https://dc.lft.to/lastmile_qr_scan"}, "fusion_lon": 0.0}, {"lat": 38.882749833333335, "is_disabled": 0, "type": "electric_bike", "lon": -76.93239466666667, "bike_id": "321c33cab13e110127ed5dbad444489f", "fusion_lat": 0.0, "name": "321c33cab13e110127ed5dbad444489f", "is_reserved": 0, "rental_uris": {"android": "https://dc.lft.to/lastmile_qr_scan", "ios": "https://dc.lft.to/lastmile_qr_scan"}, "fusion_lon": 0.0}, {"lat": 38.903326666666665, "is_disabled": 0, "type": "electric_scooter", "lon": -76.97059183333333, "bike_id": "888bf52945fbd0b09f4617687d634957", "fusion_lat": 0.0, "name": "888bf52945fbd0b09f4617687d634957", "is_reserved": 0, "rental_uris": {"android": "https://dc.lft.to/lastmile_qr_scan", "ios": "https://dc.lft.to/lastmile_qr_scan"}, "fusion_lon": 0.0}, {"lat": 38.87926233333334, "is_disabled": 0, "type": "electric_scooter", "lon": -77.007396, "bike_id": "cc7bdf9f17bf405b52d6937fd20a5f3a", "fusion_lat": 0.0, "name": "cc7bdf9f17bf405b52d6937fd20a5f3a", "is_reserved": 0, "rental_uris": {"android": "https://dc.lft.to/lastmile_qr_scan", "ios": "https://dc.lft.to/lastmile_qr_scan"}, "fusion_lon": 0.0}, {"lat": 38.9199905, "is_disabled": 0, "type": "electric_scooter", "lon": -77.023495, "bike_id": "0ea25bd205fa7ac8a0eec97d09bb1e1b", "fusion_lat": 0.0, "name": "0ea25bd205fa7ac8a0eec97d09bb1e1b", "is_reserved": 0, "rental_uris": {"android": "https://dc.lft.to/lastmile_qr_scan", "ios": "https://dc.lft.to/lastmile_qr_scan"}, "fusion_lon": 0.0}, {"lat": 38.89220516666666, "is_disabled": 0, "type": "electric_scooter", "lon": -77.04864366666666, "bike_id": "4f29101facd3c219d156cc6f27c6ec4d", "fusion_lat": 0.0, "name": "4f29101facd3c219d156cc6f27c6ec4d", "is_reserved": 0, "rental_uris": {"android": "https://dc.lft.to/lastmile_qr_scan", "ios": "https://dc.lft.to/lastmile_qr_scan"}, "fusion_lon": 0.0}, {"lat": 38.915638, "is_disabled": 0, "type": "electric_scooter", "lon": -77.00980666666666, "bike_id": "15e1b6f6c131c6a120f21e3d4957c71f", "fusion_lat": 0.0, "name": "15e1b6f6c131c6a120f21e3d4957c71f", "is_reserved": 0, "rental_uris": {"android": "https://dc.lft.to/lastmile_qr_scan", "ios": "https://dc.lft.to/lastmile_qr_scan"}, "fusion_lon": 0.0}, {"lat": 38.89856616666667, "is_disabled": 0, "type": "electric_scooter", "lon": -77.02942183333333, "bike_id": "87560b5340bb4e60965c74e4273ed740", "fusion_lat": 0.0, "name": "87560b5340bb4e60965c74e4273ed740", "is_reserved": 0, "rental_uris": {"android": "https://dc.lft.to/lastmile_qr_scan", "ios": "https://dc.lft.to/lastmile_qr_scan"}, "fusion_lon": 0.0}, {"lat": 38.908805666666666, "is_disabled": 0, "type": "electric_scooter", "lon": -77.03653616666666, "bike_id": "d02d78de6d055d36e8aa43b1cb3d2f16", "fusion_lat": 0.0, "name": "d02d78de6d055d36e8aa43b1cb3d2f16", "is_reserved": 0, "rental_uris": {"android": "https://dc.lft.to/lastmile_qr_scan", "ios": "https://dc.lft.to/lastmile_qr_scan"}, "fusion_lon": 0.0}, {"lat": 38.9614425, "is_disabled": 0, "type": "electric_bike", "lon": -77.0323455, "bike_id": "ffd5d0134e68a2f01de09ff43476834b", "fusion_lat": 0.0, "name": "ffd5d0134e68a2f01de09ff43476834b", "is_reserved": 0, "rental_uris": {"android": "https://dc.lft.to/lastmile_qr_scan", "ios": "https://dc.lft.to/lastmile_qr_scan"}, "fusion_lon": 0.0}, {"lat": 38.91685783333333, "is_disabled": 0, "type": "electric_scooter", "lon": -77.02944666666667, "bike_id": "ec19d8cb6ed3f231616b21b0a3565167", "fusion_lat": 0.0, "name": "ec19d8cb6ed3f231616b21b0a3565167", "is_reserved": 0, "rental_uris": {"android": "https://dc.lft.to/lastmile_qr_scan", "ios": "https://dc.lft.to/lastmile_qr_scan"}, "fusion_lon": 0.0}, {"lat": 38.9223945, "is_disabled": 0, "type": "electric_scooter", "lon": -77.02908966666666, "bike_id": "c6bc2d404912c4a383273ede0b3bb972", "fusion_lat": 0.0, "name": "c6bc2d404912c4a383273ede0b3bb972", "is_reserved": 0, "rental_uris": {"android": "https://dc.lft.to/lastmile_qr_scan", "ios": "https://dc.lft.to/lastmile_qr_scan"}, "fusion_lon": 0.0}, {"lat": 38.905608666666666, "is_disabled": 0, "type": "electric_scooter", "lon": -77.05701216666667, "bike_id": "93c774d6598a8a6528a7f3364fe2442c", "fusion_lat": 0.0, "name": "93c774d6598a8a6528a7f3364fe2442c", "is_reserved": 0, "rental_uris": {"android": "https://dc.lft.to/lastmile_qr_scan", "ios": "https://dc.lft.to/lastmile_qr_scan"}, "fusion_lon": 0.0}, {"lat": 38.93568483333333, "is_disabled": 0, "type": "electric_scooter", "lon": -77.03731116666667, "bike_id": "35f8cc9c8f0a5c5692c3ae36524df267", "fusion_lat": 0.0, "name": "35f8cc9c8f0a5c5692c3ae36524df267", "is_reserved": 0, "rental_uris": {"android": "https://dc.lft.to/lastmile_qr_scan", "ios": "https://dc.lft.to/lastmile_qr_scan"}, "fusion_lon": 0.0}, {"lat": 38.92713833333333, "is_disabled": 0, "type": "electric_bike", "lon": -77.01361116666666, "bike_id": "656fa5c6c2d17eaea1b4ac25e54d77e9", "fusion_lat": 0.0, "name": "656fa5c6c2d17eaea1b4ac25e54d77e9", "is_reserved": 0, "rental_uris": {"android": "https://dc.lft.to/lastmile_qr_scan", "ios": "https://dc.lft.to/lastmile_qr_scan"}, "fusion_lon": 0.0}, {"lat": 38.984314499999996, "is_disabled": 0, "type": "electric_scooter", "lon": -77.02672333333334, "bike_id": "469d15c3291b27838f4dce558d0913a7", "fusion_lat": 0.0, "name": "469d15c3291b27838f4dce558d0913a7", "is_reserved": 0, "rental_uris": {"android": "https://dc.lft.to/lastmile_qr_scan", "ios": "https://dc.lft.to/lastmile_qr_scan"}, "fusion_lon": 0.0}, {"lat": 38.9096995, "is_disabled": 0, "type": "electric_scooter", "lon": -77.04796216666666, "bike_id": "e9315c47313a99607269f656ef265a12", "fusion_lat": 0.0, "name": "e9315c47313a99607269f656ef265a12", "is_reserved": 0, "rental_uris": {"android": "https://dc.lft.to/lastmile_qr_scan", "ios": "https://dc.lft.to/lastmile_qr_scan"}, "fusion_lon": 0.0}, {"lat": 38.931933666666666, "is_disabled": 0, "type": "electric_scooter", "lon": -77.02563966666666, "bike_id": "af184d21669f33b4e1d4c807ab3cd19c", "fusion_lat": 0.0, "name": "af184d21669f33b4e1d4c807ab3cd19c", "is_reserved": 0, "rental_uris": {"android": "https://dc.lft.to/lastmile_qr_scan", "ios": "https://dc.lft.to/lastmile_qr_scan"}, "fusion_lon": 0.0}, {"lat": 38.9566455, "is_disabled": 0, "type": "electric_bike", "lon": -77.01154766666667, "bike_id": "036fda2a5c05d7f694064d01acf6dae3", "fusion_lat": 0.0, "name": "036fda2a5c05d7f694064d01acf6dae3", "is_reserved": 0, "rental_uris": {"android": "https://dc.lft.to/lastmile_qr_scan", "ios": "https://dc.lft.to/lastmile_qr_scan"}, "fusion_lon": 0.0}, {"lat": 38.896298333333334, "is_disabled": 0, "type": "electric_scooter", "lon": -77.03303816666667, "bike_id": "ef5b7ed7d3058fbba047b23309c8a39e", "fusion_lat": 0.0, "name": "ef5b7ed7d3058fbba047b23309c8a39e", "is_reserved": 0, "rental_uris": {"android": "https://dc.lft.to/lastmile_qr_scan", "ios": "https://dc.lft.to/lastmile_qr_scan"}, "fusion_lon": 0.0}, {"lat": 38.89708066666667, "is_disabled": 0, "type": "electric_scooter", "lon": -77.02782166666667, "bike_id": "6328c0b568be84573db9d31cdd474163", "fusion_lat": 0.0, "name": "6328c0b568be84573db9d31cdd474163", "is_reserved": 0, "rental_uris": {"android": "https://dc.lft.to/lastmile_qr_scan", "ios": "https://dc.lft.to/lastmile_qr_scan"}, "fusion_lon": 0.0}, {"lat": 38.88363866666667, "is_disabled": 0, "type": "electric_scooter", "lon": -76.9951095, "bike_id": "c311864127b967876e1c7e4ace3a0d44", "fusion_lat": 0.0, "name": "c311864127b967876e1c7e4ace3a0d44", "is_reserved": 0, "rental_uris": {"android": "https://dc.lft.to/lastmile_qr_scan", "ios": "https://dc.lft.to/lastmile_qr_scan"}, "fusion_lon": 0.0}, {"lat": 38.887951666666666, "is_disabled": 0, "type": "electric_scooter", "lon": -76.93360033333333, "bike_id": "0ef83f8c465e82b3898b5a9fe0debd4a", "fusion_lat": 0.0, "name": "0ef83f8c465e82b3898b5a9fe0debd4a", "is_reserved": 0, "rental_uris": {"android": "https://dc.lft.to/lastmile_qr_scan", "ios": "https://dc.lft.to/lastmile_qr_scan"}, "fusion_lon": 0.0}, {"lat": 38.96605183333333, "is_disabled": 0, "type": "electric_scooter", "lon": -77.02318933333333, "bike_id": "a9eae647bfb3acfd3c2058f5795e7184", "fusion_lat": 0.0, "name": "a9eae647bfb3acfd3c2058f5795e7184", "is_reserved": 0, "rental_uris": {"android": "https://dc.lft.to/lastmile_qr_scan", "ios": "https://dc.lft.to/lastmile_qr_scan"}, "fusion_lon": 0.0}, {"lat": 38.909715, "is_disabled": 0, "type": "electric_scooter", "lon": -77.0387185, "bike_id": "e70c022f56e0126800dbcc1c00fd07fa", "fusion_lat": 0.0, "name": "e70c022f56e0126800dbcc1c00fd07fa", "is_reserved": 0, "rental_uris": {"android": "https://dc.lft.to/lastmile_qr_scan", "ios": "https://dc.lft.to/lastmile_qr_scan"}, "fusion_lon": 0.0}, {"lat": 38.880925, "is_disabled": 0, "type": "electric_scooter", "lon": -76.9925215, "bike_id": "31cb81dcf45e093682bde6953e536327", "fusion_lat": 0.0, "name": "31cb81dcf45e093682bde6953e536327", "is_reserved": 0, "rental_uris": {"android": "https://dc.lft.to/lastmile_qr_scan", "ios": "https://dc.lft.to/lastmile_qr_scan"}, "fusion_lon": 0.0}, {"lat": 38.827848833333334, "is_disabled": 0, "type": "electric_bike", "lon": -77.00917666666666, "bike_id": "8cba17103541a546160c7513414f0341", "fusion_lat": 0.0, "name": "8cba17103541a546160c7513414f0341", "is_reserved": 0, "rental_uris": {"android": "https://dc.lft.to/lastmile_qr_scan", "ios": "https://dc.lft.to/lastmile_qr_scan"}, "fusion_lon": 0.0}, {"lat": 38.9225185, "is_disabled": 0, "type": "electric_scooter", "lon": -77.01974666666666, "bike_id": "8b9a369daa50382378ee56f5415f9142", "fusion_lat": 0.0, "name": "8b9a369daa50382378ee56f5415f9142", "is_reserved": 0, "rental_uris": {"android": "https://dc.lft.to/lastmile_qr_scan", "ios": "https://dc.lft.to/lastmile_qr_scan"}, "fusion_lon": 0.0}, {"lat": 38.93892266666667, "is_disabled": 0, "type": "electric_scooter", "lon": -77.0332955, "bike_id": "8fa5062ad0c20f733aab126f1bb56017", "fusion_lat": 0.0, "name": "8fa5062ad0c20f733aab126f1bb56017", "is_reserved": 0, "rental_uris": {"android": "https://dc.lft.to/lastmile_qr_scan", "ios": "https://dc.lft.to/lastmile_qr_scan"}, "fusion_lon": 0.0}, {"lat": 38.9005275, "is_disabled": 0, "type": "electric_scooter", "lon": -77.00751733333334, "bike_id": "898b8d8d4c4fc960155c2bf934ff4558", "fusion_lat": 0.0, "name": "898b8d8d4c4fc960155c2bf934ff4558", "is_reserved": 0, "rental_uris": {"android": "https://dc.lft.to/lastmile_qr_scan", "ios": "https://dc.lft.to/lastmile_qr_scan"}, "fusion_lon": 0.0}, {"lat": 38.90038766666667, "is_disabled": 0, "type": "electric_scooter", "lon": -77.03372766666666, "bike_id": "ced3c85652fd51b4d74c731b130c67cf", "fusion_lat": 0.0, "name": "ced3c85652fd51b4d74c731b130c67cf", "is_reserved": 0, "rental_uris": {"android": "https://dc.lft.to/lastmile_qr_scan", "ios": "https://dc.lft.to/lastmile_qr_scan"}, "fusion_lon": 0.0}, {"lat": 38.91608633333333, "is_disabled": 0, "type": "electric_scooter", "lon": -77.03850116666666, "bike_id": "a44378414cef6b98b049d82945b24ba8", "fusion_lat": 0.0, "name": "a44378414cef6b98b049d82945b24ba8", "is_reserved": 0, "rental_uris": {"android": "https://dc.lft.to/lastmile_qr_scan", "ios": "https://dc.lft.to/lastmile_qr_scan"}, "fusion_lon": 0.0}, {"lat": 38.921519333333336, "is_disabled": 0, "type": "electric_scooter", "lon": -77.03661283333334, "bike_id": "3b1973e4c9ab9e561ee9b76d3325186d", "fusion_lat": 0.0, "name": "3b1973e4c9ab9e561ee9b76d3325186d", "is_reserved": 0, "rental_uris": {"android": "https://dc.lft.to/lastmile_qr_scan", "ios": "https://dc.lft.to/lastmile_qr_scan"}, "fusion_lon": 0.0}, {"lat": 38.97228833333333, "is_disabled": 0, "type": "electric_bike", "lon": -76.99337483333333, "bike_id": "40bc29d852b1d7a4a32e94268f1591e3", "fusion_lat": 0.0, "name": "40bc29d852b1d7a4a32e94268f1591e3", "is_reserved": 0, "rental_uris": {"android": "https://dc.lft.to/lastmile_qr_scan", "ios": "https://dc.lft.to/lastmile_qr_scan"}, "fusion_lon": 0.0}, {"lat": 38.938602833333334, "is_disabled": 0, "type": "electric_scooter", "lon": -77.02563633333334, "bike_id": "aba1768828001cb68773e2a46f222497", "fusion_lat": 0.0, "name": "aba1768828001cb68773e2a46f222497", "is_reserved": 0, "rental_uris": {"android": "https://dc.lft.to/lastmile_qr_scan", "ios": "https://dc.lft.to/lastmile_qr_scan"}, "fusion_lon": 0.0}, {"lat": 38.895337833333336, "is_disabled": 0, "type": "electric_scooter", "lon": -77.01119016666667, "bike_id": "f18b3b2589b5e2872e9b4c32d339f537", "fusion_lat": 0.0, "name": "f18b3b2589b5e2872e9b4c32d339f537", "is_reserved": 0, "rental_uris": {"android": "https://dc.lft.to/lastmile_qr_scan", "ios": "https://dc.lft.to/lastmile_qr_scan"}, "fusion_lon": 0.0}, {"lat": 38.90522, "is_disabled": 0, "type": "electric_scooter", "lon": -77.06059266666666, "bike_id": "682dbba9a9e1f25949425bbb6c9c7d2a", "fusion_lat": 0.0, "name": "682dbba9a9e1f25949425bbb6c9c7d2a", "is_reserved": 0, "rental_uris": {"android": "https://dc.lft.to/lastmile_qr_scan", "ios": "https://dc.lft.to/lastmile_qr_scan"}, "fusion_lon": 0.0}, {"lat": 38.91858516666667, "is_disabled": 0, "type": "electric_scooter", "lon": -77.0459885, "bike_id": "d14004738049386e131f4f7174dc1088", "fusion_lat": 0.0, "name": "d14004738049386e131f4f7174dc1088", "is_reserved": 0, "rental_uris": {"android": "https://dc.lft.to/lastmile_qr_scan", "ios": "https://dc.lft.to/lastmile_qr_scan"}, "fusion_lon": 0.0}, {"lat": 38.905203666666665, "is_disabled": 0, "type": "electric_scooter", "lon": -77.047365, "bike_id": "a12cb12d9f37bffe6d45e56ad8b4c460", "fusion_lat": 0.0, "name": "a12cb12d9f37bffe6d45e56ad8b4c460", "is_reserved": 0, "rental_uris": {"android": "https://dc.lft.to/lastmile_qr_scan", "ios": "https://dc.lft.to/lastmile_qr_scan"}, "fusion_lon": 0.0}, {"lat": 38.91256333333333, "is_disabled": 0, "type": "electric_scooter", "lon": -77.0062795, "bike_id": "95fbf3fe24e31a9566db10f905a5fdb6", "fusion_lat": 0.0, "name": "95fbf3fe24e31a9566db10f905a5fdb6", "is_reserved": 0, "rental_uris": {"android": "https://dc.lft.to/lastmile_qr_scan", "ios": "https://dc.lft.to/lastmile_qr_scan"}, "fusion_lon": 0.0}, {"lat": 38.91952066666666, "is_disabled": 0, "type": "electric_scooter", "lon": -76.98079433333334, "bike_id": "968d4c580b9d7e537ff6c8f194734879", "fusion_lat": 0.0, "name": "968d4c580b9d7e537ff6c8f194734879", "is_reserved": 0, "rental_uris": {"android": "https://dc.lft.to/lastmile_qr_scan", "ios": "https://dc.lft.to/lastmile_qr_scan"}, "fusion_lon": 0.0}, {"lat": 38.903347, "is_disabled": 0, "type": "electric_scooter", "lon": -77.03777133333334, "bike_id": "4ed9541e73f806b0315ba20f09e85b82", "fusion_lat": 0.0, "name": "4ed9541e73f806b0315ba20f09e85b82", "is_reserved": 0, "rental_uris": {"android": "https://dc.lft.to/lastmile_qr_scan", "ios": "https://dc.lft.to/lastmile_qr_scan"}, "fusion_lon": 0.0}, {"lat": 38.91603383333333, "is_disabled": 0, "type": "electric_scooter", "lon": -77.04855166666667, "bike_id": "66c48316eadd6081a43587618cb52266", "fusion_lat": 0.0, "name": "66c48316eadd6081a43587618cb52266", "is_reserved": 0, "rental_uris": {"android": "https://dc.lft.to/lastmile_qr_scan", "ios": "https://dc.lft.to/lastmile_qr_scan"}, "fusion_lon": 0.0}, {"lat": 38.9192315, "is_disabled": 0, "type": "electric_scooter", "lon": -77.03183216666666, "bike_id": "dc1c15ff3980d1e4af3dcaa5c331015f", "fusion_lat": 0.0, "name": "dc1c15ff3980d1e4af3dcaa5c331015f", "is_reserved": 0, "rental_uris": {"android": "https://dc.lft.to/lastmile_qr_scan", "ios": "https://dc.lft.to/lastmile_qr_scan"}, "fusion_lon": 0.0}, {"lat": 38.8604635, "is_disabled": 0, "type": "electric_scooter", "lon": -77.05729966666667, "bike_id": "0930985b956c6121c11567cd46ab46ec", "fusion_lat": 0.0, "name": "0930985b956c6121c11567cd46ab46ec", "is_reserved": 0, "rental_uris": {"android": "https://dc.lft.to/lastmile_qr_scan", "ios": "https://dc.lft.to/lastmile_qr_scan"}, "fusion_lon": 0.0}, {"lat": 38.918722, "is_disabled": 0, "type": "electric_scooter", "lon": -77.04254516666667, "bike_id": "6ac7929fc5e4a932f3e9b4911ead8058", "fusion_lat": 0.0, "name": "6ac7929fc5e4a932f3e9b4911ead8058", "is_reserved": 0, "rental_uris": {"android": "https://dc.lft.to/lastmile_qr_scan", "ios": "https://dc.lft.to/lastmile_qr_scan"}, "fusion_lon": 0.0}, {"lat": 38.917040166666666, "is_disabled": 0, "type": "electric_scooter", "lon": -77.040284, "bike_id": "b3db2d1a11f76fa4d20ac22fef3d11b4", "fusion_lat": 0.0, "name": "b3db2d1a11f76fa4d20ac22fef3d11b4", "is_reserved": 0, "rental_uris": {"android": "https://dc.lft.to/lastmile_qr_scan", "ios": "https://dc.lft.to/lastmile_qr_scan"}, "fusion_lon": 0.0}, {"lat": 38.919101166666664, "is_disabled": 0, "type": "electric_scooter", "lon": -77.03198766666667, "bike_id": "ab3294379e3e71878eaa42d2a4d95ecb", "fusion_lat": 0.0, "name": "ab3294379e3e71878eaa42d2a4d95ecb", "is_reserved": 0, "rental_uris": {"android": "https://dc.lft.to/lastmile_qr_scan", "ios": "https://dc.lft.to/lastmile_qr_scan"}, "fusion_lon": 0.0}, {"lat": 38.90730883333333, "is_disabled": 0, "type": "electric_scooter", "lon": -77.02375816666667, "bike_id": "9620050be748492e7eff84a2a9f4d3df", "fusion_lat": 0.0, "name": "9620050be748492e7eff84a2a9f4d3df", "is_reserved": 0, "rental_uris": {"android": "https://dc.lft.to/lastmile_qr_scan", "ios": "https://dc.lft.to/lastmile_qr_scan"}, "fusion_lon": 0.0}, {"lat": 38.93324766666667, "is_disabled": 0, "type": "electric_scooter", "lon": -77.05704883333334, "bike_id": "6176b388dfe0d8c750644f728d57c687", "fusion_lat": 0.0, "name": "6176b388dfe0d8c750644f728d57c687", "is_reserved": 0, "rental_uris": {"android": "https://dc.lft.to/lastmile_qr_scan", "ios": "https://dc.lft.to/lastmile_qr_scan"}, "fusion_lon": 0.0}, {"lat": 38.911678, "is_disabled": 0, "type": "electric_scooter", "lon": -77.038605, "bike_id": "04da54294ce7edcfcfbbeb1ea47d7806", "fusion_lat": 0.0, "name": "04da54294ce7edcfcfbbeb1ea47d7806", "is_reserved": 0, "rental_uris": {"android": "https://dc.lft.to/lastmile_qr_scan", "ios": "https://dc.lft.to/lastmile_qr_scan"}, "fusion_lon": 0.0}, {"lat": 38.921273, "is_disabled": 0, "type": "electric_scooter", "lon": -77.04005583333333, "bike_id": "91b0de669a5e6ec1aa018210ee80b3d9", "fusion_lat": 0.0, "name": "91b0de669a5e6ec1aa018210ee80b3d9", "is_reserved": 0, "rental_uris": {"android": "https://dc.lft.to/lastmile_qr_scan", "ios": "https://dc.lft.to/lastmile_qr_scan"}, "fusion_lon": 0.0}, {"lat": 38.856434666666665, "is_disabled": 0, "type": "electric_bike", "lon": -77.11248733333333, "bike_id": "9eea2701f1ae3c56d0a3df9bf015d8e2", "fusion_lat": 0.0, "name": "9eea2701f1ae3c56d0a3df9bf015d8e2", "is_reserved": 0, "rental_uris": {"android": "https://dc.lft.to/lastmile_qr_scan", "ios": "https://dc.lft.to/lastmile_qr_scan"}, "fusion_lon": 0.0}, {"lat": 38.87719083333333, "is_disabled": 0, "type": "electric_scooter", "lon": -77.016732, "bike_id": "5eb0a10865367f46fd6d06c17fd535d1", "fusion_lat": 0.0, "name": "5eb0a10865367f46fd6d06c17fd535d1", "is_reserved": 0, "rental_uris": {"android": "https://dc.lft.to/lastmile_qr_scan", "ios": "https://dc.lft.to/lastmile_qr_scan"}, "fusion_lon": 0.0}, {"lat": 38.88382333333333, "is_disabled": 0, "type": "electric_scooter", "lon": -77.02382816666666, "bike_id": "dda12d15c3022f83517f17e7ff811a31", "fusion_lat": 0.0, "name": "dda12d15c3022f83517f17e7ff811a31", "is_reserved": 0, "rental_uris": {"android": "https://dc.lft.to/lastmile_qr_scan", "ios": "https://dc.lft.to/lastmile_qr_scan"}, "fusion_lon": 0.0}, {"lat": 38.929870333333334, "is_disabled": 0, "type": "electric_scooter", "lon": -77.03841383333334, "bike_id": "4828aaa25d0bddb38699d715cd9d7769", "fusion_lat": 0.0, "name": "4828aaa25d0bddb38699d715cd9d7769", "is_reserved": 0, "rental_uris": {"android": "https://dc.lft.to/lastmile_qr_scan", "ios": "https://dc.lft.to/lastmile_qr_scan"}, "fusion_lon": 0.0}, {"lat": 38.8826495, "is_disabled": 0, "type": "electric_scooter", "lon": -76.98824866666666, "bike_id": "1a8775415b9140a8a0170ab52966c539", "fusion_lat": 0.0, "name": "1a8775415b9140a8a0170ab52966c539", "is_reserved": 0, "rental_uris": {"android": "https://dc.lft.to/lastmile_qr_scan", "ios": "https://dc.lft.to/lastmile_qr_scan"}, "fusion_lon": 0.0}, {"lat": 38.91037766666667, "is_disabled": 0, "type": "electric_scooter", "lon": -77.04118133333333, "bike_id": "8e90a5614358c57b6c9c66eec891bcc8", "fusion_lat": 0.0, "name": "8e90a5614358c57b6c9c66eec891bcc8", "is_reserved": 0, "rental_uris": {"android": "https://dc.lft.to/lastmile_qr_scan", "ios": "https://dc.lft.to/lastmile_qr_scan"}, "fusion_lon": 0.0}, {"lat": 38.935960333333334, "is_disabled": 0, "type": "electric_scooter", "lon": -77.05634266666667, "bike_id": "46abe35e6a8f1270285e042ef290196a", "fusion_lat": 0.0, "name": "46abe35e6a8f1270285e042ef290196a", "is_reserved": 0, "rental_uris": {"android": "https://dc.lft.to/lastmile_qr_scan", "ios": "https://dc.lft.to/lastmile_qr_scan"}, "fusion_lon": 0.0}, {"lat": 38.91057433333334, "is_disabled": 0, "type": "electric_scooter", "lon": -77.029101, "bike_id": "b502ea69b219ec6f0aa4c9ae935f2890", "fusion_lat": 0.0, "name": "b502ea69b219ec6f0aa4c9ae935f2890", "is_reserved": 0, "rental_uris": {"android": "https://dc.lft.to/lastmile_qr_scan", "ios": "https://dc.lft.to/lastmile_qr_scan"}, "fusion_lon": 0.0}, {"lat": 38.905038833333336, "is_disabled": 0, "type": "electric_scooter", "lon": -77.04478616666667, "bike_id": "325d4537f6eef85c76c1471fdc39a746", "fusion_lat": 0.0, "name": "325d4537f6eef85c76c1471fdc39a746", "is_reserved": 0, "rental_uris": {"android": "https://dc.lft.to/lastmile_qr_scan", "ios": "https://dc.lft.to/lastmile_qr_scan"}, "fusion_lon": 0.0}, {"lat": 38.9037105, "is_disabled": 0, "type": "electric_scooter", "lon": -77.04109733333334, "bike_id": "af42119ba7984eb779a558fac595302b", "fusion_lat": 0.0, "name": "af42119ba7984eb779a558fac595302b", "is_reserved": 0, "rental_uris": {"android": "https://dc.lft.to/lastmile_qr_scan", "ios": "https://dc.lft.to/lastmile_qr_scan"}, "fusion_lon": 0.0}, {"lat": 38.931138, "is_disabled": 0, "type": "electric_scooter", "lon": -77.03810616666667, "bike_id": "f11a3a7e21e6a22c8db2aa119a92fd07", "fusion_lat": 0.0, "name": "f11a3a7e21e6a22c8db2aa119a92fd07", "is_reserved": 0, "rental_uris": {"android": "https://dc.lft.to/lastmile_qr_scan", "ios": "https://dc.lft.to/lastmile_qr_scan"}, "fusion_lon": 0.0}, {"lat": 38.870823333333334, "is_disabled": 0, "type": "electric_bike", "lon": -77.012134, "bike_id": "f1100f2c52756c98d3aded9f5e04237e", "fusion_lat": 0.0, "name": "f1100f2c52756c98d3aded9f5e04237e", "is_reserved": 0, "rental_uris": {"android": "https://dc.lft.to/lastmile_qr_scan", "ios": "https://dc.lft.to/lastmile_qr_scan"}, "fusion_lon": 0.0}, {"lat": 38.862088666666665, "is_disabled": 0, "type": "electric_bike", "lon": -76.997782, "bike_id": "ba584b88b7aa0fc628fc73fb0412afa2", "fusion_lat": 0.0, "name": "ba584b88b7aa0fc628fc73fb0412afa2", "is_reserved": 0, "rental_uris": {"android": "https://dc.lft.to/lastmile_qr_scan", "ios": "https://dc.lft.to/lastmile_qr_scan"}, "fusion_lon": 0.0}, {"lat": 38.901726333333336, "is_disabled": 0, "type": "electric_scooter", "lon": -77.048292, "bike_id": "c4e6f22abe46576c28c57672136df94f", "fusion_lat": 0.0, "name": "c4e6f22abe46576c28c57672136df94f", "is_reserved": 0, "rental_uris": {"android": "https://dc.lft.to/lastmile_qr_scan", "ios": "https://dc.lft.to/lastmile_qr_scan"}, "fusion_lon": 0.0}, {"lat": 38.87062366666667, "is_disabled": 0, "type": "electric_scooter", "lon": -77.008381, "bike_id": "451e75fb3c9a804798ced50db8efaa73", "fusion_lat": 0.0, "name": "451e75fb3c9a804798ced50db8efaa73", "is_reserved": 0, "rental_uris": {"android": "https://dc.lft.to/lastmile_qr_scan", "ios": "https://dc.lft.to/lastmile_qr_scan"}, "fusion_lon": 0.0}, {"lat": 38.86523666666667, "is_disabled": 0, "type": "electric_scooter", "lon": -76.99035433333333, "bike_id": "acfd71cb6d2b7598c0f85c89562ef945", "fusion_lat": 0.0, "name": "acfd71cb6d2b7598c0f85c89562ef945", "is_reserved": 0, "rental_uris": {"android": "https://dc.lft.to/lastmile_qr_scan", "ios": "https://dc.lft.to/lastmile_qr_scan"}, "fusion_lon": 0.0}, {"lat": 38.8922995, "is_disabled": 0, "type": "electric_scooter", "lon": -77.04999833333333, "bike_id": "10c842ff6e5fc4c12b650d1ac5cc1a8f", "fusion_lat": 0.0, "name": "10c842ff6e5fc4c12b650d1ac5cc1a8f", "is_reserved": 0, "rental_uris": {"android": "https://dc.lft.to/lastmile_qr_scan", "ios": "https://dc.lft.to/lastmile_qr_scan"}, "fusion_lon": 0.0}, {"lat": 38.89251316666667, "is_disabled": 0, "type": "electric_scooter", "lon": -77.04894283333333, "bike_id": "2f4940154435c211fa1ad03d310111ca", "fusion_lat": 0.0, "name": "2f4940154435c211fa1ad03d310111ca", "is_reserved": 0, "rental_uris": {"android": "https://dc.lft.to/lastmile_qr_scan", "ios": "https://dc.lft.to/lastmile_qr_scan"}, "fusion_lon": 0.0}, {"lat": 38.9417705, "is_disabled": 0, "type": "electric_scooter", "lon": -77.036503, "bike_id": "71fd60fbd412e71bb2dbf591f959f654", "fusion_lat": 0.0, "name": "71fd60fbd412e71bb2dbf591f959f654", "is_reserved": 0, "rental_uris": {"android": "https://dc.lft.to/lastmile_qr_scan", "ios": "https://dc.lft.to/lastmile_qr_scan"}, "fusion_lon": 0.0}, {"lat": 38.8963195, "is_disabled": 0, "type": "electric_scooter", "lon": -77.03196116666666, "bike_id": "dd9e223599c913463ee1a54458d9c58e", "fusion_lat": 0.0, "name": "dd9e223599c913463ee1a54458d9c58e", "is_reserved": 0, "rental_uris": {"android": "https://dc.lft.to/lastmile_qr_scan", "ios": "https://dc.lft.to/lastmile_qr_scan"}, "fusion_lon": 0.0}, {"lat": 38.90238933333333, "is_disabled": 0, "type": "electric_scooter", "lon": -77.01636383333333, "bike_id": "47ebdf716f6517e2402659d970c053de", "fusion_lat": 0.0, "name": "47ebdf716f6517e2402659d970c053de", "is_reserved": 0, "rental_uris": {"android": "https://dc.lft.to/lastmile_qr_scan", "ios": "https://dc.lft.to/lastmile_qr_scan"}, "fusion_lon": 0.0}, {"lat": 38.86345266666667, "is_disabled": 0, "type": "electric_scooter", "lon": -76.98997566666667, "bike_id": "ba0715833200baa8938e77fa7c949a23", "fusion_lat": 0.0, "name": "ba0715833200baa8938e77fa7c949a23", "is_reserved": 0, "rental_uris": {"android": "https://dc.lft.to/lastmile_qr_scan", "ios": "https://dc.lft.to/lastmile_qr_scan"}, "fusion_lon": 0.0}, {"lat": 38.84292533333333, "is_disabled": 0, "type": "electric_scooter", "lon": -76.99950116666666, "bike_id": "5d1a7897612161218c85a49f8eb46ccc", "fusion_lat": 0.0, "name": "5d1a7897612161218c85a49f8eb46ccc", "is_reserved": 0, "rental_uris": {"android": "https://dc.lft.to/lastmile_qr_scan", "ios": "https://dc.lft.to/lastmile_qr_scan"}, "fusion_lon": 0.0}, {"lat": 38.89915083333333, "is_disabled": 0, "type": "electric_scooter", "lon": -76.933763, "bike_id": "fdc69fa8bf767d2905e5892c665072b5", "fusion_lat": 0.0, "name": "fdc69fa8bf767d2905e5892c665072b5", "is_reserved": 0, "rental_uris": {"android": "https://dc.lft.to/lastmile_qr_scan", "ios": "https://dc.lft.to/lastmile_qr_scan"}, "fusion_lon": 0.0}, {"lat": 38.92676216666667, "is_disabled": 0, "type": "electric_scooter", "lon": -77.05104166666666, "bike_id": "fa54793891c98df743605b52cb1f2d2a", "fusion_lat": 0.0, "name": "fa54793891c98df743605b52cb1f2d2a", "is_reserved": 0, "rental_uris": {"android": "https://dc.lft.to/lastmile_qr_scan", "ios": "https://dc.lft.to/lastmile_qr_scan"}, "fusion_lon": 0.0}, {"lat": 38.9578545, "is_disabled": 0, "type": "electric_scooter", "lon": -77.02468, "bike_id": "2c7a3d720ad3d0defdec1d212e168605", "fusion_lat": 0.0, "name": "2c7a3d720ad3d0defdec1d212e168605", "is_reserved": 0, "rental_uris": {"android": "https://dc.lft.to/lastmile_qr_scan", "ios": "https://dc.lft.to/lastmile_qr_scan"}, "fusion_lon": 0.0}, {"lat": 38.931903, "is_disabled": 0, "type": "electric_bike", "lon": -77.078244, "bike_id": "dd9583c45a43145f974645b7e66c0ad2", "fusion_lat": 0.0, "name": "dd9583c45a43145f974645b7e66c0ad2", "is_reserved": 0, "rental_uris": {"android": "https://dc.lft.to/lastmile_qr_scan", "ios": "https://dc.lft.to/lastmile_qr_scan"}, "fusion_lon": 0.0}, {"lat": 38.95552966666666, "is_disabled": 0, "type": "electric_bike", "lon": -76.93547933333333, "bike_id": "7a01e5eacd6968f36811954d9b9e00b3", "fusion_lat": 0.0, "name": "7a01e5eacd6968f36811954d9b9e00b3", "is_reserved": 0, "rental_uris": {"android": "https://dc.lft.to/lastmile_qr_scan", "ios": "https://dc.lft.to/lastmile_qr_scan"}, "fusion_lon": 0.0}, {"lat": 38.90670033333333, "is_disabled": 0, "type": "electric_scooter", "lon": -77.03861916666666, "bike_id": "6ae0da8aadb21e2c1b0b07c89a503814", "fusion_lat": 0.0, "name": "6ae0da8aadb21e2c1b0b07c89a503814", "is_reserved": 0, "rental_uris": {"android": "https://dc.lft.to/lastmile_qr_scan", "ios": "https://dc.lft.to/lastmile_qr_scan"}, "fusion_lon": 0.0}, {"lat": 38.91265216666667, "is_disabled": 0, "type": "electric_scooter", "lon": -77.01308683333333, "bike_id": "a0cf041abbe2e29a215b14b578cf217f", "fusion_lat": 0.0, "name": "a0cf041abbe2e29a215b14b578cf217f", "is_reserved": 0, "rental_uris": {"android": "https://dc.lft.to/lastmile_qr_scan", "ios": "https://dc.lft.to/lastmile_qr_scan"}, "fusion_lon": 0.0}, {"lat": 38.88049816666667, "is_disabled": 0, "type": "electric_scooter", "lon": -77.01767116666667, "bike_id": "f5b17c68971efa5dcf4037cd7e9bc220", "fusion_lat": 0.0, "name": "f5b17c68971efa5dcf4037cd7e9bc220", "is_reserved": 0, "rental_uris": {"android": "https://dc.lft.to/lastmile_qr_scan", "ios": "https://dc.lft.to/lastmile_qr_scan"}, "fusion_lon": 0.0}, {"lat": 38.9347285, "is_disabled": 0, "type": "electric_scooter", "lon": -77.0579385, "bike_id": "017d0ee59863c801ecd1c95a83bad7ac", "fusion_lat": 0.0, "name": "017d0ee59863c801ecd1c95a83bad7ac", "is_reserved": 0, "rental_uris": {"android": "https://dc.lft.to/lastmile_qr_scan", "ios": "https://dc.lft.to/lastmile_qr_scan"}, "fusion_lon": 0.0}, {"lat": 38.900295166666666, "is_disabled": 0, "type": "electric_scooter", "lon": -77.00207383333333, "bike_id": "a9127418afa56b1742da8093a0ed4e38", "fusion_lat": 0.0, "name": "a9127418afa56b1742da8093a0ed4e38", "is_reserved": 0, "rental_uris": {"android": "https://dc.lft.to/lastmile_qr_scan", "ios": "https://dc.lft.to/lastmile_qr_scan"}, "fusion_lon": 0.0}, {"lat": 39.06303316666666, "is_disabled": 0, "type": "electric_bike", "lon": -77.04951466666667, "bike_id": "5b6d8ba7533901c5b0ac3a2e3d9dc7a6", "fusion_lat": 0.0, "name": "5b6d8ba7533901c5b0ac3a2e3d9dc7a6", "is_reserved": 0, "rental_uris": {"android": "https://dc.lft.to/lastmile_qr_scan", "ios": "https://dc.lft.to/lastmile_qr_scan"}, "fusion_lon": 0.0}, {"lat": 38.88742833333333, "is_disabled": 0, "type": "electric_scooter", "lon": -77.03151566666666, "bike_id": "2b757fc41e5cc06984bf921abae04f04", "fusion_lat": 0.0, "name": "2b757fc41e5cc06984bf921abae04f04", "is_reserved": 0, "rental_uris": {"android": "https://dc.lft.to/lastmile_qr_scan", "ios": "https://dc.lft.to/lastmile_qr_scan"}, "fusion_lon": 0.0}, {"lat": 38.9248735, "is_disabled": 0, "type": "electric_scooter", "lon": -77.031831, "bike_id": "795b9ab280ab4e9c33bf7d3a9651a180", "fusion_lat": 0.0, "name": "795b9ab280ab4e9c33bf7d3a9651a180", "is_reserved": 0, "rental_uris": {"android": "https://dc.lft.to/lastmile_qr_scan", "ios": "https://dc.lft.to/lastmile_qr_scan"}, "fusion_lon": 0.0}, {"lat": 38.92540566666667, "is_disabled": 0, "type": "electric_scooter", "lon": -77.0344835, "bike_id": "2b7458809b88302a1b5b54ebf3feafbe", "fusion_lat": 0.0, "name": "2b7458809b88302a1b5b54ebf3feafbe", "is_reserved": 0, "rental_uris": {"android": "https://dc.lft.to/lastmile_qr_scan", "ios": "https://dc.lft.to/lastmile_qr_scan"}, "fusion_lon": 0.0}, {"lat": 38.85806266666667, "is_disabled": 0, "type": "electric_scooter", "lon": -76.98652616666666, "bike_id": "07facee5d5dd6e70dd8780c2eed51af3", "fusion_lat": 0.0, "name": "07facee5d5dd6e70dd8780c2eed51af3", "is_reserved": 0, "rental_uris": {"android": "https://dc.lft.to/lastmile_qr_scan", "ios": "https://dc.lft.to/lastmile_qr_scan"}, "fusion_lon": 0.0}, {"lat": 38.96611816666667, "is_disabled": 0, "type": "electric_scooter", "lon": -77.02052716666667, "bike_id": "1d71d2db0ebf9bd62d894fca1ccb3d91", "fusion_lat": 0.0, "name": "1d71d2db0ebf9bd62d894fca1ccb3d91", "is_reserved": 0, "rental_uris": {"android": "https://dc.lft.to/lastmile_qr_scan", "ios": "https://dc.lft.to/lastmile_qr_scan"}, "fusion_lon": 0.0}, {"lat": 38.94202966666667, "is_disabled": 0, "type": "electric_bike", "lon": -77.0182575, "bike_id": "7ed7f95de1f42e541c341f23cf80dcbc", "fusion_lat": 0.0, "name": "7ed7f95de1f42e541c341f23cf80dcbc", "is_reserved": 0, "rental_uris": {"android": "https://dc.lft.to/lastmile_qr_scan", "ios": "https://dc.lft.to/lastmile_qr_scan"}, "fusion_lon": 0.0}, {"lat": 38.926910166666666, "is_disabled": 0, "type": "electric_scooter", "lon": -77.025778, "bike_id": "88945db53a22dbc79766bdee006d604d", "fusion_lat": 0.0, "name": "88945db53a22dbc79766bdee006d604d", "is_reserved": 0, "rental_uris": {"android": "https://dc.lft.to/lastmile_qr_scan", "ios": "https://dc.lft.to/lastmile_qr_scan"}, "fusion_lon": 0.0}, {"lat": 38.9231545, "is_disabled": 0, "type": "electric_scooter", "lon": -77.0296465, "bike_id": "408e8fcbc91a2c498134b608755eaf2e", "fusion_lat": 0.0, "name": "408e8fcbc91a2c498134b608755eaf2e", "is_reserved": 0, "rental_uris": {"android": "https://dc.lft.to/lastmile_qr_scan", "ios": "https://dc.lft.to/lastmile_qr_scan"}, "fusion_lon": 0.0}, {"lat": 38.93322366666666, "is_disabled": 0, "type": "electric_scooter", "lon": -77.057037, "bike_id": "5955ca09be9b5ef9748be450710a5224", "fusion_lat": 0.0, "name": "5955ca09be9b5ef9748be450710a5224", "is_reserved": 0, "rental_uris": {"android": "https://dc.lft.to/lastmile_qr_scan", "ios": "https://dc.lft.to/lastmile_qr_scan"}, "fusion_lon": 0.0}, {"lat": 38.938202, "is_disabled": 0, "type": "electric_scooter", "lon": -77.06047516666666, "bike_id": "399a4b07cd1f921007ce6ea01d5f8fbf", "fusion_lat": 0.0, "name": "399a4b07cd1f921007ce6ea01d5f8fbf", "is_reserved": 0, "rental_uris": {"android": "https://dc.lft.to/lastmile_qr_scan", "ios": "https://dc.lft.to/lastmile_qr_scan"}, "fusion_lon": 0.0}, {"lat": 38.898404166666666, "is_disabled": 0, "type": "electric_scooter", "lon": -76.93103783333333, "bike_id": "75538bce644b53b369c4b1f1bcc62894", "fusion_lat": 0.0, "name": "75538bce644b53b369c4b1f1bcc62894", "is_reserved": 0, "rental_uris": {"android": "https://dc.lft.to/lastmile_qr_scan", "ios": "https://dc.lft.to/lastmile_qr_scan"}, "fusion_lon": 0.0}, {"lat": 38.902330666666664, "is_disabled": 0, "type": "electric_scooter", "lon": -77.0534345, "bike_id": "e41fb857a241c025847e8dc432e5b0e6", "fusion_lat": 0.0, "name": "e41fb857a241c025847e8dc432e5b0e6", "is_reserved": 0, "rental_uris": {"android": "https://dc.lft.to/lastmile_qr_scan", "ios": "https://dc.lft.to/lastmile_qr_scan"}, "fusion_lon": 0.0}, {"lat": 38.92569916666667, "is_disabled": 0, "type": "electric_scooter", "lon": -76.970068, "bike_id": "28e187176018c39dad5f9702001181ed", "fusion_lat": 0.0, "name": "28e187176018c39dad5f9702001181ed", "is_reserved": 0, "rental_uris": {"android": "https://dc.lft.to/lastmile_qr_scan", "ios": "https://dc.lft.to/lastmile_qr_scan"}, "fusion_lon": 0.0}, {"lat": 38.93354333333333, "is_disabled": 0, "type": "electric_scooter", "lon": -77.07378066666666, "bike_id": "912cb71402f6b22935e0d7778edd6066", "fusion_lat": 0.0, "name": "912cb71402f6b22935e0d7778edd6066", "is_reserved": 0, "rental_uris": {"android": "https://dc.lft.to/lastmile_qr_scan", "ios": "https://dc.lft.to/lastmile_qr_scan"}, "fusion_lon": 0.0}, {"lat": 38.8997725, "is_disabled": 0, "type": "electric_bike", "lon": -76.98543916666667, "bike_id": "98a0c3f1ef083fd1f91910e901ef5d47", "fusion_lat": 0.0, "name": "98a0c3f1ef083fd1f91910e901ef5d47", "is_reserved": 0, "rental_uris": {"android": "https://dc.lft.to/lastmile_qr_scan", "ios": "https://dc.lft.to/lastmile_qr_scan"}, "fusion_lon": 0.0}, {"lat": 38.892470333333335, "is_disabled": 0, "type": "electric_scooter", "lon": -77.04893316666667, "bike_id": "00604dd96acf7f2efca82809174695b6", "fusion_lat": 0.0, "name": "00604dd96acf7f2efca82809174695b6", "is_reserved": 0, "rental_uris": {"android": "https://dc.lft.to/lastmile_qr_scan", "ios": "https://dc.lft.to/lastmile_qr_scan"}, "fusion_lon": 0.0}, {"lat": 38.9660065, "is_disabled": 0, "type": "electric_bike", "lon": -76.98329466666667, "bike_id": "8054eb95b68454b60e3a0320d46bc5df", "fusion_lat": 0.0, "name": "8054eb95b68454b60e3a0320d46bc5df", "is_reserved": 0, "rental_uris": {"android": "https://dc.lft.to/lastmile_qr_scan", "ios": "https://dc.lft.to/lastmile_qr_scan"}, "fusion_lon": 0.0}, {"lat": 38.93641483333333, "is_disabled": 0, "type": "electric_bike", "lon": -77.032837, "bike_id": "599cb4e18b96e8f5ae45c812af96fa4a", "fusion_lat": 0.0, "name": "599cb4e18b96e8f5ae45c812af96fa4a", "is_reserved": 0, "rental_uris": {"android": "https://dc.lft.to/lastmile_qr_scan", "ios": "https://dc.lft.to/lastmile_qr_scan"}, "fusion_lon": 0.0}, {"lat": 38.91412166666667, "is_disabled": 0, "type": "electric_scooter", "lon": -77.035255, "bike_id": "ef42a2620a8e3c7a4fd79fd5f2cc282c", "fusion_lat": 0.0, "name": "ef42a2620a8e3c7a4fd79fd5f2cc282c", "is_reserved": 0, "rental_uris": {"android": "https://dc.lft.to/lastmile_qr_scan", "ios": "https://dc.lft.to/lastmile_qr_scan"}, "fusion_lon": 0.0}, {"lat": 38.91744766666667, "is_disabled": 0, "type": "electric_scooter", "lon": -77.03658, "bike_id": "25ff5b0447e2abaedcc25bbcee55a398", "fusion_lat": 0.0, "name": "25ff5b0447e2abaedcc25bbcee55a398", "is_reserved": 0, "rental_uris": {"android": "https://dc.lft.to/lastmile_qr_scan", "ios": "https://dc.lft.to/lastmile_qr_scan"}, "fusion_lon": 0.0}, {"lat": 38.92172766666667, "is_disabled": 0, "type": "electric_scooter", "lon": -77.03807466666666, "bike_id": "cbb8be03aa0f8b67aeaffabaea6bdccf", "fusion_lat": 0.0, "name": "cbb8be03aa0f8b67aeaffabaea6bdccf", "is_reserved": 0, "rental_uris": {"android": "https://dc.lft.to/lastmile_qr_scan", "ios": "https://dc.lft.to/lastmile_qr_scan"}, "fusion_lon": 0.0}, {"lat": 38.95357383333333, "is_disabled": 0, "type": "electric_bike", "lon": -76.98092933333334, "bike_id": "baa7070fd5492b38857266e942388e20", "fusion_lat": 0.0, "name": "baa7070fd5492b38857266e942388e20", "is_reserved": 0, "rental_uris": {"android": "https://dc.lft.to/lastmile_qr_scan", "ios": "https://dc.lft.to/lastmile_qr_scan"}, "fusion_lon": 0.0}, {"lat": 38.9058915, "is_disabled": 0, "type": "electric_scooter", "lon": -76.98639083333333, "bike_id": "3728ef0ded23d4936282d9559f8123a8", "fusion_lat": 0.0, "name": "3728ef0ded23d4936282d9559f8123a8", "is_reserved": 0, "rental_uris": {"android": "https://dc.lft.to/lastmile_qr_scan", "ios": "https://dc.lft.to/lastmile_qr_scan"}, "fusion_lon": 0.0}, {"lat": 38.921217166666665, "is_disabled": 0, "type": "electric_scooter", "lon": -77.0366105, "bike_id": "5916ac4dc177a49abd6e89be59c13f50", "fusion_lat": 0.0, "name": "5916ac4dc177a49abd6e89be59c13f50", "is_reserved": 0, "rental_uris": {"android": "https://dc.lft.to/lastmile_qr_scan", "ios": "https://dc.lft.to/lastmile_qr_scan"}, "fusion_lon": 0.0}, {"lat": 38.916825833333334, "is_disabled": 0, "type": "electric_scooter", "lon": -77.02388383333333, "bike_id": "2b0f76dc0615bf63be8b616ac440d11e", "fusion_lat": 0.0, "name": "2b0f76dc0615bf63be8b616ac440d11e", "is_reserved": 0, "rental_uris": {"android": "https://dc.lft.to/lastmile_qr_scan", "ios": "https://dc.lft.to/lastmile_qr_scan"}, "fusion_lon": 0.0}, {"lat": 38.91553433333333, "is_disabled": 0, "type": "electric_scooter", "lon": -77.03163583333334, "bike_id": "fc7235351e9b94df3c3422d279740c07", "fusion_lat": 0.0, "name": "fc7235351e9b94df3c3422d279740c07", "is_reserved": 0, "rental_uris": {"android": "https://dc.lft.to/lastmile_qr_scan", "ios": "https://dc.lft.to/lastmile_qr_scan"}, "fusion_lon": 0.0}, {"lat": 38.89328283333333, "is_disabled": 0, "type": "electric_bike", "lon": -76.921161, "bike_id": "6157cacf706a5225dbc708d976c41bfb", "fusion_lat": 0.0, "name": "6157cacf706a5225dbc708d976c41bfb", "is_reserved": 0, "rental_uris": {"android": "https://dc.lft.to/lastmile_qr_scan", "ios": "https://dc.lft.to/lastmile_qr_scan"}, "fusion_lon": 0.0}, {"lat": 38.920451, "is_disabled": 0, "type": "electric_scooter", "lon": -77.03403566666667, "bike_id": "0a2b7c09befbd3f5d6cb1ed1420614d3", "fusion_lat": 0.0, "name": "0a2b7c09befbd3f5d6cb1ed1420614d3", "is_reserved": 0, "rental_uris": {"android": "https://dc.lft.to/lastmile_qr_scan", "ios": "https://dc.lft.to/lastmile_qr_scan"}, "fusion_lon": 0.0}, {"lat": 38.897350833333334, "is_disabled": 0, "type": "electric_scooter", "lon": -76.947193, "bike_id": "7ed82871c42bca8d3caf9eca4c1175b4", "fusion_lat": 0.0, "name": "7ed82871c42bca8d3caf9eca4c1175b4", "is_reserved": 0, "rental_uris": {"android": "https://dc.lft.to/lastmile_qr_scan", "ios": "https://dc.lft.to/lastmile_qr_scan"}, "fusion_lon": 0.0}, {"lat": 38.898942166666664, "is_disabled": 0, "type": "electric_scooter", "lon": -76.98423, "bike_id": "007aa3dc819655b72f80937c3a0ff67d", "fusion_lat": 0.0, "name": "007aa3dc819655b72f80937c3a0ff67d", "is_reserved": 0, "rental_uris": {"android": "https://dc.lft.to/lastmile_qr_scan", "ios": "https://dc.lft.to/lastmile_qr_scan"}, "fusion_lon": 0.0}, {"lat": 38.927104166666666, "is_disabled": 0, "type": "electric_scooter", "lon": -77.02409483333334, "bike_id": "c33e1e1c72d79cf8af798911bb03ff96", "fusion_lat": 0.0, "name": "c33e1e1c72d79cf8af798911bb03ff96", "is_reserved": 0, "rental_uris": {"android": "https://dc.lft.to/lastmile_qr_scan", "ios": "https://dc.lft.to/lastmile_qr_scan"}, "fusion_lon": 0.0}, {"lat": 38.90381683333333, "is_disabled": 0, "type": "electric_scooter", "lon": -77.05801333333334, "bike_id": "89969799080e5ce9a78bea6fc89fa02f", "fusion_lat": 0.0, "name": "89969799080e5ce9a78bea6fc89fa02f", "is_reserved": 0, "rental_uris": {"android": "https://dc.lft.to/lastmile_qr_scan", "ios": "https://dc.lft.to/lastmile_qr_scan"}, "fusion_lon": 0.0}, {"lat": 38.903089666666666, "is_disabled": 0, "type": "electric_scooter", "lon": -77.0513635, "bike_id": "3e9a254371271d103adef8457da59596", "fusion_lat": 0.0, "name": "3e9a254371271d103adef8457da59596", "is_reserved": 0, "rental_uris": {"android": "https://dc.lft.to/lastmile_qr_scan", "ios": "https://dc.lft.to/lastmile_qr_scan"}, "fusion_lon": 0.0}, {"lat": 38.869953, "is_disabled": 0, "type": "electric_bike", "lon": -77.06564283333333, "bike_id": "b71217f7d54501224a81f5575680f446", "fusion_lat": 0.0, "name": "b71217f7d54501224a81f5575680f446", "is_reserved": 0, "rental_uris": {"android": "https://dc.lft.to/lastmile_qr_scan", "ios": "https://dc.lft.to/lastmile_qr_scan"}, "fusion_lon": 0.0}, {"lat": 38.90779066666666, "is_disabled": 0, "type": "electric_scooter", "lon": -77.03862383333333, "bike_id": "defeaac1dfb82c87fb08582c27a3442f", "fusion_lat": 0.0, "name": "defeaac1dfb82c87fb08582c27a3442f", "is_reserved": 0, "rental_uris": {"android": "https://dc.lft.to/lastmile_qr_scan", "ios": "https://dc.lft.to/lastmile_qr_scan"}, "fusion_lon": 0.0}, {"lat": 38.91566383333333, "is_disabled": 0, "type": "electric_scooter", "lon": -77.011956, "bike_id": "18cf14eadec7cc8aab73f629a9730547", "fusion_lat": 0.0, "name": "18cf14eadec7cc8aab73f629a9730547", "is_reserved": 0, "rental_uris": {"android": "https://dc.lft.to/lastmile_qr_scan", "ios": "https://dc.lft.to/lastmile_qr_scan"}, "fusion_lon": 0.0}, {"lat": 38.890478333333334, "is_disabled": 0, "type": "electric_scooter", "lon": -76.93751783333333, "bike_id": "cfbcfc0a87900a610a3cc809be721412", "fusion_lat": 0.0, "name": "cfbcfc0a87900a610a3cc809be721412", "is_reserved": 0, "rental_uris": {"android": "https://dc.lft.to/lastmile_qr_scan", "ios": "https://dc.lft.to/lastmile_qr_scan"}, "fusion_lon": 0.0}, {"lat": 38.9463285, "is_disabled": 0, "type": "electric_scooter", "lon": -77.01843383333333, "bike_id": "d4c4ee9ac22e4813ed69899c0145da38", "fusion_lat": 0.0, "name": "d4c4ee9ac22e4813ed69899c0145da38", "is_reserved": 0, "rental_uris": {"android": "https://dc.lft.to/lastmile_qr_scan", "ios": "https://dc.lft.to/lastmile_qr_scan"}, "fusion_lon": 0.0}, {"lat": 38.9241455, "is_disabled": 0, "type": "electric_scooter", "lon": -77.0274665, "bike_id": "0e51600acdadc041506f7feae9ca8802", "fusion_lat": 0.0, "name": "0e51600acdadc041506f7feae9ca8802", "is_reserved": 0, "rental_uris": {"android": "https://dc.lft.to/lastmile_qr_scan", "ios": "https://dc.lft.to/lastmile_qr_scan"}, "fusion_lon": 0.0}, {"lat": 38.902560333333334, "is_disabled": 0, "type": "electric_scooter", "lon": -77.01768833333334, "bike_id": "f492b9a392d8475005af4bf38a74feed", "fusion_lat": 0.0, "name": "f492b9a392d8475005af4bf38a74feed", "is_reserved": 0, "rental_uris": {"android": "https://dc.lft.to/lastmile_qr_scan", "ios": "https://dc.lft.to/lastmile_qr_scan"}, "fusion_lon": 0.0}, {"lat": 38.954036333333335, "is_disabled": 0, "type": "electric_scooter", "lon": -77.02748683333333, "bike_id": "28d77a4f43467feb0db7c1b6e07f0aa5", "fusion_lat": 0.0, "name": "28d77a4f43467feb0db7c1b6e07f0aa5", "is_reserved": 0, "rental_uris": {"android": "https://dc.lft.to/lastmile_qr_scan", "ios": "https://dc.lft.to/lastmile_qr_scan"}, "fusion_lon": 0.0}, {"lat": 38.9045165, "is_disabled": 0, "type": "electric_scooter", "lon": -77.0362685, "bike_id": "7c0a0b82ac03a05d4fcbd22c51d9e23b", "fusion_lat": 0.0, "name": "7c0a0b82ac03a05d4fcbd22c51d9e23b", "is_reserved": 0, "rental_uris": {"android": "https://dc.lft.to/lastmile_qr_scan", "ios": "https://dc.lft.to/lastmile_qr_scan"}, "fusion_lon": 0.0}, {"lat": 38.838115333333334, "is_disabled": 0, "type": "electric_bike", "lon": -77.095211, "bike_id": "1cf3581ae6795e0b2d4a2a8a66f2a9fe", "fusion_lat": 0.0, "name": "1cf3581ae6795e0b2d4a2a8a66f2a9fe", "is_reserved": 0, "rental_uris": {"android": "https://dc.lft.to/lastmile_qr_scan", "ios": "https://dc.lft.to/lastmile_qr_scan"}, "fusion_lon": 0.0}, {"lat": 38.902771, "is_disabled": 0, "type": "electric_scooter", "lon": -77.04030866666666, "bike_id": "4852d92b7135c99d18e550046841c5e7", "fusion_lat": 0.0, "name": "4852d92b7135c99d18e550046841c5e7", "is_reserved": 0, "rental_uris": {"android": "https://dc.lft.to/lastmile_qr_scan", "ios": "https://dc.lft.to/lastmile_qr_scan"}, "fusion_lon": 0.0}, {"lat": 38.8652385, "is_disabled": 0, "type": "electric_scooter", "lon": -76.99033583333333, "bike_id": "8534949bcb72e0140c481ef35492db8a", "fusion_lat": 0.0, "name": "8534949bcb72e0140c481ef35492db8a", "is_reserved": 0, "rental_uris": {"android": "https://dc.lft.to/lastmile_qr_scan", "ios": "https://dc.lft.to/lastmile_qr_scan"}, "fusion_lon": 0.0}, {"lat": 38.923468166666666, "is_disabled": 0, "type": "electric_scooter", "lon": -77.03500066666666, "bike_id": "8f917635cdb2663a66f083b75cfd46d5", "fusion_lat": 0.0, "name": "8f917635cdb2663a66f083b75cfd46d5", "is_reserved": 0, "rental_uris": {"android": "https://dc.lft.to/lastmile_qr_scan", "ios": "https://dc.lft.to/lastmile_qr_scan"}, "fusion_lon": 0.0}, {"lat": 38.876270166666664, "is_disabled": 0, "type": "electric_scooter", "lon": -76.96526733333333, "bike_id": "779d08437641c7ce04c69700a7814932", "fusion_lat": 0.0, "name": "779d08437641c7ce04c69700a7814932", "is_reserved": 0, "rental_uris": {"android": "https://dc.lft.to/lastmile_qr_scan", "ios": "https://dc.lft.to/lastmile_qr_scan"}, "fusion_lon": 0.0}, {"lat": 38.925464833333336, "is_disabled": 0, "type": "electric_scooter", "lon": -77.0332675, "bike_id": "456547c5ef89f4f52dcd1cee1aa59b8d", "fusion_lat": 0.0, "name": "456547c5ef89f4f52dcd1cee1aa59b8d", "is_reserved": 0, "rental_uris": {"android": "https://dc.lft.to/lastmile_qr_scan", "ios": "https://dc.lft.to/lastmile_qr_scan"}, "fusion_lon": 0.0}, {"lat": 38.859309333333336, "is_disabled": 0, "type": "electric_scooter", "lon": -76.9971485, "bike_id": "b371ce8480005fa0749f709792c91726", "fusion_lat": 0.0, "name": "b371ce8480005fa0749f709792c91726", "is_reserved": 0, "rental_uris": {"android": "https://dc.lft.to/lastmile_qr_scan", "ios": "https://dc.lft.to/lastmile_qr_scan"}, "fusion_lon": 0.0}, {"lat": 38.90386733333333, "is_disabled": 0, "type": "electric_scooter", "lon": -77.0433055, "bike_id": "dd4391722a4d33ea5994062eb149f74c", "fusion_lat": 0.0, "name": "dd4391722a4d33ea5994062eb149f74c", "is_reserved": 0, "rental_uris": {"android": "https://dc.lft.to/lastmile_qr_scan", "ios": "https://dc.lft.to/lastmile_qr_scan"}, "fusion_lon": 0.0}, {"lat": 38.899524166666666, "is_disabled": 0, "type": "electric_scooter", "lon": -77.02132383333333, "bike_id": "fcc745af93680541ea31690e7f68a69c", "fusion_lat": 0.0, "name": "fcc745af93680541ea31690e7f68a69c", "is_reserved": 0, "rental_uris": {"android": "https://dc.lft.to/lastmile_qr_scan", "ios": "https://dc.lft.to/lastmile_qr_scan"}, "fusion_lon": 0.0}, {"lat": 38.865213833333335, "is_disabled": 0, "type": "electric_scooter", "lon": -76.9903285, "bike_id": "6c49ae8ab14f25773a008eea53681a24", "fusion_lat": 0.0, "name": "6c49ae8ab14f25773a008eea53681a24", "is_reserved": 0, "rental_uris": {"android": "https://dc.lft.to/lastmile_qr_scan", "ios": "https://dc.lft.to/lastmile_qr_scan"}, "fusion_lon": 0.0}, {"lat": 38.914030333333336, "is_disabled": 0, "type": "electric_scooter", "lon": -77.01804133333333, "bike_id": "d7b99fd87e44c98c6a4be07add5508d1", "fusion_lat": 0.0, "name": "d7b99fd87e44c98c6a4be07add5508d1", "is_reserved": 0, "rental_uris": {"android": "https://dc.lft.to/lastmile_qr_scan", "ios": "https://dc.lft.to/lastmile_qr_scan"}, "fusion_lon": 0.0}, {"lat": 38.89817716666667, "is_disabled": 0, "type": "electric_scooter", "lon": -77.005788, "bike_id": "0a3db8f12fe3db3a07046da7f94919c5", "fusion_lat": 0.0, "name": "0a3db8f12fe3db3a07046da7f94919c5", "is_reserved": 0, "rental_uris": {"android": "https://dc.lft.to/lastmile_qr_scan", "ios": "https://dc.lft.to/lastmile_qr_scan"}, "fusion_lon": 0.0}, {"lat": 38.90958883333333, "is_disabled": 0, "type": "electric_scooter", "lon": -77.04802683333334, "bike_id": "33b5c57296a83a356e0d9fc7b2b654b7", "fusion_lat": 0.0, "name": "33b5c57296a83a356e0d9fc7b2b654b7", "is_reserved": 0, "rental_uris": {"android": "https://dc.lft.to/lastmile_qr_scan", "ios": "https://dc.lft.to/lastmile_qr_scan"}, "fusion_lon": 0.0}, {"lat": 38.876765, "is_disabled": 0, "type": "electric_scooter", "lon": -77.01785166666667, "bike_id": "bec8159309bdef31ffb5e730289e260f", "fusion_lat": 0.0, "name": "bec8159309bdef31ffb5e730289e260f", "is_reserved": 0, "rental_uris": {"android": "https://dc.lft.to/lastmile_qr_scan", "ios": "https://dc.lft.to/lastmile_qr_scan"}, "fusion_lon": 0.0}, {"lat": 38.86373566666666, "is_disabled": 0, "type": "electric_scooter", "lon": -76.99062766666667, "bike_id": "be11155c275ba68904a6a9b0e9dd59ec", "fusion_lat": 0.0, "name": "be11155c275ba68904a6a9b0e9dd59ec", "is_reserved": 0, "rental_uris": {"android": "https://dc.lft.to/lastmile_qr_scan", "ios": "https://dc.lft.to/lastmile_qr_scan"}, "fusion_lon": 0.0}, {"lat": 38.912081666666666, "is_disabled": 0, "type": "electric_scooter", "lon": -77.0384765, "bike_id": "27531815f4380a8bff09ac12ba98385e", "fusion_lat": 0.0, "name": "27531815f4380a8bff09ac12ba98385e", "is_reserved": 0, "rental_uris": {"android": "https://dc.lft.to/lastmile_qr_scan", "ios": "https://dc.lft.to/lastmile_qr_scan"}, "fusion_lon": 0.0}, {"lat": 38.91908316666667, "is_disabled": 0, "type": "electric_scooter", "lon": -77.04627133333334, "bike_id": "9eb478dbba79c3f5f9ee3224ba476804", "fusion_lat": 0.0, "name": "9eb478dbba79c3f5f9ee3224ba476804", "is_reserved": 0, "rental_uris": {"android": "https://dc.lft.to/lastmile_qr_scan", "ios": "https://dc.lft.to/lastmile_qr_scan"}, "fusion_lon": 0.0}, {"lat": 38.90976933333334, "is_disabled": 0, "type": "electric_scooter", "lon": -77.05261466666667, "bike_id": "5fc74fd28b188931aea22bb860b2af2e", "fusion_lat": 0.0, "name": "5fc74fd28b188931aea22bb860b2af2e", "is_reserved": 0, "rental_uris": {"android": "https://dc.lft.to/lastmile_qr_scan", "ios": "https://dc.lft.to/lastmile_qr_scan"}, "fusion_lon": 0.0}, {"lat": 38.866613, "is_disabled": 0, "type": "electric_scooter", "lon": -76.98912266666666, "bike_id": "8d05fe778e9130aef73c1110aea60160", "fusion_lat": 0.0, "name": "8d05fe778e9130aef73c1110aea60160", "is_reserved": 0, "rental_uris": {"android": "https://dc.lft.to/lastmile_qr_scan", "ios": "https://dc.lft.to/lastmile_qr_scan"}, "fusion_lon": 0.0}, {"lat": 38.929742833333336, "is_disabled": 0, "type": "electric_scooter", "lon": -77.0318565, "bike_id": "e90f9281a69261ed262a93615ba54379", "fusion_lat": 0.0, "name": "e90f9281a69261ed262a93615ba54379", "is_reserved": 0, "rental_uris": {"android": "https://dc.lft.to/lastmile_qr_scan", "ios": "https://dc.lft.to/lastmile_qr_scan"}, "fusion_lon": 0.0}, {"lat": 38.92139533333334, "is_disabled": 0, "type": "electric_scooter", "lon": -77.0366045, "bike_id": "12e93444e83f3f7c9accca28609f91f2", "fusion_lat": 0.0, "name": "12e93444e83f3f7c9accca28609f91f2", "is_reserved": 0, "rental_uris": {"android": "https://dc.lft.to/lastmile_qr_scan", "ios": "https://dc.lft.to/lastmile_qr_scan"}, "fusion_lon": 0.0}, {"lat": 38.896454, "is_disabled": 0, "type": "electric_scooter", "lon": -77.04645733333334, "bike_id": "bacaf9d73df76a9c33ea96697525bc45", "fusion_lat": 0.0, "name": "bacaf9d73df76a9c33ea96697525bc45", "is_reserved": 0, "rental_uris": {"android": "https://dc.lft.to/lastmile_qr_scan", "ios": "https://dc.lft.to/lastmile_qr_scan"}, "fusion_lon": 0.0}, {"lat": 38.9100945, "is_disabled": 0, "type": "electric_scooter", "lon": -77.03013766666666, "bike_id": "f0cc35e47209707b6700f1f08cc4046a", "fusion_lat": 0.0, "name": "f0cc35e47209707b6700f1f08cc4046a", "is_reserved": 0, "rental_uris": {"android": "https://dc.lft.to/lastmile_qr_scan", "ios": "https://dc.lft.to/lastmile_qr_scan"}, "fusion_lon": 0.0}, {"lat": 38.9284175, "is_disabled": 0, "type": "electric_scooter", "lon": -77.05420833333334, "bike_id": "6aa6b2bb464e11b29456654178cb7b15", "fusion_lat": 0.0, "name": "6aa6b2bb464e11b29456654178cb7b15", "is_reserved": 0, "rental_uris": {"android": "https://dc.lft.to/lastmile_qr_scan", "ios": "https://dc.lft.to/lastmile_qr_scan"}, "fusion_lon": 0.0}, {"lat": 38.938441, "is_disabled": 0, "type": "electric_scooter", "lon": -77.03391416666666, "bike_id": "b68603eb00a1d7b6b7d08aa5b0a6a9fe", "fusion_lat": 0.0, "name": "b68603eb00a1d7b6b7d08aa5b0a6a9fe", "is_reserved": 0, "rental_uris": {"android": "https://dc.lft.to/lastmile_qr_scan", "ios": "https://dc.lft.to/lastmile_qr_scan"}, "fusion_lon": 0.0}, {"lat": 38.9325115, "is_disabled": 0, "type": "electric_scooter", "lon": -77.04012133333333, "bike_id": "68b891cd5d6025c7be81eb4d0e2f1940", "fusion_lat": 0.0, "name": "68b891cd5d6025c7be81eb4d0e2f1940", "is_reserved": 0, "rental_uris": {"android": "https://dc.lft.to/lastmile_qr_scan", "ios": "https://dc.lft.to/lastmile_qr_scan"}, "fusion_lon": 0.0}, {"lat": 38.90654333333333, "is_disabled": 0, "type": "electric_scooter", "lon": -77.008236, "bike_id": "8eeb7f245e714b9581b1cab5d309b252", "fusion_lat": 0.0, "name": "8eeb7f245e714b9581b1cab5d309b252", "is_reserved": 0, "rental_uris": {"android": "https://dc.lft.to/lastmile_qr_scan", "ios": "https://dc.lft.to/lastmile_qr_scan"}, "fusion_lon": 0.0}, {"lat": 38.916984166666666, "is_disabled": 0, "type": "electric_scooter", "lon": -77.030468, "bike_id": "c3e37398e8762b346f6e1f43ea4a308d", "fusion_lat": 0.0, "name": "c3e37398e8762b346f6e1f43ea4a308d", "is_reserved": 0, "rental_uris": {"android": "https://dc.lft.to/lastmile_qr_scan", "ios": "https://dc.lft.to/lastmile_qr_scan"}, "fusion_lon": 0.0}, {"lat": 38.8974595, "is_disabled": 0, "type": "electric_scooter", "lon": -77.00004, "bike_id": "c4b61be4fbc28907653cb07e8aa6cf3c", "fusion_lat": 0.0, "name": "c4b61be4fbc28907653cb07e8aa6cf3c", "is_reserved": 0, "rental_uris": {"android": "https://dc.lft.to/lastmile_qr_scan", "ios": "https://dc.lft.to/lastmile_qr_scan"}, "fusion_lon": 0.0}, {"lat": 38.933753, "is_disabled": 0, "type": "electric_scooter", "lon": -77.03549783333334, "bike_id": "53b71029e3877961368a154b76f60f49", "fusion_lat": 0.0, "name": "53b71029e3877961368a154b76f60f49", "is_reserved": 0, "rental_uris": {"android": "https://dc.lft.to/lastmile_qr_scan", "ios": "https://dc.lft.to/lastmile_qr_scan"}, "fusion_lon": 0.0}, {"lat": 38.93429783333333, "is_disabled": 0, "type": "electric_scooter", "lon": -76.9650615, "bike_id": "0a01c6eb265e0ecc06270b84fdc7ed97", "fusion_lat": 0.0, "name": "0a01c6eb265e0ecc06270b84fdc7ed97", "is_reserved": 0, "rental_uris": {"android": "https://dc.lft.to/lastmile_qr_scan", "ios": "https://dc.lft.to/lastmile_qr_scan"}, "fusion_lon": 0.0}, {"lat": 38.99873433333333, "is_disabled": 0, "type": "electric_bike", "lon": -77.02901083333333, "bike_id": "f862552455a9ce372a698af9af8b9629", "fusion_lat": 0.0, "name": "f862552455a9ce372a698af9af8b9629", "is_reserved": 0, "rental_uris": {"android": "https://dc.lft.to/lastmile_qr_scan", "ios": "https://dc.lft.to/lastmile_qr_scan"}, "fusion_lon": 0.0}, {"lat": 38.95710733333333, "is_disabled": 0, "type": "electric_scooter", "lon": -77.02399666666666, "bike_id": "2166aa02f7878f809c5545851c973180", "fusion_lat": 0.0, "name": "2166aa02f7878f809c5545851c973180", "is_reserved": 0, "rental_uris": {"android": "https://dc.lft.to/lastmile_qr_scan", "ios": "https://dc.lft.to/lastmile_qr_scan"}, "fusion_lon": 0.0}, {"lat": 38.88717033333333, "is_disabled": 0, "type": "electric_bike", "lon": -77.13302566666667, "bike_id": "b7c52f5017e28f457d9cddb6be631df4", "fusion_lat": 0.0, "name": "b7c52f5017e28f457d9cddb6be631df4", "is_reserved": 0, "rental_uris": {"android": "https://dc.lft.to/lastmile_qr_scan", "ios": "https://dc.lft.to/lastmile_qr_scan"}, "fusion_lon": 0.0}, {"lat": 38.858509166666664, "is_disabled": 0, "type": "electric_scooter", "lon": -76.99560683333333, "bike_id": "12fe6c2d600d0ac01f49bd31f0eec2a4", "fusion_lat": 0.0, "name": "12fe6c2d600d0ac01f49bd31f0eec2a4", "is_reserved": 0, "rental_uris": {"android": "https://dc.lft.to/lastmile_qr_scan", "ios": "https://dc.lft.to/lastmile_qr_scan"}, "fusion_lon": 0.0}, {"lat": 38.88547783333333, "is_disabled": 0, "type": "electric_bike", "lon": -77.11786733333334, "bike_id": "56d67e351abffb8e4c07768e20b4876f", "fusion_lat": 0.0, "name": "56d67e351abffb8e4c07768e20b4876f", "is_reserved": 0, "rental_uris": {"android": "https://dc.lft.to/lastmile_qr_scan", "ios": "https://dc.lft.to/lastmile_qr_scan"}, "fusion_lon": 0.0}, {"lat": 38.87667616666667, "is_disabled": 0, "type": "electric_scooter", "lon": -77.01759083333333, "bike_id": "c4ca6754db81b884229c79d941a3bec9", "fusion_lat": 0.0, "name": "c4ca6754db81b884229c79d941a3bec9", "is_reserved": 0, "rental_uris": {"android": "https://dc.lft.to/lastmile_qr_scan", "ios": "https://dc.lft.to/lastmile_qr_scan"}, "fusion_lon": 0.0}, {"lat": 38.91959533333333, "is_disabled": 0, "type": "electric_scooter", "lon": -77.01438433333334, "bike_id": "70f5d6444a1e58e5d6b7b293d8bd9206", "fusion_lat": 0.0, "name": "70f5d6444a1e58e5d6b7b293d8bd9206", "is_reserved": 0, "rental_uris": {"android": "https://dc.lft.to/lastmile_qr_scan", "ios": "https://dc.lft.to/lastmile_qr_scan"}, "fusion_lon": 0.0}, {"lat": 38.884571333333334, "is_disabled": 0, "type": "electric_scooter", "lon": -76.92960283333333, "bike_id": "6a538b942f3295c98535927d77ec8508", "fusion_lat": 0.0, "name": "6a538b942f3295c98535927d77ec8508", "is_reserved": 0, "rental_uris": {"android": "https://dc.lft.to/lastmile_qr_scan", "ios": "https://dc.lft.to/lastmile_qr_scan"}, "fusion_lon": 0.0}, {"lat": 38.9079395, "is_disabled": 0, "type": "electric_scooter", "lon": -77.03480616666667, "bike_id": "ee9d1ddf35b55059fc74b453ae9569b0", "fusion_lat": 0.0, "name": "ee9d1ddf35b55059fc74b453ae9569b0", "is_reserved": 0, "rental_uris": {"android": "https://dc.lft.to/lastmile_qr_scan", "ios": "https://dc.lft.to/lastmile_qr_scan"}, "fusion_lon": 0.0}, {"lat": 38.89820433333333, "is_disabled": 0, "type": "electric_scooter", "lon": -77.033197, "bike_id": "a20db1fe7f76b2969b43626113d0dce3", "fusion_lat": 0.0, "name": "a20db1fe7f76b2969b43626113d0dce3", "is_reserved": 0, "rental_uris": {"android": "https://dc.lft.to/lastmile_qr_scan", "ios": "https://dc.lft.to/lastmile_qr_scan"}, "fusion_lon": 0.0}, {"lat": 38.92328366666667, "is_disabled": 0, "type": "electric_scooter", "lon": -77.0445125, "bike_id": "1222a1bd06ba7469c72a6f15ee56e471", "fusion_lat": 0.0, "name": "1222a1bd06ba7469c72a6f15ee56e471", "is_reserved": 0, "rental_uris": {"android": "https://dc.lft.to/lastmile_qr_scan", "ios": "https://dc.lft.to/lastmile_qr_scan"}, "fusion_lon": 0.0}, {"lat": 38.91984166666667, "is_disabled": 0, "type": "electric_scooter", "lon": -77.04111866666666, "bike_id": "3b1462920bd8f2bfd47aa00a979b4a8d", "fusion_lat": 0.0, "name": "3b1462920bd8f2bfd47aa00a979b4a8d", "is_reserved": 0, "rental_uris": {"android": "https://dc.lft.to/lastmile_qr_scan", "ios": "https://dc.lft.to/lastmile_qr_scan"}, "fusion_lon": 0.0}, {"lat": 38.92437783333333, "is_disabled": 0, "type": "electric_scooter", "lon": -77.03375733333333, "bike_id": "eb538350d17fda194dc036b1b28882fa", "fusion_lat": 0.0, "name": "eb538350d17fda194dc036b1b28882fa", "is_reserved": 0, "rental_uris": {"android": "https://dc.lft.to/lastmile_qr_scan", "ios": "https://dc.lft.to/lastmile_qr_scan"}, "fusion_lon": 0.0}, {"lat": 38.9067745, "is_disabled": 0, "type": "electric_scooter", "lon": -77.0363085, "bike_id": "d6f97a9026f856af188e77ead7876eda", "fusion_lat": 0.0, "name": "d6f97a9026f856af188e77ead7876eda", "is_reserved": 0, "rental_uris": {"android": "https://dc.lft.to/lastmile_qr_scan", "ios": "https://dc.lft.to/lastmile_qr_scan"}, "fusion_lon": 0.0}, {"lat": 38.895140833333336, "is_disabled": 0, "type": "electric_scooter", "lon": -77.04356383333334, "bike_id": "db821c95a65e548fc994c0f103f99ca0", "fusion_lat": 0.0, "name": "db821c95a65e548fc994c0f103f99ca0", "is_reserved": 0, "rental_uris": {"android": "https://dc.lft.to/lastmile_qr_scan", "ios": "https://dc.lft.to/lastmile_qr_scan"}, "fusion_lon": 0.0}, {"lat": 38.94127816666666, "is_disabled": 0, "type": "electric_bike", "lon": -76.99630383333333, "bike_id": "533b099640db9878016aa7f545a59e25", "fusion_lat": 0.0, "name": "533b099640db9878016aa7f545a59e25", "is_reserved": 0, "rental_uris": {"android": "https://dc.lft.to/lastmile_qr_scan", "ios": "https://dc.lft.to/lastmile_qr_scan"}, "fusion_lon": 0.0}, {"lat": 38.909518, "is_disabled": 0, "type": "electric_scooter", "lon": -77.04661066666667, "bike_id": "68c22773a7f71c1f5c4e539b54b145a9", "fusion_lat": 0.0, "name": "68c22773a7f71c1f5c4e539b54b145a9", "is_reserved": 0, "rental_uris": {"android": "https://dc.lft.to/lastmile_qr_scan", "ios": "https://dc.lft.to/lastmile_qr_scan"}, "fusion_lon": 0.0}, {"lat": 38.909699, "is_disabled": 0, "type": "electric_scooter", "lon": -77.03428683333334, "bike_id": "a7627eb2724b7ba4715fcdeb214130b6", "fusion_lat": 0.0, "name": "a7627eb2724b7ba4715fcdeb214130b6", "is_reserved": 0, "rental_uris": {"android": "https://dc.lft.to/lastmile_qr_scan", "ios": "https://dc.lft.to/lastmile_qr_scan"}, "fusion_lon": 0.0}, {"lat": 38.939455833333334, "is_disabled": 0, "type": "electric_scooter", "lon": -77.021835, "bike_id": "5010e8b5b8e371ed5ba41d8ba82c3ae5", "fusion_lat": 0.0, "name": "5010e8b5b8e371ed5ba41d8ba82c3ae5", "is_reserved": 0, "rental_uris": {"android": "https://dc.lft.to/lastmile_qr_scan", "ios": "https://dc.lft.to/lastmile_qr_scan"}, "fusion_lon": 0.0}, {"lat": 38.862874833333336, "is_disabled": 0, "type": "electric_scooter", "lon": -76.99234483333333, "bike_id": "9ecd2fb367415cdda2df6c9e3e9b9635", "fusion_lat": 0.0, "name": "9ecd2fb367415cdda2df6c9e3e9b9635", "is_reserved": 0, "rental_uris": {"android": "https://dc.lft.to/lastmile_qr_scan", "ios": "https://dc.lft.to/lastmile_qr_scan"}, "fusion_lon": 0.0}, {"lat": 39.094373833333336, "is_disabled": 0, "type": "electric_bike", "lon": -77.13463616666667, "bike_id": "2a5cc7421be8e2a64660fdc7d5ec9c4d", "fusion_lat": 0.0, "name": "2a5cc7421be8e2a64660fdc7d5ec9c4d", "is_reserved": 0, "rental_uris": {"android": "https://dc.lft.to/lastmile_qr_scan", "ios": "https://dc.lft.to/lastmile_qr_scan"}, "fusion_lon": 0.0}, {"lat": 38.89845416666667, "is_disabled": 0, "type": "electric_scooter", "lon": -76.94471716666666, "bike_id": "ccc66d9ca6515089065c3549affce864", "fusion_lat": 0.0, "name": "ccc66d9ca6515089065c3549affce864", "is_reserved": 0, "rental_uris": {"android": "https://dc.lft.to/lastmile_qr_scan", "ios": "https://dc.lft.to/lastmile_qr_scan"}, "fusion_lon": 0.0}, {"lat": 38.908594666666666, "is_disabled": 0, "type": "electric_scooter", "lon": -77.04589366666667, "bike_id": "63e64c592796a21ed70876fe24f1289d", "fusion_lat": 0.0, "name": "63e64c592796a21ed70876fe24f1289d", "is_reserved": 0, "rental_uris": {"android": "https://dc.lft.to/lastmile_qr_scan", "ios": "https://dc.lft.to/lastmile_qr_scan"}, "fusion_lon": 0.0}, {"lat": 38.92174116666666, "is_disabled": 0, "type": "electric_scooter", "lon": -77.04012016666667, "bike_id": "a6a598c3f3f65dc9d1f899b6eb098470", "fusion_lat": 0.0, "name": "a6a598c3f3f65dc9d1f899b6eb098470", "is_reserved": 0, "rental_uris": {"android": "https://dc.lft.to/lastmile_qr_scan", "ios": "https://dc.lft.to/lastmile_qr_scan"}, "fusion_lon": 0.0}, {"lat": 38.9191425, "is_disabled": 0, "type": "electric_scooter", "lon": -77.01346933333333, "bike_id": "92a87967a7a34687336ff68140a7650b", "fusion_lat": 0.0, "name": "92a87967a7a34687336ff68140a7650b", "is_reserved": 0, "rental_uris": {"android": "https://dc.lft.to/lastmile_qr_scan", "ios": "https://dc.lft.to/lastmile_qr_scan"}, "fusion_lon": 0.0}, {"lat": 38.892278833333336, "is_disabled": 0, "type": "electric_scooter", "lon": -77.05003833333333, "bike_id": "bbc90bb00d33c1d9a188ce16a212add7", "fusion_lat": 0.0, "name": "bbc90bb00d33c1d9a188ce16a212add7", "is_reserved": 0, "rental_uris": {"android": "https://dc.lft.to/lastmile_qr_scan", "ios": "https://dc.lft.to/lastmile_qr_scan"}, "fusion_lon": 0.0}, {"lat": 38.93497416666666, "is_disabled": 0, "type": "electric_scooter", "lon": -77.0580355, "bike_id": "eda6077f70c2260bdf226ab606b81f93", "fusion_lat": 0.0, "name": "eda6077f70c2260bdf226ab606b81f93", "is_reserved": 0, "rental_uris": {"android": "https://dc.lft.to/lastmile_qr_scan", "ios": "https://dc.lft.to/lastmile_qr_scan"}, "fusion_lon": 0.0}, {"lat": 38.870093833333335, "is_disabled": 0, "type": "electric_bike", "lon": -76.960217, "bike_id": "c06471163a8cd3dd599ee3c8ec9e16dc", "fusion_lat": 0.0, "name": "c06471163a8cd3dd599ee3c8ec9e16dc", "is_reserved": 0, "rental_uris": {"android": "https://dc.lft.to/lastmile_qr_scan", "ios": "https://dc.lft.to/lastmile_qr_scan"}, "fusion_lon": 0.0}, {"lat": 38.90039766666666, "is_disabled": 0, "type": "electric_scooter", "lon": -76.99012, "bike_id": "351072ab4522ea4eade50bba01b87aae", "fusion_lat": 0.0, "name": "351072ab4522ea4eade50bba01b87aae", "is_reserved": 0, "rental_uris": {"android": "https://dc.lft.to/lastmile_qr_scan", "ios": "https://dc.lft.to/lastmile_qr_scan"}, "fusion_lon": 0.0}, {"lat": 38.91416266666667, "is_disabled": 0, "type": "electric_scooter", "lon": -77.0317555, "bike_id": "55565aaf14f80eb5ae0a68cc2487618f", "fusion_lat": 0.0, "name": "55565aaf14f80eb5ae0a68cc2487618f", "is_reserved": 0, "rental_uris": {"android": "https://dc.lft.to/lastmile_qr_scan", "ios": "https://dc.lft.to/lastmile_qr_scan"}, "fusion_lon": 0.0}, {"lat": 38.8856325, "is_disabled": 0, "type": "electric_scooter", "lon": -77.01985233333333, "bike_id": "e70ec7a28ea2fd7c9df41df8561450e2", "fusion_lat": 0.0, "name": "e70ec7a28ea2fd7c9df41df8561450e2", "is_reserved": 0, "rental_uris": {"android": "https://dc.lft.to/lastmile_qr_scan", "ios": "https://dc.lft.to/lastmile_qr_scan"}, "fusion_lon": 0.0}, {"lat": 38.93344866666666, "is_disabled": 0, "type": "electric_scooter", "lon": -77.05702283333333, "bike_id": "2bc60da4ad2c45fc558dbecad801a968", "fusion_lat": 0.0, "name": "2bc60da4ad2c45fc558dbecad801a968", "is_reserved": 0, "rental_uris": {"android": "https://dc.lft.to/lastmile_qr_scan", "ios": "https://dc.lft.to/lastmile_qr_scan"}, "fusion_lon": 0.0}, {"lat": 38.92382283333333, "is_disabled": 0, "type": "electric_scooter", "lon": -77.03657916666667, "bike_id": "e34efdb0da428a7ff1b6a3cf7c16255c", "fusion_lat": 0.0, "name": "e34efdb0da428a7ff1b6a3cf7c16255c", "is_reserved": 0, "rental_uris": {"android": "https://dc.lft.to/lastmile_qr_scan", "ios": "https://dc.lft.to/lastmile_qr_scan"}, "fusion_lon": 0.0}, {"lat": 38.921661666666665, "is_disabled": 0, "type": "electric_scooter", "lon": -77.0769955, "bike_id": "e100e6684fb142fd88aa2a945c36e40a", "fusion_lat": 0.0, "name": "e100e6684fb142fd88aa2a945c36e40a", "is_reserved": 0, "rental_uris": {"android": "https://dc.lft.to/lastmile_qr_scan", "ios": "https://dc.lft.to/lastmile_qr_scan"}, "fusion_lon": 0.0}, {"lat": 38.904213166666665, "is_disabled": 0, "type": "electric_scooter", "lon": -77.01839883333334, "bike_id": "7a3b34ad5e87638106a1711a9e43f531", "fusion_lat": 0.0, "name": "7a3b34ad5e87638106a1711a9e43f531", "is_reserved": 0, "rental_uris": {"android": "https://dc.lft.to/lastmile_qr_scan", "ios": "https://dc.lft.to/lastmile_qr_scan"}, "fusion_lon": 0.0}, {"lat": 38.83677566666667, "is_disabled": 0, "type": "electric_scooter", "lon": -77.00576966666667, "bike_id": "346156ca05d91b82eff5aec00bf05a6f", "fusion_lat": 0.0, "name": "346156ca05d91b82eff5aec00bf05a6f", "is_reserved": 0, "rental_uris": {"android": "https://dc.lft.to/lastmile_qr_scan", "ios": "https://dc.lft.to/lastmile_qr_scan"}, "fusion_lon": 0.0}, {"lat": 38.932642666666666, "is_disabled": 0, "type": "electric_scooter", "lon": -77.038879, "bike_id": "8c9c6d719794a6f914183d9b78e654f3", "fusion_lat": 0.0, "name": "8c9c6d719794a6f914183d9b78e654f3", "is_reserved": 0, "rental_uris": {"android": "https://dc.lft.to/lastmile_qr_scan", "ios": "https://dc.lft.to/lastmile_qr_scan"}, "fusion_lon": 0.0}, {"lat": 38.84291833333333, "is_disabled": 0, "type": "electric_scooter", "lon": -76.99947233333333, "bike_id": "b716eb5b81b00dea9a9fbbc9d7030b56", "fusion_lat": 0.0, "name": "b716eb5b81b00dea9a9fbbc9d7030b56", "is_reserved": 0, "rental_uris": {"android": "https://dc.lft.to/lastmile_qr_scan", "ios": "https://dc.lft.to/lastmile_qr_scan"}, "fusion_lon": 0.0},