{"data": {"bikes": [{"name": "b757bc93878af768c206a45c1c58dd6f", "type": "electric_scooter", "fusion_lon": 0.0, "lon": -77.045196, "is_disabled": 0, "lat": 38.91602833333334, "fusion_lat": 0.0, "is_reserved": 0, "rental_uris": {"android": "https://dc.lft.to/lastmile_qr_scan", "ios": "https://dc.lft.to/lastmile_qr_scan"}, "bike_id": "b757bc93878af768c206a45c1c58dd6f"}, {"name": "f971a6bc1209b2a52ed10aa3d724740d", "type": "electric_scooter", "fusion_lon": 0.0, "lon": -77.0417615, "is_disabled": 0, "lat": 38.8984625, "fusion_lat": 0.0, "is_reserved": 0, "rental_uris": {"android": "https://dc.lft.to/lastmile_qr_scan", "ios": "https://dc.lft.to/lastmile_qr_scan"}, "bike_id": "f971a6bc1209b2a52ed10aa3d724740d"}, {"name": "709f07f4193fb12defbcb9f524ff7d4a", "type": "electric_scooter", "fusion_lon": 0.0, "lon": -77.014918, "is_disabled": 0, "lat": 38.92673383333333, "fusion_lat": 0.0, "is_reserved": 0, "rental_uris": {"android": "https://dc.lft.to/lastmile_qr_scan", "ios": "https://dc.lft.to/lastmile_qr_scan"}, "bike_id": "709f07f4193fb12defbcb9f524ff7d4a"}, {"name": "cfdb8dc85df268d0045674834e8c872c", "type": "electric_scooter", "fusion_lon": 0.0, "lon": -77.023847, "is_disabled": 0, "lat": 38.917874, "fusion_lat": 0.0, "is_reserved": 0, "rental_uris": {"android": "https://dc.lft.to/lastmile_qr_scan", "ios": "https://dc.lft.to/lastmile_qr_scan"}, "bike_id": "cfdb8dc85df268d0045674834e8c872c"}, {"name": "a13baf8769cac8ddf639105aed9acffd", "type": "electric_bike", "fusion_lon": 0.0, "lon": -77.0539105, "is_disabled": 0, "lat": 38.80456, "fusion_lat": 0.0, "is_reserved": 0, "rental_uris": {"android": "https://dc.lft.to/lastmile_qr_scan", "ios": "https://dc.lft.to/lastmile_qr_scan"}, "bike_id": "a13baf8769cac8ddf639105aed9acffd"}, {"name": "70c499c7eacc3fbe7b34c28895325f2d", "type": "electric_scooter", "fusion_lon": 0.0, "lon": -76.980696, "is_disabled": 0, "lat": 38.899562, "fusion_lat": 0.0, "is_reserved": 0, "rental_uris": {"android": "https://dc.lft.to/lastmile_qr_scan", "ios": "https://dc.lft.to/lastmile_qr_scan"}, "bike_id": "70c499c7eacc3fbe7b34c28895325f2d"}, {"name": "0a86985427e0b465b861ccc16506ea17", "type": "electric_scooter", "fusion_lon": 0.0, "lon": -77.02308466666666, "is_disabled": 0, "lat": 38.9087495, "fusion_lat": 0.0, "is_reserved": 0, "rental_uris": {"android": "https://dc.lft.to/lastmile_qr_scan", "ios": "https://dc.lft.to/lastmile_qr_scan"}, "bike_id": "0a86985427e0b465b861ccc16506ea17"}, {"name": "56c854cfa5b1c1b7eae60ad0d1e82828", "type": "electric_scooter", "fusion_lon": 0.0, "lon": -77.02466616666666, "is_disabled": 0, "lat": 38.9385035, "fusion_lat": 0.0, "is_reserved": 0, "rental_uris": {"android": "https://dc.lft.to/lastmile_qr_scan", "ios": "https://dc.lft.to/lastmile_qr_scan"}, "bike_id": "56c854cfa5b1c1b7eae60ad0d1e82828"}, {"name": "a8276e40f9a51c5ebbd389bdbf28d91d", "type": "electric_scooter", "fusion_lon": 0.0, "lon": -76.98319383333333, "is_disabled": 0, "lat": 38.904377833333335, "fusion_lat": 0.0, "is_reserved": 0, "rental_uris": {"android": "https://dc.lft.to/lastmile_qr_scan", "ios": "https://dc.lft.to/lastmile_qr_scan"}, "bike_id": "a8276e40f9a51c5ebbd389bdbf28d91d"}, {"name": "a4c633253b5ff4b0f46152a73d68279b", "type": "electric_scooter", "fusion_lon": 0.0, "lon": -77.0771455, "is_disabled": 0, "lat": 38.94101216666667, "fusion_lat": 0.0, "is_reserved": 0, "rental_uris": {"android": "https://dc.lft.to/lastmile_qr_scan", "ios": "https://dc.lft.to/lastmile_qr_scan"}, "bike_id": "a4c633253b5ff4b0f46152a73d68279b"}, {"name": "6573307f8939904ccbc819da5dffc53d", "type": "electric_bike", "fusion_lon": 0.0, "lon": -77.01827033333333, "is_disabled": 0, "lat": 38.9082405, "fusion_lat": 0.0, "is_reserved": 0, "rental_uris": {"android": "https://dc.lft.to/lastmile_qr_scan", "ios": "https://dc.lft.to/lastmile_qr_scan"}, "bike_id": "6573307f8939904ccbc819da5dffc53d"}, {"name": "31ea66d53ffd8534d3daada6ab499712", "type": "electric_scooter", "fusion_lon": 0.0, "lon": -77.00347616666667, "is_disabled": 0, "lat": 38.894648833333335, "fusion_lat": 0.0, "is_reserved": 0, "rental_uris": {"android": "https://dc.lft.to/lastmile_qr_scan", "ios": "https://dc.lft.to/lastmile_qr_scan"}, "bike_id": "31ea66d53ffd8534d3daada6ab499712"}, {"name": "b898ff8f7d58b6965badac8c0cd0aa98", "type": "electric_scooter", "fusion_lon": 0.0, "lon": -77.02440833333333, "is_disabled": 0, "lat": 38.937494666666666, "fusion_lat": 0.0, "is_reserved": 0, "rental_uris": {"android": "https://dc.lft.to/lastmile_qr_scan", "ios": "https://dc.lft.to/lastmile_qr_scan"}, "bike_id": "b898ff8f7d58b6965badac8c0cd0aa98"}, {"name": "1e68ae2a0c9611fe2ba11e63e35252ec", "type": "electric_scooter", "fusion_lon": 0.0, "lon": -77.0227805, "is_disabled": 0, "lat": 38.914160833333334, "fusion_lat": 0.0, "is_reserved": 0, "rental_uris": {"android": "https://dc.lft.to/lastmile_qr_scan", "ios": "https://dc.lft.to/lastmile_qr_scan"}, "bike_id": "1e68ae2a0c9611fe2ba11e63e35252ec"}, {"name": "73a7509c8f15df174bd400b227625eb3", "type": "electric_scooter", "fusion_lon": 0.0, "lon": -77.00570816666666, "is_disabled": 0, "lat": 38.876636, "fusion_lat": 0.0, "is_reserved": 0, "rental_uris": {"android": "https://dc.lft.to/lastmile_qr_scan", "ios": "https://dc.lft.to/lastmile_qr_scan"}, "bike_id": "73a7509c8f15df174bd400b227625eb3"}, {"name": "67fce73e6bf81600e6018acdaf316bb2", "type": "electric_scooter", "fusion_lon": 0.0, "lon": -77.00210933333334, "is_disabled": 0, "lat": 38.8952085, "fusion_lat": 0.0, "is_reserved": 0, "rental_uris": {"android": "https://dc.lft.to/lastmile_qr_scan", "ios": "https://dc.lft.to/lastmile_qr_scan"}, "bike_id": "67fce73e6bf81600e6018acdaf316bb2"}, {"name": "b11830dfe59bdc63bfe96af3e15ddacb", "type": "electric_scooter", "fusion_lon": 0.0, "lon": -77.0703305, "is_disabled": 0, "lat": 38.922531166666666, "fusion_lat": 0.0, "is_reserved": 0, "rental_uris": {"android": "https://dc.lft.to/lastmile_qr_scan", "ios": "https://dc.lft.to/lastmile_qr_scan"}, "bike_id": "b11830dfe59bdc63bfe96af3e15ddacb"}, {"name": "d25eafbddf2414906637a88363c46827", "type": "electric_scooter", "fusion_lon": 0.0, "lon": -77.034831, "is_disabled": 0, "lat": 38.9170825, "fusion_lat": 0.0, "is_reserved": 0, "rental_uris": {"android": "https://dc.lft.to/lastmile_qr_scan", "ios": "https://dc.lft.to/lastmile_qr_scan"}, "bike_id": "d25eafbddf2414906637a88363c46827"}, {"name": "618aa7b5c4ad642365b506ebf91abd65", "type": "electric_scooter", "fusion_lon": 0.0, "lon": -77.02501966666667, "is_disabled": 0, "lat": 38.904115166666664, "fusion_lat": 0.0, "is_reserved": 0, "rental_uris": {"android": "https://dc.lft.to/lastmile_qr_scan", "ios": "https://dc.lft.to/lastmile_qr_scan"}, "bike_id": "618aa7b5c4ad642365b506ebf91abd65"}, {"name": "b78460016450b33d9960f47142c6f01e", "type": "electric_scooter", "fusion_lon": 0.0, "lon": -77.03262266666667, "is_disabled": 0, "lat": 38.93989583333333, "fusion_lat": 0.0, "is_reserved": 0, "rental_uris": {"android": "https://dc.lft.to/lastmile_qr_scan", "ios": "https://dc.lft.to/lastmile_qr_scan"}, "bike_id": "b78460016450b33d9960f47142c6f01e"}, {"name": "27f8fb04a7c6ec9627cc0a11775691c3", "type": "electric_scooter", "fusion_lon": 0.0, "lon": -77.050542, "is_disabled": 0, "lat": 38.9006605, "fusion_lat": 0.0, "is_reserved": 0, "rental_uris": {"android": "https://dc.lft.to/lastmile_qr_scan", "ios": "https://dc.lft.to/lastmile_qr_scan"}, "bike_id": "27f8fb04a7c6ec9627cc0a11775691c3"}, {"name": "259c83a0aafd345c114483f2e93b7e55", "type": "electric_scooter", "fusion_lon": 0.0, "lon": -77.0262905, "is_disabled": 0, "lat": 38.8876955, "fusion_lat": 0.0, "is_reserved": 0, "rental_uris": {"android": "https://dc.lft.to/lastmile_qr_scan", "ios": "https://dc.lft.to/lastmile_qr_scan"}, "bike_id": "259c83a0aafd345c114483f2e93b7e55"}, {"name": "c29f27b9de9d16600a4f0921e5b336dc", "type": "electric_scooter", "fusion_lon": 0.0, "lon": -77.03318766666666, "is_disabled": 0, "lat": 38.905651166666665, "fusion_lat": 0.0, "is_reserved": 0, "rental_uris": {"android": "https://dc.lft.to/lastmile_qr_scan", "ios": "https://dc.lft.to/lastmile_qr_scan"}, "bike_id": "c29f27b9de9d16600a4f0921e5b336dc"}, {"name": "14cba80c6626a17c6bbe44a3c090670f", "type": "electric_scooter", "fusion_lon": 0.0, "lon": -77.08319016666667, "is_disabled": 0, "lat": 38.930379333333335, "fusion_lat": 0.0, "is_reserved": 0, "rental_uris": {"android": "https://dc.lft.to/lastmile_qr_scan", "ios": "https://dc.lft.to/lastmile_qr_scan"}, "bike_id": "14cba80c6626a17c6bbe44a3c090670f"}, {"name": "b3e4737a3d20ffe9adc7363afd228b7f", "type": "electric_scooter", "fusion_lon": 0.0, "lon": -77.04469066666667, "is_disabled": 0, "lat": 38.9126205, "fusion_lat": 0.0, "is_reserved": 0, "rental_uris": {"android": "https://dc.lft.to/lastmile_qr_scan", "ios": "https://dc.lft.to/lastmile_qr_scan"}, "bike_id": "b3e4737a3d20ffe9adc7363afd228b7f"}, {"name": "f4edcbc7d4a8b932519e38399dfe755c", "type": "electric_scooter", "fusion_lon": 0.0, "lon": -77.00944366666667, "is_disabled": 0, "lat": 38.90575666666667, "fusion_lat": 0.0, "is_reserved": 0, "rental_uris": {"android": "https://dc.lft.to/lastmile_qr_scan", "ios": "https://dc.lft.to/lastmile_qr_scan"}, "bike_id": "f4edcbc7d4a8b932519e38399dfe755c"}, {"name": "991ec15c3d6d9b7e4900b7410c9f2ce3", "type": "electric_scooter", "fusion_lon": 0.0, "lon": -77.03821616666667, "is_disabled": 0, "lat": 38.90967783333333, "fusion_lat": 0.0, "is_reserved": 0, "rental_uris": {"android": "https://dc.lft.to/lastmile_qr_scan", "ios": "https://dc.lft.to/lastmile_qr_scan"}, "bike_id": "991ec15c3d6d9b7e4900b7410c9f2ce3"}, {"name": "686005c7e0898a6fea966ca597b72067", "type": "electric_scooter", "fusion_lon": 0.0, "lon": -77.03877766666666, "is_disabled": 0, "lat": 38.93270316666667, "fusion_lat": 0.0, "is_reserved": 0, "rental_uris": {"android": "https://dc.lft.to/lastmile_qr_scan", "ios": "https://dc.lft.to/lastmile_qr_scan"}, "bike_id": "686005c7e0898a6fea966ca597b72067"}, {"name": "98b3e56520913dc202743db103d00614", "type": "electric_scooter", "fusion_lon": 0.0, "lon": -77.01507266666667, "is_disabled": 0, "lat": 38.9133135, "fusion_lat": 0.0, "is_reserved": 0, "rental_uris": {"android": "https://dc.lft.to/lastmile_qr_scan", "ios": "https://dc.lft.to/lastmile_qr_scan"}, "bike_id": "98b3e56520913dc202743db103d00614"}, {"name": "dcc3dce1a3116b4ea98665a4465e81b5", "type": "electric_scooter", "fusion_lon": 0.0, "lon": -77.03202016666667, "is_disabled": 0, "lat": 38.91544716666667, "fusion_lat": 0.0, "is_reserved": 0, "rental_uris": {"android": "https://dc.lft.to/lastmile_qr_scan", "ios": "https://dc.lft.to/lastmile_qr_scan"}, "bike_id": "dcc3dce1a3116b4ea98665a4465e81b5"}, {"name": "6814de97f2ad6147bf148eb6aa78ca41", "type": "electric_scooter", "fusion_lon": 0.0, "lon": -77.00675916666667, "is_disabled": 0, "lat": 38.87170666666667, "fusion_lat": 0.0, "is_reserved": 0, "rental_uris": {"android": "https://dc.lft.to/lastmile_qr_scan", "ios": "https://dc.lft.to/lastmile_qr_scan"}, "bike_id": "6814de97f2ad6147bf148eb6aa78ca41"}, {"name": "797f40eb4e128d20edd19e500ff0c2ed", "type": "electric_scooter", "fusion_lon": 0.0, "lon": -77.024118, "is_disabled": 0, "lat": 38.89232716666667, "fusion_lat": 0.0, "is_reserved": 0, "rental_uris": {"android": "https://dc.lft.to/lastmile_qr_scan", "ios": "https://dc.lft.to/lastmile_qr_scan"}, "bike_id": "797f40eb4e128d20edd19e500ff0c2ed"}, {"name": "d3882ac972e3274046e286b2c414e7aa", "type": "electric_scooter", "fusion_lon": 0.0, "lon": -77.02979633333334, "is_disabled": 0, "lat": 38.907256333333336, "fusion_lat": 0.0, "is_reserved": 0, "rental_uris": {"android": "https://dc.lft.to/lastmile_qr_scan", "ios": "https://dc.lft.to/lastmile_qr_scan"}, "bike_id": "d3882ac972e3274046e286b2c414e7aa"}, {"name": "25e628e06fd248476861a27ad37dd534", "type": "electric_scooter", "fusion_lon": 0.0, "lon": -77.02475816666667, "is_disabled": 0, "lat": 38.90557333333334, "fusion_lat": 0.0, "is_reserved": 0, "rental_uris": {"android": "https://dc.lft.to/lastmile_qr_scan", "ios": "https://dc.lft.to/lastmile_qr_scan"}, "bike_id": "25e628e06fd248476861a27ad37dd534"}, {"name": "9fe53281ddfcc56d54554c00566cf07b", "type": "electric_scooter", "fusion_lon": 0.0, "lon": -77.06404516666667, "is_disabled": 0, "lat": 38.9444665, "fusion_lat": 0.0, "is_reserved": 0, "rental_uris": {"android": "https://dc.lft.to/lastmile_qr_scan", "ios": "https://dc.lft.to/lastmile_qr_scan"}, "bike_id": "9fe53281ddfcc56d54554c00566cf07b"}, {"name": "00cd2dcdca2395c5a16aded0663a13be", "type": "electric_bike", "fusion_lon": 0.0, "lon": -76.91804833333333, "is_disabled": 0, "lat": 39.000042666666666, "fusion_lat": 0.0, "is_reserved": 0, "rental_uris": {"android": "https://dc.lft.to/lastmile_qr_scan", "ios": "https://dc.lft.to/lastmile_qr_scan"}, "bike_id": "00cd2dcdca2395c5a16aded0663a13be"}, {"name": "54d499d402a2c67d5200a0dd8141448c", "type": "electric_scooter", "fusion_lon": 0.0, "lon": -77.034042, "is_disabled": 0, "lat": 38.92268583333333, "fusion_lat": 0.0, "is_reserved": 0, "rental_uris": {"android": "https://dc.lft.to/lastmile_qr_scan", "ios": "https://dc.lft.to/lastmile_qr_scan"}, "bike_id": "54d499d402a2c67d5200a0dd8141448c"}, {"name": "2a322d71536ac36e1c09a40323f4a0e8", "type": "electric_scooter", "fusion_lon": 0.0, "lon": -76.93966783333333, "is_disabled": 0, "lat": 38.89344583333333, "fusion_lat": 0.0, "is_reserved": 0, "rental_uris": {"android": "https://dc.lft.to/lastmile_qr_scan", "ios": "https://dc.lft.to/lastmile_qr_scan"}, "bike_id": "2a322d71536ac36e1c09a40323f4a0e8"}, {"name": "8a3674e614e0920ecf5919c33d84e7f8", "type": "electric_scooter", "fusion_lon": 0.0, "lon": -77.00519583333333, "is_disabled": 0, "lat": 38.87473133333334, "fusion_lat": 0.0, "is_reserved": 0, "rental_uris": {"android": "https://dc.lft.to/lastmile_qr_scan", "ios": "https://dc.lft.to/lastmile_qr_scan"}, "bike_id": "8a3674e614e0920ecf5919c33d84e7f8"}, {"name": "c472df46ec94acb42e6dc9003805208c", "type": "electric_scooter", "fusion_lon": 0.0, "lon": -77.0204795, "is_disabled": 0, "lat": 38.9155945, "fusion_lat": 0.0, "is_reserved": 0, "rental_uris": {"android": "https://dc.lft.to/lastmile_qr_scan", "ios": "https://dc.lft.to/lastmile_qr_scan"}, "bike_id": "c472df46ec94acb42e6dc9003805208c"}, {"name": "a98f12d69384d9b4ee0a68f57526cc63", "type": "electric_scooter", "fusion_lon": 0.0, "lon": -77.02387666666667, "is_disabled": 0, "lat": 38.892320833333336, "fusion_lat": 0.0, "is_reserved": 0, "rental_uris": {"android": "https://dc.lft.to/lastmile_qr_scan", "ios": "https://dc.lft.to/lastmile_qr_scan"}, "bike_id": "a98f12d69384d9b4ee0a68f57526cc63"}, {"name": "d804c34eeb5d00c4ffc6177ca7c62781", "type": "electric_scooter", "fusion_lon": 0.0, "lon": -77.042223, "is_disabled": 0, "lat": 38.924519833333335, "fusion_lat": 0.0, "is_reserved": 0, "rental_uris": {"android": "https://dc.lft.to/lastmile_qr_scan", "ios": "https://dc.lft.to/lastmile_qr_scan"}, "bike_id": "d804c34eeb5d00c4ffc6177ca7c62781"}, {"name": "9a6de1fc1d69775f821771568222d0cb", "type": "electric_scooter", "fusion_lon": 0.0, "lon": -77.031734, "is_disabled": 0, "lat": 38.91121366666667, "fusion_lat": 0.0, "is_reserved": 0, "rental_uris": {"android": "https://dc.lft.to/lastmile_qr_scan", "ios": "https://dc.lft.to/lastmile_qr_scan"}, "bike_id": "9a6de1fc1d69775f821771568222d0cb"}, {"name": "1a387156fb3aec7efc8e40f876aab168", "type": "electric_scooter", "fusion_lon": 0.0, "lon": -77.04341283333333, "is_disabled": 0, "lat": 38.91427633333333, "fusion_lat": 0.0, "is_reserved": 0, "rental_uris": {"android": "https://dc.lft.to/lastmile_qr_scan", "ios": "https://dc.lft.to/lastmile_qr_scan"}, "bike_id": "1a387156fb3aec7efc8e40f876aab168"}, {"name": "85f7d6da6ff67d7ae02f47670c5e143f", "type": "electric_scooter", "fusion_lon": 0.0, "lon": -77.03194733333333, "is_disabled": 0, "lat": 38.91952916666666, "fusion_lat": 0.0, "is_reserved": 0, "rental_uris": {"android": "https://dc.lft.to/lastmile_qr_scan", "ios": "https://dc.lft.to/lastmile_qr_scan"}, "bike_id": "85f7d6da6ff67d7ae02f47670c5e143f"}, {"name": "65e666ebd292e1e956b73297f28d6d68", "type": "electric_scooter", "fusion_lon": 0.0, "lon": -77.02832716666667, "is_disabled": 0, "lat": 38.88735033333333, "fusion_lat": 0.0, "is_reserved": 0, "rental_uris": {"android": "https://dc.lft.to/lastmile_qr_scan", "ios": "https://dc.lft.to/lastmile_qr_scan"}, "bike_id": "65e666ebd292e1e956b73297f28d6d68"}, {"name": "61af31215684230c18c58a8836f1af75", "type": "electric_bike", "fusion_lon": 0.0, "lon": -77.0000625, "is_disabled": 0, "lat": 38.923956833333335, "fusion_lat": 0.0, "is_reserved": 0, "rental_uris": {"android": "https://dc.lft.to/lastmile_qr_scan", "ios": "https://dc.lft.to/lastmile_qr_scan"}, "bike_id": "61af31215684230c18c58a8836f1af75"}, {"name": "4e0ac07d3f24f1515a36a8a73118fb9a", "type": "electric_bike", "fusion_lon": 0.0, "lon": -77.02812433333334, "is_disabled": 0, "lat": 38.9616925, "fusion_lat": 0.0, "is_reserved": 0, "rental_uris": {"android": "https://dc.lft.to/lastmile_qr_scan", "ios": "https://dc.lft.to/lastmile_qr_scan"}, "bike_id": "4e0ac07d3f24f1515a36a8a73118fb9a"}, {"name": "38f2ad1307ad4ca059c71452108ab7b7", "type": "electric_scooter", "fusion_lon": 0.0, "lon": -77.02789983333334, "is_disabled": 0, "lat": 38.96043916666667, "fusion_lat": 0.0, "is_reserved": 0, "rental_uris": {"android": "https://dc.lft.to/lastmile_qr_scan", "ios": "https://dc.lft.to/lastmile_qr_scan"}, "bike_id": "38f2ad1307ad4ca059c71452108ab7b7"}, {"name": "5bde955f1afca09c9611164114415e8e", "type": "electric_scooter", "fusion_lon": 0.0, "lon": -77.01642, "is_disabled": 0, "lat": 38.90086016666667, "fusion_lat": 0.0, "is_reserved": 0, "rental_uris": {"android": "https://dc.lft.to/lastmile_qr_scan", "ios": "https://dc.lft.to/lastmile_qr_scan"}, "bike_id": "5bde955f1afca09c9611164114415e8e"}, {"name": "57f165d881cb132f39d01ef22e266cd1", "type": "electric_scooter", "fusion_lon": 0.0, "lon": -77.02168416666666, "is_disabled": 0, "lat": 38.8972745, "fusion_lat": 0.0, "is_reserved": 0, "rental_uris": {"android": "https://dc.lft.to/lastmile_qr_scan", "ios": "https://dc.lft.to/lastmile_qr_scan"}, "bike_id": "57f165d881cb132f39d01ef22e266cd1"}, {"name": "df45e4a74dc033848b39fa0327b647c1", "type": "electric_scooter", "fusion_lon": 0.0, "lon": -77.038548, "is_disabled": 0, "lat": 38.910999833333335, "fusion_lat": 0.0, "is_reserved": 0, "rental_uris": {"android": "https://dc.lft.to/lastmile_qr_scan", "ios": "https://dc.lft.to/lastmile_qr_scan"}, "bike_id": "df45e4a74dc033848b39fa0327b647c1"}, {"name": "d951d7fb6855bc9450125cdb5efb683d", "type": "electric_scooter", "fusion_lon": 0.0, "lon": -77.02695883333334, "is_disabled": 0, "lat": 38.93638516666667, "fusion_lat": 0.0, "is_reserved": 0, "rental_uris": {"android": "https://dc.lft.to/lastmile_qr_scan", "ios": "https://dc.lft.to/lastmile_qr_scan"}, "bike_id": "d951d7fb6855bc9450125cdb5efb683d"}, {"name": "a72ebcb7bca842a70a86149812faafe6", "type": "electric_scooter", "fusion_lon": 0.0, "lon": -77.03205066666666, "is_disabled": 0, "lat": 38.910653833333335, "fusion_lat": 0.0, "is_reserved": 0, "rental_uris": {"android": "https://dc.lft.to/lastmile_qr_scan", "ios": "https://dc.lft.to/lastmile_qr_scan"}, "bike_id": "a72ebcb7bca842a70a86149812faafe6"}, {"name": "102c8b42313743a9ca9a6638233b9ac4", "type": "electric_scooter", "fusion_lon": 0.0, "lon": -77.03191883333334, "is_disabled": 0, "lat": 38.91715033333333, "fusion_lat": 0.0, "is_reserved": 0, "rental_uris": {"android": "https://dc.lft.to/lastmile_qr_scan", "ios": "https://dc.lft.to/lastmile_qr_scan"}, "bike_id": "102c8b42313743a9ca9a6638233b9ac4"}, {"name": "42b1541b364654d0badf5d78dbf1f3ba", "type": "electric_scooter", "fusion_lon": 0.0, "lon": -77.009155, "is_disabled": 0, "lat": 38.968168666666664, "fusion_lat": 0.0, "is_reserved": 0, "rental_uris": {"android": "https://dc.lft.to/lastmile_qr_scan", "ios": "https://dc.lft.to/lastmile_qr_scan"}, "bike_id": "42b1541b364654d0badf5d78dbf1f3ba"}, {"name": "cd965bb93ce2ed8d7f2cb8008ec61434", "type": "electric_scooter", "fusion_lon": 0.0, "lon": -77.04316516666667, "is_disabled": 0, "lat": 38.922427666666664, "fusion_lat": 0.0, "is_reserved": 0, "rental_uris": {"android": "https://dc.lft.to/lastmile_qr_scan", "ios": "https://dc.lft.to/lastmile_qr_scan"}, "bike_id": "cd965bb93ce2ed8d7f2cb8008ec61434"}, {"name": "63e9129ecb5ef7549c9c9b4a314f1f01", "type": "electric_scooter", "fusion_lon": 0.0, "lon": -77.025946, "is_disabled": 0, "lat": 38.963939333333336, "fusion_lat": 0.0, "is_reserved": 0, "rental_uris": {"android": "https://dc.lft.to/lastmile_qr_scan", "ios": "https://dc.lft.to/lastmile_qr_scan"}, "bike_id": "63e9129ecb5ef7549c9c9b4a314f1f01"}, {"name": "4b3d6c1c13c8cdf5c0ac84143035e57e", "type": "electric_scooter", "fusion_lon": 0.0, "lon": -77.0322015, "is_disabled": 0, "lat": 38.920063666666664, "fusion_lat": 0.0, "is_reserved": 0, "rental_uris": {"android": "https://dc.lft.to/lastmile_qr_scan", "ios": "https://dc.lft.to/lastmile_qr_scan"}, "bike_id": "4b3d6c1c13c8cdf5c0ac84143035e57e"}, {"name": "36321cbb9fb4ad0f443083e537c078f0", "type": "electric_scooter", "fusion_lon": 0.0, "lon": -77.0349275, "is_disabled": 0, "lat": 38.916898, "fusion_lat": 0.0, "is_reserved": 0, "rental_uris": {"android": "https://dc.lft.to/lastmile_qr_scan", "ios": "https://dc.lft.to/lastmile_qr_scan"}, "bike_id": "36321cbb9fb4ad0f443083e537c078f0"}, {"name": "bc07ba94b4d5ba433d3b52e181797075", "type": "electric_scooter", "fusion_lon": 0.0, "lon": -77.01506933333333, "is_disabled": 0, "lat": 38.89014566666667, "fusion_lat": 0.0, "is_reserved": 0, "rental_uris": {"android": "https://dc.lft.to/lastmile_qr_scan", "ios": "https://dc.lft.to/lastmile_qr_scan"}, "bike_id": "bc07ba94b4d5ba433d3b52e181797075"}, {"name": "9fbb38687b362df34288f65cf500eade", "type": "electric_scooter", "fusion_lon": 0.0, "lon": -77.03833266666666, "is_disabled": 0, "lat": 38.921729166666665, "fusion_lat": 0.0, "is_reserved": 0, "rental_uris": {"android": "https://dc.lft.to/lastmile_qr_scan", "ios": "https://dc.lft.to/lastmile_qr_scan"}, "bike_id": "9fbb38687b362df34288f65cf500eade"}, {"name": "397bb2ba01d81ecbafd1eb33979fa261", "type": "electric_scooter", "fusion_lon": 0.0, "lon": -77.058629, "is_disabled": 0, "lat": 38.936088166666664, "fusion_lat": 0.0, "is_reserved": 0, "rental_uris": {"android": "https://dc.lft.to/lastmile_qr_scan", "ios": "https://dc.lft.to/lastmile_qr_scan"}, "bike_id": "397bb2ba01d81ecbafd1eb33979fa261"}, {"name": "633ee0ec7ad96ed4de42440687fc7ea8", "type": "electric_scooter", "fusion_lon": 0.0, "lon": -77.04892516666666, "is_disabled": 0, "lat": 38.8976295, "fusion_lat": 0.0, "is_reserved": 0, "rental_uris": {"android": "https://dc.lft.to/lastmile_qr_scan", "ios": "https://dc.lft.to/lastmile_qr_scan"}, "bike_id": "633ee0ec7ad96ed4de42440687fc7ea8"}, {"name": "2bdb7798a04cbb68bd38a22d1cdf5817", "type": "electric_scooter", "fusion_lon": 0.0, "lon": -77.03332033333334, "is_disabled": 0, "lat": 38.89840783333333, "fusion_lat": 0.0, "is_reserved": 0, "rental_uris": {"android": "https://dc.lft.to/lastmile_qr_scan", "ios": "https://dc.lft.to/lastmile_qr_scan"}, "bike_id": "2bdb7798a04cbb68bd38a22d1cdf5817"}, {"name": "863839a288a85d791f96d3fe3370b5c3", "type": "electric_scooter", "fusion_lon": 0.0, "lon": -77.06102516666667, "is_disabled": 0, "lat": 38.90539366666667, "fusion_lat": 0.0, "is_reserved": 0, "rental_uris": {"android": "https://dc.lft.to/lastmile_qr_scan", "ios": "https://dc.lft.to/lastmile_qr_scan"}, "bike_id": "863839a288a85d791f96d3fe3370b5c3"}, {"name": "d041105393ae85c3e757d39d96d73701", "type": "electric_scooter", "fusion_lon": 0.0, "lon": -77.04409516666666, "is_disabled": 0, "lat": 38.934258166666666, "fusion_lat": 0.0, "is_reserved": 0, "rental_uris": {"android": "https://dc.lft.to/lastmile_qr_scan", "ios": "https://dc.lft.to/lastmile_qr_scan"}, "bike_id": "d041105393ae85c3e757d39d96d73701"}, {"name": "3e6b061f664b9bc1ca56216b4e1fe143", "type": "electric_scooter", "fusion_lon": 0.0, "lon": -77.01763566666666, "is_disabled": 0, "lat": 38.902711333333336, "fusion_lat": 0.0, "is_reserved": 0, "rental_uris": {"android": "https://dc.lft.to/lastmile_qr_scan", "ios": "https://dc.lft.to/lastmile_qr_scan"}, "bike_id": "3e6b061f664b9bc1ca56216b4e1fe143"}, {"name": "67d0033b85b50fa1e960a4ca17ba1b17", "type": "electric_bike", "fusion_lon": 0.0, "lon": -77.22882666666666, "is_disabled": 0, "lat": 38.90953833333333, "fusion_lat": 0.0, "is_reserved": 0, "rental_uris": {"android": "https://dc.lft.to/lastmile_qr_scan", "ios": "https://dc.lft.to/lastmile_qr_scan"}, "bike_id": "67d0033b85b50fa1e960a4ca17ba1b17"}, {"name": "95c551fc9c3ae482569dc1d1ebb07fb4", "type": "electric_scooter", "fusion_lon": 0.0, "lon": -76.98882766666667, "is_disabled": 0, "lat": 38.866577666666664, "fusion_lat": 0.0, "is_reserved": 0, "rental_uris": {"android": "https://dc.lft.to/lastmile_qr_scan", "ios": "https://dc.lft.to/lastmile_qr_scan"}, "bike_id": "95c551fc9c3ae482569dc1d1ebb07fb4"}, {"name": "c3ee4922a43ea79a32aab7627ddc102e", "type": "electric_scooter", "fusion_lon": 0.0, "lon": -77.02971633333334, "is_disabled": 0, "lat": 38.90623633333333, "fusion_lat": 0.0, "is_reserved": 0, "rental_uris": {"android": "https://dc.lft.to/lastmile_qr_scan", "ios": "https://dc.lft.to/lastmile_qr_scan"}, "bike_id": "c3ee4922a43ea79a32aab7627ddc102e"}, {"name": "ca8c698c8e0cf3ad0422ae746d9cbb2c", "type": "electric_scooter", "fusion_lon": 0.0, "lon": -77.00714866666667, "is_disabled": 0, "lat": 38.884926, "fusion_lat": 0.0, "is_reserved": 0, "rental_uris": {"android": "https://dc.lft.to/lastmile_qr_scan", "ios": "https://dc.lft.to/lastmile_qr_scan"}, "bike_id": "ca8c698c8e0cf3ad0422ae746d9cbb2c"}, {"name": "35e36ca18a217f9bd922017c345ab580", "type": "electric_scooter", "fusion_lon": 0.0, "lon": -77.0309975, "is_disabled": 0, "lat": 38.923905, "fusion_lat": 0.0, "is_reserved": 0, "rental_uris": {"android": "https://dc.lft.to/lastmile_qr_scan", "ios": "https://dc.lft.to/lastmile_qr_scan"}, "bike_id": "35e36ca18a217f9bd922017c345ab580"}, {"name": "d706aea6e063ffdad25c0460f76713df", "type": "electric_bike", "fusion_lon": 0.0, "lon": -77.08882516666667, "is_disabled": 0, "lat": 38.91031816666667, "fusion_lat": 0.0, "is_reserved": 0, "rental_uris": {"android": "https://dc.lft.to/lastmile_qr_scan", "ios": "https://dc.lft.to/lastmile_qr_scan"}, "bike_id": "d706aea6e063ffdad25c0460f76713df"}, {"name": "bd7dabe0f8492c29b4f363e9cd81e9cb", "type": "electric_scooter", "fusion_lon": 0.0, "lon": -77.023243, "is_disabled": 0, "lat": 38.87884433333333, "fusion_lat": 0.0, "is_reserved": 0, "rental_uris": {"android": "https://dc.lft.to/lastmile_qr_scan", "ios": "https://dc.lft.to/lastmile_qr_scan"}, "bike_id": "bd7dabe0f8492c29b4f363e9cd81e9cb"}, {"name": "def48305b1d33da0b89d7126e5b8d17f", "type": "electric_scooter", "fusion_lon": 0.0, "lon": -77.04175983333333, "is_disabled": 0, "lat": 38.91872516666667, "fusion_lat": 0.0, "is_reserved": 0, "rental_uris": {"android": "https://dc.lft.to/lastmile_qr_scan", "ios": "https://dc.lft.to/lastmile_qr_scan"}, "bike_id": "def48305b1d33da0b89d7126e5b8d17f"}, {"name": "984edae029a7198bf79b2f1d3ee4ca34", "type": "electric_scooter", "fusion_lon": 0.0, "lon": -77.01998416666666, "is_disabled": 0, "lat": 38.915819166666665, "fusion_lat": 0.0, "is_reserved": 0, "rental_uris": {"android": "https://dc.lft.to/lastmile_qr_scan", "ios": "https://dc.lft.to/lastmile_qr_scan"}, "bike_id": "984edae029a7198bf79b2f1d3ee4ca34"}, {"name": "0de94f9d37c3afa971c9c50c77ba1372", "type": "electric_scooter", "fusion_lon": 0.0, "lon": -77.04001783333334, "is_disabled": 0, "lat": 38.93431866666667, "fusion_lat": 0.0, "is_reserved": 0, "rental_uris": {"android": "https://dc.lft.to/lastmile_qr_scan", "ios": "https://dc.lft.to/lastmile_qr_scan"}, "bike_id": "0de94f9d37c3afa971c9c50c77ba1372"}, {"name": "2c940173d0883b1922aefb4db850a4fa", "type": "electric_scooter", "fusion_lon": 0.0, "lon": -76.99063783333334, "is_disabled": 0, "lat": 38.8637915, "fusion_lat": 0.0, "is_reserved": 0, "rental_uris": {"android": "https://dc.lft.to/lastmile_qr_scan", "ios": "https://dc.lft.to/lastmile_qr_scan"}, "bike_id": "2c940173d0883b1922aefb4db850a4fa"}, {"name": "e55cd20b8607c395d75e9f97e8da4a0a", "type": "electric_scooter", "fusion_lon": 0.0, "lon": -76.987193, "is_disabled": 0, "lat": 38.866293, "fusion_lat": 0.0, "is_reserved": 0, "rental_uris": {"android": "https://dc.lft.to/lastmile_qr_scan", "ios": "https://dc.lft.to/lastmile_qr_scan"}, "bike_id": "e55cd20b8607c395d75e9f97e8da4a0a"}, {"name": "ef23ce1540c5e4379bacb237a03607fc", "type": "electric_scooter", "fusion_lon": 0.0, "lon": -77.00204283333333, "is_disabled": 0, "lat": 38.87387116666667, "fusion_lat": 0.0, "is_reserved": 0, "rental_uris": {"android": "https://dc.lft.to/lastmile_qr_scan", "ios": "https://dc.lft.to/lastmile_qr_scan"}, "bike_id": "ef23ce1540c5e4379bacb237a03607fc"}, {"name": "fbf6c6296f2df52d998da1fa0aef0cc1", "type": "electric_scooter", "fusion_lon": 0.0, "lon": -77.002149, "is_disabled": 0, "lat": 38.9024715, "fusion_lat": 0.0, "is_reserved": 0, "rental_uris": {"android": "https://dc.lft.to/lastmile_qr_scan", "ios": "https://dc.lft.to/lastmile_qr_scan"}, "bike_id": "fbf6c6296f2df52d998da1fa0aef0cc1"}, {"name": "cf8f8dde3871f3d5d4afaca66048a0fd", "type": "electric_bike", "fusion_lon": 0.0, "lon": -76.99810366666667, "is_disabled": 0, "lat": 38.8198995, "fusion_lat": 0.0, "is_reserved": 0, "rental_uris": {"android": "https://dc.lft.to/lastmile_qr_scan", "ios": "https://dc.lft.to/lastmile_qr_scan"}, "bike_id": "cf8f8dde3871f3d5d4afaca66048a0fd"}, {"name": "8cfe21d41211b7acaf79407c5e9dcbd6", "type": "electric_scooter", "fusion_lon": 0.0, "lon": -77.04149866666667, "is_disabled": 0, "lat": 38.917027166666664, "fusion_lat": 0.0, "is_reserved": 0, "rental_uris": {"android": "https://dc.lft.to/lastmile_qr_scan", "ios": "https://dc.lft.to/lastmile_qr_scan"}, "bike_id": "8cfe21d41211b7acaf79407c5e9dcbd6"}, {"name": "9d8df15ab9e6dc610a50f894b8644e2e", "type": "electric_scooter", "fusion_lon": 0.0, "lon": -77.0247305, "is_disabled": 0, "lat": 38.917081, "fusion_lat": 0.0, "is_reserved": 0, "rental_uris": {"android": "https://dc.lft.to/lastmile_qr_scan", "ios": "https://dc.lft.to/lastmile_qr_scan"}, "bike_id": "9d8df15ab9e6dc610a50f894b8644e2e"}, {"name": "fa5740d7713e4f5cf14405e9382522b2", "type": "electric_scooter", "fusion_lon": 0.0, "lon": -77.03938133333334, "is_disabled": 0, "lat": 38.9126685, "fusion_lat": 0.0, "is_reserved": 0, "rental_uris": {"android": "https://dc.lft.to/lastmile_qr_scan", "ios": "https://dc.lft.to/lastmile_qr_scan"}, "bike_id": "fa5740d7713e4f5cf14405e9382522b2"}, {"name": "c1cc0733eddd10d95906226c08e65f51", "type": "electric_scooter", "fusion_lon": 0.0, "lon": -76.94961683333334, "is_disabled": 0, "lat": 38.8946805, "fusion_lat": 0.0, "is_reserved": 0, "rental_uris": {"android": "https://dc.lft.to/lastmile_qr_scan", "ios": "https://dc.lft.to/lastmile_qr_scan"}, "bike_id": "c1cc0733eddd10d95906226c08e65f51"}, {"name": "42f5d121c13e52dac231a8207dd38063", "type": "electric_scooter", "fusion_lon": 0.0, "lon": -77.02151316666667, "is_disabled": 0, "lat": 38.924673166666665, "fusion_lat": 0.0, "is_reserved": 0, "rental_uris": {"android": "https://dc.lft.to/lastmile_qr_scan", "ios": "https://dc.lft.to/lastmile_qr_scan"}, "bike_id": "42f5d121c13e52dac231a8207dd38063"}, {"name": "b186adf031b6e10000bfd91202a2bcac", "type": "electric_scooter", "fusion_lon": 0.0, "lon": -77.04999766666667, "is_disabled": 0, "lat": 38.892321, "fusion_lat": 0.0, "is_reserved": 0, "rental_uris": {"android": "https://dc.lft.to/lastmile_qr_scan", "ios": "https://dc.lft.to/lastmile_qr_scan"}, "bike_id": "b186adf031b6e10000bfd91202a2bcac"}, {"name": "79abb65ff3b0c6dd7f7eda52394e534f", "type": "electric_scooter", "fusion_lon": 0.0, "lon": -77.0444975, "is_disabled": 0, "lat": 38.915931, "fusion_lat": 0.0, "is_reserved": 0, "rental_uris": {"android": "https://dc.lft.to/lastmile_qr_scan", "ios": "https://dc.lft.to/lastmile_qr_scan"}, "bike_id": "79abb65ff3b0c6dd7f7eda52394e534f"}, {"name": "763749c1920526c0c517b9c00b4feb77", "type": "electric_scooter", "fusion_lon": 0.0, "lon": -77.02536, "is_disabled": 0, "lat": 38.92059116666667, "fusion_lat": 0.0, "is_reserved": 0, "rental_uris": {"android": "https://dc.lft.to/lastmile_qr_scan", "ios": "https://dc.lft.to/lastmile_qr_scan"}, "bike_id": "763749c1920526c0c517b9c00b4feb77"}, {"name": "0d80270b3064c7f30401e23bac93cecd", "type": "electric_scooter", "fusion_lon": 0.0, "lon": -77.0402235, "is_disabled": 0, "lat": 38.92447833333333, "fusion_lat": 0.0, "is_reserved": 0, "rental_uris": {"android": "https://dc.lft.to/lastmile_qr_scan", "ios": "https://dc.lft.to/lastmile_qr_scan"}, "bike_id": "0d80270b3064c7f30401e23bac93cecd"}, {"name": "a978cf97d84e8a0a8dc1ff10574a70e9", "type": "electric_scooter", "fusion_lon": 0.0, "lon": -77.02826116666667, "is_disabled": 0, "lat": 38.89347433333333, "fusion_lat": 0.0, "is_reserved": 0, "rental_uris": {"android": "https://dc.lft.to/lastmile_qr_scan", "ios": "https://dc.lft.to/lastmile_qr_scan"}, "bike_id": "a978cf97d84e8a0a8dc1ff10574a70e9"}, {"name": "372ed4b48e80456bc50118e80b8abe15", "type": "electric_scooter", "fusion_lon": 0.0, "lon": -77.00553816666667, "is_disabled": 0, "lat": 38.9025365, "fusion_lat": 0.0, "is_reserved": 0, "rental_uris": {"android": "https://dc.lft.to/lastmile_qr_scan", "ios": "https://dc.lft.to/lastmile_qr_scan"}, "bike_id": "372ed4b48e80456bc50118e80b8abe15"}, {"name": "1d8a4249b47b962da1a113a90a650595", "type": "electric_scooter", "fusion_lon": 0.0, "lon": -77.04707583333334, "is_disabled": 0, "lat": 38.92188433333333, "fusion_lat": 0.0, "is_reserved": 0, "rental_uris": {"android": "https://dc.lft.to/lastmile_qr_scan", "ios": "https://dc.lft.to/lastmile_qr_scan"}, "bike_id": "1d8a4249b47b962da1a113a90a650595"}, {"name": "f73267bec1b62a0671872ff7d61340a9", "type": "electric_scooter", "fusion_lon": 0.0, "lon": -76.99610616666666, "is_disabled": 0, "lat": 38.9308385, "fusion_lat": 0.0, "is_reserved": 0, "rental_uris": {"android": "https://dc.lft.to/lastmile_qr_scan", "ios": "https://dc.lft.to/lastmile_qr_scan"}, "bike_id": "f73267bec1b62a0671872ff7d61340a9"}, {"name": "f8443a3fea9833ab9136168f628b6e45", "type": "electric_scooter", "fusion_lon": 0.0, "lon": -77.03838283333333, "is_disabled": 0, "lat": 38.9418915, "fusion_lat": 0.0, "is_reserved": 0, "rental_uris": {"android": "https://dc.lft.to/lastmile_qr_scan", "ios": "https://dc.lft.to/lastmile_qr_scan"}, "bike_id": "f8443a3fea9833ab9136168f628b6e45"}, {"name": "3abda4af7fb0e6cc7b658a3cde00d8ff", "type": "electric_scooter", "fusion_lon": 0.0, "lon": -77.0330475, "is_disabled": 0, "lat": 38.92746966666667, "fusion_lat": 0.0, "is_reserved": 0, "rental_uris": {"android": "https://dc.lft.to/lastmile_qr_scan", "ios": "https://dc.lft.to/lastmile_qr_scan"}, "bike_id": "3abda4af7fb0e6cc7b658a3cde00d8ff"}, {"name": "63ecb0ce41c09f81b4589436f5678e08", "type": "electric_bike", "fusion_lon": 0.0, "lon": -77.02043733333333, "is_disabled": 0, "lat": 38.9414185, "fusion_lat": 0.0, "is_reserved": 0, "rental_uris": {"android": "https://dc.lft.to/lastmile_qr_scan", "ios": "https://dc.lft.to/lastmile_qr_scan"}, "bike_id": "63ecb0ce41c09f81b4589436f5678e08"}, {"name": "1a8f82a902047bc40ef849e6d1077f11", "type": "electric_scooter", "fusion_lon": 0.0, "lon": -76.99813466666667, "is_disabled": 0, "lat": 38.88559333333333, "fusion_lat": 0.0, "is_reserved": 0, "rental_uris": {"android": "https://dc.lft.to/lastmile_qr_scan", "ios": "https://dc.lft.to/lastmile_qr_scan"}, "bike_id": "1a8f82a902047bc40ef849e6d1077f11"}, {"name": "97918a4071e64b6bb4ce770b563761eb", "type": "electric_scooter", "fusion_lon": 0.0, "lon": -77.00189783333333, "is_disabled": 0, "lat": 38.90569, "fusion_lat": 0.0, "is_reserved": 0, "rental_uris": {"android": "https://dc.lft.to/lastmile_qr_scan", "ios": "https://dc.lft.to/lastmile_qr_scan"}, "bike_id": "97918a4071e64b6bb4ce770b563761eb"}, {"name": "2a5c1b6737f27ff8869dc54d3a2424c1", "type": "electric_scooter", "fusion_lon": 0.0, "lon": -77.04174133333333, "is_disabled": 0, "lat": 38.9186865, "fusion_lat": 0.0, "is_reserved": 0, "rental_uris": {"android": "https://dc.lft.to/lastmile_qr_scan", "ios": "https://dc.lft.to/lastmile_qr_scan"}, "bike_id": "2a5c1b6737f27ff8869dc54d3a2424c1"}, {"name": "b14b45654304edad897fdafdfc76b582", "type": "electric_scooter", "fusion_lon": 0.0, "lon": -76.957603, "is_disabled": 0, "lat": 38.884265166666665, "fusion_lat": 0.0, "is_reserved": 0, "rental_uris": {"android": "https://dc.lft.to/lastmile_qr_scan", "ios": "https://dc.lft.to/lastmile_qr_scan"}, "bike_id": "b14b45654304edad897fdafdfc76b582"}, {"name": "c024d86ee0ca0fd6fcb742bdb1c90873", "type": "electric_bike", "fusion_lon": 0.0, "lon": -77.00861583333334, "is_disabled": 0, "lat": 38.96460183333333, "fusion_lat": 0.0, "is_reserved": 0, "rental_uris": {"android": "https://dc.lft.to/lastmile_qr_scan", "ios": "https://dc.lft.to/lastmile_qr_scan"}, "bike_id": "c024d86ee0ca0fd6fcb742bdb1c90873"}, {"name": "102cc91f1eb505589c04a996e9b064c9", "type": "electric_scooter", "fusion_lon": 0.0, "lon": -77.0413675, "is_disabled": 0, "lat": 38.91980933333333, "fusion_lat": 0.0, "is_reserved": 0, "rental_uris": {"android": "https://dc.lft.to/lastmile_qr_scan", "ios": "https://dc.lft.to/lastmile_qr_scan"}, "bike_id": "102cc91f1eb505589c04a996e9b064c9"}, {"name": "8722567e70ec35acb98337bc52c45e35", "type": "electric_scooter", "fusion_lon": 0.0, "lon": -77.01991383333333, "is_disabled": 0, "lat": 38.898923833333335, "fusion_lat": 0.0, "is_reserved": 0, "rental_uris": {"android": "https://dc.lft.to/lastmile_qr_scan", "ios": "https://dc.lft.to/lastmile_qr_scan"}, "bike_id": "8722567e70ec35acb98337bc52c45e35"}, {"name": "b78235f908ccea429a471a1d57016cc9", "type": "electric_scooter", "fusion_lon": 0.0, "lon": -77.02351783333333, "is_disabled": 0, "lat": 38.922703166666665, "fusion_lat": 0.0, "is_reserved": 0, "rental_uris": {"android": "https://dc.lft.to/lastmile_qr_scan", "ios": "https://dc.lft.to/lastmile_qr_scan"}, "bike_id": "b78235f908ccea429a471a1d57016cc9"}, {"name": "a5277afbfa300c505bdaad699624c3c9", "type": "electric_scooter", "fusion_lon": 0.0, "lon": -77.02156983333333, "is_disabled": 0, "lat": 38.92464183333333, "fusion_lat": 0.0, "is_reserved": 0, "rental_uris": {"android": "https://dc.lft.to/lastmile_qr_scan", "ios": "https://dc.lft.to/lastmile_qr_scan"}, "bike_id": "a5277afbfa300c505bdaad699624c3c9"}, {"name": "43fd0e35fe9db4790ef5a1531d9df7b1", "type": "electric_scooter", "fusion_lon": 0.0, "lon": -77.02244766666666, "is_disabled": 0, "lat": 38.92450216666667, "fusion_lat": 0.0, "is_reserved": 0, "rental_uris": {"android": "https://dc.lft.to/lastmile_qr_scan", "ios": "https://dc.lft.to/lastmile_qr_scan"}, "bike_id": "43fd0e35fe9db4790ef5a1531d9df7b1"}, {"name": "54898b645d93ed2142955d6f73170df6", "type": "electric_scooter", "fusion_lon": 0.0, "lon": -77.00581166666667, "is_disabled": 0, "lat": 38.929447, "fusion_lat": 0.0, "is_reserved": 0, "rental_uris": {"android": "https://dc.lft.to/lastmile_qr_scan", "ios": "https://dc.lft.to/lastmile_qr_scan"}, "bike_id": "54898b645d93ed2142955d6f73170df6"}, {"name": "738e8d8096b0fa01a066454d5ed61a42", "type": "electric_scooter", "fusion_lon": 0.0, "lon": -77.03105366666666, "is_disabled": 0, "lat": 38.895652, "fusion_lat": 0.0, "is_reserved": 0, "rental_uris": {"android": "https://dc.lft.to/lastmile_qr_scan", "ios": "https://dc.lft.to/lastmile_qr_scan"}, "bike_id": "738e8d8096b0fa01a066454d5ed61a42"}, {"name": "f0e3c1f5b5f531a6e8725fa0182aba8b", "type": "electric_scooter", "fusion_lon": 0.0, "lon": -76.94654, "is_disabled": 0, "lat": 38.89830283333333, "fusion_lat": 0.0, "is_reserved": 0, "rental_uris": {"android": "https://dc.lft.to/lastmile_qr_scan", "ios": "https://dc.lft.to/lastmile_qr_scan"}, "bike_id": "f0e3c1f5b5f531a6e8725fa0182aba8b"}, {"name": "7415bf1b0a81707eac8416e2567bcf49", "type": "electric_scooter", "fusion_lon": 0.0, "lon": -77.032793, "is_disabled": 0, "lat": 38.92804916666667, "fusion_lat": 0.0, "is_reserved": 0, "rental_uris": {"android": "https://dc.lft.to/lastmile_qr_scan", "ios": "https://dc.lft.to/lastmile_qr_scan"}, "bike_id": "7415bf1b0a81707eac8416e2567bcf49"}, {"name": "170c6c27911f9de610668149561139c7", "type": "electric_scooter", "fusion_lon": 0.0, "lon": -77.028377, "is_disabled": 0, "lat": 38.93193016666667, "fusion_lat": 0.0, "is_reserved": 0, "rental_uris": {"android": "https://dc.lft.to/lastmile_qr_scan", "ios": "https://dc.lft.to/lastmile_qr_scan"}, "bike_id": "170c6c27911f9de610668149561139c7"}, {"name": "9f8b0ebedcb9a30d966d937e2cdd39a7", "type": "electric_scooter", "fusion_lon": 0.0, "lon": -77.03301733333333, "is_disabled": 0, "lat": 38.909710833333335, "fusion_lat": 0.0, "is_reserved": 0, "rental_uris": {"android": "https://dc.lft.to/lastmile_qr_scan", "ios": "https://dc.lft.to/lastmile_qr_scan"}, "bike_id": "9f8b0ebedcb9a30d966d937e2cdd39a7"}, {"name": "f096bb57f3bbd85222e7598c36d2300d", "type": "electric_scooter", "fusion_lon": 0.0, "lon": -77.0568305, "is_disabled": 0, "lat": 38.931578, "fusion_lat": 0.0, "is_reserved": 0, "rental_uris": {"android": "https://dc.lft.to/lastmile_qr_scan", "ios": "https://dc.lft.to/lastmile_qr_scan"}, "bike_id": "f096bb57f3bbd85222e7598c36d2300d"}, {"name": "94ad109cf6c9c9f5c79c0fa92ce3d357", "type": "electric_scooter", "fusion_lon": 0.0, "lon": -77.03851216666666, "is_disabled": 0, "lat": 38.917853666666666, "fusion_lat": 0.0, "is_reserved": 0, "rental_uris": {"android": "https://dc.lft.to/lastmile_qr_scan", "ios": "https://dc.lft.to/lastmile_qr_scan"}, "bike_id": "94ad109cf6c9c9f5c79c0fa92ce3d357"}, {"name": "adde23d785f06f00b4cba166255424ce", "type": "electric_scooter", "fusion_lon": 0.0, "lon": -77.04335466666667, "is_disabled": 0, "lat": 38.9178375, "fusion_lat": 0.0, "is_reserved": 0, "rental_uris": {"android": "https://dc.lft.to/lastmile_qr_scan", "ios": "https://dc.lft.to/lastmile_qr_scan"}, "bike_id": "adde23d785f06f00b4cba166255424ce"}, {"name": "b3cdf3d23645e32ae604ea6a81701e09", "type": "electric_bike", "fusion_lon": 0.0, "lon": -77.106847, "is_disabled": 0, "lat": 38.86452933333333, "fusion_lat": 0.0, "is_reserved": 0, "rental_uris": {"android": "https://dc.lft.to/lastmile_qr_scan", "ios": "https://dc.lft.to/lastmile_qr_scan"}, "bike_id": "b3cdf3d23645e32ae604ea6a81701e09"}, {"name": "e34bf092d8ffbbf60792dc28afedc14d", "type": "electric_scooter", "fusion_lon": 0.0, "lon": -77.05581333333333, "is_disabled": 0, "lat": 38.93432166666667, "fusion_lat": 0.0, "is_reserved": 0, "rental_uris": {"android": "https://dc.lft.to/lastmile_qr_scan", "ios": "https://dc.lft.to/lastmile_qr_scan"}, "bike_id": "e34bf092d8ffbbf60792dc28afedc14d"}, {"name": "30bf012406239aa244bb1a29336d4b54", "type": "electric_scooter", "fusion_lon": 0.0, "lon": -76.98664316666667, "is_disabled": 0, "lat": 38.910747666666666, "fusion_lat": 0.0, "is_reserved": 0, "rental_uris": {"android": "https://dc.lft.to/lastmile_qr_scan", "ios": "https://dc.lft.to/lastmile_qr_scan"}, "bike_id": "30bf012406239aa244bb1a29336d4b54"}, {"name": "5777f24e760cad3904ca50f534e2c706", "type": "electric_scooter", "fusion_lon": 0.0, "lon": -77.05727983333334, "is_disabled": 0, "lat": 38.9336845, "fusion_lat": 0.0, "is_reserved": 0, "rental_uris": {"android": "https://dc.lft.to/lastmile_qr_scan", "ios": "https://dc.lft.to/lastmile_qr_scan"}, "bike_id": "5777f24e760cad3904ca50f534e2c706"}, {"name": "d8800350aae7d8bba638f6eed2c19c4b", "type": "electric_scooter", "fusion_lon": 0.0, "lon": -77.02619733333333, "is_disabled": 0, "lat": 38.898453833333335, "fusion_lat": 0.0, "is_reserved": 0, "rental_uris": {"android": "https://dc.lft.to/lastmile_qr_scan", "ios": "https://dc.lft.to/lastmile_qr_scan"}, "bike_id": "d8800350aae7d8bba638f6eed2c19c4b"}, {"name": "5bf065eac572b0de8821a3c6abbfa04c", "type": "electric_scooter", "fusion_lon": 0.0, "lon": -77.02327933333333, "is_disabled": 0, "lat": 38.907354, "fusion_lat": 0.0, "is_reserved": 0, "rental_uris": {"android": "https://dc.lft.to/lastmile_qr_scan", "ios": "https://dc.lft.to/lastmile_qr_scan"}, "bike_id": "5bf065eac572b0de8821a3c6abbfa04c"}, {"name": "2d6fd97c415704edabb9250db1d4c45e", "type": "electric_scooter", "fusion_lon": 0.0, "lon": -77.00766116666667, "is_disabled": 0, "lat": 38.8779685, "fusion_lat": 0.0, "is_reserved": 0, "rental_uris": {"android": "https://dc.lft.to/lastmile_qr_scan", "ios": "https://dc.lft.to/lastmile_qr_scan"}, "bike_id": "2d6fd97c415704edabb9250db1d4c45e"}, {"name": "eb43e8dfd63ea248c13530b9fad2ef2f", "type": "electric_scooter", "fusion_lon": 0.0, "lon": -77.03860766666666, "is_disabled": 0, "lat": 38.91689516666667, "fusion_lat": 0.0, "is_reserved": 0, "rental_uris": {"android": "https://dc.lft.to/lastmile_qr_scan", "ios": "https://dc.lft.to/lastmile_qr_scan"}, "bike_id": "eb43e8dfd63ea248c13530b9fad2ef2f"}, {"name": "e4092527ea14d67cc8b24dca7655aa9d", "type": "electric_scooter", "fusion_lon": 0.0, "lon": -77.02792366666667, "is_disabled": 0, "lat": 38.939333, "fusion_lat": 0.0, "is_reserved": 0, "rental_uris": {"android": "https://dc.lft.to/lastmile_qr_scan", "ios": "https://dc.lft.to/lastmile_qr_scan"}, "bike_id": "e4092527ea14d67cc8b24dca7655aa9d"}, {"name": "1bf403d8b10e039d558e624db23e5500", "type": "electric_scooter", "fusion_lon": 0.0, "lon": -77.0279145, "is_disabled": 0, "lat": 38.9170655, "fusion_lat": 0.0, "is_reserved": 0, "rental_uris": {"android": "https://dc.lft.to/lastmile_qr_scan", "ios": "https://dc.lft.to/lastmile_qr_scan"}, "bike_id": "1bf403d8b10e039d558e624db23e5500"}, {"name": "9f35cb8383b3eefa70c46f72a101f32f", "type": "electric_scooter", "fusion_lon": 0.0, "lon": -77.035951, "is_disabled": 0, "lat": 38.927736333333335, "fusion_lat": 0.0, "is_reserved": 0, "rental_uris": {"android": "https://dc.lft.to/lastmile_qr_scan", "ios": "https://dc.lft.to/lastmile_qr_scan"}, "bike_id": "9f35cb8383b3eefa70c46f72a101f32f"}, {"name": "92707307c7a7cdc24a4df92159187799", "type": "electric_bike", "fusion_lon": 0.0, "lon": -76.9705735, "is_disabled": 0, "lat": 38.98466116666667, "fusion_lat": 0.0, "is_reserved": 0, "rental_uris": {"android": "https://dc.lft.to/lastmile_qr_scan", "ios": "https://dc.lft.to/lastmile_qr_scan"}, "bike_id": "92707307c7a7cdc24a4df92159187799"}, {"name": "f81317a5a155587e29ff1d1b8921814d", "type": "electric_scooter", "fusion_lon": 0.0, "lon": -77.0433735, "is_disabled": 0, "lat": 38.90401333333333, "fusion_lat": 0.0, "is_reserved": 0, "rental_uris": {"android": "https://dc.lft.to/lastmile_qr_scan", "ios": "https://dc.lft.to/lastmile_qr_scan"}, "bike_id": "f81317a5a155587e29ff1d1b8921814d"}, {"name": "dac3f8205abfa3a4a61a291c2229b676", "type": "electric_scooter", "fusion_lon": 0.0, "lon": -77.04181816666667, "is_disabled": 0, "lat": 38.91408333333333, "fusion_lat": 0.0, "is_reserved": 0, "rental_uris": {"android": "https://dc.lft.to/lastmile_qr_scan", "ios": "https://dc.lft.to/lastmile_qr_scan"}, "bike_id": "dac3f8205abfa3a4a61a291c2229b676"}, {"name": "26118220019f5db65bb657c2e8a0d3e3", "type": "electric_scooter", "fusion_lon": 0.0, "lon": -76.96554716666667, "is_disabled": 0, "lat": 38.91846966666667, "fusion_lat": 0.0, "is_reserved": 0, "rental_uris": {"android": "https://dc.lft.to/lastmile_qr_scan", "ios": "https://dc.lft.to/lastmile_qr_scan"}, "bike_id": "26118220019f5db65bb657c2e8a0d3e3"}, {"name": "dd3322176a8f89f2966d36b1ec015284", "type": "electric_bike", "fusion_lon": 0.0, "lon": -77.011475, "is_disabled": 0, "lat": 38.91187716666666, "fusion_lat": 0.0, "is_reserved": 0, "rental_uris": {"android": "https://dc.lft.to/lastmile_qr_scan", "ios": "https://dc.lft.to/lastmile_qr_scan"}, "bike_id": "dd3322176a8f89f2966d36b1ec015284"}, {"name": "5422df1362d175e4ae74b9eb77123293", "type": "electric_scooter", "fusion_lon": 0.0, "lon": -77.03017466666667, "is_disabled": 0, "lat": 38.909227, "fusion_lat": 0.0, "is_reserved": 0, "rental_uris": {"android": "https://dc.lft.to/lastmile_qr_scan", "ios": "https://dc.lft.to/lastmile_qr_scan"}, "bike_id": "5422df1362d175e4ae74b9eb77123293"}, {"name": "fd9c3b1d89d0964c4c4640346444ef83", "type": "electric_scooter", "fusion_lon": 0.0, "lon": -77.03668316666666, "is_disabled": 0, "lat": 38.91009416666667, "fusion_lat": 0.0, "is_reserved": 0, "rental_uris": {"android": "https://dc.lft.to/lastmile_qr_scan", "ios": "https://dc.lft.to/lastmile_qr_scan"}, "bike_id": "fd9c3b1d89d0964c4c4640346444ef83"}, {"name": "8bf9eeff527284e72dfd4b5421b4e810", "type": "electric_scooter", "fusion_lon": 0.0, "lon": -77.02390233333334, "is_disabled": 0, "lat": 38.91984633333333, "fusion_lat": 0.0, "is_reserved": 0, "rental_uris": {"android": "https://dc.lft.to/lastmile_qr_scan", "ios": "https://dc.lft.to/lastmile_qr_scan"}, "bike_id": "8bf9eeff527284e72dfd4b5421b4e810"}, {"name": "01f571110d60d66927cc8a28e203a9a4", "type": "electric_scooter", "fusion_lon": 0.0, "lon": -76.98620333333334, "is_disabled": 0, "lat": 38.93288833333333, "fusion_lat": 0.0, "is_reserved": 0, "rental_uris": {"android": "https://dc.lft.to/lastmile_qr_scan", "ios": "https://dc.lft.to/lastmile_qr_scan"}, "bike_id": "01f571110d60d66927cc8a28e203a9a4"}, {"name": "450d48e6219ad83595c7a9fcf39d201d", "type": "electric_scooter", "fusion_lon": 0.0, "lon": -77.01237516666667, "is_disabled": 0, "lat": 38.872159333333336, "fusion_lat": 0.0, "is_reserved": 0, "rental_uris": {"android": "https://dc.lft.to/lastmile_qr_scan", "ios": "https://dc.lft.to/lastmile_qr_scan"}, "bike_id": "450d48e6219ad83595c7a9fcf39d201d"}, {"name": "c6ede9f6258e1408b2d3e987c8f73d08", "type": "electric_scooter", "fusion_lon": 0.0, "lon": -77.03892233333333, "is_disabled": 0, "lat": 38.922460666666666, "fusion_lat": 0.0, "is_reserved": 0, "rental_uris": {"android": "https://dc.lft.to/lastmile_qr_scan", "ios": "https://dc.lft.to/lastmile_qr_scan"}, "bike_id": "c6ede9f6258e1408b2d3e987c8f73d08"}, {"name": "b564d42fef4d5f484a5fe459750103ff", "type": "electric_scooter", "fusion_lon": 0.0, "lon": -77.03216883333333, "is_disabled": 0, "lat": 38.9102405, "fusion_lat": 0.0, "is_reserved": 0, "rental_uris": {"android": "https://dc.lft.to/lastmile_qr_scan", "ios": "https://dc.lft.to/lastmile_qr_scan"}, "bike_id": "b564d42fef4d5f484a5fe459750103ff"}, {"name": "4603f929c0e95f57fd3ec19bd667f42a", "type": "electric_scooter", "fusion_lon": 0.0, "lon": -76.983615, "is_disabled": 0, "lat": 38.894416666666665, "fusion_lat": 0.0, "is_reserved": 0, "rental_uris": {"android": "https://dc.lft.to/lastmile_qr_scan", "ios": "https://dc.lft.to/lastmile_qr_scan"}, "bike_id": "4603f929c0e95f57fd3ec19bd667f42a"}, {"name": "9508694b2f28e0988159ac8bc251fbc9", "type": "electric_scooter", "fusion_lon": 0.0, "lon": -77.00038583333334, "is_disabled": 0, "lat": 38.90763183333333, "fusion_lat": 0.0, "is_reserved": 0, "rental_uris": {"android": "https://dc.lft.to/lastmile_qr_scan", "ios": "https://dc.lft.to/lastmile_qr_scan"}, "bike_id": "9508694b2f28e0988159ac8bc251fbc9"}, {"name": "80257885709693c94ecf6c19b5b8baac", "type": "electric_scooter", "fusion_lon": 0.0, "lon": -77.037101, "is_disabled": 0, "lat": 38.926415166666665, "fusion_lat": 0.0, "is_reserved": 0, "rental_uris": {"android": "https://dc.lft.to/lastmile_qr_scan", "ios": "https://dc.lft.to/lastmile_qr_scan"}, "bike_id": "80257885709693c94ecf6c19b5b8baac"}, {"name": "a1ecef76a8a082fe8e438639e1a00b37", "type": "electric_bike", "fusion_lon": 0.0, "lon": -77.00739766666666, "is_disabled": 0, "lat": 38.8978345, "fusion_lat": 0.0, "is_reserved": 0, "rental_uris": {"android": "https://dc.lft.to/lastmile_qr_scan", "ios": "https://dc.lft.to/lastmile_qr_scan"}, "bike_id": "a1ecef76a8a082fe8e438639e1a00b37"}, {"name": "d6848789a43140b02e568adb5120e2cf", "type": "electric_scooter", "fusion_lon": 0.0, "lon": -76.99563616666667, "is_disabled": 0, "lat": 38.90019733333333, "fusion_lat": 0.0, "is_reserved": 0, "rental_uris": {"android": "https://dc.lft.to/lastmile_qr_scan", "ios": "https://dc.lft.to/lastmile_qr_scan"}, "bike_id": "d6848789a43140b02e568adb5120e2cf"}, {"name": "363b3d84eec60418a37463eca10c92ca", "type": "electric_scooter", "fusion_lon": 0.0, "lon": -77.04012683333333, "is_disabled": 0, "lat": 38.89636016666667, "fusion_lat": 0.0, "is_reserved": 0, "rental_uris": {"android": "https://dc.lft.to/lastmile_qr_scan", "ios": "https://dc.lft.to/lastmile_qr_scan"}, "bike_id": "363b3d84eec60418a37463eca10c92ca"}, {"name": "0f089a1862f80d37bcfb0135d773dad3", "type": "electric_scooter", "fusion_lon": 0.0, "lon": -77.04476983333333, "is_disabled": 0, "lat": 38.918672, "fusion_lat": 0.0, "is_reserved": 0, "rental_uris": {"android": "https://dc.lft.to/lastmile_qr_scan", "ios": "https://dc.lft.to/lastmile_qr_scan"}, "bike_id": "0f089a1862f80d37bcfb0135d773dad3"}, {"name": "973cc7d4f23e357fa974b96fa12fa36b", "type": "electric_scooter", "fusion_lon": 0.0, "lon": -77.0020595, "is_disabled": 0, "lat": 38.96557933333333, "fusion_lat": 0.0, "is_reserved": 0, "rental_uris": {"android": "https://dc.lft.to/lastmile_qr_scan", "ios": "https://dc.lft.to/lastmile_qr_scan"}, "bike_id": "973cc7d4f23e357fa974b96fa12fa36b"}, {"name": "5b1bd82e15069a3a0e8c57530da735f3", "type": "electric_scooter", "fusion_lon": 0.0, "lon": -77.0196115, "is_disabled": 0, "lat": 38.892522166666666, "fusion_lat": 0.0, "is_reserved": 0, "rental_uris": {"android": "https://dc.lft.to/lastmile_qr_scan", "ios": "https://dc.lft.to/lastmile_qr_scan"}, "bike_id": "5b1bd82e15069a3a0e8c57530da735f3"}, {"name": "56a58e0cfa46db6f96758b075fc7a28f", "type": "electric_scooter", "fusion_lon": 0.0, "lon": -77.0269205, "is_disabled": 0, "lat": 38.894816166666665, "fusion_lat": 0.0, "is_reserved": 0, "rental_uris": {"android": "https://dc.lft.to/lastmile_qr_scan", "ios": "https://dc.lft.to/lastmile_qr_scan"}, "bike_id": "56a58e0cfa46db6f96758b075fc7a28f"}, {"name": "d35767ca6de54b0113e32aa28d53046f", "type": "electric_scooter", "fusion_lon": 0.0, "lon": -77.03194216666667, "is_disabled": 0, "lat": 38.907790166666665, "fusion_lat": 0.0, "is_reserved": 0, "rental_uris": {"android": "https://dc.lft.to/lastmile_qr_scan", "ios": "https://dc.lft.to/lastmile_qr_scan"}, "bike_id": "d35767ca6de54b0113e32aa28d53046f"}, {"name": "1c696a129b88efb359910443f38d85fd", "type": "electric_scooter", "fusion_lon": 0.0, "lon": -77.0278155, "is_disabled": 0, "lat": 38.89862683333333, "fusion_lat": 0.0, "is_reserved": 0, "rental_uris": {"android": "https://dc.lft.to/lastmile_qr_scan", "ios": "https://dc.lft.to/lastmile_qr_scan"}, "bike_id": "1c696a129b88efb359910443f38d85fd"}, {"name": "0b970570618dd90ec4fb26c0300b6412", "type": "electric_scooter", "fusion_lon": 0.0, "lon": -77.0239435, "is_disabled": 0, "lat": 38.91964133333333, "fusion_lat": 0.0, "is_reserved": 0, "rental_uris": {"android": "https://dc.lft.to/lastmile_qr_scan", "ios": "https://dc.lft.to/lastmile_qr_scan"}, "bike_id": "0b970570618dd90ec4fb26c0300b6412"}, {"name": "ef25d3597d207ded9e10c908e0788dd6", "type": "electric_scooter", "fusion_lon": 0.0, "lon": -77.022386, "is_disabled": 0, "lat": 38.90856216666667, "fusion_lat": 0.0, "is_reserved": 0, "rental_uris": {"android": "https://dc.lft.to/lastmile_qr_scan", "ios": "https://dc.lft.to/lastmile_qr_scan"}, "bike_id": "ef25d3597d207ded9e10c908e0788dd6"}, {"name": "37e3133fe79dc226838c663376f5a38f", "type": "electric_scooter", "fusion_lon": 0.0, "lon": -77.01900666666667, "is_disabled": 0, "lat": 38.9139165, "fusion_lat": 0.0, "is_reserved": 0, "rental_uris": {"android": "https://dc.lft.to/lastmile_qr_scan", "ios": "https://dc.lft.to/lastmile_qr_scan"}, "bike_id": "37e3133fe79dc226838c663376f5a38f"}, {"name": "8e18414c16ca67866e96a0f22a1bed2f", "type": "electric_scooter", "fusion_lon": 0.0, "lon": -76.94643333333333, "is_disabled": 0, "lat": 38.898696666666666, "fusion_lat": 0.0, "is_reserved": 0, "rental_uris": {"android": "https://dc.lft.to/lastmile_qr_scan", "ios": "https://dc.lft.to/lastmile_qr_scan"}, "bike_id": "8e18414c16ca67866e96a0f22a1bed2f"}, {"name": "f50376c6d9d57b81a2aee972fed180e2", "type": "electric_scooter", "fusion_lon": 0.0, "lon": -77.03836116666666, "is_disabled": 0, "lat": 38.902600666666665, "fusion_lat": 0.0, "is_reserved": 0, "rental_uris": {"android": "https://dc.lft.to/lastmile_qr_scan", "ios": "https://dc.lft.to/lastmile_qr_scan"}, "bike_id": "f50376c6d9d57b81a2aee972fed180e2"}, {"name": "36a15d53f882b713f23bd10a74882e13", "type": "electric_scooter", "fusion_lon": 0.0, "lon": -77.03195716666667, "is_disabled": 0, "lat": 38.91635083333333, "fusion_lat": 0.0, "is_reserved": 0, "rental_uris": {"android": "https://dc.lft.to/lastmile_qr_scan", "ios": "https://dc.lft.to/lastmile_qr_scan"}, "bike_id": "36a15d53f882b713f23bd10a74882e13"}, {"name": "03efde9144ce23b5deb390cb6a902511", "type": "electric_bike", "fusion_lon": 0.0, "lon": -77.005864, "is_disabled": 0, "lat": 38.87190433333333, "fusion_lat": 0.0, "is_reserved": 0, "rental_uris": {"android": "https://dc.lft.to/lastmile_qr_scan", "ios": "https://dc.lft.to/lastmile_qr_scan"}, "bike_id": "03efde9144ce23b5deb390cb6a902511"}, {"name": "6ad33a4b70a5d8bbdc5817bf52b3e430", "type": "electric_scooter", "fusion_lon": 0.0, "lon": -77.030785, "is_disabled": 0, "lat": 38.92677833333333, "fusion_lat": 0.0, "is_reserved": 0, "rental_uris": {"android": "https://dc.lft.to/lastmile_qr_scan", "ios": "https://dc.lft.to/lastmile_qr_scan"}, "bike_id": "6ad33a4b70a5d8bbdc5817bf52b3e430"}, {"name": "ce60258d4cc85de69c2d7ad139c4d826", "type": "electric_scooter", "fusion_lon": 0.0, "lon": -77.037052, "is_disabled": 0, "lat": 38.92779916666667, "fusion_lat": 0.0, "is_reserved": 0, "rental_uris": {"android": "https://dc.lft.to/lastmile_qr_scan", "ios": "https://dc.lft.to/lastmile_qr_scan"}, "bike_id": "ce60258d4cc85de69c2d7ad139c4d826"}, {"name": "0330064997d7eafafea6de5e73628579", "type": "electric_scooter", "fusion_lon": 0.0, "lon": -77.0301025, "is_disabled": 0, "lat": 38.93114083333333, "fusion_lat": 0.0, "is_reserved": 0, "rental_uris": {"android": "https://dc.lft.to/lastmile_qr_scan", "ios": "https://dc.lft.to/lastmile_qr_scan"}, "bike_id": "0330064997d7eafafea6de5e73628579"}, {"name": "799d982646ac51183c810eb468bb91a6", "type": "electric_scooter", "fusion_lon": 0.0, "lon": -77.03331933333334, "is_disabled": 0, "lat": 38.91407516666666, "fusion_lat": 0.0, "is_reserved": 0, "rental_uris": {"android": "https://dc.lft.to/lastmile_qr_scan", "ios": "https://dc.lft.to/lastmile_qr_scan"}, "bike_id": "799d982646ac51183c810eb468bb91a6"}, {"name": "0a7926e2844c439c6640f0eed61feb85", "type": "electric_scooter", "fusion_lon": 0.0, "lon": -77.07659216666667, "is_disabled": 0, "lat": 38.935264833333335, "fusion_lat": 0.0, "is_reserved": 0, "rental_uris": {"android": "https://dc.lft.to/lastmile_qr_scan", "ios": "https://dc.lft.to/lastmile_qr_scan"}, "bike_id": "0a7926e2844c439c6640f0eed61feb85"}, {"name": "45fea6d99536727c2d0c445d8c513cc1", "type": "electric_scooter", "fusion_lon": 0.0, "lon": -77.0380385, "is_disabled": 0, "lat": 38.92077283333333, "fusion_lat": 0.0, "is_reserved": 0, "rental_uris": {"android": "https://dc.lft.to/lastmile_qr_scan", "ios": "https://dc.lft.to/lastmile_qr_scan"}, "bike_id": "45fea6d99536727c2d0c445d8c513cc1"}, {"name": "c006a382f9b91e071286a1b517a3fc17", "type": "electric_scooter", "fusion_lon": 0.0, "lon": -76.9347905, "is_disabled": 0, "lat": 38.89505316666666, "fusion_lat": 0.0, "is_reserved": 0, "rental_uris": {"android": "https://dc.lft.to/lastmile_qr_scan", "ios": "https://dc.lft.to/lastmile_qr_scan"}, "bike_id": "c006a382f9b91e071286a1b517a3fc17"}, {"name": "39ff8866073af24ed9da0f56bc3cee6e", "type": "electric_scooter", "fusion_lon": 0.0, "lon": -76.98722716666667, "is_disabled": 0, "lat": 38.866392, "fusion_lat": 0.0, "is_reserved": 0, "rental_uris": {"android": "https://dc.lft.to/lastmile_qr_scan", "ios": "https://dc.lft.to/lastmile_qr_scan"}, "bike_id": "39ff8866073af24ed9da0f56bc3cee6e"}, {"name": "3b7527c370ab4e4f8311d84261c89df1", "type": "electric_scooter", "fusion_lon": 0.0, "lon": -77.02951433333334, "is_disabled": 0, "lat": 38.916875, "fusion_lat": 0.0, "is_reserved": 0, "rental_uris": {"android": "https://dc.lft.to/lastmile_qr_scan", "ios": "https://dc.lft.to/lastmile_qr_scan"}, "bike_id": "3b7527c370ab4e4f8311d84261c89df1"}, {"name": "0d05b90a80f0ff4a65461a416b75594c", "type": "electric_scooter", "fusion_lon": 0.0, "lon": -77.01842566666667, "is_disabled": 0, "lat": 38.90268716666667, "fusion_lat": 0.0, "is_reserved": 0, "rental_uris": {"android": "https://dc.lft.to/lastmile_qr_scan", "ios": "https://dc.lft.to/lastmile_qr_scan"}, "bike_id": "0d05b90a80f0ff4a65461a416b75594c"}, {"name": "7e2590b4c236dce4b65b4bccf4340b4b", "type": "electric_scooter", "fusion_lon": 0.0, "lon": -77.07107916666666, "is_disabled": 0, "lat": 38.896504666666665, "fusion_lat": 0.0, "is_reserved": 0, "rental_uris": {"android": "https://dc.lft.to/lastmile_qr_scan", "ios": "https://dc.lft.to/lastmile_qr_scan"}, "bike_id": "7e2590b4c236dce4b65b4bccf4340b4b"}, {"name": "1001b445689c786b9efffe3a986c4013", "type": "electric_scooter", "fusion_lon": 0.0, "lon": -77.0320965, "is_disabled": 0, "lat": 38.909237, "fusion_lat": 0.0, "is_reserved": 0, "rental_uris": {"android": "https://dc.lft.to/lastmile_qr_scan", "ios": "https://dc.lft.to/lastmile_qr_scan"}, "bike_id": "1001b445689c786b9efffe3a986c4013"}, {"name": "9f3907ab482baff370e293ee21b9438f", "type": "electric_scooter", "fusion_lon": 0.0, "lon": -77.03460033333333, "is_disabled": 0, "lat": 38.90270916666667, "fusion_lat": 0.0, "is_reserved": 0, "rental_uris": {"android": "https://dc.lft.to/lastmile_qr_scan", "ios": "https://dc.lft.to/lastmile_qr_scan"}, "bike_id": "9f3907ab482baff370e293ee21b9438f"}, {"name": "5f0433df6d6637eb7a0d71642c729493", "type": "electric_bike", "fusion_lon": 0.0, "lon": -77.02566833333333, "is_disabled": 0, "lat": 38.997112, "fusion_lat": 0.0, "is_reserved": 0, "rental_uris": {"android": "https://dc.lft.to/lastmile_qr_scan", "ios": "https://dc.lft.to/lastmile_qr_scan"}, "bike_id": "5f0433df6d6637eb7a0d71642c729493"}, {"name": "e10d15c74283083379fd956ec18834c4", "type": "electric_scooter", "fusion_lon": 0.0, "lon": -77.0728215, "is_disabled": 0, "lat": 38.9347325, "fusion_lat": 0.0, "is_reserved": 0, "rental_uris": {"android": "https://dc.lft.to/lastmile_qr_scan", "ios": "https://dc.lft.to/lastmile_qr_scan"}, "bike_id": "e10d15c74283083379fd956ec18834c4"}, {"name": "1a4ad38c1943631bf90be3bc017b2747", "type": "electric_scooter", "fusion_lon": 0.0, "lon": -77.02171583333333, "is_disabled": 0, "lat": 38.9429475, "fusion_lat": 0.0, "is_reserved": 0, "rental_uris": {"android": "https://dc.lft.to/lastmile_qr_scan", "ios": "https://dc.lft.to/lastmile_qr_scan"}, "bike_id": "1a4ad38c1943631bf90be3bc017b2747"}, {"name": "5450bd776412fe77dc9edcdbbd8bdd1a", "type": "electric_scooter", "fusion_lon": 0.0, "lon": -77.017538, "is_disabled": 0, "lat": 38.902771666666666, "fusion_lat": 0.0, "is_reserved": 0, "rental_uris": {"android": "https://dc.lft.to/lastmile_qr_scan", "ios": "https://dc.lft.to/lastmile_qr_scan"}, "bike_id": "5450bd776412fe77dc9edcdbbd8bdd1a"}, {"name": "d14d45d6897d0ad6fa70595bd741e538", "type": "electric_scooter", "fusion_lon": 0.0, "lon": -77.03264283333333, "is_disabled": 0, "lat": 38.93886233333333, "fusion_lat": 0.0, "is_reserved": 0, "rental_uris": {"android": "https://dc.lft.to/lastmile_qr_scan", "ios": "https://dc.lft.to/lastmile_qr_scan"}, "bike_id": "d14d45d6897d0ad6fa70595bd741e538"}, {"name": "42d45f48e3c7d73afb7590c0463edbbb", "type": "electric_scooter", "fusion_lon": 0.0, "lon": -77.02383316666666, "is_disabled": 0, "lat": 38.93207433333333, "fusion_lat": 0.0, "is_reserved": 0, "rental_uris": {"android": "https://dc.lft.to/lastmile_qr_scan", "ios": "https://dc.lft.to/lastmile_qr_scan"}, "bike_id": "42d45f48e3c7d73afb7590c0463edbbb"}, {"name": "cb77876bace94bbd0a83aa137e985e74", "type": "electric_bike", "fusion_lon": 0.0, "lon": -77.01270566666666, "is_disabled": 0, "lat": 38.8647745, "fusion_lat": 0.0, "is_reserved": 0, "rental_uris": {"android": "https://dc.lft.to/lastmile_qr_scan", "ios": "https://dc.lft.to/lastmile_qr_scan"}, "bike_id": "cb77876bace94bbd0a83aa137e985e74"}, {"name": "5a3eeab4d189ea747302b3c3b4c8b86a", "type": "electric_scooter", "fusion_lon": 0.0, "lon": -77.00584083333334, "is_disabled": 0, "lat": 38.87579133333333, "fusion_lat": 0.0, "is_reserved": 0, "rental_uris": {"android": "https://dc.lft.to/lastmile_qr_scan", "ios": "https://dc.lft.to/lastmile_qr_scan"}, "bike_id": "5a3eeab4d189ea747302b3c3b4c8b86a"}, {"name": "efbfbd5b7556dcb238cbec9d0a5009be", "type": "electric_bike", "fusion_lon": 0.0, "lon": -77.13307216666666, "is_disabled": 0, "lat": 38.88717316666666, "fusion_lat": 0.0, "is_reserved": 0, "rental_uris": {"android": "https://dc.lft.to/lastmile_qr_scan", "ios": "https://dc.lft.to/lastmile_qr_scan"}, "bike_id": "efbfbd5b7556dcb238cbec9d0a5009be"}, {"name": "8b75adc469c8e75ab3e9062cd803e4e6", "type": "electric_scooter", "fusion_lon": 0.0, "lon": -77.0682325, "is_disabled": 0, "lat": 38.918, "fusion_lat": 0.0, "is_reserved": 0, "rental_uris": {"android": "https://dc.lft.to/lastmile_qr_scan", "ios": "https://dc.lft.to/lastmile_qr_scan"}, "bike_id": "8b75adc469c8e75ab3e9062cd803e4e6"}, {"name": "c0d757430ea7aba38b463fbb608d55f4", "type": "electric_scooter", "fusion_lon": 0.0, "lon": -76.941553, "is_disabled": 0, "lat": 38.883686166666664, "fusion_lat": 0.0, "is_reserved": 0, "rental_uris": {"android": "https://dc.lft.to/lastmile_qr_scan", "ios": "https://dc.lft.to/lastmile_qr_scan"}, "bike_id": "c0d757430ea7aba38b463fbb608d55f4"}, {"name": "f71c1d4a2443d2cbcf7bb0a13f40c1ff", "type": "electric_scooter", "fusion_lon": 0.0, "lon": -77.0248615, "is_disabled": 0, "lat": 38.94188616666667, "fusion_lat": 0.0, "is_reserved": 0, "rental_uris": {"android": "https://dc.lft.to/lastmile_qr_scan", "ios": "https://dc.lft.to/lastmile_qr_scan"}, "bike_id": "f71c1d4a2443d2cbcf7bb0a13f40c1ff"}, {"name": "aa96e2b34f9378a8f43483fc59e4e27c", "type": "electric_scooter", "fusion_lon": 0.0, "lon": -77.03357416666667, "is_disabled": 0, "lat": 38.928690333333336, "fusion_lat": 0.0, "is_reserved": 0, "rental_uris": {"android": "https://dc.lft.to/lastmile_qr_scan", "ios": "https://dc.lft.to/lastmile_qr_scan"}, "bike_id": "aa96e2b34f9378a8f43483fc59e4e27c"}, {"name": "acffd05c842b882c46784650ef0029c1", "type": "electric_scooter", "fusion_lon": 0.0, "lon": -77.042509, "is_disabled": 0, "lat": 38.922666, "fusion_lat": 0.0, "is_reserved": 0, "rental_uris": {"android": "https://dc.lft.to/lastmile_qr_scan", "ios": "https://dc.lft.to/lastmile_qr_scan"}, "bike_id": "acffd05c842b882c46784650ef0029c1"}, {"name": "f2e0847098e4823d8e7adc517c461ce2", "type": "electric_scooter", "fusion_lon": 0.0, "lon": -76.97537616666666, "is_disabled": 0, "lat": 38.90331416666667, "fusion_lat": 0.0, "is_reserved": 0, "rental_uris": {"android": "https://dc.lft.to/lastmile_qr_scan", "ios": "https://dc.lft.to/lastmile_qr_scan"}, "bike_id": "f2e0847098e4823d8e7adc517c461ce2"}, {"name": "744dab9d460caa218a3da85f06c0e9bd", "type": "electric_scooter", "fusion_lon": 0.0, "lon": -76.95075016666667, "is_disabled": 0, "lat": 38.90519833333333, "fusion_lat": 0.0, "is_reserved": 0, "rental_uris": {"android": "https://dc.lft.to/lastmile_qr_scan", "ios": "https://dc.lft.to/lastmile_qr_scan"}, "bike_id": "744dab9d460caa218a3da85f06c0e9bd"}, {"name": "32756c40caaf657fa88a4c1696a72c96", "type": "electric_scooter", "fusion_lon": 0.0, "lon": -77.00123116666667, "is_disabled": 0, "lat": 38.90008816666667, "fusion_lat": 0.0, "is_reserved": 0, "rental_uris": {"android": "https://dc.lft.to/lastmile_qr_scan", "ios": "https://dc.lft.to/lastmile_qr_scan"}, "bike_id": "32756c40caaf657fa88a4c1696a72c96"}, {"name": "76342c41115b80ea92fd6a2d4c4df7d2", "type": "electric_scooter", "fusion_lon": 0.0, "lon": -77.0273505, "is_disabled": 0, "lat": 38.92767166666667, "fusion_lat": 0.0, "is_reserved": 0, "rental_uris": {"android": "https://dc.lft.to/lastmile_qr_scan", "ios": "https://dc.lft.to/lastmile_qr_scan"}, "bike_id": "76342c41115b80ea92fd6a2d4c4df7d2"}, {"name": "b1b5adbf4ad9c5fdd82a88adc6801e70", "type": "electric_scooter", "fusion_lon": 0.0, "lon": -77.01409333333334, "is_disabled": 0, "lat": 38.92810816666667, "fusion_lat": 0.0, "is_reserved": 0, "rental_uris": {"android": "https://dc.lft.to/lastmile_qr_scan", "ios": "https://dc.lft.to/lastmile_qr_scan"}, "bike_id": "b1b5adbf4ad9c5fdd82a88adc6801e70"}, {"name": "efd4e9647f7db62fcf9d3dce05c934b4", "type": "electric_bike", "fusion_lon": 0.0, "lon": -77.064038, "is_disabled": 0, "lat": 38.84349133333333, "fusion_lat": 0.0, "is_reserved": 0, "rental_uris": {"android": "https://dc.lft.to/lastmile_qr_scan", "ios": "https://dc.lft.to/lastmile_qr_scan"}, "bike_id": "efd4e9647f7db62fcf9d3dce05c934b4"}, {"name": "8d5ef2c7ba2476b2b5f4166e81cad68f", "type": "electric_scooter", "fusion_lon": 0.0, "lon": -77.0313305, "is_disabled": 0, "lat": 38.91916466666667, "fusion_lat": 0.0, "is_reserved": 0, "rental_uris": {"android": "https://dc.lft.to/lastmile_qr_scan", "ios": "https://dc.lft.to/lastmile_qr_scan"}, "bike_id": "8d5ef2c7ba2476b2b5f4166e81cad68f"}, {"name": "a4b02f45f7b9a1f0b08ea5bb8f630ffb", "type": "electric_bike", "fusion_lon": 0.0, "lon": -76.99033166666666, "is_disabled": 0, "lat": 38.938831, "fusion_lat": 0.0, "is_reserved": 0, "rental_uris": {"android": "https://dc.lft.to/lastmile_qr_scan", "ios": "https://dc.lft.to/lastmile_qr_scan"}, "bike_id": "a4b02f45f7b9a1f0b08ea5bb8f630ffb"}, {"name": "aab5cd16c965506c237b911970b98f0b", "type": "electric_scooter", "fusion_lon": 0.0, "lon": -77.03185266666667, "is_disabled": 0, "lat": 38.898505166666666, "fusion_lat": 0.0, "is_reserved": 0, "rental_uris": {"android": "https://dc.lft.to/lastmile_qr_scan", "ios": "https://dc.lft.to/lastmile_qr_scan"}, "bike_id": "aab5cd16c965506c237b911970b98f0b"}, {"name": "0b34d2792844a9bf42dff7d256c603bf", "type": "electric_bike", "fusion_lon": 0.0, "lon": -77.05010616666667, "is_disabled": 0, "lat": 38.8170695, "fusion_lat": 0.0, "is_reserved": 0, "rental_uris": {"android": "https://dc.lft.to/lastmile_qr_scan", "ios": "https://dc.lft.to/lastmile_qr_scan"}, "bike_id": "0b34d2792844a9bf42dff7d256c603bf"}, {"name": "54ed1c5544b32cf0d6e16cbad7770c3f", "type": "electric_scooter", "fusion_lon": 0.0, "lon": -77.02471583333333, "is_disabled": 0, "lat": 38.9178695, "fusion_lat": 0.0, "is_reserved": 0, "rental_uris": {"android": "https://dc.lft.to/lastmile_qr_scan", "ios": "https://dc.lft.to/lastmile_qr_scan"}, "bike_id": "54ed1c5544b32cf0d6e16cbad7770c3f"}, {"name": "38d08d5bffbf719acf3bce3f110b1667", "type": "electric_scooter", "fusion_lon": 0.0, "lon": -77.01150183333333, "is_disabled": 0, "lat": 38.90022733333333, "fusion_lat": 0.0, "is_reserved": 0, "rental_uris": {"android": "https://dc.lft.to/lastmile_qr_scan", "ios": "https://dc.lft.to/lastmile_qr_scan"}, "bike_id": "38d08d5bffbf719acf3bce3f110b1667"}, {"name": "eb6b39a166c9c9cddeaab1c9616c7398", "type": "electric_scooter", "fusion_lon": 0.0, "lon": -77.02983483333334, "is_disabled": 0, "lat": 38.9276905, "fusion_lat": 0.0, "is_reserved": 0, "rental_uris": {"android": "https://dc.lft.to/lastmile_qr_scan", "ios": "https://dc.lft.to/lastmile_qr_scan"}, "bike_id": "eb6b39a166c9c9cddeaab1c9616c7398"}, {"name": "4ba2221ae216319e30c5ec64666ff255", "type": "electric_bike", "fusion_lon": 0.0, "lon": -77.18740866666667, "is_disabled": 0, "lat": 38.893496666666664, "fusion_lat": 0.0, "is_reserved": 0, "rental_uris": {"android": "https://dc.lft.to/lastmile_qr_scan", "ios": "https://dc.lft.to/lastmile_qr_scan"}, "bike_id": "4ba2221ae216319e30c5ec64666ff255"}, {"name": "69c7efead7b416d6ddaba728f0d0313e", "type": "electric_scooter", "fusion_lon": 0.0, "lon": -77.06294733333333, "is_disabled": 0, "lat": 38.94376316666666, "fusion_lat": 0.0, "is_reserved": 0, "rental_uris": {"android": "https://dc.lft.to/lastmile_qr_scan", "ios": "https://dc.lft.to/lastmile_qr_scan"}, "bike_id": "69c7efead7b416d6ddaba728f0d0313e"}, {"name": "7beff476b6cdca6130a03ea566724f72", "type": "electric_scooter", "fusion_lon": 0.0, "lon": -77.02400383333334, "is_disabled": 0, "lat": 38.9168405, "fusion_lat": 0.0, "is_reserved": 0, "rental_uris": {"android": "https://dc.lft.to/lastmile_qr_scan", "ios": "https://dc.lft.to/lastmile_qr_scan"}, "bike_id": "7beff476b6cdca6130a03ea566724f72"}, {"name": "d06d9638f74f64d470425b668c8c4772", "type": "electric_scooter", "fusion_lon": 0.0, "lon": -77.04246216666667, "is_disabled": 0, "lat": 38.92221133333334, "fusion_lat": 0.0, "is_reserved": 0, "rental_uris": {"android": "https://dc.lft.to/lastmile_qr_scan", "ios": "https://dc.lft.to/lastmile_qr_scan"}, "bike_id": "d06d9638f74f64d470425b668c8c4772"}, {"name": "221cd2329b12473261b8ed37a50692d2", "type": "electric_scooter", "fusion_lon": 0.0, "lon": -77.02847933333334, "is_disabled": 0, "lat": 38.956176666666664, "fusion_lat": 0.0, "is_reserved": 0, "rental_uris": {"android": "https://dc.lft.to/lastmile_qr_scan", "ios": "https://dc.lft.to/lastmile_qr_scan"}, "bike_id": "221cd2329b12473261b8ed37a50692d2"}, {"name": "ce8a100d8f6ec956c61ce02704c6addb", "type": "electric_scooter", "fusion_lon": 0.0, "lon": -77.02315083333333, "is_disabled": 0, "lat": 38.92512033333333, "fusion_lat": 0.0, "is_reserved": 0, "rental_uris": {"android": "https://dc.lft.to/lastmile_qr_scan", "ios": "https://dc.lft.to/lastmile_qr_scan"}, "bike_id": "ce8a100d8f6ec956c61ce02704c6addb"}, {"name": "9b54f9d82627be64a5374b333f7212c6", "type": "electric_scooter", "fusion_lon": 0.0, "lon": -77.0430045, "is_disabled": 0, "lat": 38.926541666666665, "fusion_lat": 0.0, "is_reserved": 0, "rental_uris": {"android": "https://dc.lft.to/lastmile_qr_scan", "ios": "https://dc.lft.to/lastmile_qr_scan"}, "bike_id": "9b54f9d82627be64a5374b333f7212c6"}, {"name": "d6f0fe1b40de588020d10d8e99a20d75", "type": "electric_scooter", "fusion_lon": 0.0, "lon": -77.03873783333333, "is_disabled": 0, "lat": 38.911767166666664, "fusion_lat": 0.0, "is_reserved": 0, "rental_uris": {"android": "https://dc.lft.to/lastmile_qr_scan", "ios": "https://dc.lft.to/lastmile_qr_scan"}, "bike_id": "d6f0fe1b40de588020d10d8e99a20d75"}, {"name": "eaa07ad5c7f4b16ae0dc682a5bdae1b6", "type": "electric_scooter", "fusion_lon": 0.0, "lon": -77.05514333333333, "is_disabled": 0, "lat": 38.929513666666665, "fusion_lat": 0.0, "is_reserved": 0, "rental_uris": {"android": "https://dc.lft.to/lastmile_qr_scan", "ios": "https://dc.lft.to/lastmile_qr_scan"}, "bike_id": "eaa07ad5c7f4b16ae0dc682a5bdae1b6"}, {"name": "e754aec77b9b2bb4c101fa7081ca880d", "type": "electric_scooter", "fusion_lon": 0.0, "lon": -76.99775083333333, "is_disabled": 0, "lat": 38.84437783333333, "fusion_lat": 0.0, "is_reserved": 0, "rental_uris": {"android": "https://dc.lft.to/lastmile_qr_scan", "ios": "https://dc.lft.to/lastmile_qr_scan"}, "bike_id": "e754aec77b9b2bb4c101fa7081ca880d"}, {"name": "c14ee0ef75566acf5a80791f65151d0e", "type": "electric_scooter", "fusion_lon": 0.0, "lon": -77.044793, "is_disabled": 0, "lat": 38.9187165, "fusion_lat": 0.0, "is_reserved": 0, "rental_uris": {"android": "https://dc.lft.to/lastmile_qr_scan", "ios": "https://dc.lft.to/lastmile_qr_scan"}, "bike_id": "c14ee0ef75566acf5a80791f65151d0e"}, {"name": "5ae030083b5707dbdba9534aed40ba63", "type": "electric_bike", "fusion_lon": 0.0, "lon": -76.95208683333334, "is_disabled": 0, "lat": 39.084506, "fusion_lat": 0.0, "is_reserved": 0, "rental_uris": {"android": "https://dc.lft.to/lastmile_qr_scan", "ios": "https://dc.lft.to/lastmile_qr_scan"}, "bike_id": "5ae030083b5707dbdba9534aed40ba63"}, {"name": "2331bbd93be76083bd4fb4d04e4c0cee", "type": "electric_scooter", "fusion_lon": 0.0, "lon": -77.01705366666667, "is_disabled": 0, "lat": 38.91383066666667, "fusion_lat": 0.0, "is_reserved": 0, "rental_uris": {"android": "https://dc.lft.to/lastmile_qr_scan", "ios": "https://dc.lft.to/lastmile_qr_scan"}, "bike_id": "2331bbd93be76083bd4fb4d04e4c0cee"}, {"name": "76331a178e7724ea86b90e8b94c5ff98", "type": "electric_scooter", "fusion_lon": 0.0, "lon": -76.96555333333333, "is_disabled": 0, "lat": 38.918535, "fusion_lat": 0.0, "is_reserved": 0, "rental_uris": {"android": "https://dc.lft.to/lastmile_qr_scan", "ios": "https://dc.lft.to/lastmile_qr_scan"}, "bike_id": "76331a178e7724ea86b90e8b94c5ff98"}, {"name": "3fd808fb3958ddd4913c4a7ec77f763e", "type": "electric_scooter", "fusion_lon": 0.0, "lon": -77.02465883333333, "is_disabled": 0, "lat": 38.91700433333333, "fusion_lat": 0.0, "is_reserved": 0, "rental_uris": {"android": "https://dc.lft.to/lastmile_qr_scan", "ios": "https://dc.lft.to/lastmile_qr_scan"}, "bike_id": "3fd808fb3958ddd4913c4a7ec77f763e"}, {"name": "0045fcb49c60b2247152d67c3f41dd00", "type": "electric_scooter", "fusion_lon": 0.0, "lon": -77.00214016666666, "is_disabled": 0, "lat": 38.911873, "fusion_lat": 0.0, "is_reserved": 0, "rental_uris": {"android": "https://dc.lft.to/lastmile_qr_scan", "ios": "https://dc.lft.to/lastmile_qr_scan"}, "bike_id": "0045fcb49c60b2247152d67c3f41dd00"}, {"name": "2cd0b1c3cd56f1292822f38865a1b32a", "type": "electric_scooter", "fusion_lon": 0.0, "lon": -77.032102, "is_disabled": 0, "lat": 38.92782916666667, "fusion_lat": 0.0, "is_reserved": 0, "rental_uris": {"android": "https://dc.lft.to/lastmile_qr_scan", "ios": "https://dc.lft.to/lastmile_qr_scan"}, "bike_id": "2cd0b1c3cd56f1292822f38865a1b32a"}, {"name": "0325950d7753bd4dbb57e683f15402a0", "type": "electric_scooter", "fusion_lon": 0.0, "lon": -77.0437985, "is_disabled": 0, "lat": 38.92073883333333, "fusion_lat": 0.0, "is_reserved": 0, "rental_uris": {"android": "https://dc.lft.to/lastmile_qr_scan", "ios": "https://dc.lft.to/lastmile_qr_scan"}, "bike_id": "0325950d7753bd4dbb57e683f15402a0"}, {"name": "666d1df793e3a872d547aa48bb85e115", "type": "electric_scooter", "fusion_lon": 0.0, "lon": -77.03355033333334, "is_disabled": 0, "lat": 38.907224666666664, "fusion_lat": 0.0, "is_reserved": 0, "rental_uris": {"android": "https://dc.lft.to/lastmile_qr_scan", "ios": "https://dc.lft.to/lastmile_qr_scan"}, "bike_id": "666d1df793e3a872d547aa48bb85e115"}, {"name": "1d7723809672bcaaa6b4ec5eb66e4ca7", "type": "electric_scooter", "fusion_lon": 0.0, "lon": -77.02737733333333, "is_disabled": 0, "lat": 38.9307585, "fusion_lat": 0.0, "is_reserved": 0, "rental_uris": {"android": "https://dc.lft.to/lastmile_qr_scan", "ios": "https://dc.lft.to/lastmile_qr_scan"}, "bike_id": "1d7723809672bcaaa6b4ec5eb66e4ca7"}, {"name": "386b9f79fe9318cadce96a4b3dfe7b17", "type": "electric_scooter", "fusion_lon": 0.0, "lon": -77.045867, "is_disabled": 0, "lat": 38.921237166666664, "fusion_lat": 0.0, "is_reserved": 0, "rental_uris": {"android": "https://dc.lft.to/lastmile_qr_scan", "ios": "https://dc.lft.to/lastmile_qr_scan"}, "bike_id": "386b9f79fe9318cadce96a4b3dfe7b17"}, {"name": "ef9f44c9eb3d9bf1242241e803eba775", "type": "electric_scooter", "fusion_lon": 0.0, "lon": -77.03944583333333, "is_disabled": 0, "lat": 38.9246665, "fusion_lat": 0.0, "is_reserved": 0, "rental_uris": {"android": "https://dc.lft.to/lastmile_qr_scan", "ios": "https://dc.lft.to/lastmile_qr_scan"}, "bike_id": "ef9f44c9eb3d9bf1242241e803eba775"}, {"name": "355ede545561ab3f5294d4daea211b42", "type": "electric_scooter", "fusion_lon": 0.0, "lon": -77.02695566666667, "is_disabled": 0, "lat": 38.906828, "fusion_lat": 0.0, "is_reserved": 0, "rental_uris": {"android": "https://dc.lft.to/lastmile_qr_scan", "ios": "https://dc.lft.to/lastmile_qr_scan"}, "bike_id": "355ede545561ab3f5294d4daea211b42"}, {"name": "f81169d7687d705952dad9ef954191ac", "type": "electric_scooter", "fusion_lon": 0.0, "lon": -77.032546, "is_disabled": 0, "lat": 38.928773, "fusion_lat": 0.0, "is_reserved": 0, "rental_uris": {"android": "https://dc.lft.to/lastmile_qr_scan", "ios": "https://dc.lft.to/lastmile_qr_scan"}, "bike_id": "f81169d7687d705952dad9ef954191ac"}, {"name": "3884b605ffa8a06a7953285f9666ce1b", "type": "electric_scooter", "fusion_lon": 0.0, "lon": -76.98902033333333, "is_disabled": 0, "lat": 38.900286, "fusion_lat": 0.0, "is_reserved": 0, "rental_uris": {"android": "https://dc.lft.to/lastmile_qr_scan", "ios": "https://dc.lft.to/lastmile_qr_scan"}, "bike_id": "3884b605ffa8a06a7953285f9666ce1b"}, {"name": "3149a67a019259be819df5ef05597132", "type": "electric_scooter", "fusion_lon": 0.0, "lon": -77.02305466666667, "is_disabled": 0, "lat": 38.918372, "fusion_lat": 0.0, "is_reserved": 0, "rental_uris": {"android": "https://dc.lft.to/lastmile_qr_scan", "ios": "https://dc.lft.to/lastmile_qr_scan"}, "bike_id": "3149a67a019259be819df5ef05597132"}, {"name": "50d600d98febbc4677da83c8c3d8e6fc", "type": "electric_scooter", "fusion_lon": 0.0, "lon": -76.9983895, "is_disabled": 0, "lat": 38.900613166666666, "fusion_lat": 0.0, "is_reserved": 0, "rental_uris": {"android": "https://dc.lft.to/lastmile_qr_scan", "ios": "https://dc.lft.to/lastmile_qr_scan"}, "bike_id": "50d600d98febbc4677da83c8c3d8e6fc"}, {"name": "1aca685a723d1d4efc6aa144e545edc8", "type": "electric_scooter", "fusion_lon": 0.0, "lon": -77.04012983333334, "is_disabled": 0, "lat": 38.921958833333335, "fusion_lat": 0.0, "is_reserved": 0, "rental_uris": {"android": "https://dc.lft.to/lastmile_qr_scan", "ios": "https://dc.lft.to/lastmile_qr_scan"}, "bike_id": "1aca685a723d1d4efc6aa144e545edc8"}, {"name": "1c6bba7100efe29efb76ad8071e2ea40", "type": "electric_scooter", "fusion_lon": 0.0, "lon": -77.022111, "is_disabled": 0, "lat": 38.89230283333333, "fusion_lat": 0.0, "is_reserved": 0, "rental_uris": {"android": "https://dc.lft.to/lastmile_qr_scan", "ios": "https://dc.lft.to/lastmile_qr_scan"}, "bike_id": "1c6bba7100efe29efb76ad8071e2ea40"}, {"name": "93c9e7a7448789c08f79e2991efb2941", "type": "electric_scooter", "fusion_lon": 0.0, "lon": -77.02120366666666, "is_disabled": 0, "lat": 38.93698283333333, "fusion_lat": 0.0, "is_reserved": 0, "rental_uris": {"android": "https://dc.lft.to/lastmile_qr_scan", "ios": "https://dc.lft.to/lastmile_qr_scan"}, "bike_id": "93c9e7a7448789c08f79e2991efb2941"}, {"name": "71c979ac09d69c3fb1113c40e67ebe01", "type": "electric_scooter", "fusion_lon": 0.0, "lon": -77.03223816666667, "is_disabled": 0, "lat": 38.9165275, "fusion_lat": 0.0, "is_reserved": 0, "rental_uris": {"android": "https://dc.lft.to/lastmile_qr_scan", "ios": "https://dc.lft.to/lastmile_qr_scan"}, "bike_id": "71c979ac09d69c3fb1113c40e67ebe01"}, {"name": "03d017d2968f36e56a6b3be41d9c5e7c", "type": "electric_scooter", "fusion_lon": 0.0, "lon": -76.99619183333333, "is_disabled": 0, "lat": 38.90061033333333, "fusion_lat": 0.0, "is_reserved": 0, "rental_uris": {"android": "https://dc.lft.to/lastmile_qr_scan", "ios": "https://dc.lft.to/lastmile_qr_scan"}, "bike_id": "03d017d2968f36e56a6b3be41d9c5e7c"}, {"name": "58f5df24ce9e0fc80e677b3cf28bbd0c", "type": "electric_scooter", "fusion_lon": 0.0, "lon": -76.93213466666667, "is_disabled": 0, "lat": 38.89673483333333, "fusion_lat": 0.0, "is_reserved": 0, "rental_uris": {"android": "https://dc.lft.to/lastmile_qr_scan", "ios": "https://dc.lft.to/lastmile_qr_scan"}, "bike_id": "58f5df24ce9e0fc80e677b3cf28bbd0c"}, {"name": "71098cb186d52c028dfee322eef442b3", "type": "electric_scooter", "fusion_lon": 0.0, "lon": -77.03475716666667, "is_disabled": 0, "lat": 38.917084333333335, "fusion_lat": 0.0, "is_reserved": 0, "rental_uris": {"android": "https://dc.lft.to/lastmile_qr_scan", "ios": "https://dc.lft.to/lastmile_qr_scan"}, "bike_id": "71098cb186d52c028dfee322eef442b3"}, {"name": "c7316bcf0a4ff78e89e2c7b5565f68eb", "type": "electric_scooter", "fusion_lon": 0.0, "lon": -77.0232105, "is_disabled": 0, "lat": 38.90729566666667, "fusion_lat": 0.0, "is_reserved": 0, "rental_uris": {"android": "https://dc.lft.to/lastmile_qr_scan", "ios": "https://dc.lft.to/lastmile_qr_scan"}, "bike_id": "c7316bcf0a4ff78e89e2c7b5565f68eb"}, {"name": "9fd7e656f9aad0cfb8ffa6555ef4a4b0", "type": "electric_scooter", "fusion_lon": 0.0, "lon": -76.98534366666667, "is_disabled": 0, "lat": 38.89987466666667, "fusion_lat": 0.0, "is_reserved": 0, "rental_uris": {"android": "https://dc.lft.to/lastmile_qr_scan", "ios": "https://dc.lft.to/lastmile_qr_scan"}, "bike_id": "9fd7e656f9aad0cfb8ffa6555ef4a4b0"}, {"name": "9f4ead65bb0c7a74e160eae633ea9040", "type": "electric_scooter", "fusion_lon": 0.0, "lon": -77.04722466666666, "is_disabled": 0, "lat": 38.901483166666665, "fusion_lat": 0.0, "is_reserved": 0, "rental_uris": {"android": "https://dc.lft.to/lastmile_qr_scan", "ios": "https://dc.lft.to/lastmile_qr_scan"}, "bike_id": "9f4ead65bb0c7a74e160eae633ea9040"}, {"name": "0bd2f7f777e859e3291d68cf79bc8cd8", "type": "electric_scooter", "fusion_lon": 0.0, "lon": -77.04085816666667, "is_disabled": 0, "lat": 38.896504166666666, "fusion_lat": 0.0, "is_reserved": 0, "rental_uris": {"android": "https://dc.lft.to/lastmile_qr_scan", "ios": "https://dc.lft.to/lastmile_qr_scan"}, "bike_id": "0bd2f7f777e859e3291d68cf79bc8cd8"}, {"name": "32b44bbae6c72d1d8c8c2608df26f964", "type": "electric_scooter", "fusion_lon": 0.0, "lon": -77.042651, "is_disabled": 0, "lat": 38.907231, "fusion_lat": 0.0, "is_reserved": 0, "rental_uris": {"android": "https://dc.lft.to/lastmile_qr_scan", "ios": "https://dc.lft.to/lastmile_qr_scan"}, "bike_id": "32b44bbae6c72d1d8c8c2608df26f964"}, {"name": "df42e4305aa28d60b79809d4b041ee23", "type": "electric_scooter", "fusion_lon": 0.0, "lon": -77.032194, "is_disabled": 0, "lat": 38.914775, "fusion_lat": 0.0, "is_reserved": 0, "rental_uris": {"android": "https://dc.lft.to/lastmile_qr_scan", "ios": "https://dc.lft.to/lastmile_qr_scan"}, "bike_id": "df42e4305aa28d60b79809d4b041ee23"}, {"name": "bafeb7272e5f6fde3b0d5b902b872803", "type": "electric_scooter", "fusion_lon": 0.0, "lon": -77.025122, "is_disabled": 0, "lat": 38.918129666666665, "fusion_lat": 0.0, "is_reserved": 0, "rental_uris": {"android": "https://dc.lft.to/lastmile_qr_scan", "ios": "https://dc.lft.to/lastmile_qr_scan"}, "bike_id": "bafeb7272e5f6fde3b0d5b902b872803"}, {"name": "2061d85a779f7e28ce1c812c9d684122", "type": "electric_scooter", "fusion_lon": 0.0, "lon": -77.02964983333334, "is_disabled": 0, "lat": 38.931487, "fusion_lat": 0.0, "is_reserved": 0, "rental_uris": {"android": "https://dc.lft.to/lastmile_qr_scan", "ios": "https://dc.lft.to/lastmile_qr_scan"}, "bike_id": "2061d85a779f7e28ce1c812c9d684122"}, {"name": "1ee0e5ba78b13a74fd46ae3356a82d61", "type": "electric_scooter", "fusion_lon": 0.0, "lon": -77.0048575, "is_disabled": 0, "lat": 38.874687333333334, "fusion_lat": 0.0, "is_reserved": 0, "rental_uris": {"android": "https://dc.lft.to/lastmile_qr_scan", "ios": "https://dc.lft.to/lastmile_qr_scan"}, "bike_id": "1ee0e5ba78b13a74fd46ae3356a82d61"}, {"name": "1a754c25f6920f5c588d68ed73b0d0b2", "type": "electric_scooter", "fusion_lon": 0.0, "lon": -77.04187866666666, "is_disabled": 0, "lat": 38.92052833333333, "fusion_lat": 0.0, "is_reserved": 0, "rental_uris": {"android": "https://dc.lft.to/lastmile_qr_scan", "ios": "https://dc.lft.to/lastmile_qr_scan"}, "bike_id": "1a754c25f6920f5c588d68ed73b0d0b2"}, {"name": "958eef485685b7f8125b3e2fe01b0aa9", "type": "electric_scooter", "fusion_lon": 0.0, "lon": -77.024767, "is_disabled": 0, "lat": 38.9396705, "fusion_lat": 0.0, "is_reserved": 0, "rental_uris": {"android": "https://dc.lft.to/lastmile_qr_scan", "ios": "https://dc.lft.to/lastmile_qr_scan"}, "bike_id": "958eef485685b7f8125b3e2fe01b0aa9"}, {"name": "e29c2858264744e0f09d69200ccced23", "type": "electric_scooter", "fusion_lon": 0.0, "lon": -77.062028, "is_disabled": 0, "lat": 38.91851366666667, "fusion_lat": 0.0, "is_reserved": 0, "rental_uris": {"android": "https://dc.lft.to/lastmile_qr_scan", "ios": "https://dc.lft.to/lastmile_qr_scan"}, "bike_id": "e29c2858264744e0f09d69200ccced23"}, {"name": "3fba7c700a7783bce010d918829a6522", "type": "electric_scooter", "fusion_lon": 0.0, "lon": -77.03849166666667, "is_disabled": 0, "lat": 38.915463, "fusion_lat": 0.0, "is_reserved": 0, "rental_uris": {"android": "https://dc.lft.to/lastmile_qr_scan", "ios": "https://dc.lft.to/lastmile_qr_scan"}, "bike_id": "3fba7c700a7783bce010d918829a6522"}, {"name": "11866dd1a269bae57456260e4c3efb39", "type": "electric_scooter", "fusion_lon": 0.0, "lon": -77.02336683333333, "is_disabled": 0, "lat": 38.92978766666667, "fusion_lat": 0.0, "is_reserved": 0, "rental_uris": {"android": "https://dc.lft.to/lastmile_qr_scan", "ios": "https://dc.lft.to/lastmile_qr_scan"}, "bike_id": "11866dd1a269bae57456260e4c3efb39"}, {"name": "e7b39182c2b2cbc9c4b8f056e85a627e", "type": "electric_scooter", "fusion_lon": 0.0, "lon": -77.03133316666667, "is_disabled": 0, "lat": 38.904694166666665, "fusion_lat": 0.0, "is_reserved": 0, "rental_uris": {"android": "https://dc.lft.to/lastmile_qr_scan", "ios": "https://dc.lft.to/lastmile_qr_scan"}, "bike_id": "e7b39182c2b2cbc9c4b8f056e85a627e"}, {"name": "750cfcc1fcdda8d1540fc768f3528645", "type": "electric_scooter", "fusion_lon": 0.0, "lon": -77.090521, "is_disabled": 0, "lat": 38.94253633333334, "fusion_lat": 0.0, "is_reserved": 0, "rental_uris": {"android": "https://dc.lft.to/lastmile_qr_scan", "ios": "https://dc.lft.to/lastmile_qr_scan"}, "bike_id": "750cfcc1fcdda8d1540fc768f3528645"}, {"name": "ecbdb89c181f45a47803e71adf57ccc4", "type": "electric_scooter", "fusion_lon": 0.0, "lon": -77.02041466666667, "is_disabled": 0, "lat": 38.920890666666665, "fusion_lat": 0.0, "is_reserved": 0, "rental_uris": {"android": "https://dc.lft.to/lastmile_qr_scan", "ios": "https://dc.lft.to/lastmile_qr_scan"}, "bike_id": "ecbdb89c181f45a47803e71adf57ccc4"}, {"name": "bff376d6623ba69bf5bcf3e7c8858c8e", "type": "electric_scooter", "fusion_lon": 0.0, "lon": -76.997849, "is_disabled": 0, "lat": 38.96156533333333, "fusion_lat": 0.0, "is_reserved": 0, "rental_uris": {"android": "https://dc.lft.to/lastmile_qr_scan", "ios": "https://dc.lft.to/lastmile_qr_scan"}, "bike_id": "bff376d6623ba69bf5bcf3e7c8858c8e"}, {"name": "961ecf7216fe64786bb16337827e6c71", "type": "electric_scooter", "fusion_lon": 0.0, "lon": -76.985447, "is_disabled": 0, "lat": 38.8669345, "fusion_lat": 0.0, "is_reserved": 0, "rental_uris": {"android": "https://dc.lft.to/lastmile_qr_scan", "ios": "https://dc.lft.to/lastmile_qr_scan"}, "bike_id": "961ecf7216fe64786bb16337827e6c71"}, {"name": "008ed150b2f068f921eaeb0f76b9126d", "type": "electric_scooter", "fusion_lon": 0.0, "lon": -77.04333816666667, "is_disabled": 0, "lat": 38.90400733333333, "fusion_lat": 0.0, "is_reserved": 0, "rental_uris": {"android": "https://dc.lft.to/lastmile_qr_scan", "ios": "https://dc.lft.to/lastmile_qr_scan"}, "bike_id": "008ed150b2f068f921eaeb0f76b9126d"}, {"name": "06b80e679c6bf35e6b5787989b44ce59", "type": "electric_scooter", "fusion_lon": 0.0, "lon": -77.02711716666667, "is_disabled": 0, "lat": 38.881384833333335, "fusion_lat": 0.0, "is_reserved": 0, "rental_uris": {"android": "https://dc.lft.to/lastmile_qr_scan", "ios": "https://dc.lft.to/lastmile_qr_scan"}, "bike_id": "06b80e679c6bf35e6b5787989b44ce59"}, {"name": "ea49529d744365dde33058298d56f0f9", "type": "electric_scooter", "fusion_lon": 0.0, "lon": -77.0230055, "is_disabled": 0, "lat": 38.917899, "fusion_lat": 0.0, "is_reserved": 0, "rental_uris": {"android": "https://dc.lft.to/lastmile_qr_scan", "ios": "https://dc.lft.to/lastmile_qr_scan"}, "bike_id": "ea49529d744365dde33058298d56f0f9"}, {"name": "58873cd7704461f67dd8b27561e280b7", "type": "electric_scooter", "fusion_lon": 0.0, "lon": -77.03844666666667, "is_disabled": 0, "lat": 38.90868566666666, "fusion_lat": 0.0, "is_reserved": 0, "rental_uris": {"android": "https://dc.lft.to/lastmile_qr_scan", "ios": "https://dc.lft.to/lastmile_qr_scan"}, "bike_id": "58873cd7704461f67dd8b27561e280b7"}, {"name": "717fb6451f11534216098fb20d7cbee4", "type": "electric_scooter", "fusion_lon": 0.0, "lon": -77.007112, "is_disabled": 0, "lat": 38.8849005, "fusion_lat": 0.0, "is_reserved": 0, "rental_uris": {"android": "https://dc.lft.to/lastmile_qr_scan", "ios": "https://dc.lft.to/lastmile_qr_scan"}, "bike_id": "717fb6451f11534216098fb20d7cbee4"}, {"name": "a24ff915fdf6936d70547cb8f699e199", "type": "electric_scooter", "fusion_lon": 0.0, "lon": -77.0330725, "is_disabled": 0, "lat": 38.956344666666666, "fusion_lat": 0.0, "is_reserved": 0, "rental_uris": {"android": "https://dc.lft.to/lastmile_qr_scan", "ios": "https://dc.lft.to/lastmile_qr_scan"}, "bike_id": "a24ff915fdf6936d70547cb8f699e199"}, {"name": "e6478d1c3037d5b9c78878573b26879f", "type": "electric_scooter", "fusion_lon": 0.0, "lon": -77.03768733333334, "is_disabled": 0, "lat": 38.94349366666667, "fusion_lat": 0.0, "is_reserved": 0, "rental_uris": {"android": "https://dc.lft.to/lastmile_qr_scan", "ios": "https://dc.lft.to/lastmile_qr_scan"}, "bike_id": "e6478d1c3037d5b9c78878573b26879f"}, {"name": "784e696e13c228c47dd420991eeea0e7", "type": "electric_scooter", "fusion_lon": 0.0, "lon": -76.982787, "is_disabled": 0, "lat": 38.867611333333336, "fusion_lat": 0.0, "is_reserved": 0, "rental_uris": {"android": "https://dc.lft.to/lastmile_qr_scan", "ios": "https://dc.lft.to/lastmile_qr_scan"}, "bike_id": "784e696e13c228c47dd420991eeea0e7"}, {"name": "95d797cd14ddc3a4cfbaa2dffed0a080", "type": "electric_scooter", "fusion_lon": 0.0, "lon": -77.01223116666667, "is_disabled": 0, "lat": 38.925992666666666, "fusion_lat": 0.0, "is_reserved": 0, "rental_uris": {"android": "https://dc.lft.to/lastmile_qr_scan", "ios": "https://dc.lft.to/lastmile_qr_scan"}, "bike_id": "95d797cd14ddc3a4cfbaa2dffed0a080"}, {"name": "9baa12cb9059b117be29d7be8b8972d7", "type": "electric_scooter", "fusion_lon": 0.0, "lon": -77.00327016666667, "is_disabled": 0, "lat": 38.88505816666667, "fusion_lat": 0.0, "is_reserved": 0, "rental_uris": {"android": "https://dc.lft.to/lastmile_qr_scan", "ios": "https://dc.lft.to/lastmile_qr_scan"}, "bike_id": "9baa12cb9059b117be29d7be8b8972d7"}, {"name": "0102d819a7d832b6fd631fa9cc22446d", "type": "electric_scooter", "fusion_lon": 0.0, "lon": -77.04350616666666, "is_disabled": 0, "lat": 38.90791433333333, "fusion_lat": 0.0, "is_reserved": 0, "rental_uris": {"android": "https://dc.lft.to/lastmile_qr_scan", "ios": "https://dc.lft.to/lastmile_qr_scan"}, "bike_id": "0102d819a7d832b6fd631fa9cc22446d"}, {"name": "6300c0f9e68ecb79183ec4840829af0d", "type": "electric_scooter", "fusion_lon": 0.0, "lon": -77.052069, "is_disabled": 0, "lat": 38.92463883333333, "fusion_lat": 0.0, "is_reserved": 0, "rental_uris": {"android": "https://dc.lft.to/lastmile_qr_scan", "ios": "https://dc.lft.to/lastmile_qr_scan"}, "bike_id": "6300c0f9e68ecb79183ec4840829af0d"}, {"name": "88b6f1516deed3fe813ca924cf16c3be", "type": "electric_scooter", "fusion_lon": 0.0, "lon": -77.02711783333334, "is_disabled": 0, "lat": 38.91553616666667, "fusion_lat": 0.0, "is_reserved": 0, "rental_uris": {"android": "https://dc.lft.to/lastmile_qr_scan", "ios": "https://dc.lft.to/lastmile_qr_scan"}, "bike_id": "88b6f1516deed3fe813ca924cf16c3be"}, {"name": "fd1457b93da69fb56d07dcbf5e808109", "type": "electric_scooter", "fusion_lon": 0.0, "lon": -77.0391935, "is_disabled": 0, "lat": 38.901472, "fusion_lat": 0.0, "is_reserved": 0, "rental_uris": {"android": "https://dc.lft.to/lastmile_qr_scan", "ios": "https://dc.lft.to/lastmile_qr_scan"}, "bike_id": "fd1457b93da69fb56d07dcbf5e808109"}, {"name": "af5c2bdfb87723fb3a3b111d8b3003cf", "type": "electric_scooter", "fusion_lon": 0.0, "lon": -77.02128916666666, "is_disabled": 0, "lat": 38.923160833333334, "fusion_lat": 0.0, "is_reserved": 0, "rental_uris": {"android": "https://dc.lft.to/lastmile_qr_scan", "ios": "https://dc.lft.to/lastmile_qr_scan"}, "bike_id": "af5c2bdfb87723fb3a3b111d8b3003cf"}, {"name": "406bfc0a370cd7633a3d70f6bd8b1cbe", "type": "electric_scooter", "fusion_lon": 0.0, "lon": -77.025105, "is_disabled": 0, "lat": 38.920832833333336, "fusion_lat": 0.0, "is_reserved": 0, "rental_uris": {"android": "https://dc.lft.to/lastmile_qr_scan", "ios": "https://dc.lft.to/lastmile_qr_scan"}, "bike_id": "406bfc0a370cd7633a3d70f6bd8b1cbe"}, {"name": "b3d8b08f7ffbaaaf94105a1887398a65", "type": "electric_scooter", "fusion_lon": 0.0, "lon": -76.97327583333333, "is_disabled": 0, "lat": 38.8651885, "fusion_lat": 0.0, "is_reserved": 0, "rental_uris": {"android": "https://dc.lft.to/lastmile_qr_scan", "ios": "https://dc.lft.to/lastmile_qr_scan"}, "bike_id": "b3d8b08f7ffbaaaf94105a1887398a65"}, {"name": "4327bb10d4d6769c93374fbf4250d3e6", "type": "electric_scooter", "fusion_lon": 0.0, "lon": -77.0437475, "is_disabled": 0, "lat": 38.8922145, "fusion_lat": 0.0, "is_reserved": 0, "rental_uris": {"android": "https://dc.lft.to/lastmile_qr_scan", "ios": "https://dc.lft.to/lastmile_qr_scan"}, "bike_id": "4327bb10d4d6769c93374fbf4250d3e6"}, {"name": "b93bbe5f0e155eecb66a5514b02678d8", "type": "electric_scooter", "fusion_lon": 0.0, "lon": -77.0512475, "is_disabled": 0, "lat": 38.9252565, "fusion_lat": 0.0, "is_reserved": 0, "rental_uris": {"android": "https://dc.lft.to/lastmile_qr_scan", "ios": "https://dc.lft.to/lastmile_qr_scan"}, "bike_id": "b93bbe5f0e155eecb66a5514b02678d8"}, {"name": "d725a8b91070e536f9ef4429768b134e", "type": "electric_scooter", "fusion_lon": 0.0, "lon": -76.99632, "is_disabled": 0, "lat": 38.899999333333334, "fusion_lat": 0.0, "is_reserved": 0, "rental_uris": {"android": "https://dc.lft.to/lastmile_qr_scan", "ios": "https://dc.lft.to/lastmile_qr_scan"}, "bike_id": "d725a8b91070e536f9ef4429768b134e"}, {"name": "b0c77327df755c4145cf8ab63e0da136", "type": "electric_scooter", "fusion_lon": 0.0, "lon": -76.9463525, "is_disabled": 0, "lat": 38.898642, "fusion_lat": 0.0, "is_reserved": 0, "rental_uris": {"android": "https://dc.lft.to/lastmile_qr_scan", "ios": "https://dc.lft.to/lastmile_qr_scan"}, "bike_id": "b0c77327df755c4145cf8ab63e0da136"}, {"name": "fc65b13636d89ccbc8f9a26330e9e024", "type": "electric_scooter", "fusion_lon": 0.0, "lon": -77.03215716666666, "is_disabled": 0, "lat": 38.907531166666665, "fusion_lat": 0.0, "is_reserved": 0, "rental_uris": {"android": "https://dc.lft.to/lastmile_qr_scan", "ios": "https://dc.lft.to/lastmile_qr_scan"}, "bike_id": "fc65b13636d89ccbc8f9a26330e9e024"}, {"name": "2563815c43872e0029d2f2dc6831aa7e", "type": "electric_scooter", "fusion_lon": 0.0, "lon": -76.987238, "is_disabled": 0, "lat": 38.855993, "fusion_lat": 0.0, "is_reserved": 0, "rental_uris": {"android": "https://dc.lft.to/lastmile_qr_scan", "ios": "https://dc.lft.to/lastmile_qr_scan"}, "bike_id": "2563815c43872e0029d2f2dc6831aa7e"}, {"name": "3bc1f378be458b2a066e4d464bf8f7ef", "type": "electric_scooter", "fusion_lon": 0.0, "lon": -77.00610833333333, "is_disabled": 0, "lat": 38.87566666666667, "fusion_lat": 0.0, "is_reserved": 0, "rental_uris": {"android": "https://dc.lft.to/lastmile_qr_scan", "ios": "https://dc.lft.to/lastmile_qr_scan"}, "bike_id": "3bc1f378be458b2a066e4d464bf8f7ef"}, {"name": "2b2c411e1a59aed110689adc1acac29f", "type": "electric_bike", "fusion_lon": 0.0, "lon": -77.12895716666667, "is_disabled": 0, "lat": 38.90606433333333, "fusion_lat": 0.0, "is_reserved": 0, "rental_uris": {"android": "https://dc.lft.to/lastmile_qr_scan", "ios": "https://dc.lft.to/lastmile_qr_scan"}, "bike_id": "2b2c411e1a59aed110689adc1acac29f"}, {"name": "10c98171d2414806b8b1056ed8646285", "type": "electric_bike", "fusion_lon": 0.0, "lon": -76.96911416666667, "is_disabled": 0, "lat": 38.846178, "fusion_lat": 0.0, "is_reserved": 0, "rental_uris": {"android": "https://dc.lft.to/lastmile_qr_scan", "ios": "https://dc.lft.to/lastmile_qr_scan"}, "bike_id": "10c98171d2414806b8b1056ed8646285"}, {"name": "aabe579e752a5f9dd4d27306a5ede37c", "type": "electric_scooter", "fusion_lon": 0.0, "lon": -77.02277016666666, "is_disabled": 0, "lat": 38.927196333333335, "fusion_lat": 0.0, "is_reserved": 0, "rental_uris": {"android": "https://dc.lft.to/lastmile_qr_scan", "ios": "https://dc.lft.to/lastmile_qr_scan"}, "bike_id": "aabe579e752a5f9dd4d27306a5ede37c"}, {"name": "3676445444ccca020d589757a7a3a568", "type": "electric_scooter", "fusion_lon": 0.0, "lon": -77.01751483333334, "is_disabled": 0, "lat": 38.88636283333334, "fusion_lat": 0.0, "is_reserved": 0, "rental_uris": {"android": "https://dc.lft.to/lastmile_qr_scan", "ios": "https://dc.lft.to/lastmile_qr_scan"}, "bike_id": "3676445444ccca020d589757a7a3a568"}, {"name": "746e6cd6e27215bc80fc572902f43194", "type": "electric_scooter", "fusion_lon": 0.0, "lon": -77.03284816666667, "is_disabled": 0, "lat": 38.92920616666667, "fusion_lat": 0.0, "is_reserved": 0, "rental_uris": {"android": "https://dc.lft.to/lastmile_qr_scan", "ios": "https://dc.lft.to/lastmile_qr_scan"}, "bike_id": "746e6cd6e27215bc80fc572902f43194"},