{"data": {"bikes": [{"lat": 38.96606883333333, "is_disabled": 0, "type": "electric_bike", "lon": -76.98334783333334, "bike_id": "da1b78efdab52cbc98087b277a2fdf4a", "fusion_lat": 0.0, "name": "da1b78efdab52cbc98087b277a2fdf4a", "is_reserved": 0, "rental_uris": {"android": "https://dc.lft.to/lastmile_qr_scan", "ios": "https://dc.lft.to/lastmile_qr_scan"}, "fusion_lon": 0.0}, {"lat": 38.92568833333333, "is_disabled": 0, "type": "electric_scooter", "lon": -76.97006233333333, "bike_id": "4d97e36baf55d7fa6239b7331a5cb77f", "fusion_lat": 0.0, "name": "4d97e36baf55d7fa6239b7331a5cb77f", "is_reserved": 0, "rental_uris": {"android": "https://dc.lft.to/lastmile_qr_scan", "ios": "https://dc.lft.to/lastmile_qr_scan"}, "fusion_lon": 0.0}, {"lat": 38.93641516666667, "is_disabled": 0, "type": "electric_bike", "lon": -77.0328275, "bike_id": "7c9c47989a307e7c55df9dee20ddec99", "fusion_lat": 0.0, "name": "7c9c47989a307e7c55df9dee20ddec99", "is_reserved": 0, "rental_uris": {"android": "https://dc.lft.to/lastmile_qr_scan", "ios": "https://dc.lft.to/lastmile_qr_scan"}, "fusion_lon": 0.0}, {"lat": 38.9333055, "is_disabled": 0, "type": "electric_scooter", "lon": -77.05708333333334, "bike_id": "18c91c52c407c4f13cd38fdedeaceb71", "fusion_lat": 0.0, "name": "18c91c52c407c4f13cd38fdedeaceb71", "is_reserved": 0, "rental_uris": {"android": "https://dc.lft.to/lastmile_qr_scan", "ios": "https://dc.lft.to/lastmile_qr_scan"}, "fusion_lon": 0.0}, {"lat": 38.93821966666667, "is_disabled": 0, "type": "electric_scooter", "lon": -77.06050566666667, "bike_id": "e1c730cf68661b9fdad9880309e3a5f2", "fusion_lat": 0.0, "name": "e1c730cf68661b9fdad9880309e3a5f2", "is_reserved": 0, "rental_uris": {"android": "https://dc.lft.to/lastmile_qr_scan", "ios": "https://dc.lft.to/lastmile_qr_scan"}, "fusion_lon": 0.0}, {"lat": 38.92690783333333, "is_disabled": 0, "type": "electric_scooter", "lon": -77.02578566666666, "bike_id": "b167e60aded3a3c9fa44742dd2ffea4e", "fusion_lat": 0.0, "name": "b167e60aded3a3c9fa44742dd2ffea4e", "is_reserved": 0, "rental_uris": {"android": "https://dc.lft.to/lastmile_qr_scan", "ios": "https://dc.lft.to/lastmile_qr_scan"}, "fusion_lon": 0.0}, {"lat": 38.899844333333334, "is_disabled": 0, "type": "electric_bike", "lon": -76.98550966666667, "bike_id": "bf95d866109d754e34c7cefc4e5059f5", "fusion_lat": 0.0, "name": "bf95d866109d754e34c7cefc4e5059f5", "is_reserved": 0, "rental_uris": {"android": "https://dc.lft.to/lastmile_qr_scan", "ios": "https://dc.lft.to/lastmile_qr_scan"}, "fusion_lon": 0.0}, {"lat": 38.92318933333333, "is_disabled": 0, "type": "electric_scooter", "lon": -77.02965083333333, "bike_id": "1232fe52046a15b93edc6a25b80742aa", "fusion_lat": 0.0, "name": "1232fe52046a15b93edc6a25b80742aa", "is_reserved": 0, "rental_uris": {"android": "https://dc.lft.to/lastmile_qr_scan", "ios": "https://dc.lft.to/lastmile_qr_scan"}, "fusion_lon": 0.0}, {"lat": 38.898390166666665, "is_disabled": 0, "type": "electric_scooter", "lon": -76.93103266666667, "bike_id": "994e2dd0537be4944261007dc2a86945", "fusion_lat": 0.0, "name": "994e2dd0537be4944261007dc2a86945", "is_reserved": 0, "rental_uris": {"android": "https://dc.lft.to/lastmile_qr_scan", "ios": "https://dc.lft.to/lastmile_qr_scan"}, "fusion_lon": 0.0}, {"lat": 38.90234516666666, "is_disabled": 0, "type": "electric_scooter", "lon": -77.0534245, "bike_id": "f133701f88beb4a38b930267d3fc6cbf", "fusion_lat": 0.0, "name": "f133701f88beb4a38b930267d3fc6cbf", "is_reserved": 0, "rental_uris": {"android": "https://dc.lft.to/lastmile_qr_scan", "ios": "https://dc.lft.to/lastmile_qr_scan"}, "fusion_lon": 0.0}, {"lat": 38.9373665, "is_disabled": 0, "type": "electric_scooter", "lon": -77.03268666666666, "bike_id": "e1598cd62449fd5c0005bc59378c9589", "fusion_lat": 0.0, "name": "e1598cd62449fd5c0005bc59378c9589", "is_reserved": 0, "rental_uris": {"android": "https://dc.lft.to/lastmile_qr_scan", "ios": "https://dc.lft.to/lastmile_qr_scan"}, "fusion_lon": 0.0}, {"lat": 38.93355866666667, "is_disabled": 0, "type": "electric_scooter", "lon": -77.07378216666666, "bike_id": "2266afd48fd00ec889c524f581508cf2", "fusion_lat": 0.0, "name": "2266afd48fd00ec889c524f581508cf2", "is_reserved": 0, "rental_uris": {"android": "https://dc.lft.to/lastmile_qr_scan", "ios": "https://dc.lft.to/lastmile_qr_scan"}, "fusion_lon": 0.0}, {"lat": 38.89251, "is_disabled": 0, "type": "electric_scooter", "lon": -77.04895433333333, "bike_id": "6be51e0fc10b878e3d4a8276691eed09", "fusion_lat": 0.0, "name": "6be51e0fc10b878e3d4a8276691eed09", "is_reserved": 0, "rental_uris": {"android": "https://dc.lft.to/lastmile_qr_scan", "ios": "https://dc.lft.to/lastmile_qr_scan"}, "fusion_lon": 0.0}, {"lat": 38.884390333333336, "is_disabled": 0, "type": "electric_scooter", "lon": -77.03040916666667, "bike_id": "6ce069d408d552236cd79f6ba6f2257c", "fusion_lat": 0.0, "name": "6ce069d408d552236cd79f6ba6f2257c", "is_reserved": 0, "rental_uris": {"android": "https://dc.lft.to/lastmile_qr_scan", "ios": "https://dc.lft.to/lastmile_qr_scan"}, "fusion_lon": 0.0}, {"lat": 38.9055445, "is_disabled": 0, "type": "electric_scooter", "lon": -77.05693916666667, "bike_id": "99587175a38058406a85b19e929caeb5", "fusion_lat": 0.0, "name": "99587175a38058406a85b19e929caeb5", "is_reserved": 0, "rental_uris": {"android": "https://dc.lft.to/lastmile_qr_scan", "ios": "https://dc.lft.to/lastmile_qr_scan"}, "fusion_lon": 0.0}, {"lat": 38.920673666666666, "is_disabled": 0, "type": "electric_scooter", "lon": -76.97601266666666, "bike_id": "f3940080d6519aaa4620067df3492911", "fusion_lat": 0.0, "name": "f3940080d6519aaa4620067df3492911", "is_reserved": 0, "rental_uris": {"android": "https://dc.lft.to/lastmile_qr_scan", "ios": "https://dc.lft.to/lastmile_qr_scan"}, "fusion_lon": 0.0}, {"lat": 38.87914166666667, "is_disabled": 0, "type": "electric_scooter", "lon": -76.99153483333333, "bike_id": "724ee181b25a365fba33bd74312a3aef", "fusion_lat": 0.0, "name": "724ee181b25a365fba33bd74312a3aef", "is_reserved": 0, "rental_uris": {"android": "https://dc.lft.to/lastmile_qr_scan", "ios": "https://dc.lft.to/lastmile_qr_scan"}, "fusion_lon": 0.0}, {"lat": 38.96156916666666, "is_disabled": 0, "type": "electric_scooter", "lon": -77.02781466666667, "bike_id": "55e47cce249e4dd682cace3ebd57eab4", "fusion_lat": 0.0, "name": "55e47cce249e4dd682cace3ebd57eab4", "is_reserved": 0, "rental_uris": {"android": "https://dc.lft.to/lastmile_qr_scan", "ios": "https://dc.lft.to/lastmile_qr_scan"}, "fusion_lon": 0.0}, {"lat": 38.959608333333335, "is_disabled": 0, "type": "electric_bike", "lon": -77.10087233333333, "bike_id": "e1ff034dbca254705da33320fa479a30", "fusion_lat": 0.0, "name": "e1ff034dbca254705da33320fa479a30", "is_reserved": 0, "rental_uris": {"android": "https://dc.lft.to/lastmile_qr_scan", "ios": "https://dc.lft.to/lastmile_qr_scan"}, "fusion_lon": 0.0}, {"lat": 38.931433, "is_disabled": 0, "type": "electric_scooter", "lon": -77.03829516666667, "bike_id": "4b99214da13af0f5f20e47858c89cc3e", "fusion_lat": 0.0, "name": "4b99214da13af0f5f20e47858c89cc3e", "is_reserved": 0, "rental_uris": {"android": "https://dc.lft.to/lastmile_qr_scan", "ios": "https://dc.lft.to/lastmile_qr_scan"}, "fusion_lon": 0.0}, {"lat": 38.91715416666667, "is_disabled": 0, "type": "electric_scooter", "lon": -77.03860266666666, "bike_id": "bd8809f248a6c923b74d60ab3e68ad65", "fusion_lat": 0.0, "name": "bd8809f248a6c923b74d60ab3e68ad65", "is_reserved": 0, "rental_uris": {"android": "https://dc.lft.to/lastmile_qr_scan", "ios": "https://dc.lft.to/lastmile_qr_scan"}, "fusion_lon": 0.0}, {"lat": 38.84262583333334, "is_disabled": 0, "type": "electric_scooter", "lon": -77.002394, "bike_id": "25370abe209d38d1f7eaed6fe3b1036b", "fusion_lat": 0.0, "name": "25370abe209d38d1f7eaed6fe3b1036b", "is_reserved": 0, "rental_uris": {"android": "https://dc.lft.to/lastmile_qr_scan", "ios": "https://dc.lft.to/lastmile_qr_scan"}, "fusion_lon": 0.0}, {"lat": 38.8804635, "is_disabled": 0, "type": "electric_scooter", "lon": -76.9863115, "bike_id": "00c83043c1067d0be18b6eb7f801bbb2", "fusion_lat": 0.0, "name": "00c83043c1067d0be18b6eb7f801bbb2", "is_reserved": 0, "rental_uris": {"android": "https://dc.lft.to/lastmile_qr_scan", "ios": "https://dc.lft.to/lastmile_qr_scan"}, "fusion_lon": 0.0}, {"lat": 38.887457833333336, "is_disabled": 0, "type": "electric_scooter", "lon": -77.02172216666666, "bike_id": "585ed461afcb7f544d1388fa2b43abc6", "fusion_lat": 0.0, "name": "585ed461afcb7f544d1388fa2b43abc6", "is_reserved": 0, "rental_uris": {"android": "https://dc.lft.to/lastmile_qr_scan", "ios": "https://dc.lft.to/lastmile_qr_scan"}, "fusion_lon": 0.0}, {"lat": 38.920679666666665, "is_disabled": 0, "type": "electric_scooter", "lon": -77.04334116666666, "bike_id": "f721ed2f2cf7216bb34a1a88464da412", "fusion_lat": 0.0, "name": "f721ed2f2cf7216bb34a1a88464da412", "is_reserved": 0, "rental_uris": {"android": "https://dc.lft.to/lastmile_qr_scan", "ios": "https://dc.lft.to/lastmile_qr_scan"}, "fusion_lon": 0.0}, {"lat": 38.89861766666667, "is_disabled": 0, "type": "electric_scooter", "lon": -77.01902216666667, "bike_id": "b7a85130d9c7b9dd7d7bb7f868b5bb2e", "fusion_lat": 0.0, "name": "b7a85130d9c7b9dd7d7bb7f868b5bb2e", "is_reserved": 0, "rental_uris": {"android": "https://dc.lft.to/lastmile_qr_scan", "ios": "https://dc.lft.to/lastmile_qr_scan"}, "fusion_lon": 0.0}, {"lat": 38.90360616666667, "is_disabled": 0, "type": "electric_scooter", "lon": -77.060207, "bike_id": "f8cdfe8432c8b846bf1f99510bd1e8b5", "fusion_lat": 0.0, "name": "f8cdfe8432c8b846bf1f99510bd1e8b5", "is_reserved": 0, "rental_uris": {"android": "https://dc.lft.to/lastmile_qr_scan", "ios": "https://dc.lft.to/lastmile_qr_scan"}, "fusion_lon": 0.0}, {"lat": 38.955550333333335, "is_disabled": 0, "type": "electric_bike", "lon": -76.93542366666667, "bike_id": "3eb09f3e9c59eb0fb4b18bb9ba3805f2", "fusion_lat": 0.0, "name": "3eb09f3e9c59eb0fb4b18bb9ba3805f2", "is_reserved": 0, "rental_uris": {"android": "https://dc.lft.to/lastmile_qr_scan", "ios": "https://dc.lft.to/lastmile_qr_scan"}, "fusion_lon": 0.0}, {"lat": 38.931952833333334, "is_disabled": 0, "type": "electric_bike", "lon": -77.07819066666667, "bike_id": "4707035b351d39fd010058447b77b86f", "fusion_lat": 0.0, "name": "4707035b351d39fd010058447b77b86f", "is_reserved": 0, "rental_uris": {"android": "https://dc.lft.to/lastmile_qr_scan", "ios": "https://dc.lft.to/lastmile_qr_scan"}, "fusion_lon": 0.0}, {"lat": 38.91481666666667, "is_disabled": 0, "type": "electric_scooter", "lon": -77.01817633333333, "bike_id": "820e26331ea559197cac62c167c44280", "fusion_lat": 0.0, "name": "820e26331ea559197cac62c167c44280", "is_reserved": 0, "rental_uris": {"android": "https://dc.lft.to/lastmile_qr_scan", "ios": "https://dc.lft.to/lastmile_qr_scan"}, "fusion_lon": 0.0}, {"lat": 38.899174333333335, "is_disabled": 0, "type": "electric_scooter", "lon": -76.9338065, "bike_id": "07404b32ec6592706ec22f3467688e04", "fusion_lat": 0.0, "name": "07404b32ec6592706ec22f3467688e04", "is_reserved": 0, "rental_uris": {"android": "https://dc.lft.to/lastmile_qr_scan", "ios": "https://dc.lft.to/lastmile_qr_scan"}, "fusion_lon": 0.0}, {"lat": 38.926845, "is_disabled": 0, "type": "electric_scooter", "lon": -77.05103133333333, "bike_id": "0c9fa8d7b907bedc14d56af63b310964", "fusion_lat": 0.0, "name": "0c9fa8d7b907bedc14d56af63b310964", "is_reserved": 0, "rental_uris": {"android": "https://dc.lft.to/lastmile_qr_scan", "ios": "https://dc.lft.to/lastmile_qr_scan"}, "fusion_lon": 0.0}, {"lat": 38.957769, "is_disabled": 0, "type": "electric_scooter", "lon": -77.0246505, "bike_id": "6d3de5308cb90ca28ca475968296dbaa", "fusion_lat": 0.0, "name": "6d3de5308cb90ca28ca475968296dbaa", "is_reserved": 0, "rental_uris": {"android": "https://dc.lft.to/lastmile_qr_scan", "ios": "https://dc.lft.to/lastmile_qr_scan"}, "fusion_lon": 0.0}, {"lat": 38.902605, "is_disabled": 0, "type": "electric_scooter", "lon": -77.01619783333334, "bike_id": "a0c12c1da4403d4be5c87e58fd4f31af", "fusion_lat": 0.0, "name": "a0c12c1da4403d4be5c87e58fd4f31af", "is_reserved": 0, "rental_uris": {"android": "https://dc.lft.to/lastmile_qr_scan", "ios": "https://dc.lft.to/lastmile_qr_scan"}, "fusion_lon": 0.0}, {"lat": 38.88048416666667, "is_disabled": 0, "type": "electric_scooter", "lon": -77.01766483333333, "bike_id": "cfb78c9571abe079984dc8d84a00c535", "fusion_lat": 0.0, "name": "cfb78c9571abe079984dc8d84a00c535", "is_reserved": 0, "rental_uris": {"android": "https://dc.lft.to/lastmile_qr_scan", "ios": "https://dc.lft.to/lastmile_qr_scan"}, "fusion_lon": 0.0}, {"lat": 38.842933, "is_disabled": 0, "type": "electric_scooter", "lon": -76.99948633333334, "bike_id": "b61c526eb7f25180d1443d8f1fcce9ee", "fusion_lat": 0.0, "name": "b61c526eb7f25180d1443d8f1fcce9ee", "is_reserved": 0, "rental_uris": {"android": "https://dc.lft.to/lastmile_qr_scan", "ios": "https://dc.lft.to/lastmile_qr_scan"}, "fusion_lon": 0.0}, {"lat": 38.8634925, "is_disabled": 0, "type": "electric_scooter", "lon": -76.98998033333334, "bike_id": "17392c2f2b79778ceb1ab64e5d3c4a81", "fusion_lat": 0.0, "name": "17392c2f2b79778ceb1ab64e5d3c4a81", "is_reserved": 0, "rental_uris": {"android": "https://dc.lft.to/lastmile_qr_scan", "ios": "https://dc.lft.to/lastmile_qr_scan"}, "fusion_lon": 0.0}, {"lat": 38.939830666666666, "is_disabled": 0, "type": "electric_scooter", "lon": -77.03261383333333, "bike_id": "a448c09057a88cb1dc90af9a3b0ddef3", "fusion_lat": 0.0, "name": "a448c09057a88cb1dc90af9a3b0ddef3", "is_reserved": 0, "rental_uris": {"android": "https://dc.lft.to/lastmile_qr_scan", "ios": "https://dc.lft.to/lastmile_qr_scan"}, "fusion_lon": 0.0}, {"lat": 38.87233, "is_disabled": 0, "type": "electric_scooter", "lon": -77.01188216666667, "bike_id": "1774a9812d33b17a54dd59cb59ebab3c", "fusion_lat": 0.0, "name": "1774a9812d33b17a54dd59cb59ebab3c", "is_reserved": 0, "rental_uris": {"android": "https://dc.lft.to/lastmile_qr_scan", "ios": "https://dc.lft.to/lastmile_qr_scan"}, "fusion_lon": 0.0}, {"lat": 38.934768166666665, "is_disabled": 0, "type": "electric_scooter", "lon": -77.033982, "bike_id": "6130cd05a9c96edad0629a8abb19e77b", "fusion_lat": 0.0, "name": "6130cd05a9c96edad0629a8abb19e77b", "is_reserved": 0, "rental_uris": {"android": "https://dc.lft.to/lastmile_qr_scan", "ios": "https://dc.lft.to/lastmile_qr_scan"}, "fusion_lon": 0.0}, {"lat": 38.887432833333335, "is_disabled": 0, "type": "electric_scooter", "lon": -77.02069316666666, "bike_id": "6ab6bd5d4f3a554cb2b7b88d8d36368e", "fusion_lat": 0.0, "name": "6ab6bd5d4f3a554cb2b7b88d8d36368e", "is_reserved": 0, "rental_uris": {"android": "https://dc.lft.to/lastmile_qr_scan", "ios": "https://dc.lft.to/lastmile_qr_scan"}, "fusion_lon": 0.0}, {"lat": 38.90389283333333, "is_disabled": 0, "type": "electric_scooter", "lon": -77.0465545, "bike_id": "9393fb2abfb303a94c27e6ec0aecc792", "fusion_lat": 0.0, "name": "9393fb2abfb303a94c27e6ec0aecc792", "is_reserved": 0, "rental_uris": {"android": "https://dc.lft.to/lastmile_qr_scan", "ios": "https://dc.lft.to/lastmile_qr_scan"}, "fusion_lon": 0.0}, {"lat": 38.901398666666665, "is_disabled": 0, "type": "electric_scooter", "lon": -77.00345533333333, "bike_id": "63a105dd558bb1c530aa616b81cc7ef5", "fusion_lat": 0.0, "name": "63a105dd558bb1c530aa616b81cc7ef5", "is_reserved": 0, "rental_uris": {"android": "https://dc.lft.to/lastmile_qr_scan", "ios": "https://dc.lft.to/lastmile_qr_scan"}, "fusion_lon": 0.0}, {"lat": 38.85318933333333, "is_disabled": 0, "type": "electric_scooter", "lon": -76.9803, "bike_id": "c7920f6369db782c25b71946931184c3", "fusion_lat": 0.0, "name": "c7920f6369db782c25b71946931184c3", "is_reserved": 0, "rental_uris": {"android": "https://dc.lft.to/lastmile_qr_scan", "ios": "https://dc.lft.to/lastmile_qr_scan"}, "fusion_lon": 0.0}, {"lat": 38.8740465, "is_disabled": 0, "type": "electric_scooter", "lon": -77.01451116666667, "bike_id": "dc41f3c3bcca7c3557f757158915610a", "fusion_lat": 0.0, "name": "dc41f3c3bcca7c3557f757158915610a", "is_reserved": 0, "rental_uris": {"android": "https://dc.lft.to/lastmile_qr_scan", "ios": "https://dc.lft.to/lastmile_qr_scan"}, "fusion_lon": 0.0}, {"lat": 38.937416666666664, "is_disabled": 0, "type": "electric_scooter", "lon": -77.03491883333334, "bike_id": "b8b82dfaa5d4d7fc1e603ebed6d343a4", "fusion_lat": 0.0, "name": "b8b82dfaa5d4d7fc1e603ebed6d343a4", "is_reserved": 0, "rental_uris": {"android": "https://dc.lft.to/lastmile_qr_scan", "ios": "https://dc.lft.to/lastmile_qr_scan"}, "fusion_lon": 0.0}, {"lat": 38.91421583333333, "is_disabled": 0, "type": "electric_scooter", "lon": -77.03256266666666, "bike_id": "cab9a0184a18ca24a0a88ac637f764af", "fusion_lat": 0.0, "name": "cab9a0184a18ca24a0a88ac637f764af", "is_reserved": 0, "rental_uris": {"android": "https://dc.lft.to/lastmile_qr_scan", "ios": "https://dc.lft.to/lastmile_qr_scan"}, "fusion_lon": 0.0}, {"lat": 38.881132666666666, "is_disabled": 0, "type": "electric_scooter", "lon": -77.0197985, "bike_id": "d46703c3965d187fadec0813b9a2f71b", "fusion_lat": 0.0, "name": "d46703c3965d187fadec0813b9a2f71b", "is_reserved": 0, "rental_uris": {"android": "https://dc.lft.to/lastmile_qr_scan", "ios": "https://dc.lft.to/lastmile_qr_scan"}, "fusion_lon": 0.0}, {"lat": 38.907315833333335, "is_disabled": 0, "type": "electric_scooter", "lon": -77.029766, "bike_id": "33e58cd536d399b0de304267313b5de6", "fusion_lat": 0.0, "name": "33e58cd536d399b0de304267313b5de6", "is_reserved": 0, "rental_uris": {"android": "https://dc.lft.to/lastmile_qr_scan", "ios": "https://dc.lft.to/lastmile_qr_scan"}, "fusion_lon": 0.0}, {"lat": 38.926164666666665, "is_disabled": 0, "type": "electric_scooter", "lon": -77.04405333333334, "bike_id": "e22c10f4931f5d880e9dc2fdc044f0c1", "fusion_lat": 0.0, "name": "e22c10f4931f5d880e9dc2fdc044f0c1", "is_reserved": 0, "rental_uris": {"android": "https://dc.lft.to/lastmile_qr_scan", "ios": "https://dc.lft.to/lastmile_qr_scan"}, "fusion_lon": 0.0}, {"lat": 38.896128166666664, "is_disabled": 0, "type": "electric_scooter", "lon": -76.95660733333334, "bike_id": "29421969ae4c28acaf79e22d504bbd9a", "fusion_lat": 0.0, "name": "29421969ae4c28acaf79e22d504bbd9a", "is_reserved": 0, "rental_uris": {"android": "https://dc.lft.to/lastmile_qr_scan", "ios": "https://dc.lft.to/lastmile_qr_scan"}, "fusion_lon": 0.0}, {"lat": 38.904984166666665, "is_disabled": 0, "type": "electric_scooter", "lon": -77.0683135, "bike_id": "0035464e286b89eb47e55e665b8ebfa3", "fusion_lat": 0.0, "name": "0035464e286b89eb47e55e665b8ebfa3", "is_reserved": 0, "rental_uris": {"android": "https://dc.lft.to/lastmile_qr_scan", "ios": "https://dc.lft.to/lastmile_qr_scan"}, "fusion_lon": 0.0}, {"lat": 38.904916666666665, "is_disabled": 0, "type": "electric_scooter", "lon": -76.98712333333333, "bike_id": "ab319b944445ffc623cec94c742b31dc", "fusion_lat": 0.0, "name": "ab319b944445ffc623cec94c742b31dc", "is_reserved": 0, "rental_uris": {"android": "https://dc.lft.to/lastmile_qr_scan", "ios": "https://dc.lft.to/lastmile_qr_scan"}, "fusion_lon": 0.0}, {"lat": 38.8734105, "is_disabled": 0, "type": "electric_scooter", "lon": -76.9916325, "bike_id": "ffd856974a42191d8e2d52abdea81542", "fusion_lat": 0.0, "name": "ffd856974a42191d8e2d52abdea81542", "is_reserved": 0, "rental_uris": {"android": "https://dc.lft.to/lastmile_qr_scan", "ios": "https://dc.lft.to/lastmile_qr_scan"}, "fusion_lon": 0.0}, {"lat": 38.9443785, "is_disabled": 0, "type": "electric_scooter", "lon": -77.0635025, "bike_id": "331f7ff181c69cf2b1af5dad17c136fb", "fusion_lat": 0.0, "name": "331f7ff181c69cf2b1af5dad17c136fb", "is_reserved": 0, "rental_uris": {"android": "https://dc.lft.to/lastmile_qr_scan", "ios": "https://dc.lft.to/lastmile_qr_scan"}, "fusion_lon": 0.0}, {"lat": 38.938885166666665, "is_disabled": 0, "type": "electric_scooter", "lon": -77.028207, "bike_id": "0c9c4a4bdc0b791914035bf63fdb9cd9", "fusion_lat": 0.0, "name": "0c9c4a4bdc0b791914035bf63fdb9cd9", "is_reserved": 0, "rental_uris": {"android": "https://dc.lft.to/lastmile_qr_scan", "ios": "https://dc.lft.to/lastmile_qr_scan"}, "fusion_lon": 0.0}, {"lat": 38.915530833333335, "is_disabled": 0, "type": "electric_scooter", "lon": -77.041554, "bike_id": "4d605109db72869299a9331c71e1121d", "fusion_lat": 0.0, "name": "4d605109db72869299a9331c71e1121d", "is_reserved": 0, "rental_uris": {"android": "https://dc.lft.to/lastmile_qr_scan", "ios": "https://dc.lft.to/lastmile_qr_scan"}, "fusion_lon": 0.0}, {"lat": 38.924840333333336, "is_disabled": 0, "type": "electric_scooter", "lon": -77.026479, "bike_id": "1ec57e6b6d08ab1455dacd800f6dcee0", "fusion_lat": 0.0, "name": "1ec57e6b6d08ab1455dacd800f6dcee0", "is_reserved": 0, "rental_uris": {"android": "https://dc.lft.to/lastmile_qr_scan", "ios": "https://dc.lft.to/lastmile_qr_scan"}, "fusion_lon": 0.0}, {"lat": 38.904903833333336, "is_disabled": 0, "type": "electric_scooter", "lon": -77.01996116666666, "bike_id": "ebd65281ed51c19028360b5ecef8d6f2", "fusion_lat": 0.0, "name": "ebd65281ed51c19028360b5ecef8d6f2", "is_reserved": 0, "rental_uris": {"android": "https://dc.lft.to/lastmile_qr_scan", "ios": "https://dc.lft.to/lastmile_qr_scan"}, "fusion_lon": 0.0}, {"lat": 38.912251833333336, "is_disabled": 0, "type": "electric_scooter", "lon": -77.00198283333333, "bike_id": "a923233644178d919f1bd7ec8b79c34a", "fusion_lat": 0.0, "name": "a923233644178d919f1bd7ec8b79c34a", "is_reserved": 0, "rental_uris": {"android": "https://dc.lft.to/lastmile_qr_scan", "ios": "https://dc.lft.to/lastmile_qr_scan"}, "fusion_lon": 0.0}, {"lat": 38.883954333333335, "is_disabled": 0, "type": "electric_scooter", "lon": -77.01889416666667, "bike_id": "e0550fd462fe836f0e84db87f8056de8", "fusion_lat": 0.0, "name": "e0550fd462fe836f0e84db87f8056de8", "is_reserved": 0, "rental_uris": {"android": "https://dc.lft.to/lastmile_qr_scan", "ios": "https://dc.lft.to/lastmile_qr_scan"}, "fusion_lon": 0.0}, {"lat": 38.9091635, "is_disabled": 0, "type": "electric_scooter", "lon": -77.03644, "bike_id": "95521a465d605ab9181cbb70da1447bd", "fusion_lat": 0.0, "name": "95521a465d605ab9181cbb70da1447bd", "is_reserved": 0, "rental_uris": {"android": "https://dc.lft.to/lastmile_qr_scan", "ios": "https://dc.lft.to/lastmile_qr_scan"}, "fusion_lon": 0.0}, {"lat": 38.86891466666667, "is_disabled": 0, "type": "electric_scooter", "lon": -76.9831135, "bike_id": "4c19f9d49fd00310bb7a776d1880d2a7", "fusion_lat": 0.0, "name": "4c19f9d49fd00310bb7a776d1880d2a7", "is_reserved": 0, "rental_uris": {"android": "https://dc.lft.to/lastmile_qr_scan", "ios": "https://dc.lft.to/lastmile_qr_scan"}, "fusion_lon": 0.0}, {"lat": 38.924330833333336, "is_disabled": 0, "type": "electric_scooter", "lon": -77.04249116666666, "bike_id": "f92785ef9e0d352aecf72baac151b0c7", "fusion_lat": 0.0, "name": "f92785ef9e0d352aecf72baac151b0c7", "is_reserved": 0, "rental_uris": {"android": "https://dc.lft.to/lastmile_qr_scan", "ios": "https://dc.lft.to/lastmile_qr_scan"}, "fusion_lon": 0.0}, {"lat": 38.92489, "is_disabled": 0, "type": "electric_scooter", "lon": -77.05214966666666, "bike_id": "42d7035be5fe32da1886841780768289", "fusion_lat": 0.0, "name": "42d7035be5fe32da1886841780768289", "is_reserved": 0, "rental_uris": {"android": "https://dc.lft.to/lastmile_qr_scan", "ios": "https://dc.lft.to/lastmile_qr_scan"}, "fusion_lon": 0.0}, {"lat": 38.899179833333335, "is_disabled": 0, "type": "electric_scooter", "lon": -77.02176583333333, "bike_id": "c7e88e3c718c4e1b0ef02d7cd4030310", "fusion_lat": 0.0, "name": "c7e88e3c718c4e1b0ef02d7cd4030310", "is_reserved": 0, "rental_uris": {"android": "https://dc.lft.to/lastmile_qr_scan", "ios": "https://dc.lft.to/lastmile_qr_scan"}, "fusion_lon": 0.0}, {"lat": 38.9117465, "is_disabled": 0, "type": "electric_scooter", "lon": -77.03863966666667, "bike_id": "81d4d7ecc8ecd1f73be0ae567e4c0793", "fusion_lat": 0.0, "name": "81d4d7ecc8ecd1f73be0ae567e4c0793", "is_reserved": 0, "rental_uris": {"android": "https://dc.lft.to/lastmile_qr_scan", "ios": "https://dc.lft.to/lastmile_qr_scan"}, "fusion_lon": 0.0}, {"lat": 38.90572433333333, "is_disabled": 0, "type": "electric_scooter", "lon": -76.988735, "bike_id": "db70f628be3c991dbfa3eafc74452944", "fusion_lat": 0.0, "name": "db70f628be3c991dbfa3eafc74452944", "is_reserved": 0, "rental_uris": {"android": "https://dc.lft.to/lastmile_qr_scan", "ios": "https://dc.lft.to/lastmile_qr_scan"}, "fusion_lon": 0.0}, {"lat": 38.866543666666665, "is_disabled": 0, "type": "electric_scooter", "lon": -76.988819, "bike_id": "c1eaaa89e262224ced8e7973656cfbed", "fusion_lat": 0.0, "name": "c1eaaa89e262224ced8e7973656cfbed", "is_reserved": 0, "rental_uris": {"android": "https://dc.lft.to/lastmile_qr_scan", "ios": "https://dc.lft.to/lastmile_qr_scan"}, "fusion_lon": 0.0}, {"lat": 38.917184, "is_disabled": 0, "type": "electric_scooter", "lon": -77.0386, "bike_id": "fd99c3cf65e3e2f855cad41f4b12db5c", "fusion_lat": 0.0, "name": "fd99c3cf65e3e2f855cad41f4b12db5c", "is_reserved": 0, "rental_uris": {"android": "https://dc.lft.to/lastmile_qr_scan", "ios": "https://dc.lft.to/lastmile_qr_scan"}, "fusion_lon": 0.0}, {"lat": 38.93345766666667, "is_disabled": 0, "type": "electric_scooter", "lon": -77.05866283333333, "bike_id": "56e93a77901c3a13da55996d7866b939", "fusion_lat": 0.0, "name": "56e93a77901c3a13da55996d7866b939", "is_reserved": 0, "rental_uris": {"android": "https://dc.lft.to/lastmile_qr_scan", "ios": "https://dc.lft.to/lastmile_qr_scan"}, "fusion_lon": 0.0}, {"lat": 38.897859833333335, "is_disabled": 0, "type": "electric_scooter", "lon": -77.05147, "bike_id": "8cd051135a863a6efc31f0ce1badd2f9", "fusion_lat": 0.0, "name": "8cd051135a863a6efc31f0ce1badd2f9", "is_reserved": 0, "rental_uris": {"android": "https://dc.lft.to/lastmile_qr_scan", "ios": "https://dc.lft.to/lastmile_qr_scan"}, "fusion_lon": 0.0}, {"lat": 38.92299366666667, "is_disabled": 0, "type": "electric_scooter", "lon": -77.041377, "bike_id": "82f245a43c2c186f9195689f2e1c3cb5", "fusion_lat": 0.0, "name": "82f245a43c2c186f9195689f2e1c3cb5", "is_reserved": 0, "rental_uris": {"android": "https://dc.lft.to/lastmile_qr_scan", "ios": "https://dc.lft.to/lastmile_qr_scan"}, "fusion_lon": 0.0}, {"lat": 38.923136666666664, "is_disabled": 0, "type": "electric_scooter", "lon": -77.0395445, "bike_id": "d3b9bc6d1385ec6d00713287d9c12ff9", "fusion_lat": 0.0, "name": "d3b9bc6d1385ec6d00713287d9c12ff9", "is_reserved": 0, "rental_uris": {"android": "https://dc.lft.to/lastmile_qr_scan", "ios": "https://dc.lft.to/lastmile_qr_scan"}, "fusion_lon": 0.0}, {"lat": 38.895049, "is_disabled": 0, "type": "electric_scooter", "lon": -77.02755316666666, "bike_id": "0b0ef61db79269ac96c9e14ada46d31d", "fusion_lat": 0.0, "name": "0b0ef61db79269ac96c9e14ada46d31d", "is_reserved": 0, "rental_uris": {"android": "https://dc.lft.to/lastmile_qr_scan", "ios": "https://dc.lft.to/lastmile_qr_scan"}, "fusion_lon": 0.0}, {"lat": 38.923814166666666, "is_disabled": 0, "type": "electric_scooter", "lon": -77.03070083333333, "bike_id": "c9a3d814a9a09ccc3d56413305cb79e2", "fusion_lat": 0.0, "name": "c9a3d814a9a09ccc3d56413305cb79e2", "is_reserved": 0, "rental_uris": {"android": "https://dc.lft.to/lastmile_qr_scan", "ios": "https://dc.lft.to/lastmile_qr_scan"}, "fusion_lon": 0.0}, {"lat": 38.90964833333334, "is_disabled": 0, "type": "electric_scooter", "lon": -77.02272133333334, "bike_id": "971eb97b88ff457e30303039de32b04a", "fusion_lat": 0.0, "name": "971eb97b88ff457e30303039de32b04a", "is_reserved": 0, "rental_uris": {"android": "https://dc.lft.to/lastmile_qr_scan", "ios": "https://dc.lft.to/lastmile_qr_scan"}, "fusion_lon": 0.0}, {"lat": 38.846272166666665, "is_disabled": 0, "type": "electric_bike", "lon": -77.06938966666667, "bike_id": "fa94bcba3bc9476486c9928afa88f759", "fusion_lat": 0.0, "name": "fa94bcba3bc9476486c9928afa88f759", "is_reserved": 0, "rental_uris": {"android": "https://dc.lft.to/lastmile_qr_scan", "ios": "https://dc.lft.to/lastmile_qr_scan"}, "fusion_lon": 0.0}, {"lat": 38.9186245, "is_disabled": 0, "type": "electric_scooter", "lon": -77.02425066666666, "bike_id": "927e914069f72b68410db85997ac11dc", "fusion_lat": 0.0, "name": "927e914069f72b68410db85997ac11dc", "is_reserved": 0, "rental_uris": {"android": "https://dc.lft.to/lastmile_qr_scan", "ios": "https://dc.lft.to/lastmile_qr_scan"}, "fusion_lon": 0.0}, {"lat": 38.89278266666667, "is_disabled": 0, "type": "electric_scooter", "lon": -77.05036066666666, "bike_id": "2658d9a548c5c09075a57f2fb30afddf", "fusion_lat": 0.0, "name": "2658d9a548c5c09075a57f2fb30afddf", "is_reserved": 0, "rental_uris": {"android": "https://dc.lft.to/lastmile_qr_scan", "ios": "https://dc.lft.to/lastmile_qr_scan"}, "fusion_lon": 0.0}, {"lat": 38.9241545, "is_disabled": 0, "type": "electric_scooter", "lon": -77.02970966666666, "bike_id": "f6a335e088d97581e58421dbcead1d7d", "fusion_lat": 0.0, "name": "f6a335e088d97581e58421dbcead1d7d", "is_reserved": 0, "rental_uris": {"android": "https://dc.lft.to/lastmile_qr_scan", "ios": "https://dc.lft.to/lastmile_qr_scan"}, "fusion_lon": 0.0}, {"lat": 38.91847466666667, "is_disabled": 0, "type": "electric_scooter", "lon": -76.96536366666666, "bike_id": "d93d2a70be93c678b3351e20504e1fc1", "fusion_lat": 0.0, "name": "d93d2a70be93c678b3351e20504e1fc1", "is_reserved": 0, "rental_uris": {"android": "https://dc.lft.to/lastmile_qr_scan", "ios": "https://dc.lft.to/lastmile_qr_scan"}, "fusion_lon": 0.0}, {"lat": 38.923124, "is_disabled": 0, "type": "electric_bike", "lon": -77.03659566666667, "bike_id": "e5a94866d05d7bdab73da0202cf6e9ba", "fusion_lat": 0.0, "name": "e5a94866d05d7bdab73da0202cf6e9ba", "is_reserved": 0, "rental_uris": {"android": "https://dc.lft.to/lastmile_qr_scan", "ios": "https://dc.lft.to/lastmile_qr_scan"}, "fusion_lon": 0.0}, {"lat": 38.917168, "is_disabled": 0, "type": "electric_scooter", "lon": -77.03464983333333, "bike_id": "06ea3758cb7231d71ad6b778509d7fa7", "fusion_lat": 0.0, "name": "06ea3758cb7231d71ad6b778509d7fa7", "is_reserved": 0, "rental_uris": {"android": "https://dc.lft.to/lastmile_qr_scan", "ios": "https://dc.lft.to/lastmile_qr_scan"}, "fusion_lon": 0.0}, {"lat": 38.85812816666667, "is_disabled": 0, "type": "electric_scooter", "lon": -76.98990866666666, "bike_id": "66fb48c797363a78d4ec8aeab3082842", "fusion_lat": 0.0, "name": "66fb48c797363a78d4ec8aeab3082842", "is_reserved": 0, "rental_uris": {"android": "https://dc.lft.to/lastmile_qr_scan", "ios": "https://dc.lft.to/lastmile_qr_scan"}, "fusion_lon": 0.0}, {"lat": 38.916962833333336, "is_disabled": 0, "type": "electric_scooter", "lon": -77.04328616666666, "bike_id": "a897c40408d6ff208a9be9eab0ec188b", "fusion_lat": 0.0, "name": "a897c40408d6ff208a9be9eab0ec188b", "is_reserved": 0, "rental_uris": {"android": "https://dc.lft.to/lastmile_qr_scan", "ios": "https://dc.lft.to/lastmile_qr_scan"}, "fusion_lon": 0.0}, {"lat": 38.885181333333335, "is_disabled": 0, "type": "electric_scooter", "lon": -77.03350616666667, "bike_id": "4fb908cc18733a9cc94ac857f174ca91", "fusion_lat": 0.0, "name": "4fb908cc18733a9cc94ac857f174ca91", "is_reserved": 0, "rental_uris": {"android": "https://dc.lft.to/lastmile_qr_scan", "ios": "https://dc.lft.to/lastmile_qr_scan"}, "fusion_lon": 0.0}, {"lat": 38.899793833333334, "is_disabled": 0, "type": "electric_scooter", "lon": -77.0189935, "bike_id": "4ba2cdf8a3313c9239338c1d6e1a3fb7", "fusion_lat": 0.0, "name": "4ba2cdf8a3313c9239338c1d6e1a3fb7", "is_reserved": 0, "rental_uris": {"android": "https://dc.lft.to/lastmile_qr_scan", "ios": "https://dc.lft.to/lastmile_qr_scan"}, "fusion_lon": 0.0}, {"lat": 38.897468, "is_disabled": 0, "type": "electric_scooter", "lon": -77.04527483333334, "bike_id": "7df98977e595197c25f599f81d596ba9", "fusion_lat": 0.0, "name": "7df98977e595197c25f599f81d596ba9", "is_reserved": 0, "rental_uris": {"android": "https://dc.lft.to/lastmile_qr_scan", "ios": "https://dc.lft.to/lastmile_qr_scan"}, "fusion_lon": 0.0}, {"lat": 38.939924, "is_disabled": 0, "type": "electric_scooter", "lon": -77.07178566666667, "bike_id": "959e26dddab51682c3047f639d975c15", "fusion_lat": 0.0, "name": "959e26dddab51682c3047f639d975c15", "is_reserved": 0, "rental_uris": {"android": "https://dc.lft.to/lastmile_qr_scan", "ios": "https://dc.lft.to/lastmile_qr_scan"}, "fusion_lon": 0.0}, {"lat": 38.905414666666665, "is_disabled": 0, "type": "electric_scooter", "lon": -76.98650283333333, "bike_id": "118469d83ab1e22d42839ef3af037583", "fusion_lat": 0.0, "name": "118469d83ab1e22d42839ef3af037583", "is_reserved": 0, "rental_uris": {"android": "https://dc.lft.to/lastmile_qr_scan", "ios": "https://dc.lft.to/lastmile_qr_scan"}, "fusion_lon": 0.0}, {"lat": 38.904064166666664, "is_disabled": 0, "type": "electric_scooter", "lon": -77.0208225, "bike_id": "cf91b4ce27712b424f389329199a825d", "fusion_lat": 0.0, "name": "cf91b4ce27712b424f389329199a825d", "is_reserved": 0, "rental_uris": {"android": "https://dc.lft.to/lastmile_qr_scan", "ios": "https://dc.lft.to/lastmile_qr_scan"}, "fusion_lon": 0.0}, {"lat": 38.873430166666665, "is_disabled": 0, "type": "electric_scooter", "lon": -76.991671, "bike_id": "bb180533b766edd7f2668b6fe954f24e", "fusion_lat": 0.0, "name": "bb180533b766edd7f2668b6fe954f24e", "is_reserved": 0, "rental_uris": {"android": "https://dc.lft.to/lastmile_qr_scan", "ios": "https://dc.lft.to/lastmile_qr_scan"}, "fusion_lon": 0.0}, {"lat": 38.897395, "is_disabled": 0, "type": "electric_scooter", "lon": -77.03246533333333, "bike_id": "38c6a6440c9d050246ce151aa0c2a039", "fusion_lat": 0.0, "name": "38c6a6440c9d050246ce151aa0c2a039", "is_reserved": 0, "rental_uris": {"android": "https://dc.lft.to/lastmile_qr_scan", "ios": "https://dc.lft.to/lastmile_qr_scan"}, "fusion_lon": 0.0}, {"lat": 38.89260216666667, "is_disabled": 0, "type": "electric_scooter", "lon": -76.94156516666666, "bike_id": "d6aa5138622911393c2ff4b02c72f437", "fusion_lat": 0.0, "name": "d6aa5138622911393c2ff4b02c72f437", "is_reserved": 0, "rental_uris": {"android": "https://dc.lft.to/lastmile_qr_scan", "ios": "https://dc.lft.to/lastmile_qr_scan"}, "fusion_lon": 0.0}, {"lat": 38.900312166666666, "is_disabled": 0, "type": "electric_scooter", "lon": -76.988156, "bike_id": "d60ec6f4410d6c2820a63cb722e5284e", "fusion_lat": 0.0, "name": "d60ec6f4410d6c2820a63cb722e5284e", "is_reserved": 0, "rental_uris": {"android": "https://dc.lft.to/lastmile_qr_scan", "ios": "https://dc.lft.to/lastmile_qr_scan"}, "fusion_lon": 0.0}, {"lat": 38.912726666666664, "is_disabled": 0, "type": "electric_scooter", "lon": -77.03334816666667, "bike_id": "99762165d483764c18c0d434a248453e", "fusion_lat": 0.0, "name": "99762165d483764c18c0d434a248453e", "is_reserved": 0, "rental_uris": {"android": "https://dc.lft.to/lastmile_qr_scan", "ios": "https://dc.lft.to/lastmile_qr_scan"}, "fusion_lon": 0.0}, {"lat": 38.91893983333333, "is_disabled": 0, "type": "electric_scooter", "lon": -77.03198733333333, "bike_id": "e0b0b609f548885e9686244b8be80b68", "fusion_lat": 0.0, "name": "e0b0b609f548885e9686244b8be80b68", "is_reserved": 0, "rental_uris": {"android": "https://dc.lft.to/lastmile_qr_scan", "ios": "https://dc.lft.to/lastmile_qr_scan"}, "fusion_lon": 0.0}, {"lat": 38.89918733333333, "is_disabled": 0, "type": "electric_scooter", "lon": -76.93342066666666, "bike_id": "df54666a7c41eb5927e60cf27390c422", "fusion_lat": 0.0, "name": "df54666a7c41eb5927e60cf27390c422", "is_reserved": 0, "rental_uris": {"android": "https://dc.lft.to/lastmile_qr_scan", "ios": "https://dc.lft.to/lastmile_qr_scan"}, "fusion_lon": 0.0}, {"lat": 38.9038625, "is_disabled": 0, "type": "electric_scooter", "lon": -77.01634033333333, "bike_id": "9e5445f11fb7a69063e42398d1de31d3", "fusion_lat": 0.0, "name": "9e5445f11fb7a69063e42398d1de31d3", "is_reserved": 0, "rental_uris": {"android": "https://dc.lft.to/lastmile_qr_scan", "ios": "https://dc.lft.to/lastmile_qr_scan"}, "fusion_lon": 0.0}, {"lat": 38.89770266666667, "is_disabled": 0, "type": "electric_scooter", "lon": -77.03216633333334, "bike_id": "a11526c6eaf3d7b6d7d121b03cce89ab", "fusion_lat": 0.0, "name": "a11526c6eaf3d7b6d7d121b03cce89ab", "is_reserved": 0, "rental_uris": {"android": "https://dc.lft.to/lastmile_qr_scan", "ios": "https://dc.lft.to/lastmile_qr_scan"}, "fusion_lon": 0.0}, {"lat": 38.90511266666667, "is_disabled": 0, "type": "electric_scooter", "lon": -77.06202966666666, "bike_id": "1071891b38d8a1a5f636f3d82796b696", "fusion_lat": 0.0, "name": "1071891b38d8a1a5f636f3d82796b696", "is_reserved": 0, "rental_uris": {"android": "https://dc.lft.to/lastmile_qr_scan", "ios": "https://dc.lft.to/lastmile_qr_scan"}, "fusion_lon": 0.0}, {"lat": 38.89968616666667, "is_disabled": 0, "type": "electric_scooter", "lon": -77.05702466666666, "bike_id": "ca4e39e6bee4a0998c5df830dbd6f14a", "fusion_lat": 0.0, "name": "ca4e39e6bee4a0998c5df830dbd6f14a", "is_reserved": 0, "rental_uris": {"android": "https://dc.lft.to/lastmile_qr_scan", "ios": "https://dc.lft.to/lastmile_qr_scan"}, "fusion_lon": 0.0}, {"lat": 38.897397166666664, "is_disabled": 0, "type": "electric_scooter", "lon": -77.04763566666666, "bike_id": "2179e4a2348362f8776dd3d00eb027f2", "fusion_lat": 0.0, "name": "2179e4a2348362f8776dd3d00eb027f2", "is_reserved": 0, "rental_uris": {"android": "https://dc.lft.to/lastmile_qr_scan", "ios": "https://dc.lft.to/lastmile_qr_scan"}, "fusion_lon": 0.0}, {"lat": 38.92241633333333, "is_disabled": 0, "type": "electric_scooter", "lon": -77.04573233333333, "bike_id": "3a372d5bbf016ae9b492cfe081e99c98", "fusion_lat": 0.0, "name": "3a372d5bbf016ae9b492cfe081e99c98", "is_reserved": 0, "rental_uris": {"android": "https://dc.lft.to/lastmile_qr_scan", "ios": "https://dc.lft.to/lastmile_qr_scan"}, "fusion_lon": 0.0}, {"lat": 38.91817, "is_disabled": 0, "type": "electric_scooter", "lon": -77.03456033333333, "bike_id": "2aac38e1fa32d4e39c7a2c593813ebce", "fusion_lat": 0.0, "name": "2aac38e1fa32d4e39c7a2c593813ebce", "is_reserved": 0, "rental_uris": {"android": "https://dc.lft.to/lastmile_qr_scan", "ios": "https://dc.lft.to/lastmile_qr_scan"}, "fusion_lon": 0.0}, {"lat": 38.900963833333336, "is_disabled": 0, "type": "electric_scooter", "lon": -77.05062283333334, "bike_id": "621e2e4b74cf7a2f50c51896778765a7", "fusion_lat": 0.0, "name": "621e2e4b74cf7a2f50c51896778765a7", "is_reserved": 0, "rental_uris": {"android": "https://dc.lft.to/lastmile_qr_scan", "ios": "https://dc.lft.to/lastmile_qr_scan"}, "fusion_lon": 0.0}, {"lat": 38.85053583333333, "is_disabled": 0, "type": "electric_bike", "lon": -76.97317216666667, "bike_id": "44e3c4ff69c014f2ac6218e0408d6a2b", "fusion_lat": 0.0, "name": "44e3c4ff69c014f2ac6218e0408d6a2b", "is_reserved": 0, "rental_uris": {"android": "https://dc.lft.to/lastmile_qr_scan", "ios": "https://dc.lft.to/lastmile_qr_scan"}, "fusion_lon": 0.0}, {"lat": 38.9398955, "is_disabled": 0, "type": "electric_scooter", "lon": -77.0717605, "bike_id": "2bd506d7ec01a3ee3517de831bca4f29", "fusion_lat": 0.0, "name": "2bd506d7ec01a3ee3517de831bca4f29", "is_reserved": 0, "rental_uris": {"android": "https://dc.lft.to/lastmile_qr_scan", "ios": "https://dc.lft.to/lastmile_qr_scan"}, "fusion_lon": 0.0}, {"lat": 38.90075, "is_disabled": 0, "type": "electric_scooter", "lon": -77.04626866666666, "bike_id": "f520c26df4e59aca6b9a09d7c0aa1b83", "fusion_lat": 0.0, "name": "f520c26df4e59aca6b9a09d7c0aa1b83", "is_reserved": 0, "rental_uris": {"android": "https://dc.lft.to/lastmile_qr_scan", "ios": "https://dc.lft.to/lastmile_qr_scan"}, "fusion_lon": 0.0}, {"lat": 38.898857666666665, "is_disabled": 0, "type": "electric_scooter", "lon": -76.9317665, "bike_id": "d613c3ba8cc2c2038f2742b9b204a66e", "fusion_lat": 0.0, "name": "d613c3ba8cc2c2038f2742b9b204a66e", "is_reserved": 0, "rental_uris": {"android": "https://dc.lft.to/lastmile_qr_scan", "ios": "https://dc.lft.to/lastmile_qr_scan"}, "fusion_lon": 0.0}, {"lat": 38.92625816666666, "is_disabled": 0, "type": "electric_scooter", "lon": -77.03701916666667, "bike_id": "1880ab1dc555ec35c3df906e5f744920", "fusion_lat": 0.0, "name": "1880ab1dc555ec35c3df906e5f744920", "is_reserved": 0, "rental_uris": {"android": "https://dc.lft.to/lastmile_qr_scan", "ios": "https://dc.lft.to/lastmile_qr_scan"}, "fusion_lon": 0.0}, {"lat": 38.8874525, "is_disabled": 0, "type": "electric_scooter", "lon": -77.0315155, "bike_id": "fe734783f25afa832a17230dd2c4b1a7", "fusion_lat": 0.0, "name": "fe734783f25afa832a17230dd2c4b1a7", "is_reserved": 0, "rental_uris": {"android": "https://dc.lft.to/lastmile_qr_scan", "ios": "https://dc.lft.to/lastmile_qr_scan"}, "fusion_lon": 0.0}, {"lat": 38.93478833333333, "is_disabled": 0, "type": "electric_scooter", "lon": -77.05789716666666, "bike_id": "8e31883ad9028c9f4516277adf62a40a", "fusion_lat": 0.0, "name": "8e31883ad9028c9f4516277adf62a40a", "is_reserved": 0, "rental_uris": {"android": "https://dc.lft.to/lastmile_qr_scan", "ios": "https://dc.lft.to/lastmile_qr_scan"}, "fusion_lon": 0.0}, {"lat": 38.924859833333336, "is_disabled": 0, "type": "electric_scooter", "lon": -77.03182483333333, "bike_id": "74fe38e83f05ca9cf9ea3d03e11876f2", "fusion_lat": 0.0, "name": "74fe38e83f05ca9cf9ea3d03e11876f2", "is_reserved": 0, "rental_uris": {"android": "https://dc.lft.to/lastmile_qr_scan", "ios": "https://dc.lft.to/lastmile_qr_scan"}, "fusion_lon": 0.0}, {"lat": 38.85808733333333, "is_disabled": 0, "type": "electric_scooter", "lon": -76.9865525, "bike_id": "b688962a16df60b46094eca32f8b4474", "fusion_lat": 0.0, "name": "b688962a16df60b46094eca32f8b4474", "is_reserved": 0, "rental_uris": {"android": "https://dc.lft.to/lastmile_qr_scan", "ios": "https://dc.lft.to/lastmile_qr_scan"}, "fusion_lon": 0.0}, {"lat": 38.966122, "is_disabled": 0, "type": "electric_scooter", "lon": -77.02056033333334, "bike_id": "538d9114fecd7634ccf58f213fc967fd", "fusion_lat": 0.0, "name": "538d9114fecd7634ccf58f213fc967fd", "is_reserved": 0, "rental_uris": {"android": "https://dc.lft.to/lastmile_qr_scan", "ios": "https://dc.lft.to/lastmile_qr_scan"}, "fusion_lon": 0.0}, {"lat": 38.92545616666666, "is_disabled": 0, "type": "electric_scooter", "lon": -77.0344955, "bike_id": "1a860b7b292b6611cfeadcfc04737cee", "fusion_lat": 0.0, "name": "1a860b7b292b6611cfeadcfc04737cee", "is_reserved": 0, "rental_uris": {"android": "https://dc.lft.to/lastmile_qr_scan", "ios": "https://dc.lft.to/lastmile_qr_scan"}, "fusion_lon": 0.0}, {"lat": 38.942043, "is_disabled": 0, "type": "electric_bike", "lon": -77.01826716666666, "bike_id": "b9f001df752439aac304311e63237186", "fusion_lat": 0.0, "name": "b9f001df752439aac304311e63237186", "is_reserved": 0, "rental_uris": {"android": "https://dc.lft.to/lastmile_qr_scan", "ios": "https://dc.lft.to/lastmile_qr_scan"}, "fusion_lon": 0.0}, {"lat": 38.92286433333334, "is_disabled": 0, "type": "electric_scooter", "lon": -77.02967916666667, "bike_id": "e6ab8edb1b2f008d4a1e445432e32e4a", "fusion_lat": 0.0, "name": "e6ab8edb1b2f008d4a1e445432e32e4a", "is_reserved": 0, "rental_uris": {"android": "https://dc.lft.to/lastmile_qr_scan", "ios": "https://dc.lft.to/lastmile_qr_scan"}, "fusion_lon": 0.0}, {"lat": 38.900218, "is_disabled": 0, "type": "electric_scooter", "lon": -77.0021795, "bike_id": "0e8f78785e7557dd2da001c946660946", "fusion_lat": 0.0, "name": "0e8f78785e7557dd2da001c946660946", "is_reserved": 0, "rental_uris": {"android": "https://dc.lft.to/lastmile_qr_scan", "ios": "https://dc.lft.to/lastmile_qr_scan"}, "fusion_lon": 0.0}, {"lat": 38.928493833333334, "is_disabled": 0, "type": "electric_scooter", "lon": -77.0361995, "bike_id": "774828d1527c9b2a687439edfa5bcaef", "fusion_lat": 0.0, "name": "774828d1527c9b2a687439edfa5bcaef", "is_reserved": 0, "rental_uris": {"android": "https://dc.lft.to/lastmile_qr_scan", "ios": "https://dc.lft.to/lastmile_qr_scan"}, "fusion_lon": 0.0}, {"lat": 38.93960883333333, "is_disabled": 0, "type": "electric_scooter", "lon": -77.0275175, "bike_id": "dd511df60fd27a4c1de26687f8dc72b6", "fusion_lat": 0.0, "name": "dd511df60fd27a4c1de26687f8dc72b6", "is_reserved": 0, "rental_uris": {"android": "https://dc.lft.to/lastmile_qr_scan", "ios": "https://dc.lft.to/lastmile_qr_scan"}, "fusion_lon": 0.0}, {"lat": 38.899884666666665, "is_disabled": 0, "type": "electric_bike", "lon": -76.9811735, "bike_id": "d3194cf3833f366674e3842095150153", "fusion_lat": 0.0, "name": "d3194cf3833f366674e3842095150153", "is_reserved": 0, "rental_uris": {"android": "https://dc.lft.to/lastmile_qr_scan", "ios": "https://dc.lft.to/lastmile_qr_scan"}, "fusion_lon": 0.0}, {"lat": 38.876673333333336, "is_disabled": 0, "type": "electric_scooter", "lon": -77.0057675, "bike_id": "de4332b4346d30ba9cf28ee4cfc17cf5", "fusion_lat": 0.0, "name": "de4332b4346d30ba9cf28ee4cfc17cf5", "is_reserved": 0, "rental_uris": {"android": "https://dc.lft.to/lastmile_qr_scan", "ios": "https://dc.lft.to/lastmile_qr_scan"}, "fusion_lon": 0.0}, {"lat": 38.933494, "is_disabled": 0, "type": "electric_scooter", "lon": -77.07186766666666, "bike_id": "c08a563ea7fb53903bf52a66dea9d9f2", "fusion_lat": 0.0, "name": "c08a563ea7fb53903bf52a66dea9d9f2", "is_reserved": 0, "rental_uris": {"android": "https://dc.lft.to/lastmile_qr_scan", "ios": "https://dc.lft.to/lastmile_qr_scan"}, "fusion_lon": 0.0}, {"lat": 38.9207675, "is_disabled": 0, "type": "electric_scooter", "lon": -77.04560266666667, "bike_id": "82c16d1191e73430da32357a6bbd72a8", "fusion_lat": 0.0, "name": "82c16d1191e73430da32357a6bbd72a8", "is_reserved": 0, "rental_uris": {"android": "https://dc.lft.to/lastmile_qr_scan", "ios": "https://dc.lft.to/lastmile_qr_scan"}, "fusion_lon": 0.0}, {"lat": 38.927541166666664, "is_disabled": 0, "type": "electric_scooter", "lon": -77.005919, "bike_id": "a328b0eb4a71ebca2b2705514a245913", "fusion_lat": 0.0, "name": "a328b0eb4a71ebca2b2705514a245913", "is_reserved": 0, "rental_uris": {"android": "https://dc.lft.to/lastmile_qr_scan", "ios": "https://dc.lft.to/lastmile_qr_scan"}, "fusion_lon": 0.0}, {"lat": 38.933247, "is_disabled": 0, "type": "electric_scooter", "lon": -77.029286, "bike_id": "f5fd351ad3f41b005b9426886eaa9723", "fusion_lat": 0.0, "name": "f5fd351ad3f41b005b9426886eaa9723", "is_reserved": 0, "rental_uris": {"android": "https://dc.lft.to/lastmile_qr_scan", "ios": "https://dc.lft.to/lastmile_qr_scan"}, "fusion_lon": 0.0}, {"lat": 38.9000935, "is_disabled": 0, "type": "electric_scooter", "lon": -76.92236133333333, "bike_id": "8b323082fcad1c83fac13d9e864c29b7", "fusion_lat": 0.0, "name": "8b323082fcad1c83fac13d9e864c29b7", "is_reserved": 0, "rental_uris": {"android": "https://dc.lft.to/lastmile_qr_scan", "ios": "https://dc.lft.to/lastmile_qr_scan"}, "fusion_lon": 0.0}, {"lat": 38.900209833333335, "is_disabled": 0, "type": "electric_scooter", "lon": -77.02592866666667, "bike_id": "f8148a0220bed71d5f4ae6552d2efbf6", "fusion_lat": 0.0, "name": "f8148a0220bed71d5f4ae6552d2efbf6", "is_reserved": 0, "rental_uris": {"android": "https://dc.lft.to/lastmile_qr_scan", "ios": "https://dc.lft.to/lastmile_qr_scan"}, "fusion_lon": 0.0}, {"lat": 38.962556666666664, "is_disabled": 0, "type": "electric_scooter", "lon": -77.03826466666666, "bike_id": "8ede17048fb538074d0fe30bf54f7e44", "fusion_lat": 0.0, "name": "8ede17048fb538074d0fe30bf54f7e44", "is_reserved": 0, "rental_uris": {"android": "https://dc.lft.to/lastmile_qr_scan", "ios": "https://dc.lft.to/lastmile_qr_scan"}, "fusion_lon": 0.0}, {"lat": 38.920451666666665, "is_disabled": 0, "type": "electric_scooter", "lon": -77.03285033333333, "bike_id": "843d39802ad8e1c5ba91824178c39286", "fusion_lat": 0.0, "name": "843d39802ad8e1c5ba91824178c39286", "is_reserved": 0, "rental_uris": {"android": "https://dc.lft.to/lastmile_qr_scan", "ios": "https://dc.lft.to/lastmile_qr_scan"}, "fusion_lon": 0.0}, {"lat": 38.892035166666666, "is_disabled": 0, "type": "electric_bike", "lon": -76.97050666666667, "bike_id": "8fa5aa0ebf6bcbec5739cfe147b7c815", "fusion_lat": 0.0, "name": "8fa5aa0ebf6bcbec5739cfe147b7c815", "is_reserved": 0, "rental_uris": {"android": "https://dc.lft.to/lastmile_qr_scan", "ios": "https://dc.lft.to/lastmile_qr_scan"}, "fusion_lon": 0.0}, {"lat": 38.884243833333336, "is_disabled": 0, "type": "electric_bike", "lon": -76.980843, "bike_id": "a85e8b9d07663c0df96b720650dd17c7", "fusion_lat": 0.0, "name": "a85e8b9d07663c0df96b720650dd17c7", "is_reserved": 0, "rental_uris": {"android": "https://dc.lft.to/lastmile_qr_scan", "ios": "https://dc.lft.to/lastmile_qr_scan"}, "fusion_lon": 0.0}, {"lat": 38.909068500000004, "is_disabled": 0, "type": "electric_scooter", "lon": -77.08625183333334, "bike_id": "9f055c724b551ea61374b7edad1c756b", "fusion_lat": 0.0, "name": "9f055c724b551ea61374b7edad1c756b", "is_reserved": 0, "rental_uris": {"android": "https://dc.lft.to/lastmile_qr_scan", "ios": "https://dc.lft.to/lastmile_qr_scan"}, "fusion_lon": 0.0}, {"lat": 38.895405, "is_disabled": 0, "type": "electric_scooter", "lon": -77.01120566666667, "bike_id": "9d14d1dbc0488797840d4fdf8d4efcc2", "fusion_lat": 0.0, "name": "9d14d1dbc0488797840d4fdf8d4efcc2", "is_reserved": 0, "rental_uris": {"android": "https://dc.lft.to/lastmile_qr_scan", "ios": "https://dc.lft.to/lastmile_qr_scan"}, "fusion_lon": 0.0}, {"lat": 38.91862033333334, "is_disabled": 0, "type": "electric_scooter", "lon": -77.0742095, "bike_id": "f868cf30ef60469beb83e895815c4c40", "fusion_lat": 0.0, "name": "f868cf30ef60469beb83e895815c4c40", "is_reserved": 0, "rental_uris": {"android": "https://dc.lft.to/lastmile_qr_scan", "ios": "https://dc.lft.to/lastmile_qr_scan"}, "fusion_lon": 0.0}, {"lat": 38.8792505, "is_disabled": 0, "type": "electric_scooter", "lon": -77.00743583333333, "bike_id": "f7bb737596ea0f27048a9da7a46b7e92", "fusion_lat": 0.0, "name": "f7bb737596ea0f27048a9da7a46b7e92", "is_reserved": 0, "rental_uris": {"android": "https://dc.lft.to/lastmile_qr_scan", "ios": "https://dc.lft.to/lastmile_qr_scan"}, "fusion_lon": 0.0}, {"lat": 38.9236945, "is_disabled": 0, "type": "electric_scooter", "lon": -77.07678066666666, "bike_id": "be47c349f2b95213d703875df751e4df", "fusion_lat": 0.0, "name": "be47c349f2b95213d703875df751e4df", "is_reserved": 0, "rental_uris": {"android": "https://dc.lft.to/lastmile_qr_scan", "ios": "https://dc.lft.to/lastmile_qr_scan"}, "fusion_lon": 0.0}, {"lat": 38.934819833333336, "is_disabled": 0, "type": "electric_scooter", "lon": -77.036625, "bike_id": "7dc7ddb728b5d975c911d9da24282b47", "fusion_lat": 0.0, "name": "7dc7ddb728b5d975c911d9da24282b47", "is_reserved": 0, "rental_uris": {"android": "https://dc.lft.to/lastmile_qr_scan", "ios": "https://dc.lft.to/lastmile_qr_scan"}, "fusion_lon": 0.0}, {"lat": 38.929934833333334, "is_disabled": 0, "type": "electric_bike", "lon": -77.02314616666666, "bike_id": "7b6be432813019384f23fbbc1ee48569", "fusion_lat": 0.0, "name": "7b6be432813019384f23fbbc1ee48569", "is_reserved": 0, "rental_uris": {"android": "https://dc.lft.to/lastmile_qr_scan", "ios": "https://dc.lft.to/lastmile_qr_scan"}, "fusion_lon": 0.0}, {"lat": 38.922673333333336, "is_disabled": 0, "type": "electric_scooter", "lon": -77.0424855, "bike_id": "efe796a723665dd5d605ca1475cdc11b", "fusion_lat": 0.0, "name": "efe796a723665dd5d605ca1475cdc11b", "is_reserved": 0, "rental_uris": {"android": "https://dc.lft.to/lastmile_qr_scan", "ios": "https://dc.lft.to/lastmile_qr_scan"}, "fusion_lon": 0.0}, {"lat": 38.903170333333335, "is_disabled": 0, "type": "electric_scooter", "lon": -77.03313866666667, "bike_id": "972ff4c413c803b8c477d4d12295bb6a", "fusion_lat": 0.0, "name": "972ff4c413c803b8c477d4d12295bb6a", "is_reserved": 0, "rental_uris": {"android": "https://dc.lft.to/lastmile_qr_scan", "ios": "https://dc.lft.to/lastmile_qr_scan"}, "fusion_lon": 0.0}, {"lat": 38.90607166666667, "is_disabled": 0, "type": "electric_scooter", "lon": -77.05856116666666, "bike_id": "0aaf1ad261fe15392269200510edcf56", "fusion_lat": 0.0, "name": "0aaf1ad261fe15392269200510edcf56", "is_reserved": 0, "rental_uris": {"android": "https://dc.lft.to/lastmile_qr_scan", "ios": "https://dc.lft.to/lastmile_qr_scan"}, "fusion_lon": 0.0}, {"lat": 38.907183, "is_disabled": 0, "type": "electric_scooter", "lon": -77.0439965, "bike_id": "1dd89c09b62b1d92350123fd32904023", "fusion_lat": 0.0, "name": "1dd89c09b62b1d92350123fd32904023", "is_reserved": 0, "rental_uris": {"android": "https://dc.lft.to/lastmile_qr_scan", "ios": "https://dc.lft.to/lastmile_qr_scan"}, "fusion_lon": 0.0}, {"lat": 38.892920333333336, "is_disabled": 0, "type": "electric_bike", "lon": -77.00140266666666, "bike_id": "f90dced449c10d8d0c637cdb65332bce", "fusion_lat": 0.0, "name": "f90dced449c10d8d0c637cdb65332bce", "is_reserved": 0, "rental_uris": {"android": "https://dc.lft.to/lastmile_qr_scan", "ios": "https://dc.lft.to/lastmile_qr_scan"}, "fusion_lon": 0.0}, {"lat": 38.928933, "is_disabled": 0, "type": "electric_scooter", "lon": -77.032361, "bike_id": "d740f343884180909d9a8612d6fe6b38", "fusion_lat": 0.0, "name": "d740f343884180909d9a8612d6fe6b38", "is_reserved": 0, "rental_uris": {"android": "https://dc.lft.to/lastmile_qr_scan", "ios": "https://dc.lft.to/lastmile_qr_scan"}, "fusion_lon": 0.0}, {"lat": 38.895125, "is_disabled": 0, "type": "electric_scooter", "lon": -77.04358333333333, "bike_id": "89678be5b13f16eff8463b4952d6841e", "fusion_lat": 0.0, "name": "89678be5b13f16eff8463b4952d6841e", "is_reserved": 0, "rental_uris": {"android": "https://dc.lft.to/lastmile_qr_scan", "ios": "https://dc.lft.to/lastmile_qr_scan"}, "fusion_lon": 0.0}, {"lat": 38.90730116666667, "is_disabled": 0, "type": "electric_scooter", "lon": -77.048234, "bike_id": "5744456101e0bb9acb9cf72109b8417e", "fusion_lat": 0.0, "name": "5744456101e0bb9acb9cf72109b8417e", "is_reserved": 0, "rental_uris": {"android": "https://dc.lft.to/lastmile_qr_scan", "ios": "https://dc.lft.to/lastmile_qr_scan"}, "fusion_lon": 0.0}, {"lat": 38.92901766666667, "is_disabled": 0, "type": "electric_scooter", "lon": -77.03254216666667, "bike_id": "7a5e04e00f383dabf72a2053b21dd25b", "fusion_lat": 0.0, "name": "7a5e04e00f383dabf72a2053b21dd25b", "is_reserved": 0, "rental_uris": {"android": "https://dc.lft.to/lastmile_qr_scan", "ios": "https://dc.lft.to/lastmile_qr_scan"}, "fusion_lon": 0.0}, {"lat": 38.92330166666667, "is_disabled": 0, "type": "electric_scooter", "lon": -77.03899266666667, "bike_id": "7909b357703361bd2a45a87d4bb8830c", "fusion_lat": 0.0, "name": "7909b357703361bd2a45a87d4bb8830c", "is_reserved": 0, "rental_uris": {"android": "https://dc.lft.to/lastmile_qr_scan", "ios": "https://dc.lft.to/lastmile_qr_scan"}, "fusion_lon": 0.0}, {"lat": 38.90968483333333, "is_disabled": 0, "type": "electric_scooter", "lon": -77.04515316666667, "bike_id": "c27d8ec1edad7f8a68c9ba394bf5f5b3", "fusion_lat": 0.0, "name": "c27d8ec1edad7f8a68c9ba394bf5f5b3", "is_reserved": 0, "rental_uris": {"android": "https://dc.lft.to/lastmile_qr_scan", "ios": "https://dc.lft.to/lastmile_qr_scan"}, "fusion_lon": 0.0}, {"lat": 38.90137433333334, "is_disabled": 0, "type": "electric_scooter", "lon": -77.000675, "bike_id": "4487f2e832e4adebbc74eeef4e3f9e86", "fusion_lat": 0.0, "name": "4487f2e832e4adebbc74eeef4e3f9e86", "is_reserved": 0, "rental_uris": {"android": "https://dc.lft.to/lastmile_qr_scan", "ios": "https://dc.lft.to/lastmile_qr_scan"}, "fusion_lon": 0.0}, {"lat": 38.92182316666667, "is_disabled": 0, "type": "electric_scooter", "lon": -77.04229783333334, "bike_id": "fc0df7372a2974ee5fb4ec5c86f8fef5", "fusion_lat": 0.0, "name": "fc0df7372a2974ee5fb4ec5c86f8fef5", "is_reserved": 0, "rental_uris": {"android": "https://dc.lft.to/lastmile_qr_scan", "ios": "https://dc.lft.to/lastmile_qr_scan"}, "fusion_lon": 0.0}, {"lat": 39.03051966666666, "is_disabled": 0, "type": "electric_bike", "lon": -77.09480416666666, "bike_id": "0d20165bf64c6fb14cd3c31c88b133b2", "fusion_lat": 0.0, "name": "0d20165bf64c6fb14cd3c31c88b133b2", "is_reserved": 0, "rental_uris": {"android": "https://dc.lft.to/lastmile_qr_scan", "ios": "https://dc.lft.to/lastmile_qr_scan"}, "fusion_lon": 0.0}, {"lat": 38.935092, "is_disabled": 0, "type": "electric_scooter", "lon": -77.024116, "bike_id": "209f67f0dac90e9bd3e66859b7a8b981", "fusion_lat": 0.0, "name": "209f67f0dac90e9bd3e66859b7a8b981", "is_reserved": 0, "rental_uris": {"android": "https://dc.lft.to/lastmile_qr_scan", "ios": "https://dc.lft.to/lastmile_qr_scan"}, "fusion_lon": 0.0}, {"lat": 38.90074833333333, "is_disabled": 0, "type": "electric_scooter", "lon": -77.05312383333333, "bike_id": "7adb6b7545068c8fd58e1dc4e07cc54c", "fusion_lat": 0.0, "name": "7adb6b7545068c8fd58e1dc4e07cc54c", "is_reserved": 0, "rental_uris": {"android": "https://dc.lft.to/lastmile_qr_scan", "ios": "https://dc.lft.to/lastmile_qr_scan"}, "fusion_lon": 0.0}, {"lat": 38.887044, "is_disabled": 0, "type": "electric_scooter", "lon": -77.00151316666667, "bike_id": "fe2f25adc7494581057e472da3bcc243", "fusion_lat": 0.0, "name": "fe2f25adc7494581057e472da3bcc243", "is_reserved": 0, "rental_uris": {"android": "https://dc.lft.to/lastmile_qr_scan", "ios": "https://dc.lft.to/lastmile_qr_scan"}, "fusion_lon": 0.0}, {"lat": 38.946305333333335, "is_disabled": 0, "type": "electric_scooter", "lon": -77.01843666666667, "bike_id": "aac989939c33e5c5a5798f7af9bee985", "fusion_lat": 0.0, "name": "aac989939c33e5c5a5798f7af9bee985", "is_reserved": 0, "rental_uris": {"android": "https://dc.lft.to/lastmile_qr_scan", "ios": "https://dc.lft.to/lastmile_qr_scan"}, "fusion_lon": 0.0}, {"lat": 38.9368015, "is_disabled": 0, "type": "electric_scooter", "lon": -77.035748, "bike_id": "13b7fcda87fc4dd67e2e637a5e2fc4e0", "fusion_lat": 0.0, "name": "13b7fcda87fc4dd67e2e637a5e2fc4e0", "is_reserved": 0, "rental_uris": {"android": "https://dc.lft.to/lastmile_qr_scan", "ios": "https://dc.lft.to/lastmile_qr_scan"}, "fusion_lon": 0.0}, {"lat": 38.92204316666667, "is_disabled": 0, "type": "electric_scooter", "lon": -77.04257316666667, "bike_id": "8db8fc77ac430f1bf7e5ca96132c4b28", "fusion_lat": 0.0, "name": "8db8fc77ac430f1bf7e5ca96132c4b28", "is_reserved": 0, "rental_uris": {"android": "https://dc.lft.to/lastmile_qr_scan", "ios": "https://dc.lft.to/lastmile_qr_scan"}, "fusion_lon": 0.0}, {"lat": 38.92252716666667, "is_disabled": 0, "type": "electric_scooter", "lon": -77.0193495, "bike_id": "4c4d363b7f7d5fb94c85f7435ceca795", "fusion_lat": 0.0, "name": "4c4d363b7f7d5fb94c85f7435ceca795", "is_reserved": 0, "rental_uris": {"android": "https://dc.lft.to/lastmile_qr_scan", "ios": "https://dc.lft.to/lastmile_qr_scan"}, "fusion_lon": 0.0}, {"lat": 38.872471833333336, "is_disabled": 0, "type": "electric_scooter", "lon": -76.9772715, "bike_id": "6821a78cfb8d8e577195cfe9b86ff944", "fusion_lat": 0.0, "name": "6821a78cfb8d8e577195cfe9b86ff944", "is_reserved": 0, "rental_uris": {"android": "https://dc.lft.to/lastmile_qr_scan", "ios": "https://dc.lft.to/lastmile_qr_scan"}, "fusion_lon": 0.0}, {"lat": 38.909599666666665, "is_disabled": 0, "type": "electric_scooter", "lon": -77.02683833333333, "bike_id": "115d53824b45b36ab3e5044ed156323e", "fusion_lat": 0.0, "name": "115d53824b45b36ab3e5044ed156323e", "is_reserved": 0, "rental_uris": {"android": "https://dc.lft.to/lastmile_qr_scan", "ios": "https://dc.lft.to/lastmile_qr_scan"}, "fusion_lon": 0.0}, {"lat": 38.94308183333333, "is_disabled": 0, "type": "electric_scooter", "lon": -77.06129866666667, "bike_id": "7dc8a75e1ce18dd6e95e78e0b88a0b73", "fusion_lat": 0.0, "name": "7dc8a75e1ce18dd6e95e78e0b88a0b73", "is_reserved": 0, "rental_uris": {"android": "https://dc.lft.to/lastmile_qr_scan", "ios": "https://dc.lft.to/lastmile_qr_scan"}, "fusion_lon": 0.0}, {"lat": 38.9284135, "is_disabled": 0, "type": "electric_scooter", "lon": -77.05420816666667, "bike_id": "48860e8fe18881ef30da79f996a55c45", "fusion_lat": 0.0, "name": "48860e8fe18881ef30da79f996a55c45", "is_reserved": 0, "rental_uris": {"android": "https://dc.lft.to/lastmile_qr_scan", "ios": "https://dc.lft.to/lastmile_qr_scan"}, "fusion_lon": 0.0}, {"lat": 38.8863785, "is_disabled": 0, "type": "electric_scooter", "lon": -76.9546945, "bike_id": "ef2dc03bff894349b8edec4345abbf3c", "fusion_lat": 0.0, "name": "ef2dc03bff894349b8edec4345abbf3c", "is_reserved": 0, "rental_uris": {"android": "https://dc.lft.to/lastmile_qr_scan", "ios": "https://dc.lft.to/lastmile_qr_scan"}, "fusion_lon": 0.0}, {"lat": 38.93232666666667, "is_disabled": 0, "type": "electric_scooter", "lon": -77.0338905, "bike_id": "bdc55434e0b3203d38a5daa7e1d0e707", "fusion_lat": 0.0, "name": "bdc55434e0b3203d38a5daa7e1d0e707", "is_reserved": 0, "rental_uris": {"android": "https://dc.lft.to/lastmile_qr_scan", "ios": "https://dc.lft.to/lastmile_qr_scan"}, "fusion_lon": 0.0}, {"lat": 38.906543166666665, "is_disabled": 0, "type": "electric_scooter", "lon": -77.01421316666666, "bike_id": "6bcf0eea016142261bccd63d3d218e86", "fusion_lat": 0.0, "name": "6bcf0eea016142261bccd63d3d218e86", "is_reserved": 0, "rental_uris": {"android": "https://dc.lft.to/lastmile_qr_scan", "ios": "https://dc.lft.to/lastmile_qr_scan"}, "fusion_lon": 0.0}, {"lat": 38.91578033333333, "is_disabled": 0, "type": "electric_scooter", "lon": -77.050221, "bike_id": "13d50ba671b68a14de66299bdfab4400", "fusion_lat": 0.0, "name": "13d50ba671b68a14de66299bdfab4400", "is_reserved": 0, "rental_uris": {"android": "https://dc.lft.to/lastmile_qr_scan", "ios": "https://dc.lft.to/lastmile_qr_scan"}, "fusion_lon": 0.0}, {"lat": 38.92108016666667, "is_disabled": 0, "type": "electric_scooter", "lon": -77.04692266666666, "bike_id": "afb97de56ec561c9104adbfc4b37516a", "fusion_lat": 0.0, "name": "afb97de56ec561c9104adbfc4b37516a", "is_reserved": 0, "rental_uris": {"android": "https://dc.lft.to/lastmile_qr_scan", "ios": "https://dc.lft.to/lastmile_qr_scan"}, "fusion_lon": 0.0}, {"lat": 38.884914, "is_disabled": 0, "type": "electric_scooter", "lon": -77.00712466666667, "bike_id": "d73ccfacbc90be69ec840debbed7f1e6", "fusion_lat": 0.0, "name": "d73ccfacbc90be69ec840debbed7f1e6", "is_reserved": 0, "rental_uris": {"android": "https://dc.lft.to/lastmile_qr_scan", "ios": "https://dc.lft.to/lastmile_qr_scan"}, "fusion_lon": 0.0}, {"lat": 38.90525, "is_disabled": 0, "type": "electric_scooter", "lon": -77.03442683333333, "bike_id": "55615f0777ee105ab8bf743113a4afc3", "fusion_lat": 0.0, "name": "55615f0777ee105ab8bf743113a4afc3", "is_reserved": 0, "rental_uris": {"android": "https://dc.lft.to/lastmile_qr_scan", "ios": "https://dc.lft.to/lastmile_qr_scan"}, "fusion_lon": 0.0}, {"lat": 38.928242833333336, "is_disabled": 0, "type": "electric_scooter", "lon": -77.02258333333333, "bike_id": "9976db3f07a2cf5a6f8854e164089bad", "fusion_lat": 0.0, "name": "9976db3f07a2cf5a6f8854e164089bad", "is_reserved": 0, "rental_uris": {"android": "https://dc.lft.to/lastmile_qr_scan", "ios": "https://dc.lft.to/lastmile_qr_scan"}, "fusion_lon": 0.0}, {"lat": 38.88430816666666, "is_disabled": 0, "type": "electric_scooter", "lon": -76.95750216666667, "bike_id": "dc8ed9ae6edb8b3aebc160489ea81a84", "fusion_lat": 0.0, "name": "dc8ed9ae6edb8b3aebc160489ea81a84", "is_reserved": 0, "rental_uris": {"android": "https://dc.lft.to/lastmile_qr_scan", "ios": "https://dc.lft.to/lastmile_qr_scan"}, "fusion_lon": 0.0}, {"lat": 38.8922295, "is_disabled": 0, "type": "electric_scooter", "lon": -76.93298233333333, "bike_id": "a5eaa6383ea204834a61595f99dbdfe5", "fusion_lat": 0.0, "name": "a5eaa6383ea204834a61595f99dbdfe5", "is_reserved": 0, "rental_uris": {"android": "https://dc.lft.to/lastmile_qr_scan", "ios": "https://dc.lft.to/lastmile_qr_scan"}, "fusion_lon": 0.0}, {"lat": 38.874569, "is_disabled": 0, "type": "electric_scooter", "lon": -77.00496583333333, "bike_id": "7266f5c83dbc9833790d5bcfcd487d10", "fusion_lat": 0.0, "name": "7266f5c83dbc9833790d5bcfcd487d10", "is_reserved": 0, "rental_uris": {"android": "https://dc.lft.to/lastmile_qr_scan", "ios": "https://dc.lft.to/lastmile_qr_scan"}, "fusion_lon": 0.0}, {"lat": 38.899872, "is_disabled": 0, "type": "electric_scooter", "lon": -77.05504583333334, "bike_id": "1c5080e77c75d9f3e22ad9ea5a4460e9", "fusion_lat": 0.0, "name": "1c5080e77c75d9f3e22ad9ea5a4460e9", "is_reserved": 0, "rental_uris": {"android": "https://dc.lft.to/lastmile_qr_scan", "ios": "https://dc.lft.to/lastmile_qr_scan"}, "fusion_lon": 0.0}, {"lat": 38.903901166666664, "is_disabled": 0, "type": "electric_scooter", "lon": -77.0437415, "bike_id": "a13ba0eb2c393d6eb5a2900cae0eafac", "fusion_lat": 0.0, "name": "a13ba0eb2c393d6eb5a2900cae0eafac", "is_reserved": 0, "rental_uris": {"android": "https://dc.lft.to/lastmile_qr_scan", "ios": "https://dc.lft.to/lastmile_qr_scan"}, "fusion_lon": 0.0}, {"lat": 38.9650065, "is_disabled": 0, "type": "electric_bike", "lon": -77.06493383333333, "bike_id": "455323b032bd948605aed770836d5e15", "fusion_lat": 0.0, "name": "455323b032bd948605aed770836d5e15", "is_reserved": 0, "rental_uris": {"android": "https://dc.lft.to/lastmile_qr_scan", "ios": "https://dc.lft.to/lastmile_qr_scan"}, "fusion_lon": 0.0}, {"lat": 38.94099516666667, "is_disabled": 0, "type": "electric_scooter", "lon": -77.02307433333333, "bike_id": "1f8f93c3ab1397547707e99478dabb14", "fusion_lat": 0.0, "name": "1f8f93c3ab1397547707e99478dabb14", "is_reserved": 0, "rental_uris": {"android": "https://dc.lft.to/lastmile_qr_scan", "ios": "https://dc.lft.to/lastmile_qr_scan"}, "fusion_lon": 0.0}, {"lat": 38.90732283333333, "is_disabled": 0, "type": "electric_scooter", "lon": -77.02540233333333, "bike_id": "8948d4270d628ed77ca2f907f2a18d1f", "fusion_lat": 0.0, "name": "8948d4270d628ed77ca2f907f2a18d1f", "is_reserved": 0, "rental_uris": {"android": "https://dc.lft.to/lastmile_qr_scan", "ios": "https://dc.lft.to/lastmile_qr_scan"}, "fusion_lon": 0.0}, {"lat": 38.866647, "is_disabled": 0, "type": "electric_scooter", "lon": -76.98906316666667, "bike_id": "769da653165853ac600392c3e91decf3", "fusion_lat": 0.0, "name": "769da653165853ac600392c3e91decf3", "is_reserved": 0, "rental_uris": {"android": "https://dc.lft.to/lastmile_qr_scan", "ios": "https://dc.lft.to/lastmile_qr_scan"}, "fusion_lon": 0.0}, {"lat": 38.93222883333333, "is_disabled": 0, "type": "electric_scooter", "lon": -77.0273195, "bike_id": "6a77fa53839fb16693c54ebba5e98260", "fusion_lat": 0.0, "name": "6a77fa53839fb16693c54ebba5e98260", "is_reserved": 0, "rental_uris": {"android": "https://dc.lft.to/lastmile_qr_scan", "ios": "https://dc.lft.to/lastmile_qr_scan"}, "fusion_lon": 0.0}, {"lat": 38.8897145, "is_disabled": 0, "type": "electric_scooter", "lon": -76.93735316666667, "bike_id": "ee892ad73847a67eb4fb3a6adddc2a46", "fusion_lat": 0.0, "name": "ee892ad73847a67eb4fb3a6adddc2a46", "is_reserved": 0, "rental_uris": {"android": "https://dc.lft.to/lastmile_qr_scan", "ios": "https://dc.lft.to/lastmile_qr_scan"}, "fusion_lon": 0.0}, {"lat": 38.9156715, "is_disabled": 0, "type": "electric_scooter", "lon": -77.01199483333333, "bike_id": "2e8f2a993844950d89d7cdef09416a2d", "fusion_lat": 0.0, "name": "2e8f2a993844950d89d7cdef09416a2d", "is_reserved": 0, "rental_uris": {"android": "https://dc.lft.to/lastmile_qr_scan", "ios": "https://dc.lft.to/lastmile_qr_scan"}, "fusion_lon": 0.0}, {"lat": 38.866194166666666, "is_disabled": 0, "type": "electric_bike", "lon": -76.94570733333333, "bike_id": "1f07aa54f66fb86bc849846da6e49040", "fusion_lat": 0.0, "name": "1f07aa54f66fb86bc849846da6e49040", "is_reserved": 0, "rental_uris": {"android": "https://dc.lft.to/lastmile_qr_scan", "ios": "https://dc.lft.to/lastmile_qr_scan"}, "fusion_lon": 0.0}, {"lat": 38.909534666666666, "is_disabled": 0, "type": "electric_scooter", "lon": -77.02269866666667, "bike_id": "6c28bbbf06053e995f36473fd3bddff5", "fusion_lat": 0.0, "name": "6c28bbbf06053e995f36473fd3bddff5", "is_reserved": 0, "rental_uris": {"android": "https://dc.lft.to/lastmile_qr_scan", "ios": "https://dc.lft.to/lastmile_qr_scan"}, "fusion_lon": 0.0}, {"lat": 38.8747245, "is_disabled": 0, "type": "electric_scooter", "lon": -77.00937566666667, "bike_id": "f5c7cc2cedfdfffae9da6ef3b35fdcc0", "fusion_lat": 0.0, "name": "f5c7cc2cedfdfffae9da6ef3b35fdcc0", "is_reserved": 0, "rental_uris": {"android": "https://dc.lft.to/lastmile_qr_scan", "ios": "https://dc.lft.to/lastmile_qr_scan"}, "fusion_lon": 0.0}, {"lat": 38.898319, "is_disabled": 0, "type": "electric_scooter", "lon": -77.00936166666666, "bike_id": "2fe45cc6680ed22bf7d7171365d8ff95", "fusion_lat": 0.0, "name": "2fe45cc6680ed22bf7d7171365d8ff95", "is_reserved": 0, "rental_uris": {"android": "https://dc.lft.to/lastmile_qr_scan", "ios": "https://dc.lft.to/lastmile_qr_scan"}, "fusion_lon": 0.0}, {"lat": 38.9061165, "is_disabled": 0, "type": "electric_scooter", "lon": -77.0436525, "bike_id": "41ac36a1ef84cb7e364575b26091a219", "fusion_lat": 0.0, "name": "41ac36a1ef84cb7e364575b26091a219", "is_reserved": 0, "rental_uris": {"android": "https://dc.lft.to/lastmile_qr_scan", "ios": "https://dc.lft.to/lastmile_qr_scan"}, "fusion_lon": 0.0}, {"lat": 38.90286116666667, "is_disabled": 0, "type": "electric_scooter", "lon": -76.9739775, "bike_id": "21a28464fc87925072e89d39364ee8f7", "fusion_lat": 0.0, "name": "21a28464fc87925072e89d39364ee8f7", "is_reserved": 0, "rental_uris": {"android": "https://dc.lft.to/lastmile_qr_scan", "ios": "https://dc.lft.to/lastmile_qr_scan"}, "fusion_lon": 0.0}, {"lat": 38.917051, "is_disabled": 0, "type": "electric_scooter", "lon": -77.031399, "bike_id": "5d3d8fb07fd7a1ba0b5cbb839dc37b67", "fusion_lat": 0.0, "name": "5d3d8fb07fd7a1ba0b5cbb839dc37b67", "is_reserved": 0, "rental_uris": {"android": "https://dc.lft.to/lastmile_qr_scan", "ios": "https://dc.lft.to/lastmile_qr_scan"}, "fusion_lon": 0.0}, {"lat": 38.87067166666667, "is_disabled": 0, "type": "electric_scooter", "lon": -77.00839716666667, "bike_id": "b17615bea07b0eb93e21e85f9e826922", "fusion_lat": 0.0, "name": "b17615bea07b0eb93e21e85f9e826922", "is_reserved": 0, "rental_uris": {"android": "https://dc.lft.to/lastmile_qr_scan", "ios": "https://dc.lft.to/lastmile_qr_scan"}, "fusion_lon": 0.0}, {"lat": 38.91180333333333, "is_disabled": 0, "type": "electric_scooter", "lon": -77.00645733333333, "bike_id": "67c3cd3ecb4aab33fe75a1c6e30904b8", "fusion_lat": 0.0, "name": "67c3cd3ecb4aab33fe75a1c6e30904b8", "is_reserved": 0, "rental_uris": {"android": "https://dc.lft.to/lastmile_qr_scan", "ios": "https://dc.lft.to/lastmile_qr_scan"}, "fusion_lon": 0.0}, {"lat": 38.918209, "is_disabled": 0, "type": "electric_scooter", "lon": -77.01271566666667, "bike_id": "4d9f6ce1263cffdcb6f381d8f50c2b36", "fusion_lat": 0.0, "name": "4d9f6ce1263cffdcb6f381d8f50c2b36", "is_reserved": 0, "rental_uris": {"android": "https://dc.lft.to/lastmile_qr_scan", "ios": "https://dc.lft.to/lastmile_qr_scan"}, "fusion_lon": 0.0}, {"lat": 38.92873216666667, "is_disabled": 0, "type": "electric_bike", "lon": -77.037036, "bike_id": "4fee01430bcc963ad10d48eaea769a5f", "fusion_lat": 0.0, "name": "4fee01430bcc963ad10d48eaea769a5f", "is_reserved": 0, "rental_uris": {"android": "https://dc.lft.to/lastmile_qr_scan", "ios": "https://dc.lft.to/lastmile_qr_scan"}, "fusion_lon": 0.0}, {"lat": 38.917784, "is_disabled": 0, "type": "electric_scooter", "lon": -77.041068, "bike_id": "1c62ba68d86635748d001d806bd75230", "fusion_lat": 0.0, "name": "1c62ba68d86635748d001d806bd75230", "is_reserved": 0, "rental_uris": {"android": "https://dc.lft.to/lastmile_qr_scan", "ios": "https://dc.lft.to/lastmile_qr_scan"}, "fusion_lon": 0.0}, {"lat": 38.9160375, "is_disabled": 0, "type": "electric_scooter", "lon": -77.02405833333333, "bike_id": "8607fbc3c0c0bbc0ad0c75ad4f844dfa", "fusion_lat": 0.0, "name": "8607fbc3c0c0bbc0ad0c75ad4f844dfa", "is_reserved": 0, "rental_uris": {"android": "https://dc.lft.to/lastmile_qr_scan", "ios": "https://dc.lft.to/lastmile_qr_scan"}, "fusion_lon": 0.0}, {"lat": 38.919892, "is_disabled": 0, "type": "electric_scooter", "lon": -76.97302833333333, "bike_id": "a01b04f0d950ed62603073e1e50205dd", "fusion_lat": 0.0, "name": "a01b04f0d950ed62603073e1e50205dd", "is_reserved": 0, "rental_uris": {"android": "https://dc.lft.to/lastmile_qr_scan", "ios": "https://dc.lft.to/lastmile_qr_scan"}, "fusion_lon": 0.0}, {"lat": 38.96562516666667, "is_disabled": 0, "type": "electric_bike", "lon": -77.02301433333334, "bike_id": "19f97c2d13be7e7682490d0960d5c288", "fusion_lat": 0.0, "name": "19f97c2d13be7e7682490d0960d5c288", "is_reserved": 0, "rental_uris": {"android": "https://dc.lft.to/lastmile_qr_scan", "ios": "https://dc.lft.to/lastmile_qr_scan"}, "fusion_lon": 0.0}, {"lat": 38.908701666666666, "is_disabled": 0, "type": "electric_scooter", "lon": -77.04661266666666, "bike_id": "a90b07630e3c31d62e4c570a9abde1fc", "fusion_lat": 0.0, "name": "a90b07630e3c31d62e4c570a9abde1fc", "is_reserved": 0, "rental_uris": {"android": "https://dc.lft.to/lastmile_qr_scan", "ios": "https://dc.lft.to/lastmile_qr_scan"}, "fusion_lon": 0.0}, {"lat": 38.937414833333335, "is_disabled": 0, "type": "electric_scooter", "lon": -77.03613416666667, "bike_id": "24ac1a90e723cb2267ecca1cae410e06", "fusion_lat": 0.0, "name": "24ac1a90e723cb2267ecca1cae410e06", "is_reserved": 0, "rental_uris": {"android": "https://dc.lft.to/lastmile_qr_scan", "ios": "https://dc.lft.to/lastmile_qr_scan"}, "fusion_lon": 0.0}, {"lat": 38.8984265, "is_disabled": 0, "type": "electric_scooter", "lon": -77.030283, "bike_id": "419d91ab404dfc7989b17a9397d43069", "fusion_lat": 0.0, "name": "419d91ab404dfc7989b17a9397d43069", "is_reserved": 0, "rental_uris": {"android": "https://dc.lft.to/lastmile_qr_scan", "ios": "https://dc.lft.to/lastmile_qr_scan"}, "fusion_lon": 0.0}, {"lat": 38.916259833333335, "is_disabled": 0, "type": "electric_scooter", "lon": -77.031547, "bike_id": "5481c8ddf424f22fd123124cc49a263c", "fusion_lat": 0.0, "name": "5481c8ddf424f22fd123124cc49a263c", "is_reserved": 0, "rental_uris": {"android": "https://dc.lft.to/lastmile_qr_scan", "ios": "https://dc.lft.to/lastmile_qr_scan"}, "fusion_lon": 0.0}, {"lat": 38.9408925, "is_disabled": 0, "type": "electric_scooter", "lon": -77.06137616666666, "bike_id": "dc17e1f72b1c1b0290a6f778db05bf83", "fusion_lat": 0.0, "name": "dc17e1f72b1c1b0290a6f778db05bf83", "is_reserved": 0, "rental_uris": {"android": "https://dc.lft.to/lastmile_qr_scan", "ios": "https://dc.lft.to/lastmile_qr_scan"}, "fusion_lon": 0.0}, {"lat": 38.930914, "is_disabled": 0, "type": "electric_scooter", "lon": -77.03136916666666, "bike_id": "ef70a36bd3a1f4d67ce2a4ca2e0829bb", "fusion_lat": 0.0, "name": "ef70a36bd3a1f4d67ce2a4ca2e0829bb", "is_reserved": 0, "rental_uris": {"android": "https://dc.lft.to/lastmile_qr_scan", "ios": "https://dc.lft.to/lastmile_qr_scan"}, "fusion_lon": 0.0}, {"lat": 38.93980033333333, "is_disabled": 0, "type": "electric_scooter", "lon": -77.028821, "bike_id": "f75e647d75179d08621134137113a542", "fusion_lat": 0.0, "name": "f75e647d75179d08621134137113a542", "is_reserved": 0, "rental_uris": {"android": "https://dc.lft.to/lastmile_qr_scan", "ios": "https://dc.lft.to/lastmile_qr_scan"}, "fusion_lon": 0.0}, {"lat": 38.949050666666665, "is_disabled": 0, "type": "electric_bike", "lon": -76.97237916666667, "bike_id": "a47a93df33d941369d9f36d564d35ddc", "fusion_lat": 0.0, "name": "a47a93df33d941369d9f36d564d35ddc", "is_reserved": 0, "rental_uris": {"android": "https://dc.lft.to/lastmile_qr_scan", "ios": "https://dc.lft.to/lastmile_qr_scan"}, "fusion_lon": 0.0}, {"lat": 38.924010333333335, "is_disabled": 0, "type": "electric_scooter", "lon": -77.026977, "bike_id": "d5bfe7976d3141c525e7c2835083fd2e", "fusion_lat": 0.0, "name": "d5bfe7976d3141c525e7c2835083fd2e", "is_reserved": 0, "rental_uris": {"android": "https://dc.lft.to/lastmile_qr_scan", "ios": "https://dc.lft.to/lastmile_qr_scan"}, "fusion_lon": 0.0}, {"lat": 38.9135275, "is_disabled": 0, "type": "electric_scooter", "lon": -77.0152435, "bike_id": "69b554b22bd8038f74bf11479ea320d1", "fusion_lat": 0.0, "name": "69b554b22bd8038f74bf11479ea320d1", "is_reserved": 0, "rental_uris": {"android": "https://dc.lft.to/lastmile_qr_scan", "ios": "https://dc.lft.to/lastmile_qr_scan"}, "fusion_lon": 0.0}, {"lat": 38.9041715, "is_disabled": 0, "type": "electric_scooter", "lon": -76.99073666666666, "bike_id": "ef21700e4a6da038ddd2efb2779ac944", "fusion_lat": 0.0, "name": "ef21700e4a6da038ddd2efb2779ac944", "is_reserved": 0, "rental_uris": {"android": "https://dc.lft.to/lastmile_qr_scan", "ios": "https://dc.lft.to/lastmile_qr_scan"}, "fusion_lon": 0.0}, {"lat": 38.91266783333333, "is_disabled": 0, "type": "electric_scooter", "lon": -77.00489716666667, "bike_id": "95cdd8cbacf2b41f7bd7d994275ed0c2", "fusion_lat": 0.0, "name": "95cdd8cbacf2b41f7bd7d994275ed0c2", "is_reserved": 0, "rental_uris": {"android": "https://dc.lft.to/lastmile_qr_scan", "ios": "https://dc.lft.to/lastmile_qr_scan"}, "fusion_lon": 0.0}, {"lat": 38.9046795, "is_disabled": 0, "type": "electric_scooter", "lon": -77.00727916666666, "bike_id": "74adfbdb69919d2665354523c2f7c1b4", "fusion_lat": 0.0, "name": "74adfbdb69919d2665354523c2f7c1b4", "is_reserved": 0, "rental_uris": {"android": "https://dc.lft.to/lastmile_qr_scan", "ios": "https://dc.lft.to/lastmile_qr_scan"}, "fusion_lon": 0.0}, {"lat": 38.90850483333333, "is_disabled": 0, "type": "electric_scooter", "lon": -77.03865366666666, "bike_id": "9b4098bf482d77feffafdf3d6268164d", "fusion_lat": 0.0, "name": "9b4098bf482d77feffafdf3d6268164d", "is_reserved": 0, "rental_uris": {"android": "https://dc.lft.to/lastmile_qr_scan", "ios": "https://dc.lft.to/lastmile_qr_scan"}, "fusion_lon": 0.0}, {"lat": 38.9096215, "is_disabled": 0, "type": "electric_scooter", "lon": -77.0268495, "bike_id": "a42484741ff71ddda0638490b5ab8fa9", "fusion_lat": 0.0, "name": "a42484741ff71ddda0638490b5ab8fa9", "is_reserved": 0, "rental_uris": {"android": "https://dc.lft.to/lastmile_qr_scan", "ios": "https://dc.lft.to/lastmile_qr_scan"}, "fusion_lon": 0.0}, {"lat": 38.90143316666666, "is_disabled": 0, "type": "electric_scooter", "lon": -76.9805565, "bike_id": "9f4c74ed3c0d1263aa8a0f962c4c52cf", "fusion_lat": 0.0, "name": "9f4c74ed3c0d1263aa8a0f962c4c52cf", "is_reserved": 0, "rental_uris": {"android": "https://dc.lft.to/lastmile_qr_scan", "ios": "https://dc.lft.to/lastmile_qr_scan"}, "fusion_lon": 0.0}, {"lat": 38.919781666666665, "is_disabled": 0, "type": "electric_scooter", "lon": -77.00017883333334, "bike_id": "40b940724d40bf5f7ad13c4619bc2735", "fusion_lat": 0.0, "name": "40b940724d40bf5f7ad13c4619bc2735", "is_reserved": 0, "rental_uris": {"android": "https://dc.lft.to/lastmile_qr_scan", "ios": "https://dc.lft.to/lastmile_qr_scan"}, "fusion_lon": 0.0}, {"lat": 38.92418466666667, "is_disabled": 0, "type": "electric_scooter", "lon": -77.04569916666667, "bike_id": "b7af646d728800c5617c9ac69dc9e104", "fusion_lat": 0.0, "name": "b7af646d728800c5617c9ac69dc9e104", "is_reserved": 0, "rental_uris": {"android": "https://dc.lft.to/lastmile_qr_scan", "ios": "https://dc.lft.to/lastmile_qr_scan"}, "fusion_lon": 0.0}, {"lat": 38.92025816666667, "is_disabled": 0, "type": "electric_scooter", "lon": -77.04192916666666, "bike_id": "b5bb80ccbb949c7bcaf9f7ba5b751b52", "fusion_lat": 0.0, "name": "b5bb80ccbb949c7bcaf9f7ba5b751b52", "is_reserved": 0, "rental_uris": {"android": "https://dc.lft.to/lastmile_qr_scan", "ios": "https://dc.lft.to/lastmile_qr_scan"}, "fusion_lon": 0.0}, {"lat": 38.879589, "is_disabled": 0, "type": "electric_scooter", "lon": -77.005823, "bike_id": "d10d787a05ff3801f1c669dbb00f0882", "fusion_lat": 0.0, "name": "d10d787a05ff3801f1c669dbb00f0882", "is_reserved": 0, "rental_uris": {"android": "https://dc.lft.to/lastmile_qr_scan", "ios": "https://dc.lft.to/lastmile_qr_scan"}, "fusion_lon": 0.0}, {"lat": 38.8461255, "is_disabled": 0, "type": "electric_bike", "lon": -76.96900733333334, "bike_id": "0df7249684a9e1da250e1afc6455a7df", "fusion_lat": 0.0, "name": "0df7249684a9e1da250e1afc6455a7df", "is_reserved": 0, "rental_uris": {"android": "https://dc.lft.to/lastmile_qr_scan", "ios": "https://dc.lft.to/lastmile_qr_scan"}, "fusion_lon": 0.0}, {"lat": 38.9341415, "is_disabled": 0, "type": "electric_bike", "lon": -77.025087, "bike_id": "0fc52c03d7c0371318d4f308ca79bc94", "fusion_lat": 0.0, "name": "0fc52c03d7c0371318d4f308ca79bc94", "is_reserved": 0, "rental_uris": {"android": "https://dc.lft.to/lastmile_qr_scan", "ios": "https://dc.lft.to/lastmile_qr_scan"}, "fusion_lon": 0.0}, {"lat": 38.91977266666667, "is_disabled": 0, "type": "electric_scooter", "lon": -77.00016, "bike_id": "a7a6cbe2961fe17163f9fcad5fc27d90", "fusion_lat": 0.0, "name": "a7a6cbe2961fe17163f9fcad5fc27d90", "is_reserved": 0, "rental_uris": {"android": "https://dc.lft.to/lastmile_qr_scan", "ios": "https://dc.lft.to/lastmile_qr_scan"}, "fusion_lon": 0.0}, {"lat": 38.9036585, "is_disabled": 0, "type": "electric_scooter", "lon": -77.062852, "bike_id": "b972247bc6196bd56ed58943d4aafcf5", "fusion_lat": 0.0, "name": "b972247bc6196bd56ed58943d4aafcf5", "is_reserved": 0, "rental_uris": {"android": "https://dc.lft.to/lastmile_qr_scan", "ios": "https://dc.lft.to/lastmile_qr_scan"}, "fusion_lon": 0.0}, {"lat": 38.924814166666664, "is_disabled": 0, "type": "electric_scooter", "lon": -77.052128, "bike_id": "ac2c6dee3769cdbabf513ac264dcf05c", "fusion_lat": 0.0, "name": "ac2c6dee3769cdbabf513ac264dcf05c", "is_reserved": 0, "rental_uris": {"android": "https://dc.lft.to/lastmile_qr_scan", "ios": "https://dc.lft.to/lastmile_qr_scan"}, "fusion_lon": 0.0}, {"lat": 38.931758, "is_disabled": 0, "type": "electric_scooter", "lon": -77.02813266666666, "bike_id": "8f1efbe2ceb8fbfdb9145195d7b490a3", "fusion_lat": 0.0, "name": "8f1efbe2ceb8fbfdb9145195d7b490a3", "is_reserved": 0, "rental_uris": {"android": "https://dc.lft.to/lastmile_qr_scan", "ios": "https://dc.lft.to/lastmile_qr_scan"}, "fusion_lon": 0.0}, {"lat": 38.89501816666667, "is_disabled": 0, "type": "electric_scooter", "lon": -77.022968, "bike_id": "6c7409ac3a73b000ba765af55191f8e0", "fusion_lat": 0.0, "name": "6c7409ac3a73b000ba765af55191f8e0", "is_reserved": 0, "rental_uris": {"android": "https://dc.lft.to/lastmile_qr_scan", "ios": "https://dc.lft.to/lastmile_qr_scan"}, "fusion_lon": 0.0}, {"lat": 38.902932, "is_disabled": 0, "type": "electric_scooter", "lon": -77.02610616666666, "bike_id": "bec1ddd21bd45239bf85d9e4197689c9", "fusion_lat": 0.0, "name": "bec1ddd21bd45239bf85d9e4197689c9", "is_reserved": 0, "rental_uris": {"android": "https://dc.lft.to/lastmile_qr_scan", "ios": "https://dc.lft.to/lastmile_qr_scan"}, "fusion_lon": 0.0}, {"lat": 38.90555366666667, "is_disabled": 0, "type": "electric_scooter", "lon": -77.03408833333333, "bike_id": "6cb167e76914c10ce5b02f54df14b58a", "fusion_lat": 0.0, "name": "6cb167e76914c10ce5b02f54df14b58a", "is_reserved": 0, "rental_uris": {"android": "https://dc.lft.to/lastmile_qr_scan", "ios": "https://dc.lft.to/lastmile_qr_scan"}, "fusion_lon": 0.0}, {"lat": 38.941723333333336, "is_disabled": 0, "type": "electric_scooter", "lon": -77.02336533333333, "bike_id": "2529959254c3904840ae8df57918d473", "fusion_lat": 0.0, "name": "2529959254c3904840ae8df57918d473", "is_reserved": 0, "rental_uris": {"android": "https://dc.lft.to/lastmile_qr_scan", "ios": "https://dc.lft.to/lastmile_qr_scan"}, "fusion_lon": 0.0}, {"lat": 38.89359, "is_disabled": 0, "type": "electric_scooter", "lon": -76.94975633333334, "bike_id": "415c6dacff5f9d1e39a3805697c25fe9", "fusion_lat": 0.0, "name": "415c6dacff5f9d1e39a3805697c25fe9", "is_reserved": 0, "rental_uris": {"android": "https://dc.lft.to/lastmile_qr_scan", "ios": "https://dc.lft.to/lastmile_qr_scan"}, "fusion_lon": 0.0}, {"lat": 38.9259265, "is_disabled": 0, "type": "electric_scooter", "lon": -77.0322725, "bike_id": "0ea7274c4aa4330afcff7bda37a1c100", "fusion_lat": 0.0, "name": "0ea7274c4aa4330afcff7bda37a1c100", "is_reserved": 0, "rental_uris": {"android": "https://dc.lft.to/lastmile_qr_scan", "ios": "https://dc.lft.to/lastmile_qr_scan"}, "fusion_lon": 0.0}, {"lat": 38.84658366666667, "is_disabled": 0, "type": "electric_bike", "lon": -76.97927433333334, "bike_id": "4845fbd86001e39f82563f8ce685b759", "fusion_lat": 0.0, "name": "4845fbd86001e39f82563f8ce685b759", "is_reserved": 0, "rental_uris": {"android": "https://dc.lft.to/lastmile_qr_scan", "ios": "https://dc.lft.to/lastmile_qr_scan"}, "fusion_lon": 0.0}, {"lat": 38.8690705, "is_disabled": 0, "type": "electric_bike", "lon": -77.131791, "bike_id": "cbc8e867a89ea1623d4608d20f01109f", "fusion_lat": 0.0, "name": "cbc8e867a89ea1623d4608d20f01109f", "is_reserved": 0, "rental_uris": {"android": "https://dc.lft.to/lastmile_qr_scan", "ios": "https://dc.lft.to/lastmile_qr_scan"}, "fusion_lon": 0.0}, {"lat": 38.90551216666667, "is_disabled": 0, "type": "electric_scooter", "lon": -77.034111, "bike_id": "acac027c1acf6969c77c2542a8133472", "fusion_lat": 0.0, "name": "acac027c1acf6969c77c2542a8133472", "is_reserved": 0, "rental_uris": {"android": "https://dc.lft.to/lastmile_qr_scan", "ios": "https://dc.lft.to/lastmile_qr_scan"}, "fusion_lon": 0.0}, {"lat": 38.894731, "is_disabled": 0, "type": "electric_scooter", "lon": -77.02116366666667, "bike_id": "c2595cfd87cdf14992da454f8381c1dd", "fusion_lat": 0.0, "name": "c2595cfd87cdf14992da454f8381c1dd", "is_reserved": 0, "rental_uris": {"android": "https://dc.lft.to/lastmile_qr_scan", "ios": "https://dc.lft.to/lastmile_qr_scan"}, "fusion_lon": 0.0}, {"lat": 38.91987533333333, "is_disabled": 0, "type": "electric_scooter", "lon": -77.0323645, "bike_id": "f8cd90a6040b7196dd3fcb5dd584e9b2", "fusion_lat": 0.0, "name": "f8cd90a6040b7196dd3fcb5dd584e9b2", "is_reserved": 0, "rental_uris": {"android": "https://dc.lft.to/lastmile_qr_scan", "ios": "https://dc.lft.to/lastmile_qr_scan"}, "fusion_lon": 0.0}, {"lat": 38.942905, "is_disabled": 0, "type": "electric_scooter", "lon": -77.07716516666666, "bike_id": "7d35f192244ec5b2512650b66c2beeec", "fusion_lat": 0.0, "name": "7d35f192244ec5b2512650b66c2beeec", "is_reserved": 0, "rental_uris": {"android": "https://dc.lft.to/lastmile_qr_scan", "ios": "https://dc.lft.to/lastmile_qr_scan"}, "fusion_lon": 0.0}, {"lat": 38.910456, "is_disabled": 0, "type": "electric_scooter", "lon": -77.015082, "bike_id": "c15d1dbf901ae2967cb8bd0400c8704d", "fusion_lat": 0.0, "name": "c15d1dbf901ae2967cb8bd0400c8704d", "is_reserved": 0, "rental_uris": {"android": "https://dc.lft.to/lastmile_qr_scan", "ios": "https://dc.lft.to/lastmile_qr_scan"}, "fusion_lon": 0.0}, {"lat": 38.93285433333333, "is_disabled": 0, "type": "electric_scooter", "lon": -77.03970783333334, "bike_id": "39117d6f340b05bb7fff342c3d0249f6", "fusion_lat": 0.0, "name": "39117d6f340b05bb7fff342c3d0249f6", "is_reserved": 0, "rental_uris": {"android": "https://dc.lft.to/lastmile_qr_scan", "ios": "https://dc.lft.to/lastmile_qr_scan"}, "fusion_lon": 0.0}, {"lat": 38.923338666666666, "is_disabled": 0, "type": "electric_scooter", "lon": -77.04468616666666, "bike_id": "4747184e425feb3748c0b99cedf9a8d8", "fusion_lat": 0.0, "name": "4747184e425feb3748c0b99cedf9a8d8", "is_reserved": 0, "rental_uris": {"android": "https://dc.lft.to/lastmile_qr_scan", "ios": "https://dc.lft.to/lastmile_qr_scan"}, "fusion_lon": 0.0}, {"lat": 38.91122433333334, "is_disabled": 0, "type": "electric_bike", "lon": -76.98567066666666, "bike_id": "d474182072535c8f5c5abc1bb0dfc6ab", "fusion_lat": 0.0, "name": "d474182072535c8f5c5abc1bb0dfc6ab", "is_reserved": 0, "rental_uris": {"android": "https://dc.lft.to/lastmile_qr_scan", "ios": "https://dc.lft.to/lastmile_qr_scan"}, "fusion_lon": 0.0}, {"lat": 38.911077666666664, "is_disabled": 0, "type": "electric_scooter", "lon": -77.03707133333333, "bike_id": "6828eabb094e81370006600ca84666df", "fusion_lat": 0.0, "name": "6828eabb094e81370006600ca84666df", "is_reserved": 0, "rental_uris": {"android": "https://dc.lft.to/lastmile_qr_scan", "ios": "https://dc.lft.to/lastmile_qr_scan"}, "fusion_lon": 0.0}, {"lat": 38.8659725, "is_disabled": 0, "type": "electric_bike", "lon": -76.93225366666667, "bike_id": "c0530e0eb42f999000f46b63979a41f1", "fusion_lat": 0.0, "name": "c0530e0eb42f999000f46b63979a41f1", "is_reserved": 0, "rental_uris": {"android": "https://dc.lft.to/lastmile_qr_scan", "ios": "https://dc.lft.to/lastmile_qr_scan"}, "fusion_lon": 0.0}, {"lat": 38.916596166666665, "is_disabled": 0, "type": "electric_scooter", "lon": -77.04283833333334, "bike_id": "d83851a5b6702a73c68c189f7cfe4133", "fusion_lat": 0.0, "name": "d83851a5b6702a73c68c189f7cfe4133", "is_reserved": 0, "rental_uris": {"android": "https://dc.lft.to/lastmile_qr_scan", "ios": "https://dc.lft.to/lastmile_qr_scan"}, "fusion_lon": 0.0}, {"lat": 38.90648, "is_disabled": 0, "type": "electric_scooter", "lon": -77.01206083333334, "bike_id": "ab83c2692825cdf3c231c3f615ba3fdc", "fusion_lat": 0.0, "name": "ab83c2692825cdf3c231c3f615ba3fdc", "is_reserved": 0, "rental_uris": {"android": "https://dc.lft.to/lastmile_qr_scan", "ios": "https://dc.lft.to/lastmile_qr_scan"}, "fusion_lon": 0.0}, {"lat": 38.91073016666667, "is_disabled": 0, "type": "electric_scooter", "lon": -77.01637916666667, "bike_id": "461ded3c934126189a4c61bca0ae6c6e", "fusion_lat": 0.0, "name": "461ded3c934126189a4c61bca0ae6c6e", "is_reserved": 0, "rental_uris": {"android": "https://dc.lft.to/lastmile_qr_scan", "ios": "https://dc.lft.to/lastmile_qr_scan"}, "fusion_lon": 0.0}, {"lat": 38.900778833333334, "is_disabled": 0, "type": "electric_scooter", "lon": -77.00741783333334, "bike_id": "53aeae796c5f378ea1375e5c54c72199", "fusion_lat": 0.0, "name": "53aeae796c5f378ea1375e5c54c72199", "is_reserved": 0, "rental_uris": {"android": "https://dc.lft.to/lastmile_qr_scan", "ios": "https://dc.lft.to/lastmile_qr_scan"}, "fusion_lon": 0.0}, {"lat": 38.952482833333335, "is_disabled": 0, "type": "electric_bike", "lon": -76.982386, "bike_id": "dd0fb1657f70c59f685774f6e3b082e3", "fusion_lat": 0.0, "name": "dd0fb1657f70c59f685774f6e3b082e3", "is_reserved": 0, "rental_uris": {"android": "https://dc.lft.to/lastmile_qr_scan", "ios": "https://dc.lft.to/lastmile_qr_scan"}, "fusion_lon": 0.0}, {"lat": 38.9202875, "is_disabled": 0, "type": "electric_scooter", "lon": -77.04399483333333, "bike_id": "01d42a596e4e18bca29b596afd9f3ec9", "fusion_lat": 0.0, "name": "01d42a596e4e18bca29b596afd9f3ec9", "is_reserved": 0, "rental_uris": {"android": "https://dc.lft.to/lastmile_qr_scan", "ios": "https://dc.lft.to/lastmile_qr_scan"}, "fusion_lon": 0.0}, {"lat": 38.8963785, "is_disabled": 0, "type": "electric_scooter", "lon": -77.03190683333334, "bike_id": "056fa346516f1e0e94c0e0b53a27f07e", "fusion_lat": 0.0, "name": "056fa346516f1e0e94c0e0b53a27f07e", "is_reserved": 0, "rental_uris": {"android": "https://dc.lft.to/lastmile_qr_scan", "ios": "https://dc.lft.to/lastmile_qr_scan"}, "fusion_lon": 0.0}, {"lat": 38.932284333333335, "is_disabled": 0, "type": "electric_scooter", "lon": -77.04410766666666, "bike_id": "c83c205809eb7028351b372b5a53c913", "fusion_lat": 0.0, "name": "c83c205809eb7028351b372b5a53c913", "is_reserved": 0, "rental_uris": {"android": "https://dc.lft.to/lastmile_qr_scan", "ios": "https://dc.lft.to/lastmile_qr_scan"}, "fusion_lon": 0.0}, {"lat": 38.927911, "is_disabled": 0, "type": "electric_scooter", "lon": -77.03146366666667, "bike_id": "89dc2b84f5bbc0d2d45294b35441b971", "fusion_lat": 0.0, "name": "89dc2b84f5bbc0d2d45294b35441b971", "is_reserved": 0, "rental_uris": {"android": "https://dc.lft.to/lastmile_qr_scan", "ios": "https://dc.lft.to/lastmile_qr_scan"}, "fusion_lon": 0.0}, {"lat": 38.8522345, "is_disabled": 0, "type": "electric_bike", "lon": -77.1295495, "bike_id": "adf824e6f53e62906f677e124ba15dd2", "fusion_lat": 0.0, "name": "adf824e6f53e62906f677e124ba15dd2", "is_reserved": 0, "rental_uris": {"android": "https://dc.lft.to/lastmile_qr_scan", "ios": "https://dc.lft.to/lastmile_qr_scan"}, "fusion_lon": 0.0}, {"lat": 38.902575166666665, "is_disabled": 0, "type": "electric_scooter", "lon": -77.01838633333334, "bike_id": "11e0eec3fcb4e2a5a49dd37fe76ffb1a", "fusion_lat": 0.0, "name": "11e0eec3fcb4e2a5a49dd37fe76ffb1a", "is_reserved": 0, "rental_uris": {"android": "https://dc.lft.to/lastmile_qr_scan", "ios": "https://dc.lft.to/lastmile_qr_scan"}, "fusion_lon": 0.0}, {"lat": 38.96219033333333, "is_disabled": 0, "type": "electric_bike", "lon": -77.02784816666667, "bike_id": "a108fcfe202adffec89785197f32b6a5", "fusion_lat": 0.0, "name": "a108fcfe202adffec89785197f32b6a5", "is_reserved": 0, "rental_uris": {"android": "https://dc.lft.to/lastmile_qr_scan", "ios": "https://dc.lft.to/lastmile_qr_scan"}, "fusion_lon": 0.0}, {"lat": 38.921709, "is_disabled": 0, "type": "electric_scooter", "lon": -77.051358, "bike_id": "535a36b5ac7bc8c27c4d5407827504d1", "fusion_lat": 0.0, "name": "535a36b5ac7bc8c27c4d5407827504d1", "is_reserved": 0, "rental_uris": {"android": "https://dc.lft.to/lastmile_qr_scan", "ios": "https://dc.lft.to/lastmile_qr_scan"}, "fusion_lon": 0.0}, {"lat": 38.898981, "is_disabled": 0, "type": "electric_scooter", "lon": -77.0036975, "bike_id": "21815f4fe1015d7dbd9589c901040ff9", "fusion_lat": 0.0, "name": "21815f4fe1015d7dbd9589c901040ff9", "is_reserved": 0, "rental_uris": {"android": "https://dc.lft.to/lastmile_qr_scan", "ios": "https://dc.lft.to/lastmile_qr_scan"}, "fusion_lon": 0.0}, {"lat": 38.934605166666664, "is_disabled": 0, "type": "electric_scooter", "lon": -77.03235933333333, "bike_id": "5e97edc1dab506d3f5c92d30afd2982c", "fusion_lat": 0.0, "name": "5e97edc1dab506d3f5c92d30afd2982c", "is_reserved": 0, "rental_uris": {"android": "https://dc.lft.to/lastmile_qr_scan", "ios": "https://dc.lft.to/lastmile_qr_scan"}, "fusion_lon": 0.0}, {"lat": 38.9859775, "is_disabled": 0, "type": "electric_bike", "lon": -77.03754816666667, "bike_id": "cdce2d16ea001ce84e8d5cd59a722c73", "fusion_lat": 0.0, "name": "cdce2d16ea001ce84e8d5cd59a722c73", "is_reserved": 0, "rental_uris": {"android": "https://dc.lft.to/lastmile_qr_scan", "ios": "https://dc.lft.to/lastmile_qr_scan"}, "fusion_lon": 0.0}, {"lat": 38.89223533333333, "is_disabled": 0, "type": "electric_scooter", "lon": -77.0397625, "bike_id": "92672e09f6140e88c510a974be50f40d", "fusion_lat": 0.0, "name": "92672e09f6140e88c510a974be50f40d", "is_reserved": 0, "rental_uris": {"android": "https://dc.lft.to/lastmile_qr_scan", "ios": "https://dc.lft.to/lastmile_qr_scan"}, "fusion_lon": 0.0}, {"lat": 38.917094, "is_disabled": 0, "type": "electric_scooter", "lon": -77.03099683333333, "bike_id": "4143638f324ea49a0834b38309f2a2b7", "fusion_lat": 0.0, "name": "4143638f324ea49a0834b38309f2a2b7", "is_reserved": 0, "rental_uris": {"android": "https://dc.lft.to/lastmile_qr_scan", "ios": "https://dc.lft.to/lastmile_qr_scan"}, "fusion_lon": 0.0}, {"lat": 38.8873915, "is_disabled": 0, "type": "electric_scooter", "lon": -77.02070616666667, "bike_id": "99b5421d51276b847cc804d0ed69573a", "fusion_lat": 0.0, "name": "99b5421d51276b847cc804d0ed69573a", "is_reserved": 0, "rental_uris": {"android": "https://dc.lft.to/lastmile_qr_scan", "ios": "https://dc.lft.to/lastmile_qr_scan"}, "fusion_lon": 0.0}, {"lat": 38.92034916666667, "is_disabled": 0, "type": "electric_scooter", "lon": -76.978006, "bike_id": "62c904043ac7eecd6a15b0d4b8f50699", "fusion_lat": 0.0, "name": "62c904043ac7eecd6a15b0d4b8f50699", "is_reserved": 0, "rental_uris": {"android": "https://dc.lft.to/lastmile_qr_scan", "ios": "https://dc.lft.to/lastmile_qr_scan"}, "fusion_lon": 0.0}, {"lat": 38.8671175, "is_disabled": 0, "type": "electric_scooter", "lon": -76.987261, "bike_id": "01d7f72947f7eff113e214a730b21778", "fusion_lat": 0.0, "name": "01d7f72947f7eff113e214a730b21778", "is_reserved": 0, "rental_uris": {"android": "https://dc.lft.to/lastmile_qr_scan", "ios": "https://dc.lft.to/lastmile_qr_scan"}, "fusion_lon": 0.0}, {"lat": 38.944419333333336, "is_disabled": 0, "type": "electric_scooter", "lon": -77.06408366666666, "bike_id": "d68fd1958dc1477a1a5d9c29e286c043", "fusion_lat": 0.0, "name": "d68fd1958dc1477a1a5d9c29e286c043", "is_reserved": 0, "rental_uris": {"android": "https://dc.lft.to/lastmile_qr_scan", "ios": "https://dc.lft.to/lastmile_qr_scan"}, "fusion_lon": 0.0}, {"lat": 38.9004025, "is_disabled": 0, "type": "electric_scooter", "lon": -76.9901605, "bike_id": "dd35cf0c01190115465421e904c661d3", "fusion_lat": 0.0, "name": "dd35cf0c01190115465421e904c661d3", "is_reserved": 0, "rental_uris": {"android": "https://dc.lft.to/lastmile_qr_scan", "ios": "https://dc.lft.to/lastmile_qr_scan"}, "fusion_lon": 0.0}, {"lat": 38.885578333333335, "is_disabled": 0, "type": "electric_scooter", "lon": -77.0199405, "bike_id": "0973706f77320e4362a3c0a47e54d0fd", "fusion_lat": 0.0, "name": "0973706f77320e4362a3c0a47e54d0fd", "is_reserved": 0, "rental_uris": {"android": "https://dc.lft.to/lastmile_qr_scan", "ios": "https://dc.lft.to/lastmile_qr_scan"}, "fusion_lon": 0.0}, {"lat": 38.923868, "is_disabled": 0, "type": "electric_scooter", "lon": -77.03662116666666, "bike_id": "34b87c40431c7de51ad7c939923572ed", "fusion_lat": 0.0, "name": "34b87c40431c7de51ad7c939923572ed", "is_reserved": 0, "rental_uris": {"android": "https://dc.lft.to/lastmile_qr_scan", "ios": "https://dc.lft.to/lastmile_qr_scan"}, "fusion_lon": 0.0}, {"lat": 38.921667166666666, "is_disabled": 0, "type": "electric_scooter", "lon": -77.076994, "bike_id": "232ffe1a39433b5e694bc4ff57d5c2bc", "fusion_lat": 0.0, "name": "232ffe1a39433b5e694bc4ff57d5c2bc", "is_reserved": 0, "rental_uris": {"android": "https://dc.lft.to/lastmile_qr_scan", "ios": "https://dc.lft.to/lastmile_qr_scan"}, "fusion_lon": 0.0}, {"lat": 38.8367615, "is_disabled": 0, "type": "electric_scooter", "lon": -77.00574683333333, "bike_id": "047d8c7eaedc1e09e658ffb99022d2e5", "fusion_lat": 0.0, "name": "047d8c7eaedc1e09e658ffb99022d2e5", "is_reserved": 0, "rental_uris": {"android": "https://dc.lft.to/lastmile_qr_scan", "ios": "https://dc.lft.to/lastmile_qr_scan"}, "fusion_lon": 0.0}, {"lat": 38.917912666666666, "is_disabled": 0, "type": "electric_scooter", "lon": -77.02315116666666, "bike_id": "96ec90d429d21f61ef04e8a24d79d705", "fusion_lat": 0.0, "name": "96ec90d429d21f61ef04e8a24d79d705", "is_reserved": 0, "rental_uris": {"android": "https://dc.lft.to/lastmile_qr_scan", "ios": "https://dc.lft.to/lastmile_qr_scan"}, "fusion_lon": 0.0}, {"lat": 38.90868, "is_disabled": 0, "type": "electric_scooter", "lon": -77.04591966666666, "bike_id": "f0df4a1af34b397da94990b55487c056", "fusion_lat": 0.0, "name": "f0df4a1af34b397da94990b55487c056", "is_reserved": 0, "rental_uris": {"android": "https://dc.lft.to/lastmile_qr_scan", "ios": "https://dc.lft.to/lastmile_qr_scan"}, "fusion_lon": 0.0}, {"lat": 38.9217285, "is_disabled": 0, "type": "electric_scooter", "lon": -77.04003333333333, "bike_id": "18f092f5498b41411b3127d34601c307", "fusion_lat": 0.0, "name": "18f092f5498b41411b3127d34601c307", "is_reserved": 0, "rental_uris": {"android": "https://dc.lft.to/lastmile_qr_scan", "ios": "https://dc.lft.to/lastmile_qr_scan"}, "fusion_lon": 0.0}, {"lat": 38.870086, "is_disabled": 0, "type": "electric_bike", "lon": -76.96020733333333, "bike_id": "affcfcbf612c4aa71d3e819d444ccd92", "fusion_lat": 0.0, "name": "affcfcbf612c4aa71d3e819d444ccd92", "is_reserved": 0, "rental_uris": {"android": "https://dc.lft.to/lastmile_qr_scan", "ios": "https://dc.lft.to/lastmile_qr_scan"}, "fusion_lon": 0.0}, {"lat": 38.89229383333333, "is_disabled": 0, "type": "electric_scooter", "lon": -77.05005883333334, "bike_id": "b3768874905efaef9d3986c6db11bdd6", "fusion_lat": 0.0, "name": "b3768874905efaef9d3986c6db11bdd6", "is_reserved": 0, "rental_uris": {"android": "https://dc.lft.to/lastmile_qr_scan", "ios": "https://dc.lft.to/lastmile_qr_scan"}, "fusion_lon": 0.0}, {"lat": 38.93498483333333, "is_disabled": 0, "type": "electric_scooter", "lon": -77.05799383333333, "bike_id": "0dde9a1439bc1e961ecce14d6503c140", "fusion_lat": 0.0, "name": "0dde9a1439bc1e961ecce14d6503c140", "is_reserved": 0, "rental_uris": {"android": "https://dc.lft.to/lastmile_qr_scan", "ios": "https://dc.lft.to/lastmile_qr_scan"}, "fusion_lon": 0.0}, {"lat": 38.933475, "is_disabled": 0, "type": "electric_scooter", "lon": -77.05702533333333, "bike_id": "14bdcfdd9265294b6a002ac1858a77a7", "fusion_lat": 0.0, "name": "14bdcfdd9265294b6a002ac1858a77a7", "is_reserved": 0, "rental_uris": {"android": "https://dc.lft.to/lastmile_qr_scan", "ios": "https://dc.lft.to/lastmile_qr_scan"}, "fusion_lon": 0.0}, {"lat": 38.948062666666665, "is_disabled": 0, "type": "electric_scooter", "lon": -77.07907966666667, "bike_id": "1162fc49bcb57769fdbd93606aceb3fa", "fusion_lat": 0.0, "name": "1162fc49bcb57769fdbd93606aceb3fa", "is_reserved": 0, "rental_uris": {"android": "https://dc.lft.to/lastmile_qr_scan", "ios": "https://dc.lft.to/lastmile_qr_scan"}, "fusion_lon": 0.0}, {"lat": 38.8842545, "is_disabled": 0, "type": "electric_scooter", "lon": -77.030509, "bike_id": "5fbc8d03a5e154620a3b35535b30c6c3", "fusion_lat": 0.0, "name": "5fbc8d03a5e154620a3b35535b30c6c3", "is_reserved": 0, "rental_uris": {"android": "https://dc.lft.to/lastmile_qr_scan", "ios": "https://dc.lft.to/lastmile_qr_scan"}, "fusion_lon": 0.0},