{"data": {"bikes": [{"is_reserved": 0, "type": "electric_scooter", "bike_id": "6db03abde4be422bf55d962820d2eb08", "lat": 38.9319075, "lon": -77.02835266666666, "rental_uris": {"android": "https://dc.lft.to/lastmile_qr_scan", "ios": "https://dc.lft.to/lastmile_qr_scan"}, "is_disabled": 0, "fusion_lat": 0.0, "name": "6db03abde4be422bf55d962820d2eb08", "fusion_lon": 0.0}, {"is_reserved": 0, "type": "electric_scooter", "bike_id": "bc132d33c352445abccd5b7dbf913043", "lat": 38.921891333333335, "lon": -77.0223485, "rental_uris": {"android": "https://dc.lft.to/lastmile_qr_scan", "ios": "https://dc.lft.to/lastmile_qr_scan"}, "is_disabled": 0, "fusion_lat": 0.0, "name": "bc132d33c352445abccd5b7dbf913043", "fusion_lon": 0.0}, {"is_reserved": 0, "type": "electric_bike", "bike_id": "b346eb59a42cb77703fb42bf0a9494ac", "lat": 38.802497833333334, "lon": -77.114405, "rental_uris": {"android": "https://dc.lft.to/lastmile_qr_scan", "ios": "https://dc.lft.to/lastmile_qr_scan"}, "is_disabled": 0, "fusion_lat": 0.0, "name": "b346eb59a42cb77703fb42bf0a9494ac", "fusion_lon": 0.0}, {"is_reserved": 0, "type": "electric_scooter", "bike_id": "1cbd78dcabb5455634a3e915f1bc77c4", "lat": 38.865230833333335, "lon": -76.96910783333334, "rental_uris": {"android": "https://dc.lft.to/lastmile_qr_scan", "ios": "https://dc.lft.to/lastmile_qr_scan"}, "is_disabled": 0, "fusion_lat": 0.0, "name": "1cbd78dcabb5455634a3e915f1bc77c4", "fusion_lon": 0.0}, {"is_reserved": 0, "type": "electric_scooter", "bike_id": "d8c095e601c133f2102e8610391f3135", "lat": 38.922543166666664, "lon": -77.03108833333333, "rental_uris": {"android": "https://dc.lft.to/lastmile_qr_scan", "ios": "https://dc.lft.to/lastmile_qr_scan"}, "is_disabled": 0, "fusion_lat": 0.0, "name": "d8c095e601c133f2102e8610391f3135", "fusion_lon": 0.0}, {"is_reserved": 0, "type": "electric_scooter", "bike_id": "ccbe559c269cab18546c9b28ed6d78d8", "lat": 38.89417066666667, "lon": -77.0560425, "rental_uris": {"android": "https://dc.lft.to/lastmile_qr_scan", "ios": "https://dc.lft.to/lastmile_qr_scan"}, "is_disabled": 0, "fusion_lat": 0.0, "name": "ccbe559c269cab18546c9b28ed6d78d8", "fusion_lon": 0.0}, {"is_reserved": 0, "type": "electric_scooter", "bike_id": "f107c539a361f11dc28c6833d8252383", "lat": 38.915584, "lon": -77.03121783333333, "rental_uris": {"android": "https://dc.lft.to/lastmile_qr_scan", "ios": "https://dc.lft.to/lastmile_qr_scan"}, "is_disabled": 0, "fusion_lat": 0.0, "name": "f107c539a361f11dc28c6833d8252383", "fusion_lon": 0.0}, {"is_reserved": 0, "type": "electric_scooter", "bike_id": "8976421cdce1d8f4faeeaffaf688d841", "lat": 38.896162, "lon": -77.04415166666666, "rental_uris": {"android": "https://dc.lft.to/lastmile_qr_scan", "ios": "https://dc.lft.to/lastmile_qr_scan"}, "is_disabled": 0, "fusion_lat": 0.0, "name": "8976421cdce1d8f4faeeaffaf688d841", "fusion_lon": 0.0}, {"is_reserved": 0, "type": "electric_scooter", "bike_id": "9b4cd479541796bc559bf7078429a302", "lat": 38.91862016666666, "lon": -77.0366395, "rental_uris": {"android": "https://dc.lft.to/lastmile_qr_scan", "ios": "https://dc.lft.to/lastmile_qr_scan"}, "is_disabled": 0, "fusion_lat": 0.0, "name": "9b4cd479541796bc559bf7078429a302", "fusion_lon": 0.0}, {"is_reserved": 0, "type": "electric_scooter", "bike_id": "d23eb68cc7997d7c969909062046009f", "lat": 38.92370116666667, "lon": -77.01910883333333, "rental_uris": {"android": "https://dc.lft.to/lastmile_qr_scan", "ios": "https://dc.lft.to/lastmile_qr_scan"}, "is_disabled": 0, "fusion_lat": 0.0, "name": "d23eb68cc7997d7c969909062046009f", "fusion_lon": 0.0}, {"is_reserved": 0, "type": "electric_scooter", "bike_id": "101f575375018d0f327de7143ff073f2", "lat": 38.91765616666667, "lon": -77.04061116666666, "rental_uris": {"android": "https://dc.lft.to/lastmile_qr_scan", "ios": "https://dc.lft.to/lastmile_qr_scan"}, "is_disabled": 0, "fusion_lat": 0.0, "name": "101f575375018d0f327de7143ff073f2", "fusion_lon": 0.0}, {"is_reserved": 0, "type": "electric_scooter", "bike_id": "18cab53f3a77f50208e0d82e15895500", "lat": 38.925054, "lon": -77.03883483333334, "rental_uris": {"android": "https://dc.lft.to/lastmile_qr_scan", "ios": "https://dc.lft.to/lastmile_qr_scan"}, "is_disabled": 0, "fusion_lat": 0.0, "name": "18cab53f3a77f50208e0d82e15895500", "fusion_lon": 0.0}, {"is_reserved": 0, "type": "electric_scooter", "bike_id": "aef97083fb04e229cf2d5bff075d9f3a", "lat": 38.91797116666667, "lon": -77.02699683333333, "rental_uris": {"android": "https://dc.lft.to/lastmile_qr_scan", "ios": "https://dc.lft.to/lastmile_qr_scan"}, "is_disabled": 0, "fusion_lat": 0.0, "name": "aef97083fb04e229cf2d5bff075d9f3a", "fusion_lon": 0.0}, {"is_reserved": 0, "type": "electric_scooter", "bike_id": "f5b3449cfc1a7f3627e6954355bfa97d", "lat": 38.91612083333333, "lon": -77.037284, "rental_uris": {"android": "https://dc.lft.to/lastmile_qr_scan", "ios": "https://dc.lft.to/lastmile_qr_scan"}, "is_disabled": 0, "fusion_lat": 0.0, "name": "f5b3449cfc1a7f3627e6954355bfa97d", "fusion_lon": 0.0}, {"is_reserved": 0, "type": "electric_scooter", "bike_id": "39cb60b9b8b185841a874af09d3f2ca6", "lat": 38.87788, "lon": -77.01752433333333, "rental_uris": {"android": "https://dc.lft.to/lastmile_qr_scan", "ios": "https://dc.lft.to/lastmile_qr_scan"}, "is_disabled": 0, "fusion_lat": 0.0, "name": "39cb60b9b8b185841a874af09d3f2ca6", "fusion_lon": 0.0}, {"is_reserved": 0, "type": "electric_scooter", "bike_id": "34e3ffd2ab3e559fa983596cab20195e", "lat": 38.95049933333333, "lon": -77.05412133333333, "rental_uris": {"android": "https://dc.lft.to/lastmile_qr_scan", "ios": "https://dc.lft.to/lastmile_qr_scan"}, "is_disabled": 0, "fusion_lat": 0.0, "name": "34e3ffd2ab3e559fa983596cab20195e", "fusion_lon": 0.0}, {"is_reserved": 0, "type": "electric_scooter", "bike_id": "acbee4cce1d8eb882fa181f2e0260478", "lat": 38.931883166666665, "lon": -77.02375, "rental_uris": {"android": "https://dc.lft.to/lastmile_qr_scan", "ios": "https://dc.lft.to/lastmile_qr_scan"}, "is_disabled": 0, "fusion_lat": 0.0, "name": "acbee4cce1d8eb882fa181f2e0260478", "fusion_lon": 0.0}, {"is_reserved": 0, "type": "electric_bike", "bike_id": "8f4bcc98d0eaced8ae493a6d682a30ff", "lat": 38.944678, "lon": -76.986938, "rental_uris": {"android": "https://dc.lft.to/lastmile_qr_scan", "ios": "https://dc.lft.to/lastmile_qr_scan"}, "is_disabled": 0, "fusion_lat": 0.0, "name": "8f4bcc98d0eaced8ae493a6d682a30ff", "fusion_lon": 0.0}, {"is_reserved": 0, "type": "electric_scooter", "bike_id": "cc332d275d726545288a8bf6c2112e86", "lat": 38.89241233333333, "lon": -77.0135005, "rental_uris": {"android": "https://dc.lft.to/lastmile_qr_scan", "ios": "https://dc.lft.to/lastmile_qr_scan"}, "is_disabled": 0, "fusion_lat": 0.0, "name": "cc332d275d726545288a8bf6c2112e86", "fusion_lon": 0.0}, {"is_reserved": 0, "type": "electric_scooter", "bike_id": "5c5983f5d829d7a1c33f22612303d4d4", "lat": 38.91915983333333, "lon": -77.04810683333334, "rental_uris": {"android": "https://dc.lft.to/lastmile_qr_scan", "ios": "https://dc.lft.to/lastmile_qr_scan"}, "is_disabled": 0, "fusion_lat": 0.0, "name": "5c5983f5d829d7a1c33f22612303d4d4", "fusion_lon": 0.0}, {"is_reserved": 0, "type": "electric_scooter", "bike_id": "89b8c1c4c0e84f0d81961f727b53dcce", "lat": 38.896058, "lon": -77.00896683333333, "rental_uris": {"android": "https://dc.lft.to/lastmile_qr_scan", "ios": "https://dc.lft.to/lastmile_qr_scan"}, "is_disabled": 0, "fusion_lat": 0.0, "name": "89b8c1c4c0e84f0d81961f727b53dcce", "fusion_lon": 0.0}, {"is_reserved": 0, "type": "electric_scooter", "bike_id": "6307b927d1d0261fa5a9075fc5d3dcd1", "lat": 38.924335166666665, "lon": -77.00065166666667, "rental_uris": {"android": "https://dc.lft.to/lastmile_qr_scan", "ios": "https://dc.lft.to/lastmile_qr_scan"}, "is_disabled": 0, "fusion_lat": 0.0, "name": "6307b927d1d0261fa5a9075fc5d3dcd1", "fusion_lon": 0.0}, {"is_reserved": 0, "type": "electric_scooter", "bike_id": "fda467aa9738c28d586a7b515c8ee9e6", "lat": 38.90025933333333, "lon": -76.9986635, "rental_uris": {"android": "https://dc.lft.to/lastmile_qr_scan", "ios": "https://dc.lft.to/lastmile_qr_scan"}, "is_disabled": 0, "fusion_lat": 0.0, "name": "fda467aa9738c28d586a7b515c8ee9e6", "fusion_lon": 0.0}, {"is_reserved": 0, "type": "electric_scooter", "bike_id": "9c03d7c38ce6b087798e4236ec7b2ffc", "lat": 38.90613, "lon": -77.02598166666667, "rental_uris": {"android": "https://dc.lft.to/lastmile_qr_scan", "ios": "https://dc.lft.to/lastmile_qr_scan"}, "is_disabled": 0, "fusion_lat": 0.0, "name": "9c03d7c38ce6b087798e4236ec7b2ffc", "fusion_lon": 0.0}, {"is_reserved": 0, "type": "electric_scooter", "bike_id": "668daf5a700a8a851e21f68e0a4fcc1d", "lat": 38.94824283333333, "lon": -77.02577383333333, "rental_uris": {"android": "https://dc.lft.to/lastmile_qr_scan", "ios": "https://dc.lft.to/lastmile_qr_scan"}, "is_disabled": 0, "fusion_lat": 0.0, "name": "668daf5a700a8a851e21f68e0a4fcc1d", "fusion_lon": 0.0}, {"is_reserved": 0, "type": "electric_scooter", "bike_id": "ad2e44ae5f5eea1e5ba84ca9026bacef", "lat": 38.895415, "lon": -76.98339333333334, "rental_uris": {"android": "https://dc.lft.to/lastmile_qr_scan", "ios": "https://dc.lft.to/lastmile_qr_scan"}, "is_disabled": 0, "fusion_lat": 0.0, "name": "ad2e44ae5f5eea1e5ba84ca9026bacef", "fusion_lon": 0.0}, {"is_reserved": 0, "type": "electric_scooter", "bike_id": "3a58925727666bc60f8b5b3cc33ae7dd", "lat": 38.9201425, "lon": -76.995765, "rental_uris": {"android": "https://dc.lft.to/lastmile_qr_scan", "ios": "https://dc.lft.to/lastmile_qr_scan"}, "is_disabled": 0, "fusion_lat": 0.0, "name": "3a58925727666bc60f8b5b3cc33ae7dd", "fusion_lon": 0.0}, {"is_reserved": 0, "type": "electric_scooter", "bike_id": "53ec769d92eca8790346e3a234e8a2f2", "lat": 38.95179616666667, "lon": -77.01267116666666, "rental_uris": {"android": "https://dc.lft.to/lastmile_qr_scan", "ios": "https://dc.lft.to/lastmile_qr_scan"}, "is_disabled": 0, "fusion_lat": 0.0, "name": "53ec769d92eca8790346e3a234e8a2f2", "fusion_lon": 0.0}, {"is_reserved": 0, "type": "electric_scooter", "bike_id": "b70d61286a91a829481a0bf24edbcd57", "lat": 38.90308133333333, "lon": -77.0242425, "rental_uris": {"android": "https://dc.lft.to/lastmile_qr_scan", "ios": "https://dc.lft.to/lastmile_qr_scan"}, "is_disabled": 0, "fusion_lat": 0.0, "name": "b70d61286a91a829481a0bf24edbcd57", "fusion_lon": 0.0}, {"is_reserved": 0, "type": "electric_scooter", "bike_id": "ddf0bf7bba050711ad000f8fda026785", "lat": 38.909719, "lon": -77.01113016666666, "rental_uris": {"android": "https://dc.lft.to/lastmile_qr_scan", "ios": "https://dc.lft.to/lastmile_qr_scan"}, "is_disabled": 0, "fusion_lat": 0.0, "name": "ddf0bf7bba050711ad000f8fda026785", "fusion_lon": 0.0}, {"is_reserved": 0, "type": "electric_scooter", "bike_id": "52147a58b1214f1dcd767d50b76f893d", "lat": 38.860159333333335, "lon": -76.97001833333333, "rental_uris": {"android": "https://dc.lft.to/lastmile_qr_scan", "ios": "https://dc.lft.to/lastmile_qr_scan"}, "is_disabled": 0, "fusion_lat": 0.0, "name": "52147a58b1214f1dcd767d50b76f893d", "fusion_lon": 0.0}, {"is_reserved": 0, "type": "electric_scooter", "bike_id": "442bc65c24aaf5780f00ffec2871dcb7", "lat": 38.92413416666667, "lon": -77.02003633333334, "rental_uris": {"android": "https://dc.lft.to/lastmile_qr_scan", "ios": "https://dc.lft.to/lastmile_qr_scan"}, "is_disabled": 0, "fusion_lat": 0.0, "name": "442bc65c24aaf5780f00ffec2871dcb7", "fusion_lon": 0.0}, {"is_reserved": 0, "type": "electric_scooter", "bike_id": "2704fa4dc996fa203c5c6b104dff26db", "lat": 38.90556466666666, "lon": -77.00581883333334, "rental_uris": {"android": "https://dc.lft.to/lastmile_qr_scan", "ios": "https://dc.lft.to/lastmile_qr_scan"}, "is_disabled": 0, "fusion_lat": 0.0, "name": "2704fa4dc996fa203c5c6b104dff26db", "fusion_lon": 0.0}, {"is_reserved": 0, "type": "electric_scooter", "bike_id": "4b70ccfc7ce56c84346a3f34ff0bb219", "lat": 38.930686666666666, "lon": -77.028162, "rental_uris": {"android": "https://dc.lft.to/lastmile_qr_scan", "ios": "https://dc.lft.to/lastmile_qr_scan"}, "is_disabled": 0, "fusion_lat": 0.0, "name": "4b70ccfc7ce56c84346a3f34ff0bb219", "fusion_lon": 0.0}, {"is_reserved": 0, "type": "electric_scooter", "bike_id": "ea28e6cd272a7ad8265b2ea59f7274ff", "lat": 38.93588283333333, "lon": -77.05715783333333, "rental_uris": {"android": "https://dc.lft.to/lastmile_qr_scan", "ios": "https://dc.lft.to/lastmile_qr_scan"}, "is_disabled": 0, "fusion_lat": 0.0, "name": "ea28e6cd272a7ad8265b2ea59f7274ff", "fusion_lon": 0.0}, {"is_reserved": 0, "type": "electric_scooter", "bike_id": "5ef478a359bd1a980dd47dd924a08a7c", "lat": 38.9049275, "lon": -77.06015966666666, "rental_uris": {"android": "https://dc.lft.to/lastmile_qr_scan", "ios": "https://dc.lft.to/lastmile_qr_scan"}, "is_disabled": 0, "fusion_lat": 0.0, "name": "5ef478a359bd1a980dd47dd924a08a7c", "fusion_lon": 0.0}, {"is_reserved": 0, "type": "electric_scooter", "bike_id": "7e4134ef095af975b6a0fe8a9967cc40", "lat": 38.900423333333336, "lon": -76.98835283333334, "rental_uris": {"android": "https://dc.lft.to/lastmile_qr_scan", "ios": "https://dc.lft.to/lastmile_qr_scan"}, "is_disabled": 0, "fusion_lat": 0.0, "name": "7e4134ef095af975b6a0fe8a9967cc40", "fusion_lon": 0.0}, {"is_reserved": 0, "type": "electric_scooter", "bike_id": "2b6eccb0345bcb741814e31d81182031", "lat": 38.91696116666667, "lon": -77.02892316666667, "rental_uris": {"android": "https://dc.lft.to/lastmile_qr_scan", "ios": "https://dc.lft.to/lastmile_qr_scan"}, "is_disabled": 0, "fusion_lat": 0.0, "name": "2b6eccb0345bcb741814e31d81182031", "fusion_lon": 0.0}, {"is_reserved": 0, "type": "electric_scooter", "bike_id": "204e80b873dafe380a26c4b04c8cfae9", "lat": 38.95630533333333, "lon": -77.02782333333333, "rental_uris": {"android": "https://dc.lft.to/lastmile_qr_scan", "ios": "https://dc.lft.to/lastmile_qr_scan"}, "is_disabled": 0, "fusion_lat": 0.0, "name": "204e80b873dafe380a26c4b04c8cfae9", "fusion_lon": 0.0}, {"is_reserved": 0, "type": "electric_scooter", "bike_id": "8f609a8f1444eeb1138d2604a001197f", "lat": 38.918075, "lon": -77.0330355, "rental_uris": {"android": "https://dc.lft.to/lastmile_qr_scan", "ios": "https://dc.lft.to/lastmile_qr_scan"}, "is_disabled": 0, "fusion_lat": 0.0, "name": "8f609a8f1444eeb1138d2604a001197f", "fusion_lon": 0.0}, {"is_reserved": 0, "type": "electric_scooter", "bike_id": "93efb59d8bb8a8e92adb355b2fc57450", "lat": 38.92448566666667, "lon": -77.04406466666667, "rental_uris": {"android": "https://dc.lft.to/lastmile_qr_scan", "ios": "https://dc.lft.to/lastmile_qr_scan"}, "is_disabled": 0, "fusion_lat": 0.0, "name": "93efb59d8bb8a8e92adb355b2fc57450", "fusion_lon": 0.0}, {"is_reserved": 0, "type": "electric_scooter", "bike_id": "02411400adbee5e9b8563a18b181dd37", "lat": 38.93558016666667, "lon": -77.02213933333333, "rental_uris": {"android": "https://dc.lft.to/lastmile_qr_scan", "ios": "https://dc.lft.to/lastmile_qr_scan"}, "is_disabled": 0, "fusion_lat": 0.0, "name": "02411400adbee5e9b8563a18b181dd37", "fusion_lon": 0.0}, {"is_reserved": 0, "type": "electric_scooter", "bike_id": "9f1df60e31827aa05eb4a75935550b39", "lat": 38.90853, "lon": -77.02353816666667, "rental_uris": {"android": "https://dc.lft.to/lastmile_qr_scan", "ios": "https://dc.lft.to/lastmile_qr_scan"}, "is_disabled": 0, "fusion_lat": 0.0, "name": "9f1df60e31827aa05eb4a75935550b39", "fusion_lon": 0.0}, {"is_reserved": 0, "type": "electric_scooter", "bike_id": "e1c2eee9c03d5464ed4c891f957965dd", "lat": 38.89851483333333, "lon": -77.03922516666667, "rental_uris": {"android": "https://dc.lft.to/lastmile_qr_scan", "ios": "https://dc.lft.to/lastmile_qr_scan"}, "is_disabled": 0, "fusion_lat": 0.0, "name": "e1c2eee9c03d5464ed4c891f957965dd", "fusion_lon": 0.0}, {"is_reserved": 0, "type": "electric_scooter", "bike_id": "4d53ca3120f5b2b338402b89d4bb15fe", "lat": 38.899842, "lon": -77.03103366666667, "rental_uris": {"android": "https://dc.lft.to/lastmile_qr_scan", "ios": "https://dc.lft.to/lastmile_qr_scan"}, "is_disabled": 0, "fusion_lat": 0.0, "name": "4d53ca3120f5b2b338402b89d4bb15fe", "fusion_lon": 0.0}, {"is_reserved": 0, "type": "electric_scooter", "bike_id": "7aed5333138fea61ffadede18e77dba4", "lat": 38.94976716666667, "lon": -77.0244795, "rental_uris": {"android": "https://dc.lft.to/lastmile_qr_scan", "ios": "https://dc.lft.to/lastmile_qr_scan"}, "is_disabled": 0, "fusion_lat": 0.0, "name": "7aed5333138fea61ffadede18e77dba4", "fusion_lon": 0.0}, {"is_reserved": 0, "type": "electric_scooter", "bike_id": "ef4074abaef978bbfb9aedbba83c5742", "lat": 38.911216833333334, "lon": -77.0382755, "rental_uris": {"android": "https://dc.lft.to/lastmile_qr_scan", "ios": "https://dc.lft.to/lastmile_qr_scan"}, "is_disabled": 0, "fusion_lat": 0.0, "name": "ef4074abaef978bbfb9aedbba83c5742", "fusion_lon": 0.0}, {"is_reserved": 0, "type": "electric_scooter", "bike_id": "e117759cdccb04be5525877736ab0b8f", "lat": 38.937137, "lon": -77.03270383333333, "rental_uris": {"android": "https://dc.lft.to/lastmile_qr_scan", "ios": "https://dc.lft.to/lastmile_qr_scan"}, "is_disabled": 0, "fusion_lat": 0.0, "name": "e117759cdccb04be5525877736ab0b8f", "fusion_lon": 0.0}, {"is_reserved": 0, "type": "electric_bike", "bike_id": "d40a7ef7891f2eb2a2f32b9a1462cb54", "lat": 38.921299, "lon": -77.00406116666667, "rental_uris": {"android": "https://dc.lft.to/lastmile_qr_scan", "ios": "https://dc.lft.to/lastmile_qr_scan"}, "is_disabled": 0, "fusion_lat": 0.0, "name": "d40a7ef7891f2eb2a2f32b9a1462cb54", "fusion_lon": 0.0}, {"is_reserved": 0, "type": "electric_bike", "bike_id": "cb540852b3ceea7eb7f4b9743a8fbeca", "lat": 38.925926833333335, "lon": -77.02428366666666, "rental_uris": {"android": "https://dc.lft.to/lastmile_qr_scan", "ios": "https://dc.lft.to/lastmile_qr_scan"}, "is_disabled": 0, "fusion_lat": 0.0, "name": "cb540852b3ceea7eb7f4b9743a8fbeca", "fusion_lon": 0.0}, {"is_reserved": 0, "type": "electric_scooter", "bike_id": "b5506cabb89ce5439281b6fc06e3b9f8", "lat": 38.917195, "lon": -77.029743, "rental_uris": {"android": "https://dc.lft.to/lastmile_qr_scan", "ios": "https://dc.lft.to/lastmile_qr_scan"}, "is_disabled": 0, "fusion_lat": 0.0, "name": "b5506cabb89ce5439281b6fc06e3b9f8", "fusion_lon": 0.0}, {"is_reserved": 0, "type": "electric_scooter", "bike_id": "9a00c3b051dc0a362ff45364fce70f79", "lat": 38.907891166666666, "lon": -77.00970066666666, "rental_uris": {"android": "https://dc.lft.to/lastmile_qr_scan", "ios": "https://dc.lft.to/lastmile_qr_scan"}, "is_disabled": 0, "fusion_lat": 0.0, "name": "9a00c3b051dc0a362ff45364fce70f79", "fusion_lon": 0.0}, {"is_reserved": 0, "type": "electric_scooter", "bike_id": "2a7ed6a0954445ca49c60c44500cd813", "lat": 38.8997885, "lon": -77.02198616666666, "rental_uris": {"android": "https://dc.lft.to/lastmile_qr_scan", "ios": "https://dc.lft.to/lastmile_qr_scan"}, "is_disabled": 0, "fusion_lat": 0.0, "name": "2a7ed6a0954445ca49c60c44500cd813", "fusion_lon": 0.0}, {"is_reserved": 0, "type": "electric_scooter", "bike_id": "25b57feab9494c93c934da1f48bf9d6f", "lat": 38.91462766666667, "lon": -77.02608916666667, "rental_uris": {"android": "https://dc.lft.to/lastmile_qr_scan", "ios": "https://dc.lft.to/lastmile_qr_scan"}, "is_disabled": 0, "fusion_lat": 0.0, "name": "25b57feab9494c93c934da1f48bf9d6f", "fusion_lon": 0.0}, {"is_reserved": 0, "type": "electric_scooter", "bike_id": "24b34a956e8b2e778c9337bf51b2c85a", "lat": 38.91915216666666, "lon": -77.0318015, "rental_uris": {"android": "https://dc.lft.to/lastmile_qr_scan", "ios": "https://dc.lft.to/lastmile_qr_scan"}, "is_disabled": 0, "fusion_lat": 0.0, "name": "24b34a956e8b2e778c9337bf51b2c85a", "fusion_lon": 0.0}, {"is_reserved": 0, "type": "electric_scooter", "bike_id": "7936f155beab10072807f33d57814987", "lat": 38.9049965, "lon": -77.0295625, "rental_uris": {"android": "https://dc.lft.to/lastmile_qr_scan", "ios": "https://dc.lft.to/lastmile_qr_scan"}, "is_disabled": 0, "fusion_lat": 0.0, "name": "7936f155beab10072807f33d57814987", "fusion_lon": 0.0}, {"is_reserved": 0, "type": "electric_bike", "bike_id": "60bf950dfae1265025339c8b7134815f", "lat": 38.988316166666664, "lon": -77.0265015, "rental_uris": {"android": "https://dc.lft.to/lastmile_qr_scan", "ios": "https://dc.lft.to/lastmile_qr_scan"}, "is_disabled": 0, "fusion_lat": 0.0, "name": "60bf950dfae1265025339c8b7134815f", "fusion_lon": 0.0}, {"is_reserved": 0, "type": "electric_scooter", "bike_id": "fcc3e8ccee9b03fa7af6c381903a7159", "lat": 38.877251333333334, "lon": -77.01762483333333, "rental_uris": {"android": "https://dc.lft.to/lastmile_qr_scan", "ios": "https://dc.lft.to/lastmile_qr_scan"}, "is_disabled": 0, "fusion_lat": 0.0, "name": "fcc3e8ccee9b03fa7af6c381903a7159", "fusion_lon": 0.0}, {"is_reserved": 0, "type": "electric_scooter", "bike_id": "8769dd98c33cad10ac81f1eb56065e5a", "lat": 38.954676166666665, "lon": -77.07771616666666, "rental_uris": {"android": "https://dc.lft.to/lastmile_qr_scan", "ios": "https://dc.lft.to/lastmile_qr_scan"}, "is_disabled": 0, "fusion_lat": 0.0, "name": "8769dd98c33cad10ac81f1eb56065e5a", "fusion_lon": 0.0}, {"is_reserved": 0, "type": "electric_scooter", "bike_id": "23e9cae96446e2b43182c87a0d2ecf31", "lat": 38.90080283333333, "lon": -77.04877866666666, "rental_uris": {"android": "https://dc.lft.to/lastmile_qr_scan", "ios": "https://dc.lft.to/lastmile_qr_scan"}, "is_disabled": 0, "fusion_lat": 0.0, "name": "23e9cae96446e2b43182c87a0d2ecf31", "fusion_lon": 0.0}, {"is_reserved": 0, "type": "electric_scooter", "bike_id": "9008e6dcfd055fc77e8fe2afb4bb9ab3", "lat": 38.95213566666666, "lon": -77.015979, "rental_uris": {"android": "https://dc.lft.to/lastmile_qr_scan", "ios": "https://dc.lft.to/lastmile_qr_scan"}, "is_disabled": 0, "fusion_lat": 0.0, "name": "9008e6dcfd055fc77e8fe2afb4bb9ab3", "fusion_lon": 0.0}, {"is_reserved": 0, "type": "electric_scooter", "bike_id": "83f7af575bcab6a9ee6aabe9dfac6440", "lat": 38.97369666666667, "lon": -77.0186565, "rental_uris": {"android": "https://dc.lft.to/lastmile_qr_scan", "ios": "https://dc.lft.to/lastmile_qr_scan"}, "is_disabled": 0, "fusion_lat": 0.0, "name": "83f7af575bcab6a9ee6aabe9dfac6440", "fusion_lon": 0.0}, {"is_reserved": 0, "type": "electric_scooter", "bike_id": "dc21a404279dc4a7fdef1a62ac3f0d65", "lat": 38.9278145, "lon": -77.02573283333334, "rental_uris": {"android": "https://dc.lft.to/lastmile_qr_scan", "ios": "https://dc.lft.to/lastmile_qr_scan"}, "is_disabled": 0, "fusion_lat": 0.0, "name": "dc21a404279dc4a7fdef1a62ac3f0d65", "fusion_lon": 0.0}, {"is_reserved": 0, "type": "electric_scooter", "bike_id": "7285ac4afe9995b5e5c72c7a5792eb0a", "lat": 38.900409, "lon": -77.00218883333334, "rental_uris": {"android": "https://dc.lft.to/lastmile_qr_scan", "ios": "https://dc.lft.to/lastmile_qr_scan"}, "is_disabled": 0, "fusion_lat": 0.0, "name": "7285ac4afe9995b5e5c72c7a5792eb0a", "fusion_lon": 0.0}, {"is_reserved": 0, "type": "electric_scooter", "bike_id": "cf24dfcb5e88b9aa0cecac19c825711d", "lat": 38.90136233333333, "lon": -77.02776483333334, "rental_uris": {"android": "https://dc.lft.to/lastmile_qr_scan", "ios": "https://dc.lft.to/lastmile_qr_scan"}, "is_disabled": 0, "fusion_lat": 0.0, "name": "cf24dfcb5e88b9aa0cecac19c825711d", "fusion_lon": 0.0}, {"is_reserved": 0, "type": "electric_scooter", "bike_id": "acfdacae215b471ad85a07903cdc6aa4", "lat": 38.90491333333333, "lon": -77.019914, "rental_uris": {"android": "https://dc.lft.to/lastmile_qr_scan", "ios": "https://dc.lft.to/lastmile_qr_scan"}, "is_disabled": 0, "fusion_lat": 0.0, "name": "acfdacae215b471ad85a07903cdc6aa4", "fusion_lon": 0.0}, {"is_reserved": 0, "type": "electric_bike", "bike_id": "f00c4b59d3dabd80b08325c1fed93f0d", "lat": 38.876816166666664, "lon": -77.00021416666667, "rental_uris": {"android": "https://dc.lft.to/lastmile_qr_scan", "ios": "https://dc.lft.to/lastmile_qr_scan"}, "is_disabled": 0, "fusion_lat": 0.0, "name": "f00c4b59d3dabd80b08325c1fed93f0d", "fusion_lon": 0.0}, {"is_reserved": 0, "type": "electric_scooter", "bike_id": "bbaa78fae47f87516b507b1ef7c755f7", "lat": 38.89003683333333, "lon": -76.93752283333333, "rental_uris": {"android": "https://dc.lft.to/lastmile_qr_scan", "ios": "https://dc.lft.to/lastmile_qr_scan"}, "is_disabled": 0, "fusion_lat": 0.0, "name": "bbaa78fae47f87516b507b1ef7c755f7", "fusion_lon": 0.0}, {"is_reserved": 0, "type": "electric_bike", "bike_id": "c93e6237d603cd4751c8123560a24799", "lat": 39.04230283333333, "lon": -76.99734816666667, "rental_uris": {"android": "https://dc.lft.to/lastmile_qr_scan", "ios": "https://dc.lft.to/lastmile_qr_scan"}, "is_disabled": 0, "fusion_lat": 0.0, "name": "c93e6237d603cd4751c8123560a24799", "fusion_lon": 0.0}, {"is_reserved": 0, "type": "electric_scooter", "bike_id": "ebf6d7ad1dc4153bc441bd16a092b487", "lat": 38.89730183333333, "lon": -77.01964233333334, "rental_uris": {"android": "https://dc.lft.to/lastmile_qr_scan", "ios": "https://dc.lft.to/lastmile_qr_scan"}, "is_disabled": 0, "fusion_lat": 0.0, "name": "ebf6d7ad1dc4153bc441bd16a092b487", "fusion_lon": 0.0}, {"is_reserved": 0, "type": "electric_scooter", "bike_id": "14e0653096f71f841ad1522a3ce9dc19", "lat": 38.9103575, "lon": -77.03332816666666, "rental_uris": {"android": "https://dc.lft.to/lastmile_qr_scan", "ios": "https://dc.lft.to/lastmile_qr_scan"}, "is_disabled": 0, "fusion_lat": 0.0, "name": "14e0653096f71f841ad1522a3ce9dc19", "fusion_lon": 0.0}, {"is_reserved": 0, "type": "electric_bike", "bike_id": "9704708fca65bd4fe4a120e80f3e12cc", "lat": 38.97341, "lon": -76.99583, "rental_uris": {"android": "https://dc.lft.to/lastmile_qr_scan", "ios": "https://dc.lft.to/lastmile_qr_scan"}, "is_disabled": 0, "fusion_lat": 0.0, "name": "9704708fca65bd4fe4a120e80f3e12cc", "fusion_lon": 0.0}, {"is_reserved": 0, "type": "electric_scooter", "bike_id": "0e0d67fa9cae060f108bfe38a6f8d93c", "lat": 38.913644166666664, "lon": -77.06564383333334, "rental_uris": {"android": "https://dc.lft.to/lastmile_qr_scan", "ios": "https://dc.lft.to/lastmile_qr_scan"}, "is_disabled": 0, "fusion_lat": 0.0, "name": "0e0d67fa9cae060f108bfe38a6f8d93c", "fusion_lon": 0.0}, {"is_reserved": 0, "type": "electric_scooter", "bike_id": "ca9a2f42e18f861ed022b56bcec0b38b", "lat": 38.899894333333336, "lon": -76.99009016666666, "rental_uris": {"android": "https://dc.lft.to/lastmile_qr_scan", "ios": "https://dc.lft.to/lastmile_qr_scan"}, "is_disabled": 0, "fusion_lat": 0.0, "name": "ca9a2f42e18f861ed022b56bcec0b38b", "fusion_lon": 0.0}, {"is_reserved": 0, "type": "electric_scooter", "bike_id": "f450dc1324a18a900add3b158840f8a9", "lat": 38.874713, "lon": -77.00561666666667, "rental_uris": {"android": "https://dc.lft.to/lastmile_qr_scan", "ios": "https://dc.lft.to/lastmile_qr_scan"}, "is_disabled": 0, "fusion_lat": 0.0, "name": "f450dc1324a18a900add3b158840f8a9", "fusion_lon": 0.0}, {"is_reserved": 0, "type": "electric_scooter", "bike_id": "895e8358c37369f7ac3e08577e79288f", "lat": 38.924514333333335, "lon": -77.021633, "rental_uris": {"android": "https://dc.lft.to/lastmile_qr_scan", "ios": "https://dc.lft.to/lastmile_qr_scan"}, "is_disabled": 0, "fusion_lat": 0.0, "name": "895e8358c37369f7ac3e08577e79288f", "fusion_lon": 0.0}, {"is_reserved": 0, "type": "electric_scooter", "bike_id": "ffe1d95a867242d042d33e5fb625cd98", "lat": 38.861165, "lon": -76.98379533333333, "rental_uris": {"android": "https://dc.lft.to/lastmile_qr_scan", "ios": "https://dc.lft.to/lastmile_qr_scan"}, "is_disabled": 0, "fusion_lat": 0.0, "name": "ffe1d95a867242d042d33e5fb625cd98", "fusion_lon": 0.0}, {"is_reserved": 0, "type": "electric_scooter", "bike_id": "55078b7efd774e81defaf00955ab6687", "lat": 38.904909833333335, "lon": -77.0403085, "rental_uris": {"android": "https://dc.lft.to/lastmile_qr_scan", "ios": "https://dc.lft.to/lastmile_qr_scan"}, "is_disabled": 0, "fusion_lat": 0.0, "name": "55078b7efd774e81defaf00955ab6687", "fusion_lon": 0.0}, {"is_reserved": 0, "type": "electric_scooter", "bike_id": "3017238c54fec1f1f7d803e43df7cc69", "lat": 38.908903333333335, "lon": -77.04405616666666, "rental_uris": {"android": "https://dc.lft.to/lastmile_qr_scan", "ios": "https://dc.lft.to/lastmile_qr_scan"}, "is_disabled": 0, "fusion_lat": 0.0, "name": "3017238c54fec1f1f7d803e43df7cc69", "fusion_lon": 0.0}, {"is_reserved": 0, "type": "electric_bike", "bike_id": "7c314c8cee052aa4c4c7306140785d53", "lat": 38.835454666666664, "lon": -77.00750433333333, "rental_uris": {"android": "https://dc.lft.to/lastmile_qr_scan", "ios": "https://dc.lft.to/lastmile_qr_scan"}, "is_disabled": 0, "fusion_lat": 0.0, "name": "7c314c8cee052aa4c4c7306140785d53", "fusion_lon": 0.0}, {"is_reserved": 0, "type": "electric_scooter", "bike_id": "b4c43b94a7b4c46a2c1ed96e745ad4f7", "lat": 38.8960345, "lon": -77.00928866666666, "rental_uris": {"android": "https://dc.lft.to/lastmile_qr_scan", "ios": "https://dc.lft.to/lastmile_qr_scan"}, "is_disabled": 0, "fusion_lat": 0.0, "name": "b4c43b94a7b4c46a2c1ed96e745ad4f7", "fusion_lon": 0.0}, {"is_reserved": 0, "type": "electric_scooter", "bike_id": "c6629c6df9396d89229fc6e3dd4a9475", "lat": 38.92411633333333, "lon": -77.02230666666667, "rental_uris": {"android": "https://dc.lft.to/lastmile_qr_scan", "ios": "https://dc.lft.to/lastmile_qr_scan"}, "is_disabled": 0, "fusion_lat": 0.0, "name": "c6629c6df9396d89229fc6e3dd4a9475", "fusion_lon": 0.0}, {"is_reserved": 0, "type": "electric_bike", "bike_id": "02992a19d6afc695f50cf75293b1d4c6", "lat": 38.945389666666664, "lon": -77.344586, "rental_uris": {"android": "https://dc.lft.to/lastmile_qr_scan", "ios": "https://dc.lft.to/lastmile_qr_scan"}, "is_disabled": 0, "fusion_lat": 0.0, "name": "02992a19d6afc695f50cf75293b1d4c6", "fusion_lon": 0.0}, {"is_reserved": 0, "type": "electric_scooter", "bike_id": "0d591e2098948feba00937666a2f0583", "lat": 38.9320085, "lon": -77.03851766666666, "rental_uris": {"android": "https://dc.lft.to/lastmile_qr_scan", "ios": "https://dc.lft.to/lastmile_qr_scan"}, "is_disabled": 0, "fusion_lat": 0.0, "name": "0d591e2098948feba00937666a2f0583", "fusion_lon": 0.0}, {"is_reserved": 0, "type": "electric_scooter", "bike_id": "c9f75cb5796c202d02ec345e03b2046d", "lat": 38.8865875, "lon": -76.93676166666667, "rental_uris": {"android": "https://dc.lft.to/lastmile_qr_scan", "ios": "https://dc.lft.to/lastmile_qr_scan"}, "is_disabled": 0, "fusion_lat": 0.0, "name": "c9f75cb5796c202d02ec345e03b2046d", "fusion_lon": 0.0}, {"is_reserved": 0, "type": "electric_scooter", "bike_id": "8d9ce69a30536fdcfcdaf7d27efd2d3d", "lat": 38.93201966666667, "lon": -77.037507, "rental_uris": {"android": "https://dc.lft.to/lastmile_qr_scan", "ios": "https://dc.lft.to/lastmile_qr_scan"}, "is_disabled": 0, "fusion_lat": 0.0, "name": "8d9ce69a30536fdcfcdaf7d27efd2d3d", "fusion_lon": 0.0}, {"is_reserved": 0, "type": "electric_scooter", "bike_id": "f47d5b9e9344f67895a2373e251f9739", "lat": 38.92377966666667, "lon": -77.04307566666667, "rental_uris": {"android": "https://dc.lft.to/lastmile_qr_scan", "ios": "https://dc.lft.to/lastmile_qr_scan"}, "is_disabled": 0, "fusion_lat": 0.0, "name": "f47d5b9e9344f67895a2373e251f9739", "fusion_lon": 0.0}, {"is_reserved": 0, "type": "electric_bike", "bike_id": "6d962acdb9982e1d6f4759bed51ac4d7", "lat": 38.974200833333335, "lon": -77.01257616666666, "rental_uris": {"android": "https://dc.lft.to/lastmile_qr_scan", "ios": "https://dc.lft.to/lastmile_qr_scan"}, "is_disabled": 0, "fusion_lat": 0.0, "name": "6d962acdb9982e1d6f4759bed51ac4d7", "fusion_lon": 0.0}, {"is_reserved": 0, "type": "electric_scooter", "bike_id": "28610bdbe362721618a71067f2846509", "lat": 38.9253835, "lon": -77.0298075, "rental_uris": {"android": "https://dc.lft.to/lastmile_qr_scan", "ios": "https://dc.lft.to/lastmile_qr_scan"}, "is_disabled": 0, "fusion_lat": 0.0, "name": "28610bdbe362721618a71067f2846509", "fusion_lon": 0.0}, {"is_reserved": 0, "type": "electric_scooter", "bike_id": "6b01ca8f2d9c4cdfb7138184aabc094e", "lat": 38.89721983333333, "lon": -77.00369216666667, "rental_uris": {"android": "https://dc.lft.to/lastmile_qr_scan", "ios": "https://dc.lft.to/lastmile_qr_scan"}, "is_disabled": 0, "fusion_lat": 0.0, "name": "6b01ca8f2d9c4cdfb7138184aabc094e", "fusion_lon": 0.0}, {"is_reserved": 0, "type": "electric_scooter", "bike_id": "808de3ca52b3775bddaab3499a118fbb", "lat": 38.91545083333333, "lon": -77.0122495, "rental_uris": {"android": "https://dc.lft.to/lastmile_qr_scan", "ios": "https://dc.lft.to/lastmile_qr_scan"}, "is_disabled": 0, "fusion_lat": 0.0, "name": "808de3ca52b3775bddaab3499a118fbb", "fusion_lon": 0.0}, {"is_reserved": 0, "type": "electric_scooter", "bike_id": "948bc3fe41d6b62a67bd4ea7d2a5a6b3", "lat": 38.9009115, "lon": -77.04731883333334, "rental_uris": {"android": "https://dc.lft.to/lastmile_qr_scan", "ios": "https://dc.lft.to/lastmile_qr_scan"}, "is_disabled": 0, "fusion_lat": 0.0, "name": "948bc3fe41d6b62a67bd4ea7d2a5a6b3", "fusion_lon": 0.0}, {"is_reserved": 0, "type": "electric_scooter", "bike_id": "b478f4108a233e16d2cf888063c8c96a", "lat": 38.91563516666667, "lon": -77.02116933333333, "rental_uris": {"android": "https://dc.lft.to/lastmile_qr_scan", "ios": "https://dc.lft.to/lastmile_qr_scan"}, "is_disabled": 0, "fusion_lat": 0.0, "name": "b478f4108a233e16d2cf888063c8c96a", "fusion_lon": 0.0}, {"is_reserved": 0, "type": "electric_scooter", "bike_id": "99dd5a466c4ce9bcfacba196bf9606d1", "lat": 38.911090333333334, "lon": -77.0374325, "rental_uris": {"android": "https://dc.lft.to/lastmile_qr_scan", "ios": "https://dc.lft.to/lastmile_qr_scan"}, "is_disabled": 0, "fusion_lat": 0.0, "name": "99dd5a466c4ce9bcfacba196bf9606d1", "fusion_lon": 0.0}, {"is_reserved": 0, "type": "electric_scooter", "bike_id": "a3aac1a62cbd51c5ecd2fd7602b71297", "lat": 38.919204, "lon": -77.00982333333333, "rental_uris": {"android": "https://dc.lft.to/lastmile_qr_scan", "ios": "https://dc.lft.to/lastmile_qr_scan"}, "is_disabled": 0, "fusion_lat": 0.0, "name": "a3aac1a62cbd51c5ecd2fd7602b71297", "fusion_lon": 0.0}, {"is_reserved": 0, "type": "electric_scooter", "bike_id": "34d70e858beea16fc5739457071f57ec", "lat": 38.88622566666667, "lon": -77.03353833333334, "rental_uris": {"android": "https://dc.lft.to/lastmile_qr_scan", "ios": "https://dc.lft.to/lastmile_qr_scan"}, "is_disabled": 0, "fusion_lat": 0.0, "name": "34d70e858beea16fc5739457071f57ec", "fusion_lon": 0.0}, {"is_reserved": 0, "type": "electric_scooter", "bike_id": "840e190fee136fc77e6d5e42418cb0be", "lat": 38.905753, "lon": -77.04668283333334, "rental_uris": {"android": "https://dc.lft.to/lastmile_qr_scan", "ios": "https://dc.lft.to/lastmile_qr_scan"}, "is_disabled": 0, "fusion_lat": 0.0, "name": "840e190fee136fc77e6d5e42418cb0be", "fusion_lon": 0.0}, {"is_reserved": 0, "type": "electric_scooter", "bike_id": "bca7f8beea268f07107047a9334e75da", "lat": 38.86582516666667, "lon": -76.99039383333333, "rental_uris": {"android": "https://dc.lft.to/lastmile_qr_scan", "ios": "https://dc.lft.to/lastmile_qr_scan"}, "is_disabled": 0, "fusion_lat": 0.0, "name": "bca7f8beea268f07107047a9334e75da", "fusion_lon": 0.0}, {"is_reserved": 0, "type": "electric_scooter", "bike_id": "cc43db83cee646345e2f8015f95d4528", "lat": 38.924077833333335, "lon": -77.0297665, "rental_uris": {"android": "https://dc.lft.to/lastmile_qr_scan", "ios": "https://dc.lft.to/lastmile_qr_scan"}, "is_disabled": 0, "fusion_lat": 0.0, "name": "cc43db83cee646345e2f8015f95d4528", "fusion_lon": 0.0}, {"is_reserved": 0, "type": "electric_scooter", "bike_id": "79e66ff97d2de7509235d0d8eb0fa170", "lat": 38.91291583333334, "lon": -76.98541866666666, "rental_uris": {"android": "https://dc.lft.to/lastmile_qr_scan", "ios": "https://dc.lft.to/lastmile_qr_scan"}, "is_disabled": 0, "fusion_lat": 0.0, "name": "79e66ff97d2de7509235d0d8eb0fa170", "fusion_lon": 0.0}, {"is_reserved": 0, "type": "electric_scooter", "bike_id": "730c90e43e26cdcd28f6f3b80453eca8", "lat": 38.928718833333335, "lon": -77.02710766666667, "rental_uris": {"android": "https://dc.lft.to/lastmile_qr_scan", "ios": "https://dc.lft.to/lastmile_qr_scan"}, "is_disabled": 0, "fusion_lat": 0.0, "name": "730c90e43e26cdcd28f6f3b80453eca8", "fusion_lon": 0.0}, {"is_reserved": 0, "type": "electric_scooter", "bike_id": "3711d8cf5b69c14329f8b18943e17c81", "lat": 38.91930966666666, "lon": -77.03426666666667, "rental_uris": {"android": "https://dc.lft.to/lastmile_qr_scan", "ios": "https://dc.lft.to/lastmile_qr_scan"}, "is_disabled": 0, "fusion_lat": 0.0, "name": "3711d8cf5b69c14329f8b18943e17c81", "fusion_lon": 0.0}, {"is_reserved": 0, "type": "electric_scooter", "bike_id": "9a63130952a9ac378c36e720997314df", "lat": 38.930193, "lon": -77.0378715, "rental_uris": {"android": "https://dc.lft.to/lastmile_qr_scan", "ios": "https://dc.lft.to/lastmile_qr_scan"}, "is_disabled": 0, "fusion_lat": 0.0, "name": "9a63130952a9ac378c36e720997314df", "fusion_lon": 0.0}, {"is_reserved": 0, "type": "electric_scooter", "bike_id": "2bf2e5d121b59fdc80e5ab895446d1e6", "lat": 38.904428333333335, "lon": -77.03185283333333, "rental_uris": {"android": "https://dc.lft.to/lastmile_qr_scan", "ios": "https://dc.lft.to/lastmile_qr_scan"}, "is_disabled": 0, "fusion_lat": 0.0, "name": "2bf2e5d121b59fdc80e5ab895446d1e6", "fusion_lon": 0.0}, {"is_reserved": 0, "type": "electric_bike", "bike_id": "2814bdce3de2f191d947d4aec2ee70f4", "lat": 39.094425, "lon": -77.13465683333334, "rental_uris": {"android": "https://dc.lft.to/lastmile_qr_scan", "ios": "https://dc.lft.to/lastmile_qr_scan"}, "is_disabled": 0, "fusion_lat": 0.0, "name": "2814bdce3de2f191d947d4aec2ee70f4", "fusion_lon": 0.0}, {"is_reserved": 0, "type": "electric_scooter", "bike_id": "1cf7b11ca68af66bd9d1028ec350adfa", "lat": 38.86437083333333, "lon": -76.99102683333334, "rental_uris": {"android": "https://dc.lft.to/lastmile_qr_scan", "ios": "https://dc.lft.to/lastmile_qr_scan"}, "is_disabled": 0, "fusion_lat": 0.0, "name": "1cf7b11ca68af66bd9d1028ec350adfa", "fusion_lon": 0.0}, {"is_reserved": 0, "type": "electric_scooter", "bike_id": "6f61a67c8a514bf55c02c6e75b86b699", "lat": 38.89707716666667, "lon": -76.99120266666667, "rental_uris": {"android": "https://dc.lft.to/lastmile_qr_scan", "ios": "https://dc.lft.to/lastmile_qr_scan"}, "is_disabled": 0, "fusion_lat": 0.0, "name": "6f61a67c8a514bf55c02c6e75b86b699", "fusion_lon": 0.0}, {"is_reserved": 0, "type": "electric_scooter", "bike_id": "92174e71785a1ea91e6e74367c68a70c", "lat": 38.914897333333336, "lon": -77.01999366666666, "rental_uris": {"android": "https://dc.lft.to/lastmile_qr_scan", "ios": "https://dc.lft.to/lastmile_qr_scan"}, "is_disabled": 0, "fusion_lat": 0.0, "name": "92174e71785a1ea91e6e74367c68a70c", "fusion_lon": 0.0}, {"is_reserved": 0, "type": "electric_scooter", "bike_id": "f4b73d44f392d92429468efcf1717a1e", "lat": 38.9363695, "lon": -77.060085, "rental_uris": {"android": "https://dc.lft.to/lastmile_qr_scan", "ios": "https://dc.lft.to/lastmile_qr_scan"}, "is_disabled": 0, "fusion_lat": 0.0, "name": "f4b73d44f392d92429468efcf1717a1e", "fusion_lon": 0.0}, {"is_reserved": 0, "type": "electric_scooter", "bike_id": "5851a87b4125b9d48f587657536c4c1e", "lat": 38.92371283333333, "lon": -77.08053633333333, "rental_uris": {"android": "https://dc.lft.to/lastmile_qr_scan", "ios": "https://dc.lft.to/lastmile_qr_scan"}, "is_disabled": 0, "fusion_lat": 0.0, "name": "5851a87b4125b9d48f587657536c4c1e", "fusion_lon": 0.0}, {"is_reserved": 0, "type": "electric_scooter", "bike_id": "66078b8155a6069faaafd0e616eb8ac3", "lat": 38.972978, "lon": -77.036262, "rental_uris": {"android": "https://dc.lft.to/lastmile_qr_scan", "ios": "https://dc.lft.to/lastmile_qr_scan"}, "is_disabled": 0, "fusion_lat": 0.0, "name": "66078b8155a6069faaafd0e616eb8ac3", "fusion_lon": 0.0}, {"is_reserved": 0, "type": "electric_scooter", "bike_id": "8f307483003255409f6a3ac10fa3e223", "lat": 38.924879, "lon": -77.052163, "rental_uris": {"android": "https://dc.lft.to/lastmile_qr_scan", "ios": "https://dc.lft.to/lastmile_qr_scan"}, "is_disabled": 0, "fusion_lat": 0.0, "name": "8f307483003255409f6a3ac10fa3e223", "fusion_lon": 0.0}, {"is_reserved": 0, "type": "electric_scooter", "bike_id": "60415313dc3ea2e05c9185837f748644", "lat": 38.91704633333333, "lon": -77.0107995, "rental_uris": {"android": "https://dc.lft.to/lastmile_qr_scan", "ios": "https://dc.lft.to/lastmile_qr_scan"}, "is_disabled": 0, "fusion_lat": 0.0, "name": "60415313dc3ea2e05c9185837f748644", "fusion_lon": 0.0}, {"is_reserved": 0, "type": "electric_scooter", "bike_id": "0d9ed9c5b6cfc029ad15a3c767663a19", "lat": 38.91715416666667, "lon": -77.03856283333333, "rental_uris": {"android": "https://dc.lft.to/lastmile_qr_scan", "ios": "https://dc.lft.to/lastmile_qr_scan"}, "is_disabled": 0, "fusion_lat": 0.0, "name": "0d9ed9c5b6cfc029ad15a3c767663a19", "fusion_lon": 0.0}, {"is_reserved": 0, "type": "electric_scooter", "bike_id": "feef80685acd530853b94c9bdd9dbc92", "lat": 38.92484683333333, "lon": -77.02814783333334, "rental_uris": {"android": "https://dc.lft.to/lastmile_qr_scan", "ios": "https://dc.lft.to/lastmile_qr_scan"}, "is_disabled": 0, "fusion_lat": 0.0, "name": "feef80685acd530853b94c9bdd9dbc92", "fusion_lon": 0.0}, {"is_reserved": 0, "type": "electric_scooter", "bike_id": "1327d0eda69db3c8e07698879080a9f8", "lat": 38.92471033333333, "lon": -77.02996166666667, "rental_uris": {"android": "https://dc.lft.to/lastmile_qr_scan", "ios": "https://dc.lft.to/lastmile_qr_scan"}, "is_disabled": 0, "fusion_lat": 0.0, "name": "1327d0eda69db3c8e07698879080a9f8", "fusion_lon": 0.0}, {"is_reserved": 0, "type": "electric_scooter", "bike_id": "c863060233e8070a919b839e0c493ec6", "lat": 38.914180333333334, "lon": -77.01802033333334, "rental_uris": {"android": "https://dc.lft.to/lastmile_qr_scan", "ios": "https://dc.lft.to/lastmile_qr_scan"}, "is_disabled": 0, "fusion_lat": 0.0, "name": "c863060233e8070a919b839e0c493ec6", "fusion_lon": 0.0}, {"is_reserved": 0, "type": "electric_scooter", "bike_id": "f9f3c56cf606f611eeeba42b55ec0390", "lat": 38.89140783333333, "lon": -76.99945433333333, "rental_uris": {"android": "https://dc.lft.to/lastmile_qr_scan", "ios": "https://dc.lft.to/lastmile_qr_scan"}, "is_disabled": 0, "fusion_lat": 0.0, "name": "f9f3c56cf606f611eeeba42b55ec0390", "fusion_lon": 0.0}, {"is_reserved": 0, "type": "electric_scooter", "bike_id": "d353a97165bf5158cd17ef6bdf687cf6", "lat": 38.9279575, "lon": -77.02535283333333, "rental_uris": {"android": "https://dc.lft.to/lastmile_qr_scan", "ios": "https://dc.lft.to/lastmile_qr_scan"}, "is_disabled": 0, "fusion_lat": 0.0, "name": "d353a97165bf5158cd17ef6bdf687cf6", "fusion_lon": 0.0}, {"is_reserved": 0, "type": "electric_scooter", "bike_id": "31472592a844f0baff64a14db2985440", "lat": 38.9056045, "lon": -77.02724283333333, "rental_uris": {"android": "https://dc.lft.to/lastmile_qr_scan", "ios": "https://dc.lft.to/lastmile_qr_scan"}, "is_disabled": 0, "fusion_lat": 0.0, "name": "31472592a844f0baff64a14db2985440", "fusion_lon": 0.0}, {"is_reserved": 0, "type": "electric_scooter", "bike_id": "924c366980608f2a2db3a1f6fd89a0e6", "lat": 38.8729025, "lon": -77.0023125, "rental_uris": {"android": "https://dc.lft.to/lastmile_qr_scan", "ios": "https://dc.lft.to/lastmile_qr_scan"}, "is_disabled": 0, "fusion_lat": 0.0, "name": "924c366980608f2a2db3a1f6fd89a0e6", "fusion_lon": 0.0}, {"is_reserved": 0, "type": "electric_bike", "bike_id": "ced660728c82010c0b399a1dc539dd9d", "lat": 38.91530616666667, "lon": -77.02958716666667, "rental_uris": {"android": "https://dc.lft.to/lastmile_qr_scan", "ios": "https://dc.lft.to/lastmile_qr_scan"}, "is_disabled": 0, "fusion_lat": 0.0, "name": "ced660728c82010c0b399a1dc539dd9d", "fusion_lon": 0.0}, {"is_reserved": 0, "type": "electric_scooter", "bike_id": "54c4197bd98d2cb7ca67752f47f048e3", "lat": 38.920436333333335, "lon": -77.04196716666667, "rental_uris": {"android": "https://dc.lft.to/lastmile_qr_scan", "ios": "https://dc.lft.to/lastmile_qr_scan"}, "is_disabled": 0, "fusion_lat": 0.0, "name": "54c4197bd98d2cb7ca67752f47f048e3", "fusion_lon": 0.0}, {"is_reserved": 0, "type": "electric_scooter", "bike_id": "3374a2bb4bc57cf30f620abd1e7d62e1", "lat": 38.9029875, "lon": -76.93413166666667, "rental_uris": {"android": "https://dc.lft.to/lastmile_qr_scan", "ios": "https://dc.lft.to/lastmile_qr_scan"}, "is_disabled": 0, "fusion_lat": 0.0, "name": "3374a2bb4bc57cf30f620abd1e7d62e1", "fusion_lon": 0.0}, {"is_reserved": 0, "type": "electric_scooter", "bike_id": "9641a189d28f42fc4f348ec8c314e4f3", "lat": 38.935374833333334, "lon": -77.02351866666666, "rental_uris": {"android": "https://dc.lft.to/lastmile_qr_scan", "ios": "https://dc.lft.to/lastmile_qr_scan"}, "is_disabled": 0, "fusion_lat": 0.0, "name": "9641a189d28f42fc4f348ec8c314e4f3", "fusion_lon": 0.0}, {"is_reserved": 0, "type": "electric_bike", "bike_id": "5bd4b4a2e05d5f5de011f22ff534be79", "lat": 38.92035933333333, "lon": -76.97958183333333, "rental_uris": {"android": "https://dc.lft.to/lastmile_qr_scan", "ios": "https://dc.lft.to/lastmile_qr_scan"}, "is_disabled": 0, "fusion_lat": 0.0, "name": "5bd4b4a2e05d5f5de011f22ff534be79", "fusion_lon": 0.0}, {"is_reserved": 0, "type": "electric_scooter", "bike_id": "de0c2fa9c7770bf717acbc67663370c7", "lat": 38.94652333333333, "lon": -77.06484966666666, "rental_uris": {"android": "https://dc.lft.to/lastmile_qr_scan", "ios": "https://dc.lft.to/lastmile_qr_scan"}, "is_disabled": 0, "fusion_lat": 0.0, "name": "de0c2fa9c7770bf717acbc67663370c7", "fusion_lon": 0.0}, {"is_reserved": 0, "type": "electric_scooter", "bike_id": "5d26e4f7833ddae5b55d10548c79521f", "lat": 38.8947745, "lon": -77.02167516666667, "rental_uris": {"android": "https://dc.lft.to/lastmile_qr_scan", "ios": "https://dc.lft.to/lastmile_qr_scan"}, "is_disabled": 0, "fusion_lat": 0.0, "name": "5d26e4f7833ddae5b55d10548c79521f", "fusion_lon": 0.0}, {"is_reserved": 0, "type": "electric_scooter", "bike_id": "cdfd3758c93597d5f40d93120c6d4ea5", "lat": 38.945048666666665, "lon": -77.03372916666666, "rental_uris": {"android": "https://dc.lft.to/lastmile_qr_scan", "ios": "https://dc.lft.to/lastmile_qr_scan"}, "is_disabled": 0, "fusion_lat": 0.0, "name": "cdfd3758c93597d5f40d93120c6d4ea5", "fusion_lon": 0.0}, {"is_reserved": 0, "type": "electric_scooter", "bike_id": "f6aa439a1b7f6c0097c1ae35878903d2", "lat": 38.931024666666666, "lon": -77.024693, "rental_uris": {"android": "https://dc.lft.to/lastmile_qr_scan", "ios": "https://dc.lft.to/lastmile_qr_scan"}, "is_disabled": 0, "fusion_lat": 0.0, "name": "f6aa439a1b7f6c0097c1ae35878903d2", "fusion_lon": 0.0}, {"is_reserved": 0, "type": "electric_scooter", "bike_id": "25b5bc4435f87688054b8c0c8e97ac97", "lat": 38.916452, "lon": -77.03154533333333, "rental_uris": {"android": "https://dc.lft.to/lastmile_qr_scan", "ios": "https://dc.lft.to/lastmile_qr_scan"}, "is_disabled": 0, "fusion_lat": 0.0, "name": "25b5bc4435f87688054b8c0c8e97ac97", "fusion_lon": 0.0}, {"is_reserved": 0, "type": "electric_scooter", "bike_id": "52dbc6f1e747efc4637208f1c7757708", "lat": 38.90015616666667, "lon": -76.99167283333334, "rental_uris": {"android": "https://dc.lft.to/lastmile_qr_scan", "ios": "https://dc.lft.to/lastmile_qr_scan"}, "is_disabled": 0, "fusion_lat": 0.0, "name": "52dbc6f1e747efc4637208f1c7757708", "fusion_lon": 0.0}, {"is_reserved": 0, "type": "electric_scooter", "bike_id": "c25d4953994da31003a6086ee8c03924", "lat": 38.93056966666666, "lon": -77.03940416666667, "rental_uris": {"android": "https://dc.lft.to/lastmile_qr_scan", "ios": "https://dc.lft.to/lastmile_qr_scan"}, "is_disabled": 0, "fusion_lat": 0.0, "name": "c25d4953994da31003a6086ee8c03924", "fusion_lon": 0.0}, {"is_reserved": 0, "type": "electric_scooter", "bike_id": "f0fe3c2078da445063d9e9005b7317e3", "lat": 38.9056675, "lon": -77.00604916666667, "rental_uris": {"android": "https://dc.lft.to/lastmile_qr_scan", "ios": "https://dc.lft.to/lastmile_qr_scan"}, "is_disabled": 0, "fusion_lat": 0.0, "name": "f0fe3c2078da445063d9e9005b7317e3", "fusion_lon": 0.0}, {"is_reserved": 0, "type": "electric_scooter", "bike_id": "db86dbbb1f31d1732274f6868b5212f3", "lat": 38.8872485, "lon": -77.02826783333333, "rental_uris": {"android": "https://dc.lft.to/lastmile_qr_scan", "ios": "https://dc.lft.to/lastmile_qr_scan"}, "is_disabled": 0, "fusion_lat": 0.0, "name": "db86dbbb1f31d1732274f6868b5212f3", "fusion_lon": 0.0}, {"is_reserved": 0, "type": "electric_scooter", "bike_id": "e8e969b0c3930dab8ab9c236518fe894", "lat": 38.93283816666667, "lon": -77.039419, "rental_uris": {"android": "https://dc.lft.to/lastmile_qr_scan", "ios": "https://dc.lft.to/lastmile_qr_scan"}, "is_disabled": 0, "fusion_lat": 0.0, "name": "e8e969b0c3930dab8ab9c236518fe894", "fusion_lon": 0.0}, {"is_reserved": 0, "type": "electric_scooter", "bike_id": "970825f779626051a77a7d0650f98aed", "lat": 38.920343, "lon": -77.02202983333333, "rental_uris": {"android": "https://dc.lft.to/lastmile_qr_scan", "ios": "https://dc.lft.to/lastmile_qr_scan"}, "is_disabled": 0, "fusion_lat": 0.0, "name": "970825f779626051a77a7d0650f98aed", "fusion_lon": 0.0}, {"is_reserved": 0, "type": "electric_scooter", "bike_id": "37a0712f44446eb6ac761f454f955b8f", "lat": 38.944404, "lon": -77.0635015, "rental_uris": {"android": "https://dc.lft.to/lastmile_qr_scan", "ios": "https://dc.lft.to/lastmile_qr_scan"}, "is_disabled": 0, "fusion_lat": 0.0, "name": "37a0712f44446eb6ac761f454f955b8f", "fusion_lon": 0.0}, {"is_reserved": 0, "type": "electric_scooter", "bike_id": "240edea6cf2167586da0ad7b31df5f56", "lat": 38.927712666666665, "lon": -77.0279385, "rental_uris": {"android": "https://dc.lft.to/lastmile_qr_scan", "ios": "https://dc.lft.to/lastmile_qr_scan"}, "is_disabled": 0, "fusion_lat": 0.0, "name": "240edea6cf2167586da0ad7b31df5f56", "fusion_lon": 0.0}, {"is_reserved": 0, "type": "electric_scooter", "bike_id": "3e7e7491fd85fd726ea8b28800419564", "lat": 38.90972933333333, "lon": -77.0240845, "rental_uris": {"android": "https://dc.lft.to/lastmile_qr_scan", "ios": "https://dc.lft.to/lastmile_qr_scan"}, "is_disabled": 0, "fusion_lat": 0.0, "name": "3e7e7491fd85fd726ea8b28800419564", "fusion_lon": 0.0}, {"is_reserved": 0, "type": "electric_scooter", "bike_id": "8c42710138d0b96fca451479c9bb34f2", "lat": 38.925987166666665, "lon": -77.021607, "rental_uris": {"android": "https://dc.lft.to/lastmile_qr_scan", "ios": "https://dc.lft.to/lastmile_qr_scan"}, "is_disabled": 0, "fusion_lat": 0.0, "name": "8c42710138d0b96fca451479c9bb34f2", "fusion_lon": 0.0}, {"is_reserved": 0, "type": "electric_scooter", "bike_id": "2927d0f973b223ca03a76cf9bb4f14b9", "lat": 38.92452866666667, "lon": -77.0329295, "rental_uris": {"android": "https://dc.lft.to/lastmile_qr_scan", "ios": "https://dc.lft.to/lastmile_qr_scan"}, "is_disabled": 0, "fusion_lat": 0.0, "name": "2927d0f973b223ca03a76cf9bb4f14b9", "fusion_lon": 0.0}, {"is_reserved": 0, "type": "electric_scooter", "bike_id": "e1705605e246f0d175d7c6030f62b73d", "lat": 38.90652133333333, "lon": -77.0755465, "rental_uris": {"android": "https://dc.lft.to/lastmile_qr_scan", "ios": "https://dc.lft.to/lastmile_qr_scan"}, "is_disabled": 0, "fusion_lat": 0.0, "name": "e1705605e246f0d175d7c6030f62b73d", "fusion_lon": 0.0}, {"is_reserved": 0, "type": "electric_scooter", "bike_id": "ec2fb9cfce424522b3b9a9f2617b5d9f", "lat": 38.86017533333333, "lon": -76.96995783333334, "rental_uris": {"android": "https://dc.lft.to/lastmile_qr_scan", "ios": "https://dc.lft.to/lastmile_qr_scan"}, "is_disabled": 0, "fusion_lat": 0.0, "name": "ec2fb9cfce424522b3b9a9f2617b5d9f", "fusion_lon": 0.0}, {"is_reserved": 0, "type": "electric_bike", "bike_id": "22438bd3e0d9ba529ad38cc293d43180", "lat": 38.9277385, "lon": -76.99903283333333, "rental_uris": {"android": "https://dc.lft.to/lastmile_qr_scan", "ios": "https://dc.lft.to/lastmile_qr_scan"}, "is_disabled": 0, "fusion_lat": 0.0, "name": "22438bd3e0d9ba529ad38cc293d43180", "fusion_lon": 0.0}, {"is_reserved": 0, "type": "electric_scooter", "bike_id": "d9fe8967598bb3a0d3d1648dc68d60de", "lat": 38.910984166666665, "lon": -77.02720383333333, "rental_uris": {"android": "https://dc.lft.to/lastmile_qr_scan", "ios": "https://dc.lft.to/lastmile_qr_scan"}, "is_disabled": 0, "fusion_lat": 0.0, "name": "d9fe8967598bb3a0d3d1648dc68d60de", "fusion_lon": 0.0}, {"is_reserved": 0, "type": "electric_scooter", "bike_id": "72123b99af71fac0b3e2bce3cc18a655", "lat": 38.907244666666664, "lon": -77.032957, "rental_uris": {"android": "https://dc.lft.to/lastmile_qr_scan", "ios": "https://dc.lft.to/lastmile_qr_scan"}, "is_disabled": 0, "fusion_lat": 0.0, "name": "72123b99af71fac0b3e2bce3cc18a655", "fusion_lon": 0.0}, {"is_reserved": 0, "type": "electric_scooter", "bike_id": "9d2b5123d0bd8b105aad5b1658ff5e13", "lat": 38.92173583333334, "lon": -77.04020283333334, "rental_uris": {"android": "https://dc.lft.to/lastmile_qr_scan", "ios": "https://dc.lft.to/lastmile_qr_scan"}, "is_disabled": 0, "fusion_lat": 0.0, "name": "9d2b5123d0bd8b105aad5b1658ff5e13", "fusion_lon": 0.0}, {"is_reserved": 0, "type": "electric_scooter", "bike_id": "871c9d98fafdfbf2ac99ff3cfe27ec07", "lat": 38.89441016666667, "lon": -77.04532266666666, "rental_uris": {"android": "https://dc.lft.to/lastmile_qr_scan", "ios": "https://dc.lft.to/lastmile_qr_scan"}, "is_disabled": 0, "fusion_lat": 0.0, "name": "871c9d98fafdfbf2ac99ff3cfe27ec07", "fusion_lon": 0.0}, {"is_reserved": 0, "type": "electric_scooter", "bike_id": "fc59421ef6223ed8e3502f82d037b635", "lat": 38.895728, "lon": -77.04145016666666, "rental_uris": {"android": "https://dc.lft.to/lastmile_qr_scan", "ios": "https://dc.lft.to/lastmile_qr_scan"}, "is_disabled": 0, "fusion_lat": 0.0, "name": "fc59421ef6223ed8e3502f82d037b635", "fusion_lon": 0.0}, {"is_reserved": 0, "type": "electric_scooter", "bike_id": "34f204e16a826b5c14cdf1aeb784fdd4", "lat": 38.918738166666664, "lon": -77.035671, "rental_uris": {"android": "https://dc.lft.to/lastmile_qr_scan", "ios": "https://dc.lft.to/lastmile_qr_scan"}, "is_disabled": 0, "fusion_lat": 0.0, "name": "34f204e16a826b5c14cdf1aeb784fdd4", "fusion_lon": 0.0}, {"is_reserved": 0, "type": "electric_scooter", "bike_id": "3d0cd5bc23b85c18fcc887926c86c2eb", "lat": 38.903817, "lon": -77.01638683333333, "rental_uris": {"android": "https://dc.lft.to/lastmile_qr_scan", "ios": "https://dc.lft.to/lastmile_qr_scan"}, "is_disabled": 0, "fusion_lat": 0.0, "name": "3d0cd5bc23b85c18fcc887926c86c2eb", "fusion_lon": 0.0}, {"is_reserved": 0, "type": "electric_scooter", "bike_id": "6229aed8fd8a3b8fdbef6cdfb0649ec3", "lat": 38.907939999999996, "lon": -77.04787466666667, "rental_uris": {"android": "https://dc.lft.to/lastmile_qr_scan", "ios": "https://dc.lft.to/lastmile_qr_scan"}, "is_disabled": 0, "fusion_lat": 0.0, "name": "6229aed8fd8a3b8fdbef6cdfb0649ec3", "fusion_lon": 0.0}, {"is_reserved": 0, "type": "electric_bike", "bike_id": "ec75d5123236457768b9ac21a4d38174", "lat": 38.878349166666666, "lon": -77.00734283333334, "rental_uris": {"android": "https://dc.lft.to/lastmile_qr_scan", "ios": "https://dc.lft.to/lastmile_qr_scan"}, "is_disabled": 0, "fusion_lat": 0.0, "name": "ec75d5123236457768b9ac21a4d38174", "fusion_lon": 0.0}, {"is_reserved": 0, "type": "electric_scooter", "bike_id": "83c14d3594e97586d6bbaffe2bffc185", "lat": 38.909771666666664, "lon": -77.0077165, "rental_uris": {"android": "https://dc.lft.to/lastmile_qr_scan", "ios": "https://dc.lft.to/lastmile_qr_scan"}, "is_disabled": 0, "fusion_lat": 0.0, "name": "83c14d3594e97586d6bbaffe2bffc185", "fusion_lon": 0.0}, {"is_reserved": 0, "type": "electric_scooter", "bike_id": "a4243ae94f4f49b950c0fa4f69e56eb6", "lat": 38.92553816666667, "lon": -77.03736616666667, "rental_uris": {"android": "https://dc.lft.to/lastmile_qr_scan", "ios": "https://dc.lft.to/lastmile_qr_scan"}, "is_disabled": 0, "fusion_lat": 0.0, "name": "a4243ae94f4f49b950c0fa4f69e56eb6", "fusion_lon": 0.0}, {"is_reserved": 0, "type": "electric_scooter", "bike_id": "36743dcff65036296b2da01f8245018e", "lat": 38.8872745, "lon": -76.98376166666667, "rental_uris": {"android": "https://dc.lft.to/lastmile_qr_scan", "ios": "https://dc.lft.to/lastmile_qr_scan"}, "is_disabled": 0, "fusion_lat": 0.0, "name": "36743dcff65036296b2da01f8245018e", "fusion_lon": 0.0}, {"is_reserved": 0, "type": "electric_scooter", "bike_id": "9dfbed1a9062afa4ba9afc86a5e10c87", "lat": 38.93306533333333, "lon": -77.02135066666666, "rental_uris": {"android": "https://dc.lft.to/lastmile_qr_scan", "ios": "https://dc.lft.to/lastmile_qr_scan"}, "is_disabled": 0, "fusion_lat": 0.0, "name": "9dfbed1a9062afa4ba9afc86a5e10c87", "fusion_lon": 0.0}, {"is_reserved": 0, "type": "electric_bike", "bike_id": "6cceab07ce6bacad47b3618ba28c92e9", "lat": 39.085894333333336, "lon": -77.12284433333333, "rental_uris": {"android": "https://dc.lft.to/lastmile_qr_scan", "ios": "https://dc.lft.to/lastmile_qr_scan"}, "is_disabled": 0, "fusion_lat": 0.0, "name": "6cceab07ce6bacad47b3618ba28c92e9", "fusion_lon": 0.0}, {"is_reserved": 0, "type": "electric_scooter", "bike_id": "b7cec0be83f004e9751d207a2b34adf6", "lat": 38.915538833333336, "lon": -77.01411283333333, "rental_uris": {"android": "https://dc.lft.to/lastmile_qr_scan", "ios": "https://dc.lft.to/lastmile_qr_scan"}, "is_disabled": 0, "fusion_lat": 0.0, "name": "b7cec0be83f004e9751d207a2b34adf6", "fusion_lon": 0.0}, {"is_reserved": 0, "type": "electric_scooter", "bike_id": "720197d27e73159baea618bb9830fc98", "lat": 38.907729833333335, "lon": -77.04520166666667, "rental_uris": {"android": "https://dc.lft.to/lastmile_qr_scan", "ios": "https://dc.lft.to/lastmile_qr_scan"}, "is_disabled": 0, "fusion_lat": 0.0, "name": "720197d27e73159baea618bb9830fc98", "fusion_lon": 0.0}, {"is_reserved": 0, "type": "electric_scooter", "bike_id": "c982f7cca6f37296cc85bc85885b1f6d", "lat": 38.92322983333333, "lon": -77.03516116666667, "rental_uris": {"android": "https://dc.lft.to/lastmile_qr_scan", "ios": "https://dc.lft.to/lastmile_qr_scan"}, "is_disabled": 0, "fusion_lat": 0.0, "name": "c982f7cca6f37296cc85bc85885b1f6d", "fusion_lon": 0.0}, {"is_reserved": 0, "type": "electric_scooter", "bike_id": "57b58165325f09458669a721577d084d", "lat": 38.92636783333333, "lon": -77.02513266666666, "rental_uris": {"android": "https://dc.lft.to/lastmile_qr_scan", "ios": "https://dc.lft.to/lastmile_qr_scan"}, "is_disabled": 0, "fusion_lat": 0.0, "name": "57b58165325f09458669a721577d084d", "fusion_lon": 0.0}, {"is_reserved": 0, "type": "electric_scooter", "bike_id": "432713775045b275cc1a790cf1dad414", "lat": 38.920464, "lon": -77.04194833333334, "rental_uris": {"android": "https://dc.lft.to/lastmile_qr_scan", "ios": "https://dc.lft.to/lastmile_qr_scan"}, "is_disabled": 0, "fusion_lat": 0.0, "name": "432713775045b275cc1a790cf1dad414", "fusion_lon": 0.0}, {"is_reserved": 0, "type": "electric_scooter", "bike_id": "8bd85babffe5f5e8fbe505b5c547f2f4", "lat": 38.919278166666665, "lon": -77.019776, "rental_uris": {"android": "https://dc.lft.to/lastmile_qr_scan", "ios": "https://dc.lft.to/lastmile_qr_scan"}, "is_disabled": 0, "fusion_lat": 0.0, "name": "8bd85babffe5f5e8fbe505b5c547f2f4", "fusion_lon": 0.0}, {"is_reserved": 0, "type": "electric_scooter", "bike_id": "c37f39875f859afea50c7a4427964466", "lat": 38.88635166666667, "lon": -77.01286216666666, "rental_uris": {"android": "https://dc.lft.to/lastmile_qr_scan", "ios": "https://dc.lft.to/lastmile_qr_scan"}, "is_disabled": 0, "fusion_lat": 0.0, "name": "c37f39875f859afea50c7a4427964466", "fusion_lon": 0.0}, {"is_reserved": 0, "type": "electric_scooter", "bike_id": "42fb571a5bfc940e162d5e3b4a73a262", "lat": 38.884952166666665, "lon": -77.020838, "rental_uris": {"android": "https://dc.lft.to/lastmile_qr_scan", "ios": "https://dc.lft.to/lastmile_qr_scan"}, "is_disabled": 0, "fusion_lat": 0.0, "name": "42fb571a5bfc940e162d5e3b4a73a262", "fusion_lon": 0.0}, {"is_reserved": 0, "type": "electric_scooter", "bike_id": "321d7950cfefdfea55181bfba5c8b26f", "lat": 38.927159833333334, "lon": -77.01634016666667, "rental_uris": {"android": "https://dc.lft.to/lastmile_qr_scan", "ios": "https://dc.lft.to/lastmile_qr_scan"}, "is_disabled": 0, "fusion_lat": 0.0, "name": "321d7950cfefdfea55181bfba5c8b26f", "fusion_lon": 0.0}, {"is_reserved": 0, "type": "electric_scooter", "bike_id": "c3f498b54aeff98741b01dc7d8ba90c2", "lat": 38.89808466666667, "lon": -77.03239233333333, "rental_uris": {"android": "https://dc.lft.to/lastmile_qr_scan", "ios": "https://dc.lft.to/lastmile_qr_scan"}, "is_disabled": 0, "fusion_lat": 0.0, "name": "c3f498b54aeff98741b01dc7d8ba90c2", "fusion_lon": 0.0}, {"is_reserved": 0, "type": "electric_scooter", "bike_id": "a7654c454e6b0b6047925628e1be9a26", "lat": 38.901132, "lon": -77.02723383333333, "rental_uris": {"android": "https://dc.lft.to/lastmile_qr_scan", "ios": "https://dc.lft.to/lastmile_qr_scan"}, "is_disabled": 0, "fusion_lat": 0.0, "name": "a7654c454e6b0b6047925628e1be9a26", "fusion_lon": 0.0}, {"is_reserved": 0, "type": "electric_scooter", "bike_id": "479b94222c61b0c1c35c03575b7b912f", "lat": 38.90157333333333, "lon": -77.041646, "rental_uris": {"android": "https://dc.lft.to/lastmile_qr_scan", "ios": "https://dc.lft.to/lastmile_qr_scan"}, "is_disabled": 0, "fusion_lat": 0.0, "name": "479b94222c61b0c1c35c03575b7b912f", "fusion_lon": 0.0}, {"is_reserved": 0, "type": "electric_scooter", "bike_id": "9c68ce1755009c956bdb0046a58ff2f6", "lat": 38.892214, "lon": -77.027969, "rental_uris": {"android": "https://dc.lft.to/lastmile_qr_scan", "ios": "https://dc.lft.to/lastmile_qr_scan"}, "is_disabled": 0, "fusion_lat": 0.0, "name": "9c68ce1755009c956bdb0046a58ff2f6", "fusion_lon": 0.0}, {"is_reserved": 0, "type": "electric_scooter", "bike_id": "b4bac995d4b415463e394e060d320896", "lat": 38.897174166666666, "lon": -77.00797366666667, "rental_uris": {"android": "https://dc.lft.to/lastmile_qr_scan", "ios": "https://dc.lft.to/lastmile_qr_scan"}, "is_disabled": 0, "fusion_lat": 0.0, "name": "b4bac995d4b415463e394e060d320896", "fusion_lon": 0.0}, {"is_reserved": 0, "type": "electric_scooter", "bike_id": "417d0556b4c35d0940dfedab562abdfd", "lat": 38.896237666666664, "lon": -77.04491466666667, "rental_uris": {"android": "https://dc.lft.to/lastmile_qr_scan", "ios": "https://dc.lft.to/lastmile_qr_scan"}, "is_disabled": 0, "fusion_lat": 0.0, "name": "417d0556b4c35d0940dfedab562abdfd", "fusion_lon": 0.0}, {"is_reserved": 0, "type": "electric_scooter", "bike_id": "c2e2bfda7d2ab7d2fdf8929b59d17814", "lat": 38.940287833333336, "lon": -77.02640866666667, "rental_uris": {"android": "https://dc.lft.to/lastmile_qr_scan", "ios": "https://dc.lft.to/lastmile_qr_scan"}, "is_disabled": 0, "fusion_lat": 0.0, "name": "c2e2bfda7d2ab7d2fdf8929b59d17814", "fusion_lon": 0.0}, {"is_reserved": 0, "type": "electric_scooter", "bike_id": "6138cdcb55434f050d4548e54ea1e862", "lat": 38.91177616666667, "lon": -77.02827416666666, "rental_uris": {"android": "https://dc.lft.to/lastmile_qr_scan", "ios": "https://dc.lft.to/lastmile_qr_scan"}, "is_disabled": 0, "fusion_lat": 0.0, "name": "6138cdcb55434f050d4548e54ea1e862", "fusion_lon": 0.0}, {"is_reserved": 0, "type": "electric_scooter", "bike_id": "abe916513a7e74b32848a9b24332d2c5", "lat": 38.86433366666667, "lon": -76.99861433333334, "rental_uris": {"android": "https://dc.lft.to/lastmile_qr_scan", "ios": "https://dc.lft.to/lastmile_qr_scan"}, "is_disabled": 0, "fusion_lat": 0.0, "name": "abe916513a7e74b32848a9b24332d2c5", "fusion_lon": 0.0}, {"is_reserved": 0, "type": "electric_bike", "bike_id": "1fbe79a01b22877ca62f419e2658ad4f", "lat": 38.89563316666667, "lon": -77.12740316666667, "rental_uris": {"android": "https://dc.lft.to/lastmile_qr_scan", "ios": "https://dc.lft.to/lastmile_qr_scan"}, "is_disabled": 0, "fusion_lat": 0.0, "name": "1fbe79a01b22877ca62f419e2658ad4f", "fusion_lon": 0.0}, {"is_reserved": 0, "type": "electric_scooter", "bike_id": "a9d3881a52296d93aadc357e4547c1ab", "lat": 38.93459083333333, "lon": -77.02248716666666, "rental_uris": {"android": "https://dc.lft.to/lastmile_qr_scan", "ios": "https://dc.lft.to/lastmile_qr_scan"}, "is_disabled": 0, "fusion_lat": 0.0, "name": "a9d3881a52296d93aadc357e4547c1ab", "fusion_lon": 0.0}, {"is_reserved": 0, "type": "electric_scooter", "bike_id": "1a0da9ab50dae64676738b85e0ab38c4", "lat": 38.92899533333333, "lon": -77.02252583333333, "rental_uris": {"android": "https://dc.lft.to/lastmile_qr_scan", "ios": "https://dc.lft.to/lastmile_qr_scan"}, "is_disabled": 0, "fusion_lat": 0.0, "name": "1a0da9ab50dae64676738b85e0ab38c4", "fusion_lon": 0.0}, {"is_reserved": 0, "type": "electric_scooter", "bike_id": "1457914a96cc7743eaf9f8610aa79544", "lat": 38.95087, "lon": -77.02814266666667, "rental_uris": {"android": "https://dc.lft.to/lastmile_qr_scan", "ios": "https://dc.lft.to/lastmile_qr_scan"}, "is_disabled": 0, "fusion_lat": 0.0, "name": "1457914a96cc7743eaf9f8610aa79544", "fusion_lon": 0.0}, {"is_reserved": 0, "type": "electric_scooter", "bike_id": "ae8a7006186b83637884b85d4e8df5cb", "lat": 38.90059683333333, "lon": -76.9868255, "rental_uris": {"android": "https://dc.lft.to/lastmile_qr_scan", "ios": "https://dc.lft.to/lastmile_qr_scan"}, "is_disabled": 0, "fusion_lat": 0.0, "name": "ae8a7006186b83637884b85d4e8df5cb", "fusion_lon": 0.0}, {"is_reserved": 0, "type": "electric_scooter", "bike_id": "f222191d95f4585bbce69e8502add5e4", "lat": 38.903537166666666, "lon": -77.01103216666667, "rental_uris": {"android": "https://dc.lft.to/lastmile_qr_scan", "ios": "https://dc.lft.to/lastmile_qr_scan"}, "is_disabled": 0, "fusion_lat": 0.0, "name": "f222191d95f4585bbce69e8502add5e4", "fusion_lon": 0.0}, {"is_reserved": 0, "type": "electric_scooter", "bike_id": "145097d5a36e5f963eeafb0681e3e715", "lat": 38.929965833333334, "lon": -77.02301833333334, "rental_uris": {"android": "https://dc.lft.to/lastmile_qr_scan", "ios": "https://dc.lft.to/lastmile_qr_scan"}, "is_disabled": 0, "fusion_lat": 0.0, "name": "145097d5a36e5f963eeafb0681e3e715", "fusion_lon": 0.0}, {"is_reserved": 0, "type": "electric_scooter", "bike_id": "80bd84c06ec84195103d311b5f798cd5", "lat": 38.91546566666667, "lon": -77.012232, "rental_uris": {"android": "https://dc.lft.to/lastmile_qr_scan", "ios": "https://dc.lft.to/lastmile_qr_scan"}, "is_disabled": 0, "fusion_lat": 0.0, "name": "80bd84c06ec84195103d311b5f798cd5", "fusion_lon": 0.0}, {"is_reserved": 0, "type": "electric_scooter", "bike_id": "594f2b33e76d156b6db090e238747460", "lat": 38.92750933333333, "lon": -77.02112433333333, "rental_uris": {"android": "https://dc.lft.to/lastmile_qr_scan", "ios": "https://dc.lft.to/lastmile_qr_scan"}, "is_disabled": 0, "fusion_lat": 0.0, "name": "594f2b33e76d156b6db090e238747460", "fusion_lon": 0.0}, {"is_reserved": 0, "type": "electric_scooter", "bike_id": "507894122f6e378680670c27e73da431", "lat": 38.8837265, "lon": -76.99515133333334, "rental_uris": {"android": "https://dc.lft.to/lastmile_qr_scan", "ios": "https://dc.lft.to/lastmile_qr_scan"}, "is_disabled": 0, "fusion_lat": 0.0, "name": "507894122f6e378680670c27e73da431", "fusion_lon": 0.0}, {"is_reserved": 0, "type": "electric_scooter", "bike_id": "1420055eb81c9e3c6aef66ec40f8a8fa", "lat": 38.928985833333336, "lon": -77.03753083333334, "rental_uris": {"android": "https://dc.lft.to/lastmile_qr_scan", "ios": "https://dc.lft.to/lastmile_qr_scan"}, "is_disabled": 0, "fusion_lat": 0.0, "name": "1420055eb81c9e3c6aef66ec40f8a8fa", "fusion_lon": 0.0}, {"is_reserved": 0, "type": "electric_bike", "bike_id": "769bc3b20e18ac2ffda070ed27924351", "lat": 38.98911866666667, "lon": -77.0254635, "rental_uris": {"android": "https://dc.lft.to/lastmile_qr_scan", "ios": "https://dc.lft.to/lastmile_qr_scan"}, "is_disabled": 0, "fusion_lat": 0.0, "name": "769bc3b20e18ac2ffda070ed27924351", "fusion_lon": 0.0}, {"is_reserved": 0, "type": "electric_scooter", "bike_id": "d821ee5df4c947594f9ab88c76af2d70", "lat": 38.9347015, "lon": -77.0415845, "rental_uris": {"android": "https://dc.lft.to/lastmile_qr_scan", "ios": "https://dc.lft.to/lastmile_qr_scan"}, "is_disabled": 0, "fusion_lat": 0.0, "name": "d821ee5df4c947594f9ab88c76af2d70", "fusion_lon": 0.0}, {"is_reserved": 0, "type": "electric_scooter", "bike_id": "91e54c379b878324e707f732e8c3934e", "lat": 38.89250233333333, "lon": -77.0395645, "rental_uris": {"android": "https://dc.lft.to/lastmile_qr_scan", "ios": "https://dc.lft.to/lastmile_qr_scan"}, "is_disabled": 0, "fusion_lat": 0.0, "name": "91e54c379b878324e707f732e8c3934e", "fusion_lon": 0.0}, {"is_reserved": 0, "type": "electric_scooter", "bike_id": "1a9faad0424937054aeaca4ee66455d5", "lat": 38.914033, "lon": -77.04685233333333, "rental_uris": {"android": "https://dc.lft.to/lastmile_qr_scan", "ios": "https://dc.lft.to/lastmile_qr_scan"}, "is_disabled": 0, "fusion_lat": 0.0, "name": "1a9faad0424937054aeaca4ee66455d5", "fusion_lon": 0.0}, {"is_reserved": 0, "type": "electric_scooter", "bike_id": "6b5c2637cb9a6eab75415c816adbaffe", "lat": 38.9582685, "lon": -77.07647166666666, "rental_uris": {"android": "https://dc.lft.to/lastmile_qr_scan", "ios": "https://dc.lft.to/lastmile_qr_scan"}, "is_disabled": 0, "fusion_lat": 0.0, "name": "6b5c2637cb9a6eab75415c816adbaffe", "fusion_lon": 0.0}, {"is_reserved": 0, "type": "electric_bike", "bike_id": "d35c562c3e727623bfe77033c1dee0b7", "lat": 38.898444166666664, "lon": -77.11858016666666, "rental_uris": {"android": "https://dc.lft.to/lastmile_qr_scan", "ios": "https://dc.lft.to/lastmile_qr_scan"}, "is_disabled": 0, "fusion_lat": 0.0, "name": "d35c562c3e727623bfe77033c1dee0b7", "fusion_lon": 0.0}, {"is_reserved": 0, "type": "electric_scooter", "bike_id": "f650b6eb3988d4c54db94773ef735720", "lat": 38.892269166666665, "lon": -77.0333595, "rental_uris": {"android": "https://dc.lft.to/lastmile_qr_scan", "ios": "https://dc.lft.to/lastmile_qr_scan"}, "is_disabled": 0, "fusion_lat": 0.0, "name": "f650b6eb3988d4c54db94773ef735720", "fusion_lon": 0.0}, {"is_reserved": 0, "type": "electric_scooter", "bike_id": "964defaf2015962b3ba48f4c7516f680", "lat": 38.915214666666664, "lon": -77.02002966666667, "rental_uris": {"android": "https://dc.lft.to/lastmile_qr_scan", "ios": "https://dc.lft.to/lastmile_qr_scan"}, "is_disabled": 0, "fusion_lat": 0.0, "name": "964defaf2015962b3ba48f4c7516f680", "fusion_lon": 0.0}, {"is_reserved": 0, "type": "electric_scooter", "bike_id": "cb49d8334688d808bb99d6d2a5ffb74c", "lat": 38.917995833333336, "lon": -77.03440483333334, "rental_uris": {"android": "https://dc.lft.to/lastmile_qr_scan", "ios": "https://dc.lft.to/lastmile_qr_scan"}, "is_disabled": 0, "fusion_lat": 0.0, "name": "cb49d8334688d808bb99d6d2a5ffb74c", "fusion_lon": 0.0}, {"is_reserved": 0, "type": "electric_scooter", "bike_id": "b8c2c989668a819caceb520e04f36271", "lat": 38.903749166666664, "lon": -77.02170116666667, "rental_uris": {"android": "https://dc.lft.to/lastmile_qr_scan", "ios": "https://dc.lft.to/lastmile_qr_scan"}, "is_disabled": 0, "fusion_lat": 0.0, "name": "b8c2c989668a819caceb520e04f36271", "fusion_lon": 0.0}, {"is_reserved": 0, "type": "electric_scooter", "bike_id": "35b5c6ccb4755ff36d0a5457b9929f2f", "lat": 38.907243333333334, "lon": -77.00746383333333, "rental_uris": {"android": "https://dc.lft.to/lastmile_qr_scan", "ios": "https://dc.lft.to/lastmile_qr_scan"}, "is_disabled": 0, "fusion_lat": 0.0, "name": "35b5c6ccb4755ff36d0a5457b9929f2f", "fusion_lon": 0.0}, {"is_reserved": 0, "type": "electric_scooter", "bike_id": "f62d192f28510b18dbfef60c58d42721", "lat": 38.914181666666664, "lon": -77.02116416666667, "rental_uris": {"android": "https://dc.lft.to/lastmile_qr_scan", "ios": "https://dc.lft.to/lastmile_qr_scan"}, "is_disabled": 0, "fusion_lat": 0.0, "name": "f62d192f28510b18dbfef60c58d42721", "fusion_lon": 0.0}, {"is_reserved": 0, "type": "electric_scooter", "bike_id": "54c2cade4148c688a39516fb172f29d7", "lat": 38.925781, "lon": -76.994898, "rental_uris": {"android": "https://dc.lft.to/lastmile_qr_scan", "ios": "https://dc.lft.to/lastmile_qr_scan"}, "is_disabled": 0, "fusion_lat": 0.0, "name": "54c2cade4148c688a39516fb172f29d7", "fusion_lon": 0.0}, {"is_reserved": 0, "type": "electric_scooter", "bike_id": "b5a445a7bc65f72013823b7e8624c521", "lat": 38.886106833333336, "lon": -76.99653083333334, "rental_uris": {"android": "https://dc.lft.to/lastmile_qr_scan", "ios": "https://dc.lft.to/lastmile_qr_scan"}, "is_disabled": 0, "fusion_lat": 0.0, "name": "b5a445a7bc65f72013823b7e8624c521", "fusion_lon": 0.0}, {"is_reserved": 0, "type": "electric_bike", "bike_id": "2c0e20a175ef0d555a64eda1a22da716", "lat": 38.8811855, "lon": -77.01678783333334, "rental_uris": {"android": "https://dc.lft.to/lastmile_qr_scan", "ios": "https://dc.lft.to/lastmile_qr_scan"}, "is_disabled": 0, "fusion_lat": 0.0, "name": "2c0e20a175ef0d555a64eda1a22da716", "fusion_lon": 0.0}, {"is_reserved": 0, "type": "electric_scooter", "bike_id": "fd04a3a0134f2a5a503465e821232a96", "lat": 38.884958166666664, "lon": -77.00709166666667, "rental_uris": {"android": "https://dc.lft.to/lastmile_qr_scan", "ios": "https://dc.lft.to/lastmile_qr_scan"}, "is_disabled": 0, "fusion_lat": 0.0, "name": "fd04a3a0134f2a5a503465e821232a96", "fusion_lon": 0.0}, {"is_reserved": 0, "type": "electric_scooter", "bike_id": "b877f00840697d65db58f8b94d702607", "lat": 38.92440166666667, "lon": -77.03405916666667, "rental_uris": {"android": "https://dc.lft.to/lastmile_qr_scan", "ios": "https://dc.lft.to/lastmile_qr_scan"}, "is_disabled": 0, "fusion_lat": 0.0, "name": "b877f00840697d65db58f8b94d702607", "fusion_lon": 0.0}, {"is_reserved": 0, "type": "electric_scooter", "bike_id": "54c5a9cfb1112aa5ebfadbb946f0ff6d", "lat": 38.924456, "lon": -77.03404233333333, "rental_uris": {"android": "https://dc.lft.to/lastmile_qr_scan", "ios": "https://dc.lft.to/lastmile_qr_scan"}, "is_disabled": 0, "fusion_lat": 0.0, "name": "54c5a9cfb1112aa5ebfadbb946f0ff6d", "fusion_lon": 0.0}, {"is_reserved": 0, "type": "electric_scooter", "bike_id": "80d73f884c3c6eedd2b47dd4449125f1", "lat": 38.89222516666667, "lon": -77.0279845, "rental_uris": {"android": "https://dc.lft.to/lastmile_qr_scan", "ios": "https://dc.lft.to/lastmile_qr_scan"}, "is_disabled": 0, "fusion_lat": 0.0, "name": "80d73f884c3c6eedd2b47dd4449125f1", "fusion_lon": 0.0}, {"is_reserved": 0, "type": "electric_scooter", "bike_id": "b796934bf2ec0a09d2df59dd47b5e796", "lat": 38.9222135, "lon": -77.018025, "rental_uris": {"android": "https://dc.lft.to/lastmile_qr_scan", "ios": "https://dc.lft.to/lastmile_qr_scan"}, "is_disabled": 0, "fusion_lat": 0.0, "name": "b796934bf2ec0a09d2df59dd47b5e796", "fusion_lon": 0.0}, {"is_reserved": 0, "type": "electric_scooter", "bike_id": "9f7d7629dea7b492845ed59794e5db70", "lat": 38.90305083333333, "lon": -77.0226045, "rental_uris": {"android": "https://dc.lft.to/lastmile_qr_scan", "ios": "https://dc.lft.to/lastmile_qr_scan"}, "is_disabled": 0, "fusion_lat": 0.0, "name": "9f7d7629dea7b492845ed59794e5db70", "fusion_lon": 0.0}, {"is_reserved": 0, "type": "electric_scooter", "bike_id": "d5cf48c2be575742d8c3c2e442a11988", "lat": 38.9037905, "lon": -77.01621766666666, "rental_uris": {"android": "https://dc.lft.to/lastmile_qr_scan", "ios": "https://dc.lft.to/lastmile_qr_scan"}, "is_disabled": 0, "fusion_lat": 0.0, "name": "d5cf48c2be575742d8c3c2e442a11988", "fusion_lon": 0.0}, {"is_reserved": 0, "type": "electric_scooter", "bike_id": "d9f01f3bd3b32f4b118ec75ce13d2ff2", "lat": 38.912541166666664, "lon": -77.02819066666666, "rental_uris": {"android": "https://dc.lft.to/lastmile_qr_scan", "ios": "https://dc.lft.to/lastmile_qr_scan"}, "is_disabled": 0, "fusion_lat": 0.0, "name": "d9f01f3bd3b32f4b118ec75ce13d2ff2", "fusion_lon": 0.0}, {"is_reserved": 0, "type": "electric_scooter", "bike_id": "cb3a724f4e6675f81532447cc18e74c3", "lat": 38.912713333333336, "lon": -77.03166183333333, "rental_uris": {"android": "https://dc.lft.to/lastmile_qr_scan", "ios": "https://dc.lft.to/lastmile_qr_scan"}, "is_disabled": 0, "fusion_lat": 0.0, "name": "cb3a724f4e6675f81532447cc18e74c3", "fusion_lon": 0.0}, {"is_reserved": 0, "type": "electric_scooter", "bike_id": "9ba53d6ed55b4378b9f158ba08a0d48a", "lat": 38.92360516666667, "lon": -77.05107083333333, "rental_uris": {"android": "https://dc.lft.to/lastmile_qr_scan", "ios": "https://dc.lft.to/lastmile_qr_scan"}, "is_disabled": 0, "fusion_lat": 0.0, "name": "9ba53d6ed55b4378b9f158ba08a0d48a", "fusion_lon": 0.0}, {"is_reserved": 0, "type": "electric_scooter", "bike_id": "a87a25d3cbcceb760172c81a6b39836d", "lat": 38.92799633333333, "lon": -77.03622783333333, "rental_uris": {"android": "https://dc.lft.to/lastmile_qr_scan", "ios": "https://dc.lft.to/lastmile_qr_scan"}, "is_disabled": 0, "fusion_lat": 0.0, "name": "a87a25d3cbcceb760172c81a6b39836d", "fusion_lon": 0.0}, {"is_reserved": 0, "type": "electric_scooter", "bike_id": "08d2d4cb646a407c7dae4cd46853de3a", "lat": 38.90159883333333, "lon": -77.04488766666667, "rental_uris": {"android": "https://dc.lft.to/lastmile_qr_scan", "ios": "https://dc.lft.to/lastmile_qr_scan"}, "is_disabled": 0, "fusion_lat": 0.0, "name": "08d2d4cb646a407c7dae4cd46853de3a", "fusion_lon": 0.0}, {"is_reserved": 0, "type": "electric_bike", "bike_id": "14c3569cab62250c56d7b0978fa0ad07", "lat": 38.914089, "lon": -77.00489383333333, "rental_uris": {"android": "https://dc.lft.to/lastmile_qr_scan", "ios": "https://dc.lft.to/lastmile_qr_scan"}, "is_disabled": 0, "fusion_lat": 0.0, "name": "14c3569cab62250c56d7b0978fa0ad07", "fusion_lon": 0.0}, {"is_reserved": 0, "type": "electric_scooter", "bike_id": "bd352fe5095c2308084764bb2813281b", "lat": 38.905641333333335, "lon": -77.0193865, "rental_uris": {"android": "https://dc.lft.to/lastmile_qr_scan", "ios": "https://dc.lft.to/lastmile_qr_scan"}, "is_disabled": 0, "fusion_lat": 0.0, "name": "bd352fe5095c2308084764bb2813281b", "fusion_lon": 0.0}, {"is_reserved": 0, "type": "electric_scooter", "bike_id": "b097cd63e5b8de29c14a9ea824902387", "lat": 38.921361, "lon": -77.01031533333334, "rental_uris": {"android": "https://dc.lft.to/lastmile_qr_scan", "ios": "https://dc.lft.to/lastmile_qr_scan"}, "is_disabled": 0, "fusion_lat": 0.0, "name": "b097cd63e5b8de29c14a9ea824902387", "fusion_lon": 0.0}, {"is_reserved": 0, "type": "electric_scooter", "bike_id": "9c6a256ffc12a1a362c8136b8b185890", "lat": 38.9058335, "lon": -77.04666483333334, "rental_uris": {"android": "https://dc.lft.to/lastmile_qr_scan", "ios": "https://dc.lft.to/lastmile_qr_scan"}, "is_disabled": 0, "fusion_lat": 0.0, "name": "9c6a256ffc12a1a362c8136b8b185890", "fusion_lon": 0.0}, {"is_reserved": 0, "type": "electric_scooter", "bike_id": "a08882425438cb1504a47daa99607cab", "lat": 38.931835666666665, "lon": -77.03849733333334, "rental_uris": {"android": "https://dc.lft.to/lastmile_qr_scan", "ios": "https://dc.lft.to/lastmile_qr_scan"}, "is_disabled": 0, "fusion_lat": 0.0, "name": "a08882425438cb1504a47daa99607cab", "fusion_lon": 0.0}, {"is_reserved": 0, "type": "electric_scooter", "bike_id": "e6feb3a9692d4428bc41c90111eaffaa", "lat": 38.90969066666667, "lon": -77.01445733333334, "rental_uris": {"android": "https://dc.lft.to/lastmile_qr_scan", "ios": "https://dc.lft.to/lastmile_qr_scan"}, "is_disabled": 0, "fusion_lat": 0.0, "name": "e6feb3a9692d4428bc41c90111eaffaa", "fusion_lon": 0.0}, {"is_reserved": 0, "type": "electric_scooter", "bike_id": "3d88281cdc35091291504aa3cfdefda7", "lat": 38.924033333333334, "lon": -76.95144666666667, "rental_uris": {"android": "https://dc.lft.to/lastmile_qr_scan", "ios": "https://dc.lft.to/lastmile_qr_scan"}, "is_disabled": 0, "fusion_lat": 0.0, "name": "3d88281cdc35091291504aa3cfdefda7", "fusion_lon": 0.0}, {"is_reserved": 0, "type": "electric_scooter", "bike_id": "cd40a878809d800a4604a3862f6545bf", "lat": 38.896252, "lon": -77.00208533333333, "rental_uris": {"android": "https://dc.lft.to/lastmile_qr_scan", "ios": "https://dc.lft.to/lastmile_qr_scan"}, "is_disabled": 0, "fusion_lat": 0.0, "name": "cd40a878809d800a4604a3862f6545bf", "fusion_lon": 0.0}, {"is_reserved": 0, "type": "electric_scooter", "bike_id": "c2157e172381eb83528f2d4572c40ffc", "lat": 38.896188333333335, "lon": -77.02623566666666, "rental_uris": {"android": "https://dc.lft.to/lastmile_qr_scan", "ios": "https://dc.lft.to/lastmile_qr_scan"}, "is_disabled": 0, "fusion_lat": 0.0, "name": "c2157e172381eb83528f2d4572c40ffc", "fusion_lon": 0.0}, {"is_reserved": 0, "type": "electric_scooter", "bike_id": "04d62bba60f1cad8e09bb4b8eba2e960", "lat": 38.914171833333334, "lon": -77.01803633333333, "rental_uris": {"android": "https://dc.lft.to/lastmile_qr_scan", "ios": "https://dc.lft.to/lastmile_qr_scan"}, "is_disabled": 0, "fusion_lat": 0.0, "name": "04d62bba60f1cad8e09bb4b8eba2e960", "fusion_lon": 0.0}, {"is_reserved": 0, "type": "electric_scooter", "bike_id": "e804ec85843a715c56c9a04b5f666367", "lat": 38.899871, "lon": -77.02876216666667, "rental_uris": {"android": "https://dc.lft.to/lastmile_qr_scan", "ios": "https://dc.lft.to/lastmile_qr_scan"}, "is_disabled": 0, "fusion_lat": 0.0, "name": "e804ec85843a715c56c9a04b5f666367", "fusion_lon": 0.0}, {"is_reserved": 0, "type": "electric_scooter", "bike_id": "57fe101c02efe56d71342a19355f08ee", "lat": 38.930005, "lon": -77.023062, "rental_uris": {"android": "https://dc.lft.to/lastmile_qr_scan", "ios": "https://dc.lft.to/lastmile_qr_scan"}, "is_disabled": 0, "fusion_lat": 0.0, "name": "57fe101c02efe56d71342a19355f08ee", "fusion_lon": 0.0}, {"is_reserved": 0, "type": "electric_scooter", "bike_id": "14be6fb8207d231b46704329eeef8578", "lat": 38.9215975, "lon": -77.03376616666667, "rental_uris": {"android": "https://dc.lft.to/lastmile_qr_scan", "ios": "https://dc.lft.to/lastmile_qr_scan"}, "is_disabled": 0, "fusion_lat": 0.0, "name": "14be6fb8207d231b46704329eeef8578", "fusion_lon": 0.0}, {"is_reserved": 0, "type": "electric_scooter", "bike_id": "4bb8ba06fa77f29440f93c79d2bfddcf", "lat": 38.9187195, "lon": -77.04452266666667, "rental_uris": {"android": "https://dc.lft.to/lastmile_qr_scan", "ios": "https://dc.lft.to/lastmile_qr_scan"}, "is_disabled": 0, "fusion_lat": 0.0, "name": "4bb8ba06fa77f29440f93c79d2bfddcf", "fusion_lon": 0.0}, {"is_reserved": 0, "type": "electric_scooter", "bike_id": "675cbd5f6a2119812839b7a289221b26", "lat": 38.91410783333333, "lon": -77.0187855, "rental_uris": {"android": "https://dc.lft.to/lastmile_qr_scan", "ios": "https://dc.lft.to/lastmile_qr_scan"}, "is_disabled": 0, "fusion_lat": 0.0, "name": "675cbd5f6a2119812839b7a289221b26", "fusion_lon": 0.0}, {"is_reserved": 0, "type": "electric_scooter", "bike_id": "af2a0709c8c480a1989a5d8838711857", "lat": 38.91405433333333, "lon": -77.03170166666666, "rental_uris": {"android": "https://dc.lft.to/lastmile_qr_scan", "ios": "https://dc.lft.to/lastmile_qr_scan"}, "is_disabled": 0, "fusion_lat": 0.0, "name": "af2a0709c8c480a1989a5d8838711857", "fusion_lon": 0.0}, {"is_reserved": 0, "type": "electric_scooter", "bike_id": "387d8808745505f29faeb6bc59bef87d", "lat": 38.88301533333333, "lon": -76.94852466666667, "rental_uris": {"android": "https://dc.lft.to/lastmile_qr_scan", "ios": "https://dc.lft.to/lastmile_qr_scan"}, "is_disabled": 0, "fusion_lat": 0.0, "name": "387d8808745505f29faeb6bc59bef87d", "fusion_lon": 0.0}, {"is_reserved": 0, "type": "electric_scooter", "bike_id": "acb03785aaa29d50004c8385e633ce03", "lat": 38.90076083333334, "lon": -77.04949116666667, "rental_uris": {"android": "https://dc.lft.to/lastmile_qr_scan", "ios": "https://dc.lft.to/lastmile_qr_scan"}, "is_disabled": 0, "fusion_lat": 0.0, "name": "acb03785aaa29d50004c8385e633ce03", "fusion_lon": 0.0}, {"is_reserved": 0, "type": "electric_scooter", "bike_id": "37215dad75693b6d27af267001f8a851", "lat": 38.8783415, "lon": -77.006998, "rental_uris": {"android": "https://dc.lft.to/lastmile_qr_scan", "ios": "https://dc.lft.to/lastmile_qr_scan"}, "is_disabled": 0, "fusion_lat": 0.0, "name": "37215dad75693b6d27af267001f8a851", "fusion_lon": 0.0}, {"is_reserved": 0, "type": "electric_scooter", "bike_id": "1f33e7bb50ab50939187c7e877f01aae", "lat": 38.92025066666667, "lon": -77.0179995, "rental_uris": {"android": "https://dc.lft.to/lastmile_qr_scan", "ios": "https://dc.lft.to/lastmile_qr_scan"}, "is_disabled": 0, "fusion_lat": 0.0, "name": "1f33e7bb50ab50939187c7e877f01aae", "fusion_lon": 0.0}, {"is_reserved": 0, "type": "electric_scooter", "bike_id": "61b4aa6ebf683edb1f5ce3bbd2988311", "lat": 38.923028333333335, "lon": -77.03019933333333, "rental_uris": {"android": "https://dc.lft.to/lastmile_qr_scan", "ios": "https://dc.lft.to/lastmile_qr_scan"}, "is_disabled": 0, "fusion_lat": 0.0, "name": "61b4aa6ebf683edb1f5ce3bbd2988311", "fusion_lon": 0.0}, {"is_reserved": 0, "type": "electric_scooter", "bike_id": "dacf6119d36baabfe9efc7132617bf17", "lat": 38.910987666666664, "lon": -77.07344383333333, "rental_uris": {"android": "https://dc.lft.to/lastmile_qr_scan", "ios": "https://dc.lft.to/lastmile_qr_scan"}, "is_disabled": 0, "fusion_lat": 0.0, "name": "dacf6119d36baabfe9efc7132617bf17", "fusion_lon": 0.0}, {"is_reserved": 0, "type": "electric_scooter", "bike_id": "f72dd7af095834eb2e44abf3e41cfdfc", "lat": 38.901619, "lon": -76.9302055, "rental_uris": {"android": "https://dc.lft.to/lastmile_qr_scan", "ios": "https://dc.lft.to/lastmile_qr_scan"}, "is_disabled": 0, "fusion_lat": 0.0, "name": "f72dd7af095834eb2e44abf3e41cfdfc", "fusion_lon": 0.0}, {"is_reserved": 0, "type": "electric_bike", "bike_id": "493d2d99109330d14c953d0ee26c853f", "lat": 38.8883465, "lon": -76.95758116666667, "rental_uris": {"android": "https://dc.lft.to/lastmile_qr_scan", "ios": "https://dc.lft.to/lastmile_qr_scan"}, "is_disabled": 0, "fusion_lat": 0.0, "name": "493d2d99109330d14c953d0ee26c853f", "fusion_lon": 0.0}, {"is_reserved": 0, "type": "electric_scooter", "bike_id": "048bdfe173d62c0e80bf22522e71c445", "lat": 38.912980166666664, "lon": -77.02693, "rental_uris": {"android": "https://dc.lft.to/lastmile_qr_scan", "ios": "https://dc.lft.to/lastmile_qr_scan"}, "is_disabled": 0, "fusion_lat": 0.0, "name": "048bdfe173d62c0e80bf22522e71c445", "fusion_lon": 0.0}, {"is_reserved": 0, "type": "electric_scooter", "bike_id": "3553eea3f8d62a0f88a4fde47f9a24b5", "lat": 38.9126335, "lon": -77.031432, "rental_uris": {"android": "https://dc.lft.to/lastmile_qr_scan", "ios": "https://dc.lft.to/lastmile_qr_scan"}, "is_disabled": 0, "fusion_lat": 0.0, "name": "3553eea3f8d62a0f88a4fde47f9a24b5", "fusion_lon": 0.0}, {"is_reserved": 0, "type": "electric_scooter", "bike_id": "22a8188ea9fd9968093ae3723b8bbdb9", "lat": 38.918837833333335, "lon": -77.027068, "rental_uris": {"android": "https://dc.lft.to/lastmile_qr_scan", "ios": "https://dc.lft.to/lastmile_qr_scan"}, "is_disabled": 0, "fusion_lat": 0.0, "name": "22a8188ea9fd9968093ae3723b8bbdb9", "fusion_lon": 0.0}, {"is_reserved": 0, "type": "electric_scooter", "bike_id": "09a7a83b83860569eccb2596365bf9f8", "lat": 38.9260045, "lon": -77.021557, "rental_uris": {"android": "https://dc.lft.to/lastmile_qr_scan", "ios": "https://dc.lft.to/lastmile_qr_scan"}, "is_disabled": 0, "fusion_lat": 0.0, "name": "09a7a83b83860569eccb2596365bf9f8", "fusion_lon": 0.0}, {"is_reserved": 0, "type": "electric_scooter", "bike_id": "a21aa87ff4344c0f5e5ebc2cb27af1b1", "lat": 38.89992433333333, "lon": -77.02722616666667, "rental_uris": {"android": "https://dc.lft.to/lastmile_qr_scan", "ios": "https://dc.lft.to/lastmile_qr_scan"}, "is_disabled": 0, "fusion_lat": 0.0, "name": "a21aa87ff4344c0f5e5ebc2cb27af1b1", "fusion_lon": 0.0}, {"is_reserved": 0, "type": "electric_scooter", "bike_id": "c5c467ed0d02bd3768d390f9966bc218", "lat": 38.928940833333336, "lon": -77.02555, "rental_uris": {"android": "https://dc.lft.to/lastmile_qr_scan", "ios": "https://dc.lft.to/lastmile_qr_scan"}, "is_disabled": 0, "fusion_lat": 0.0, "name": "c5c467ed0d02bd3768d390f9966bc218", "fusion_lon": 0.0}, {"is_reserved": 0, "type": "electric_bike", "bike_id": "4f663175d7492d7cad2de0b0e4c08f7c", "lat": 38.807325, "lon": -76.99253766666666, "rental_uris": {"android": "https://dc.lft.to/lastmile_qr_scan", "ios": "https://dc.lft.to/lastmile_qr_scan"}, "is_disabled": 0, "fusion_lat": 0.0, "name": "4f663175d7492d7cad2de0b0e4c08f7c", "fusion_lon": 0.0}, {"is_reserved": 0, "type": "electric_scooter", "bike_id": "a97e18dd7c7e54c9f4562aae9fcc8ce3", "lat": 38.9359095, "lon": -77.05876566666667, "rental_uris": {"android": "https://dc.lft.to/lastmile_qr_scan", "ios": "https://dc.lft.to/lastmile_qr_scan"}, "is_disabled": 0, "fusion_lat": 0.0, "name": "a97e18dd7c7e54c9f4562aae9fcc8ce3", "fusion_lon": 0.0}, {"is_reserved": 0, "type": "electric_scooter", "bike_id": "c19e07ffc78685a4a7dfedf271e9e597", "lat": 38.890408666666666, "lon": -76.95248066666667, "rental_uris": {"android": "https://dc.lft.to/lastmile_qr_scan", "ios": "https://dc.lft.to/lastmile_qr_scan"}, "is_disabled": 0, "fusion_lat": 0.0, "name": "c19e07ffc78685a4a7dfedf271e9e597", "fusion_lon": 0.0}, {"is_reserved": 0, "type": "electric_scooter", "bike_id": "d7adaef06548b098f79aad4b8dc81132", "lat": 38.9079535, "lon": -77.048842, "rental_uris": {"android": "https://dc.lft.to/lastmile_qr_scan", "ios": "https://dc.lft.to/lastmile_qr_scan"}, "is_disabled": 0, "fusion_lat": 0.0, "name": "d7adaef06548b098f79aad4b8dc81132", "fusion_lon": 0.0}, {"is_reserved": 0, "type": "electric_scooter", "bike_id": "1258dc09ecca81ff1e05b73ab813a15d", "lat": 38.8738605, "lon": -77.00013583333333, "rental_uris": {"android": "https://dc.lft.to/lastmile_qr_scan", "ios": "https://dc.lft.to/lastmile_qr_scan"}, "is_disabled": 0, "fusion_lat": 0.0, "name": "1258dc09ecca81ff1e05b73ab813a15d", "fusion_lon": 0.0}, {"is_reserved": 0, "type": "electric_scooter", "bike_id": "b70145f0c209a8944e28f7964fb7db58", "lat": 38.919862, "lon": -77.040662, "rental_uris": {"android": "https://dc.lft.to/lastmile_qr_scan", "ios": "https://dc.lft.to/lastmile_qr_scan"}, "is_disabled": 0, "fusion_lat": 0.0, "name": "b70145f0c209a8944e28f7964fb7db58", "fusion_lon": 0.0}, {"is_reserved": 0, "type": "electric_scooter", "bike_id": "0b2f13c42e073caf91753db49722e9f1", "lat": 38.937383833333335, "lon": -77.03262716666667, "rental_uris": {"android": "https://dc.lft.to/lastmile_qr_scan", "ios": "https://dc.lft.to/lastmile_qr_scan"}, "is_disabled": 0, "fusion_lat": 0.0, "name": "0b2f13c42e073caf91753db49722e9f1", "fusion_lon": 0.0}, {"is_reserved": 0, "type": "electric_scooter", "bike_id": "6cecf448c95c52bcf4924be976d0a171", "lat": 38.92028066666666, "lon": -77.01033416666667, "rental_uris": {"android": "https://dc.lft.to/lastmile_qr_scan", "ios": "https://dc.lft.to/lastmile_qr_scan"}, "is_disabled": 0, "fusion_lat": 0.0, "name": "6cecf448c95c52bcf4924be976d0a171", "fusion_lon": 0.0}, {"is_reserved": 0, "type": "electric_scooter", "bike_id": "cdcfd9576133f74fef41890958d62cf3", "lat": 38.94307166666667, "lon": -77.02176733333333, "rental_uris": {"android": "https://dc.lft.to/lastmile_qr_scan", "ios": "https://dc.lft.to/lastmile_qr_scan"}, "is_disabled": 0, "fusion_lat": 0.0, "name": "cdcfd9576133f74fef41890958d62cf3", "fusion_lon": 0.0}, {"is_reserved": 0, "type": "electric_scooter", "bike_id": "acb70bb6426ea38a0f1f3a100c7b2d5a", "lat": 38.8880885, "lon": -77.00206966666667, "rental_uris": {"android": "https://dc.lft.to/lastmile_qr_scan", "ios": "https://dc.lft.to/lastmile_qr_scan"}, "is_disabled": 0, "fusion_lat": 0.0, "name": "acb70bb6426ea38a0f1f3a100c7b2d5a", "fusion_lon": 0.0}, {"is_reserved": 0, "type": "electric_scooter", "bike_id": "aefad15093f9b9e6be2f861f41717c13", "lat": 38.8992955, "lon": -77.026802, "rental_uris": {"android": "https://dc.lft.to/lastmile_qr_scan", "ios": "https://dc.lft.to/lastmile_qr_scan"}, "is_disabled": 0, "fusion_lat": 0.0, "name": "aefad15093f9b9e6be2f861f41717c13", "fusion_lon": 0.0}, {"is_reserved": 0, "type": "electric_scooter", "bike_id": "d52ea8aad6591aa2f601cebdde3bf026", "lat": 38.87660183333333, "lon": -77.00744916666666, "rental_uris": {"android": "https://dc.lft.to/lastmile_qr_scan", "ios": "https://dc.lft.to/lastmile_qr_scan"}, "is_disabled": 0, "fusion_lat": 0.0, "name": "d52ea8aad6591aa2f601cebdde3bf026", "fusion_lon": 0.0}, {"is_reserved": 0, "type": "electric_scooter", "bike_id": "be4f31e5bf551c5c64eb8a61635bb373", "lat": 38.876044666666665, "lon": -76.96569516666666, "rental_uris": {"android": "https://dc.lft.to/lastmile_qr_scan", "ios": "https://dc.lft.to/lastmile_qr_scan"}, "is_disabled": 0, "fusion_lat": 0.0, "name": "be4f31e5bf551c5c64eb8a61635bb373", "fusion_lon": 0.0}, {"is_reserved": 0, "type": "electric_scooter", "bike_id": "29f5788ad6fecee6993357d54300ce39", "lat": 38.91797316666667, "lon": -77.03141116666667, "rental_uris": {"android": "https://dc.lft.to/lastmile_qr_scan", "ios": "https://dc.lft.to/lastmile_qr_scan"}, "is_disabled": 0, "fusion_lat": 0.0, "name": "29f5788ad6fecee6993357d54300ce39", "fusion_lon": 0.0}, {"is_reserved": 0, "type": "electric_scooter", "bike_id": "a171c24f8d3ca0caf83f61bde592ea8a", "lat": 38.93447283333333, "lon": -77.0724685, "rental_uris": {"android": "https://dc.lft.to/lastmile_qr_scan", "ios": "https://dc.lft.to/lastmile_qr_scan"}, "is_disabled": 0, "fusion_lat": 0.0, "name": "a171c24f8d3ca0caf83f61bde592ea8a", "fusion_lon": 0.0}, {"is_reserved": 0, "type": "electric_scooter", "bike_id": "a0c5019c3d000e7e12b5e5d31bfdb8c8", "lat": 38.92827966666667, "lon": -77.05444433333334, "rental_uris": {"android": "https://dc.lft.to/lastmile_qr_scan", "ios": "https://dc.lft.to/lastmile_qr_scan"}, "is_disabled": 0, "fusion_lat": 0.0, "name": "a0c5019c3d000e7e12b5e5d31bfdb8c8", "fusion_lon": 0.0}, {"is_reserved": 0, "type": "electric_scooter", "bike_id": "b2198d6b1bf61a3c3dd5db8a020e0f16", "lat": 38.905112833333334, "lon": -77.0638485, "rental_uris": {"android": "https://dc.lft.to/lastmile_qr_scan", "ios": "https://dc.lft.to/lastmile_qr_scan"}, "is_disabled": 0, "fusion_lat": 0.0, "name": "b2198d6b1bf61a3c3dd5db8a020e0f16", "fusion_lon": 0.0}, {"is_reserved": 0, "type": "electric_scooter", "bike_id": "667c2cdfa267db657666eba99f6e6a5d", "lat": 38.892232666666665, "lon": -77.02803383333334, "rental_uris": {"android": "https://dc.lft.to/lastmile_qr_scan", "ios": "https://dc.lft.to/lastmile_qr_scan"}, "is_disabled": 0, "fusion_lat": 0.0, "name": "667c2cdfa267db657666eba99f6e6a5d", "fusion_lon": 0.0}, {"is_reserved": 0, "type": "electric_scooter", "bike_id": "a25eab776887c4ce8835d5382fcc9d64", "lat": 38.924809833333335, "lon": -77.03486216666667, "rental_uris": {"android": "https://dc.lft.to/lastmile_qr_scan", "ios": "https://dc.lft.to/lastmile_qr_scan"}, "is_disabled": 0, "fusion_lat": 0.0, "name": "a25eab776887c4ce8835d5382fcc9d64", "fusion_lon": 0.0}, {"is_reserved": 0, "type": "electric_scooter", "bike_id": "973f25bf37bea60c5a255180be421e2c", "lat": 38.88767716666667, "lon": -76.93264283333333, "rental_uris": {"android": "https://dc.lft.to/lastmile_qr_scan", "ios": "https://dc.lft.to/lastmile_qr_scan"}, "is_disabled": 0, "fusion_lat": 0.0, "name": "973f25bf37bea60c5a255180be421e2c", "fusion_lon": 0.0}, {"is_reserved": 0, "type": "electric_scooter", "bike_id": "356c4acc2c977f120bc925f29bdfbb14", "lat": 38.9202775, "lon": -76.985447, "rental_uris": {"android": "https://dc.lft.to/lastmile_qr_scan", "ios": "https://dc.lft.to/lastmile_qr_scan"}, "is_disabled": 0, "fusion_lat": 0.0, "name": "356c4acc2c977f120bc925f29bdfbb14", "fusion_lon": 0.0}, {"is_reserved": 0, "type": "electric_bike", "bike_id": "1de8a2d126706fff057479f0670181b3", "lat": 38.86752283333333, "lon": -76.94535566666667, "rental_uris": {"android": "https://dc.lft.to/lastmile_qr_scan", "ios": "https://dc.lft.to/lastmile_qr_scan"}, "is_disabled": 0, "fusion_lat": 0.0, "name": "1de8a2d126706fff057479f0670181b3", "fusion_lon": 0.0}, {"is_reserved": 0, "type": "electric_scooter", "bike_id": "cedacc4f9433fa01fef6d81412d09cc9", "lat": 38.899674, "lon": -77.04557666666666, "rental_uris": {"android": "https://dc.lft.to/lastmile_qr_scan", "ios": "https://dc.lft.to/lastmile_qr_scan"}, "is_disabled": 0, "fusion_lat": 0.0, "name": "cedacc4f9433fa01fef6d81412d09cc9", "fusion_lon": 0.0}, {"is_reserved": 0, "type": "electric_bike", "bike_id": "b11b40cbd9ef35b6bbbc9ebeb9cc9ad7", "lat": 38.966727, "lon": -77.0230305, "rental_uris": {"android": "https://dc.lft.to/lastmile_qr_scan", "ios": "https://dc.lft.to/lastmile_qr_scan"}, "is_disabled": 0, "fusion_lat": 0.0, "name": "b11b40cbd9ef35b6bbbc9ebeb9cc9ad7", "fusion_lon": 0.0}, {"is_reserved": 0, "type": "electric_scooter", "bike_id": "1de94cbda86399f5d59399cd40f6ed4c", "lat": 38.871839, "lon": -76.96566166666666, "rental_uris": {"android": "https://dc.lft.to/lastmile_qr_scan", "ios": "https://dc.lft.to/lastmile_qr_scan"}, "is_disabled": 0, "fusion_lat": 0.0, "name": "1de94cbda86399f5d59399cd40f6ed4c", "fusion_lon": 0.0}, {"is_reserved": 0, "type": "electric_scooter", "bike_id": "2d4bd0fa1400c9dd13de68c4b1c1a798", "lat": 38.8998605, "lon": -77.022069, "rental_uris": {"android": "https://dc.lft.to/lastmile_qr_scan", "ios": "https://dc.lft.to/lastmile_qr_scan"}, "is_disabled": 0, "fusion_lat": 0.0, "name": "2d4bd0fa1400c9dd13de68c4b1c1a798", "fusion_lon": 0.0}, {"is_reserved": 0, "type": "electric_scooter", "bike_id": "6fc35e00050a69fa9d83a495cd983b91", "lat": 38.91632533333333, "lon": -77.01053566666667, "rental_uris": {"android": "https://dc.lft.to/lastmile_qr_scan", "ios": "https://dc.lft.to/lastmile_qr_scan"}, "is_disabled": 0, "fusion_lat": 0.0, "name": "6fc35e00050a69fa9d83a495cd983b91", "fusion_lon": 0.0}, {"is_reserved": 0, "type": "electric_bike", "bike_id": "caed1c8aa324ddf572842afab8c8c243", "lat": 38.91551716666667, "lon": -77.02013166666667, "rental_uris": {"android": "https://dc.lft.to/lastmile_qr_scan", "ios": "https://dc.lft.to/lastmile_qr_scan"}, "is_disabled": 0, "fusion_lat": 0.0, "name": "caed1c8aa324ddf572842afab8c8c243", "fusion_lon": 0.0}, {"is_reserved": 0, "type": "electric_scooter", "bike_id": "422d03d3e2777cc48ec53f74f7b487ec", "lat": 38.92290633333333, "lon": -77.034019, "rental_uris": {"android": "https://dc.lft.to/lastmile_qr_scan", "ios": "https://dc.lft.to/lastmile_qr_scan"}, "is_disabled": 0, "fusion_lat": 0.0, "name": "422d03d3e2777cc48ec53f74f7b487ec", "fusion_lon": 0.0}, {"is_reserved": 0, "type": "electric_scooter", "bike_id": "d433c0477537e5a91401e8689758b8a4", "lat": 38.923824333333336, "lon": -77.0306345, "rental_uris": {"android": "https://dc.lft.to/lastmile_qr_scan", "ios": "https://dc.lft.to/lastmile_qr_scan"}, "is_disabled": 0, "fusion_lat": 0.0, "name": "d433c0477537e5a91401e8689758b8a4", "fusion_lon": 0.0}, {"is_reserved": 0, "type": "electric_scooter", "bike_id": "6c2bc36a29b40bd4b1a0c36fa7c2a559", "lat": 38.911903, "lon": -77.03852333333333, "rental_uris": {"android": "https://dc.lft.to/lastmile_qr_scan", "ios": "https://dc.lft.to/lastmile_qr_scan"}, "is_disabled": 0, "fusion_lat": 0.0, "name": "6c2bc36a29b40bd4b1a0c36fa7c2a559", "fusion_lon": 0.0}, {"is_reserved": 0, "type": "electric_scooter", "bike_id": "04d02fdf63520894d2418fa9a4455df5", "lat": 38.89943533333334, "lon": -76.9790945, "rental_uris": {"android": "https://dc.lft.to/lastmile_qr_scan", "ios": "https://dc.lft.to/lastmile_qr_scan"}, "is_disabled": 0, "fusion_lat": 0.0, "name": "04d02fdf63520894d2418fa9a4455df5", "fusion_lon": 0.0}, {"is_reserved": 0, "type": "electric_scooter", "bike_id": "bdb52c1a10cda9f7d3524728f532cca9", "lat": 38.91398216666666, "lon": -77.04676933333333, "rental_uris": {"android": "https://dc.lft.to/lastmile_qr_scan", "ios": "https://dc.lft.to/lastmile_qr_scan"}, "is_disabled": 0, "fusion_lat": 0.0, "name": "bdb52c1a10cda9f7d3524728f532cca9", "fusion_lon": 0.0}, {"is_reserved": 0, "type": "electric_scooter", "bike_id": "b9a430bab20b08567f9d8aff62a7dffe", "lat": 38.933005, "lon": -77.02141916666666, "rental_uris": {"android": "https://dc.lft.to/lastmile_qr_scan", "ios": "https://dc.lft.to/lastmile_qr_scan"}, "is_disabled": 0, "fusion_lat": 0.0, "name": "b9a430bab20b08567f9d8aff62a7dffe", "fusion_lon": 0.0}, {"is_reserved": 0, "type": "electric_scooter", "bike_id": "35385d4ec1579071086d3fa7543bebf5", "lat": 38.919255666666665, "lon": -77.03430466666667, "rental_uris": {"android": "https://dc.lft.to/lastmile_qr_scan", "ios": "https://dc.lft.to/lastmile_qr_scan"}, "is_disabled": 0, "fusion_lat": 0.0, "name": "35385d4ec1579071086d3fa7543bebf5", "fusion_lon": 0.0}, {"is_reserved": 0, "type": "electric_scooter", "bike_id": "b30f070cc62f29c5dcca6904a0650cfc", "lat": 38.90725116666667, "lon": -76.93455816666666, "rental_uris": {"android": "https://dc.lft.to/lastmile_qr_scan", "ios": "https://dc.lft.to/lastmile_qr_scan"}, "is_disabled": 0, "fusion_lat": 0.0, "name": "b30f070cc62f29c5dcca6904a0650cfc", "fusion_lon": 0.0}, {"is_reserved": 0, "type": "electric_scooter", "bike_id": "cbfe1eacdde6ec2c2565926f243df602", "lat": 38.90557066666667, "lon": -77.0058105, "rental_uris": {"android": "https://dc.lft.to/lastmile_qr_scan", "ios": "https://dc.lft.to/lastmile_qr_scan"}, "is_disabled": 0, "fusion_lat": 0.0, "name": "cbfe1eacdde6ec2c2565926f243df602", "fusion_lon": 0.0},