{"data": {"bikes": [{"bike_id": "7c0b4e56dc2d57b52a648e4e7fd375b6", "lat": 38.9155335, "is_reserved": 0, "fusion_lat": 0.0, "rental_uris": {"android": "https://dc.lft.to/lastmile_qr_scan", "ios": "https://dc.lft.to/lastmile_qr_scan"}, "fusion_lon": 0.0, "name": "7c0b4e56dc2d57b52a648e4e7fd375b6", "lon": -77.0444845, "is_disabled": 0, "type": "electric_scooter"}, {"bike_id": "f281ba94d422bf4e90e3a0c22690b03e", "lat": 38.905571333333334, "is_reserved": 0, "fusion_lat": 0.0, "rental_uris": {"android": "https://dc.lft.to/lastmile_qr_scan", "ios": "https://dc.lft.to/lastmile_qr_scan"}, "fusion_lon": 0.0, "name": "f281ba94d422bf4e90e3a0c22690b03e", "lon": -77.04175716666667, "is_disabled": 0, "type": "electric_scooter"}, {"bike_id": "c6d8c5e9268393ff8ed0f19a0a378291", "lat": 38.9339845, "is_reserved": 0, "fusion_lat": 0.0, "rental_uris": {"android": "https://dc.lft.to/lastmile_qr_scan", "ios": "https://dc.lft.to/lastmile_qr_scan"}, "fusion_lon": 0.0, "name": "c6d8c5e9268393ff8ed0f19a0a378291", "lon": -77.0574155, "is_disabled": 0, "type": "electric_scooter"}, {"bike_id": "1b1dd7e4362253678daa5aede0289413", "lat": 38.90064483333333, "is_reserved": 0, "fusion_lat": 0.0, "rental_uris": {"android": "https://dc.lft.to/lastmile_qr_scan", "ios": "https://dc.lft.to/lastmile_qr_scan"}, "fusion_lon": 0.0, "name": "1b1dd7e4362253678daa5aede0289413", "lon": -77.048284, "is_disabled": 0, "type": "electric_scooter"}, {"bike_id": "0dae0f39777823218b43cf1f49c87642", "lat": 38.9240765, "is_reserved": 0, "fusion_lat": 0.0, "rental_uris": {"android": "https://dc.lft.to/lastmile_qr_scan", "ios": "https://dc.lft.to/lastmile_qr_scan"}, "fusion_lon": 0.0, "name": "0dae0f39777823218b43cf1f49c87642", "lon": -77.02980266666667, "is_disabled": 0, "type": "electric_scooter"}, {"bike_id": "f5e33a8898e2143c0c608794de780345", "lat": 38.914800666666665, "is_reserved": 0, "fusion_lat": 0.0, "rental_uris": {"android": "https://dc.lft.to/lastmile_qr_scan", "ios": "https://dc.lft.to/lastmile_qr_scan"}, "fusion_lon": 0.0, "name": "f5e33a8898e2143c0c608794de780345", "lon": -77.02819766666667, "is_disabled": 0, "type": "electric_bike"}, {"bike_id": "e7cd524a83da6b31d1e7a2ced84585df", "lat": 38.884147166666665, "is_reserved": 0, "fusion_lat": 0.0, "rental_uris": {"android": "https://dc.lft.to/lastmile_qr_scan", "ios": "https://dc.lft.to/lastmile_qr_scan"}, "fusion_lon": 0.0, "name": "e7cd524a83da6b31d1e7a2ced84585df", "lon": -76.94827916666667, "is_disabled": 0, "type": "electric_scooter"}, {"bike_id": "2389f41014228bda86dc483e1282d041", "lat": 38.89619166666667, "is_reserved": 0, "fusion_lat": 0.0, "rental_uris": {"android": "https://dc.lft.to/lastmile_qr_scan", "ios": "https://dc.lft.to/lastmile_qr_scan"}, "fusion_lon": 0.0, "name": "2389f41014228bda86dc483e1282d041", "lon": -77.02608183333334, "is_disabled": 0, "type": "electric_scooter"}, {"bike_id": "e6c1f416c8d8c804def6a80fdcac54e6", "lat": 38.992175833333334, "is_reserved": 0, "fusion_lat": 0.0, "rental_uris": {"android": "https://dc.lft.to/lastmile_qr_scan", "ios": "https://dc.lft.to/lastmile_qr_scan"}, "fusion_lon": 0.0, "name": "e6c1f416c8d8c804def6a80fdcac54e6", "lon": -76.9442795, "is_disabled": 0, "type": "electric_bike"}, {"bike_id": "bf48d223797bccc6866a0bcae4a7b8a3", "lat": 38.91709866666667, "is_reserved": 0, "fusion_lat": 0.0, "rental_uris": {"android": "https://dc.lft.to/lastmile_qr_scan", "ios": "https://dc.lft.to/lastmile_qr_scan"}, "fusion_lon": 0.0, "name": "bf48d223797bccc6866a0bcae4a7b8a3", "lon": -77.02553383333333, "is_disabled": 0, "type": "electric_scooter"}, {"bike_id": "87bf07d2a4a74a7bed1e842ce63fdd0f", "lat": 38.854812, "is_reserved": 0, "fusion_lat": 0.0, "rental_uris": {"android": "https://dc.lft.to/lastmile_qr_scan", "ios": "https://dc.lft.to/lastmile_qr_scan"}, "fusion_lon": 0.0, "name": "87bf07d2a4a74a7bed1e842ce63fdd0f", "lon": -77.116071, "is_disabled": 0, "type": "electric_bike"}, {"bike_id": "83a7bcfeb45ef89efa3b9df4c4059f89", "lat": 38.92766833333334, "is_reserved": 0, "fusion_lat": 0.0, "rental_uris": {"android": "https://dc.lft.to/lastmile_qr_scan", "ios": "https://dc.lft.to/lastmile_qr_scan"}, "fusion_lon": 0.0, "name": "83a7bcfeb45ef89efa3b9df4c4059f89", "lon": -77.0273745, "is_disabled": 0, "type": "electric_scooter"}, {"bike_id": "45f36ab98249ac79bf7d3a0c59891e36", "lat": 38.8897795, "is_reserved": 0, "fusion_lat": 0.0, "rental_uris": {"android": "https://dc.lft.to/lastmile_qr_scan", "ios": "https://dc.lft.to/lastmile_qr_scan"}, "fusion_lon": 0.0, "name": "45f36ab98249ac79bf7d3a0c59891e36", "lon": -76.999377, "is_disabled": 0, "type": "electric_scooter"}, {"bike_id": "f3d8e370918022ee3ee03fb06ad45aa2", "lat": 38.929626666666664, "is_reserved": 0, "fusion_lat": 0.0, "rental_uris": {"android": "https://dc.lft.to/lastmile_qr_scan", "ios": "https://dc.lft.to/lastmile_qr_scan"}, "fusion_lon": 0.0, "name": "f3d8e370918022ee3ee03fb06ad45aa2", "lon": -77.011485, "is_disabled": 0, "type": "electric_scooter"}, {"bike_id": "9ce63da4882cfbfe8b624608477d7abf", "lat": 38.90542766666667, "is_reserved": 0, "fusion_lat": 0.0, "rental_uris": {"android": "https://dc.lft.to/lastmile_qr_scan", "ios": "https://dc.lft.to/lastmile_qr_scan"}, "fusion_lon": 0.0, "name": "9ce63da4882cfbfe8b624608477d7abf", "lon": -77.005891, "is_disabled": 0, "type": "electric_scooter"}, {"bike_id": "7f430a67ca78d50444499ba4607833c0", "lat": 38.8553745, "is_reserved": 0, "fusion_lat": 0.0, "rental_uris": {"android": "https://dc.lft.to/lastmile_qr_scan", "ios": "https://dc.lft.to/lastmile_qr_scan"}, "fusion_lon": 0.0, "name": "7f430a67ca78d50444499ba4607833c0", "lon": -77.1202865, "is_disabled": 0, "type": "electric_bike"}, {"bike_id": "5814bf552c42931843fdcd5237a89418", "lat": 38.90563, "is_reserved": 0, "fusion_lat": 0.0, "rental_uris": {"android": "https://dc.lft.to/lastmile_qr_scan", "ios": "https://dc.lft.to/lastmile_qr_scan"}, "fusion_lon": 0.0, "name": "5814bf552c42931843fdcd5237a89418", "lon": -77.016816, "is_disabled": 0, "type": "electric_scooter"}, {"bike_id": "c9ab88cde75d0cb90e10150ffc8533ad", "lat": 38.85562733333333, "is_reserved": 0, "fusion_lat": 0.0, "rental_uris": {"android": "https://dc.lft.to/lastmile_qr_scan", "ios": "https://dc.lft.to/lastmile_qr_scan"}, "fusion_lon": 0.0, "name": "c9ab88cde75d0cb90e10150ffc8533ad", "lon": -77.11318233333333, "is_disabled": 0, "type": "electric_bike"}, {"bike_id": "6ad4125c68cf144cbe3c2eb24881ba8d", "lat": 38.91405816666666, "is_reserved": 0, "fusion_lat": 0.0, "rental_uris": {"android": "https://dc.lft.to/lastmile_qr_scan", "ios": "https://dc.lft.to/lastmile_qr_scan"}, "fusion_lon": 0.0, "name": "6ad4125c68cf144cbe3c2eb24881ba8d", "lon": -77.02009083333333, "is_disabled": 0, "type": "electric_scooter"}, {"bike_id": "862eac036df2d0e9eea6898a5619a437", "lat": 38.9069395, "is_reserved": 0, "fusion_lat": 0.0, "rental_uris": {"android": "https://dc.lft.to/lastmile_qr_scan", "ios": "https://dc.lft.to/lastmile_qr_scan"}, "fusion_lon": 0.0, "name": "862eac036df2d0e9eea6898a5619a437", "lon": -77.02606083333333, "is_disabled": 0, "type": "electric_scooter"}, {"bike_id": "6394457fe6e078b17811a93c84029ea6", "lat": 38.915545333333334, "is_reserved": 0, "fusion_lat": 0.0, "rental_uris": {"android": "https://dc.lft.to/lastmile_qr_scan", "ios": "https://dc.lft.to/lastmile_qr_scan"}, "fusion_lon": 0.0, "name": "6394457fe6e078b17811a93c84029ea6", "lon": -77.0036195, "is_disabled": 0, "type": "electric_scooter"}, {"bike_id": "35116367afbb6f6a4a60c17a461f9f19", "lat": 38.9472305, "is_reserved": 0, "fusion_lat": 0.0, "rental_uris": {"android": "https://dc.lft.to/lastmile_qr_scan", "ios": "https://dc.lft.to/lastmile_qr_scan"}, "fusion_lon": 0.0, "name": "35116367afbb6f6a4a60c17a461f9f19", "lon": -77.0654445, "is_disabled": 0, "type": "electric_scooter"}, {"bike_id": "5a6f536bc43ec6ee21ce6737087dbbcb", "lat": 38.907413166666664, "is_reserved": 0, "fusion_lat": 0.0, "rental_uris": {"android": "https://dc.lft.to/lastmile_qr_scan", "ios": "https://dc.lft.to/lastmile_qr_scan"}, "fusion_lon": 0.0, "name": "5a6f536bc43ec6ee21ce6737087dbbcb", "lon": -77.0415875, "is_disabled": 0, "type": "electric_scooter"}, {"bike_id": "06f762526ee26a63d1c749c77ca95ba8", "lat": 38.9157135, "is_reserved": 0, "fusion_lat": 0.0, "rental_uris": {"android": "https://dc.lft.to/lastmile_qr_scan", "ios": "https://dc.lft.to/lastmile_qr_scan"}, "fusion_lon": 0.0, "name": "06f762526ee26a63d1c749c77ca95ba8", "lon": -77.03835133333334, "is_disabled": 0, "type": "electric_scooter"}, {"bike_id": "7e54b5006a782a2b0f43ddc03f4814dd", "lat": 38.9021985, "is_reserved": 0, "fusion_lat": 0.0, "rental_uris": {"android": "https://dc.lft.to/lastmile_qr_scan", "ios": "https://dc.lft.to/lastmile_qr_scan"}, "fusion_lon": 0.0, "name": "7e54b5006a782a2b0f43ddc03f4814dd", "lon": -77.05122266666666, "is_disabled": 0, "type": "electric_scooter"}, {"bike_id": "1427b3e6266ca0d25331cba82914a42c", "lat": 38.9577865, "is_reserved": 0, "fusion_lat": 0.0, "rental_uris": {"android": "https://dc.lft.to/lastmile_qr_scan", "ios": "https://dc.lft.to/lastmile_qr_scan"}, "fusion_lon": 0.0, "name": "1427b3e6266ca0d25331cba82914a42c", "lon": -77.0246665, "is_disabled": 0, "type": "electric_scooter"}, {"bike_id": "80ca1d8d07c7f31e52f3f3c1eeddc97d", "lat": 38.89868383333334, "is_reserved": 0, "fusion_lat": 0.0, "rental_uris": {"android": "https://dc.lft.to/lastmile_qr_scan", "ios": "https://dc.lft.to/lastmile_qr_scan"}, "fusion_lon": 0.0, "name": "80ca1d8d07c7f31e52f3f3c1eeddc97d", "lon": -76.9464305, "is_disabled": 0, "type": "electric_scooter"}, {"bike_id": "1528e0847d48788eefd5151c01a88814", "lat": 38.89472766666667, "is_reserved": 0, "fusion_lat": 0.0, "rental_uris": {"android": "https://dc.lft.to/lastmile_qr_scan", "ios": "https://dc.lft.to/lastmile_qr_scan"}, "fusion_lon": 0.0, "name": "1528e0847d48788eefd5151c01a88814", "lon": -76.99487883333333, "is_disabled": 0, "type": "electric_scooter"}, {"bike_id": "075a1cc51f83981edf16187d9631de8f", "lat": 39.0148215, "is_reserved": 0, "fusion_lat": 0.0, "rental_uris": {"android": "https://dc.lft.to/lastmile_qr_scan", "ios": "https://dc.lft.to/lastmile_qr_scan"}, "fusion_lon": 0.0, "name": "075a1cc51f83981edf16187d9631de8f", "lon": -77.05494416666667, "is_disabled": 0, "type": "electric_bike"}, {"bike_id": "62dbc9876f5de5ec7d589f8c932500ca", "lat": 38.896095333333335, "is_reserved": 0, "fusion_lat": 0.0, "rental_uris": {"android": "https://dc.lft.to/lastmile_qr_scan", "ios": "https://dc.lft.to/lastmile_qr_scan"}, "fusion_lon": 0.0, "name": "62dbc9876f5de5ec7d589f8c932500ca", "lon": -77.022125, "is_disabled": 0, "type": "electric_scooter"}, {"bike_id": "c0dc30dcd590d0891ad37c507083d65d", "lat": 38.8922785, "is_reserved": 0, "fusion_lat": 0.0, "rental_uris": {"android": "https://dc.lft.to/lastmile_qr_scan", "ios": "https://dc.lft.to/lastmile_qr_scan"}, "fusion_lon": 0.0, "name": "c0dc30dcd590d0891ad37c507083d65d", "lon": -77.01376216666667, "is_disabled": 0, "type": "electric_scooter"}, {"bike_id": "ab30ce92643dba87d5d3889e70355633", "lat": 38.88745266666667, "is_reserved": 0, "fusion_lat": 0.0, "rental_uris": {"android": "https://dc.lft.to/lastmile_qr_scan", "ios": "https://dc.lft.to/lastmile_qr_scan"}, "fusion_lon": 0.0, "name": "ab30ce92643dba87d5d3889e70355633", "lon": -77.02563966666666, "is_disabled": 0, "type": "electric_scooter"}, {"bike_id": "03f8cb257016404e248fc75e4c5e27df", "lat": 38.91479566666667, "is_reserved": 0, "fusion_lat": 0.0, "rental_uris": {"android": "https://dc.lft.to/lastmile_qr_scan", "ios": "https://dc.lft.to/lastmile_qr_scan"}, "fusion_lon": 0.0, "name": "03f8cb257016404e248fc75e4c5e27df", "lon": -77.045555, "is_disabled": 0, "type": "electric_scooter"}, {"bike_id": "dab5ae868217b1d6d1977ecac8203431", "lat": 38.90867633333333, "is_reserved": 0, "fusion_lat": 0.0, "rental_uris": {"android": "https://dc.lft.to/lastmile_qr_scan", "ios": "https://dc.lft.to/lastmile_qr_scan"}, "fusion_lon": 0.0, "name": "dab5ae868217b1d6d1977ecac8203431", "lon": -77.07644416666666, "is_disabled": 0, "type": "electric_bike"}, {"bike_id": "a10d88c99c9a0d2c15b0a5ebebaded2a", "lat": 38.928991333333336, "is_reserved": 0, "fusion_lat": 0.0, "rental_uris": {"android": "https://dc.lft.to/lastmile_qr_scan", "ios": "https://dc.lft.to/lastmile_qr_scan"}, "fusion_lon": 0.0, "name": "a10d88c99c9a0d2c15b0a5ebebaded2a", "lon": -77.01651983333333, "is_disabled": 0, "type": "electric_scooter"}, {"bike_id": "56a4d3b3c6e25d9f9625a9cbe5296f1d", "lat": 38.911184666666664, "is_reserved": 0, "fusion_lat": 0.0, "rental_uris": {"android": "https://dc.lft.to/lastmile_qr_scan", "ios": "https://dc.lft.to/lastmile_qr_scan"}, "fusion_lon": 0.0, "name": "56a4d3b3c6e25d9f9625a9cbe5296f1d", "lon": -77.04464866666666, "is_disabled": 0, "type": "electric_scooter"}, {"bike_id": "33272aa8f26bf1b2ec7b86aa0a7d266a", "lat": 38.899284, "is_reserved": 0, "fusion_lat": 0.0, "rental_uris": {"android": "https://dc.lft.to/lastmile_qr_scan", "ios": "https://dc.lft.to/lastmile_qr_scan"}, "fusion_lon": 0.0, "name": "33272aa8f26bf1b2ec7b86aa0a7d266a", "lon": -77.0035335, "is_disabled": 0, "type": "electric_scooter"}, {"bike_id": "97867aad699390a9409e9ab8e8c0e657", "lat": 38.897361, "is_reserved": 0, "fusion_lat": 0.0, "rental_uris": {"android": "https://dc.lft.to/lastmile_qr_scan", "ios": "https://dc.lft.to/lastmile_qr_scan"}, "fusion_lon": 0.0, "name": "97867aad699390a9409e9ab8e8c0e657", "lon": -77.0274735, "is_disabled": 0, "type": "electric_scooter"}, {"bike_id": "33f884527e6e291b93ed49c6cd37665f", "lat": 38.937027, "is_reserved": 0, "fusion_lat": 0.0, "rental_uris": {"android": "https://dc.lft.to/lastmile_qr_scan", "ios": "https://dc.lft.to/lastmile_qr_scan"}, "fusion_lon": 0.0, "name": "33f884527e6e291b93ed49c6cd37665f", "lon": -77.0211805, "is_disabled": 0, "type": "electric_bike"}, {"bike_id": "33efe913b5d519c92d541c62b360f91f", "lat": 38.90171316666667, "is_reserved": 0, "fusion_lat": 0.0, "rental_uris": {"android": "https://dc.lft.to/lastmile_qr_scan", "ios": "https://dc.lft.to/lastmile_qr_scan"}, "fusion_lon": 0.0, "name": "33efe913b5d519c92d541c62b360f91f", "lon": -77.04638833333334, "is_disabled": 0, "type": "electric_scooter"}, {"bike_id": "97579897ea9dce0c4e1e2234449f17c3", "lat": 38.89219333333333, "is_reserved": 0, "fusion_lat": 0.0, "rental_uris": {"android": "https://dc.lft.to/lastmile_qr_scan", "ios": "https://dc.lft.to/lastmile_qr_scan"}, "fusion_lon": 0.0, "name": "97579897ea9dce0c4e1e2234449f17c3", "lon": -77.043678, "is_disabled": 0, "type": "electric_scooter"}, {"bike_id": "a119593c9790dbb9b8c0123caeeee9d0", "lat": 38.94019466666666, "is_reserved": 0, "fusion_lat": 0.0, "rental_uris": {"android": "https://dc.lft.to/lastmile_qr_scan", "ios": "https://dc.lft.to/lastmile_qr_scan"}, "fusion_lon": 0.0, "name": "a119593c9790dbb9b8c0123caeeee9d0", "lon": -76.97612466666666, "is_disabled": 0, "type": "electric_scooter"}, {"bike_id": "d3c8cd8880c661fb7e85b4d8ebfbaebb", "lat": 38.97881183333333, "is_reserved": 0, "fusion_lat": 0.0, "rental_uris": {"android": "https://dc.lft.to/lastmile_qr_scan", "ios": "https://dc.lft.to/lastmile_qr_scan"}, "fusion_lon": 0.0, "name": "d3c8cd8880c661fb7e85b4d8ebfbaebb", "lon": -77.0602925, "is_disabled": 0, "type": "electric_bike"}, {"bike_id": "98cc821375d5824be14dcf463f45a6ec", "lat": 38.894288833333334, "is_reserved": 0, "fusion_lat": 0.0, "rental_uris": {"android": "https://dc.lft.to/lastmile_qr_scan", "ios": "https://dc.lft.to/lastmile_qr_scan"}, "fusion_lon": 0.0, "name": "98cc821375d5824be14dcf463f45a6ec", "lon": -77.01046783333334, "is_disabled": 0, "type": "electric_scooter"}, {"bike_id": "f06390c1798d06bb21623dfe97e26e8d", "lat": 38.9348, "is_reserved": 0, "fusion_lat": 0.0, "rental_uris": {"android": "https://dc.lft.to/lastmile_qr_scan", "ios": "https://dc.lft.to/lastmile_qr_scan"}, "fusion_lon": 0.0, "name": "f06390c1798d06bb21623dfe97e26e8d", "lon": -77.07271683333333, "is_disabled": 0, "type": "electric_scooter"}, {"bike_id": "9c9b0be4f5f6c16dd2ef36878b544388", "lat": 38.877010166666665, "is_reserved": 0, "fusion_lat": 0.0, "rental_uris": {"android": "https://dc.lft.to/lastmile_qr_scan", "ios": "https://dc.lft.to/lastmile_qr_scan"}, "fusion_lon": 0.0, "name": "9c9b0be4f5f6c16dd2ef36878b544388", "lon": -77.0051295, "is_disabled": 0, "type": "electric_scooter"}, {"bike_id": "8cbcdb343d9251e4a16e60c34acdbbe3", "lat": 38.93210233333333, "is_reserved": 0, "fusion_lat": 0.0, "rental_uris": {"android": "https://dc.lft.to/lastmile_qr_scan", "ios": "https://dc.lft.to/lastmile_qr_scan"}, "fusion_lon": 0.0, "name": "8cbcdb343d9251e4a16e60c34acdbbe3", "lon": -77.035183, "is_disabled": 0, "type": "electric_scooter"}, {"bike_id": "e04f3da47f654754c50829b2b56d2b36", "lat": 38.8947935, "is_reserved": 0, "fusion_lat": 0.0, "rental_uris": {"android": "https://dc.lft.to/lastmile_qr_scan", "ios": "https://dc.lft.to/lastmile_qr_scan"}, "fusion_lon": 0.0, "name": "e04f3da47f654754c50829b2b56d2b36", "lon": -76.948591, "is_disabled": 0, "type": "electric_scooter"}, {"bike_id": "501626f70defed4141391d51d978859a", "lat": 38.900683, "is_reserved": 0, "fusion_lat": 0.0, "rental_uris": {"android": "https://dc.lft.to/lastmile_qr_scan", "ios": "https://dc.lft.to/lastmile_qr_scan"}, "fusion_lon": 0.0, "name": "501626f70defed4141391d51d978859a", "lon": -77.04534533333333, "is_disabled": 0, "type": "electric_scooter"}, {"bike_id": "3251517aca171bf1df88c7364966e243", "lat": 38.92046083333334, "is_reserved": 0, "fusion_lat": 0.0, "rental_uris": {"android": "https://dc.lft.to/lastmile_qr_scan", "ios": "https://dc.lft.to/lastmile_qr_scan"}, "fusion_lon": 0.0, "name": "3251517aca171bf1df88c7364966e243", "lon": -77.0257675, "is_disabled": 0, "type": "electric_scooter"}, {"bike_id": "513ad1abab08d167cc01b782228450f6", "lat": 38.906070166666666, "is_reserved": 0, "fusion_lat": 0.0, "rental_uris": {"android": "https://dc.lft.to/lastmile_qr_scan", "ios": "https://dc.lft.to/lastmile_qr_scan"}, "fusion_lon": 0.0, "name": "513ad1abab08d167cc01b782228450f6", "lon": -77.00358966666667, "is_disabled": 0, "type": "electric_scooter"}, {"bike_id": "a7d940fd1a7e4fdfd2656624390dac05", "lat": 38.923292000000004, "is_reserved": 0, "fusion_lat": 0.0, "rental_uris": {"android": "https://dc.lft.to/lastmile_qr_scan", "ios": "https://dc.lft.to/lastmile_qr_scan"}, "fusion_lon": 0.0, "name": "a7d940fd1a7e4fdfd2656624390dac05", "lon": -77.02968216666666, "is_disabled": 0, "type": "electric_scooter"}, {"bike_id": "0713309dd29b733fe8f820a205be8b8a", "lat": 38.916798166666666, "is_reserved": 0, "fusion_lat": 0.0, "rental_uris": {"android": "https://dc.lft.to/lastmile_qr_scan", "ios": "https://dc.lft.to/lastmile_qr_scan"}, "fusion_lon": 0.0, "name": "0713309dd29b733fe8f820a205be8b8a", "lon": -77.023179, "is_disabled": 0, "type": "electric_scooter"}, {"bike_id": "abd9f9057a794728d3952915bb7c196b", "lat": 38.9099715, "is_reserved": 0, "fusion_lat": 0.0, "rental_uris": {"android": "https://dc.lft.to/lastmile_qr_scan", "ios": "https://dc.lft.to/lastmile_qr_scan"}, "fusion_lon": 0.0, "name": "abd9f9057a794728d3952915bb7c196b", "lon": -77.04006516666666, "is_disabled": 0, "type": "electric_scooter"}, {"bike_id": "5aab3965030cab775ae0a40f307b073c", "lat": 38.90445033333334, "is_reserved": 0, "fusion_lat": 0.0, "rental_uris": {"android": "https://dc.lft.to/lastmile_qr_scan", "ios": "https://dc.lft.to/lastmile_qr_scan"}, "fusion_lon": 0.0, "name": "5aab3965030cab775ae0a40f307b073c", "lon": -76.98005316666666, "is_disabled": 0, "type": "electric_scooter"}, {"bike_id": "1a34c81e7ebffca004cf77cec14cf76c", "lat": 38.92507166666667, "is_reserved": 0, "fusion_lat": 0.0, "rental_uris": {"android": "https://dc.lft.to/lastmile_qr_scan", "ios": "https://dc.lft.to/lastmile_qr_scan"}, "fusion_lon": 0.0, "name": "1a34c81e7ebffca004cf77cec14cf76c", "lon": -77.03786416666667, "is_disabled": 0, "type": "electric_scooter"}, {"bike_id": "c9179b985834701102c36074de2303c0", "lat": 38.9110185, "is_reserved": 0, "fusion_lat": 0.0, "rental_uris": {"android": "https://dc.lft.to/lastmile_qr_scan", "ios": "https://dc.lft.to/lastmile_qr_scan"}, "fusion_lon": 0.0, "name": "c9179b985834701102c36074de2303c0", "lon": -77.0222805, "is_disabled": 0, "type": "electric_scooter"}, {"bike_id": "61615fe3fe84f5782be5a64307d58f51", "lat": 38.92888333333333, "is_reserved": 0, "fusion_lat": 0.0, "rental_uris": {"android": "https://dc.lft.to/lastmile_qr_scan", "ios": "https://dc.lft.to/lastmile_qr_scan"}, "fusion_lon": 0.0, "name": "61615fe3fe84f5782be5a64307d58f51", "lon": -77.0329255, "is_disabled": 0, "type": "electric_scooter"}, {"bike_id": "111367ed0218260f8cbcc0ebcda19e4f", "lat": 38.91797, "is_reserved": 0, "fusion_lat": 0.0, "rental_uris": {"android": "https://dc.lft.to/lastmile_qr_scan", "ios": "https://dc.lft.to/lastmile_qr_scan"}, "fusion_lon": 0.0, "name": "111367ed0218260f8cbcc0ebcda19e4f", "lon": -77.03443633333333, "is_disabled": 0, "type": "electric_scooter"}, {"bike_id": "b8b8e45d0f70deec0ce01dd1cd365a25", "lat": 38.89914016666667, "is_reserved": 0, "fusion_lat": 0.0, "rental_uris": {"android": "https://dc.lft.to/lastmile_qr_scan", "ios": "https://dc.lft.to/lastmile_qr_scan"}, "fusion_lon": 0.0, "name": "b8b8e45d0f70deec0ce01dd1cd365a25", "lon": -76.93371333333333, "is_disabled": 0, "type": "electric_scooter"}, {"bike_id": "f75a8cd7619d20a1046398a89c7c88c5", "lat": 39.0563505, "is_reserved": 0, "fusion_lat": 0.0, "rental_uris": {"android": "https://dc.lft.to/lastmile_qr_scan", "ios": "https://dc.lft.to/lastmile_qr_scan"}, "fusion_lon": 0.0, "name": "f75a8cd7619d20a1046398a89c7c88c5", "lon": -77.12528183333333, "is_disabled": 0, "type": "electric_bike"}, {"bike_id": "16a8922e352a9508165048e1a6611922", "lat": 38.917806, "is_reserved": 0, "fusion_lat": 0.0, "rental_uris": {"android": "https://dc.lft.to/lastmile_qr_scan", "ios": "https://dc.lft.to/lastmile_qr_scan"}, "fusion_lon": 0.0, "name": "16a8922e352a9508165048e1a6611922", "lon": -77.03180683333333, "is_disabled": 0, "type": "electric_scooter"}, {"bike_id": "4dc4727eceaeddaafff604d9db1e3a3a", "lat": 38.908243166666665, "is_reserved": 0, "fusion_lat": 0.0, "rental_uris": {"android": "https://dc.lft.to/lastmile_qr_scan", "ios": "https://dc.lft.to/lastmile_qr_scan"}, "fusion_lon": 0.0, "name": "4dc4727eceaeddaafff604d9db1e3a3a", "lon": -77.04335416666666, "is_disabled": 0, "type": "electric_scooter"}, {"bike_id": "e4e8d0eb7e4d5d050d9468b6fa4a69ff", "lat": 38.888202166666666, "is_reserved": 0, "fusion_lat": 0.0, "rental_uris": {"android": "https://dc.lft.to/lastmile_qr_scan", "ios": "https://dc.lft.to/lastmile_qr_scan"}, "fusion_lon": 0.0, "name": "e4e8d0eb7e4d5d050d9468b6fa4a69ff", "lon": -76.9915835, "is_disabled": 0, "type": "electric_scooter"}, {"bike_id": "0f9f9d5da9dfe620b821aac57a992519", "lat": 38.94210066666667, "is_reserved": 0, "fusion_lat": 0.0, "rental_uris": {"android": "https://dc.lft.to/lastmile_qr_scan", "ios": "https://dc.lft.to/lastmile_qr_scan"}, "fusion_lon": 0.0, "name": "0f9f9d5da9dfe620b821aac57a992519", "lon": -77.02590116666667, "is_disabled": 0, "type": "electric_scooter"}, {"bike_id": "1ba521b7bff4d71eba84f48065e75f95", "lat": 38.9155385, "is_reserved": 0, "fusion_lat": 0.0, "rental_uris": {"android": "https://dc.lft.to/lastmile_qr_scan", "ios": "https://dc.lft.to/lastmile_qr_scan"}, "fusion_lon": 0.0, "name": "1ba521b7bff4d71eba84f48065e75f95", "lon": -77.02211633333333, "is_disabled": 0, "type": "electric_scooter"}, {"bike_id": "4a0bb3f3383d0f41bc65b6c28f5eaf59", "lat": 38.932754, "is_reserved": 0, "fusion_lat": 0.0, "rental_uris": {"android": "https://dc.lft.to/lastmile_qr_scan", "ios": "https://dc.lft.to/lastmile_qr_scan"}, "fusion_lon": 0.0, "name": "4a0bb3f3383d0f41bc65b6c28f5eaf59", "lon": -77.03494233333333, "is_disabled": 0, "type": "electric_scooter"}, {"bike_id": "ed9a5fefcd1971004a1a2b8dcef07b21", "lat": 38.919778666666666, "is_reserved": 0, "fusion_lat": 0.0, "rental_uris": {"android": "https://dc.lft.to/lastmile_qr_scan", "ios": "https://dc.lft.to/lastmile_qr_scan"}, "fusion_lon": 0.0, "name": "ed9a5fefcd1971004a1a2b8dcef07b21", "lon": -77.02180333333334, "is_disabled": 0, "type": "electric_scooter"}, {"bike_id": "e0c6604d0adc1a6b76237fc1ab4dd799", "lat": 38.9381945, "is_reserved": 0, "fusion_lat": 0.0, "rental_uris": {"android": "https://dc.lft.to/lastmile_qr_scan", "ios": "https://dc.lft.to/lastmile_qr_scan"}, "fusion_lon": 0.0, "name": "e0c6604d0adc1a6b76237fc1ab4dd799", "lon": -77.07163716666666, "is_disabled": 0, "type": "electric_scooter"}, {"bike_id": "c8707757e9ecdf3fbd9bcd2aff14bb1a", "lat": 38.911063, "is_reserved": 0, "fusion_lat": 0.0, "rental_uris": {"android": "https://dc.lft.to/lastmile_qr_scan", "ios": "https://dc.lft.to/lastmile_qr_scan"}, "fusion_lon": 0.0, "name": "c8707757e9ecdf3fbd9bcd2aff14bb1a", "lon": -77.03864633333333, "is_disabled": 0, "type": "electric_scooter"}, {"bike_id": "43b59f0e8d5da53a395afee9abcc821d", "lat": 38.903905333333334, "is_reserved": 0, "fusion_lat": 0.0, "rental_uris": {"android": "https://dc.lft.to/lastmile_qr_scan", "ios": "https://dc.lft.to/lastmile_qr_scan"}, "fusion_lon": 0.0, "name": "43b59f0e8d5da53a395afee9abcc821d", "lon": -77.065106, "is_disabled": 0, "type": "electric_scooter"}, {"bike_id": "a050190db2a2b64ee83d3a8888f9fc49", "lat": 38.908632833333336, "is_reserved": 0, "fusion_lat": 0.0, "rental_uris": {"android": "https://dc.lft.to/lastmile_qr_scan", "ios": "https://dc.lft.to/lastmile_qr_scan"}, "fusion_lon": 0.0, "name": "a050190db2a2b64ee83d3a8888f9fc49", "lon": -77.02705483333334, "is_disabled": 0, "type": "electric_scooter"}, {"bike_id": "79905deca6a65eda3861b73e75a35018", "lat": 38.90759583333333, "is_reserved": 0, "fusion_lat": 0.0, "rental_uris": {"android": "https://dc.lft.to/lastmile_qr_scan", "ios": "https://dc.lft.to/lastmile_qr_scan"}, "fusion_lon": 0.0, "name": "79905deca6a65eda3861b73e75a35018", "lon": -77.008825, "is_disabled": 0, "type": "electric_scooter"}, {"bike_id": "748b3f03bd9bf4a7c7a90c234f09d276", "lat": 38.9056575, "is_reserved": 0, "fusion_lat": 0.0, "rental_uris": {"android": "https://dc.lft.to/lastmile_qr_scan", "ios": "https://dc.lft.to/lastmile_qr_scan"}, "fusion_lon": 0.0, "name": "748b3f03bd9bf4a7c7a90c234f09d276", "lon": -77.045746, "is_disabled": 0, "type": "electric_scooter"}, {"bike_id": "a0e551385ef37143b055b5e1f121b077", "lat": 38.92345533333334, "is_reserved": 0, "fusion_lat": 0.0, "rental_uris": {"android": "https://dc.lft.to/lastmile_qr_scan", "ios": "https://dc.lft.to/lastmile_qr_scan"}, "fusion_lon": 0.0, "name": "a0e551385ef37143b055b5e1f121b077", "lon": -77.051228, "is_disabled": 0, "type": "electric_scooter"}, {"bike_id": "97936711b54d60980f24fcd714a71752", "lat": 38.908661333333335, "is_reserved": 0, "fusion_lat": 0.0, "rental_uris": {"android": "https://dc.lft.to/lastmile_qr_scan", "ios": "https://dc.lft.to/lastmile_qr_scan"}, "fusion_lon": 0.0, "name": "97936711b54d60980f24fcd714a71752", "lon": -77.02681016666666, "is_disabled": 0, "type": "electric_scooter"}, {"bike_id": "d5bbcfbce17cc440615ae60487681bf0", "lat": 38.90236516666667, "is_reserved": 0, "fusion_lat": 0.0, "rental_uris": {"android": "https://dc.lft.to/lastmile_qr_scan", "ios": "https://dc.lft.to/lastmile_qr_scan"}, "fusion_lon": 0.0, "name": "d5bbcfbce17cc440615ae60487681bf0", "lon": -77.05909566666666, "is_disabled": 0, "type": "electric_scooter"}, {"bike_id": "59a38a94d27e70999fecc476165c662d", "lat": 38.9041315, "is_reserved": 0, "fusion_lat": 0.0, "rental_uris": {"android": "https://dc.lft.to/lastmile_qr_scan", "ios": "https://dc.lft.to/lastmile_qr_scan"}, "fusion_lon": 0.0, "name": "59a38a94d27e70999fecc476165c662d", "lon": -76.97328233333333, "is_disabled": 0, "type": "electric_scooter"}, {"bike_id": "7afc7de846f84bc99339a7b680e7d6cb", "lat": 38.92327483333333, "is_reserved": 0, "fusion_lat": 0.0, "rental_uris": {"android": "https://dc.lft.to/lastmile_qr_scan", "ios": "https://dc.lft.to/lastmile_qr_scan"}, "fusion_lon": 0.0, "name": "7afc7de846f84bc99339a7b680e7d6cb", "lon": -77.01960116666666, "is_disabled": 0, "type": "electric_scooter"}, {"bike_id": "2eb1ab0daff95ec689bf720e7eede0e6", "lat": 38.898341, "is_reserved": 0, "fusion_lat": 0.0, "rental_uris": {"android": "https://dc.lft.to/lastmile_qr_scan", "ios": "https://dc.lft.to/lastmile_qr_scan"}, "fusion_lon": 0.0, "name": "2eb1ab0daff95ec689bf720e7eede0e6", "lon": -76.91954333333334, "is_disabled": 0, "type": "electric_scooter"}, {"bike_id": "f29462680f2e239f40cccaab1bd5cb76", "lat": 38.905356, "is_reserved": 0, "fusion_lat": 0.0, "rental_uris": {"android": "https://dc.lft.to/lastmile_qr_scan", "ios": "https://dc.lft.to/lastmile_qr_scan"}, "fusion_lon": 0.0, "name": "f29462680f2e239f40cccaab1bd5cb76", "lon": -77.04155066666667, "is_disabled": 0, "type": "electric_scooter"}, {"bike_id": "caefde226a26db2eb016297e5a70da8b", "lat": 38.91554033333333, "is_reserved": 0, "fusion_lat": 0.0, "rental_uris": {"android": "https://dc.lft.to/lastmile_qr_scan", "ios": "https://dc.lft.to/lastmile_qr_scan"}, "fusion_lon": 0.0, "name": "caefde226a26db2eb016297e5a70da8b", "lon": -77.04448933333333, "is_disabled": 0, "type": "electric_scooter"}, {"bike_id": "6e9f930f99de85a4a67dc139662bee3b", "lat": 38.8650835, "is_reserved": 0, "fusion_lat": 0.0, "rental_uris": {"android": "https://dc.lft.to/lastmile_qr_scan", "ios": "https://dc.lft.to/lastmile_qr_scan"}, "fusion_lon": 0.0, "name": "6e9f930f99de85a4a67dc139662bee3b", "lon": -76.99013283333333, "is_disabled": 0, "type": "electric_scooter"}, {"bike_id": "b592ca4836ebb2a8e26b573c09444b2c", "lat": 38.92969983333333, "is_reserved": 0, "fusion_lat": 0.0, "rental_uris": {"android": "https://dc.lft.to/lastmile_qr_scan", "ios": "https://dc.lft.to/lastmile_qr_scan"}, "fusion_lon": 0.0, "name": "b592ca4836ebb2a8e26b573c09444b2c", "lon": -77.02790266666666, "is_disabled": 0, "type": "electric_scooter"}, {"bike_id": "6d0fec1e7d902c6f97009d2b81319630", "lat": 38.91664266666667, "is_reserved": 0, "fusion_lat": 0.0, "rental_uris": {"android": "https://dc.lft.to/lastmile_qr_scan", "ios": "https://dc.lft.to/lastmile_qr_scan"}, "fusion_lon": 0.0, "name": "6d0fec1e7d902c6f97009d2b81319630", "lon": -77.0231075, "is_disabled": 0, "type": "electric_scooter"}, {"bike_id": "3fd85604a728f3569ce83ac5e65ac8ee", "lat": 38.917049166666665, "is_reserved": 0, "fusion_lat": 0.0, "rental_uris": {"android": "https://dc.lft.to/lastmile_qr_scan", "ios": "https://dc.lft.to/lastmile_qr_scan"}, "fusion_lon": 0.0, "name": "3fd85604a728f3569ce83ac5e65ac8ee", "lon": -77.09578383333333, "is_disabled": 0, "type": "electric_scooter"}, {"bike_id": "81b1685ba99d2d3813fb400b527c4104", "lat": 38.907953666666664, "is_reserved": 0, "fusion_lat": 0.0, "rental_uris": {"android": "https://dc.lft.to/lastmile_qr_scan", "ios": "https://dc.lft.to/lastmile_qr_scan"}, "fusion_lon": 0.0, "name": "81b1685ba99d2d3813fb400b527c4104", "lon": -77.07167183333334, "is_disabled": 0, "type": "electric_bike"}, {"bike_id": "242c174dadaaf9270707e217376560f0", "lat": 38.90411983333333, "is_reserved": 0, "fusion_lat": 0.0, "rental_uris": {"android": "https://dc.lft.to/lastmile_qr_scan", "ios": "https://dc.lft.to/lastmile_qr_scan"}, "fusion_lon": 0.0, "name": "242c174dadaaf9270707e217376560f0", "lon": -77.040539, "is_disabled": 0, "type": "electric_scooter"}, {"bike_id": "03c182ef2676b24b50f134de050ac6f4", "lat": 38.927711333333335, "is_reserved": 0, "fusion_lat": 0.0, "rental_uris": {"android": "https://dc.lft.to/lastmile_qr_scan", "ios": "https://dc.lft.to/lastmile_qr_scan"}, "fusion_lon": 0.0, "name": "03c182ef2676b24b50f134de050ac6f4", "lon": -76.98759066666666, "is_disabled": 0, "type": "electric_scooter"}, {"bike_id": "3eeb524c72131e5120ba835a5b909113", "lat": 38.915542333333335, "is_reserved": 0, "fusion_lat": 0.0, "rental_uris": {"android": "https://dc.lft.to/lastmile_qr_scan", "ios": "https://dc.lft.to/lastmile_qr_scan"}, "fusion_lon": 0.0, "name": "3eeb524c72131e5120ba835a5b909113", "lon": -77.00550166666666, "is_disabled": 0, "type": "electric_scooter"}, {"bike_id": "d7e1c2db9a5584a983de043e061fc56b", "lat": 38.9003585, "is_reserved": 0, "fusion_lat": 0.0, "rental_uris": {"android": "https://dc.lft.to/lastmile_qr_scan", "ios": "https://dc.lft.to/lastmile_qr_scan"}, "fusion_lon": 0.0, "name": "d7e1c2db9a5584a983de043e061fc56b", "lon": -76.97223583333333, "is_disabled": 0, "type": "electric_bike"}, {"bike_id": "d15648b95748e4f82c2cff1e8ed3545e", "lat": 38.88383016666667, "is_reserved": 0, "fusion_lat": 0.0, "rental_uris": {"android": "https://dc.lft.to/lastmile_qr_scan", "ios": "https://dc.lft.to/lastmile_qr_scan"}, "fusion_lon": 0.0, "name": "d15648b95748e4f82c2cff1e8ed3545e", "lon": -77.01765816666666, "is_disabled": 0, "type": "electric_scooter"}, {"bike_id": "320a6b24fc7701769c8bc296334d016f", "lat": 38.89644916666666, "is_reserved": 0, "fusion_lat": 0.0, "rental_uris": {"android": "https://dc.lft.to/lastmile_qr_scan", "ios": "https://dc.lft.to/lastmile_qr_scan"}, "fusion_lon": 0.0, "name": "320a6b24fc7701769c8bc296334d016f", "lon": -77.009258, "is_disabled": 0, "type": "electric_scooter"}, {"bike_id": "a3943227dc52812ac5a0e4c95040160d", "lat": 38.943485333333335, "is_reserved": 0, "fusion_lat": 0.0, "rental_uris": {"android": "https://dc.lft.to/lastmile_qr_scan", "ios": "https://dc.lft.to/lastmile_qr_scan"}, "fusion_lon": 0.0, "name": "a3943227dc52812ac5a0e4c95040160d", "lon": -77.03768316666667, "is_disabled": 0, "type": "electric_scooter"}, {"bike_id": "01e4b42da3fe9163c431aa33e7a14498", "lat": 38.90768333333333, "is_reserved": 0, "fusion_lat": 0.0, "rental_uris": {"android": "https://dc.lft.to/lastmile_qr_scan", "ios": "https://dc.lft.to/lastmile_qr_scan"}, "fusion_lon": 0.0, "name": "01e4b42da3fe9163c431aa33e7a14498", "lon": -77.07393483333334, "is_disabled": 0, "type": "electric_scooter"}, {"bike_id": "25484ec22663df846dbddbe3a9b85037", "lat": 38.86688483333333, "is_reserved": 0, "fusion_lat": 0.0, "rental_uris": {"android": "https://dc.lft.to/lastmile_qr_scan", "ios": "https://dc.lft.to/lastmile_qr_scan"}, "fusion_lon": 0.0, "name": "25484ec22663df846dbddbe3a9b85037", "lon": -76.985773, "is_disabled": 0, "type": "electric_scooter"}, {"bike_id": "bcf5a81842db86059d77fca7a3bbcdd2", "lat": 38.88724783333333, "is_reserved": 0, "fusion_lat": 0.0, "rental_uris": {"android": "https://dc.lft.to/lastmile_qr_scan", "ios": "https://dc.lft.to/lastmile_qr_scan"}, "fusion_lon": 0.0, "name": "bcf5a81842db86059d77fca7a3bbcdd2", "lon": -77.02205616666667, "is_disabled": 0, "type": "electric_scooter"}, {"bike_id": "6558534b30d5bf9eef538265b9f40fc2", "lat": 38.96317716666667, "is_reserved": 0, "fusion_lat": 0.0, "rental_uris": {"android": "https://dc.lft.to/lastmile_qr_scan", "ios": "https://dc.lft.to/lastmile_qr_scan"}, "fusion_lon": 0.0, "name": "6558534b30d5bf9eef538265b9f40fc2", "lon": -76.97368383333334, "is_disabled": 0, "type": "electric_bike"}, {"bike_id": "7aa0449ec7c4580966c733b788e32202", "lat": 38.95522966666667, "is_reserved": 0, "fusion_lat": 0.0, "rental_uris": {"android": "https://dc.lft.to/lastmile_qr_scan", "ios": "https://dc.lft.to/lastmile_qr_scan"}, "fusion_lon": 0.0, "name": "7aa0449ec7c4580966c733b788e32202", "lon": -77.02310583333333, "is_disabled": 0, "type": "electric_scooter"}, {"bike_id": "24219bed446f3f383daa7844a6f2d47a", "lat": 38.9232845, "is_reserved": 0, "fusion_lat": 0.0, "rental_uris": {"android": "https://dc.lft.to/lastmile_qr_scan", "ios": "https://dc.lft.to/lastmile_qr_scan"}, "fusion_lon": 0.0, "name": "24219bed446f3f383daa7844a6f2d47a", "lon": -77.0368375, "is_disabled": 0, "type": "electric_scooter"}, {"bike_id": "1b61e64ca5ab3c01508c703cc8231bce", "lat": 38.9052675, "is_reserved": 0, "fusion_lat": 0.0, "rental_uris": {"android": "https://dc.lft.to/lastmile_qr_scan", "ios": "https://dc.lft.to/lastmile_qr_scan"}, "fusion_lon": 0.0, "name": "1b61e64ca5ab3c01508c703cc8231bce", "lon": -77.07030766666666, "is_disabled": 0, "type": "electric_scooter"}, {"bike_id": "0a3175b8d17c87b1b1520a27c1477776", "lat": 38.91121483333333, "is_reserved": 0, "fusion_lat": 0.0, "rental_uris": {"android": "https://dc.lft.to/lastmile_qr_scan", "ios": "https://dc.lft.to/lastmile_qr_scan"}, "fusion_lon": 0.0, "name": "0a3175b8d17c87b1b1520a27c1477776", "lon": -77.0220635, "is_disabled": 0, "type": "electric_scooter"}, {"bike_id": "39095a43ddc9730febbe48614e6b4344", "lat": 38.8988615, "is_reserved": 0, "fusion_lat": 0.0, "rental_uris": {"android": "https://dc.lft.to/lastmile_qr_scan", "ios": "https://dc.lft.to/lastmile_qr_scan"}, "fusion_lon": 0.0, "name": "39095a43ddc9730febbe48614e6b4344", "lon": -76.93226633333333, "is_disabled": 0, "type": "electric_scooter"}, {"bike_id": "e2a3995164bbd214672f783320fbc448", "lat": 38.89221166666667, "is_reserved": 0, "fusion_lat": 0.0, "rental_uris": {"android": "https://dc.lft.to/lastmile_qr_scan", "ios": "https://dc.lft.to/lastmile_qr_scan"}, "fusion_lon": 0.0, "name": "e2a3995164bbd214672f783320fbc448", "lon": -77.003422, "is_disabled": 0, "type": "electric_scooter"}, {"bike_id": "073ffbb7837c674ab05ef29de1f5a31e", "lat": 38.91633133333333, "is_reserved": 0, "fusion_lat": 0.0, "rental_uris": {"android": "https://dc.lft.to/lastmile_qr_scan", "ios": "https://dc.lft.to/lastmile_qr_scan"}, "fusion_lon": 0.0, "name": "073ffbb7837c674ab05ef29de1f5a31e", "lon": -77.03207516666667, "is_disabled": 0, "type": "electric_scooter"}, {"bike_id": "a82f9626e8626232553425cbead9cbfd", "lat": 38.90379316666667, "is_reserved": 0, "fusion_lat": 0.0, "rental_uris": {"android": "https://dc.lft.to/lastmile_qr_scan", "ios": "https://dc.lft.to/lastmile_qr_scan"}, "fusion_lon": 0.0, "name": "a82f9626e8626232553425cbead9cbfd", "lon": -77.03486716666667, "is_disabled": 0, "type": "electric_scooter"}, {"bike_id": "af8c1c55cb7614a6724a84e648616b02", "lat": 38.94488066666667, "is_reserved": 0, "fusion_lat": 0.0, "rental_uris": {"android": "https://dc.lft.to/lastmile_qr_scan", "ios": "https://dc.lft.to/lastmile_qr_scan"}, "fusion_lon": 0.0, "name": "af8c1c55cb7614a6724a84e648616b02", "lon": -77.09436283333334, "is_disabled": 0, "type": "electric_scooter"}, {"bike_id": "fd7b7c734e0ebfc6375c60d153b747a3", "lat": 38.8737465, "is_reserved": 0, "fusion_lat": 0.0, "rental_uris": {"android": "https://dc.lft.to/lastmile_qr_scan", "ios": "https://dc.lft.to/lastmile_qr_scan"}, "fusion_lon": 0.0, "name": "fd7b7c734e0ebfc6375c60d153b747a3", "lon": -77.00045666666666, "is_disabled": 0, "type": "electric_scooter"}, {"bike_id": "12e7e8b149aeb142b9474f26edd62ba1", "lat": 38.914446166666664, "is_reserved": 0, "fusion_lat": 0.0, "rental_uris": {"android": "https://dc.lft.to/lastmile_qr_scan", "ios": "https://dc.lft.to/lastmile_qr_scan"}, "fusion_lon": 0.0, "name": "12e7e8b149aeb142b9474f26edd62ba1", "lon": -77.025968, "is_disabled": 0, "type": "electric_scooter"}, {"bike_id": "8fc8534c57d9c5dda6001af18d2543ad", "lat": 38.90369916666667, "is_reserved": 0, "fusion_lat": 0.0, "rental_uris": {"android": "https://dc.lft.to/lastmile_qr_scan", "ios": "https://dc.lft.to/lastmile_qr_scan"}, "fusion_lon": 0.0, "name": "8fc8534c57d9c5dda6001af18d2543ad", "lon": -77.0319515, "is_disabled": 0, "type": "electric_scooter"}, {"bike_id": "7d1f25370c272e1d5eba60b09460080c", "lat": 38.9103425, "is_reserved": 0, "fusion_lat": 0.0, "rental_uris": {"android": "https://dc.lft.to/lastmile_qr_scan", "ios": "https://dc.lft.to/lastmile_qr_scan"}, "fusion_lon": 0.0, "name": "7d1f25370c272e1d5eba60b09460080c", "lon": -77.03801033333333, "is_disabled": 0, "type": "electric_scooter"}, {"bike_id": "9731c00510d709fa8ff1836ff1e66ca7", "lat": 38.90962966666667, "is_reserved": 0, "fusion_lat": 0.0, "rental_uris": {"android": "https://dc.lft.to/lastmile_qr_scan", "ios": "https://dc.lft.to/lastmile_qr_scan"}, "fusion_lon": 0.0, "name": "9731c00510d709fa8ff1836ff1e66ca7", "lon": -77.02286566666666, "is_disabled": 0, "type": "electric_scooter"}, {"bike_id": "62ebc201b29b8854124759ce76fd9d05", "lat": 38.89762, "is_reserved": 0, "fusion_lat": 0.0, "rental_uris": {"android": "https://dc.lft.to/lastmile_qr_scan", "ios": "https://dc.lft.to/lastmile_qr_scan"}, "fusion_lon": 0.0, "name": "62ebc201b29b8854124759ce76fd9d05", "lon": -76.9470695, "is_disabled": 0, "type": "electric_scooter"}, {"bike_id": "4b15f535fb037212fb0a345b81cca238", "lat": 38.924163, "is_reserved": 0, "fusion_lat": 0.0, "rental_uris": {"android": "https://dc.lft.to/lastmile_qr_scan", "ios": "https://dc.lft.to/lastmile_qr_scan"}, "fusion_lon": 0.0, "name": "4b15f535fb037212fb0a345b81cca238", "lon": -77.039003, "is_disabled": 0, "type": "electric_scooter"}, {"bike_id": "56e7457fdb2e5ba1bb20a658a5638c2e", "lat": 38.88740883333333, "is_reserved": 0, "fusion_lat": 0.0, "rental_uris": {"android": "https://dc.lft.to/lastmile_qr_scan", "ios": "https://dc.lft.to/lastmile_qr_scan"}, "fusion_lon": 0.0, "name": "56e7457fdb2e5ba1bb20a658a5638c2e", "lon": -77.0294005, "is_disabled": 0, "type": "electric_scooter"}, {"bike_id": "f503369d568b04cd4120478481edfec6", "lat": 38.88432133333333, "is_reserved": 0, "fusion_lat": 0.0, "rental_uris": {"android": "https://dc.lft.to/lastmile_qr_scan", "ios": "https://dc.lft.to/lastmile_qr_scan"}, "fusion_lon": 0.0, "name": "f503369d568b04cd4120478481edfec6", "lon": -76.95756983333334, "is_disabled": 0, "type": "electric_scooter"}, {"bike_id": "150fc9a89f6ab2bab849d225bd924cf6", "lat": 38.933909666666665, "is_reserved": 0, "fusion_lat": 0.0, "rental_uris": {"android": "https://dc.lft.to/lastmile_qr_scan", "ios": "https://dc.lft.to/lastmile_qr_scan"}, "fusion_lon": 0.0, "name": "150fc9a89f6ab2bab849d225bd924cf6", "lon": -77.05741216666667, "is_disabled": 0, "type": "electric_scooter"}, {"bike_id": "dcfb6797dc2446595a7f7565d4f5a1dd", "lat": 38.8998215, "is_reserved": 0, "fusion_lat": 0.0, "rental_uris": {"android": "https://dc.lft.to/lastmile_qr_scan", "ios": "https://dc.lft.to/lastmile_qr_scan"}, "fusion_lon": 0.0, "name": "dcfb6797dc2446595a7f7565d4f5a1dd", "lon": -77.01580766666666, "is_disabled": 0, "type": "electric_scooter"}, {"bike_id": "32fa3333d5fa609c48eacb4938810863", "lat": 38.901304333333336, "is_reserved": 0, "fusion_lat": 0.0, "rental_uris": {"android": "https://dc.lft.to/lastmile_qr_scan", "ios": "https://dc.lft.to/lastmile_qr_scan"}, "fusion_lon": 0.0, "name": "32fa3333d5fa609c48eacb4938810863", "lon": -77.01796183333333, "is_disabled": 0, "type": "electric_scooter"}, {"bike_id": "9eca2893cb0791eb2693c02631a3c03a", "lat": 38.911057, "is_reserved": 0, "fusion_lat": 0.0, "rental_uris": {"android": "https://dc.lft.to/lastmile_qr_scan", "ios": "https://dc.lft.to/lastmile_qr_scan"}, "fusion_lon": 0.0, "name": "9eca2893cb0791eb2693c02631a3c03a", "lon": -77.00365066666667, "is_disabled": 0, "type": "electric_scooter"}, {"bike_id": "6c5d0d24f9c26aa91ac0be959ee81fe2", "lat": 38.90498383333333, "is_reserved": 0, "fusion_lat": 0.0, "rental_uris": {"android": "https://dc.lft.to/lastmile_qr_scan", "ios": "https://dc.lft.to/lastmile_qr_scan"}, "fusion_lon": 0.0, "name": "6c5d0d24f9c26aa91ac0be959ee81fe2", "lon": -77.02957416666666, "is_disabled": 0, "type": "electric_scooter"}, {"bike_id": "04c1577b8ed663e795e6ecc9ce3242b3", "lat": 38.911174, "is_reserved": 0, "fusion_lat": 0.0, "rental_uris": {"android": "https://dc.lft.to/lastmile_qr_scan", "ios": "https://dc.lft.to/lastmile_qr_scan"}, "fusion_lon": 0.0, "name": "04c1577b8ed663e795e6ecc9ce3242b3", "lon": -77.022024, "is_disabled": 0, "type": "electric_scooter"}, {"bike_id": "b7638e2c25d03710256c7b8497cf994b", "lat": 38.91566983333333, "is_reserved": 0, "fusion_lat": 0.0, "rental_uris": {"android": "https://dc.lft.to/lastmile_qr_scan", "ios": "https://dc.lft.to/lastmile_qr_scan"}, "fusion_lon": 0.0, "name": "b7638e2c25d03710256c7b8497cf994b", "lon": -77.02006233333333, "is_disabled": 0, "type": "electric_scooter"}, {"bike_id": "a0c37714206e46e21b2f09153c951dfa", "lat": 38.95281333333333, "is_reserved": 0, "fusion_lat": 0.0, "rental_uris": {"android": "https://dc.lft.to/lastmile_qr_scan", "ios": "https://dc.lft.to/lastmile_qr_scan"}, "fusion_lon": 0.0, "name": "a0c37714206e46e21b2f09153c951dfa", "lon": -77.01797216666667, "is_disabled": 0, "type": "electric_scooter"}, {"bike_id": "616c76dafabc0129ef701b3a3d092af7", "lat": 38.90198266666667, "is_reserved": 0, "fusion_lat": 0.0, "rental_uris": {"android": "https://dc.lft.to/lastmile_qr_scan", "ios": "https://dc.lft.to/lastmile_qr_scan"}, "fusion_lon": 0.0, "name": "616c76dafabc0129ef701b3a3d092af7", "lon": -76.98205683333333, "is_disabled": 0, "type": "electric_scooter"}, {"bike_id": "f810927763f45450d2a0521bfedf8017", "lat": 38.905327666666665, "is_reserved": 0, "fusion_lat": 0.0, "rental_uris": {"android": "https://dc.lft.to/lastmile_qr_scan", "ios": "https://dc.lft.to/lastmile_qr_scan"}, "fusion_lon": 0.0, "name": "f810927763f45450d2a0521bfedf8017", "lon": -77.04674733333333, "is_disabled": 0, "type": "electric_scooter"}, {"bike_id": "e702fbe102454c3062aea6d4a30bab6b", "lat": 38.895401666666665, "is_reserved": 0, "fusion_lat": 0.0, "rental_uris": {"android": "https://dc.lft.to/lastmile_qr_scan", "ios": "https://dc.lft.to/lastmile_qr_scan"}, "fusion_lon": 0.0, "name": "e702fbe102454c3062aea6d4a30bab6b", "lon": -77.010898, "is_disabled": 0, "type": "electric_scooter"}, {"bike_id": "104f59f02fc0d3da0fad81126ba45ade", "lat": 38.89219683333334, "is_reserved": 0, "fusion_lat": 0.0, "rental_uris": {"android": "https://dc.lft.to/lastmile_qr_scan", "ios": "https://dc.lft.to/lastmile_qr_scan"}, "fusion_lon": 0.0, "name": "104f59f02fc0d3da0fad81126ba45ade", "lon": -77.04369983333333, "is_disabled": 0, "type": "electric_scooter"}, {"bike_id": "2adcf111fb6039e970f62eed8cc2b3ca", "lat": 38.907612666666665, "is_reserved": 0, "fusion_lat": 0.0, "rental_uris": {"android": "https://dc.lft.to/lastmile_qr_scan", "ios": "https://dc.lft.to/lastmile_qr_scan"}, "fusion_lon": 0.0, "name": "2adcf111fb6039e970f62eed8cc2b3ca", "lon": -77.01695066666667, "is_disabled": 0, "type": "electric_scooter"}, {"bike_id": "e100dcb6a4cbf0f01be88eaeb438dde1", "lat": 38.90183533333333, "is_reserved": 0, "fusion_lat": 0.0, "rental_uris": {"android": "https://dc.lft.to/lastmile_qr_scan", "ios": "https://dc.lft.to/lastmile_qr_scan"}, "fusion_lon": 0.0, "name": "e100dcb6a4cbf0f01be88eaeb438dde1", "lon": -77.02180383333334, "is_disabled": 0, "type": "electric_scooter"}, {"bike_id": "b8d518fd747c018c74af15ad52dfe48c", "lat": 38.90239716666667, "is_reserved": 0, "fusion_lat": 0.0, "rental_uris": {"android": "https://dc.lft.to/lastmile_qr_scan", "ios": "https://dc.lft.to/lastmile_qr_scan"}, "fusion_lon": 0.0, "name": "b8d518fd747c018c74af15ad52dfe48c", "lon": -77.03436433333333, "is_disabled": 0, "type": "electric_scooter"}, {"bike_id": "e97dd45368ae533f327477b18bc5fb15", "lat": 38.887471166666664, "is_reserved": 0, "fusion_lat": 0.0, "rental_uris": {"android": "https://dc.lft.to/lastmile_qr_scan", "ios": "https://dc.lft.to/lastmile_qr_scan"}, "fusion_lon": 0.0, "name": "e97dd45368ae533f327477b18bc5fb15", "lon": -77.01730333333333, "is_disabled": 0, "type": "electric_scooter"}, {"bike_id": "ad14fb8aef5a55a412fb5c1f49278173", "lat": 38.932245, "is_reserved": 0, "fusion_lat": 0.0, "rental_uris": {"android": "https://dc.lft.to/lastmile_qr_scan", "ios": "https://dc.lft.to/lastmile_qr_scan"}, "fusion_lon": 0.0, "name": "ad14fb8aef5a55a412fb5c1f49278173", "lon": -77.03870866666666, "is_disabled": 0, "type": "electric_scooter"}, {"bike_id": "16d155662b55409657340e01c92e1ef7", "lat": 38.932202333333336, "is_reserved": 0, "fusion_lat": 0.0, "rental_uris": {"android": "https://dc.lft.to/lastmile_qr_scan", "ios": "https://dc.lft.to/lastmile_qr_scan"}, "fusion_lon": 0.0, "name": "16d155662b55409657340e01c92e1ef7", "lon": -77.03262266666667, "is_disabled": 0, "type": "electric_scooter"}, {"bike_id": "1abe7f4a66b87326c5fd236bcb7ffbdd", "lat": 38.89246683333333, "is_reserved": 0, "fusion_lat": 0.0, "rental_uris": {"android": "https://dc.lft.to/lastmile_qr_scan", "ios": "https://dc.lft.to/lastmile_qr_scan"}, "fusion_lon": 0.0, "name": "1abe7f4a66b87326c5fd236bcb7ffbdd", "lon": -77.05025733333333, "is_disabled": 0, "type": "electric_scooter"}, {"bike_id": "269f98f94ed768c6dd7288d4a5596373", "lat": 38.91323283333333, "is_reserved": 0, "fusion_lat": 0.0, "rental_uris": {"android": "https://dc.lft.to/lastmile_qr_scan", "ios": "https://dc.lft.to/lastmile_qr_scan"}, "fusion_lon": 0.0, "name": "269f98f94ed768c6dd7288d4a5596373", "lon": -77.03186133333334, "is_disabled": 0, "type": "electric_scooter"}, {"bike_id": "c8e70badd591ca59c03a27274f21b89e", "lat": 38.916190666666665, "is_reserved": 0, "fusion_lat": 0.0, "rental_uris": {"android": "https://dc.lft.to/lastmile_qr_scan", "ios": "https://dc.lft.to/lastmile_qr_scan"}, "fusion_lon": 0.0, "name": "c8e70badd591ca59c03a27274f21b89e", "lon": -77.02307733333333, "is_disabled": 0, "type": "electric_scooter"}, {"bike_id": "4389b03428148db12eda2c96f36eb69d", "lat": 38.8747965, "is_reserved": 0, "fusion_lat": 0.0, "rental_uris": {"android": "https://dc.lft.to/lastmile_qr_scan", "ios": "https://dc.lft.to/lastmile_qr_scan"}, "fusion_lon": 0.0, "name": "4389b03428148db12eda2c96f36eb69d", "lon": -76.96531583333334, "is_disabled": 0, "type": "electric_bike"}, {"bike_id": "a3daf53e5fd6dfccb008e2e026a92db9", "lat": 38.89865533333333, "is_reserved": 0, "fusion_lat": 0.0, "rental_uris": {"android": "https://dc.lft.to/lastmile_qr_scan", "ios": "https://dc.lft.to/lastmile_qr_scan"}, "fusion_lon": 0.0, "name": "a3daf53e5fd6dfccb008e2e026a92db9", "lon": -76.9463765, "is_disabled": 0, "type": "electric_scooter"}, {"bike_id": "eedfa5015ca9df3751efed56d5bc1f31", "lat": 38.8947765, "is_reserved": 0, "fusion_lat": 0.0, "rental_uris": {"android": "https://dc.lft.to/lastmile_qr_scan", "ios": "https://dc.lft.to/lastmile_qr_scan"}, "fusion_lon": 0.0, "name": "eedfa5015ca9df3751efed56d5bc1f31", "lon": -76.948606, "is_disabled": 0, "type": "electric_scooter"}, {"bike_id": "28c2a3a5ae2ec5898a9a60a1993afb5a", "lat": 38.8923015, "is_reserved": 0, "fusion_lat": 0.0, "rental_uris": {"android": "https://dc.lft.to/lastmile_qr_scan", "ios": "https://dc.lft.to/lastmile_qr_scan"}, "fusion_lon": 0.0, "name": "28c2a3a5ae2ec5898a9a60a1993afb5a", "lon": -77.031703, "is_disabled": 0, "type": "electric_scooter"}, {"bike_id": "abdb71165265696a90d7197cc5b19f01", "lat": 38.915587333333335, "is_reserved": 0, "fusion_lat": 0.0, "rental_uris": {"android": "https://dc.lft.to/lastmile_qr_scan", "ios": "https://dc.lft.to/lastmile_qr_scan"}, "fusion_lon": 0.0, "name": "abdb71165265696a90d7197cc5b19f01", "lon": -77.03138766666666, "is_disabled": 0, "type": "electric_scooter"}, {"bike_id": "ffd41c1eac95ba51c0d9248603a4f721", "lat": 38.858948833333336, "is_reserved": 0, "fusion_lat": 0.0, "rental_uris": {"android": "https://dc.lft.to/lastmile_qr_scan", "ios": "https://dc.lft.to/lastmile_qr_scan"}, "fusion_lon": 0.0, "name": "ffd41c1eac95ba51c0d9248603a4f721", "lon": -76.997273, "is_disabled": 0, "type": "electric_scooter"}, {"bike_id": "fc8324802a4e3aadca0d19b54cca5d7b", "lat": 38.990976333333336, "is_reserved": 0, "fusion_lat": 0.0, "rental_uris": {"android": "https://dc.lft.to/lastmile_qr_scan", "ios": "https://dc.lft.to/lastmile_qr_scan"}, "fusion_lon": 0.0, "name": "fc8324802a4e3aadca0d19b54cca5d7b", "lon": -76.99373083333333, "is_disabled": 0, "type": "electric_bike"}, {"bike_id": "b35ec372073f23058b59b7f4be996630", "lat": 38.883135833333334, "is_reserved": 0, "fusion_lat": 0.0, "rental_uris": {"android": "https://dc.lft.to/lastmile_qr_scan", "ios": "https://dc.lft.to/lastmile_qr_scan"}, "fusion_lon": 0.0, "name": "b35ec372073f23058b59b7f4be996630", "lon": -77.00345683333333, "is_disabled": 0, "type": "electric_scooter"}, {"bike_id": "05f9f431b82052a48fb54be8b26277bd", "lat": 38.90234016666667, "is_reserved": 0, "fusion_lat": 0.0, "rental_uris": {"android": "https://dc.lft.to/lastmile_qr_scan", "ios": "https://dc.lft.to/lastmile_qr_scan"}, "fusion_lon": 0.0, "name": "05f9f431b82052a48fb54be8b26277bd", "lon": -77.0190745, "is_disabled": 0, "type": "electric_scooter"}, {"bike_id": "f4d0d6638741a7b7d8c902852465e17e", "lat": 38.89243033333333, "is_reserved": 0, "fusion_lat": 0.0, "rental_uris": {"android": "https://dc.lft.to/lastmile_qr_scan", "ios": "https://dc.lft.to/lastmile_qr_scan"}, "fusion_lon": 0.0, "name": "f4d0d6638741a7b7d8c902852465e17e", "lon": -77.03958866666666, "is_disabled": 0, "type": "electric_scooter"}, {"bike_id": "2b13f5e7023695a04d0686684bdacd6a", "lat": 38.88487416666667, "is_reserved": 0, "fusion_lat": 0.0, "rental_uris": {"android": "https://dc.lft.to/lastmile_qr_scan", "ios": "https://dc.lft.to/lastmile_qr_scan"}, "fusion_lon": 0.0, "name": "2b13f5e7023695a04d0686684bdacd6a", "lon": -77.00727266666667, "is_disabled": 0, "type": "electric_scooter"}, {"bike_id": "ad6ef985dfb95de41c05c986e186c4e6", "lat": 38.937705666666666, "is_reserved": 0, "fusion_lat": 0.0, "rental_uris": {"android": "https://dc.lft.to/lastmile_qr_scan", "ios": "https://dc.lft.to/lastmile_qr_scan"}, "fusion_lon": 0.0, "name": "ad6ef985dfb95de41c05c986e186c4e6", "lon": -77.01971733333333, "is_disabled": 0, "type": "electric_scooter"}, {"bike_id": "f035f483457737af08c154def860b1c2", "lat": 38.878157, "is_reserved": 0, "fusion_lat": 0.0, "rental_uris": {"android": "https://dc.lft.to/lastmile_qr_scan", "ios": "https://dc.lft.to/lastmile_qr_scan"}, "fusion_lon": 0.0, "name": "f035f483457737af08c154def860b1c2", "lon": -76.971741, "is_disabled": 0, "type": "electric_scooter"}, {"bike_id": "889fdc0b1dde777bc55cb19f3d0a6627", "lat": 38.9262475, "is_reserved": 0, "fusion_lat": 0.0, "rental_uris": {"android": "https://dc.lft.to/lastmile_qr_scan", "ios": "https://dc.lft.to/lastmile_qr_scan"}, "fusion_lon": 0.0, "name": "889fdc0b1dde777bc55cb19f3d0a6627", "lon": -77.03787833333334, "is_disabled": 0, "type": "electric_scooter"}, {"bike_id": "416703c99f0c6d5d3e5b98b769d022e1", "lat": 38.90725883333333, "is_reserved": 0, "fusion_lat": 0.0, "rental_uris": {"android": "https://dc.lft.to/lastmile_qr_scan", "ios": "https://dc.lft.to/lastmile_qr_scan"}, "fusion_lon": 0.0, "name": "416703c99f0c6d5d3e5b98b769d022e1", "lon": -77.00226083333334, "is_disabled": 0, "type": "electric_scooter"}, {"bike_id": "98509cb1cf79ca559c3628ee92237124", "lat": 38.89242466666666, "is_reserved": 0, "fusion_lat": 0.0, "rental_uris": {"android": "https://dc.lft.to/lastmile_qr_scan", "ios": "https://dc.lft.to/lastmile_qr_scan"}, "fusion_lon": 0.0, "name": "98509cb1cf79ca559c3628ee92237124", "lon": -77.04502933333333, "is_disabled": 0, "type": "electric_scooter"}, {"bike_id": "60022c11920c38b6b0048d1f4173db36", "lat": 38.906882833333334, "is_reserved": 0, "fusion_lat": 0.0, "rental_uris": {"android": "https://dc.lft.to/lastmile_qr_scan", "ios": "https://dc.lft.to/lastmile_qr_scan"}, "fusion_lon": 0.0, "name": "60022c11920c38b6b0048d1f4173db36", "lon": -77.02383216666666, "is_disabled": 0, "type": "electric_scooter"}, {"bike_id": "16d6da45305831ed2ac591ef7f4a9d7b", "lat": 38.90648016666667, "is_reserved": 0, "fusion_lat": 0.0, "rental_uris": {"android": "https://dc.lft.to/lastmile_qr_scan", "ios": "https://dc.lft.to/lastmile_qr_scan"}, "fusion_lon": 0.0, "name": "16d6da45305831ed2ac591ef7f4a9d7b", "lon": -77.00986083333333, "is_disabled": 0, "type": "electric_scooter"}, {"bike_id": "7d8b2c7d9bffdc91ee95ccc60d706819", "lat": 38.9264365, "is_reserved": 0, "fusion_lat": 0.0, "rental_uris": {"android": "https://dc.lft.to/lastmile_qr_scan", "ios": "https://dc.lft.to/lastmile_qr_scan"}, "fusion_lon": 0.0, "name": "7d8b2c7d9bffdc91ee95ccc60d706819", "lon": -76.98425033333334, "is_disabled": 0, "type": "electric_bike"}, {"bike_id": "666472fab1ccccc683b370dc4020a50b", "lat": 38.916888666666665, "is_reserved": 0, "fusion_lat": 0.0, "rental_uris": {"android": "https://dc.lft.to/lastmile_qr_scan", "ios": "https://dc.lft.to/lastmile_qr_scan"}, "fusion_lon": 0.0, "name": "666472fab1ccccc683b370dc4020a50b", "lon": -77.02950016666666, "is_disabled": 0, "type": "electric_scooter"}, {"bike_id": "61cb04f2fb913e7f48d1afc590b54ec7", "lat": 38.90367766666667, "is_reserved": 0, "fusion_lat": 0.0, "rental_uris": {"android": "https://dc.lft.to/lastmile_qr_scan", "ios": "https://dc.lft.to/lastmile_qr_scan"}, "fusion_lon": 0.0, "name": "61cb04f2fb913e7f48d1afc590b54ec7", "lon": -77.02939616666667, "is_disabled": 0, "type": "electric_scooter"}, {"bike_id": "55b6862956c34575ddd7ab7ccb209f97", "lat": 38.936735, "is_reserved": 0, "fusion_lat": 0.0, "rental_uris": {"android": "https://dc.lft.to/lastmile_qr_scan", "ios": "https://dc.lft.to/lastmile_qr_scan"}, "fusion_lon": 0.0, "name": "55b6862956c34575ddd7ab7ccb209f97", "lon": -76.95209716666666, "is_disabled": 0, "type": "electric_bike"}, {"bike_id": "981fe6091a405d410ec51c81c2105b4c", "lat": 38.89726616666667, "is_reserved": 0, "fusion_lat": 0.0, "rental_uris": {"android": "https://dc.lft.to/lastmile_qr_scan", "ios": "https://dc.lft.to/lastmile_qr_scan"}, "fusion_lon": 0.0, "name": "981fe6091a405d410ec51c81c2105b4c", "lon": -77.0216765, "is_disabled": 0, "type": "electric_scooter"}, {"bike_id": "9953b4e781dff54d6218ca3b6815ab8d", "lat": 38.94196066666667, "is_reserved": 0, "fusion_lat": 0.0, "rental_uris": {"android": "https://dc.lft.to/lastmile_qr_scan", "ios": "https://dc.lft.to/lastmile_qr_scan"}, "fusion_lon": 0.0, "name": "9953b4e781dff54d6218ca3b6815ab8d", "lon": -77.02433833333333, "is_disabled": 0, "type": "electric_scooter"}, {"bike_id": "bbe0610e5a5a4765ed7ffd7322baddd2", "lat": 38.9021235, "is_reserved": 0, "fusion_lat": 0.0, "rental_uris": {"android": "https://dc.lft.to/lastmile_qr_scan", "ios": "https://dc.lft.to/lastmile_qr_scan"}, "fusion_lon": 0.0, "name": "bbe0610e5a5a4765ed7ffd7322baddd2", "lon": -76.974101, "is_disabled": 0, "type": "electric_bike"}, {"bike_id": "25cde15f3794f72db96c287b8e4fb17b", "lat": 38.924484166666666, "is_reserved": 0, "fusion_lat": 0.0, "rental_uris": {"android": "https://dc.lft.to/lastmile_qr_scan", "ios": "https://dc.lft.to/lastmile_qr_scan"}, "fusion_lon": 0.0, "name": "25cde15f3794f72db96c287b8e4fb17b", "lon": -77.2255735, "is_disabled": 0, "type": "electric_bike"}, {"bike_id": "ea0b0429692536f36dcebd9578c7466a", "lat": 38.89863483333333, "is_reserved": 0, "fusion_lat": 0.0, "rental_uris": {"android": "https://dc.lft.to/lastmile_qr_scan", "ios": "https://dc.lft.to/lastmile_qr_scan"}, "fusion_lon": 0.0, "name": "ea0b0429692536f36dcebd9578c7466a", "lon": -76.9463865, "is_disabled": 0, "type": "electric_scooter"}, {"bike_id": "d0b104a8c55c6fb09a99d87ecc8de116", "lat": 38.90523916666667, "is_reserved": 0, "fusion_lat": 0.0, "rental_uris": {"android": "https://dc.lft.to/lastmile_qr_scan", "ios": "https://dc.lft.to/lastmile_qr_scan"}, "fusion_lon": 0.0, "name": "d0b104a8c55c6fb09a99d87ecc8de116", "lon": -77.0417215, "is_disabled": 0, "type": "electric_scooter"}, {"bike_id": "1c3f37a994606f2af0f304856209815c", "lat": 38.93120833333333, "is_reserved": 0, "fusion_lat": 0.0, "rental_uris": {"android": "https://dc.lft.to/lastmile_qr_scan", "ios": "https://dc.lft.to/lastmile_qr_scan"}, "fusion_lon": 0.0, "name": "1c3f37a994606f2af0f304856209815c", "lon": -77.03023933333333, "is_disabled": 0, "type": "electric_scooter"}, {"bike_id": "529077922b651456af614721f162c70c", "lat": 38.869694333333335, "is_reserved": 0, "fusion_lat": 0.0, "rental_uris": {"android": "https://dc.lft.to/lastmile_qr_scan", "ios": "https://dc.lft.to/lastmile_qr_scan"}, "fusion_lon": 0.0, "name": "529077922b651456af614721f162c70c", "lon": -76.98172283333334, "is_disabled": 0, "type": "electric_scooter"}, {"bike_id": "a41f49cd59a89ace87c98324fb59fbae", "lat": 38.9101235, "is_reserved": 0, "fusion_lat": 0.0, "rental_uris": {"android": "https://dc.lft.to/lastmile_qr_scan", "ios": "https://dc.lft.to/lastmile_qr_scan"}, "fusion_lon": 0.0, "name": "a41f49cd59a89ace87c98324fb59fbae", "lon": -77.22797683333333, "is_disabled": 0, "type": "electric_bike"}, {"bike_id": "a5c66e6f21eccf482a89f37c490d0cd2", "lat": 38.91420333333333, "is_reserved": 0, "fusion_lat": 0.0, "rental_uris": {"android": "https://dc.lft.to/lastmile_qr_scan", "ios": "https://dc.lft.to/lastmile_qr_scan"}, "fusion_lon": 0.0, "name": "a5c66e6f21eccf482a89f37c490d0cd2", "lon": -77.0480905, "is_disabled": 0, "type": "electric_scooter"}, {"bike_id": "9c642727e33b9c887cd4c6bede2991c6", "lat": 38.906163666666664, "is_reserved": 0, "fusion_lat": 0.0, "rental_uris": {"android": "https://dc.lft.to/lastmile_qr_scan", "ios": "https://dc.lft.to/lastmile_qr_scan"}, "fusion_lon": 0.0, "name": "9c642727e33b9c887cd4c6bede2991c6", "lon": -77.01490483333333, "is_disabled": 0, "type": "electric_scooter"}, {"bike_id": "0cb6bb977a6faa56a141d7612c405a5f", "lat": 38.9053495, "is_reserved": 0, "fusion_lat": 0.0, "rental_uris": {"android": "https://dc.lft.to/lastmile_qr_scan", "ios": "https://dc.lft.to/lastmile_qr_scan"}, "fusion_lon": 0.0, "name": "0cb6bb977a6faa56a141d7612c405a5f", "lon": -77.05315883333333, "is_disabled": 0, "type": "electric_scooter"}, {"bike_id": "bc181b8de16c4721890628c66c910f16", "lat": 38.9056445, "is_reserved": 0, "fusion_lat": 0.0, "rental_uris": {"android": "https://dc.lft.to/lastmile_qr_scan", "ios": "https://dc.lft.to/lastmile_qr_scan"}, "fusion_lon": 0.0, "name": "bc181b8de16c4721890628c66c910f16", "lon": -77.04173483333334, "is_disabled": 0, "type": "electric_scooter"}, {"bike_id": "b4a39847a4095a9144b05309d99ff23d", "lat": 38.884953333333335, "is_reserved": 0, "fusion_lat": 0.0, "rental_uris": {"android": "https://dc.lft.to/lastmile_qr_scan", "ios": "https://dc.lft.to/lastmile_qr_scan"}, "fusion_lon": 0.0, "name": "b4a39847a4095a9144b05309d99ff23d", "lon": -77.00727016666667, "is_disabled": 0, "type": "electric_scooter"}, {"bike_id": "9c0303ac1ee0d3c962d727b2e1f57a31", "lat": 38.908344, "is_reserved": 0, "fusion_lat": 0.0, "rental_uris": {"android": "https://dc.lft.to/lastmile_qr_scan", "ios": "https://dc.lft.to/lastmile_qr_scan"}, "fusion_lon": 0.0, "name": "9c0303ac1ee0d3c962d727b2e1f57a31", "lon": -77.04282266666667, "is_disabled": 0, "type": "electric_scooter"}, {"bike_id": "a94d07f0aee5614c957b8062fa611b50", "lat": 38.93493333333333, "is_reserved": 0, "fusion_lat": 0.0, "rental_uris": {"android": "https://dc.lft.to/lastmile_qr_scan", "ios": "https://dc.lft.to/lastmile_qr_scan"}, "fusion_lon": 0.0, "name": "a94d07f0aee5614c957b8062fa611b50", "lon": -77.03285933333333, "is_disabled": 0, "type": "electric_scooter"}, {"bike_id": "dafc134a7c24adcd5271121fdcc9e4e0", "lat": 38.91845033333333, "is_reserved": 0, "fusion_lat": 0.0, "rental_uris": {"android": "https://dc.lft.to/lastmile_qr_scan", "ios": "https://dc.lft.to/lastmile_qr_scan"}, "fusion_lon": 0.0, "name": "dafc134a7c24adcd5271121fdcc9e4e0", "lon": -77.025239, "is_disabled": 0, "type": "electric_scooter"}, {"bike_id": "b0de670e78ac754d310639528be4a1de", "lat": 38.911194333333334, "is_reserved": 0, "fusion_lat": 0.0, "rental_uris": {"android": "https://dc.lft.to/lastmile_qr_scan", "ios": "https://dc.lft.to/lastmile_qr_scan"}, "fusion_lon": 0.0, "name": "b0de670e78ac754d310639528be4a1de", "lon": -77.01196133333333, "is_disabled": 0, "type": "electric_scooter"}, {"bike_id": "9130c0b2eb88a9b4927accd2482f8917", "lat": 38.9181965, "is_reserved": 0, "fusion_lat": 0.0, "rental_uris": {"android": "https://dc.lft.to/lastmile_qr_scan", "ios": "https://dc.lft.to/lastmile_qr_scan"}, "fusion_lon": 0.0, "name": "9130c0b2eb88a9b4927accd2482f8917", "lon": -77.01207383333333, "is_disabled": 0, "type": "electric_scooter"}, {"bike_id": "d9fd98aec7fd35396c0c5563e0cfdfb8", "lat": 38.90504466666667, "is_reserved": 0, "fusion_lat": 0.0, "rental_uris": {"android": "https://dc.lft.to/lastmile_qr_scan", "ios": "https://dc.lft.to/lastmile_qr_scan"}, "fusion_lon": 0.0, "name": "d9fd98aec7fd35396c0c5563e0cfdfb8", "lon": -77.06020916666667, "is_disabled": 0, "type": "electric_scooter"}, {"bike_id": "0598d3ddfdda894a56933b7256876951", "lat": 38.933981833333334, "is_reserved": 0, "fusion_lat": 0.0, "rental_uris": {"android": "https://dc.lft.to/lastmile_qr_scan", "ios": "https://dc.lft.to/lastmile_qr_scan"}, "fusion_lon": 0.0, "name": "0598d3ddfdda894a56933b7256876951", "lon": -77.02208283333333, "is_disabled": 0, "type": "electric_scooter"}, {"bike_id": "d0d576674921431fb1d60f0b9ad2ccfd", "lat": 38.89780833333333, "is_reserved": 0, "fusion_lat": 0.0, "rental_uris": {"android": "https://dc.lft.to/lastmile_qr_scan", "ios": "https://dc.lft.to/lastmile_qr_scan"}, "fusion_lon": 0.0, "name": "d0d576674921431fb1d60f0b9ad2ccfd", "lon": -77.001481, "is_disabled": 0, "type": "electric_scooter"}, {"bike_id": "af8bdd239c05acb9f7086935fa4b564a", "lat": 38.866595833333335, "is_reserved": 0, "fusion_lat": 0.0, "rental_uris": {"android": "https://dc.lft.to/lastmile_qr_scan", "ios": "https://dc.lft.to/lastmile_qr_scan"}, "fusion_lon": 0.0, "name": "af8bdd239c05acb9f7086935fa4b564a", "lon": -76.98878166666667, "is_disabled": 0, "type": "electric_scooter"}, {"bike_id": "e73a49fa91e031b3de47c6dabe9e8167", "lat": 38.924468166666664, "is_reserved": 0, "fusion_lat": 0.0, "rental_uris": {"android": "https://dc.lft.to/lastmile_qr_scan", "ios": "https://dc.lft.to/lastmile_qr_scan"}, "fusion_lon": 0.0, "name": "e73a49fa91e031b3de47c6dabe9e8167", "lon": -77.04109, "is_disabled": 0, "type": "electric_scooter"}, {"bike_id": "9cc912d355594948c7436f66b6e64936", "lat": 38.872580166666665, "is_reserved": 0, "fusion_lat": 0.0, "rental_uris": {"android": "https://dc.lft.to/lastmile_qr_scan", "ios": "https://dc.lft.to/lastmile_qr_scan"}, "fusion_lon": 0.0, "name": "9cc912d355594948c7436f66b6e64936", "lon": -77.23261133333334, "is_disabled": 0, "type": "electric_bike"}, {"bike_id": "ccd77a79555e3b54e1cab31f562619af", "lat": 38.90025166666667, "is_reserved": 0, "fusion_lat": 0.0, "rental_uris": {"android": "https://dc.lft.to/lastmile_qr_scan", "ios": "https://dc.lft.to/lastmile_qr_scan"}, "fusion_lon": 0.0, "name": "ccd77a79555e3b54e1cab31f562619af", "lon": -76.986532, "is_disabled": 0, "type": "electric_scooter"}, {"bike_id": "68b1e265802445aade139cff23a56db4", "lat": 38.904933, "is_reserved": 0, "fusion_lat": 0.0, "rental_uris": {"android": "https://dc.lft.to/lastmile_qr_scan", "ios": "https://dc.lft.to/lastmile_qr_scan"}, "fusion_lon": 0.0, "name": "68b1e265802445aade139cff23a56db4", "lon": -77.06932133333333, "is_disabled": 0, "type": "electric_bike"}, {"bike_id": "fe13202461763609e8df4793722a3a22", "lat": 38.90503533333333, "is_reserved": 0, "fusion_lat": 0.0, "rental_uris": {"android": "https://dc.lft.to/lastmile_qr_scan", "ios": "https://dc.lft.to/lastmile_qr_scan"}, "fusion_lon": 0.0, "name": "fe13202461763609e8df4793722a3a22", "lon": -77.06022316666666, "is_disabled": 0, "type": "electric_scooter"}, {"bike_id": "4558f15ade710c47ecffaa68400ad20f", "lat": 38.919326833333336, "is_reserved": 0, "fusion_lat": 0.0, "rental_uris": {"android": "https://dc.lft.to/lastmile_qr_scan", "ios": "https://dc.lft.to/lastmile_qr_scan"}, "fusion_lon": 0.0, "name": "4558f15ade710c47ecffaa68400ad20f", "lon": -77.0241865, "is_disabled": 0, "type": "electric_scooter"}, {"bike_id": "e1d71b10f86bd782858ca2475e82756b", "lat": 38.877210166666664, "is_reserved": 0, "fusion_lat": 0.0, "rental_uris": {"android": "https://dc.lft.to/lastmile_qr_scan", "ios": "https://dc.lft.to/lastmile_qr_scan"}, "fusion_lon": 0.0, "name": "e1d71b10f86bd782858ca2475e82756b", "lon": -77.003463, "is_disabled": 0, "type": "electric_scooter"}, {"bike_id": "0c201ad84b67b6eeaa4c34a7e1cdaa43", "lat": 38.873864166666664, "is_reserved": 0, "fusion_lat": 0.0, "rental_uris": {"android": "https://dc.lft.to/lastmile_qr_scan", "ios": "https://dc.lft.to/lastmile_qr_scan"}, "fusion_lon": 0.0, "name": "0c201ad84b67b6eeaa4c34a7e1cdaa43", "lon": -77.043298, "is_disabled": 0, "type": "electric_scooter"}, {"bike_id": "defceb85a7648fc1e63422c539c28dc2", "lat": 38.834275166666664, "is_reserved": 0, "fusion_lat": 0.0, "rental_uris": {"android": "https://dc.lft.to/lastmile_qr_scan", "ios": "https://dc.lft.to/lastmile_qr_scan"}, "fusion_lon": 0.0, "name": "defceb85a7648fc1e63422c539c28dc2", "lon": -77.05882633333333, "is_disabled": 0, "type": "electric_bike"}, {"bike_id": "8672bcd48ac7a03b9638732e73233168", "lat": 38.91104166666667, "is_reserved": 0, "fusion_lat": 0.0, "rental_uris": {"android": "https://dc.lft.to/lastmile_qr_scan", "ios": "https://dc.lft.to/lastmile_qr_scan"}, "fusion_lon": 0.0, "name": "8672bcd48ac7a03b9638732e73233168", "lon": -77.04469183333333, "is_disabled": 0, "type": "electric_scooter"}, {"bike_id": "c8452bb76abd3b635c9dd572698bcc17", "lat": 38.907833833333335, "is_reserved": 0, "fusion_lat": 0.0, "rental_uris": {"android": "https://dc.lft.to/lastmile_qr_scan", "ios": "https://dc.lft.to/lastmile_qr_scan"}, "fusion_lon": 0.0, "name": "c8452bb76abd3b635c9dd572698bcc17", "lon": -77.04506716666667, "is_disabled": 0, "type": "electric_scooter"}, {"bike_id": "80334741d9f875de66a45589528ff5fa", "lat": 38.9019025, "is_reserved": 0, "fusion_lat": 0.0, "rental_uris": {"android": "https://dc.lft.to/lastmile_qr_scan", "ios": "https://dc.lft.to/lastmile_qr_scan"}, "fusion_lon": 0.0, "name": "80334741d9f875de66a45589528ff5fa", "lon": -77.0218025, "is_disabled": 0, "type": "electric_scooter"}, {"bike_id": "1506d62cb2d61891ac683adc480e32b8", "lat": 38.89329683333333, "is_reserved": 0, "fusion_lat": 0.0, "rental_uris": {"android": "https://dc.lft.to/lastmile_qr_scan", "ios": "https://dc.lft.to/lastmile_qr_scan"}, "fusion_lon": 0.0, "name": "1506d62cb2d61891ac683adc480e32b8", "lon": -76.95058783333333, "is_disabled": 0, "type": "electric_scooter"}, {"bike_id": "d2e4ad88977a1cae137c864fc93e03ff", "lat": 38.924114333333335, "is_reserved": 0, "fusion_lat": 0.0, "rental_uris": {"android": "https://dc.lft.to/lastmile_qr_scan", "ios": "https://dc.lft.to/lastmile_qr_scan"}, "fusion_lon": 0.0, "name": "d2e4ad88977a1cae137c864fc93e03ff", "lon": -77.02033033333333, "is_disabled": 0, "type": "electric_scooter"}, {"bike_id": "d7ab28bd1000dcb8230018bd9f40af93", "lat": 38.90609333333333, "is_reserved": 0, "fusion_lat": 0.0, "rental_uris": {"android": "https://dc.lft.to/lastmile_qr_scan", "ios": "https://dc.lft.to/lastmile_qr_scan"}, "fusion_lon": 0.0, "name": "d7ab28bd1000dcb8230018bd9f40af93", "lon": -77.02576166666667, "is_disabled": 0, "type": "electric_scooter"}, {"bike_id": "9d4ffc16a7fcf3fda2bfaa8ca587dba2", "lat": 38.926919833333336, "is_reserved": 0, "fusion_lat": 0.0, "rental_uris": {"android": "https://dc.lft.to/lastmile_qr_scan", "ios": "https://dc.lft.to/lastmile_qr_scan"}, "fusion_lon": 0.0, "name": "9d4ffc16a7fcf3fda2bfaa8ca587dba2", "lon": -77.0355205, "is_disabled": 0, "type": "electric_scooter"}, {"bike_id": "da1837f721809ed2ff113bba032f4bfd", "lat": 38.9012045, "is_reserved": 0, "fusion_lat": 0.0, "rental_uris": {"android": "https://dc.lft.to/lastmile_qr_scan", "ios": "https://dc.lft.to/lastmile_qr_scan"}, "fusion_lon": 0.0, "name": "da1837f721809ed2ff113bba032f4bfd", "lon": -76.98628566666666, "is_disabled": 0, "type": "electric_scooter"}, {"bike_id": "58b011b764c780fa6eb8ff94e93d3658", "lat": 38.897536, "is_reserved": 0, "fusion_lat": 0.0, "rental_uris": {"android": "https://dc.lft.to/lastmile_qr_scan", "ios": "https://dc.lft.to/lastmile_qr_scan"}, "fusion_lon": 0.0, "name": "58b011b764c780fa6eb8ff94e93d3658", "lon": -77.02986366666667, "is_disabled": 0, "type": "electric_scooter"}, {"bike_id": "a15e26b99e77c3cad0398d73e73adbdb", "lat": 38.9052025, "is_reserved": 0, "fusion_lat": 0.0, "rental_uris": {"android": "https://dc.lft.to/lastmile_qr_scan", "ios": "https://dc.lft.to/lastmile_qr_scan"}, "fusion_lon": 0.0, "name": "a15e26b99e77c3cad0398d73e73adbdb", "lon": -77.0598565, "is_disabled": 0, "type": "electric_scooter"}, {"bike_id": "f82c6ee7a7fae2d92ee6c08e48f17fdc", "lat": 38.920842, "is_reserved": 0, "fusion_lat": 0.0, "rental_uris": {"android": "https://dc.lft.to/lastmile_qr_scan", "ios": "https://dc.lft.to/lastmile_qr_scan"}, "fusion_lon": 0.0, "name": "f82c6ee7a7fae2d92ee6c08e48f17fdc", "lon": -77.02405416666667, "is_disabled": 0, "type": "electric_scooter"}, {"bike_id": "57d47184091c809d96389166cab6b4a5", "lat": 38.90670566666667, "is_reserved": 0, "fusion_lat": 0.0, "rental_uris": {"android": "https://dc.lft.to/lastmile_qr_scan", "ios": "https://dc.lft.to/lastmile_qr_scan"}, "fusion_lon": 0.0, "name": "57d47184091c809d96389166cab6b4a5", "lon": -77.02706016666667, "is_disabled": 0, "type": "electric_scooter"}, {"bike_id": "68af4ea32c14aca1e44775111f3a6490", "lat": 38.91566383333333, "is_reserved": 0, "fusion_lat": 0.0, "rental_uris": {"android": "https://dc.lft.to/lastmile_qr_scan", "ios": "https://dc.lft.to/lastmile_qr_scan"}, "fusion_lon": 0.0, "name": "68af4ea32c14aca1e44775111f3a6490", "lon": -77.03836433333333, "is_disabled": 0, "type": "electric_scooter"}, {"bike_id": "f2bd6cb9e29029e992e66ba53c8e346e", "lat": 38.90171566666667, "is_reserved": 0, "fusion_lat": 0.0, "rental_uris": {"android": "https://dc.lft.to/lastmile_qr_scan", "ios": "https://dc.lft.to/lastmile_qr_scan"}, "fusion_lon": 0.0, "name": "f2bd6cb9e29029e992e66ba53c8e346e", "lon": -76.92656933333333, "is_disabled": 0, "type": "electric_scooter"}, {"bike_id": "994cfabf476ea79b65ed6f63ebadbfcc", "lat": 38.88183216666667, "is_reserved": 0, "fusion_lat": 0.0, "rental_uris": {"android": "https://dc.lft.to/lastmile_qr_scan", "ios": "https://dc.lft.to/lastmile_qr_scan"}, "fusion_lon": 0.0, "name": "994cfabf476ea79b65ed6f63ebadbfcc", "lon": -77.020821, "is_disabled": 0, "type": "electric_scooter"}, {"bike_id": "df92b610a850d77778afc76240cdf8d9", "lat": 38.89193616666667, "is_reserved": 0, "fusion_lat": 0.0, "rental_uris": {"android": "https://dc.lft.to/lastmile_qr_scan", "ios": "https://dc.lft.to/lastmile_qr_scan"}, "fusion_lon": 0.0, "name": "df92b610a850d77778afc76240cdf8d9", "lon": -77.02407283333334, "is_disabled": 0, "type": "electric_scooter"}, {"bike_id": "da1ea635207badc3e1ab21c7141c1301", "lat": 38.901551, "is_reserved": 0, "fusion_lat": 0.0, "rental_uris": {"android": "https://dc.lft.to/lastmile_qr_scan", "ios": "https://dc.lft.to/lastmile_qr_scan"}, "fusion_lon": 0.0, "name": "da1ea635207badc3e1ab21c7141c1301", "lon": -77.04190583333333, "is_disabled": 0, "type": "electric_scooter"}, {"bike_id": "00f59d37a949a69aedbd498be447bdac", "lat": 38.91532683333333, "is_reserved": 0, "fusion_lat": 0.0, "rental_uris": {"android": "https://dc.lft.to/lastmile_qr_scan", "ios": "https://dc.lft.to/lastmile_qr_scan"}, "fusion_lon": 0.0, "name": "00f59d37a949a69aedbd498be447bdac", "lon": -77.01979333333334, "is_disabled": 0, "type": "electric_scooter"}, {"bike_id": "18c4a4813fbdf97ecf0715f59671a328", "lat": 38.90232666666667, "is_reserved": 0, "fusion_lat": 0.0, "rental_uris": {"android": "https://dc.lft.to/lastmile_qr_scan", "ios": "https://dc.lft.to/lastmile_qr_scan"}, "fusion_lon": 0.0, "name": "18c4a4813fbdf97ecf0715f59671a328", "lon": -77.04028216666667, "is_disabled": 0, "type": "electric_scooter"}, {"bike_id": "acd1e974d661a03986133344336e80fb", "lat": 38.902253, "is_reserved": 0, "fusion_lat": 0.0, "rental_uris": {"android": "https://dc.lft.to/lastmile_qr_scan", "ios": "https://dc.lft.to/lastmile_qr_scan"}, "fusion_lon": 0.0, "name": "acd1e974d661a03986133344336e80fb", "lon": -77.0237785, "is_disabled": 0, "type": "electric_scooter"}, {"bike_id": "442fd2b0b61dcb48d83001aa85781373", "lat": 38.90027883333333, "is_reserved": 0, "fusion_lat": 0.0, "rental_uris": {"android": "https://dc.lft.to/lastmile_qr_scan", "ios": "https://dc.lft.to/lastmile_qr_scan"}, "fusion_lon": 0.0, "name": "442fd2b0b61dcb48d83001aa85781373", "lon": -77.01181016666666, "is_disabled": 0, "type": "electric_scooter"}, {"bike_id": "513d531fc580e145c16ac6cd680a4c24", "lat": 38.896111833333336, "is_reserved": 0, "fusion_lat": 0.0, "rental_uris": {"android": "https://dc.lft.to/lastmile_qr_scan", "ios": "https://dc.lft.to/lastmile_qr_scan"}, "fusion_lon": 0.0, "name": "513d531fc580e145c16ac6cd680a4c24", "lon": -77.02626433333333, "is_disabled": 0, "type": "electric_scooter"}, {"bike_id": "89e0655200b48ba3a25f7e865543a55f", "lat": 38.8738125, "is_reserved": 0, "fusion_lat": 0.0, "rental_uris": {"android": "https://dc.lft.to/lastmile_qr_scan", "ios": "https://dc.lft.to/lastmile_qr_scan"}, "fusion_lon": 0.0, "name": "89e0655200b48ba3a25f7e865543a55f", "lon": -77.00039316666667, "is_disabled": 0, "type": "electric_scooter"}, {"bike_id": "f44687357e7f38efee42ce0491ce5f63", "lat": 38.916849, "is_reserved": 0, "fusion_lat": 0.0, "rental_uris": {"android": "https://dc.lft.to/lastmile_qr_scan", "ios": "https://dc.lft.to/lastmile_qr_scan"}, "fusion_lon": 0.0, "name": "f44687357e7f38efee42ce0491ce5f63", "lon": -77.02959016666667, "is_disabled": 0, "type": "electric_scooter"}, {"bike_id": "8ed708484bb0168436c126cbb5cd5623", "lat": 38.9216025, "is_reserved": 0, "fusion_lat": 0.0, "rental_uris": {"android": "https://dc.lft.to/lastmile_qr_scan", "ios": "https://dc.lft.to/lastmile_qr_scan"}, "fusion_lon": 0.0, "name": "8ed708484bb0168436c126cbb5cd5623", "lon": -77.03384133333333, "is_disabled": 0, "type": "electric_scooter"}, {"bike_id": "f348588b343387ee5b098da95cdfc1c7", "lat": 38.90165616666667, "is_reserved": 0, "fusion_lat": 0.0, "rental_uris": {"android": "https://dc.lft.to/lastmile_qr_scan", "ios": "https://dc.lft.to/lastmile_qr_scan"}, "fusion_lon": 0.0, "name": "f348588b343387ee5b098da95cdfc1c7", "lon": -77.023796, "is_disabled": 0, "type": "electric_scooter"}, {"bike_id": "3d0afa456f6ef939887db5b2baf70d37", "lat": 38.91265383333333, "is_reserved": 0, "fusion_lat": 0.0, "rental_uris": {"android": "https://dc.lft.to/lastmile_qr_scan", "ios": "https://dc.lft.to/lastmile_qr_scan"}, "fusion_lon": 0.0, "name": "3d0afa456f6ef939887db5b2baf70d37", "lon": -77.02958083333333, "is_disabled": 0, "type": "electric_scooter"}, {"bike_id": "00660912ef2c36f387562374ebceb045", "lat": 38.939197, "is_reserved": 0, "fusion_lat": 0.0, "rental_uris": {"android": "https://dc.lft.to/lastmile_qr_scan", "ios": "https://dc.lft.to/lastmile_qr_scan"}, "fusion_lon": 0.0, "name": "00660912ef2c36f387562374ebceb045", "lon": -77.0605665, "is_disabled": 0, "type": "electric_scooter"}, {"bike_id": "159f77b2bb2260b2f68082a8b8e30b4f", "lat": 38.87564233333333, "is_reserved": 0, "fusion_lat": 0.0, "rental_uris": {"android": "https://dc.lft.to/lastmile_qr_scan", "ios": "https://dc.lft.to/lastmile_qr_scan"}, "fusion_lon": 0.0, "name": "159f77b2bb2260b2f68082a8b8e30b4f", "lon": -76.958658, "is_disabled": 0, "type": "electric_scooter"}, {"bike_id": "0b6e6dcf12d385910174d1458641441c", "lat": 38.9224785, "is_reserved": 0, "fusion_lat": 0.0, "rental_uris": {"android": "https://dc.lft.to/lastmile_qr_scan", "ios": "https://dc.lft.to/lastmile_qr_scan"}, "fusion_lon": 0.0, "name": "0b6e6dcf12d385910174d1458641441c", "lon": -77.04272633333333, "is_disabled": 0, "type": "electric_scooter"}, {"bike_id": "01ea96e54d285173d1af9958ec80f680", "lat": 38.9509615, "is_reserved": 0, "fusion_lat": 0.0, "rental_uris": {"android": "https://dc.lft.to/lastmile_qr_scan", "ios": "https://dc.lft.to/lastmile_qr_scan"}, "fusion_lon": 0.0, "name": "01ea96e54d285173d1af9958ec80f680", "lon": -77.08088466666666, "is_disabled": 0, "type": "electric_bike"}, {"bike_id": "09a2e4cf67a953981766cb8681a26e88", "lat": 38.909155166666665, "is_reserved": 0, "fusion_lat": 0.0, "rental_uris": {"android": "https://dc.lft.to/lastmile_qr_scan", "ios": "https://dc.lft.to/lastmile_qr_scan"}, "fusion_lon": 0.0, "name": "09a2e4cf67a953981766cb8681a26e88", "lon": -77.07265816666667, "is_disabled": 0, "type": "electric_scooter"}, {"bike_id": "2ad8744a7f54ff1dbd74e173d53b42c1", "lat": 38.91490116666667, "is_reserved": 0, "fusion_lat": 0.0, "rental_uris": {"android": "https://dc.lft.to/lastmile_qr_scan", "ios": "https://dc.lft.to/lastmile_qr_scan"}, "fusion_lon": 0.0, "name": "2ad8744a7f54ff1dbd74e173d53b42c1", "lon": -77.0257925, "is_disabled": 0, "type": "electric_scooter"}, {"bike_id": "6c54132714a52152723d6396f51995c1", "lat": 38.89721433333333, "is_reserved": 0, "fusion_lat": 0.0, "rental_uris": {"android": "https://dc.lft.to/lastmile_qr_scan", "ios": "https://dc.lft.to/lastmile_qr_scan"}, "fusion_lon": 0.0, "name": "6c54132714a52152723d6396f51995c1", "lon": -76.983575, "is_disabled": 0, "type": "electric_scooter"}, {"bike_id": "4894fb2da2fce95ef7aefb2be9749ecd", "lat": 38.898250166666664, "is_reserved": 0, "fusion_lat": 0.0, "rental_uris": {"android": "https://dc.lft.to/lastmile_qr_scan", "ios": "https://dc.lft.to/lastmile_qr_scan"}, "fusion_lon": 0.0, "name": "4894fb2da2fce95ef7aefb2be9749ecd", "lon": -77.01751616666667, "is_disabled": 0, "type": "electric_scooter"}, {"bike_id": "9b5f4c17d44fbce6427facac3c4c4e25", "lat": 38.93251333333333, "is_reserved": 0, "fusion_lat": 0.0, "rental_uris": {"android": "https://dc.lft.to/lastmile_qr_scan", "ios": "https://dc.lft.to/lastmile_qr_scan"}, "fusion_lon": 0.0, "name": "9b5f4c17d44fbce6427facac3c4c4e25", "lon": -77.03276533333333, "is_disabled": 0, "type": "electric_scooter"}, {"bike_id": "fc2665127428e0746c2f8a2d267f205f", "lat": 38.915317, "is_reserved": 0, "fusion_lat": 0.0, "rental_uris": {"android": "https://dc.lft.to/lastmile_qr_scan", "ios": "https://dc.lft.to/lastmile_qr_scan"}, "fusion_lon": 0.0, "name": "fc2665127428e0746c2f8a2d267f205f", "lon": -77.01839983333333, "is_disabled": 0, "type": "electric_scooter"}, {"bike_id": "11e879b184120de12cd3d78e865cb955", "lat": 38.92883883333333, "is_reserved": 0, "fusion_lat": 0.0, "rental_uris": {"android": "https://dc.lft.to/lastmile_qr_scan", "ios": "https://dc.lft.to/lastmile_qr_scan"}, "fusion_lon": 0.0, "name": "11e879b184120de12cd3d78e865cb955", "lon": -77.0266615, "is_disabled": 0, "type": "electric_scooter"}, {"bike_id": "9b374a0f915a48fdef93978ab1b7d862", "lat": 39.03695333333334, "is_reserved": 0, "fusion_lat": 0.0, "rental_uris": {"android": "https://dc.lft.to/lastmile_qr_scan", "ios": "https://dc.lft.to/lastmile_qr_scan"}, "fusion_lon": 0.0, "name": "9b374a0f915a48fdef93978ab1b7d862", "lon": -77.028598, "is_disabled": 0, "type": "electric_bike"}, {"bike_id": "b4ea9e3d470e9d2b13642c7c6e325442", "lat": 38.915867666666664, "is_reserved": 0, "fusion_lat": 0.0, "rental_uris": {"android": "https://dc.lft.to/lastmile_qr_scan", "ios": "https://dc.lft.to/lastmile_qr_scan"}, "fusion_lon": 0.0, "name": "b4ea9e3d470e9d2b13642c7c6e325442", "lon": -77.02295733333334, "is_disabled": 0, "type": "electric_scooter"}, {"bike_id": "b67d10deedea55acee2ebc6088d8e0d3", "lat": 38.87174433333333, "is_reserved": 0, "fusion_lat": 0.0, "rental_uris": {"android": "https://dc.lft.to/lastmile_qr_scan", "ios": "https://dc.lft.to/lastmile_qr_scan"}, "fusion_lon": 0.0, "name": "b67d10deedea55acee2ebc6088d8e0d3", "lon": -77.006229, "is_disabled": 0, "type": "electric_scooter"}, {"bike_id": "857d02abdd573363a53cedbce88876d7", "lat": 38.915739333333335, "is_reserved": 0, "fusion_lat": 0.0, "rental_uris": {"android": "https://dc.lft.to/lastmile_qr_scan", "ios": "https://dc.lft.to/lastmile_qr_scan"}, "fusion_lon": 0.0, "name": "857d02abdd573363a53cedbce88876d7", "lon": -77.01953833333333, "is_disabled": 0, "type": "electric_scooter"}, {"bike_id": "a0bcd0dc43adfa891f8e14089b512926", "lat": 38.90038533333333, "is_reserved": 0, "fusion_lat": 0.0, "rental_uris": {"android": "https://dc.lft.to/lastmile_qr_scan", "ios": "https://dc.lft.to/lastmile_qr_scan"}, "fusion_lon": 0.0, "name": "a0bcd0dc43adfa891f8e14089b512926", "lon": -77.00201316666667, "is_disabled": 0, "type": "electric_scooter"}, {"bike_id": "1f4a72256ad4a305f2b64ef247150401", "lat": 38.89250666666667, "is_reserved": 0, "fusion_lat": 0.0, "rental_uris": {"android": "https://dc.lft.to/lastmile_qr_scan", "ios": "https://dc.lft.to/lastmile_qr_scan"}, "fusion_lon": 0.0, "name": "1f4a72256ad4a305f2b64ef247150401", "lon": -77.04873416666666, "is_disabled": 0, "type": "electric_scooter"}, {"bike_id": "104458932d3210ce7ca89ee4ed18b591", "lat": 38.865123833333335, "is_reserved": 0, "fusion_lat": 0.0, "rental_uris": {"android": "https://dc.lft.to/lastmile_qr_scan", "ios": "https://dc.lft.to/lastmile_qr_scan"}, "fusion_lon": 0.0, "name": "104458932d3210ce7ca89ee4ed18b591", "lon": -76.99016333333333, "is_disabled": 0, "type": "electric_scooter"}, {"bike_id": "859d0a811dd3f8b8e3a3402b2ec5b28f", "lat": 38.892357, "is_reserved": 0, "fusion_lat": 0.0, "rental_uris": {"android": "https://dc.lft.to/lastmile_qr_scan", "ios": "https://dc.lft.to/lastmile_qr_scan"}, "fusion_lon": 0.0, "name": "859d0a811dd3f8b8e3a3402b2ec5b28f", "lon": -77.0467355, "is_disabled": 0, "type": "electric_scooter"}, {"bike_id": "e0444ed255abaa89cb5b252078c69946", "lat": 38.917677833333336, "is_reserved": 0, "fusion_lat": 0.0, "rental_uris": {"android": "https://dc.lft.to/lastmile_qr_scan", "ios": "https://dc.lft.to/lastmile_qr_scan"}, "fusion_lon": 0.0, "name": "e0444ed255abaa89cb5b252078c69946", "lon": -77.02958566666666, "is_disabled": 0, "type": "electric_scooter"}, {"bike_id": "e474ab55f12c1e55298e6c2815be38ce", "lat": 38.892419333333336, "is_reserved": 0, "fusion_lat": 0.0, "rental_uris": {"android": "https://dc.lft.to/lastmile_qr_scan", "ios": "https://dc.lft.to/lastmile_qr_scan"}, "fusion_lon": 0.0, "name": "e474ab55f12c1e55298e6c2815be38ce", "lon": -76.95331516666667, "is_disabled": 0, "type": "electric_scooter"}, {"bike_id": "18e9c18e3effb9400e130ff0c25ff1ba", "lat": 38.916290000000004, "is_reserved": 0, "fusion_lat": 0.0, "rental_uris": {"android": "https://dc.lft.to/lastmile_qr_scan", "ios": "https://dc.lft.to/lastmile_qr_scan"}, "fusion_lon": 0.0, "name": "18e9c18e3effb9400e130ff0c25ff1ba", "lon": -77.03202716666667, "is_disabled": 0, "type": "electric_scooter"}, {"bike_id": "712a7bb4a1f82854622b690129cd9b34", "lat": 38.90095633333333, "is_reserved": 0, "fusion_lat": 0.0, "rental_uris": {"android": "https://dc.lft.to/lastmile_qr_scan", "ios": "https://dc.lft.to/lastmile_qr_scan"}, "fusion_lon": 0.0, "name": "712a7bb4a1f82854622b690129cd9b34", "lon": -76.98340016666667, "is_disabled": 0, "type": "electric_scooter"}, {"bike_id": "f3b0910c714263fc28af68b1276a0b54", "lat": 38.92152333333333, "is_reserved": 0, "fusion_lat": 0.0, "rental_uris": {"android": "https://dc.lft.to/lastmile_qr_scan", "ios": "https://dc.lft.to/lastmile_qr_scan"}, "fusion_lon": 0.0, "name": "f3b0910c714263fc28af68b1276a0b54", "lon": -77.02093766666667, "is_disabled": 0, "type": "electric_scooter"}, {"bike_id": "aaff379733b275c187153281d5fc0eb7", "lat": 38.87502833333333, "is_reserved": 0, "fusion_lat": 0.0, "rental_uris": {"android": "https://dc.lft.to/lastmile_qr_scan", "ios": "https://dc.lft.to/lastmile_qr_scan"}, "fusion_lon": 0.0, "name": "aaff379733b275c187153281d5fc0eb7", "lon": -77.012297, "is_disabled": 0, "type": "electric_scooter"}, {"bike_id": "b098b962299417193252dcf4dd4d6902", "lat": 38.902211333333334, "is_reserved": 0, "fusion_lat": 0.0, "rental_uris": {"android": "https://dc.lft.to/lastmile_qr_scan", "ios": "https://dc.lft.to/lastmile_qr_scan"}, "fusion_lon": 0.0, "name": "b098b962299417193252dcf4dd4d6902", "lon": -77.03778916666667, "is_disabled": 0, "type": "electric_scooter"}, {"bike_id": "5c0b995ee3b2bcc499596034440e8bab", "lat": 38.87856816666667, "is_reserved": 0, "fusion_lat": 0.0, "rental_uris": {"android": "https://dc.lft.to/lastmile_qr_scan", "ios": "https://dc.lft.to/lastmile_qr_scan"}, "fusion_lon": 0.0, "name": "5c0b995ee3b2bcc499596034440e8bab", "lon": -77.01766066666667, "is_disabled": 0, "type": "electric_scooter"}, {"bike_id": "b4ea14f75fbf8426eb88f731c045cb5c", "lat": 38.92680716666667, "is_reserved": 0, "fusion_lat": 0.0, "rental_uris": {"android": "https://dc.lft.to/lastmile_qr_scan", "ios": "https://dc.lft.to/lastmile_qr_scan"}, "fusion_lon": 0.0, "name": "b4ea14f75fbf8426eb88f731c045cb5c", "lon": -77.07323283333334, "is_disabled": 0, "type": "electric_scooter"}, {"bike_id": "8f3d11d27cbc4e6c2fb75e0ff900b5f1", "lat": 38.80913783333333, "is_reserved": 0, "fusion_lat": 0.0, "rental_uris": {"android": "https://dc.lft.to/lastmile_qr_scan", "ios": "https://dc.lft.to/lastmile_qr_scan"}, "fusion_lon": 0.0, "name": "8f3d11d27cbc4e6c2fb75e0ff900b5f1", "lon": -77.086552, "is_disabled": 0, "type": "electric_bike"}, {"bike_id": "3451c639a2e01d2767ce2b8fa9ddb043", "lat": 38.907474666666666, "is_reserved": 0, "fusion_lat": 0.0, "rental_uris": {"android": "https://dc.lft.to/lastmile_qr_scan", "ios": "https://dc.lft.to/lastmile_qr_scan"}, "fusion_lon": 0.0, "name": "3451c639a2e01d2767ce2b8fa9ddb043", "lon": -77.03204433333333, "is_disabled": 0, "type": "electric_scooter"}, {"bike_id": "c3e020a432830b8fea676466b0557720", "lat": 38.9014385, "is_reserved": 0, "fusion_lat": 0.0, "rental_uris": {"android": "https://dc.lft.to/lastmile_qr_scan", "ios": "https://dc.lft.to/lastmile_qr_scan"}, "fusion_lon": 0.0, "name": "c3e020a432830b8fea676466b0557720", "lon": -77.04326733333333, "is_disabled": 0, "type": "electric_scooter"}, {"bike_id": "bd77c2f545f7129ab4cc2e189fa51225", "lat": 38.87720316666667, "is_reserved": 0, "fusion_lat": 0.0, "rental_uris": {"android": "https://dc.lft.to/lastmile_qr_scan", "ios": "https://dc.lft.to/lastmile_qr_scan"}, "fusion_lon": 0.0, "name": "bd77c2f545f7129ab4cc2e189fa51225", "lon": -77.00349516666667, "is_disabled": 0, "type": "electric_scooter"}, {"bike_id": "86a954c372d91347477c77719e01817d", "lat": 38.9418285, "is_reserved": 0, "fusion_lat": 0.0, "rental_uris": {"android": "https://dc.lft.to/lastmile_qr_scan", "ios": "https://dc.lft.to/lastmile_qr_scan"}, "fusion_lon": 0.0, "name": "86a954c372d91347477c77719e01817d", "lon": -77.0248795, "is_disabled": 0, "type": "electric_scooter"}, {"bike_id": "7dbb5f139eb23722e4cb62c16c5af960", "lat": 38.866937, "is_reserved": 0, "fusion_lat": 0.0, "rental_uris": {"android": "https://dc.lft.to/lastmile_qr_scan", "ios": "https://dc.lft.to/lastmile_qr_scan"}, "fusion_lon": 0.0, "name": "7dbb5f139eb23722e4cb62c16c5af960", "lon": -76.985421, "is_disabled": 0, "type": "electric_scooter"}, {"bike_id": "0530bd21864633554648f276a89b4143", "lat": 38.9220385, "is_reserved": 0, "fusion_lat": 0.0, "rental_uris": {"android": "https://dc.lft.to/lastmile_qr_scan", "ios": "https://dc.lft.to/lastmile_qr_scan"}, "fusion_lon": 0.0, "name": "0530bd21864633554648f276a89b4143", "lon": -77.0183475, "is_disabled": 0, "type": "electric_scooter"}, {"bike_id": "06ed13c56eba5d9ef635f4f7655342f6", "lat": 38.91409316666667, "is_reserved": 0, "fusion_lat": 0.0, "rental_uris": {"android": "https://dc.lft.to/lastmile_qr_scan", "ios": "https://dc.lft.to/lastmile_qr_scan"}, "fusion_lon": 0.0, "name": "06ed13c56eba5d9ef635f4f7655342f6", "lon": -77.02011316666666, "is_disabled": 0, "type": "electric_scooter"}, {"bike_id": "a42c5a4d429d8190e8398d9c0cb649b5", "lat": 38.91815183333333, "is_reserved": 0, "fusion_lat": 0.0, "rental_uris": {"android": "https://dc.lft.to/lastmile_qr_scan", "ios": "https://dc.lft.to/lastmile_qr_scan"}, "fusion_lon": 0.0, "name": "a42c5a4d429d8190e8398d9c0cb649b5", "lon": -77.03260616666667, "is_disabled": 0, "type": "electric_scooter"}, {"bike_id": "ece923f48704a59b1b263bb5dffdea6d", "lat": 38.90862516666667, "is_reserved": 0, "fusion_lat": 0.0, "rental_uris": {"android": "https://dc.lft.to/lastmile_qr_scan", "ios": "https://dc.lft.to/lastmile_qr_scan"}, "fusion_lon": 0.0, "name": "ece923f48704a59b1b263bb5dffdea6d", "lon": -77.042617, "is_disabled": 0, "type": "electric_scooter"}, {"bike_id": "c0bb1bced8618137471e1a4b3ecabe00", "lat": 38.897821, "is_reserved": 0, "fusion_lat": 0.0, "rental_uris": {"android": "https://dc.lft.to/lastmile_qr_scan", "ios": "https://dc.lft.to/lastmile_qr_scan"}, "fusion_lon": 0.0, "name": "c0bb1bced8618137471e1a4b3ecabe00", "lon": -76.94736133333333, "is_disabled": 0, "type": "electric_scooter"}, {"bike_id": "b9a9133cd1bdd1474a4b5f3f6bfe37c9", "lat": 38.915726, "is_reserved": 0, "fusion_lat": 0.0, "rental_uris": {"android": "https://dc.lft.to/lastmile_qr_scan", "ios": "https://dc.lft.to/lastmile_qr_scan"}, "fusion_lon": 0.0, "name": "b9a9133cd1bdd1474a4b5f3f6bfe37c9", "lon": -77.01954033333334, "is_disabled": 0, "type": "electric_scooter"}, {"bike_id": "beccf62eb0e454a3405ca3717a0a086c", "lat": 38.89605183333333, "is_reserved": 0, "fusion_lat": 0.0, "rental_uris": {"android": "https://dc.lft.to/lastmile_qr_scan", "ios": "https://dc.lft.to/lastmile_qr_scan"}, "fusion_lon": 0.0, "name": "beccf62eb0e454a3405ca3717a0a086c", "lon": -77.02362833333333, "is_disabled": 0, "type": "electric_scooter"}, {"bike_id": "c64d725d6e981c5a8d42a98d0cc9faf4", "lat": 38.90610066666667, "is_reserved": 0, "fusion_lat": 0.0, "rental_uris": {"android": "https://dc.lft.to/lastmile_qr_scan", "ios": "https://dc.lft.to/lastmile_qr_scan"}, "fusion_lon": 0.0, "name": "c64d725d6e981c5a8d42a98d0cc9faf4", "lon": -77.0395555, "is_disabled": 0, "type": "electric_scooter"}, {"bike_id": "15769f43f43351063c93335739590b2c", "lat": 38.91425133333333, "is_reserved": 0, "fusion_lat": 0.0, "rental_uris": {"android": "https://dc.lft.to/lastmile_qr_scan", "ios": "https://dc.lft.to/lastmile_qr_scan"}, "fusion_lon": 0.0, "name": "15769f43f43351063c93335739590b2c", "lon": -77.02410716666667, "is_disabled": 0, "type": "electric_scooter"}, {"bike_id": "fc16b7299294efbcb3edc9544656393a", "lat": 38.9154755, "is_reserved": 0, "fusion_lat": 0.0, "rental_uris": {"android": "https://dc.lft.to/lastmile_qr_scan", "ios": "https://dc.lft.to/lastmile_qr_scan"}, "fusion_lon": 0.0, "name": "fc16b7299294efbcb3edc9544656393a", "lon": -77.0666705, "is_disabled": 0, "type": "electric_bike"}, {"bike_id": "52b04f56af87034ddd9cc6d9f68b8589", "lat": 38.9492615, "is_reserved": 0, "fusion_lat": 0.0, "rental_uris": {"android": "https://dc.lft.to/lastmile_qr_scan", "ios": "https://dc.lft.to/lastmile_qr_scan"}, "fusion_lon": 0.0, "name": "52b04f56af87034ddd9cc6d9f68b8589", "lon": -77.01855816666666, "is_disabled": 0, "type": "electric_scooter"}, {"bike_id": "3e70edb50170209ebea55978fac51197", "lat": 38.892415666666665, "is_reserved": 0, "fusion_lat": 0.0, "rental_uris": {"android": "https://dc.lft.to/lastmile_qr_scan", "ios": "https://dc.lft.to/lastmile_qr_scan"}, "fusion_lon": 0.0, "name": "3e70edb50170209ebea55978fac51197", "lon": -77.045014, "is_disabled": 0, "type": "electric_scooter"}, {"bike_id": "a84370ee4fa3f314e440bfeebd8216b8", "lat": 38.920532666666666, "is_reserved": 0, "fusion_lat": 0.0, "rental_uris": {"android": "https://dc.lft.to/lastmile_qr_scan", "ios": "https://dc.lft.to/lastmile_qr_scan"}, "fusion_lon": 0.0, "name": "a84370ee4fa3f314e440bfeebd8216b8", "lon": -77.03809833333334, "is_disabled": 0, "type": "electric_scooter"}, {"bike_id": "19843856eb03e96c9246e0e08b679bc2", "lat": 38.90742866666667, "is_reserved": 0, "fusion_lat": 0.0, "rental_uris": {"android": "https://dc.lft.to/lastmile_qr_scan", "ios": "https://dc.lft.to/lastmile_qr_scan"}, "fusion_lon": 0.0, "name": "19843856eb03e96c9246e0e08b679bc2", "lon": -77.00240883333333, "is_disabled": 0, "type": "electric_scooter"}, {"bike_id": "a9f32936518402ace0e21e73e6cbbb9e", "lat": 38.915608166666665, "is_reserved": 0, "fusion_lat": 0.0, "rental_uris": {"android": "https://dc.lft.to/lastmile_qr_scan", "ios": "https://dc.lft.to/lastmile_qr_scan"}, "fusion_lon": 0.0, "name": "a9f32936518402ace0e21e73e6cbbb9e", "lon": -77.0104325, "is_disabled": 0, "type": "electric_scooter"}, {"bike_id": "64bb042468df842f30495ed92d9486f2", "lat": 38.9308215, "is_reserved": 0, "fusion_lat": 0.0, "rental_uris": {"android": "https://dc.lft.to/lastmile_qr_scan", "ios": "https://dc.lft.to/lastmile_qr_scan"}, "fusion_lon": 0.0, "name": "64bb042468df842f30495ed92d9486f2", "lon": -77.02793516666667, "is_disabled": 0, "type": "electric_scooter"}, {"bike_id": "28d8fe8e2d14c9ae3e9bc96783de9dc6", "lat": 38.92325533333333, "is_reserved": 0, "fusion_lat": 0.0, "rental_uris": {"android": "https://dc.lft.to/lastmile_qr_scan", "ios": "https://dc.lft.to/lastmile_qr_scan"}, "fusion_lon": 0.0, "name": "28d8fe8e2d14c9ae3e9bc96783de9dc6", "lon": -77.03753683333333, "is_disabled": 0, "type": "electric_scooter"}, {"bike_id": "2469e28a4a7dad46603723258defe027", "lat": 38.9025545, "is_reserved": 0, "fusion_lat": 0.0, "rental_uris": {"android": "https://dc.lft.to/lastmile_qr_scan", "ios": "https://dc.lft.to/lastmile_qr_scan"}, "fusion_lon": 0.0, "name": "2469e28a4a7dad46603723258defe027", "lon": -77.03269066666667, "is_disabled": 0, "type": "electric_scooter"}, {"bike_id": "08d87345578ef043efeeb5606a5b706f", "lat": 38.89366416666667, "is_reserved": 0, "fusion_lat": 0.0, "rental_uris": {"android": "https://dc.lft.to/lastmile_qr_scan", "ios": "https://dc.lft.to/lastmile_qr_scan"}, "fusion_lon": 0.0, "name": "08d87345578ef043efeeb5606a5b706f", "lon": -77.01512433333333, "is_disabled": 0, "type": "electric_scooter"}, {"bike_id": "0b31c904de13a24f3029be4ad90302b3", "lat": 38.900154, "is_reserved": 0, "fusion_lat": 0.0, "rental_uris": {"android": "https://dc.lft.to/lastmile_qr_scan", "ios": "https://dc.lft.to/lastmile_qr_scan"}, "fusion_lon": 0.0, "name": "0b31c904de13a24f3029be4ad90302b3", "lon": -77.0413605, "is_disabled": 0, "type": "electric_scooter"}, {"bike_id": "9c3d2d433ca35117be91df26115e0d52", "lat": 38.902680333333336, "is_reserved": 0, "fusion_lat": 0.0, "rental_uris": {"android": "https://dc.lft.to/lastmile_qr_scan", "ios": "https://dc.lft.to/lastmile_qr_scan"}, "fusion_lon": 0.0, "name": "9c3d2d433ca35117be91df26115e0d52", "lon": -77.03955516666667, "is_disabled": 0, "type": "electric_scooter"}, {"bike_id": "bb9e1ace4572f9882e314f6c2c990cde", "lat": 38.912898, "is_reserved": 0, "fusion_lat": 0.0, "rental_uris": {"android": "https://dc.lft.to/lastmile_qr_scan", "ios": "https://dc.lft.to/lastmile_qr_scan"}, "fusion_lon": 0.0, "name": "bb9e1ace4572f9882e314f6c2c990cde", "lon": -77.03207366666666, "is_disabled": 0, "type": "electric_scooter"}, {"bike_id": "133700258a3266aed8bdb7578f4aef1a", "lat": 38.90951616666667, "is_reserved": 0, "fusion_lat": 0.0, "rental_uris": {"android": "https://dc.lft.to/lastmile_qr_scan", "ios": "https://dc.lft.to/lastmile_qr_scan"}, "fusion_lon": 0.0, "name": "133700258a3266aed8bdb7578f4aef1a", "lon": -77.04869166666667, "is_disabled": 0, "type": "electric_scooter"}, {"bike_id": "ec6e2becfe66eda6dc2a2df87f2ace8b", "lat": 38.924375833333336, "is_reserved": 0, "fusion_lat": 0.0, "rental_uris": {"android": "https://dc.lft.to/lastmile_qr_scan", "ios": "https://dc.lft.to/lastmile_qr_scan"}, "fusion_lon": 0.0, "name": "ec6e2becfe66eda6dc2a2df87f2ace8b", "lon": -77.05202883333334, "is_disabled": 0, "type": "electric_scooter"}, {"bike_id": "d35ba7c8012a80984fb754e1736900d5", "lat": 38.90736616666667, "is_reserved": 0, "fusion_lat": 0.0, "rental_uris": {"android": "https://dc.lft.to/lastmile_qr_scan", "ios": "https://dc.lft.to/lastmile_qr_scan"}, "fusion_lon": 0.0, "name": "d35ba7c8012a80984fb754e1736900d5", "lon": -77.02384333333333, "is_disabled": 0, "type": "electric_scooter"}, {"bike_id": "2cc8c2bff0461dfb781dec157071a274", "lat": 38.9507665, "is_reserved": 0, "fusion_lat": 0.0, "rental_uris": {"android": "https://dc.lft.to/lastmile_qr_scan", "ios": "https://dc.lft.to/lastmile_qr_scan"}, "fusion_lon": 0.0, "name": "2cc8c2bff0461dfb781dec157071a274", "lon": -77.02985316666667, "is_disabled": 0, "type": "electric_scooter"}, {"bike_id": "924d3f5bb933d662541c5f7308f9503f", "lat": 38.86748, "is_reserved": 0, "fusion_lat": 0.0, "rental_uris": {"android": "https://dc.lft.to/lastmile_qr_scan", "ios": "https://dc.lft.to/lastmile_qr_scan"}, "fusion_lon": 0.0, "name": "924d3f5bb933d662541c5f7308f9503f", "lon": -76.97859316666667, "is_disabled": 0, "type": "electric_scooter"}, {"bike_id": "69a8779a096f12be07f80e9bd0b3e415", "lat": 38.848573, "is_reserved": 0, "fusion_lat": 0.0, "rental_uris": {"android": "https://dc.lft.to/lastmile_qr_scan", "ios": "https://dc.lft.to/lastmile_qr_scan"}, "fusion_lon": 0.0, "name": "69a8779a096f12be07f80e9bd0b3e415", "lon": -77.111946, "is_disabled": 0, "type": "electric_bike"}, {"bike_id": "909923ff0ddb6d165d1ee969dc9effbc", "lat": 38.92599883333333, "is_reserved": 0, "fusion_lat": 0.0, "rental_uris": {"android": "https://dc.lft.to/lastmile_qr_scan", "ios": "https://dc.lft.to/lastmile_qr_scan"}, "fusion_lon": 0.0, "name": "909923ff0ddb6d165d1ee969dc9effbc", "lon": -77.023875, "is_disabled": 0, "type": "electric_scooter"}, {"bike_id": "36ec313ba911ae91753bc2c3ff81e433", "lat": 38.914216, "is_reserved": 0, "fusion_lat": 0.0, "rental_uris": {"android": "https://dc.lft.to/lastmile_qr_scan", "ios": "https://dc.lft.to/lastmile_qr_scan"}, "fusion_lon": 0.0, "name": "36ec313ba911ae91753bc2c3ff81e433", "lon": -77.0180405, "is_disabled": 0, "type": "electric_scooter"},