{"data": {"bikes": [{"fusion_lat": 0.0, "name": "be8c8336b7812240e6eacf7aafc85d47", "is_disabled": 0, "rental_uris": {"android": "https://dc.lft.to/lastmile_qr_scan", "ios": "https://dc.lft.to/lastmile_qr_scan"}, "fusion_lon": 0.0, "lat": 38.926189666666666, "bike_id": "be8c8336b7812240e6eacf7aafc85d47", "type": "electric_scooter", "is_reserved": 0, "lon": -77.04330016666667}, {"fusion_lat": 0.0, "name": "74c42e3077d024f0fd1a699887ebbe04", "is_disabled": 0, "rental_uris": {"android": "https://dc.lft.to/lastmile_qr_scan", "ios": "https://dc.lft.to/lastmile_qr_scan"}, "fusion_lon": 0.0, "lat": 38.90030483333334, "bike_id": "74c42e3077d024f0fd1a699887ebbe04", "type": "electric_scooter", "is_reserved": 0, "lon": -77.00208583333334}, {"fusion_lat": 0.0, "name": "cc6b4f6458136fdcb17c7da14d061308", "is_disabled": 0, "rental_uris": {"android": "https://dc.lft.to/lastmile_qr_scan", "ios": "https://dc.lft.to/lastmile_qr_scan"}, "fusion_lon": 0.0, "lat": 38.890906333333334, "bike_id": "cc6b4f6458136fdcb17c7da14d061308", "type": "electric_bike", "is_reserved": 0, "lon": -77.00271683333334}, {"fusion_lat": 0.0, "name": "75f6b3c2dd1731aa2d356ea325e84093", "is_disabled": 0, "rental_uris": {"android": "https://dc.lft.to/lastmile_qr_scan", "ios": "https://dc.lft.to/lastmile_qr_scan"}, "fusion_lon": 0.0, "lat": 38.9064425, "bike_id": "75f6b3c2dd1731aa2d356ea325e84093", "type": "electric_scooter", "is_reserved": 0, "lon": -77.06276783333334}, {"fusion_lat": 0.0, "name": "286b60a293c411c4ef1617f5d697eb13", "is_disabled": 0, "rental_uris": {"android": "https://dc.lft.to/lastmile_qr_scan", "ios": "https://dc.lft.to/lastmile_qr_scan"}, "fusion_lon": 0.0, "lat": 38.978797166666666, "bike_id": "286b60a293c411c4ef1617f5d697eb13", "type": "electric_bike", "is_reserved": 0, "lon": -77.0603185}, {"fusion_lat": 0.0, "name": "af5c80e5d5fd70a9222f3443c7b4950e", "is_disabled": 0, "rental_uris": {"android": "https://dc.lft.to/lastmile_qr_scan", "ios": "https://dc.lft.to/lastmile_qr_scan"}, "fusion_lon": 0.0, "lat": 38.895101833333335, "bike_id": "af5c80e5d5fd70a9222f3443c7b4950e", "type": "electric_scooter", "is_reserved": 0, "lon": -76.99962983333333}, {"fusion_lat": 0.0, "name": "e6b9bc17db47bae7fe9287a17e5d4345", "is_disabled": 0, "rental_uris": {"android": "https://dc.lft.to/lastmile_qr_scan", "ios": "https://dc.lft.to/lastmile_qr_scan"}, "fusion_lon": 0.0, "lat": 38.90911833333333, "bike_id": "e6b9bc17db47bae7fe9287a17e5d4345", "type": "electric_scooter", "is_reserved": 0, "lon": -77.04425816666667}, {"fusion_lat": 0.0, "name": "dc6c4561d892e8e908cc182bd22fc78b", "is_disabled": 0, "rental_uris": {"android": "https://dc.lft.to/lastmile_qr_scan", "ios": "https://dc.lft.to/lastmile_qr_scan"}, "fusion_lon": 0.0, "lat": 38.94202283333333, "bike_id": "dc6c4561d892e8e908cc182bd22fc78b", "type": "electric_scooter", "is_reserved": 0, "lon": -77.02591033333333}, {"fusion_lat": 0.0, "name": "fb287d41b2005a0ba9125e72e85bd8e8", "is_disabled": 0, "rental_uris": {"android": "https://dc.lft.to/lastmile_qr_scan", "ios": "https://dc.lft.to/lastmile_qr_scan"}, "fusion_lon": 0.0, "lat": 38.839332166666665, "bike_id": "fb287d41b2005a0ba9125e72e85bd8e8", "type": "electric_bike", "is_reserved": 0, "lon": -77.07909016666666}, {"fusion_lat": 0.0, "name": "9ad84d3ffc75aabac653387597426ee7", "is_disabled": 0, "rental_uris": {"android": "https://dc.lft.to/lastmile_qr_scan", "ios": "https://dc.lft.to/lastmile_qr_scan"}, "fusion_lon": 0.0, "lat": 38.92745566666667, "bike_id": "9ad84d3ffc75aabac653387597426ee7", "type": "electric_scooter", "is_reserved": 0, "lon": -77.03637716666667}, {"fusion_lat": 0.0, "name": "ccd1771778e6622d15fbc7313ad87710", "is_disabled": 0, "rental_uris": {"android": "https://dc.lft.to/lastmile_qr_scan", "ios": "https://dc.lft.to/lastmile_qr_scan"}, "fusion_lon": 0.0, "lat": 38.9491765, "bike_id": "ccd1771778e6622d15fbc7313ad87710", "type": "electric_scooter", "is_reserved": 0, "lon": -77.01858216666666}, {"fusion_lat": 0.0, "name": "9026bc3a1dbd8b5045ef1631aaae270e", "is_disabled": 0, "rental_uris": {"android": "https://dc.lft.to/lastmile_qr_scan", "ios": "https://dc.lft.to/lastmile_qr_scan"}, "fusion_lon": 0.0, "lat": 38.88118816666667, "bike_id": "9026bc3a1dbd8b5045ef1631aaae270e", "type": "electric_scooter", "is_reserved": 0, "lon": -76.99518666666667}, {"fusion_lat": 0.0, "name": "a0345dd1df12c249b518e3b75c7730aa", "is_disabled": 0, "rental_uris": {"android": "https://dc.lft.to/lastmile_qr_scan", "ios": "https://dc.lft.to/lastmile_qr_scan"}, "fusion_lon": 0.0, "lat": 38.89363266666667, "bike_id": "a0345dd1df12c249b518e3b75c7730aa", "type": "electric_scooter", "is_reserved": 0, "lon": -77.00080216666667}, {"fusion_lat": 0.0, "name": "dc90884395bee662989b2104b2b6c485", "is_disabled": 0, "rental_uris": {"android": "https://dc.lft.to/lastmile_qr_scan", "ios": "https://dc.lft.to/lastmile_qr_scan"}, "fusion_lon": 0.0, "lat": 38.91620016666667, "bike_id": "dc90884395bee662989b2104b2b6c485", "type": "electric_scooter", "is_reserved": 0, "lon": -77.03859066666666}, {"fusion_lat": 0.0, "name": "b44d84ccffb43f7eb49eaa3e58357b14", "is_disabled": 0, "rental_uris": {"android": "https://dc.lft.to/lastmile_qr_scan", "ios": "https://dc.lft.to/lastmile_qr_scan"}, "fusion_lon": 0.0, "lat": 38.91922516666666, "bike_id": "b44d84ccffb43f7eb49eaa3e58357b14", "type": "electric_scooter", "is_reserved": 0, "lon": -77.0317675}, {"fusion_lat": 0.0, "name": "51d502bd3fda6888c82a3f6136bfe0de", "is_disabled": 0, "rental_uris": {"android": "https://dc.lft.to/lastmile_qr_scan", "ios": "https://dc.lft.to/lastmile_qr_scan"}, "fusion_lon": 0.0, "lat": 38.93051283333333, "bike_id": "51d502bd3fda6888c82a3f6136bfe0de", "type": "electric_scooter", "is_reserved": 0, "lon": -77.03355216666667}, {"fusion_lat": 0.0, "name": "8ab38dd2598fc8a6978863f651403a68", "is_disabled": 0, "rental_uris": {"android": "https://dc.lft.to/lastmile_qr_scan", "ios": "https://dc.lft.to/lastmile_qr_scan"}, "fusion_lon": 0.0, "lat": 38.91169816666667, "bike_id": "8ab38dd2598fc8a6978863f651403a68", "type": "electric_scooter", "is_reserved": 0, "lon": -77.06868016666667}, {"fusion_lat": 0.0, "name": "aced83622bcc1425c6c8a4a229599e1b", "is_disabled": 0, "rental_uris": {"android": "https://dc.lft.to/lastmile_qr_scan", "ios": "https://dc.lft.to/lastmile_qr_scan"}, "fusion_lon": 0.0, "lat": 38.9053925, "bike_id": "aced83622bcc1425c6c8a4a229599e1b", "type": "electric_scooter", "is_reserved": 0, "lon": -77.0324315}, {"fusion_lat": 0.0, "name": "343e25a647aafc700299e82d0603f65e", "is_disabled": 0, "rental_uris": {"android": "https://dc.lft.to/lastmile_qr_scan", "ios": "https://dc.lft.to/lastmile_qr_scan"}, "fusion_lon": 0.0, "lat": 38.861327833333334, "bike_id": "343e25a647aafc700299e82d0603f65e", "type": "electric_bike", "is_reserved": 0, "lon": -76.97176866666666}, {"fusion_lat": 0.0, "name": "34e2ad4784ea6957e4eb9c60129ec4e5", "is_disabled": 0, "rental_uris": {"android": "https://dc.lft.to/lastmile_qr_scan", "ios": "https://dc.lft.to/lastmile_qr_scan"}, "fusion_lon": 0.0, "lat": 38.94492416666667, "bike_id": "34e2ad4784ea6957e4eb9c60129ec4e5", "type": "electric_bike", "is_reserved": 0, "lon": -77.00545433333333}, {"fusion_lat": 0.0, "name": "cf98e5de97602a712df9f4d7496331a4", "is_disabled": 0, "rental_uris": {"android": "https://dc.lft.to/lastmile_qr_scan", "ios": "https://dc.lft.to/lastmile_qr_scan"}, "fusion_lon": 0.0, "lat": 38.9340235, "bike_id": "cf98e5de97602a712df9f4d7496331a4", "type": "electric_scooter", "is_reserved": 0, "lon": -77.03272216666667}, {"fusion_lat": 0.0, "name": "dd36e90d9a94add483a6d8ac67036f5d", "is_disabled": 0, "rental_uris": {"android": "https://dc.lft.to/lastmile_qr_scan", "ios": "https://dc.lft.to/lastmile_qr_scan"}, "fusion_lon": 0.0, "lat": 38.876303666666665, "bike_id": "dd36e90d9a94add483a6d8ac67036f5d", "type": "electric_scooter", "is_reserved": 0, "lon": -77.00838916666666}, {"fusion_lat": 0.0, "name": "0b71a4fb182ea0e50d193188e8a10731", "is_disabled": 0, "rental_uris": {"android": "https://dc.lft.to/lastmile_qr_scan", "ios": "https://dc.lft.to/lastmile_qr_scan"}, "fusion_lon": 0.0, "lat": 38.93120866666667, "bike_id": "0b71a4fb182ea0e50d193188e8a10731", "type": "electric_scooter", "is_reserved": 0, "lon": -77.03525066666667}, {"fusion_lat": 0.0, "name": "143eed2256e5740e95e4a21a25dc2ee4", "is_disabled": 0, "rental_uris": {"android": "https://dc.lft.to/lastmile_qr_scan", "ios": "https://dc.lft.to/lastmile_qr_scan"}, "fusion_lon": 0.0, "lat": 38.89308166666667, "bike_id": "143eed2256e5740e95e4a21a25dc2ee4", "type": "electric_scooter", "is_reserved": 0, "lon": -77.0558855}, {"fusion_lat": 0.0, "name": "f0665b3bc20ee7a09a1999f68ed1a5ca", "is_disabled": 0, "rental_uris": {"android": "https://dc.lft.to/lastmile_qr_scan", "ios": "https://dc.lft.to/lastmile_qr_scan"}, "fusion_lon": 0.0, "lat": 38.918505833333334, "bike_id": "f0665b3bc20ee7a09a1999f68ed1a5ca", "type": "electric_scooter", "is_reserved": 0, "lon": -77.045874}, {"fusion_lat": 0.0, "name": "ead959edb5728b2b22e3b9d74b5a2cdf", "is_disabled": 0, "rental_uris": {"android": "https://dc.lft.to/lastmile_qr_scan", "ios": "https://dc.lft.to/lastmile_qr_scan"}, "fusion_lon": 0.0, "lat": 38.949795333333334, "bike_id": "ead959edb5728b2b22e3b9d74b5a2cdf", "type": "electric_scooter", "is_reserved": 0, "lon": -77.02699233333334}, {"fusion_lat": 0.0, "name": "2d4d8aa01e2f4dd3e1fbef37d8fc7c69", "is_disabled": 0, "rental_uris": {"android": "https://dc.lft.to/lastmile_qr_scan", "ios": "https://dc.lft.to/lastmile_qr_scan"}, "fusion_lon": 0.0, "lat": 38.905644, "bike_id": "2d4d8aa01e2f4dd3e1fbef37d8fc7c69", "type": "electric_scooter", "is_reserved": 0, "lon": -77.00806716666666}, {"fusion_lat": 0.0, "name": "ba30892e4a2d0f7ef773091fee33465c", "is_disabled": 0, "rental_uris": {"android": "https://dc.lft.to/lastmile_qr_scan", "ios": "https://dc.lft.to/lastmile_qr_scan"}, "fusion_lon": 0.0, "lat": 38.905161, "bike_id": "ba30892e4a2d0f7ef773091fee33465c", "type": "electric_scooter", "is_reserved": 0, "lon": -77.06152966666667}, {"fusion_lat": 0.0, "name": "e9abf534980f9c35a3a8d74669e6d866", "is_disabled": 0, "rental_uris": {"android": "https://dc.lft.to/lastmile_qr_scan", "ios": "https://dc.lft.to/lastmile_qr_scan"}, "fusion_lon": 0.0, "lat": 38.902282, "bike_id": "e9abf534980f9c35a3a8d74669e6d866", "type": "electric_scooter", "is_reserved": 0, "lon": -77.05478600000001}, {"fusion_lat": 0.0, "name": "3057329b345dff594aa73f76896602fe", "is_disabled": 0, "rental_uris": {"android": "https://dc.lft.to/lastmile_qr_scan", "ios": "https://dc.lft.to/lastmile_qr_scan"}, "fusion_lon": 0.0, "lat": 38.96624933333333, "bike_id": "3057329b345dff594aa73f76896602fe", "type": "electric_bike", "is_reserved": 0, "lon": -77.0342835}, {"fusion_lat": 0.0, "name": "c16dadf1b9ba294eb80d0b7218547ceb", "is_disabled": 0, "rental_uris": {"android": "https://dc.lft.to/lastmile_qr_scan", "ios": "https://dc.lft.to/lastmile_qr_scan"}, "fusion_lon": 0.0, "lat": 38.915136, "bike_id": "c16dadf1b9ba294eb80d0b7218547ceb", "type": "electric_scooter", "is_reserved": 0, "lon": -77.03189633333334}, {"fusion_lat": 0.0, "name": "4f6e1fd241b5c05d70e35f55048bf50b", "is_disabled": 0, "rental_uris": {"android": "https://dc.lft.to/lastmile_qr_scan", "ios": "https://dc.lft.to/lastmile_qr_scan"}, "fusion_lon": 0.0, "lat": 38.90649583333333, "bike_id": "4f6e1fd241b5c05d70e35f55048bf50b", "type": "electric_scooter", "is_reserved": 0, "lon": -77.02707916666667}, {"fusion_lat": 0.0, "name": "ea6cbc2d751c080ab2ef76480ec21390", "is_disabled": 0, "rental_uris": {"android": "https://dc.lft.to/lastmile_qr_scan", "ios": "https://dc.lft.to/lastmile_qr_scan"}, "fusion_lon": 0.0, "lat": 38.8723035, "bike_id": "ea6cbc2d751c080ab2ef76480ec21390", "type": "electric_scooter", "is_reserved": 0, "lon": -77.01771883333333}, {"fusion_lat": 0.0, "name": "5bee4fb4abc4622a5405de62751a1ee0", "is_disabled": 0, "rental_uris": {"android": "https://dc.lft.to/lastmile_qr_scan", "ios": "https://dc.lft.to/lastmile_qr_scan"}, "fusion_lon": 0.0, "lat": 38.91682983333333, "bike_id": "5bee4fb4abc4622a5405de62751a1ee0", "type": "electric_scooter", "is_reserved": 0, "lon": -77.02314616666666}, {"fusion_lat": 0.0, "name": "e603394dc4370a910fcdc53033b4ee29", "is_disabled": 0, "rental_uris": {"android": "https://dc.lft.to/lastmile_qr_scan", "ios": "https://dc.lft.to/lastmile_qr_scan"}, "fusion_lon": 0.0, "lat": 38.91646083333333, "bike_id": "e603394dc4370a910fcdc53033b4ee29", "type": "electric_scooter", "is_reserved": 0, "lon": -77.03697383333333}, {"fusion_lat": 0.0, "name": "64e99d1fd05b0774446d2a66ba7136a5", "is_disabled": 0, "rental_uris": {"android": "https://dc.lft.to/lastmile_qr_scan", "ios": "https://dc.lft.to/lastmile_qr_scan"}, "fusion_lon": 0.0, "lat": 38.94067883333334, "bike_id": "64e99d1fd05b0774446d2a66ba7136a5", "type": "electric_bike", "is_reserved": 0, "lon": -76.99464483333334}, {"fusion_lat": 0.0, "name": "9475385e0f53d6112eb704651cdc844a", "is_disabled": 0, "rental_uris": {"android": "https://dc.lft.to/lastmile_qr_scan", "ios": "https://dc.lft.to/lastmile_qr_scan"}, "fusion_lon": 0.0, "lat": 38.9200435, "bike_id": "9475385e0f53d6112eb704651cdc844a", "type": "electric_scooter", "is_reserved": 0, "lon": -77.04181633333333}, {"fusion_lat": 0.0, "name": "03ecef75a14d44cedbed7b99d6272b7a", "is_disabled": 0, "rental_uris": {"android": "https://dc.lft.to/lastmile_qr_scan", "ios": "https://dc.lft.to/lastmile_qr_scan"}, "fusion_lon": 0.0, "lat": 38.88518633333333, "bike_id": "03ecef75a14d44cedbed7b99d6272b7a", "type": "electric_scooter", "is_reserved": 0, "lon": -76.9961295}, {"fusion_lat": 0.0, "name": "9de2107045dce4e3d1283fc07e0a969c", "is_disabled": 0, "rental_uris": {"android": "https://dc.lft.to/lastmile_qr_scan", "ios": "https://dc.lft.to/lastmile_qr_scan"}, "fusion_lon": 0.0, "lat": 38.907249166666666, "bike_id": "9de2107045dce4e3d1283fc07e0a969c", "type": "electric_scooter", "is_reserved": 0, "lon": -77.04814283333333}, {"fusion_lat": 0.0, "name": "a18c966de70a8b8e9a7a79692ae71f28", "is_disabled": 0, "rental_uris": {"android": "https://dc.lft.to/lastmile_qr_scan", "ios": "https://dc.lft.to/lastmile_qr_scan"}, "fusion_lon": 0.0, "lat": 38.92330316666666, "bike_id": "a18c966de70a8b8e9a7a79692ae71f28", "type": "electric_scooter", "is_reserved": 0, "lon": -77.02074833333333}, {"fusion_lat": 0.0, "name": "0f339066ac380a3e2a7411dc72efa340", "is_disabled": 0, "rental_uris": {"android": "https://dc.lft.to/lastmile_qr_scan", "ios": "https://dc.lft.to/lastmile_qr_scan"}, "fusion_lon": 0.0, "lat": 38.934620333333335, "bike_id": "0f339066ac380a3e2a7411dc72efa340", "type": "electric_scooter", "is_reserved": 0, "lon": -77.04114483333333}, {"fusion_lat": 0.0, "name": "796be6a90e4d355e3e94137e335c532d", "is_disabled": 0, "rental_uris": {"android": "https://dc.lft.to/lastmile_qr_scan", "ios": "https://dc.lft.to/lastmile_qr_scan"}, "fusion_lon": 0.0, "lat": 38.874827833333335, "bike_id": "796be6a90e4d355e3e94137e335c532d", "type": "electric_scooter", "is_reserved": 0, "lon": -77.00032283333333}, {"fusion_lat": 0.0, "name": "2d14bc459376095e3a7b5931a567e1ec", "is_disabled": 0, "rental_uris": {"android": "https://dc.lft.to/lastmile_qr_scan", "ios": "https://dc.lft.to/lastmile_qr_scan"}, "fusion_lon": 0.0, "lat": 38.916213166666665, "bike_id": "2d14bc459376095e3a7b5931a567e1ec", "type": "electric_scooter", "is_reserved": 0, "lon": -77.01347883333334}, {"fusion_lat": 0.0, "name": "987dc31d679d9874a1dd2486cfb05c6f", "is_disabled": 0, "rental_uris": {"android": "https://dc.lft.to/lastmile_qr_scan", "ios": "https://dc.lft.to/lastmile_qr_scan"}, "fusion_lon": 0.0, "lat": 38.90245633333333, "bike_id": "987dc31d679d9874a1dd2486cfb05c6f", "type": "electric_scooter", "is_reserved": 0, "lon": -77.043732}, {"fusion_lat": 0.0, "name": "bce265cba4227ea6e1ae5877cceac746", "is_disabled": 0, "rental_uris": {"android": "https://dc.lft.to/lastmile_qr_scan", "ios": "https://dc.lft.to/lastmile_qr_scan"}, "fusion_lon": 0.0, "lat": 38.931431, "bike_id": "bce265cba4227ea6e1ae5877cceac746", "type": "electric_scooter", "is_reserved": 0, "lon": -77.078424}, {"fusion_lat": 0.0, "name": "7bc21ad148872b4d502f9ae5a6b6ffaa", "is_disabled": 0, "rental_uris": {"android": "https://dc.lft.to/lastmile_qr_scan", "ios": "https://dc.lft.to/lastmile_qr_scan"}, "fusion_lon": 0.0, "lat": 38.90997566666667, "bike_id": "7bc21ad148872b4d502f9ae5a6b6ffaa", "type": "electric_scooter", "is_reserved": 0, "lon": -77.01511416666666}, {"fusion_lat": 0.0, "name": "067d97c4782ff48b439d594e37dd38ac", "is_disabled": 0, "rental_uris": {"android": "https://dc.lft.to/lastmile_qr_scan", "ios": "https://dc.lft.to/lastmile_qr_scan"}, "fusion_lon": 0.0, "lat": 38.945009166666665, "bike_id": "067d97c4782ff48b439d594e37dd38ac", "type": "electric_scooter", "is_reserved": 0, "lon": -77.03148616666667}, {"fusion_lat": 0.0, "name": "7808711caa15edf9b8b73ecb1a9a27f0", "is_disabled": 0, "rental_uris": {"android": "https://dc.lft.to/lastmile_qr_scan", "ios": "https://dc.lft.to/lastmile_qr_scan"}, "fusion_lon": 0.0, "lat": 38.902282166666666, "bike_id": "7808711caa15edf9b8b73ecb1a9a27f0", "type": "electric_scooter", "is_reserved": 0, "lon": -77.03474266666667}, {"fusion_lat": 0.0, "name": "daed59d5955d8df31e0d40b80f1df9ed", "is_disabled": 0, "rental_uris": {"android": "https://dc.lft.to/lastmile_qr_scan", "ios": "https://dc.lft.to/lastmile_qr_scan"}, "fusion_lon": 0.0, "lat": 38.88361483333333, "bike_id": "daed59d5955d8df31e0d40b80f1df9ed", "type": "electric_scooter", "is_reserved": 0, "lon": -76.941622}, {"fusion_lat": 0.0, "name": "3db0ba01f42a4acf875a55eea6188fa3", "is_disabled": 0, "rental_uris": {"android": "https://dc.lft.to/lastmile_qr_scan", "ios": "https://dc.lft.to/lastmile_qr_scan"}, "fusion_lon": 0.0, "lat": 38.89528383333333, "bike_id": "3db0ba01f42a4acf875a55eea6188fa3", "type": "electric_scooter", "is_reserved": 0, "lon": -77.042285}, {"fusion_lat": 0.0, "name": "ae6ce33b3afe6988c2dd14c3da74ebef", "is_disabled": 0, "rental_uris": {"android": "https://dc.lft.to/lastmile_qr_scan", "ios": "https://dc.lft.to/lastmile_qr_scan"}, "fusion_lon": 0.0, "lat": 38.843527, "bike_id": "ae6ce33b3afe6988c2dd14c3da74ebef", "type": "electric_bike", "is_reserved": 0, "lon": -76.97824133333333}, {"fusion_lat": 0.0, "name": "67581a409912d865a5935145fc0162e8", "is_disabled": 0, "rental_uris": {"android": "https://dc.lft.to/lastmile_qr_scan", "ios": "https://dc.lft.to/lastmile_qr_scan"}, "fusion_lon": 0.0, "lat": 38.91421916666667, "bike_id": "67581a409912d865a5935145fc0162e8", "type": "electric_scooter", "is_reserved": 0, "lon": -77.032077}, {"fusion_lat": 0.0, "name": "08f8b314563b092f534bcdc0141fae1f", "is_disabled": 0, "rental_uris": {"android": "https://dc.lft.to/lastmile_qr_scan", "ios": "https://dc.lft.to/lastmile_qr_scan"}, "fusion_lon": 0.0, "lat": 38.87942133333333, "bike_id": "08f8b314563b092f534bcdc0141fae1f", "type": "electric_scooter", "is_reserved": 0, "lon": -77.00838383333334}, {"fusion_lat": 0.0, "name": "5645a7abcc14a0985601ffc253833d22", "is_disabled": 0, "rental_uris": {"android": "https://dc.lft.to/lastmile_qr_scan", "ios": "https://dc.lft.to/lastmile_qr_scan"}, "fusion_lon": 0.0, "lat": 38.92008383333334, "bike_id": "5645a7abcc14a0985601ffc253833d22", "type": "electric_scooter", "is_reserved": 0, "lon": -77.01759533333333}, {"fusion_lat": 0.0, "name": "a653f0f22559bc9552802bae441e7c4b", "is_disabled": 0, "rental_uris": {"android": "https://dc.lft.to/lastmile_qr_scan", "ios": "https://dc.lft.to/lastmile_qr_scan"}, "fusion_lon": 0.0, "lat": 38.9181175, "bike_id": "a653f0f22559bc9552802bae441e7c4b", "type": "electric_scooter", "is_reserved": 0, "lon": -77.039336}, {"fusion_lat": 0.0, "name": "84d9b630956e1ae5798177cef4219aef", "is_disabled": 0, "rental_uris": {"android": "https://dc.lft.to/lastmile_qr_scan", "ios": "https://dc.lft.to/lastmile_qr_scan"}, "fusion_lon": 0.0, "lat": 38.9248345, "bike_id": "84d9b630956e1ae5798177cef4219aef", "type": "electric_scooter", "is_reserved": 0, "lon": -77.0264955}, {"fusion_lat": 0.0, "name": "990805ca77009ef99fdb68df2ebaa13b", "is_disabled": 0, "rental_uris": {"android": "https://dc.lft.to/lastmile_qr_scan", "ios": "https://dc.lft.to/lastmile_qr_scan"}, "fusion_lon": 0.0, "lat": 38.962340833333336, "bike_id": "990805ca77009ef99fdb68df2ebaa13b", "type": "electric_bike", "is_reserved": 0, "lon": -76.92800966666667}, {"fusion_lat": 0.0, "name": "be4193cb701fdfc46e2dfe130ef80ac2", "is_disabled": 0, "rental_uris": {"android": "https://dc.lft.to/lastmile_qr_scan", "ios": "https://dc.lft.to/lastmile_qr_scan"}, "fusion_lon": 0.0, "lat": 38.906018833333334, "bike_id": "be4193cb701fdfc46e2dfe130ef80ac2", "type": "electric_scooter", "is_reserved": 0, "lon": -77.041606}, {"fusion_lat": 0.0, "name": "a16584bc8792a54927d6b03aaf8e32a1", "is_disabled": 0, "rental_uris": {"android": "https://dc.lft.to/lastmile_qr_scan", "ios": "https://dc.lft.to/lastmile_qr_scan"}, "fusion_lon": 0.0, "lat": 38.91310883333333, "bike_id": "a16584bc8792a54927d6b03aaf8e32a1", "type": "electric_scooter", "is_reserved": 0, "lon": -77.045704}, {"fusion_lat": 0.0, "name": "1a60cdfdc1cc3d8c4c1db7782caca16d", "is_disabled": 0, "rental_uris": {"android": "https://dc.lft.to/lastmile_qr_scan", "ios": "https://dc.lft.to/lastmile_qr_scan"}, "fusion_lon": 0.0, "lat": 38.9065935, "bike_id": "1a60cdfdc1cc3d8c4c1db7782caca16d", "type": "electric_scooter", "is_reserved": 0, "lon": -77.0090165}, {"fusion_lat": 0.0, "name": "dcf04f7881934f650c01f11f2090cdf0", "is_disabled": 0, "rental_uris": {"android": "https://dc.lft.to/lastmile_qr_scan", "ios": "https://dc.lft.to/lastmile_qr_scan"}, "fusion_lon": 0.0, "lat": 38.915453666666664, "bike_id": "dcf04f7881934f650c01f11f2090cdf0", "type": "electric_scooter", "is_reserved": 0, "lon": -77.037935}, {"fusion_lat": 0.0, "name": "d82c1944cf93001c4edfab69b75894ee", "is_disabled": 0, "rental_uris": {"android": "https://dc.lft.to/lastmile_qr_scan", "ios": "https://dc.lft.to/lastmile_qr_scan"}, "fusion_lon": 0.0, "lat": 38.9064405, "bike_id": "d82c1944cf93001c4edfab69b75894ee", "type": "electric_scooter", "is_reserved": 0, "lon": -77.02408683333333}, {"fusion_lat": 0.0, "name": "92382ba77a7020088c48be0145c26bcf", "is_disabled": 0, "rental_uris": {"android": "https://dc.lft.to/lastmile_qr_scan", "ios": "https://dc.lft.to/lastmile_qr_scan"}, "fusion_lon": 0.0, "lat": 38.959525166666666, "bike_id": "92382ba77a7020088c48be0145c26bcf", "type": "electric_scooter", "is_reserved": 0, "lon": -77.008959}, {"fusion_lat": 0.0, "name": "67c5e07bc20f9fc91df46a69844eca46", "is_disabled": 0, "rental_uris": {"android": "https://dc.lft.to/lastmile_qr_scan", "ios": "https://dc.lft.to/lastmile_qr_scan"}, "fusion_lon": 0.0, "lat": 38.956614, "bike_id": "67c5e07bc20f9fc91df46a69844eca46", "type": "electric_bike", "is_reserved": 0, "lon": -77.01131683333334}, {"fusion_lat": 0.0, "name": "008ed1c5c1c6e412110ed5a845ed1489", "is_disabled": 0, "rental_uris": {"android": "https://dc.lft.to/lastmile_qr_scan", "ios": "https://dc.lft.to/lastmile_qr_scan"}, "fusion_lon": 0.0, "lat": 38.93456283333333, "bike_id": "008ed1c5c1c6e412110ed5a845ed1489", "type": "electric_scooter", "is_reserved": 0, "lon": -77.038619}, {"fusion_lat": 0.0, "name": "68c96a91ddeb255c93a781689269193f", "is_disabled": 0, "rental_uris": {"android": "https://dc.lft.to/lastmile_qr_scan", "ios": "https://dc.lft.to/lastmile_qr_scan"}, "fusion_lon": 0.0, "lat": 38.91543766666667, "bike_id": "68c96a91ddeb255c93a781689269193f", "type": "electric_scooter", "is_reserved": 0, "lon": -77.032279}, {"fusion_lat": 0.0, "name": "88098d3e0d273a70df93e5179a83b69f", "is_disabled": 0, "rental_uris": {"android": "https://dc.lft.to/lastmile_qr_scan", "ios": "https://dc.lft.to/lastmile_qr_scan"}, "fusion_lon": 0.0, "lat": 38.906115, "bike_id": "88098d3e0d273a70df93e5179a83b69f", "type": "electric_scooter", "is_reserved": 0, "lon": -77.02688583333334}, {"fusion_lat": 0.0, "name": "db8f52cd97db8fdcb1f2cc583bb40d21", "is_disabled": 0, "rental_uris": {"android": "https://dc.lft.to/lastmile_qr_scan", "ios": "https://dc.lft.to/lastmile_qr_scan"}, "fusion_lon": 0.0, "lat": 38.91414983333333, "bike_id": "db8f52cd97db8fdcb1f2cc583bb40d21", "type": "electric_scooter", "is_reserved": 0, "lon": -77.03812483333333}, {"fusion_lat": 0.0, "name": "fa7e7247c75066850fbc76b665eb4a59", "is_disabled": 0, "rental_uris": {"android": "https://dc.lft.to/lastmile_qr_scan", "ios": "https://dc.lft.to/lastmile_qr_scan"}, "fusion_lon": 0.0, "lat": 38.909542333333334, "bike_id": "fa7e7247c75066850fbc76b665eb4a59", "type": "electric_scooter", "is_reserved": 0, "lon": -77.0425645}, {"fusion_lat": 0.0, "name": "be21ffe81a6a58990b9f66f2908c132a", "is_disabled": 0, "rental_uris": {"android": "https://dc.lft.to/lastmile_qr_scan", "ios": "https://dc.lft.to/lastmile_qr_scan"}, "fusion_lon": 0.0, "lat": 38.84193166666667, "bike_id": "be21ffe81a6a58990b9f66f2908c132a", "type": "electric_bike", "is_reserved": 0, "lon": -77.077552}, {"fusion_lat": 0.0, "name": "3f756313515965862243a22f7b965c5b", "is_disabled": 0, "rental_uris": {"android": "https://dc.lft.to/lastmile_qr_scan", "ios": "https://dc.lft.to/lastmile_qr_scan"}, "fusion_lon": 0.0, "lat": 38.8839965, "bike_id": "3f756313515965862243a22f7b965c5b", "type": "electric_scooter", "is_reserved": 0, "lon": -76.930451}, {"fusion_lat": 0.0, "name": "dbd7fd63aefb4c14849e8ee497c06ea9", "is_disabled": 0, "rental_uris": {"android": "https://dc.lft.to/lastmile_qr_scan", "ios": "https://dc.lft.to/lastmile_qr_scan"}, "fusion_lon": 0.0, "lat": 38.910074333333334, "bike_id": "dbd7fd63aefb4c14849e8ee497c06ea9", "type": "electric_scooter", "is_reserved": 0, "lon": -77.05278933333334}, {"fusion_lat": 0.0, "name": "2abfc052086ffddedd33865bc144793b", "is_disabled": 0, "rental_uris": {"android": "https://dc.lft.to/lastmile_qr_scan", "ios": "https://dc.lft.to/lastmile_qr_scan"}, "fusion_lon": 0.0, "lat": 38.86256133333333, "bike_id": "2abfc052086ffddedd33865bc144793b", "type": "electric_bike", "is_reserved": 0, "lon": -76.9835}, {"fusion_lat": 0.0, "name": "bed51687385f6615cc04d49e9e7e76cb", "is_disabled": 0, "rental_uris": {"android": "https://dc.lft.to/lastmile_qr_scan", "ios": "https://dc.lft.to/lastmile_qr_scan"}, "fusion_lon": 0.0, "lat": 38.9038735, "bike_id": "bed51687385f6615cc04d49e9e7e76cb", "type": "electric_scooter", "is_reserved": 0, "lon": -77.06725183333333}, {"fusion_lat": 0.0, "name": "6d6635b465629869d834e4b2d01f621e", "is_disabled": 0, "rental_uris": {"android": "https://dc.lft.to/lastmile_qr_scan", "ios": "https://dc.lft.to/lastmile_qr_scan"}, "fusion_lon": 0.0, "lat": 38.96632666666667, "bike_id": "6d6635b465629869d834e4b2d01f621e", "type": "electric_bike", "is_reserved": 0, "lon": -77.02760166666667}, {"fusion_lat": 0.0, "name": "eacea9e89e755b48b902c4e925155523", "is_disabled": 0, "rental_uris": {"android": "https://dc.lft.to/lastmile_qr_scan", "ios": "https://dc.lft.to/lastmile_qr_scan"}, "fusion_lon": 0.0, "lat": 38.905168833333335, "bike_id": "eacea9e89e755b48b902c4e925155523", "type": "electric_scooter", "is_reserved": 0, "lon": -77.0678075}, {"fusion_lat": 0.0, "name": "edd6ad201bf308f859f10cf545e79614", "is_disabled": 0, "rental_uris": {"android": "https://dc.lft.to/lastmile_qr_scan", "ios": "https://dc.lft.to/lastmile_qr_scan"}, "fusion_lon": 0.0, "lat": 38.883657666666664, "bike_id": "edd6ad201bf308f859f10cf545e79614", "type": "electric_scooter", "is_reserved": 0, "lon": -77.01369733333334}, {"fusion_lat": 0.0, "name": "8af6133f871e178538357cb136733dc3", "is_disabled": 0, "rental_uris": {"android": "https://dc.lft.to/lastmile_qr_scan", "ios": "https://dc.lft.to/lastmile_qr_scan"}, "fusion_lon": 0.0, "lat": 38.919061, "bike_id": "8af6133f871e178538357cb136733dc3", "type": "electric_scooter", "is_reserved": 0, "lon": -77.02396366666666}, {"fusion_lat": 0.0, "name": "5a1b88a545f121504883cea40f172b25", "is_disabled": 0, "rental_uris": {"android": "https://dc.lft.to/lastmile_qr_scan", "ios": "https://dc.lft.to/lastmile_qr_scan"}, "fusion_lon": 0.0, "lat": 38.93527816666667, "bike_id": "5a1b88a545f121504883cea40f172b25", "type": "electric_scooter", "is_reserved": 0, "lon": -77.023537}, {"fusion_lat": 0.0, "name": "79efb6621739d10e98225388dfeceacf", "is_disabled": 0, "rental_uris": {"android": "https://dc.lft.to/lastmile_qr_scan", "ios": "https://dc.lft.to/lastmile_qr_scan"}, "fusion_lon": 0.0, "lat": 38.95308133333333, "bike_id": "79efb6621739d10e98225388dfeceacf", "type": "electric_scooter", "is_reserved": 0, "lon": -77.02251483333333}, {"fusion_lat": 0.0, "name": "b6e6ae4974648387a737a93c2928a5dd", "is_disabled": 0, "rental_uris": {"android": "https://dc.lft.to/lastmile_qr_scan", "ios": "https://dc.lft.to/lastmile_qr_scan"}, "fusion_lon": 0.0, "lat": 38.99224916666667, "bike_id": "b6e6ae4974648387a737a93c2928a5dd", "type": "electric_bike", "is_reserved": 0, "lon": -76.9443325}, {"fusion_lat": 0.0, "name": "2caefa671b34dc524e5af142a491956d", "is_disabled": 0, "rental_uris": {"android": "https://dc.lft.to/lastmile_qr_scan", "ios": "https://dc.lft.to/lastmile_qr_scan"}, "fusion_lon": 0.0, "lat": 38.87171716666667, "bike_id": "2caefa671b34dc524e5af142a491956d", "type": "electric_scooter", "is_reserved": 0, "lon": -76.97401816666667}, {"fusion_lat": 0.0, "name": "271c34babbaea067570524c49b25a6e4", "is_disabled": 0, "rental_uris": {"android": "https://dc.lft.to/lastmile_qr_scan", "ios": "https://dc.lft.to/lastmile_qr_scan"}, "fusion_lon": 0.0, "lat": 38.9168175, "bike_id": "271c34babbaea067570524c49b25a6e4", "type": "electric_scooter", "is_reserved": 0, "lon": -77.03125866666667}, {"fusion_lat": 0.0, "name": "edb7c4f2ffdec8f06584376d49352286", "is_disabled": 0, "rental_uris": {"android": "https://dc.lft.to/lastmile_qr_scan", "ios": "https://dc.lft.to/lastmile_qr_scan"}, "fusion_lon": 0.0, "lat": 38.88044083333333, "bike_id": "edb7c4f2ffdec8f06584376d49352286", "type": "electric_scooter", "is_reserved": 0, "lon": -77.00375533333333}, {"fusion_lat": 0.0, "name": "768c4538bb50e2668a64358e6012e1ef", "is_disabled": 0, "rental_uris": {"android": "https://dc.lft.to/lastmile_qr_scan", "ios": "https://dc.lft.to/lastmile_qr_scan"}, "fusion_lon": 0.0, "lat": 38.907413, "bike_id": "768c4538bb50e2668a64358e6012e1ef", "type": "electric_scooter", "is_reserved": 0, "lon": -77.06341433333333}, {"fusion_lat": 0.0, "name": "a9c8e17265929dbd9704a8ae47b5c794", "is_disabled": 0, "rental_uris": {"android": "https://dc.lft.to/lastmile_qr_scan", "ios": "https://dc.lft.to/lastmile_qr_scan"}, "fusion_lon": 0.0, "lat": 38.8764605, "bike_id": "a9c8e17265929dbd9704a8ae47b5c794", "type": "electric_scooter", "is_reserved": 0, "lon": -77.007499}, {"fusion_lat": 0.0, "name": "cc9554b01c97b7740d086edf8e2abd50", "is_disabled": 0, "rental_uris": {"android": "https://dc.lft.to/lastmile_qr_scan", "ios": "https://dc.lft.to/lastmile_qr_scan"}, "fusion_lon": 0.0, "lat": 38.91814883333333, "bike_id": "cc9554b01c97b7740d086edf8e2abd50", "type": "electric_scooter", "is_reserved": 0, "lon": -77.02531833333333}, {"fusion_lat": 0.0, "name": "98d7601502e96e00fa60af0c9cccf4c5", "is_disabled": 0, "rental_uris": {"android": "https://dc.lft.to/lastmile_qr_scan", "ios": "https://dc.lft.to/lastmile_qr_scan"}, "fusion_lon": 0.0, "lat": 38.9341465, "bike_id": "98d7601502e96e00fa60af0c9cccf4c5", "type": "electric_scooter", "is_reserved": 0, "lon": -76.97967283333334}, {"fusion_lat": 0.0, "name": "a6454365e6c2e4d4990bd1734152cc16", "is_disabled": 0, "rental_uris": {"android": "https://dc.lft.to/lastmile_qr_scan", "ios": "https://dc.lft.to/lastmile_qr_scan"}, "fusion_lon": 0.0, "lat": 38.888903166666665, "bike_id": "a6454365e6c2e4d4990bd1734152cc16", "type": "electric_bike", "is_reserved": 0, "lon": -77.11530766666667}, {"fusion_lat": 0.0, "name": "93ed3aeddfb14432948a26b867fdc905", "is_disabled": 0, "rental_uris": {"android": "https://dc.lft.to/lastmile_qr_scan", "ios": "https://dc.lft.to/lastmile_qr_scan"}, "fusion_lon": 0.0, "lat": 38.930856666666664, "bike_id": "93ed3aeddfb14432948a26b867fdc905", "type": "electric_scooter", "is_reserved": 0, "lon": -77.03755583333333}, {"fusion_lat": 0.0, "name": "1aa207f30b17e0c8e3cb867ce13380b7", "is_disabled": 0, "rental_uris": {"android": "https://dc.lft.to/lastmile_qr_scan", "ios": "https://dc.lft.to/lastmile_qr_scan"}, "fusion_lon": 0.0, "lat": 38.844258333333336, "bike_id": "1aa207f30b17e0c8e3cb867ce13380b7", "type": "electric_scooter", "is_reserved": 0, "lon": -76.9978075}, {"fusion_lat": 0.0, "name": "7d9722845d8b1d179814e60e4950da55", "is_disabled": 0, "rental_uris": {"android": "https://dc.lft.to/lastmile_qr_scan", "ios": "https://dc.lft.to/lastmile_qr_scan"}, "fusion_lon": 0.0, "lat": 38.88216833333333, "bike_id": "7d9722845d8b1d179814e60e4950da55", "type": "electric_scooter", "is_reserved": 0, "lon": -77.02944016666666}, {"fusion_lat": 0.0, "name": "9665d27e6410e25459e095c0c0752c37", "is_disabled": 0, "rental_uris": {"android": "https://dc.lft.to/lastmile_qr_scan", "ios": "https://dc.lft.to/lastmile_qr_scan"}, "fusion_lon": 0.0, "lat": 38.93540566666667, "bike_id": "9665d27e6410e25459e095c0c0752c37", "type": "electric_scooter", "is_reserved": 0, "lon": -77.030856}, {"fusion_lat": 0.0, "name": "304d6582ccfa7f9be4cd93ac358fa917", "is_disabled": 0, "rental_uris": {"android": "https://dc.lft.to/lastmile_qr_scan", "ios": "https://dc.lft.to/lastmile_qr_scan"}, "fusion_lon": 0.0, "lat": 38.8953015, "bike_id": "304d6582ccfa7f9be4cd93ac358fa917", "type": "electric_scooter", "is_reserved": 0, "lon": -77.030629}, {"fusion_lat": 0.0, "name": "a80a7d1416bdd194e5c5bb7271efaac8", "is_disabled": 0, "rental_uris": {"android": "https://dc.lft.to/lastmile_qr_scan", "ios": "https://dc.lft.to/lastmile_qr_scan"}, "fusion_lon": 0.0, "lat": 38.93078416666667, "bike_id": "a80a7d1416bdd194e5c5bb7271efaac8", "type": "electric_bike", "is_reserved": 0, "lon": -76.9851015}, {"fusion_lat": 0.0, "name": "bdb694b2213c80b0d73c02f8fd64e629", "is_disabled": 0, "rental_uris": {"android": "https://dc.lft.to/lastmile_qr_scan", "ios": "https://dc.lft.to/lastmile_qr_scan"}, "fusion_lon": 0.0, "lat": 38.9204465, "bike_id": "bdb694b2213c80b0d73c02f8fd64e629", "type": "electric_scooter", "is_reserved": 0, "lon": -77.02449916666667}, {"fusion_lat": 0.0, "name": "b83428e401b8c3a51692f1817034b6cc", "is_disabled": 0, "rental_uris": {"android": "https://dc.lft.to/lastmile_qr_scan", "ios": "https://dc.lft.to/lastmile_qr_scan"}, "fusion_lon": 0.0, "lat": 38.909584333333335, "bike_id": "b83428e401b8c3a51692f1817034b6cc", "type": "electric_scooter", "is_reserved": 0, "lon": -77.04611683333333}, {"fusion_lat": 0.0, "name": "9a1d1f8be72e31f3b139f402780bcb9d", "is_disabled": 0, "rental_uris": {"android": "https://dc.lft.to/lastmile_qr_scan", "ios": "https://dc.lft.to/lastmile_qr_scan"}, "fusion_lon": 0.0, "lat": 38.905310166666666, "bike_id": "9a1d1f8be72e31f3b139f402780bcb9d", "type": "electric_bike", "is_reserved": 0, "lon": -76.998081}, {"fusion_lat": 0.0, "name": "55355f123ffd0fcaafa6b1a7ebb9b737", "is_disabled": 0, "rental_uris": {"android": "https://dc.lft.to/lastmile_qr_scan", "ios": "https://dc.lft.to/lastmile_qr_scan"}, "fusion_lon": 0.0, "lat": 38.9347395, "bike_id": "55355f123ffd0fcaafa6b1a7ebb9b737", "type": "electric_scooter", "is_reserved": 0, "lon": -77.0734725}, {"fusion_lat": 0.0, "name": "c1c4afa323cf6d766d3f32c41dd9813b", "is_disabled": 0, "rental_uris": {"android": "https://dc.lft.to/lastmile_qr_scan", "ios": "https://dc.lft.to/lastmile_qr_scan"}, "fusion_lon": 0.0, "lat": 38.86628416666667, "bike_id": "c1c4afa323cf6d766d3f32c41dd9813b", "type": "electric_scooter", "is_reserved": 0, "lon": -76.98717866666667}, {"fusion_lat": 0.0, "name": "467060ce9ab9f01fcd1cc2fe3534d33c", "is_disabled": 0, "rental_uris": {"android": "https://dc.lft.to/lastmile_qr_scan", "ios": "https://dc.lft.to/lastmile_qr_scan"}, "fusion_lon": 0.0, "lat": 38.89220866666667, "bike_id": "467060ce9ab9f01fcd1cc2fe3534d33c", "type": "electric_scooter", "is_reserved": 0, "lon": -77.04868183333333}, {"fusion_lat": 0.0, "name": "f315bce8093e46ef5290a706324a492b", "is_disabled": 0, "rental_uris": {"android": "https://dc.lft.to/lastmile_qr_scan", "ios": "https://dc.lft.to/lastmile_qr_scan"}, "fusion_lon": 0.0, "lat": 38.951083833333335, "bike_id": "f315bce8093e46ef5290a706324a492b", "type": "electric_scooter", "is_reserved": 0, "lon": -77.0586705}, {"fusion_lat": 0.0, "name": "815dc92133be4b7836feee28e6af4845", "is_disabled": 0, "rental_uris": {"android": "https://dc.lft.to/lastmile_qr_scan", "ios": "https://dc.lft.to/lastmile_qr_scan"}, "fusion_lon": 0.0, "lat": 38.9150675, "bike_id": "815dc92133be4b7836feee28e6af4845", "type": "electric_scooter", "is_reserved": 0, "lon": -77.03265716666667}, {"fusion_lat": 0.0, "name": "00e9d3c2ca705662cda72fa11c967b4b", "is_disabled": 0, "rental_uris": {"android": "https://dc.lft.to/lastmile_qr_scan", "ios": "https://dc.lft.to/lastmile_qr_scan"}, "fusion_lon": 0.0, "lat": 38.91697283333333, "bike_id": "00e9d3c2ca705662cda72fa11c967b4b", "type": "electric_scooter", "is_reserved": 0, "lon": -77.03710433333333}, {"fusion_lat": 0.0, "name": "eb5f27b05a9815defe6a9b93249443d6", "is_disabled": 0, "rental_uris": {"android": "https://dc.lft.to/lastmile_qr_scan", "ios": "https://dc.lft.to/lastmile_qr_scan"}, "fusion_lon": 0.0, "lat": 38.913396666666664, "bike_id": "eb5f27b05a9815defe6a9b93249443d6", "type": "electric_bike", "is_reserved": 0, "lon": -76.98893516666666}, {"fusion_lat": 0.0, "name": "0d0ba297eb0c56436ce48f0a0c672b03", "is_disabled": 0, "rental_uris": {"android": "https://dc.lft.to/lastmile_qr_scan", "ios": "https://dc.lft.to/lastmile_qr_scan"}, "fusion_lon": 0.0, "lat": 38.926841333333336, "bike_id": "0d0ba297eb0c56436ce48f0a0c672b03", "type": "electric_scooter", "is_reserved": 0, "lon": -77.03146016666666}, {"fusion_lat": 0.0, "name": "e16f68d20fbac999a641378aa0627d48", "is_disabled": 0, "rental_uris": {"android": "https://dc.lft.to/lastmile_qr_scan", "ios": "https://dc.lft.to/lastmile_qr_scan"}, "fusion_lon": 0.0, "lat": 38.92414183333333, "bike_id": "e16f68d20fbac999a641378aa0627d48", "type": "electric_scooter", "is_reserved": 0, "lon": -77.020068}, {"fusion_lat": 0.0, "name": "e1ba72378435dad27e09711eb77c990c", "is_disabled": 0, "rental_uris": {"android": "https://dc.lft.to/lastmile_qr_scan", "ios": "https://dc.lft.to/lastmile_qr_scan"}, "fusion_lon": 0.0, "lat": 38.873714166666666, "bike_id": "e1ba72378435dad27e09711eb77c990c", "type": "electric_scooter", "is_reserved": 0, "lon": -77.00064883333333}, {"fusion_lat": 0.0, "name": "198311e46f53d4287d674f651485b755", "is_disabled": 0, "rental_uris": {"android": "https://dc.lft.to/lastmile_qr_scan", "ios": "https://dc.lft.to/lastmile_qr_scan"}, "fusion_lon": 0.0, "lat": 38.9026405, "bike_id": "198311e46f53d4287d674f651485b755", "type": "electric_scooter", "is_reserved": 0, "lon": -77.001965}, {"fusion_lat": 0.0, "name": "1fd42235543481a12594954df25ee598", "is_disabled": 0, "rental_uris": {"android": "https://dc.lft.to/lastmile_qr_scan", "ios": "https://dc.lft.to/lastmile_qr_scan"}, "fusion_lon": 0.0, "lat": 38.887466833333335, "bike_id": "1fd42235543481a12594954df25ee598", "type": "electric_scooter", "is_reserved": 0, "lon": -76.9835765}, {"fusion_lat": 0.0, "name": "c758034cd3330499f9d2d11777277022", "is_disabled": 0, "rental_uris": {"android": "https://dc.lft.to/lastmile_qr_scan", "ios": "https://dc.lft.to/lastmile_qr_scan"}, "fusion_lon": 0.0, "lat": 38.8994475, "bike_id": "c758034cd3330499f9d2d11777277022", "type": "electric_scooter", "is_reserved": 0, "lon": -77.0547165}, {"fusion_lat": 0.0, "name": "d1073813e7f92901ab59c2c85e880140", "is_disabled": 0, "rental_uris": {"android": "https://dc.lft.to/lastmile_qr_scan", "ios": "https://dc.lft.to/lastmile_qr_scan"}, "fusion_lon": 0.0, "lat": 38.943037833333335, "bike_id": "d1073813e7f92901ab59c2c85e880140", "type": "electric_scooter", "is_reserved": 0, "lon": -77.0201305}, {"fusion_lat": 0.0, "name": "1cf934f889fca18e6f7a39a37b74e831", "is_disabled": 0, "rental_uris": {"android": "https://dc.lft.to/lastmile_qr_scan", "ios": "https://dc.lft.to/lastmile_qr_scan"}, "fusion_lon": 0.0, "lat": 38.871908833333336, "bike_id": "1cf934f889fca18e6f7a39a37b74e831", "type": "electric_scooter", "is_reserved": 0, "lon": -77.00627733333333}, {"fusion_lat": 0.0, "name": "a174fc773fb701ae1d01f6b1d6110b22", "is_disabled": 0, "rental_uris": {"android": "https://dc.lft.to/lastmile_qr_scan", "ios": "https://dc.lft.to/lastmile_qr_scan"}, "fusion_lon": 0.0, "lat": 38.90294466666667, "bike_id": "a174fc773fb701ae1d01f6b1d6110b22", "type": "electric_scooter", "is_reserved": 0, "lon": -76.9926235}, {"fusion_lat": 0.0, "name": "71aa1ae496c08bbbc71d2c387e362cdf", "is_disabled": 0, "rental_uris": {"android": "https://dc.lft.to/lastmile_qr_scan", "ios": "https://dc.lft.to/lastmile_qr_scan"}, "fusion_lon": 0.0, "lat": 38.88806783333333, "bike_id": "71aa1ae496c08bbbc71d2c387e362cdf", "type": "electric_scooter", "is_reserved": 0, "lon": -76.98361716666666}, {"fusion_lat": 0.0, "name": "e9a0af9e846d056182561b90574fdcab", "is_disabled": 0, "rental_uris": {"android": "https://dc.lft.to/lastmile_qr_scan", "ios": "https://dc.lft.to/lastmile_qr_scan"}, "fusion_lon": 0.0, "lat": 38.878939333333335, "bike_id": "e9a0af9e846d056182561b90574fdcab", "type": "electric_scooter", "is_reserved": 0, "lon": -77.01365633333333}, {"fusion_lat": 0.0, "name": "8022d64f443dd234caa3aa0ebbdd78dd", "is_disabled": 0, "rental_uris": {"android": "https://dc.lft.to/lastmile_qr_scan", "ios": "https://dc.lft.to/lastmile_qr_scan"}, "fusion_lon": 0.0, "lat": 38.9211595, "bike_id": "8022d64f443dd234caa3aa0ebbdd78dd", "type": "electric_bike", "is_reserved": 0, "lon": -77.01218916666667}, {"fusion_lat": 0.0, "name": "9bf018cc1dd37a188bac69d9ca446bc9", "is_disabled": 0, "rental_uris": {"android": "https://dc.lft.to/lastmile_qr_scan", "ios": "https://dc.lft.to/lastmile_qr_scan"}, "fusion_lon": 0.0, "lat": 38.895253833333335, "bike_id": "9bf018cc1dd37a188bac69d9ca446bc9", "type": "electric_scooter", "is_reserved": 0, "lon": -76.93408133333334}, {"fusion_lat": 0.0, "name": "c339164c91b9604bf06fcf12ad9e0090", "is_disabled": 0, "rental_uris": {"android": "https://dc.lft.to/lastmile_qr_scan", "ios": "https://dc.lft.to/lastmile_qr_scan"}, "fusion_lon": 0.0, "lat": 38.90073816666666, "bike_id": "c339164c91b9604bf06fcf12ad9e0090", "type": "electric_scooter", "is_reserved": 0, "lon": -77.0502425}, {"fusion_lat": 0.0, "name": "c66687fcad24dd5ee54f92dcaab9f222", "is_disabled": 0, "rental_uris": {"android": "https://dc.lft.to/lastmile_qr_scan", "ios": "https://dc.lft.to/lastmile_qr_scan"}, "fusion_lon": 0.0, "lat": 38.9239905, "bike_id": "c66687fcad24dd5ee54f92dcaab9f222", "type": "electric_scooter", "is_reserved": 0, "lon": -77.02562066666667}, {"fusion_lat": 0.0, "name": "addf3715b79e79e1db63b0f9a9de7340", "is_disabled": 0, "rental_uris": {"android": "https://dc.lft.to/lastmile_qr_scan", "ios": "https://dc.lft.to/lastmile_qr_scan"}, "fusion_lon": 0.0, "lat": 38.89847066666667, "bike_id": "addf3715b79e79e1db63b0f9a9de7340", "type": "electric_scooter", "is_reserved": 0, "lon": -77.04053233333333}, {"fusion_lat": 0.0, "name": "8f9433f3dae5489769419e44f003f15d", "is_disabled": 0, "rental_uris": {"android": "https://dc.lft.to/lastmile_qr_scan", "ios": "https://dc.lft.to/lastmile_qr_scan"}, "fusion_lon": 0.0, "lat": 38.90151066666667, "bike_id": "8f9433f3dae5489769419e44f003f15d", "type": "electric_scooter", "is_reserved": 0, "lon": -77.061124}, {"fusion_lat": 0.0, "name": "fcf24e7a9d7c98f092263c9b68d2ce14", "is_disabled": 0, "rental_uris": {"android": "https://dc.lft.to/lastmile_qr_scan", "ios": "https://dc.lft.to/lastmile_qr_scan"}, "fusion_lon": 0.0, "lat": 38.90030333333333, "bike_id": "fcf24e7a9d7c98f092263c9b68d2ce14", "type": "electric_scooter", "is_reserved": 0, "lon": -77.01225666666667}, {"fusion_lat": 0.0, "name": "b88f9258f57a1a7f6f0f98a2a6102176", "is_disabled": 0, "rental_uris": {"android": "https://dc.lft.to/lastmile_qr_scan", "ios": "https://dc.lft.to/lastmile_qr_scan"}, "fusion_lon": 0.0, "lat": 38.9247255, "bike_id": "b88f9258f57a1a7f6f0f98a2a6102176", "type": "electric_scooter", "is_reserved": 0, "lon": -77.02684233333333}, {"fusion_lat": 0.0, "name": "ea897dab4bf9717b618575453922c195", "is_disabled": 0, "rental_uris": {"android": "https://dc.lft.to/lastmile_qr_scan", "ios": "https://dc.lft.to/lastmile_qr_scan"}, "fusion_lon": 0.0, "lat": 38.9453475, "bike_id": "ea897dab4bf9717b618575453922c195", "type": "electric_scooter", "is_reserved": 0, "lon": -77.01694916666666}, {"fusion_lat": 0.0, "name": "716f1c767d4c308fc21cd92b62726086", "is_disabled": 0, "rental_uris": {"android": "https://dc.lft.to/lastmile_qr_scan", "ios": "https://dc.lft.to/lastmile_qr_scan"}, "fusion_lon": 0.0, "lat": 38.9352165, "bike_id": "716f1c767d4c308fc21cd92b62726086", "type": "electric_scooter", "is_reserved": 0, "lon": -77.03087783333334}, {"fusion_lat": 0.0, "name": "a68522b7a6d2b73ea33e83662aae8ca5", "is_disabled": 0, "rental_uris": {"android": "https://dc.lft.to/lastmile_qr_scan", "ios": "https://dc.lft.to/lastmile_qr_scan"}, "fusion_lon": 0.0, "lat": 38.934784, "bike_id": "a68522b7a6d2b73ea33e83662aae8ca5", "type": "electric_scooter", "is_reserved": 0, "lon": -77.030305}, {"fusion_lat": 0.0, "name": "e73b6bc5df49146f6c08e52a531444a9", "is_disabled": 0, "rental_uris": {"android": "https://dc.lft.to/lastmile_qr_scan", "ios": "https://dc.lft.to/lastmile_qr_scan"}, "fusion_lon": 0.0, "lat": 38.90955, "bike_id": "e73b6bc5df49146f6c08e52a531444a9", "type": "electric_scooter", "is_reserved": 0, "lon": -77.02379066666667}, {"fusion_lat": 0.0, "name": "168229b852bfa1f7b22eae1bac40127f", "is_disabled": 0, "rental_uris": {"android": "https://dc.lft.to/lastmile_qr_scan", "ios": "https://dc.lft.to/lastmile_qr_scan"}, "fusion_lon": 0.0, "lat": 38.973676166666664, "bike_id": "168229b852bfa1f7b22eae1bac40127f", "type": "electric_scooter", "is_reserved": 0, "lon": -77.01862416666667}, {"fusion_lat": 0.0, "name": "df20f56fb5942ce7013f64626a8c3ed1", "is_disabled": 0, "rental_uris": {"android": "https://dc.lft.to/lastmile_qr_scan", "ios": "https://dc.lft.to/lastmile_qr_scan"}, "fusion_lon": 0.0, "lat": 38.91411933333333, "bike_id": "df20f56fb5942ce7013f64626a8c3ed1", "type": "electric_scooter", "is_reserved": 0, "lon": -77.03442633333333}, {"fusion_lat": 0.0, "name": "7c6dbb0b4e6bfb9e62b4ce6ab08aa09a", "is_disabled": 0, "rental_uris": {"android": "https://dc.lft.to/lastmile_qr_scan", "ios": "https://dc.lft.to/lastmile_qr_scan"}, "fusion_lon": 0.0, "lat": 38.91276116666667, "bike_id": "7c6dbb0b4e6bfb9e62b4ce6ab08aa09a", "type": "electric_scooter", "is_reserved": 0, "lon": -77.01983366666667}, {"fusion_lat": 0.0, "name": "b5f98cff868a9112dad88aa31140115c", "is_disabled": 0, "rental_uris": {"android": "https://dc.lft.to/lastmile_qr_scan", "ios": "https://dc.lft.to/lastmile_qr_scan"}, "fusion_lon": 0.0, "lat": 38.833149, "bike_id": "b5f98cff868a9112dad88aa31140115c", "type": "electric_bike", "is_reserved": 0, "lon": -77.04171766666667}, {"fusion_lat": 0.0, "name": "39d84a2ab524dc59e9bcca6f8edc975a", "is_disabled": 0, "rental_uris": {"android": "https://dc.lft.to/lastmile_qr_scan", "ios": "https://dc.lft.to/lastmile_qr_scan"}, "fusion_lon": 0.0, "lat": 38.89466066666667, "bike_id": "39d84a2ab524dc59e9bcca6f8edc975a", "type": "electric_scooter", "is_reserved": 0, "lon": -77.010369}, {"fusion_lat": 0.0, "name": "68d8e2c246cd62990413e8404f969ad3", "is_disabled": 0, "rental_uris": {"android": "https://dc.lft.to/lastmile_qr_scan", "ios": "https://dc.lft.to/lastmile_qr_scan"}, "fusion_lon": 0.0, "lat": 38.9074545, "bike_id": "68d8e2c246cd62990413e8404f969ad3", "type": "electric_scooter", "is_reserved": 0, "lon": -77.045539}, {"fusion_lat": 0.0, "name": "39e03d75b1e99ba0c9f2502eff214e6e", "is_disabled": 0, "rental_uris": {"android": "https://dc.lft.to/lastmile_qr_scan", "ios": "https://dc.lft.to/lastmile_qr_scan"}, "fusion_lon": 0.0, "lat": 38.907615666666665, "bike_id": "39e03d75b1e99ba0c9f2502eff214e6e", "type": "electric_scooter", "is_reserved": 0, "lon": -77.05015766666666}, {"fusion_lat": 0.0, "name": "ac06b48d3168c71da90618ae5bf1c7cd", "is_disabled": 0, "rental_uris": {"android": "https://dc.lft.to/lastmile_qr_scan", "ios": "https://dc.lft.to/lastmile_qr_scan"}, "fusion_lon": 0.0, "lat": 38.9351875, "bike_id": "ac06b48d3168c71da90618ae5bf1c7cd", "type": "electric_scooter", "is_reserved": 0, "lon": -77.07276433333334}, {"fusion_lat": 0.0, "name": "69b84c751089aa38de7b005e282cedbd", "is_disabled": 0, "rental_uris": {"android": "https://dc.lft.to/lastmile_qr_scan", "ios": "https://dc.lft.to/lastmile_qr_scan"}, "fusion_lon": 0.0, "lat": 38.84755533333333, "bike_id": "69b84c751089aa38de7b005e282cedbd", "type": "electric_scooter", "is_reserved": 0, "lon": -76.99499433333334}, {"fusion_lat": 0.0, "name": "519f8ecd459370df4526bc20fac66522", "is_disabled": 0, "rental_uris": {"android": "https://dc.lft.to/lastmile_qr_scan", "ios": "https://dc.lft.to/lastmile_qr_scan"}, "fusion_lon": 0.0, "lat": 39.052522, "bike_id": "519f8ecd459370df4526bc20fac66522", "type": "electric_bike", "is_reserved": 0, "lon": -77.0806865}, {"fusion_lat": 0.0, "name": "3620fd550ba64472e43ee4548a3c869f", "is_disabled": 0, "rental_uris": {"android": "https://dc.lft.to/lastmile_qr_scan", "ios": "https://dc.lft.to/lastmile_qr_scan"}, "fusion_lon": 0.0, "lat": 38.894401333333334, "bike_id": "3620fd550ba64472e43ee4548a3c869f", "type": "electric_scooter", "is_reserved": 0, "lon": -76.93678433333334}, {"fusion_lat": 0.0, "name": "5221b2ce2339e516377b1bf0906706f3", "is_disabled": 0, "rental_uris": {"android": "https://dc.lft.to/lastmile_qr_scan", "ios": "https://dc.lft.to/lastmile_qr_scan"}, "fusion_lon": 0.0, "lat": 38.935566666666666, "bike_id": "5221b2ce2339e516377b1bf0906706f3", "type": "electric_bike", "is_reserved": 0, "lon": -77.03699333333333}, {"fusion_lat": 0.0, "name": "07f32c4b32a1173362c8b3a4f77fb0dd", "is_disabled": 0, "rental_uris": {"android": "https://dc.lft.to/lastmile_qr_scan", "ios": "https://dc.lft.to/lastmile_qr_scan"}, "fusion_lon": 0.0, "lat": 38.9141125, "bike_id": "07f32c4b32a1173362c8b3a4f77fb0dd", "type": "electric_scooter", "is_reserved": 0, "lon": -77.02830233333333}, {"fusion_lat": 0.0, "name": "8fbe09272af79b0868ae9f9f2022c329", "is_disabled": 0, "rental_uris": {"android": "https://dc.lft.to/lastmile_qr_scan", "ios": "https://dc.lft.to/lastmile_qr_scan"}, "fusion_lon": 0.0, "lat": 38.89875816666667, "bike_id": "8fbe09272af79b0868ae9f9f2022c329", "type": "electric_scooter", "is_reserved": 0, "lon": -76.9318915}, {"fusion_lat": 0.0, "name": "798754ff5836379fc4db807950fd7f0f", "is_disabled": 0, "rental_uris": {"android": "https://dc.lft.to/lastmile_qr_scan", "ios": "https://dc.lft.to/lastmile_qr_scan"}, "fusion_lon": 0.0, "lat": 38.87191266666667, "bike_id": "798754ff5836379fc4db807950fd7f0f", "type": "electric_scooter", "is_reserved": 0, "lon": -77.0062595}, {"fusion_lat": 0.0, "name": "0e4932d892f0f9ecfd9a75e6f103c872", "is_disabled": 0, "rental_uris": {"android": "https://dc.lft.to/lastmile_qr_scan", "ios": "https://dc.lft.to/lastmile_qr_scan"}, "fusion_lon": 0.0, "lat": 38.896645, "bike_id": "0e4932d892f0f9ecfd9a75e6f103c872", "type": "electric_scooter", "is_reserved": 0, "lon": -76.988426}, {"fusion_lat": 0.0, "name": "b9a1b42039a47d5639ed21d3d9669851", "is_disabled": 0, "rental_uris": {"android": "https://dc.lft.to/lastmile_qr_scan", "ios": "https://dc.lft.to/lastmile_qr_scan"}, "fusion_lon": 0.0, "lat": 38.90532816666666, "bike_id": "b9a1b42039a47d5639ed21d3d9669851", "type": "electric_scooter", "is_reserved": 0, "lon": -77.059385}, {"fusion_lat": 0.0, "name": "e35ebca671881af05fe3ae9eab2d7bdc", "is_disabled": 0, "rental_uris": {"android": "https://dc.lft.to/lastmile_qr_scan", "ios": "https://dc.lft.to/lastmile_qr_scan"}, "fusion_lon": 0.0, "lat": 38.901938333333334, "bike_id": "e35ebca671881af05fe3ae9eab2d7bdc", "type": "electric_scooter", "is_reserved": 0, "lon": -77.03648916666667}, {"fusion_lat": 0.0, "name": "1046ceb4a67e2c3ab12e6336003794cd", "is_disabled": 0, "rental_uris": {"android": "https://dc.lft.to/lastmile_qr_scan", "ios": "https://dc.lft.to/lastmile_qr_scan"}, "fusion_lon": 0.0, "lat": 38.925815166666666, "bike_id": "1046ceb4a67e2c3ab12e6336003794cd", "type": "electric_scooter", "is_reserved": 0, "lon": -77.0374865}, {"fusion_lat": 0.0, "name": "a4258874cb77efa37e3d8bdf4f05a1a2", "is_disabled": 0, "rental_uris": {"android": "https://dc.lft.to/lastmile_qr_scan", "ios": "https://dc.lft.to/lastmile_qr_scan"}, "fusion_lon": 0.0, "lat": 38.92970916666667, "bike_id": "a4258874cb77efa37e3d8bdf4f05a1a2", "type": "electric_bike", "is_reserved": 0, "lon": -77.03778816666667}, {"fusion_lat": 0.0, "name": "a5c88003f7a26f190c8c1ad8686bcb1c", "is_disabled": 0, "rental_uris": {"android": "https://dc.lft.to/lastmile_qr_scan", "ios": "https://dc.lft.to/lastmile_qr_scan"}, "fusion_lon": 0.0, "lat": 38.89724983333333, "bike_id": "a5c88003f7a26f190c8c1ad8686bcb1c", "type": "electric_scooter", "is_reserved": 0, "lon": -77.02141083333333}, {"fusion_lat": 0.0, "name": "a61f49a1fe04322aeb16b46d6fc17409", "is_disabled": 0, "rental_uris": {"android": "https://dc.lft.to/lastmile_qr_scan", "ios": "https://dc.lft.to/lastmile_qr_scan"}, "fusion_lon": 0.0, "lat": 38.899156166666664, "bike_id": "a61f49a1fe04322aeb16b46d6fc17409", "type": "electric_scooter", "is_reserved": 0, "lon": -76.93347266666666}, {"fusion_lat": 0.0, "name": "9acc00826b27677a61dafdc11375d8af", "is_disabled": 0, "rental_uris": {"android": "https://dc.lft.to/lastmile_qr_scan", "ios": "https://dc.lft.to/lastmile_qr_scan"}, "fusion_lon": 0.0, "lat": 38.93407916666666, "bike_id": "9acc00826b27677a61dafdc11375d8af", "type": "electric_scooter", "is_reserved": 0, "lon": -77.0416135}, {"fusion_lat": 0.0, "name": "8db838581c34a6cd30dee2b8f3ca0af6", "is_disabled": 0, "rental_uris": {"android": "https://dc.lft.to/lastmile_qr_scan", "ios": "https://dc.lft.to/lastmile_qr_scan"}, "fusion_lon": 0.0, "lat": 38.914050833333334, "bike_id": "8db838581c34a6cd30dee2b8f3ca0af6", "type": "electric_scooter", "is_reserved": 0, "lon": -77.03174483333333}, {"fusion_lat": 0.0, "name": "4279b9df09663465928d6358b321da92", "is_disabled": 0, "rental_uris": {"android": "https://dc.lft.to/lastmile_qr_scan", "ios": "https://dc.lft.to/lastmile_qr_scan"}, "fusion_lon": 0.0, "lat": 38.9170295, "bike_id": "4279b9df09663465928d6358b321da92", "type": "electric_scooter", "is_reserved": 0, "lon": -77.01134866666666}, {"fusion_lat": 0.0, "name": "63542a38c6eb05e7a6f74adbfa5c138b", "is_disabled": 0, "rental_uris": {"android": "https://dc.lft.to/lastmile_qr_scan", "ios": "https://dc.lft.to/lastmile_qr_scan"}, "fusion_lon": 0.0, "lat": 38.9130025, "bike_id": "63542a38c6eb05e7a6f74adbfa5c138b", "type": "electric_scooter", "is_reserved": 0, "lon": -77.04885916666667}, {"fusion_lat": 0.0, "name": "20df8637fdfff48970b569132b5ecaae", "is_disabled": 0, "rental_uris": {"android": "https://dc.lft.to/lastmile_qr_scan", "ios": "https://dc.lft.to/lastmile_qr_scan"}, "fusion_lon": 0.0, "lat": 38.89285133333333, "bike_id": "20df8637fdfff48970b569132b5ecaae", "type": "electric_scooter", "is_reserved": 0, "lon": -76.98314883333333}, {"fusion_lat": 0.0, "name": "86d8a5bf58e7264513712faac7c67cf6", "is_disabled": 0, "rental_uris": {"android": "https://dc.lft.to/lastmile_qr_scan", "ios": "https://dc.lft.to/lastmile_qr_scan"}, "fusion_lon": 0.0, "lat": 38.804920333333335, "bike_id": "86d8a5bf58e7264513712faac7c67cf6", "type": "electric_bike", "is_reserved": 0, "lon": -77.101621}, {"fusion_lat": 0.0, "name": "5ba4c5bd798db5f8270626bb81655d74", "is_disabled": 0, "rental_uris": {"android": "https://dc.lft.to/lastmile_qr_scan", "ios": "https://dc.lft.to/lastmile_qr_scan"}, "fusion_lon": 0.0, "lat": 38.87386133333333, "bike_id": "5ba4c5bd798db5f8270626bb81655d74", "type": "electric_scooter", "is_reserved": 0, "lon": -77.0004325}, {"fusion_lat": 0.0, "name": "d1516c3a41571f2dcd24eb9714de6da5", "is_disabled": 0, "rental_uris": {"android": "https://dc.lft.to/lastmile_qr_scan", "ios": "https://dc.lft.to/lastmile_qr_scan"}, "fusion_lon": 0.0, "lat": 38.9278725, "bike_id": "d1516c3a41571f2dcd24eb9714de6da5", "type": "electric_scooter", "is_reserved": 0, "lon": -77.0321045}, {"fusion_lat": 0.0, "name": "2d18a3cef9fe7ab31a8c71d993f61585", "is_disabled": 0, "rental_uris": {"android": "https://dc.lft.to/lastmile_qr_scan", "ios": "https://dc.lft.to/lastmile_qr_scan"}, "fusion_lon": 0.0, "lat": 38.91085866666667, "bike_id": "2d18a3cef9fe7ab31a8c71d993f61585", "type": "electric_scooter", "is_reserved": 0, "lon": -77.06502283333333}, {"fusion_lat": 0.0, "name": "cd10e9ff40920cbc849b5425ce15b3d4", "is_disabled": 0, "rental_uris": {"android": "https://dc.lft.to/lastmile_qr_scan", "ios": "https://dc.lft.to/lastmile_qr_scan"}, "fusion_lon": 0.0, "lat": 38.9255525, "bike_id": "cd10e9ff40920cbc849b5425ce15b3d4", "type": "electric_scooter", "is_reserved": 0, "lon": -77.077637}, {"fusion_lat": 0.0, "name": "bfc502e44df7ac59a80c79d4c7132d93", "is_disabled": 0, "rental_uris": {"android": "https://dc.lft.to/lastmile_qr_scan", "ios": "https://dc.lft.to/lastmile_qr_scan"}, "fusion_lon": 0.0, "lat": 38.8783095, "bike_id": "bfc502e44df7ac59a80c79d4c7132d93", "type": "electric_scooter", "is_reserved": 0, "lon": -76.96324516666667}, {"fusion_lat": 0.0, "name": "16eaedf4184b064a86f6e661f5d7633a", "is_disabled": 0, "rental_uris": {"android": "https://dc.lft.to/lastmile_qr_scan", "ios": "https://dc.lft.to/lastmile_qr_scan"}, "fusion_lon": 0.0, "lat": 38.91480766666667, "bike_id": "16eaedf4184b064a86f6e661f5d7633a", "type": "electric_scooter", "is_reserved": 0, "lon": -77.0366935}, {"fusion_lat": 0.0, "name": "114b7896161805cfeddb3a85fabced5d", "is_disabled": 0, "rental_uris": {"android": "https://dc.lft.to/lastmile_qr_scan", "ios": "https://dc.lft.to/lastmile_qr_scan"}, "fusion_lon": 0.0, "lat": 38.91076733333333, "bike_id": "114b7896161805cfeddb3a85fabced5d", "type": "electric_scooter", "is_reserved": 0, "lon": -77.02096116666667}, {"fusion_lat": 0.0, "name": "0b220abeb95ee8b40a98d1b4c0eda067", "is_disabled": 0, "rental_uris": {"android": "https://dc.lft.to/lastmile_qr_scan", "ios": "https://dc.lft.to/lastmile_qr_scan"}, "fusion_lon": 0.0, "lat": 38.921403, "bike_id": "0b220abeb95ee8b40a98d1b4c0eda067", "type": "electric_scooter", "is_reserved": 0, "lon": -77.03407516666667}, {"fusion_lat": 0.0, "name": "051bd9659d1c00b2b1eaa86ab22c0b66", "is_disabled": 0, "rental_uris": {"android": "https://dc.lft.to/lastmile_qr_scan", "ios": "https://dc.lft.to/lastmile_qr_scan"}, "fusion_lon": 0.0, "lat": 38.847548833333335, "bike_id": "051bd9659d1c00b2b1eaa86ab22c0b66", "type": "electric_scooter", "is_reserved": 0, "lon": -76.995042}, {"fusion_lat": 0.0, "name": "f79d72340f48d0471193473689874640", "is_disabled": 0, "rental_uris": {"android": "https://dc.lft.to/lastmile_qr_scan", "ios": "https://dc.lft.to/lastmile_qr_scan"}, "fusion_lon": 0.0, "lat": 38.91580316666666, "bike_id": "f79d72340f48d0471193473689874640", "type": "electric_scooter", "is_reserved": 0, "lon": -77.01234416666667}, {"fusion_lat": 0.0, "name": "16ee1a01dea43981a1e264251aa49f31", "is_disabled": 0, "rental_uris": {"android": "https://dc.lft.to/lastmile_qr_scan", "ios": "https://dc.lft.to/lastmile_qr_scan"}, "fusion_lon": 0.0, "lat": 38.87485733333333, "bike_id": "16ee1a01dea43981a1e264251aa49f31", "type": "electric_scooter", "is_reserved": 0, "lon": -77.00029433333333}, {"fusion_lat": 0.0, "name": "bddd8ccc96cbed5c5b26af2b94ec8a8e", "is_disabled": 0, "rental_uris": {"android": "https://dc.lft.to/lastmile_qr_scan", "ios": "https://dc.lft.to/lastmile_qr_scan"}, "fusion_lon": 0.0, "lat": 38.922730333333334, "bike_id": "bddd8ccc96cbed5c5b26af2b94ec8a8e", "type": "electric_scooter", "is_reserved": 0, "lon": -77.04238466666666}, {"fusion_lat": 0.0, "name": "e8ddb3eae6b62ffc1558feeb826d0e86", "is_disabled": 0, "rental_uris": {"android": "https://dc.lft.to/lastmile_qr_scan", "ios": "https://dc.lft.to/lastmile_qr_scan"}, "fusion_lon": 0.0, "lat": 38.91484533333333, "bike_id": "e8ddb3eae6b62ffc1558feeb826d0e86", "type": "electric_scooter", "is_reserved": 0, "lon": -77.01326166666666}, {"fusion_lat": 0.0, "name": "17e2f736e4eb47be9008d1f65cb17eb7", "is_disabled": 0, "rental_uris": {"android": "https://dc.lft.to/lastmile_qr_scan", "ios": "https://dc.lft.to/lastmile_qr_scan"}, "fusion_lon": 0.0, "lat": 38.900334666666666, "bike_id": "17e2f736e4eb47be9008d1f65cb17eb7", "type": "electric_scooter", "is_reserved": 0, "lon": -77.03205483333333}, {"fusion_lat": 0.0, "name": "0456780191c6648586fafa7c30dbe974", "is_disabled": 0, "rental_uris": {"android": "https://dc.lft.to/lastmile_qr_scan", "ios": "https://dc.lft.to/lastmile_qr_scan"}, "fusion_lon": 0.0, "lat": 38.916687, "bike_id": "0456780191c6648586fafa7c30dbe974", "type": "electric_scooter", "is_reserved": 0, "lon": -77.02979183333333}, {"fusion_lat": 0.0, "name": "74b3a868816cdf689a9cdb431ade554a", "is_disabled": 0, "rental_uris": {"android": "https://dc.lft.to/lastmile_qr_scan", "ios": "https://dc.lft.to/lastmile_qr_scan"}, "fusion_lon": 0.0, "lat": 38.93363033333333, "bike_id": "74b3a868816cdf689a9cdb431ade554a", "type": "electric_scooter", "is_reserved": 0, "lon": -77.03885466666667}, {"fusion_lat": 0.0, "name": "df2350a5c721a5821c9346c2a7d8caa5", "is_disabled": 0, "rental_uris": {"android": "https://dc.lft.to/lastmile_qr_scan", "ios": "https://dc.lft.to/lastmile_qr_scan"}, "fusion_lon": 0.0, "lat": 38.941343333333336, "bike_id": "df2350a5c721a5821c9346c2a7d8caa5", "type": "electric_scooter", "is_reserved": 0, "lon": -77.0060985}, {"fusion_lat": 0.0, "name": "6a9392a1b2836e76f67b72ccb0205f2f", "is_disabled": 0, "rental_uris": {"android": "https://dc.lft.to/lastmile_qr_scan", "ios": "https://dc.lft.to/lastmile_qr_scan"}, "fusion_lon": 0.0, "lat": 38.903382666666666, "bike_id": "6a9392a1b2836e76f67b72ccb0205f2f", "type": "electric_scooter", "is_reserved": 0, "lon": -76.97256466666667}, {"fusion_lat": 0.0, "name": "334e132170f2e83d7d467291da959407", "is_disabled": 0, "rental_uris": {"android": "https://dc.lft.to/lastmile_qr_scan", "ios": "https://dc.lft.to/lastmile_qr_scan"}, "fusion_lon": 0.0, "lat": 38.897395333333336, "bike_id": "334e132170f2e83d7d467291da959407", "type": "electric_scooter", "is_reserved": 0, "lon": -77.0320245}, {"fusion_lat": 0.0, "name": "efabe7478432ab14ac2393dd4053ba23", "is_disabled": 0, "rental_uris": {"android": "https://dc.lft.to/lastmile_qr_scan", "ios": "https://dc.lft.to/lastmile_qr_scan"}, "fusion_lon": 0.0, "lat": 38.916886833333336, "bike_id": "efabe7478432ab14ac2393dd4053ba23", "type": "electric_scooter", "is_reserved": 0, "lon": -77.0321375}, {"fusion_lat": 0.0, "name": "55cdad5e62e4a93416bac6ca3d2f7711", "is_disabled": 0, "rental_uris": {"android": "https://dc.lft.to/lastmile_qr_scan", "ios": "https://dc.lft.to/lastmile_qr_scan"}, "fusion_lon": 0.0, "lat": 38.90972033333333, "bike_id": "55cdad5e62e4a93416bac6ca3d2f7711", "type": "electric_scooter", "is_reserved": 0, "lon": -77.00894533333333}, {"fusion_lat": 0.0, "name": "2a10024bbde5bbbb38d8cb0ca19f9261", "is_disabled": 0, "rental_uris": {"android": "https://dc.lft.to/lastmile_qr_scan", "ios": "https://dc.lft.to/lastmile_qr_scan"}, "fusion_lon": 0.0, "lat": 38.839285333333336, "bike_id": "2a10024bbde5bbbb38d8cb0ca19f9261", "type": "electric_bike", "is_reserved": 0, "lon": -77.079047}, {"fusion_lat": 0.0, "name": "1dc9077f38c241342d7265082266c1cd", "is_disabled": 0, "rental_uris": {"android": "https://dc.lft.to/lastmile_qr_scan", "ios": "https://dc.lft.to/lastmile_qr_scan"}, "fusion_lon": 0.0, "lat": 38.90020716666667, "bike_id": "1dc9077f38c241342d7265082266c1cd", "type": "electric_scooter", "is_reserved": 0, "lon": -77.03026116666666}, {"fusion_lat": 0.0, "name": "e70fe34210ad8c2b91f5bd339c127191", "is_disabled": 0, "rental_uris": {"android": "https://dc.lft.to/lastmile_qr_scan", "ios": "https://dc.lft.to/lastmile_qr_scan"}, "fusion_lon": 0.0, "lat": 38.91989483333333, "bike_id": "e70fe34210ad8c2b91f5bd339c127191", "type": "electric_scooter", "is_reserved": 0, "lon": -77.02175716666666}, {"fusion_lat": 0.0, "name": "e802fe8ffbb23490a3bc768492b077f4", "is_disabled": 0, "rental_uris": {"android": "https://dc.lft.to/lastmile_qr_scan", "ios": "https://dc.lft.to/lastmile_qr_scan"}, "fusion_lon": 0.0, "lat": 38.916005, "bike_id": "e802fe8ffbb23490a3bc768492b077f4", "type": "electric_scooter", "is_reserved": 0, "lon": -77.0321985}, {"fusion_lat": 0.0, "name": "05561e261ab0ab588f964d0f4c76856a", "is_disabled": 0, "rental_uris": {"android": "https://dc.lft.to/lastmile_qr_scan", "ios": "https://dc.lft.to/lastmile_qr_scan"}, "fusion_lon": 0.0, "lat": 38.88752383333333, "bike_id": "05561e261ab0ab588f964d0f4c76856a", "type": "electric_scooter", "is_reserved": 0, "lon": -76.99786566666667}, {"fusion_lat": 0.0, "name": "9134df82f273cd92cef853574e8c632e", "is_disabled": 0, "rental_uris": {"android": "https://dc.lft.to/lastmile_qr_scan", "ios": "https://dc.lft.to/lastmile_qr_scan"}, "fusion_lon": 0.0, "lat": 38.90043416666666, "bike_id": "9134df82f273cd92cef853574e8c632e", "type": "electric_scooter", "is_reserved": 0, "lon": -77.0448845}, {"fusion_lat": 0.0, "name": "13321ad68f429c009cdbad63a8152f7c", "is_disabled": 0, "rental_uris": {"android": "https://dc.lft.to/lastmile_qr_scan", "ios": "https://dc.lft.to/lastmile_qr_scan"}, "fusion_lon": 0.0, "lat": 38.91707733333333, "bike_id": "13321ad68f429c009cdbad63a8152f7c", "type": "electric_scooter", "is_reserved": 0, "lon": -77.02746583333334}, {"fusion_lat": 0.0, "name": "fc39d4d5e6b2cb9ec09aa7a3e79533ae", "is_disabled": 0, "rental_uris": {"android": "https://dc.lft.to/lastmile_qr_scan", "ios": "https://dc.lft.to/lastmile_qr_scan"}, "fusion_lon": 0.0, "lat": 38.9362435, "bike_id": "fc39d4d5e6b2cb9ec09aa7a3e79533ae", "type": "electric_scooter", "is_reserved": 0, "lon": -77.07312233333333}, {"fusion_lat": 0.0, "name": "fdf2eefa93de148c71b763553d9223b8", "is_disabled": 0, "rental_uris": {"android": "https://dc.lft.to/lastmile_qr_scan", "ios": "https://dc.lft.to/lastmile_qr_scan"}, "fusion_lon": 0.0, "lat": 38.94515416666667, "bike_id": "fdf2eefa93de148c71b763553d9223b8", "type": "electric_scooter", "is_reserved": 0, "lon": -77.03894316666667}, {"fusion_lat": 0.0, "name": "43df564f14f24238404b0b98920fc6ce", "is_disabled": 0, "rental_uris": {"android": "https://dc.lft.to/lastmile_qr_scan", "ios": "https://dc.lft.to/lastmile_qr_scan"}, "fusion_lon": 0.0, "lat": 38.847543, "bike_id": "43df564f14f24238404b0b98920fc6ce", "type": "electric_scooter", "is_reserved": 0, "lon": -76.99499983333334}, {"fusion_lat": 0.0, "name": "bc7baf5f1694a8de3bfddeec852cf2e6", "is_disabled": 0, "rental_uris": {"android": "https://dc.lft.to/lastmile_qr_scan", "ios": "https://dc.lft.to/lastmile_qr_scan"}, "fusion_lon": 0.0, "lat": 38.92348033333333, "bike_id": "bc7baf5f1694a8de3bfddeec852cf2e6", "type": "electric_scooter", "is_reserved": 0, "lon": -76.99251766666667}, {"fusion_lat": 0.0, "name": "96528434d01a92d341b93d9a5413316c", "is_disabled": 0, "rental_uris": {"android": "https://dc.lft.to/lastmile_qr_scan", "ios": "https://dc.lft.to/lastmile_qr_scan"}, "fusion_lon": 0.0, "lat": 38.90172833333333, "bike_id": "96528434d01a92d341b93d9a5413316c", "type": "electric_scooter", "is_reserved": 0, "lon": -76.9925555}, {"fusion_lat": 0.0, "name": "38268e4dc9502a3dc9ec8584c99a5893", "is_disabled": 0, "rental_uris": {"android": "https://dc.lft.to/lastmile_qr_scan", "ios": "https://dc.lft.to/lastmile_qr_scan"}, "fusion_lon": 0.0, "lat": 38.91979583333333, "bike_id": "38268e4dc9502a3dc9ec8584c99a5893", "type": "electric_scooter", "is_reserved": 0, "lon": -77.04145516666667}, {"fusion_lat": 0.0, "name": "87efe7ff6923669cf420d8f46a6c19d3", "is_disabled": 0, "rental_uris": {"android": "https://dc.lft.to/lastmile_qr_scan", "ios": "https://dc.lft.to/lastmile_qr_scan"}, "fusion_lon": 0.0, "lat": 38.9170035, "bike_id": "87efe7ff6923669cf420d8f46a6c19d3", "type": "electric_scooter", "is_reserved": 0, "lon": -77.034739}, {"fusion_lat": 0.0, "name": "ff1ea00cbfd70d769d1b9465ee24b404", "is_disabled": 0, "rental_uris": {"android": "https://dc.lft.to/lastmile_qr_scan", "ios": "https://dc.lft.to/lastmile_qr_scan"}, "fusion_lon": 0.0, "lat": 38.901277, "bike_id": "ff1ea00cbfd70d769d1b9465ee24b404", "type": "electric_scooter", "is_reserved": 0, "lon": -77.0261435}, {"fusion_lat": 0.0, "name": "688e9cce726c60a3224f4bad3ee0408e", "is_disabled": 0, "rental_uris": {"android": "https://dc.lft.to/lastmile_qr_scan", "ios": "https://dc.lft.to/lastmile_qr_scan"}, "fusion_lon": 0.0, "lat": 38.90255366666667, "bike_id": "688e9cce726c60a3224f4bad3ee0408e", "type": "electric_scooter", "is_reserved": 0, "lon": -77.04477816666666}, {"fusion_lat": 0.0, "name": "f6885d840d6cdec14c600fd4b4cb5da4", "is_disabled": 0, "rental_uris": {"android": "https://dc.lft.to/lastmile_qr_scan", "ios": "https://dc.lft.to/lastmile_qr_scan"}, "fusion_lon": 0.0, "lat": 38.926543833333334, "bike_id": "f6885d840d6cdec14c600fd4b4cb5da4", "type": "electric_scooter", "is_reserved": 0, "lon": -77.02428133333333}, {"fusion_lat": 0.0, "name": "1a1cad4daa6916eccf2c24b9d07a884b", "is_disabled": 0, "rental_uris": {"android": "https://dc.lft.to/lastmile_qr_scan", "ios": "https://dc.lft.to/lastmile_qr_scan"}, "fusion_lon": 0.0, "lat": 38.9297615, "bike_id": "1a1cad4daa6916eccf2c24b9d07a884b", "type": "electric_scooter", "is_reserved": 0, "lon": -77.03234433333333}, {"fusion_lat": 0.0, "name": "2620d370efadd6ca17e9b14f88aca1c5", "is_disabled": 0, "rental_uris": {"android": "https://dc.lft.to/lastmile_qr_scan", "ios": "https://dc.lft.to/lastmile_qr_scan"}, "fusion_lon": 0.0, "lat": 38.8876505, "bike_id": "2620d370efadd6ca17e9b14f88aca1c5", "type": "electric_scooter", "is_reserved": 0, "lon": -76.97750483333333}, {"fusion_lat": 0.0, "name": "db7eca79e5391023f9d8d10e02c4617c", "is_disabled": 0, "rental_uris": {"android": "https://dc.lft.to/lastmile_qr_scan", "ios": "https://dc.lft.to/lastmile_qr_scan"}, "fusion_lon": 0.0, "lat": 38.90504216666667, "bike_id": "db7eca79e5391023f9d8d10e02c4617c", "type": "electric_scooter", "is_reserved": 0, "lon": -77.03477316666667}, {"fusion_lat": 0.0, "name": "99d995c2d5170a74d356d0b7e2c91d45", "is_disabled": 0, "rental_uris": {"android": "https://dc.lft.to/lastmile_qr_scan", "ios": "https://dc.lft.to/lastmile_qr_scan"}, "fusion_lon": 0.0, "lat": 38.854608, "bike_id": "99d995c2d5170a74d356d0b7e2c91d45", "type": "electric_scooter", "is_reserved": 0, "lon": -76.97230116666667}, {"fusion_lat": 0.0, "name": "9e2475e6be7e57a8823dac165bf114e3", "is_disabled": 0, "rental_uris": {"android": "https://dc.lft.to/lastmile_qr_scan", "ios": "https://dc.lft.to/lastmile_qr_scan"}, "fusion_lon": 0.0, "lat": 38.89708133333333, "bike_id": "9e2475e6be7e57a8823dac165bf114e3", "type": "electric_scooter", "is_reserved": 0, "lon": -77.02627216666667}, {"fusion_lat": 0.0, "name": "e7e44fa02ba2a891d575e5e6905e7e35", "is_disabled": 0, "rental_uris": {"android": "https://dc.lft.to/lastmile_qr_scan", "ios": "https://dc.lft.to/lastmile_qr_scan"}, "fusion_lon": 0.0, "lat": 38.9287725, "bike_id": "e7e44fa02ba2a891d575e5e6905e7e35", "type": "electric_scooter", "is_reserved": 0, "lon": -77.03362783333333}, {"fusion_lat": 0.0, "name": "e11434d241cf3e53e97c541c7c0ccf46", "is_disabled": 0, "rental_uris": {"android": "https://dc.lft.to/lastmile_qr_scan", "ios": "https://dc.lft.to/lastmile_qr_scan"}, "fusion_lon": 0.0, "lat": 38.87931666666667, "bike_id": "e11434d241cf3e53e97c541c7c0ccf46", "type": "electric_scooter", "is_reserved": 0, "lon": -77.00786766666667}, {"fusion_lat": 0.0, "name": "01738789ac263336ded15da73c638cde", "is_disabled": 0, "rental_uris": {"android": "https://dc.lft.to/lastmile_qr_scan", "ios": "https://dc.lft.to/lastmile_qr_scan"}, "fusion_lon": 0.0, "lat": 38.912279833333336, "bike_id": "01738789ac263336ded15da73c638cde", "type": "electric_scooter", "is_reserved": 0, "lon": -77.038482}, {"fusion_lat": 0.0, "name": "b2c1baf68559d14db93daab1f0b1e1b9", "is_disabled": 0, "rental_uris": {"android": "https://dc.lft.to/lastmile_qr_scan", "ios": "https://dc.lft.to/lastmile_qr_scan"}, "fusion_lon": 0.0, "lat": 38.915155666666664, "bike_id": "b2c1baf68559d14db93daab1f0b1e1b9", "type": "electric_scooter", "is_reserved": 0, "lon": -77.04166616666667}, {"fusion_lat": 0.0, "name": "886a5888443395259400e34489b02891", "is_disabled": 0, "rental_uris": {"android": "https://dc.lft.to/lastmile_qr_scan", "ios": "https://dc.lft.to/lastmile_qr_scan"}, "fusion_lon": 0.0, "lat": 38.88148316666667, "bike_id": "886a5888443395259400e34489b02891", "type": "electric_scooter", "is_reserved": 0, "lon": -77.0267885}, {"fusion_lat": 0.0, "name": "2d40675ab071d4640442e00cb42cd6f7", "is_disabled": 0, "rental_uris": {"android": "https://dc.lft.to/lastmile_qr_scan", "ios": "https://dc.lft.to/lastmile_qr_scan"}, "fusion_lon": 0.0, "lat": 38.92063666666667, "bike_id": "2d40675ab071d4640442e00cb42cd6f7", "type": "electric_scooter", "is_reserved": 0, "lon": -77.02365533333334}, {"fusion_lat": 0.0, "name": "299c54240af2615a4736cfc7cf3a4681", "is_disabled": 0, "rental_uris": {"android": "https://dc.lft.to/lastmile_qr_scan", "ios": "https://dc.lft.to/lastmile_qr_scan"}, "fusion_lon": 0.0, "lat": 38.862055833333336, "bike_id": "299c54240af2615a4736cfc7cf3a4681", "type": "electric_scooter", "is_reserved": 0, "lon": -76.994725}, {"fusion_lat": 0.0, "name": "3515ee87598b52412da5de7803a27454", "is_disabled": 0, "rental_uris": {"android": "https://dc.lft.to/lastmile_qr_scan", "ios": "https://dc.lft.to/lastmile_qr_scan"}, "fusion_lon": 0.0, "lat": 39.036054, "bike_id": "3515ee87598b52412da5de7803a27454", "type": "electric_bike", "is_reserved": 0, "lon": -77.05558333333333}, {"fusion_lat": 0.0, "name": "dfd39de191c2256f0e7f190bd37962cc", "is_disabled": 0, "rental_uris": {"android": "https://dc.lft.to/lastmile_qr_scan", "ios": "https://dc.lft.to/lastmile_qr_scan"}, "fusion_lon": 0.0, "lat": 38.92086316666666, "bike_id": "dfd39de191c2256f0e7f190bd37962cc", "type": "electric_bike", "is_reserved": 0, "lon": -77.07176333333334}, {"fusion_lat": 0.0, "name": "f30cd6140803594f6c85bfb86caaf69f", "is_disabled": 0, "rental_uris": {"android": "https://dc.lft.to/lastmile_qr_scan", "ios": "https://dc.lft.to/lastmile_qr_scan"}, "fusion_lon": 0.0, "lat": 38.9263995, "bike_id": "f30cd6140803594f6c85bfb86caaf69f", "type": "electric_scooter", "is_reserved": 0, "lon": -77.03853416666666}, {"fusion_lat": 0.0, "name": "6c2d8e3e83e211741b18398f5e3e8268", "is_disabled": 0, "rental_uris": {"android": "https://dc.lft.to/lastmile_qr_scan", "ios": "https://dc.lft.to/lastmile_qr_scan"}, "fusion_lon": 0.0, "lat": 38.8621995, "bike_id": "6c2d8e3e83e211741b18398f5e3e8268", "type": "electric_bike", "is_reserved": 0, "lon": -76.99567083333334}, {"fusion_lat": 0.0, "name": "6a6148d08a1b94107078f48e821cd6d9", "is_disabled": 0, "rental_uris": {"android": "https://dc.lft.to/lastmile_qr_scan", "ios": "https://dc.lft.to/lastmile_qr_scan"}, "fusion_lon": 0.0, "lat": 38.92144416666667, "bike_id": "6a6148d08a1b94107078f48e821cd6d9", "type": "electric_scooter", "is_reserved": 0, "lon": -77.04224783333333}, {"fusion_lat": 0.0, "name": "d1f6a2e10ed45d23fee2d7e6ffee1885", "is_disabled": 0, "rental_uris": {"android": "https://dc.lft.to/lastmile_qr_scan", "ios": "https://dc.lft.to/lastmile_qr_scan"}, "fusion_lon": 0.0, "lat": 38.9084565, "bike_id": "d1f6a2e10ed45d23fee2d7e6ffee1885", "type": "electric_scooter", "is_reserved": 0, "lon": -77.06379266666667}, {"fusion_lat": 0.0, "name": "297da7187c28827ef5b40c7006c0b3ab", "is_disabled": 0, "rental_uris": {"android": "https://dc.lft.to/lastmile_qr_scan", "ios": "https://dc.lft.to/lastmile_qr_scan"}, "fusion_lon": 0.0, "lat": 38.914053, "bike_id": "297da7187c28827ef5b40c7006c0b3ab", "type": "electric_scooter", "is_reserved": 0, "lon": -77.0322925}, {"fusion_lat": 0.0, "name": "5327541fddd198a41d3b6984bfbb22b0", "is_disabled": 0, "rental_uris": {"android": "https://dc.lft.to/lastmile_qr_scan", "ios": "https://dc.lft.to/lastmile_qr_scan"}, "fusion_lon": 0.0, "lat": 38.89850083333333, "bike_id": "5327541fddd198a41d3b6984bfbb22b0", "type": "electric_scooter", "is_reserved": 0, "lon": -77.02977116666666}, {"fusion_lat": 0.0, "name": "bda345df2bcc566d9e7b920b7a772127", "is_disabled": 0, "rental_uris": {"android": "https://dc.lft.to/lastmile_qr_scan", "ios": "https://dc.lft.to/lastmile_qr_scan"}, "fusion_lon": 0.0, "lat": 38.90765016666667, "bike_id": "bda345df2bcc566d9e7b920b7a772127", "type": "electric_scooter", "is_reserved": 0, "lon": -77.05652033333334}, {"fusion_lat": 0.0, "name": "1c5c1d34cf56ecffabc62898108355e3", "is_disabled": 0, "rental_uris": {"android": "https://dc.lft.to/lastmile_qr_scan", "ios": "https://dc.lft.to/lastmile_qr_scan"}, "fusion_lon": 0.0, "lat": 38.881446833333335, "bike_id": "1c5c1d34cf56ecffabc62898108355e3", "type": "electric_scooter", "is_reserved": 0, "lon": -76.99501516666666}, {"fusion_lat": 0.0, "name": "52ec41b257472ab3e2c04cc72ed4c50f", "is_disabled": 0, "rental_uris": {"android": "https://dc.lft.to/lastmile_qr_scan", "ios": "https://dc.lft.to/lastmile_qr_scan"}, "fusion_lon": 0.0, "lat": 38.797587, "bike_id": "52ec41b257472ab3e2c04cc72ed4c50f", "type": "electric_bike", "is_reserved": 0, "lon": -77.04751166666667}, {"fusion_lat": 0.0, "name": "9764cacd100d572f34156ca8bd37ef9b", "is_disabled": 0, "rental_uris": {"android": "https://dc.lft.to/lastmile_qr_scan", "ios": "https://dc.lft.to/lastmile_qr_scan"}, "fusion_lon": 0.0, "lat": 38.92224083333333, "bike_id": "9764cacd100d572f34156ca8bd37ef9b", "type": "electric_scooter", "is_reserved": 0, "lon": -77.02368633333333}, {"fusion_lat": 0.0, "name": "39e91d454df9aa2bc4c402bb6207d79d", "is_disabled": 0, "rental_uris": {"android": "https://dc.lft.to/lastmile_qr_scan", "ios": "https://dc.lft.to/lastmile_qr_scan"}, "fusion_lon": 0.0, "lat": 38.82791066666667, "bike_id": "39e91d454df9aa2bc4c402bb6207d79d", "type": "electric_bike", "is_reserved": 0, "lon": -77.1249115}, {"fusion_lat": 0.0, "name": "867de78ee48c728670e57bc018a07cac", "is_disabled": 0, "rental_uris": {"android": "https://dc.lft.to/lastmile_qr_scan", "ios": "https://dc.lft.to/lastmile_qr_scan"}, "fusion_lon": 0.0, "lat": 38.939600166666665, "bike_id": "867de78ee48c728670e57bc018a07cac", "type": "electric_scooter", "is_reserved": 0, "lon": -77.032894}, {"fusion_lat": 0.0, "name": "e7228e5384ce552c5a9a9ddc31bcaba9", "is_disabled": 0, "rental_uris": {"android": "https://dc.lft.to/lastmile_qr_scan", "ios": "https://dc.lft.to/lastmile_qr_scan"}, "fusion_lon": 0.0, "lat": 38.9111505, "bike_id": "e7228e5384ce552c5a9a9ddc31bcaba9", "type": "electric_scooter", "is_reserved": 0, "lon": -77.08134283333334}, {"fusion_lat": 0.0, "name": "73d15d76266010666ed6dd57a818132d", "is_disabled": 0, "rental_uris": {"android": "https://dc.lft.to/lastmile_qr_scan", "ios": "https://dc.lft.to/lastmile_qr_scan"}, "fusion_lon": 0.0, "lat": 38.95584066666667, "bike_id": "73d15d76266010666ed6dd57a818132d", "type": "electric_scooter", "is_reserved": 0, "lon": -77.02812283333333}, {"fusion_lat": 0.0, "name": "bffe406b63bb08b3f55ba44dad8257a9", "is_disabled": 0, "rental_uris": {"android": "https://dc.lft.to/lastmile_qr_scan", "ios": "https://dc.lft.to/lastmile_qr_scan"}, "fusion_lon": 0.0, "lat": 38.91580233333333, "bike_id": "bffe406b63bb08b3f55ba44dad8257a9", "type": "electric_scooter", "is_reserved": 0, "lon": -77.01238816666667}, {"fusion_lat": 0.0, "name": "1976e4db685956fed25ee8f4384b9e0c", "is_disabled": 0, "rental_uris": {"android": "https://dc.lft.to/lastmile_qr_scan", "ios": "https://dc.lft.to/lastmile_qr_scan"}, "fusion_lon": 0.0, "lat": 38.844215, "bike_id": "1976e4db685956fed25ee8f4384b9e0c", "type": "electric_scooter", "is_reserved": 0, "lon": -76.99786733333333}, {"fusion_lat": 0.0, "name": "de94054abe747a2501caa44ef9c3fabd", "is_disabled": 0, "rental_uris": {"android": "https://dc.lft.to/lastmile_qr_scan", "ios": "https://dc.lft.to/lastmile_qr_scan"}, "fusion_lon": 0.0, "lat": 38.87474016666667, "bike_id": "de94054abe747a2501caa44ef9c3fabd", "type": "electric_scooter", "is_reserved": 0, "lon": -77.00467833333333}, {"fusion_lat": 0.0, "name": "c56b7e74aec98b70eb939fb0a3030328", "is_disabled": 0, "rental_uris": {"android": "https://dc.lft.to/lastmile_qr_scan", "ios": "https://dc.lft.to/lastmile_qr_scan"}, "fusion_lon": 0.0, "lat": 38.87668, "bike_id": "c56b7e74aec98b70eb939fb0a3030328", "type": "electric_scooter", "is_reserved": 0, "lon": -77.00287283333333}, {"fusion_lat": 0.0, "name": "3ae7a4e9fa94ccf48b7ec5d6d3b90712", "is_disabled": 0, "rental_uris": {"android": "https://dc.lft.to/lastmile_qr_scan", "ios": "https://dc.lft.to/lastmile_qr_scan"}, "fusion_lon": 0.0, "lat": 38.91404683333333, "bike_id": "3ae7a4e9fa94ccf48b7ec5d6d3b90712", "type": "electric_scooter", "is_reserved": 0, "lon": -77.03217916666667}, {"fusion_lat": 0.0, "name": "9dec03adcfffa61abac333edaa6858e1", "is_disabled": 0, "rental_uris": {"android": "https://dc.lft.to/lastmile_qr_scan", "ios": "https://dc.lft.to/lastmile_qr_scan"}, "fusion_lon": 0.0, "lat": 38.920778166666665, "bike_id": "9dec03adcfffa61abac333edaa6858e1", "type": "electric_scooter", "is_reserved": 0, "lon": -77.02307333333333}, {"fusion_lat": 0.0, "name": "43a9fe54b42a2b36cecba70f81d06698", "is_disabled": 0, "rental_uris": {"android": "https://dc.lft.to/lastmile_qr_scan", "ios": "https://dc.lft.to/lastmile_qr_scan"}, "fusion_lon": 0.0, "lat": 38.88505816666667, "bike_id": "43a9fe54b42a2b36cecba70f81d06698", "type": "electric_scooter", "is_reserved": 0, "lon": -77.01745316666667}, {"fusion_lat": 0.0, "name": "2c4c68707117fab1f76b2f58aaeccfa4", "is_disabled": 0, "rental_uris": {"android": "https://dc.lft.to/lastmile_qr_scan", "ios": "https://dc.lft.to/lastmile_qr_scan"}, "fusion_lon": 0.0, "lat": 38.902365333333336, "bike_id": "2c4c68707117fab1f76b2f58aaeccfa4", "type": "electric_scooter", "is_reserved": 0, "lon": -77.01615616666666}, {"fusion_lat": 0.0, "name": "bb1729d42e3a2568535d405a9f2f25ea", "is_disabled": 0, "rental_uris": {"android": "https://dc.lft.to/lastmile_qr_scan", "ios": "https://dc.lft.to/lastmile_qr_scan"}, "fusion_lon": 0.0, "lat": 38.9405105, "bike_id": "bb1729d42e3a2568535d405a9f2f25ea", "type": "electric_bike", "is_reserved": 0, "lon": -76.9042375}, {"fusion_lat": 0.0, "name": "dbfa9ba7320bda894cacc3c466df8ae0", "is_disabled": 0, "rental_uris": {"android": "https://dc.lft.to/lastmile_qr_scan", "ios": "https://dc.lft.to/lastmile_qr_scan"}, "fusion_lon": 0.0, "lat": 38.876712, "bike_id": "dbfa9ba7320bda894cacc3c466df8ae0", "type": "electric_scooter", "is_reserved": 0, "lon": -77.00803866666666}, {"fusion_lat": 0.0, "name": "dde85c2280774205cf60792c362f9b13", "is_disabled": 0, "rental_uris": {"android": "https://dc.lft.to/lastmile_qr_scan", "ios": "https://dc.lft.to/lastmile_qr_scan"}, "fusion_lon": 0.0, "lat": 38.9944195, "bike_id": "dde85c2280774205cf60792c362f9b13", "type": "electric_bike", "is_reserved": 0, "lon": -76.9959185}, {"fusion_lat": 0.0, "name": "8bec585c7da6d97916174d55495b0d26", "is_disabled": 0, "rental_uris": {"android": "https://dc.lft.to/lastmile_qr_scan", "ios": "https://dc.lft.to/lastmile_qr_scan"}, "fusion_lon": 0.0, "lat": 38.87961, "bike_id": "8bec585c7da6d97916174d55495b0d26", "type": "electric_scooter", "is_reserved": 0, "lon": -77.02412266666667}, {"fusion_lat": 0.0, "name": "5b31ff508f8f71462ee329977143ecc7", "is_disabled": 0, "rental_uris": {"android": "https://dc.lft.to/lastmile_qr_scan", "ios": "https://dc.lft.to/lastmile_qr_scan"}, "fusion_lon": 0.0, "lat": 38.901231833333334, "bike_id": "5b31ff508f8f71462ee329977143ecc7", "type": "electric_scooter", "is_reserved": 0, "lon": -77.01690216666667}, {"fusion_lat": 0.0, "name": "1bbc1a7f82640bacff1ddc0c154f6e51", "is_disabled": 0, "rental_uris": {"android": "https://dc.lft.to/lastmile_qr_scan", "ios": "https://dc.lft.to/lastmile_qr_scan"}, "fusion_lon": 0.0, "lat": 38.9154595, "bike_id": "1bbc1a7f82640bacff1ddc0c154f6e51", "type": "electric_scooter", "is_reserved": 0, "lon": -77.03212966666666}, {"fusion_lat": 0.0, "name": "bf7899923dc04536d50ec27774f972c6", "is_disabled": 0, "rental_uris": {"android": "https://dc.lft.to/lastmile_qr_scan", "ios": "https://dc.lft.to/lastmile_qr_scan"}, "fusion_lon": 0.0, "lat": 38.89835633333333, "bike_id": "bf7899923dc04536d50ec27774f972c6", "type": "electric_scooter", "is_reserved": 0, "lon": -77.02263183333334}, {"fusion_lat": 0.0, "name": "f2da0520d67eb0825e47542823093bf3", "is_disabled": 0, "rental_uris": {"android": "https://dc.lft.to/lastmile_qr_scan", "ios": "https://dc.lft.to/lastmile_qr_scan"}, "fusion_lon": 0.0, "lat": 38.8885925, "bike_id": "f2da0520d67eb0825e47542823093bf3", "type": "electric_bike", "is_reserved": 0, "lon": -77.00184866666666}, {"fusion_lat": 0.0, "name": "a21c81e5830b61a77f98e5a375a70979", "is_disabled": 0, "rental_uris": {"android": "https://dc.lft.to/lastmile_qr_scan", "ios": "https://dc.lft.to/lastmile_qr_scan"}, "fusion_lon": 0.0, "lat": 38.90304583333333, "bike_id": "a21c81e5830b61a77f98e5a375a70979", "type": "electric_scooter", "is_reserved": 0, "lon": -76.976553}, {"fusion_lat": 0.0, "name": "eb2225b515e461f61e22dac8c2e8eba8", "is_disabled": 0, "rental_uris": {"android": "https://dc.lft.to/lastmile_qr_scan", "ios": "https://dc.lft.to/lastmile_qr_scan"}, "fusion_lon": 0.0, "lat": 38.90389, "bike_id": "eb2225b515e461f61e22dac8c2e8eba8", "type": "electric_scooter", "is_reserved": 0, "lon": -77.03300383333334}, {"fusion_lat": 0.0, "name": "d6b8fe475fd9f269357c5573304c5214", "is_disabled": 0, "rental_uris": {"android": "https://dc.lft.to/lastmile_qr_scan", "ios": "https://dc.lft.to/lastmile_qr_scan"}, "fusion_lon": 0.0, "lat": 38.92804616666667, "bike_id": "d6b8fe475fd9f269357c5573304c5214", "type": "electric_scooter", "is_reserved": 0, "lon": -77.0436075}, {"fusion_lat": 0.0, "name": "026854178192989f741f0938d8d7b7ae", "is_disabled": 0, "rental_uris": {"android": "https://dc.lft.to/lastmile_qr_scan", "ios": "https://dc.lft.to/lastmile_qr_scan"}, "fusion_lon": 0.0, "lat": 38.876516, "bike_id": "026854178192989f741f0938d8d7b7ae", "type": "electric_scooter", "is_reserved": 0, "lon": -77.007616}, {"fusion_lat": 0.0, "name": "04dff8f88fc06225c752d1fd4bae7055", "is_disabled": 0, "rental_uris": {"android": "https://dc.lft.to/lastmile_qr_scan", "ios": "https://dc.lft.to/lastmile_qr_scan"}, "fusion_lon": 0.0, "lat": 38.8651015, "bike_id": "04dff8f88fc06225c752d1fd4bae7055", "type": "electric_bike", "is_reserved": 0, "lon": -76.97327783333333}, {"fusion_lat": 0.0, "name": "106c2345db479b1bba0f08dd2f1149ef", "is_disabled": 0, "rental_uris": {"android": "https://dc.lft.to/lastmile_qr_scan", "ios": "https://dc.lft.to/lastmile_qr_scan"}, "fusion_lon": 0.0, "lat": 38.849150333333334, "bike_id": "106c2345db479b1bba0f08dd2f1149ef", "type": "electric_bike", "is_reserved": 0, "lon": -77.09991616666667}, {"fusion_lat": 0.0, "name": "eacb50267270479a2f1b0fd7cf17b032", "is_disabled": 0, "rental_uris": {"android": "https://dc.lft.to/lastmile_qr_scan", "ios": "https://dc.lft.to/lastmile_qr_scan"}, "fusion_lon": 0.0, "lat": 38.903577, "bike_id": "eacb50267270479a2f1b0fd7cf17b032", "type": "electric_scooter", "is_reserved": 0, "lon": -77.06272683333333}, {"fusion_lat": 0.0, "name": "6ba4f894541b4418daa1e8f2b6c541f6", "is_disabled": 0, "rental_uris": {"android": "https://dc.lft.to/lastmile_qr_scan", "ios": "https://dc.lft.to/lastmile_qr_scan"}, "fusion_lon": 0.0, "lat": 38.87690333333333, "bike_id": "6ba4f894541b4418daa1e8f2b6c541f6", "type": "electric_scooter", "is_reserved": 0, "lon": -77.00749616666667}, {"fusion_lat": 0.0, "name": "e498515d4912d8449b1c8263c0b2b930", "is_disabled": 0, "rental_uris": {"android": "https://dc.lft.to/lastmile_qr_scan", "ios": "https://dc.lft.to/lastmile_qr_scan"}, "fusion_lon": 0.0, "lat": 38.969255833333335, "bike_id": "e498515d4912d8449b1c8263c0b2b930", "type": "electric_bike", "is_reserved": 0, "lon": -77.02618316666667}, {"fusion_lat": 0.0, "name": "a08a242b57e3cc7951e2176e7f146c31", "is_disabled": 0, "rental_uris": {"android": "https://dc.lft.to/lastmile_qr_scan", "ios": "https://dc.lft.to/lastmile_qr_scan"}, "fusion_lon": 0.0, "lat": 38.90657783333333, "bike_id": "a08a242b57e3cc7951e2176e7f146c31", "type": "electric_scooter", "is_reserved": 0, "lon": -77.0485635}, {"fusion_lat": 0.0, "name": "aeb648e99e0783f26f496e747d2c991e", "is_disabled": 0, "rental_uris": {"android": "https://dc.lft.to/lastmile_qr_scan", "ios": "https://dc.lft.to/lastmile_qr_scan"}, "fusion_lon": 0.0, "lat": 38.8985275, "bike_id": "aeb648e99e0783f26f496e747d2c991e", "type": "electric_scooter", "is_reserved": 0, "lon": -77.02218366666666}, {"fusion_lat": 0.0, "name": "eb30aacc2dba2892fb83bd2336170ebc", "is_disabled": 0, "rental_uris": {"android": "https://dc.lft.to/lastmile_qr_scan", "ios": "https://dc.lft.to/lastmile_qr_scan"}, "fusion_lon": 0.0, "lat": 38.8971335, "bike_id": "eb30aacc2dba2892fb83bd2336170ebc", "type": "electric_scooter", "is_reserved": 0, "lon": -77.02367333333333}, {"fusion_lat": 0.0, "name": "5726047853225a3e47ef383dffaa01dd", "is_disabled": 0, "rental_uris": {"android": "https://dc.lft.to/lastmile_qr_scan", "ios": "https://dc.lft.to/lastmile_qr_scan"}, "fusion_lon": 0.0, "lat": 38.9115875, "bike_id": "5726047853225a3e47ef383dffaa01dd", "type": "electric_scooter", "is_reserved": 0, "lon": -76.98719233333334}, {"fusion_lat": 0.0, "name": "385b5aa9b2b5135cf5cb9c88ee5900eb", "is_disabled": 0, "rental_uris": {"android": "https://dc.lft.to/lastmile_qr_scan", "ios": "https://dc.lft.to/lastmile_qr_scan"}, "fusion_lon": 0.0, "lat": 38.917720333333335, "bike_id": "385b5aa9b2b5135cf5cb9c88ee5900eb", "type": "electric_scooter", "is_reserved": 0, "lon": -77.01509866666666}, {"fusion_lat": 0.0, "name": "86ee4c0d2f4661aae0ebc4201a23f89a", "is_disabled": 0, "rental_uris": {"android": "https://dc.lft.to/lastmile_qr_scan", "ios": "https://dc.lft.to/lastmile_qr_scan"}, "fusion_lon": 0.0, "lat": 38.903972833333334, "bike_id": "86ee4c0d2f4661aae0ebc4201a23f89a", "type": "electric_scooter", "is_reserved": 0, "lon": -77.03654416666667}, {"fusion_lat": 0.0, "name": "ebe6fe8fef4b454e2826f1a81acc25cb", "is_disabled": 0, "rental_uris": {"android": "https://dc.lft.to/lastmile_qr_scan", "ios": "https://dc.lft.to/lastmile_qr_scan"}, "fusion_lon": 0.0, "lat": 38.9149035, "bike_id": "ebe6fe8fef4b454e2826f1a81acc25cb", "type": "electric_scooter", "is_reserved": 0, "lon": -77.01417483333333}, {"fusion_lat": 0.0, "name": "970a4864e0e7812ffeb670b0e653d453", "is_disabled": 0, "rental_uris": {"android": "https://dc.lft.to/lastmile_qr_scan", "ios": "https://dc.lft.to/lastmile_qr_scan"}, "fusion_lon": 0.0, "lat": 38.895058166666665, "bike_id": "970a4864e0e7812ffeb670b0e653d453", "type": "electric_scooter", "is_reserved": 0, "lon": -77.04177866666667}, {"fusion_lat": 0.0, "name": "49886082116b8094f863d187eb6e6d9f", "is_disabled": 0, "rental_uris": {"android": "https://dc.lft.to/lastmile_qr_scan", "ios": "https://dc.lft.to/lastmile_qr_scan"}, "fusion_lon": 0.0, "lat": 38.87999083333333, "bike_id": "49886082116b8094f863d187eb6e6d9f", "type": "electric_scooter", "is_reserved": 0, "lon": -76.98547083333334}, {"fusion_lat": 0.0, "name": "dbfa29c916b4712275c40293fa5f77c9", "is_disabled": 0, "rental_uris": {"android": "https://dc.lft.to/lastmile_qr_scan", "ios": "https://dc.lft.to/lastmile_qr_scan"}, "fusion_lon": 0.0, "lat": 38.90033233333333, "bike_id": "dbfa29c916b4712275c40293fa5f77c9", "type": "electric_scooter", "is_reserved": 0, "lon": -76.99923766666667}, {"fusion_lat": 0.0, "name": "631529081a7ea83934275ba89b3e4885", "is_disabled": 0, "rental_uris": {"android": "https://dc.lft.to/lastmile_qr_scan", "ios": "https://dc.lft.to/lastmile_qr_scan"}, "fusion_lon": 0.0, "lat": 38.923148833333336, "bike_id": "631529081a7ea83934275ba89b3e4885", "type": "electric_scooter", "is_reserved": 0, "lon": -77.04623933333333}, {"fusion_lat": 0.0, "name": "3ca6cc2a995a4b2389a140b1e4b20f23", "is_disabled": 0, "rental_uris": {"android": "https://dc.lft.to/lastmile_qr_scan", "ios": "https://dc.lft.to/lastmile_qr_scan"}, "fusion_lon": 0.0, "lat": 38.90577233333333, "bike_id": "3ca6cc2a995a4b2389a140b1e4b20f23", "type": "electric_scooter", "is_reserved": 0, "lon": -77.03423816666667}, {"fusion_lat": 0.0, "name": "caf46f1994959af1fb5bed6eabcfee91", "is_disabled": 0, "rental_uris": {"android": "https://dc.lft.to/lastmile_qr_scan", "ios": "https://dc.lft.to/lastmile_qr_scan"}, "fusion_lon": 0.0, "lat": 38.920768833333334, "bike_id": "caf46f1994959af1fb5bed6eabcfee91", "type": "electric_scooter", "is_reserved": 0, "lon": -77.04068883333333}, {"fusion_lat": 0.0, "name": "4406c0b42ebb33ed057229088b52dd6e", "is_disabled": 0, "rental_uris": {"android": "https://dc.lft.to/lastmile_qr_scan", "ios": "https://dc.lft.to/lastmile_qr_scan"}, "fusion_lon": 0.0, "lat": 38.874423666666665, "bike_id": "4406c0b42ebb33ed057229088b52dd6e", "type": "electric_scooter", "is_reserved": 0, "lon": -77.018731}, {"fusion_lat": 0.0, "name": "927de426527c48c68dbe156b0897009f", "is_disabled": 0, "rental_uris": {"android": "https://dc.lft.to/lastmile_qr_scan", "ios": "https://dc.lft.to/lastmile_qr_scan"}, "fusion_lon": 0.0, "lat": 38.875923, "bike_id": "927de426527c48c68dbe156b0897009f", "type": "electric_scooter", "is_reserved": 0, "lon": -77.0057765}, {"fusion_lat": 0.0, "name": "bb2446d528a36c8e67b319bef28cedf4", "is_disabled": 0, "rental_uris": {"android": "https://dc.lft.to/lastmile_qr_scan", "ios": "https://dc.lft.to/lastmile_qr_scan"}, "fusion_lon": 0.0, "lat": 38.92264216666667, "bike_id": "bb2446d528a36c8e67b319bef28cedf4", "type": "electric_scooter", "is_reserved": 0, "lon": -76.99428833333333}, {"fusion_lat": 0.0, "name": "92e3964c9c2553c0c31f30b2195bbdfa", "is_disabled": 0, "rental_uris": {"android": "https://dc.lft.to/lastmile_qr_scan", "ios": "https://dc.lft.to/lastmile_qr_scan"}, "fusion_lon": 0.0, "lat": 38.923672333333336, "bike_id": "92e3964c9c2553c0c31f30b2195bbdfa", "type": "electric_scooter", "is_reserved": 0, "lon": -77.081543}, {"fusion_lat": 0.0, "name": "c75d5a94ab3117cbda380ebb44081def", "is_disabled": 0, "rental_uris": {"android": "https://dc.lft.to/lastmile_qr_scan", "ios": "https://dc.lft.to/lastmile_qr_scan"}, "fusion_lon": 0.0, "lat": 38.90258033333333, "bike_id": "c75d5a94ab3117cbda380ebb44081def", "type": "electric_scooter", "is_reserved": 0, "lon": -76.99614783333334}, {"fusion_lat": 0.0, "name": "34bd1585aeaca262e01d420ea533803e", "is_disabled": 0, "rental_uris": {"android": "https://dc.lft.to/lastmile_qr_scan", "ios": "https://dc.lft.to/lastmile_qr_scan"}, "fusion_lon": 0.0, "lat": 38.927177666666665, "bike_id": "34bd1585aeaca262e01d420ea533803e", "type": "electric_scooter", "is_reserved": 0, "lon": -77.0316565}, {"fusion_lat": 0.0, "name": "79d9540b12f5b1efe3f2a21bc3b03c4c", "is_disabled": 0, "rental_uris": {"android": "https://dc.lft.to/lastmile_qr_scan", "ios": "https://dc.lft.to/lastmile_qr_scan"}, "fusion_lon": 0.0, "lat": 38.886224, "bike_id": "79d9540b12f5b1efe3f2a21bc3b03c4c", "type": "electric_scooter", "is_reserved": 0, "lon": -77.01911366666667}, {"fusion_lat": 0.0, "name": "8ffdd4ab968103c89710ec18feb1700c", "is_disabled": 0, "rental_uris": {"android": "https://dc.lft.to/lastmile_qr_scan", "ios": "https://dc.lft.to/lastmile_qr_scan"}, "fusion_lon": 0.0, "lat": 38.91082216666667, "bike_id": "8ffdd4ab968103c89710ec18feb1700c", "type": "electric_scooter", "is_reserved": 0, "lon": -77.06548783333334}, {"fusion_lat": 0.0, "name": "98c968d856cde06b4c1c8a9f1d211b4c", "is_disabled": 0, "rental_uris": {"android": "https://dc.lft.to/lastmile_qr_scan", "ios": "https://dc.lft.to/lastmile_qr_scan"}, "fusion_lon": 0.0, "lat": 38.897346666666664, "bike_id": "98c968d856cde06b4c1c8a9f1d211b4c", "type": "electric_scooter", "is_reserved": 0, "lon": -76.94720533333333}, {"fusion_lat": 0.0, "name": "340f2dba066c906c95c02dbb9d29e3f7", "is_disabled": 0, "rental_uris": {"android": "https://dc.lft.to/lastmile_qr_scan", "ios": "https://dc.lft.to/lastmile_qr_scan"}, "fusion_lon": 0.0, "lat": 38.91589466666667, "bike_id": "340f2dba066c906c95c02dbb9d29e3f7", "type": "electric_scooter", "is_reserved": 0, "lon": -77.04626016666667}, {"fusion_lat": 0.0, "name": "0f223764a9fb2b9ec4c1e89706497962", "is_disabled": 0, "rental_uris": {"android": "https://dc.lft.to/lastmile_qr_scan", "ios": "https://dc.lft.to/lastmile_qr_scan"}, "fusion_lon": 0.0, "lat": 38.90464633333333, "bike_id": "0f223764a9fb2b9ec4c1e89706497962", "type": "electric_scooter", "is_reserved": 0, "lon": -77.0127295}, {"fusion_lat": 0.0, "name": "220ed54abe762a371b83036abec6c92f", "is_disabled": 0, "rental_uris": {"android": "https://dc.lft.to/lastmile_qr_scan", "ios": "https://dc.lft.to/lastmile_qr_scan"}, "fusion_lon": 0.0, "lat": 38.900285833333335, "bike_id": "220ed54abe762a371b83036abec6c92f", "type": "electric_scooter", "is_reserved": 0, "lon": -76.99143033333333}, {"fusion_lat": 0.0, "name": "791af6dc224cc7905f9ed44a9c6e5da3", "is_disabled": 0, "rental_uris": {"android": "https://dc.lft.to/lastmile_qr_scan", "ios": "https://dc.lft.to/lastmile_qr_scan"}, "fusion_lon": 0.0, "lat": 38.93043083333333, "bike_id": "791af6dc224cc7905f9ed44a9c6e5da3", "type": "electric_scooter", "is_reserved": 0, "lon": -77.03296066666667}, {"fusion_lat": 0.0, "name": "c745d751f04019e3803460eee8941a5a", "is_disabled": 0, "rental_uris": {"android": "https://dc.lft.to/lastmile_qr_scan", "ios": "https://dc.lft.to/lastmile_qr_scan"}, "fusion_lon": 0.0, "lat": 38.9304345, "bike_id": "c745d751f04019e3803460eee8941a5a", "type": "electric_scooter", "is_reserved": 0, "lon": -77.03292916666666}, {"fusion_lat": 0.0, "name": "729a55250a4ea13973c43c21d4f7a9d5", "is_disabled": 0, "rental_uris": {"android": "https://dc.lft.to/lastmile_qr_scan", "ios": "https://dc.lft.to/lastmile_qr_scan"}, "fusion_lon": 0.0, "lat": 38.92104366666667, "bike_id": "729a55250a4ea13973c43c21d4f7a9d5", "type": "electric_scooter", "is_reserved": 0, "lon": -76.99406183333333}, {"fusion_lat": 0.0, "name": "10f14e87764a84c20363e84e085125f7", "is_disabled": 0, "rental_uris": {"android": "https://dc.lft.to/lastmile_qr_scan", "ios": "https://dc.lft.to/lastmile_qr_scan"}, "fusion_lon": 0.0, "lat": 38.89011416666666, "bike_id": "10f14e87764a84c20363e84e085125f7", "type": "electric_scooter", "is_reserved": 0, "lon": -76.93735433333333}, {"fusion_lat": 0.0, "name": "d77ef5ab90ea5a924ece3fe1843d6d1d", "is_disabled": 0, "rental_uris": {"android": "https://dc.lft.to/lastmile_qr_scan", "ios": "https://dc.lft.to/lastmile_qr_scan"}, "fusion_lon": 0.0, "lat": 38.956335833333334, "bike_id": "d77ef5ab90ea5a924ece3fe1843d6d1d", "type": "electric_scooter", "is_reserved": 0, "lon": -77.033054}, {"fusion_lat": 0.0, "name": "5a83295540ecaec00b63d5e6e791989f", "is_disabled": 0, "rental_uris": {"android": "https://dc.lft.to/lastmile_qr_scan", "ios": "https://dc.lft.to/lastmile_qr_scan"}, "fusion_lon": 0.0, "lat": 38.95568133333333, "bike_id": "5a83295540ecaec00b63d5e6e791989f", "type": "electric_bike", "is_reserved": 0, "lon": -77.01007733333333}, {"fusion_lat": 0.0, "name": "240cf60cc45c1ecc62f456f7b7a46f52", "is_disabled": 0, "rental_uris": {"android": "https://dc.lft.to/lastmile_qr_scan", "ios": "https://dc.lft.to/lastmile_qr_scan"}, "fusion_lon": 0.0, "lat": 38.95874533333333, "bike_id": "240cf60cc45c1ecc62f456f7b7a46f52", "type": "electric_bike", "is_reserved": 0, "lon": -76.97059083333333}, {"fusion_lat": 0.0, "name": "2f5188d7d31b45d38db6c0dba74f0e54", "is_disabled": 0, "rental_uris": {"android": "https://dc.lft.to/lastmile_qr_scan", "ios": "https://dc.lft.to/lastmile_qr_scan"}, "fusion_lon": 0.0, "lat": 38.925537166666665, "bike_id": "2f5188d7d31b45d38db6c0dba74f0e54", "type": "electric_scooter", "is_reserved": 0, "lon": -77.0355195}, {"fusion_lat": 0.0, "name": "8438dcd623c33027bad54e8cb76a41bd", "is_disabled": 0, "rental_uris": {"android": "https://dc.lft.to/lastmile_qr_scan", "ios": "https://dc.lft.to/lastmile_qr_scan"}, "fusion_lon": 0.0, "lat": 38.9036765, "bike_id": "8438dcd623c33027bad54e8cb76a41bd", "type": "electric_scooter", "is_reserved": 0, "lon": -77.0501995}, {"fusion_lat": 0.0, "name": "fe1bdd5dd225d1da238c576f88af51f2", "is_disabled": 0, "rental_uris": {"android": "https://dc.lft.to/lastmile_qr_scan", "ios": "https://dc.lft.to/lastmile_qr_scan"}, "fusion_lon": 0.0, "lat": 38.9298565, "bike_id": "fe1bdd5dd225d1da238c576f88af51f2", "type": "electric_scooter", "is_reserved": 0, "lon": -77.03249766666667},