{"data": {"bikes": [{"lon": -77.025349, "fusion_lat": 0.0, "type": "electric_scooter", "lat": 38.91855316666667, "is_disabled": 0, "name": "d78ff0a41ca5f9af2d566d4451ff8e59", "is_reserved": 0, "bike_id": "d78ff0a41ca5f9af2d566d4451ff8e59", "fusion_lon": 0.0, "rental_uris": {"ios": "https://dc.lft.to/lastmile_qr_scan", "android": "https://dc.lft.to/lastmile_qr_scan"}}, {"lon": -77.03520916666666, "fusion_lat": 0.0, "type": "electric_scooter", "lat": 38.922572, "is_disabled": 0, "name": "cc911e939e43cdbbbb1e2b77ff9eba76", "is_reserved": 0, "bike_id": "cc911e939e43cdbbbb1e2b77ff9eba76", "fusion_lon": 0.0, "rental_uris": {"ios": "https://dc.lft.to/lastmile_qr_scan", "android": "https://dc.lft.to/lastmile_qr_scan"}}, {"lon": -77.017792, "fusion_lat": 0.0, "type": "electric_scooter", "lat": 38.919914, "is_disabled": 0, "name": "c7f2b536a8155823672e2bc7ad3880da", "is_reserved": 0, "bike_id": "c7f2b536a8155823672e2bc7ad3880da", "fusion_lon": 0.0, "rental_uris": {"ios": "https://dc.lft.to/lastmile_qr_scan", "android": "https://dc.lft.to/lastmile_qr_scan"}}, {"lon": -77.04603483333334, "fusion_lat": 0.0, "type": "electric_scooter", "lat": 38.90259433333333, "is_disabled": 0, "name": "ee8e8faea7bcda14bf1170be4b7dbfb0", "is_reserved": 0, "bike_id": "ee8e8faea7bcda14bf1170be4b7dbfb0", "fusion_lon": 0.0, "rental_uris": {"ios": "https://dc.lft.to/lastmile_qr_scan", "android": "https://dc.lft.to/lastmile_qr_scan"}}, {"lon": -77.04206533333333, "fusion_lat": 0.0, "type": "electric_scooter", "lat": 38.89266833333333, "is_disabled": 0, "name": "3f0a037d9941337167c23f5f2d0ed674", "is_reserved": 0, "bike_id": "3f0a037d9941337167c23f5f2d0ed674", "fusion_lon": 0.0, "rental_uris": {"ios": "https://dc.lft.to/lastmile_qr_scan", "android": "https://dc.lft.to/lastmile_qr_scan"}}, {"lon": -77.03213783333334, "fusion_lat": 0.0, "type": "electric_scooter", "lat": 38.88728483333333, "is_disabled": 0, "name": "8f0353946370077bbe547236e66eeec4", "is_reserved": 0, "bike_id": "8f0353946370077bbe547236e66eeec4", "fusion_lon": 0.0, "rental_uris": {"ios": "https://dc.lft.to/lastmile_qr_scan", "android": "https://dc.lft.to/lastmile_qr_scan"}}, {"lon": -76.9980225, "fusion_lat": 0.0, "type": "electric_scooter", "lat": 38.90849, "is_disabled": 0, "name": "23d3159d306fd4a23382570e8f183a8e", "is_reserved": 0, "bike_id": "23d3159d306fd4a23382570e8f183a8e", "fusion_lon": 0.0, "rental_uris": {"ios": "https://dc.lft.to/lastmile_qr_scan", "android": "https://dc.lft.to/lastmile_qr_scan"}}, {"lon": -77.017797, "fusion_lat": 0.0, "type": "electric_scooter", "lat": 38.9199455, "is_disabled": 0, "name": "1aa039abb3e467193f8cd9233f0f1f82", "is_reserved": 0, "bike_id": "1aa039abb3e467193f8cd9233f0f1f82", "fusion_lon": 0.0, "rental_uris": {"ios": "https://dc.lft.to/lastmile_qr_scan", "android": "https://dc.lft.to/lastmile_qr_scan"}}, {"lon": -77.04328366666667, "fusion_lat": 0.0, "type": "electric_scooter", "lat": 38.904093, "is_disabled": 0, "name": "705bf55dfd731f31bf2139bb4d951bcb", "is_reserved": 0, "bike_id": "705bf55dfd731f31bf2139bb4d951bcb", "fusion_lon": 0.0, "rental_uris": {"ios": "https://dc.lft.to/lastmile_qr_scan", "android": "https://dc.lft.to/lastmile_qr_scan"}}, {"lon": -77.00995366666666, "fusion_lat": 0.0, "type": "electric_scooter", "lat": 38.91925616666666, "is_disabled": 0, "name": "0ffbde1365d9281b301640cf2d14b0bd", "is_reserved": 0, "bike_id": "0ffbde1365d9281b301640cf2d14b0bd", "fusion_lon": 0.0, "rental_uris": {"ios": "https://dc.lft.to/lastmile_qr_scan", "android": "https://dc.lft.to/lastmile_qr_scan"}}, {"lon": -77.34458633333334, "fusion_lat": 0.0, "type": "electric_bike", "lat": 38.94542466666667, "is_disabled": 0, "name": "c240b5f11ee29b2a068288200aaed5da", "is_reserved": 0, "bike_id": "c240b5f11ee29b2a068288200aaed5da", "fusion_lon": 0.0, "rental_uris": {"ios": "https://dc.lft.to/lastmile_qr_scan", "android": "https://dc.lft.to/lastmile_qr_scan"}}, {"lon": -76.95148616666667, "fusion_lat": 0.0, "type": "electric_bike", "lat": 39.084293833333334, "is_disabled": 0, "name": "830ea812e339c05b7e0e3becad8844ea", "is_reserved": 0, "bike_id": "830ea812e339c05b7e0e3becad8844ea", "fusion_lon": 0.0, "rental_uris": {"ios": "https://dc.lft.to/lastmile_qr_scan", "android": "https://dc.lft.to/lastmile_qr_scan"}}, {"lon": -76.936723, "fusion_lat": 0.0, "type": "electric_scooter", "lat": 38.8865575, "is_disabled": 0, "name": "484e5706a1743fb8dfdc8cc5d2726dcf", "is_reserved": 0, "bike_id": "484e5706a1743fb8dfdc8cc5d2726dcf", "fusion_lon": 0.0, "rental_uris": {"ios": "https://dc.lft.to/lastmile_qr_scan", "android": "https://dc.lft.to/lastmile_qr_scan"}}, {"lon": -77.021579, "fusion_lat": 0.0, "type": "electric_scooter", "lat": 38.924532166666665, "is_disabled": 0, "name": "5d29df59847668e211ad505445f3213b", "is_reserved": 0, "bike_id": "5d29df59847668e211ad505445f3213b", "fusion_lon": 0.0, "rental_uris": {"ios": "https://dc.lft.to/lastmile_qr_scan", "android": "https://dc.lft.to/lastmile_qr_scan"}}, {"lon": -77.01906083333333, "fusion_lat": 0.0, "type": "electric_scooter", "lat": 38.9141395, "is_disabled": 0, "name": "2e8cb2937e29bb30cae99fab6c8d485c", "is_reserved": 0, "bike_id": "2e8cb2937e29bb30cae99fab6c8d485c", "fusion_lon": 0.0, "rental_uris": {"ios": "https://dc.lft.to/lastmile_qr_scan", "android": "https://dc.lft.to/lastmile_qr_scan"}}, {"lon": -77.00769116666666, "fusion_lat": 0.0, "type": "electric_scooter", "lat": 38.900529166666665, "is_disabled": 0, "name": "95d917540b2a9e94306763dd7539e837", "is_reserved": 0, "bike_id": "95d917540b2a9e94306763dd7539e837", "fusion_lon": 0.0, "rental_uris": {"ios": "https://dc.lft.to/lastmile_qr_scan", "android": "https://dc.lft.to/lastmile_qr_scan"}}, {"lon": -77.02539783333333, "fusion_lat": 0.0, "type": "electric_scooter", "lat": 38.92486316666667, "is_disabled": 0, "name": "955747fb72edd062796169eba6890ba5", "is_reserved": 0, "bike_id": "955747fb72edd062796169eba6890ba5", "fusion_lon": 0.0, "rental_uris": {"ios": "https://dc.lft.to/lastmile_qr_scan", "android": "https://dc.lft.to/lastmile_qr_scan"}}, {"lon": -77.03035583333333, "fusion_lat": 0.0, "type": "electric_scooter", "lat": 38.896043166666665, "is_disabled": 0, "name": "fc7a555ec7be1dd2194c45418f2721f5", "is_reserved": 0, "bike_id": "fc7a555ec7be1dd2194c45418f2721f5", "fusion_lon": 0.0, "rental_uris": {"ios": "https://dc.lft.to/lastmile_qr_scan", "android": "https://dc.lft.to/lastmile_qr_scan"}}, {"lon": -77.0337855, "fusion_lat": 0.0, "type": "electric_scooter", "lat": 38.901822833333334, "is_disabled": 0, "name": "60c54aac98efa824dd741f5ab1fa61c2", "is_reserved": 0, "bike_id": "60c54aac98efa824dd741f5ab1fa61c2", "fusion_lon": 0.0, "rental_uris": {"ios": "https://dc.lft.to/lastmile_qr_scan", "android": "https://dc.lft.to/lastmile_qr_scan"}}, {"lon": -76.996746, "fusion_lat": 0.0, "type": "electric_scooter", "lat": 38.88722216666667, "is_disabled": 0, "name": "8616a594b49edcfccd7340fe8a40eac3", "is_reserved": 0, "bike_id": "8616a594b49edcfccd7340fe8a40eac3", "fusion_lon": 0.0, "rental_uris": {"ios": "https://dc.lft.to/lastmile_qr_scan", "android": "https://dc.lft.to/lastmile_qr_scan"}}, {"lon": -76.99035516666666, "fusion_lat": 0.0, "type": "electric_scooter", "lat": 38.888799666666664, "is_disabled": 0, "name": "a7b1517fc902fd792f5c9db81fc90a3a", "is_reserved": 0, "bike_id": "a7b1517fc902fd792f5c9db81fc90a3a", "fusion_lon": 0.0, "rental_uris": {"ios": "https://dc.lft.to/lastmile_qr_scan", "android": "https://dc.lft.to/lastmile_qr_scan"}}, {"lon": -77.03897683333334, "fusion_lat": 0.0, "type": "electric_scooter", "lat": 38.924938833333336, "is_disabled": 0, "name": "bb2248f9b64ff4363ccfc752fd99d396", "is_reserved": 0, "bike_id": "bb2248f9b64ff4363ccfc752fd99d396", "fusion_lon": 0.0, "rental_uris": {"ios": "https://dc.lft.to/lastmile_qr_scan", "android": "https://dc.lft.to/lastmile_qr_scan"}}, {"lon": -77.042674, "fusion_lat": 0.0, "type": "electric_scooter", "lat": 38.92240683333333, "is_disabled": 0, "name": "8ece57c8e2a568ad0f0a299cd5a61f6d", "is_reserved": 0, "bike_id": "8ece57c8e2a568ad0f0a299cd5a61f6d", "fusion_lon": 0.0, "rental_uris": {"ios": "https://dc.lft.to/lastmile_qr_scan", "android": "https://dc.lft.to/lastmile_qr_scan"}}, {"lon": -77.0435705, "fusion_lat": 0.0, "type": "electric_scooter", "lat": 38.9111895, "is_disabled": 0, "name": "d7d585fb7f58708e55b701fdef773c0d", "is_reserved": 0, "bike_id": "d7d585fb7f58708e55b701fdef773c0d", "fusion_lon": 0.0, "rental_uris": {"ios": "https://dc.lft.to/lastmile_qr_scan", "android": "https://dc.lft.to/lastmile_qr_scan"}}, {"lon": -77.02563066666667, "fusion_lat": 0.0, "type": "electric_scooter", "lat": 38.92067566666667, "is_disabled": 0, "name": "8fb54ed531ff0826c8c9076f17c23acc", "is_reserved": 0, "bike_id": "8fb54ed531ff0826c8c9076f17c23acc", "fusion_lon": 0.0, "rental_uris": {"ios": "https://dc.lft.to/lastmile_qr_scan", "android": "https://dc.lft.to/lastmile_qr_scan"}}, {"lon": -77.01603233333333, "fusion_lat": 0.0, "type": "electric_scooter", "lat": 38.90969333333334, "is_disabled": 0, "name": "0c39e6f7b0a7f7e4ed7106e381797cc4", "is_reserved": 0, "bike_id": "0c39e6f7b0a7f7e4ed7106e381797cc4", "fusion_lon": 0.0, "rental_uris": {"ios": "https://dc.lft.to/lastmile_qr_scan", "android": "https://dc.lft.to/lastmile_qr_scan"}}, {"lon": -77.06469266666667, "fusion_lat": 0.0, "type": "electric_scooter", "lat": 38.90502016666667, "is_disabled": 0, "name": "27c58ad0b446bef2cf41bd95bddd1acc", "is_reserved": 0, "bike_id": "27c58ad0b446bef2cf41bd95bddd1acc", "fusion_lon": 0.0, "rental_uris": {"ios": "https://dc.lft.to/lastmile_qr_scan", "android": "https://dc.lft.to/lastmile_qr_scan"}}, {"lon": -76.9371045, "fusion_lat": 0.0, "type": "electric_scooter", "lat": 38.89014616666667, "is_disabled": 0, "name": "e6181800778a2b40000ec644d720ef3d", "is_reserved": 0, "bike_id": "e6181800778a2b40000ec644d720ef3d", "fusion_lon": 0.0, "rental_uris": {"ios": "https://dc.lft.to/lastmile_qr_scan", "android": "https://dc.lft.to/lastmile_qr_scan"}}, {"lon": -77.005685, "fusion_lat": 0.0, "type": "electric_scooter", "lat": 38.87599733333333, "is_disabled": 0, "name": "d69cc87c59fb53ef4e6d23a493b5fb7c", "is_reserved": 0, "bike_id": "d69cc87c59fb53ef4e6d23a493b5fb7c", "fusion_lon": 0.0, "rental_uris": {"ios": "https://dc.lft.to/lastmile_qr_scan", "android": "https://dc.lft.to/lastmile_qr_scan"}}, {"lon": -76.99127116666666, "fusion_lat": 0.0, "type": "electric_scooter", "lat": 38.909031166666665, "is_disabled": 0, "name": "26cb8c7ca1723459f909dbb2da4e1cc5", "is_reserved": 0, "bike_id": "26cb8c7ca1723459f909dbb2da4e1cc5", "fusion_lon": 0.0, "rental_uris": {"ios": "https://dc.lft.to/lastmile_qr_scan", "android": "https://dc.lft.to/lastmile_qr_scan"}}, {"lon": -77.03029, "fusion_lat": 0.0, "type": "electric_scooter", "lat": 38.92665016666667, "is_disabled": 0, "name": "7e971c91313c37c10b7e8e51b4d557ec", "is_reserved": 0, "bike_id": "7e971c91313c37c10b7e8e51b4d557ec", "fusion_lon": 0.0, "rental_uris": {"ios": "https://dc.lft.to/lastmile_qr_scan", "android": "https://dc.lft.to/lastmile_qr_scan"}}, {"lon": -76.99699333333334, "fusion_lat": 0.0, "type": "electric_scooter", "lat": 38.908348, "is_disabled": 0, "name": "b15be3efc8ffc8d22afe82fed28cc563", "is_reserved": 0, "bike_id": "b15be3efc8ffc8d22afe82fed28cc563", "fusion_lon": 0.0, "rental_uris": {"ios": "https://dc.lft.to/lastmile_qr_scan", "android": "https://dc.lft.to/lastmile_qr_scan"}}, {"lon": -77.03449516666667, "fusion_lat": 0.0, "type": "electric_scooter", "lat": 38.901668, "is_disabled": 0, "name": "beaa7d813576757f78a12cc7907d7538", "is_reserved": 0, "bike_id": "beaa7d813576757f78a12cc7907d7538", "fusion_lon": 0.0, "rental_uris": {"ios": "https://dc.lft.to/lastmile_qr_scan", "android": "https://dc.lft.to/lastmile_qr_scan"}}, {"lon": -76.99676483333333, "fusion_lat": 0.0, "type": "electric_scooter", "lat": 38.88723016666667, "is_disabled": 0, "name": "5ecbc6ce842fe258d3bec19744e215b4", "is_reserved": 0, "bike_id": "5ecbc6ce842fe258d3bec19744e215b4", "fusion_lon": 0.0, "rental_uris": {"ios": "https://dc.lft.to/lastmile_qr_scan", "android": "https://dc.lft.to/lastmile_qr_scan"}}, {"lon": -77.00028433333334, "fusion_lat": 0.0, "type": "electric_scooter", "lat": 38.873983833333334, "is_disabled": 0, "name": "6a5fad1f1738c21189fb98f0571da222", "is_reserved": 0, "bike_id": "6a5fad1f1738c21189fb98f0571da222", "fusion_lon": 0.0, "rental_uris": {"ios": "https://dc.lft.to/lastmile_qr_scan", "android": "https://dc.lft.to/lastmile_qr_scan"}}, {"lon": -76.97705666666667, "fusion_lat": 0.0, "type": "electric_scooter", "lat": 38.88815966666667, "is_disabled": 0, "name": "3a49fd4896ead5e4f6817e1bcbd1c858", "is_reserved": 0, "bike_id": "3a49fd4896ead5e4f6817e1bcbd1c858", "fusion_lon": 0.0, "rental_uris": {"ios": "https://dc.lft.to/lastmile_qr_scan", "android": "https://dc.lft.to/lastmile_qr_scan"}}, {"lon": -76.92988966666667, "fusion_lat": 0.0, "type": "electric_scooter", "lat": 38.89301566666666, "is_disabled": 0, "name": "421ca158a62e376b57a002e7e045fa67", "is_reserved": 0, "bike_id": "421ca158a62e376b57a002e7e045fa67", "fusion_lon": 0.0, "rental_uris": {"ios": "https://dc.lft.to/lastmile_qr_scan", "android": "https://dc.lft.to/lastmile_qr_scan"}}, {"lon": -77.021533, "fusion_lat": 0.0, "type": "electric_scooter", "lat": 38.92600366666667, "is_disabled": 0, "name": "db99493fb4b77f1f0ecd3e9882eaadbf", "is_reserved": 0, "bike_id": "db99493fb4b77f1f0ecd3e9882eaadbf", "fusion_lon": 0.0, "rental_uris": {"ios": "https://dc.lft.to/lastmile_qr_scan", "android": "https://dc.lft.to/lastmile_qr_scan"}}, {"lon": -76.93025133333333, "fusion_lat": 0.0, "type": "electric_scooter", "lat": 38.900145333333334, "is_disabled": 0, "name": "f63ea7302d5eef36f4d5c01bcefb46d4", "is_reserved": 0, "bike_id": "f63ea7302d5eef36f4d5c01bcefb46d4", "fusion_lon": 0.0, "rental_uris": {"ios": "https://dc.lft.to/lastmile_qr_scan", "android": "https://dc.lft.to/lastmile_qr_scan"}}, {"lon": -77.0017625, "fusion_lat": 0.0, "type": "electric_scooter", "lat": 38.900307166666664, "is_disabled": 0, "name": "285de4a1f5bf256f686a4595e07f2f05", "is_reserved": 0, "bike_id": "285de4a1f5bf256f686a4595e07f2f05", "fusion_lon": 0.0, "rental_uris": {"ios": "https://dc.lft.to/lastmile_qr_scan", "android": "https://dc.lft.to/lastmile_qr_scan"}}, {"lon": -77.03110833333334, "fusion_lat": 0.0, "type": "electric_scooter", "lat": 38.91687866666667, "is_disabled": 0, "name": "8b6a5c97850f3e6be81ad7dcd6e5e0c4", "is_reserved": 0, "bike_id": "8b6a5c97850f3e6be81ad7dcd6e5e0c4", "fusion_lon": 0.0, "rental_uris": {"ios": "https://dc.lft.to/lastmile_qr_scan", "android": "https://dc.lft.to/lastmile_qr_scan"}}, {"lon": -77.0074515, "fusion_lat": 0.0, "type": "electric_scooter", "lat": 38.89828816666667, "is_disabled": 0, "name": "addbcf93bc72f27a8a8dbb93fbf3d89d", "is_reserved": 0, "bike_id": "addbcf93bc72f27a8a8dbb93fbf3d89d", "fusion_lon": 0.0, "rental_uris": {"ios": "https://dc.lft.to/lastmile_qr_scan", "android": "https://dc.lft.to/lastmile_qr_scan"}}, {"lon": -77.00544233333333, "fusion_lat": 0.0, "type": "electric_scooter", "lat": 38.90557833333333, "is_disabled": 0, "name": "13e65a8e21a47c6b75c43849a25450f6", "is_reserved": 0, "bike_id": "13e65a8e21a47c6b75c43849a25450f6", "fusion_lon": 0.0, "rental_uris": {"ios": "https://dc.lft.to/lastmile_qr_scan", "android": "https://dc.lft.to/lastmile_qr_scan"}}, {"lon": -77.0215625, "fusion_lat": 0.0, "type": "electric_scooter", "lat": 38.926116666666665, "is_disabled": 0, "name": "cad06616e595766c9a64cf7cccbcae7c", "is_reserved": 0, "bike_id": "cad06616e595766c9a64cf7cccbcae7c", "fusion_lon": 0.0, "rental_uris": {"ios": "https://dc.lft.to/lastmile_qr_scan", "android": "https://dc.lft.to/lastmile_qr_scan"}}, {"lon": -76.93753633333333, "fusion_lat": 0.0, "type": "electric_scooter", "lat": 38.890451666666664, "is_disabled": 0, "name": "9b290dae8e8817b401a72ae589500433", "is_reserved": 0, "bike_id": "9b290dae8e8817b401a72ae589500433", "fusion_lon": 0.0, "rental_uris": {"ios": "https://dc.lft.to/lastmile_qr_scan", "android": "https://dc.lft.to/lastmile_qr_scan"}}, {"lon": -77.04123966666667, "fusion_lat": 0.0, "type": "electric_scooter", "lat": 38.900143666666665, "is_disabled": 0, "name": "52d240745502af60a89d1df255b1cdf6", "is_reserved": 0, "bike_id": "52d240745502af60a89d1df255b1cdf6", "fusion_lon": 0.0, "rental_uris": {"ios": "https://dc.lft.to/lastmile_qr_scan", "android": "https://dc.lft.to/lastmile_qr_scan"}}, {"lon": -77.04440366666667, "fusion_lat": 0.0, "type": "electric_scooter", "lat": 38.90154233333333, "is_disabled": 0, "name": "9a0275d7d20e636805550610bab7e53c", "is_reserved": 0, "bike_id": "9a0275d7d20e636805550610bab7e53c", "fusion_lon": 0.0, "rental_uris": {"ios": "https://dc.lft.to/lastmile_qr_scan", "android": "https://dc.lft.to/lastmile_qr_scan"}}, {"lon": -77.03834866666666, "fusion_lat": 0.0, "type": "electric_scooter", "lat": 38.908307666666666, "is_disabled": 0, "name": "9093de1b04319d8b66b76f47c63946b0", "is_reserved": 0, "bike_id": "9093de1b04319d8b66b76f47c63946b0", "fusion_lon": 0.0, "rental_uris": {"ios": "https://dc.lft.to/lastmile_qr_scan", "android": "https://dc.lft.to/lastmile_qr_scan"}}, {"lon": -77.0369405, "fusion_lat": 0.0, "type": "electric_scooter", "lat": 38.90140266666667, "is_disabled": 0, "name": "07359d1c601c16429a874fd55fb1253d", "is_reserved": 0, "bike_id": "07359d1c601c16429a874fd55fb1253d", "fusion_lon": 0.0, "rental_uris": {"ios": "https://dc.lft.to/lastmile_qr_scan", "android": "https://dc.lft.to/lastmile_qr_scan"}}, {"lon": -77.06270833333333, "fusion_lat": 0.0, "type": "electric_scooter", "lat": 38.920756833333336, "is_disabled": 0, "name": "af5ffcdd7350af7c68178ffdb21ce1db", "is_reserved": 0, "bike_id": "af5ffcdd7350af7c68178ffdb21ce1db", "fusion_lon": 0.0, "rental_uris": {"ios": "https://dc.lft.to/lastmile_qr_scan", "android": "https://dc.lft.to/lastmile_qr_scan"}}, {"lon": -77.04334566666667, "fusion_lat": 0.0, "type": "electric_scooter", "lat": 38.9051385, "is_disabled": 0, "name": "106d01ea579e4ecfacd72378431b1e8a", "is_reserved": 0, "bike_id": "106d01ea579e4ecfacd72378431b1e8a", "fusion_lon": 0.0, "rental_uris": {"ios": "https://dc.lft.to/lastmile_qr_scan", "android": "https://dc.lft.to/lastmile_qr_scan"}}, {"lon": -77.02201066666667, "fusion_lat": 0.0, "type": "electric_scooter", "lat": 38.92468133333333, "is_disabled": 0, "name": "2126bd6f6aae28cf2eaa40c93458bb39", "is_reserved": 0, "bike_id": "2126bd6f6aae28cf2eaa40c93458bb39", "fusion_lon": 0.0, "rental_uris": {"ios": "https://dc.lft.to/lastmile_qr_scan", "android": "https://dc.lft.to/lastmile_qr_scan"}}, {"lon": -77.03188816666666, "fusion_lat": 0.0, "type": "electric_scooter", "lat": 38.892356, "is_disabled": 0, "name": "a6eae714dce3e92ba57cedd1a97759bd", "is_reserved": 0, "bike_id": "a6eae714dce3e92ba57cedd1a97759bd", "fusion_lon": 0.0, "rental_uris": {"ios": "https://dc.lft.to/lastmile_qr_scan", "android": "https://dc.lft.to/lastmile_qr_scan"}}, {"lon": -77.020995, "fusion_lat": 0.0, "type": "electric_scooter", "lat": 38.894854, "is_disabled": 0, "name": "849b1e1688c733f0288e3995512c91b1", "is_reserved": 0, "bike_id": "849b1e1688c733f0288e3995512c91b1", "fusion_lon": 0.0, "rental_uris": {"ios": "https://dc.lft.to/lastmile_qr_scan", "android": "https://dc.lft.to/lastmile_qr_scan"}}, {"lon": -77.03177616666666, "fusion_lat": 0.0, "type": "electric_scooter", "lat": 38.9101525, "is_disabled": 0, "name": "44d3ea7ca78044df525e085275c33134", "is_reserved": 0, "bike_id": "44d3ea7ca78044df525e085275c33134", "fusion_lon": 0.0, "rental_uris": {"ios": "https://dc.lft.to/lastmile_qr_scan", "android": "https://dc.lft.to/lastmile_qr_scan"}}, {"lon": -77.0410945, "fusion_lat": 0.0, "type": "electric_scooter", "lat": 38.91694833333333, "is_disabled": 0, "name": "03be4e23071c9b2c5d90a847dc3687d1", "is_reserved": 0, "bike_id": "03be4e23071c9b2c5d90a847dc3687d1", "fusion_lon": 0.0, "rental_uris": {"ios": "https://dc.lft.to/lastmile_qr_scan", "android": "https://dc.lft.to/lastmile_qr_scan"}}, {"lon": -77.025617, "fusion_lat": 0.0, "type": "electric_scooter", "lat": 38.92070833333333, "is_disabled": 0, "name": "7dcfb1051f1e5b136e026c43f7df2c57", "is_reserved": 0, "bike_id": "7dcfb1051f1e5b136e026c43f7df2c57", "fusion_lon": 0.0, "rental_uris": {"ios": "https://dc.lft.to/lastmile_qr_scan", "android": "https://dc.lft.to/lastmile_qr_scan"}}, {"lon": -77.00306483333334, "fusion_lat": 0.0, "type": "electric_scooter", "lat": 38.90903333333333, "is_disabled": 0, "name": "bf8d642f5951f82eecfd592fa9f5e2ba", "is_reserved": 0, "bike_id": "bf8d642f5951f82eecfd592fa9f5e2ba", "fusion_lon": 0.0, "rental_uris": {"ios": "https://dc.lft.to/lastmile_qr_scan", "android": "https://dc.lft.to/lastmile_qr_scan"}}, {"lon": -77.0153945, "fusion_lat": 0.0, "type": "electric_scooter", "lat": 38.88476716666667, "is_disabled": 0, "name": "0d7940be9c57048aebb9c95980bcfbd0", "is_reserved": 0, "bike_id": "0d7940be9c57048aebb9c95980bcfbd0", "fusion_lon": 0.0, "rental_uris": {"ios": "https://dc.lft.to/lastmile_qr_scan", "android": "https://dc.lft.to/lastmile_qr_scan"}}, {"lon": -76.94156633333333, "fusion_lat": 0.0, "type": "electric_bike", "lat": 38.9083195, "is_disabled": 0, "name": "f4b82ff7b61afe88aa5d4324c55289a5", "is_reserved": 0, "bike_id": "f4b82ff7b61afe88aa5d4324c55289a5", "fusion_lon": 0.0, "rental_uris": {"ios": "https://dc.lft.to/lastmile_qr_scan", "android": "https://dc.lft.to/lastmile_qr_scan"}}, {"lon": -77.03071783333333, "fusion_lat": 0.0, "type": "electric_scooter", "lat": 38.89992016666667, "is_disabled": 0, "name": "b2592a3af383019410d7e31272e3c8c1", "is_reserved": 0, "bike_id": "b2592a3af383019410d7e31272e3c8c1", "fusion_lon": 0.0, "rental_uris": {"ios": "https://dc.lft.to/lastmile_qr_scan", "android": "https://dc.lft.to/lastmile_qr_scan"}}, {"lon": -77.01142166666666, "fusion_lat": 0.0, "type": "electric_scooter", "lat": 38.90031883333333, "is_disabled": 0, "name": "42cbf843fcb383f6986dcdc91279c6ca", "is_reserved": 0, "bike_id": "42cbf843fcb383f6986dcdc91279c6ca", "fusion_lon": 0.0, "rental_uris": {"ios": "https://dc.lft.to/lastmile_qr_scan", "android": "https://dc.lft.to/lastmile_qr_scan"}}, {"lon": -77.03960916666666, "fusion_lat": 0.0, "type": "electric_scooter", "lat": 38.90564116666667, "is_disabled": 0, "name": "bb267c1315a5b434c3e840b72c24767d", "is_reserved": 0, "bike_id": "bb267c1315a5b434c3e840b72c24767d", "fusion_lon": 0.0, "rental_uris": {"ios": "https://dc.lft.to/lastmile_qr_scan", "android": "https://dc.lft.to/lastmile_qr_scan"}}, {"lon": -77.02301, "fusion_lat": 0.0, "type": "electric_scooter", "lat": 38.920601833333336, "is_disabled": 0, "name": "4c2a5e87678fb4377dc942ae9a289345", "is_reserved": 0, "bike_id": "4c2a5e87678fb4377dc942ae9a289345", "fusion_lon": 0.0, "rental_uris": {"ios": "https://dc.lft.to/lastmile_qr_scan", "android": "https://dc.lft.to/lastmile_qr_scan"}}, {"lon": -77.005669, "fusion_lat": 0.0, "type": "electric_scooter", "lat": 38.8835825, "is_disabled": 0, "name": "3a0b036811688273b8d521a3a24c49e4", "is_reserved": 0, "bike_id": "3a0b036811688273b8d521a3a24c49e4", "fusion_lon": 0.0, "rental_uris": {"ios": "https://dc.lft.to/lastmile_qr_scan", "android": "https://dc.lft.to/lastmile_qr_scan"}}, {"lon": -77.03654416666667, "fusion_lat": 0.0, "type": "electric_scooter", "lat": 38.915614166666664, "is_disabled": 0, "name": "3db10a251a5737adb83a2f61b9804376", "is_reserved": 0, "bike_id": "3db10a251a5737adb83a2f61b9804376", "fusion_lon": 0.0, "rental_uris": {"ios": "https://dc.lft.to/lastmile_qr_scan", "android": "https://dc.lft.to/lastmile_qr_scan"}}, {"lon": -77.03837416666667, "fusion_lat": 0.0, "type": "electric_scooter", "lat": 38.908354833333334, "is_disabled": 0, "name": "e1ece902538ae3178ddcd3aab5b99ee7", "is_reserved": 0, "bike_id": "e1ece902538ae3178ddcd3aab5b99ee7", "fusion_lon": 0.0, "rental_uris": {"ios": "https://dc.lft.to/lastmile_qr_scan", "android": "https://dc.lft.to/lastmile_qr_scan"}}, {"lon": -77.02138883333333, "fusion_lat": 0.0, "type": "electric_scooter", "lat": 38.921368333333334, "is_disabled": 0, "name": "1cd337ef765fe8b02e292dea199e6ec0", "is_reserved": 0, "bike_id": "1cd337ef765fe8b02e292dea199e6ec0", "fusion_lon": 0.0, "rental_uris": {"ios": "https://dc.lft.to/lastmile_qr_scan", "android": "https://dc.lft.to/lastmile_qr_scan"}}, {"lon": -76.98108133333334, "fusion_lat": 0.0, "type": "electric_scooter", "lat": 38.9040495, "is_disabled": 0, "name": "662dd985235019ffea3613ac846b7334", "is_reserved": 0, "bike_id": "662dd985235019ffea3613ac846b7334", "fusion_lon": 0.0, "rental_uris": {"ios": "https://dc.lft.to/lastmile_qr_scan", "android": "https://dc.lft.to/lastmile_qr_scan"}}, {"lon": -76.99321766666667, "fusion_lat": 0.0, "type": "electric_scooter", "lat": 38.87660416666667, "is_disabled": 0, "name": "118f6465719701395dafde1d6157fe22", "is_reserved": 0, "bike_id": "118f6465719701395dafde1d6157fe22", "fusion_lon": 0.0, "rental_uris": {"ios": "https://dc.lft.to/lastmile_qr_scan", "android": "https://dc.lft.to/lastmile_qr_scan"}}, {"lon": -77.02379533333334, "fusion_lat": 0.0, "type": "electric_scooter", "lat": 38.93210633333333, "is_disabled": 0, "name": "e3a462fc38eda6a7f18363275593205a", "is_reserved": 0, "bike_id": "e3a462fc38eda6a7f18363275593205a", "fusion_lon": 0.0, "rental_uris": {"ios": "https://dc.lft.to/lastmile_qr_scan", "android": "https://dc.lft.to/lastmile_qr_scan"}}, {"lon": -77.024928, "fusion_lat": 0.0, "type": "electric_scooter", "lat": 38.91956016666666, "is_disabled": 0, "name": "8161385987f221258bc0951dd710833c", "is_reserved": 0, "bike_id": "8161385987f221258bc0951dd710833c", "fusion_lon": 0.0, "rental_uris": {"ios": "https://dc.lft.to/lastmile_qr_scan", "android": "https://dc.lft.to/lastmile_qr_scan"}}, {"lon": -77.04117266666667, "fusion_lat": 0.0, "type": "electric_scooter", "lat": 38.923513666666665, "is_disabled": 0, "name": "0594bd356b0283378ed36f284cdcad69", "is_reserved": 0, "bike_id": "0594bd356b0283378ed36f284cdcad69", "fusion_lon": 0.0, "rental_uris": {"ios": "https://dc.lft.to/lastmile_qr_scan", "android": "https://dc.lft.to/lastmile_qr_scan"}}, {"lon": -77.02665383333333, "fusion_lat": 0.0, "type": "electric_scooter", "lat": 38.9217455, "is_disabled": 0, "name": "07283c25d751e19ffe7a5c0c3c63bd1f", "is_reserved": 0, "bike_id": "07283c25d751e19ffe7a5c0c3c63bd1f", "fusion_lon": 0.0, "rental_uris": {"ios": "https://dc.lft.to/lastmile_qr_scan", "android": "https://dc.lft.to/lastmile_qr_scan"}}, {"lon": -76.99677, "fusion_lat": 0.0, "type": "electric_scooter", "lat": 38.885164833333334, "is_disabled": 0, "name": "b191571fe4ce5d758dd16bb4b8107589", "is_reserved": 0, "bike_id": "b191571fe4ce5d758dd16bb4b8107589", "fusion_lon": 0.0, "rental_uris": {"ios": "https://dc.lft.to/lastmile_qr_scan", "android": "https://dc.lft.to/lastmile_qr_scan"}}, {"lon": -76.99114983333334, "fusion_lat": 0.0, "type": "electric_bike", "lat": 38.920499166666666, "is_disabled": 0, "name": "3457fadf87a83e850f4c3930e6882d3a", "is_reserved": 0, "bike_id": "3457fadf87a83e850f4c3930e6882d3a", "fusion_lon": 0.0, "rental_uris": {"ios": "https://dc.lft.to/lastmile_qr_scan", "android": "https://dc.lft.to/lastmile_qr_scan"}}, {"lon": -77.02376966666667, "fusion_lat": 0.0, "type": "electric_scooter", "lat": 38.896162, "is_disabled": 0, "name": "f53368d9e039b5178a8b34e7921f5714", "is_reserved": 0, "bike_id": "f53368d9e039b5178a8b34e7921f5714", "fusion_lon": 0.0, "rental_uris": {"ios": "https://dc.lft.to/lastmile_qr_scan", "android": "https://dc.lft.to/lastmile_qr_scan"}}, {"lon": -77.06105666666667, "fusion_lat": 0.0, "type": "electric_scooter", "lat": 38.94366216666667, "is_disabled": 0, "name": "c941edd9bacb68cba900aa00869ba800", "is_reserved": 0, "bike_id": "c941edd9bacb68cba900aa00869ba800", "fusion_lon": 0.0, "rental_uris": {"ios": "https://dc.lft.to/lastmile_qr_scan", "android": "https://dc.lft.to/lastmile_qr_scan"}}, {"lon": -76.98825016666666, "fusion_lat": 0.0, "type": "electric_scooter", "lat": 38.9004, "is_disabled": 0, "name": "5b83a82dc9267215259ac743012b44ae", "is_reserved": 0, "bike_id": "5b83a82dc9267215259ac743012b44ae", "fusion_lon": 0.0, "rental_uris": {"ios": "https://dc.lft.to/lastmile_qr_scan", "android": "https://dc.lft.to/lastmile_qr_scan"}}, {"lon": -77.00918666666666, "fusion_lat": 0.0, "type": "electric_scooter", "lat": 38.957625166666666, "is_disabled": 0, "name": "5c0b548d26d051a364958f369e618093", "is_reserved": 0, "bike_id": "5c0b548d26d051a364958f369e618093", "fusion_lon": 0.0, "rental_uris": {"ios": "https://dc.lft.to/lastmile_qr_scan", "android": "https://dc.lft.to/lastmile_qr_scan"}}, {"lon": -77.02252916666667, "fusion_lat": 0.0, "type": "electric_scooter", "lat": 38.92409583333333, "is_disabled": 0, "name": "bd61c5fb9a9c6f927122522fb31648c6", "is_reserved": 0, "bike_id": "bd61c5fb9a9c6f927122522fb31648c6", "fusion_lon": 0.0, "rental_uris": {"ios": "https://dc.lft.to/lastmile_qr_scan", "android": "https://dc.lft.to/lastmile_qr_scan"}}, {"lon": -77.04218333333333, "fusion_lat": 0.0, "type": "electric_scooter", "lat": 38.90733783333334, "is_disabled": 0, "name": "10a2395678e138c2ee7355acdbba0d86", "is_reserved": 0, "bike_id": "10a2395678e138c2ee7355acdbba0d86", "fusion_lon": 0.0, "rental_uris": {"ios": "https://dc.lft.to/lastmile_qr_scan", "android": "https://dc.lft.to/lastmile_qr_scan"}}, {"lon": -77.01906183333334, "fusion_lat": 0.0, "type": "electric_scooter", "lat": 38.923430833333335, "is_disabled": 0, "name": "8cd26ffb18ba6943b98e03cfd66a1cde", "is_reserved": 0, "bike_id": "8cd26ffb18ba6943b98e03cfd66a1cde", "fusion_lon": 0.0, "rental_uris": {"ios": "https://dc.lft.to/lastmile_qr_scan", "android": "https://dc.lft.to/lastmile_qr_scan"}}, {"lon": -77.02382266666666, "fusion_lat": 0.0, "type": "electric_scooter", "lat": 38.89236366666667, "is_disabled": 0, "name": "33b4bd2b15c91d3044eda0cec3980eab", "is_reserved": 0, "bike_id": "33b4bd2b15c91d3044eda0cec3980eab", "fusion_lon": 0.0, "rental_uris": {"ios": "https://dc.lft.to/lastmile_qr_scan", "android": "https://dc.lft.to/lastmile_qr_scan"}}, {"lon": -77.00726616666667, "fusion_lat": 0.0, "type": "electric_scooter", "lat": 38.9542355, "is_disabled": 0, "name": "7f62bfb27e9daab0d977f0b604be6b9c", "is_reserved": 0, "bike_id": "7f62bfb27e9daab0d977f0b604be6b9c", "fusion_lon": 0.0, "rental_uris": {"ios": "https://dc.lft.to/lastmile_qr_scan", "android": "https://dc.lft.to/lastmile_qr_scan"}}, {"lon": -77.03773933333333, "fusion_lat": 0.0, "type": "electric_scooter", "lat": 38.92010783333333, "is_disabled": 0, "name": "bc4219817661786843216b8f78c82cc4", "is_reserved": 0, "bike_id": "bc4219817661786843216b8f78c82cc4", "fusion_lon": 0.0, "rental_uris": {"ios": "https://dc.lft.to/lastmile_qr_scan", "android": "https://dc.lft.to/lastmile_qr_scan"}}, {"lon": -76.94287966666667, "fusion_lat": 0.0, "type": "electric_scooter", "lat": 38.883394333333335, "is_disabled": 0, "name": "c02e95e46f61ce2ae12fb12c68f66495", "is_reserved": 0, "bike_id": "c02e95e46f61ce2ae12fb12c68f66495", "fusion_lon": 0.0, "rental_uris": {"ios": "https://dc.lft.to/lastmile_qr_scan", "android": "https://dc.lft.to/lastmile_qr_scan"}}, {"lon": -77.04700266666667, "fusion_lat": 0.0, "type": "electric_scooter", "lat": 38.900769833333335, "is_disabled": 0, "name": "52c6365b56a5bdb55d820e2b42c4da55", "is_reserved": 0, "bike_id": "52c6365b56a5bdb55d820e2b42c4da55", "fusion_lon": 0.0, "rental_uris": {"ios": "https://dc.lft.to/lastmile_qr_scan", "android": "https://dc.lft.to/lastmile_qr_scan"}}, {"lon": -76.93186583333333, "fusion_lat": 0.0, "type": "electric_bike", "lat": 38.89878083333333, "is_disabled": 0, "name": "d5c8049246391d337a04d1d0e7478da7", "is_reserved": 0, "bike_id": "d5c8049246391d337a04d1d0e7478da7", "fusion_lon": 0.0, "rental_uris": {"ios": "https://dc.lft.to/lastmile_qr_scan", "android": "https://dc.lft.to/lastmile_qr_scan"}}, {"lon": -77.0037075, "fusion_lat": 0.0, "type": "electric_scooter", "lat": 38.879369833333335, "is_disabled": 0, "name": "2d004ee4b9019ee53f0330a8a47cc8cb", "is_reserved": 0, "bike_id": "2d004ee4b9019ee53f0330a8a47cc8cb", "fusion_lon": 0.0, "rental_uris": {"ios": "https://dc.lft.to/lastmile_qr_scan", "android": "https://dc.lft.to/lastmile_qr_scan"}}, {"lon": -77.02565533333333, "fusion_lat": 0.0, "type": "electric_scooter", "lat": 38.88425866666667, "is_disabled": 0, "name": "b6ac46dd906761561c3ddc43088cc749", "is_reserved": 0, "bike_id": "b6ac46dd906761561c3ddc43088cc749", "fusion_lon": 0.0, "rental_uris": {"ios": "https://dc.lft.to/lastmile_qr_scan", "android": "https://dc.lft.to/lastmile_qr_scan"}}, {"lon": -77.03196216666667, "fusion_lat": 0.0, "type": "electric_scooter", "lat": 38.90358366666667, "is_disabled": 0, "name": "2e090e99e96b0776758e7a3197a46ade", "is_reserved": 0, "bike_id": "2e090e99e96b0776758e7a3197a46ade", "fusion_lon": 0.0, "rental_uris": {"ios": "https://dc.lft.to/lastmile_qr_scan", "android": "https://dc.lft.to/lastmile_qr_scan"}}, {"lon": -77.07524283333333, "fusion_lat": 0.0, "type": "electric_scooter", "lat": 38.908770833333335, "is_disabled": 0, "name": "6305bade0843b5d40c1904519195ccec", "is_reserved": 0, "bike_id": "6305bade0843b5d40c1904519195ccec", "fusion_lon": 0.0, "rental_uris": {"ios": "https://dc.lft.to/lastmile_qr_scan", "android": "https://dc.lft.to/lastmile_qr_scan"}}, {"lon": -77.03474516666667, "fusion_lat": 0.0, "type": "electric_scooter", "lat": 38.90292983333333, "is_disabled": 0, "name": "70c18963df87ac7416d9794f220ade8f", "is_reserved": 0, "bike_id": "70c18963df87ac7416d9794f220ade8f", "fusion_lon": 0.0, "rental_uris": {"ios": "https://dc.lft.to/lastmile_qr_scan", "android": "https://dc.lft.to/lastmile_qr_scan"}}, {"lon": -76.99657716666667, "fusion_lat": 0.0, "type": "electric_bike", "lat": 38.88268816666667, "is_disabled": 0, "name": "c7b2f861b51e21483a1ca8319332f465", "is_reserved": 0, "bike_id": "c7b2f861b51e21483a1ca8319332f465", "fusion_lon": 0.0, "rental_uris": {"ios": "https://dc.lft.to/lastmile_qr_scan", "android": "https://dc.lft.to/lastmile_qr_scan"}}, {"lon": -77.002592, "fusion_lat": 0.0, "type": "electric_scooter", "lat": 38.965010666666664, "is_disabled": 0, "name": "61ccdc00bccd1a51bafd2196f47edcf9", "is_reserved": 0, "bike_id": "61ccdc00bccd1a51bafd2196f47edcf9", "fusion_lon": 0.0, "rental_uris": {"ios": "https://dc.lft.to/lastmile_qr_scan", "android": "https://dc.lft.to/lastmile_qr_scan"}}, {"lon": -77.0436595, "fusion_lat": 0.0, "type": "electric_scooter", "lat": 38.919591833333335, "is_disabled": 0, "name": "cf4649f2797c014f92b673b15e1fa6b6", "is_reserved": 0, "bike_id": "cf4649f2797c014f92b673b15e1fa6b6", "fusion_lon": 0.0, "rental_uris": {"ios": "https://dc.lft.to/lastmile_qr_scan", "android": "https://dc.lft.to/lastmile_qr_scan"}}, {"lon": -77.0643, "fusion_lat": 0.0, "type": "electric_scooter", "lat": 38.905217666666665, "is_disabled": 0, "name": "c9ed6c6a432931ef1b234d3e1e37e64e", "is_reserved": 0, "bike_id": "c9ed6c6a432931ef1b234d3e1e37e64e", "fusion_lon": 0.0, "rental_uris": {"ios": "https://dc.lft.to/lastmile_qr_scan", "android": "https://dc.lft.to/lastmile_qr_scan"}}, {"lon": -77.0350535, "fusion_lat": 0.0, "type": "electric_scooter", "lat": 38.9188015, "is_disabled": 0, "name": "1f05a33ab7c938bc376b60d4f9e0fcd2", "is_reserved": 0, "bike_id": "1f05a33ab7c938bc376b60d4f9e0fcd2", "fusion_lon": 0.0, "rental_uris": {"ios": "https://dc.lft.to/lastmile_qr_scan", "android": "https://dc.lft.to/lastmile_qr_scan"}}, {"lon": -77.02116266666667, "fusion_lat": 0.0, "type": "electric_scooter", "lat": 38.917519666666664, "is_disabled": 0, "name": "e23cfbbb8cd8784e97f8c6028d7e2a4a", "is_reserved": 0, "bike_id": "e23cfbbb8cd8784e97f8c6028d7e2a4a", "fusion_lon": 0.0, "rental_uris": {"ios": "https://dc.lft.to/lastmile_qr_scan", "android": "https://dc.lft.to/lastmile_qr_scan"}}, {"lon": -77.00587216666666, "fusion_lat": 0.0, "type": "electric_bike", "lat": 38.926208, "is_disabled": 0, "name": "334f54d45223739ffc427dd3232d9dd7", "is_reserved": 0, "bike_id": "334f54d45223739ffc427dd3232d9dd7", "fusion_lon": 0.0, "rental_uris": {"ios": "https://dc.lft.to/lastmile_qr_scan", "android": "https://dc.lft.to/lastmile_qr_scan"}}, {"lon": -77.016846, "fusion_lat": 0.0, "type": "electric_scooter", "lat": 38.902616, "is_disabled": 0, "name": "5dd1262b1193ccc2e763f141843903d4", "is_reserved": 0, "bike_id": "5dd1262b1193ccc2e763f141843903d4", "fusion_lon": 0.0, "rental_uris": {"ios": "https://dc.lft.to/lastmile_qr_scan", "android": "https://dc.lft.to/lastmile_qr_scan"}}, {"lon": -77.04101166666666, "fusion_lat": 0.0, "type": "electric_scooter", "lat": 38.91061633333333, "is_disabled": 0, "name": "9c2af59c0a5b76f8e8c1b8af4b7d7a69", "is_reserved": 0, "bike_id": "9c2af59c0a5b76f8e8c1b8af4b7d7a69", "fusion_lon": 0.0, "rental_uris": {"ios": "https://dc.lft.to/lastmile_qr_scan", "android": "https://dc.lft.to/lastmile_qr_scan"}}, {"lon": -77.0058715, "fusion_lat": 0.0, "type": "electric_scooter", "lat": 38.875547833333336, "is_disabled": 0, "name": "4687353b4796bbcf56b375aa67f5551b", "is_reserved": 0, "bike_id": "4687353b4796bbcf56b375aa67f5551b", "fusion_lon": 0.0, "rental_uris": {"ios": "https://dc.lft.to/lastmile_qr_scan", "android": "https://dc.lft.to/lastmile_qr_scan"}}, {"lon": -77.04561466666667, "fusion_lat": 0.0, "type": "electric_scooter", "lat": 38.898791333333335, "is_disabled": 0, "name": "81d58fd4abe0721f5a168055895bdcf2", "is_reserved": 0, "bike_id": "81d58fd4abe0721f5a168055895bdcf2", "fusion_lon": 0.0, "rental_uris": {"ios": "https://dc.lft.to/lastmile_qr_scan", "android": "https://dc.lft.to/lastmile_qr_scan"}}, {"lon": -77.0430445, "fusion_lat": 0.0, "type": "electric_scooter", "lat": 38.90125533333333, "is_disabled": 0, "name": "cab0e87b1e0ffa53d6f0981c408c981a", "is_reserved": 0, "bike_id": "cab0e87b1e0ffa53d6f0981c408c981a", "fusion_lon": 0.0, "rental_uris": {"ios": "https://dc.lft.to/lastmile_qr_scan", "android": "https://dc.lft.to/lastmile_qr_scan"}}, {"lon": -77.04859416666666, "fusion_lat": 0.0, "type": "electric_scooter", "lat": 38.8995315, "is_disabled": 0, "name": "e848f6e28b8fe3dc2c2ffe74145e067d", "is_reserved": 0, "bike_id": "e848f6e28b8fe3dc2c2ffe74145e067d", "fusion_lon": 0.0, "rental_uris": {"ios": "https://dc.lft.to/lastmile_qr_scan", "android": "https://dc.lft.to/lastmile_qr_scan"}}, {"lon": -77.03189483333334, "fusion_lat": 0.0, "type": "electric_scooter", "lat": 38.91576, "is_disabled": 0, "name": "5fe51f45b9626dc13296254e431ccf83", "is_reserved": 0, "bike_id": "5fe51f45b9626dc13296254e431ccf83", "fusion_lon": 0.0, "rental_uris": {"ios": "https://dc.lft.to/lastmile_qr_scan", "android": "https://dc.lft.to/lastmile_qr_scan"}}, {"lon": -77.02476333333334, "fusion_lat": 0.0, "type": "electric_scooter", "lat": 38.9165965, "is_disabled": 0, "name": "fb6d08aaa53bee63dd9fc3950ee95830", "is_reserved": 0, "bike_id": "fb6d08aaa53bee63dd9fc3950ee95830", "fusion_lon": 0.0, "rental_uris": {"ios": "https://dc.lft.to/lastmile_qr_scan", "android": "https://dc.lft.to/lastmile_qr_scan"}}, {"lon": -77.05266616666667, "fusion_lat": 0.0, "type": "electric_scooter", "lat": 38.92762333333334, "is_disabled": 0, "name": "0cedd8478cd0515a86c4c2badfce50c5", "is_reserved": 0, "bike_id": "0cedd8478cd0515a86c4c2badfce50c5", "fusion_lon": 0.0, "rental_uris": {"ios": "https://dc.lft.to/lastmile_qr_scan", "android": "https://dc.lft.to/lastmile_qr_scan"}}, {"lon": -77.00257866666666, "fusion_lat": 0.0, "type": "electric_scooter", "lat": 38.87667716666667, "is_disabled": 0, "name": "81337d1bc7eb6d93e97a0fda880c00e8", "is_reserved": 0, "bike_id": "81337d1bc7eb6d93e97a0fda880c00e8", "fusion_lon": 0.0, "rental_uris": {"ios": "https://dc.lft.to/lastmile_qr_scan", "android": "https://dc.lft.to/lastmile_qr_scan"}}, {"lon": -77.02225183333333, "fusion_lat": 0.0, "type": "electric_scooter", "lat": 38.920747166666665, "is_disabled": 0, "name": "d41b600630182fe34654933fcbbbb25d", "is_reserved": 0, "bike_id": "d41b600630182fe34654933fcbbbb25d", "fusion_lon": 0.0, "rental_uris": {"ios": "https://dc.lft.to/lastmile_qr_scan", "android": "https://dc.lft.to/lastmile_qr_scan"}}, {"lon": -77.05013183333334, "fusion_lat": 0.0, "type": "electric_scooter", "lat": 38.90049116666667, "is_disabled": 0, "name": "4e8742f5698c766fce0dd01af3ef1065", "is_reserved": 0, "bike_id": "4e8742f5698c766fce0dd01af3ef1065", "fusion_lon": 0.0, "rental_uris": {"ios": "https://dc.lft.to/lastmile_qr_scan", "android": "https://dc.lft.to/lastmile_qr_scan"}}, {"lon": -77.02179916666667, "fusion_lat": 0.0, "type": "electric_scooter", "lat": 38.91533583333333, "is_disabled": 0, "name": "ab755c1a2876f7a5a556d358703bd3c7", "is_reserved": 0, "bike_id": "ab755c1a2876f7a5a556d358703bd3c7", "fusion_lon": 0.0, "rental_uris": {"ios": "https://dc.lft.to/lastmile_qr_scan", "android": "https://dc.lft.to/lastmile_qr_scan"}}, {"lon": -77.01739683333334, "fusion_lat": 0.0, "type": "electric_scooter", "lat": 38.87529966666666, "is_disabled": 0, "name": "f39d21c816278a1ce181fcc548122a66", "is_reserved": 0, "bike_id": "f39d21c816278a1ce181fcc548122a66", "fusion_lon": 0.0, "rental_uris": {"ios": "https://dc.lft.to/lastmile_qr_scan", "android": "https://dc.lft.to/lastmile_qr_scan"}}, {"lon": -77.02691783333333, "fusion_lat": 0.0, "type": "electric_scooter", "lat": 38.9067995, "is_disabled": 0, "name": "b3764dd1f3997a2a615bc6567f9dfc7f", "is_reserved": 0, "bike_id": "b3764dd1f3997a2a615bc6567f9dfc7f", "fusion_lon": 0.0, "rental_uris": {"ios": "https://dc.lft.to/lastmile_qr_scan", "android": "https://dc.lft.to/lastmile_qr_scan"}}, {"lon": -77.0087295, "fusion_lat": 0.0, "type": "electric_bike", "lat": 38.90573466666667, "is_disabled": 0, "name": "c72135406f6c9da64f012b9e7cc735f4", "is_reserved": 0, "bike_id": "c72135406f6c9da64f012b9e7cc735f4", "fusion_lon": 0.0, "rental_uris": {"ios": "https://dc.lft.to/lastmile_qr_scan", "android": "https://dc.lft.to/lastmile_qr_scan"}}, {"lon": -77.04118433333333, "fusion_lat": 0.0, "type": "electric_scooter", "lat": 38.9058815, "is_disabled": 0, "name": "fd51357943083c20e233834424a41c4e", "is_reserved": 0, "bike_id": "fd51357943083c20e233834424a41c4e", "fusion_lon": 0.0, "rental_uris": {"ios": "https://dc.lft.to/lastmile_qr_scan", "android": "https://dc.lft.to/lastmile_qr_scan"}}, {"lon": -76.995202, "fusion_lat": 0.0, "type": "electric_scooter", "lat": 38.883729, "is_disabled": 0, "name": "96a751ab55d0035911a6be49d376456d", "is_reserved": 0, "bike_id": "96a751ab55d0035911a6be49d376456d", "fusion_lon": 0.0, "rental_uris": {"ios": "https://dc.lft.to/lastmile_qr_scan", "android": "https://dc.lft.to/lastmile_qr_scan"}}, {"lon": -77.046693, "fusion_lat": 0.0, "type": "electric_scooter", "lat": 38.91062383333333, "is_disabled": 0, "name": "a4f73c819659871c3975198e21bab22d", "is_reserved": 0, "bike_id": "a4f73c819659871c3975198e21bab22d", "fusion_lon": 0.0, "rental_uris": {"ios": "https://dc.lft.to/lastmile_qr_scan", "android": "https://dc.lft.to/lastmile_qr_scan"}}, {"lon": -77.0214815, "fusion_lat": 0.0, "type": "electric_scooter", "lat": 38.92444183333333, "is_disabled": 0, "name": "e53d9cfeb0068c43cd4609c16195d8a8", "is_reserved": 0, "bike_id": "e53d9cfeb0068c43cd4609c16195d8a8", "fusion_lon": 0.0, "rental_uris": {"ios": "https://dc.lft.to/lastmile_qr_scan", "android": "https://dc.lft.to/lastmile_qr_scan"}}, {"lon": -76.98835583333333, "fusion_lat": 0.0, "type": "electric_scooter", "lat": 38.900319, "is_disabled": 0, "name": "b2154604d96528b8312538df6db011bb", "is_reserved": 0, "bike_id": "b2154604d96528b8312538df6db011bb", "fusion_lon": 0.0, "rental_uris": {"ios": "https://dc.lft.to/lastmile_qr_scan", "android": "https://dc.lft.to/lastmile_qr_scan"}}, {"lon": -76.9396805, "fusion_lat": 0.0, "type": "electric_scooter", "lat": 38.893095333333335, "is_disabled": 0, "name": "dd60187d76f0ff0d5cb1cfa688c76670", "is_reserved": 0, "bike_id": "dd60187d76f0ff0d5cb1cfa688c76670", "fusion_lon": 0.0, "rental_uris": {"ios": "https://dc.lft.to/lastmile_qr_scan", "android": "https://dc.lft.to/lastmile_qr_scan"}}, {"lon": -77.04749533333333, "fusion_lat": 0.0, "type": "electric_scooter", "lat": 38.91767883333333, "is_disabled": 0, "name": "13d9b284f979f92bcacc34fd525d78fa", "is_reserved": 0, "bike_id": "13d9b284f979f92bcacc34fd525d78fa", "fusion_lon": 0.0, "rental_uris": {"ios": "https://dc.lft.to/lastmile_qr_scan", "android": "https://dc.lft.to/lastmile_qr_scan"}}, {"lon": -77.0342115, "fusion_lat": 0.0, "type": "electric_scooter", "lat": 38.928673833333335, "is_disabled": 0, "name": "31faaf41ef346210bad83819765c608c", "is_reserved": 0, "bike_id": "31faaf41ef346210bad83819765c608c", "fusion_lon": 0.0, "rental_uris": {"ios": "https://dc.lft.to/lastmile_qr_scan", "android": "https://dc.lft.to/lastmile_qr_scan"}}, {"lon": -77.05375416666666, "fusion_lat": 0.0, "type": "electric_bike", "lat": 38.847562833333335, "is_disabled": 0, "name": "5a115ee4802e7b00fb39d1ffd9442665", "is_reserved": 0, "bike_id": "5a115ee4802e7b00fb39d1ffd9442665", "fusion_lon": 0.0, "rental_uris": {"ios": "https://dc.lft.to/lastmile_qr_scan", "android": "https://dc.lft.to/lastmile_qr_scan"}}, {"lon": -77.01139766666667, "fusion_lat": 0.0, "type": "electric_scooter", "lat": 38.8954165, "is_disabled": 0, "name": "f9047cd3c4f881e8eb6d53a1800a376b", "is_reserved": 0, "bike_id": "f9047cd3c4f881e8eb6d53a1800a376b", "fusion_lon": 0.0, "rental_uris": {"ios": "https://dc.lft.to/lastmile_qr_scan", "android": "https://dc.lft.to/lastmile_qr_scan"}}, {"lon": -77.019629, "fusion_lat": 0.0, "type": "electric_scooter", "lat": 38.92323583333334, "is_disabled": 0, "name": "2608ce0ae6f1e697f6a7a3cdeb504940", "is_reserved": 0, "bike_id": "2608ce0ae6f1e697f6a7a3cdeb504940", "fusion_lon": 0.0, "rental_uris": {"ios": "https://dc.lft.to/lastmile_qr_scan", "android": "https://dc.lft.to/lastmile_qr_scan"}}, {"lon": -77.0325505, "fusion_lat": 0.0, "type": "electric_scooter", "lat": 38.928835, "is_disabled": 0, "name": "d9aea145c0c5898918c48f80e32024c0", "is_reserved": 0, "bike_id": "d9aea145c0c5898918c48f80e32024c0", "fusion_lon": 0.0, "rental_uris": {"ios": "https://dc.lft.to/lastmile_qr_scan", "android": "https://dc.lft.to/lastmile_qr_scan"}}, {"lon": -77.07331483333333, "fusion_lat": 0.0, "type": "electric_scooter", "lat": 38.909787333333334, "is_disabled": 0, "name": "12c2cf3df6abe27516df178a2694003a", "is_reserved": 0, "bike_id": "12c2cf3df6abe27516df178a2694003a", "fusion_lon": 0.0, "rental_uris": {"ios": "https://dc.lft.to/lastmile_qr_scan", "android": "https://dc.lft.to/lastmile_qr_scan"}}, {"lon": -76.99904483333333, "fusion_lat": 0.0, "type": "electric_scooter", "lat": 38.928436833333336, "is_disabled": 0, "name": "f60f0db7bea9650f341c9122fb38a239", "is_reserved": 0, "bike_id": "f60f0db7bea9650f341c9122fb38a239", "fusion_lon": 0.0, "rental_uris": {"ios": "https://dc.lft.to/lastmile_qr_scan", "android": "https://dc.lft.to/lastmile_qr_scan"}}, {"lon": -77.04666933333333, "fusion_lat": 0.0, "type": "electric_scooter", "lat": 38.9094345, "is_disabled": 0, "name": "230e9b8112af5daf2385e5ba875c6b7b", "is_reserved": 0, "bike_id": "230e9b8112af5daf2385e5ba875c6b7b", "fusion_lon": 0.0, "rental_uris": {"ios": "https://dc.lft.to/lastmile_qr_scan", "android": "https://dc.lft.to/lastmile_qr_scan"}}, {"lon": -77.0397565, "fusion_lat": 0.0, "type": "electric_scooter", "lat": 38.90124866666667, "is_disabled": 0, "name": "ecbe71155c9a318257323d219aaa68c4", "is_reserved": 0, "bike_id": "ecbe71155c9a318257323d219aaa68c4", "fusion_lon": 0.0, "rental_uris": {"ios": "https://dc.lft.to/lastmile_qr_scan", "android": "https://dc.lft.to/lastmile_qr_scan"}}, {"lon": -77.02178083333334, "fusion_lat": 0.0, "type": "electric_scooter", "lat": 38.884984333333335, "is_disabled": 0, "name": "acf14c0a83cd7027661655634c3f00db", "is_reserved": 0, "bike_id": "acf14c0a83cd7027661655634c3f00db", "fusion_lon": 0.0, "rental_uris": {"ios": "https://dc.lft.to/lastmile_qr_scan", "android": "https://dc.lft.to/lastmile_qr_scan"}}, {"lon": -77.020208, "fusion_lat": 0.0, "type": "electric_scooter", "lat": 38.894748166666666, "is_disabled": 0, "name": "3d4c9945220edfd4700b06a0065a8c51", "is_reserved": 0, "bike_id": "3d4c9945220edfd4700b06a0065a8c51", "fusion_lon": 0.0, "rental_uris": {"ios": "https://dc.lft.to/lastmile_qr_scan", "android": "https://dc.lft.to/lastmile_qr_scan"}}, {"lon": -77.04451883333333, "fusion_lat": 0.0, "type": "electric_scooter", "lat": 38.91014916666666, "is_disabled": 0, "name": "7d16af723882d6dbe7b8bdae6b587305", "is_reserved": 0, "bike_id": "7d16af723882d6dbe7b8bdae6b587305", "fusion_lon": 0.0, "rental_uris": {"ios": "https://dc.lft.to/lastmile_qr_scan", "android": "https://dc.lft.to/lastmile_qr_scan"}}, {"lon": -77.03191266666667, "fusion_lat": 0.0, "type": "electric_scooter", "lat": 38.892385833333336, "is_disabled": 0, "name": "786d39a8e8babf8c4b682e2a28c0d013", "is_reserved": 0, "bike_id": "786d39a8e8babf8c4b682e2a28c0d013", "fusion_lon": 0.0, "rental_uris": {"ios": "https://dc.lft.to/lastmile_qr_scan", "android": "https://dc.lft.to/lastmile_qr_scan"}}, {"lon": -77.02782883333333, "fusion_lat": 0.0, "type": "electric_scooter", "lat": 38.93057266666667, "is_disabled": 0, "name": "1da081f68f5ae5cf4df86673ab547de0", "is_reserved": 0, "bike_id": "1da081f68f5ae5cf4df86673ab547de0", "fusion_lon": 0.0, "rental_uris": {"ios": "https://dc.lft.to/lastmile_qr_scan", "android": "https://dc.lft.to/lastmile_qr_scan"}}, {"lon": -77.02214216666667, "fusion_lat": 0.0, "type": "electric_scooter", "lat": 38.89601916666667, "is_disabled": 0, "name": "d6dd0b7c3a22b6097ea9fd0e6e3f750f", "is_reserved": 0, "bike_id": "d6dd0b7c3a22b6097ea9fd0e6e3f750f", "fusion_lon": 0.0, "rental_uris": {"ios": "https://dc.lft.to/lastmile_qr_scan", "android": "https://dc.lft.to/lastmile_qr_scan"}}, {"lon": -77.083732, "fusion_lat": 0.0, "type": "electric_scooter", "lat": 38.95657816666667, "is_disabled": 0, "name": "c9beefcca13f08a5b7ce781a776fac3d", "is_reserved": 0, "bike_id": "c9beefcca13f08a5b7ce781a776fac3d", "fusion_lon": 0.0, "rental_uris": {"ios": "https://dc.lft.to/lastmile_qr_scan", "android": "https://dc.lft.to/lastmile_qr_scan"}}, {"lon": -77.0223015, "fusion_lat": 0.0, "type": "electric_scooter", "lat": 38.87843733333333, "is_disabled": 0, "name": "9399e20696b14b988826db02f293dd07", "is_reserved": 0, "bike_id": "9399e20696b14b988826db02f293dd07", "fusion_lon": 0.0, "rental_uris": {"ios": "https://dc.lft.to/lastmile_qr_scan", "android": "https://dc.lft.to/lastmile_qr_scan"}}, {"lon": -77.02213483333334, "fusion_lat": 0.0, "type": "electric_scooter", "lat": 38.92475233333333, "is_disabled": 0, "name": "cc9e4badd694ed0af6d97790e14001cc", "is_reserved": 0, "bike_id": "cc9e4badd694ed0af6d97790e14001cc", "fusion_lon": 0.0, "rental_uris": {"ios": "https://dc.lft.to/lastmile_qr_scan", "android": "https://dc.lft.to/lastmile_qr_scan"}}, {"lon": -77.037568, "fusion_lat": 0.0, "type": "electric_scooter", "lat": 38.907787666666664, "is_disabled": 0, "name": "9ba1c795c92580649104b16ed81fd5e2", "is_reserved": 0, "bike_id": "9ba1c795c92580649104b16ed81fd5e2", "fusion_lon": 0.0, "rental_uris": {"ios": "https://dc.lft.to/lastmile_qr_scan", "android": "https://dc.lft.to/lastmile_qr_scan"}}, {"lon": -77.0700835, "fusion_lat": 0.0, "type": "electric_scooter", "lat": 38.955760833333336, "is_disabled": 0, "name": "a30429aede150f8ad2055375cf41f665", "is_reserved": 0, "bike_id": "a30429aede150f8ad2055375cf41f665", "fusion_lon": 0.0, "rental_uris": {"ios": "https://dc.lft.to/lastmile_qr_scan", "android": "https://dc.lft.to/lastmile_qr_scan"}}, {"lon": -77.003267, "fusion_lat": 0.0, "type": "electric_scooter", "lat": 38.893614666666664, "is_disabled": 0, "name": "4f8a42140ea8cf458c5cbe829604455c", "is_reserved": 0, "bike_id": "4f8a42140ea8cf458c5cbe829604455c", "fusion_lon": 0.0, "rental_uris": {"ios": "https://dc.lft.to/lastmile_qr_scan", "android": "https://dc.lft.to/lastmile_qr_scan"}}, {"lon": -76.985382, "fusion_lat": 0.0, "type": "electric_scooter", "lat": 38.91286933333333, "is_disabled": 0, "name": "5113f1a243cd6032e6b58e6b4cbe6fd5", "is_reserved": 0, "bike_id": "5113f1a243cd6032e6b58e6b4cbe6fd5", "fusion_lon": 0.0, "rental_uris": {"ios": "https://dc.lft.to/lastmile_qr_scan", "android": "https://dc.lft.to/lastmile_qr_scan"}}, {"lon": -77.05598166666667, "fusion_lat": 0.0, "type": "electric_scooter", "lat": 38.93695366666667, "is_disabled": 0, "name": "d9cf2e42feba217abc396b32a3e8da61", "is_reserved": 0, "bike_id": "d9cf2e42feba217abc396b32a3e8da61", "fusion_lon": 0.0, "rental_uris": {"ios": "https://dc.lft.to/lastmile_qr_scan", "android": "https://dc.lft.to/lastmile_qr_scan"}}, {"lon": -77.0225745, "fusion_lat": 0.0, "type": "electric_scooter", "lat": 38.924301666666665, "is_disabled": 0, "name": "5edb21ed9b4edfe367ed047662a0f631", "is_reserved": 0, "bike_id": "5edb21ed9b4edfe367ed047662a0f631", "fusion_lon": 0.0, "rental_uris": {"ios": "https://dc.lft.to/lastmile_qr_scan", "android": "https://dc.lft.to/lastmile_qr_scan"}}, {"lon": -76.93261083333333, "fusion_lat": 0.0, "type": "electric_scooter", "lat": 38.8877235, "is_disabled": 0, "name": "26fbb3a21b19ca297ab0809f0e617096", "is_reserved": 0, "bike_id": "26fbb3a21b19ca297ab0809f0e617096", "fusion_lon": 0.0, "rental_uris": {"ios": "https://dc.lft.to/lastmile_qr_scan", "android": "https://dc.lft.to/lastmile_qr_scan"}}, {"lon": -77.0269585, "fusion_lat": 0.0, "type": "electric_scooter", "lat": 38.92465333333333, "is_disabled": 0, "name": "82c62a9f0fa1789631af2b745583d0b3", "is_reserved": 0, "bike_id": "82c62a9f0fa1789631af2b745583d0b3", "fusion_lon": 0.0, "rental_uris": {"ios": "https://dc.lft.to/lastmile_qr_scan", "android": "https://dc.lft.to/lastmile_qr_scan"}}, {"lon": -77.02770166666667, "fusion_lat": 0.0, "type": "electric_scooter", "lat": 38.92978166666666, "is_disabled": 0, "name": "16148eeb36ee65b7d1cc026a91a71183", "is_reserved": 0, "bike_id": "16148eeb36ee65b7d1cc026a91a71183", "fusion_lon": 0.0, "rental_uris": {"ios": "https://dc.lft.to/lastmile_qr_scan", "android": "https://dc.lft.to/lastmile_qr_scan"}}, {"lon": -77.021137, "fusion_lat": 0.0, "type": "electric_scooter", "lat": 38.924629, "is_disabled": 0, "name": "8dd4adf190c595fb3a6445a6a4a92ec2", "is_reserved": 0, "bike_id": "8dd4adf190c595fb3a6445a6a4a92ec2", "fusion_lon": 0.0, "rental_uris": {"ios": "https://dc.lft.to/lastmile_qr_scan", "android": "https://dc.lft.to/lastmile_qr_scan"}}, {"lon": -77.01904033333334, "fusion_lat": 0.0, "type": "electric_scooter", "lat": 38.920211, "is_disabled": 0, "name": "ec4445c97e6db3c16f38e00a499feb50", "is_reserved": 0, "bike_id": "ec4445c97e6db3c16f38e00a499feb50", "fusion_lon": 0.0, "rental_uris": {"ios": "https://dc.lft.to/lastmile_qr_scan", "android": "https://dc.lft.to/lastmile_qr_scan"}}, {"lon": -77.0167205, "fusion_lat": 0.0, "type": "electric_bike", "lat": 38.8811195, "is_disabled": 0, "name": "b63ff6990e966a11e97c26ff4e9ce0ce", "is_reserved": 0, "bike_id": "b63ff6990e966a11e97c26ff4e9ce0ce", "fusion_lon": 0.0, "rental_uris": {"ios": "https://dc.lft.to/lastmile_qr_scan", "android": "https://dc.lft.to/lastmile_qr_scan"}}, {"lon": -77.02214533333333, "fusion_lat": 0.0, "type": "electric_scooter", "lat": 38.92467216666667, "is_disabled": 0, "name": "75eeb5e940017045b69b24d577a642cb", "is_reserved": 0, "bike_id": "75eeb5e940017045b69b24d577a642cb", "fusion_lon": 0.0, "rental_uris": {"ios": "https://dc.lft.to/lastmile_qr_scan", "android": "https://dc.lft.to/lastmile_qr_scan"}}, {"lon": -77.03175416666667, "fusion_lat": 0.0, "type": "electric_scooter", "lat": 38.8861695, "is_disabled": 0, "name": "735cdb9fd2b7516d1471b767cef51399", "is_reserved": 0, "bike_id": "735cdb9fd2b7516d1471b767cef51399", "fusion_lon": 0.0, "rental_uris": {"ios": "https://dc.lft.to/lastmile_qr_scan", "android": "https://dc.lft.to/lastmile_qr_scan"}}, {"lon": -76.98209583333333, "fusion_lat": 0.0, "type": "electric_scooter", "lat": 38.90330183333333, "is_disabled": 0, "name": "1259f7a3451b7c11026b728a58134529", "is_reserved": 0, "bike_id": "1259f7a3451b7c11026b728a58134529", "fusion_lon": 0.0, "rental_uris": {"ios": "https://dc.lft.to/lastmile_qr_scan", "android": "https://dc.lft.to/lastmile_qr_scan"}}, {"lon": -77.00025666666667, "fusion_lat": 0.0, "type": "electric_scooter", "lat": 38.95919266666667, "is_disabled": 0, "name": "5e1371647c183afd1e5ad296c7cac37d", "is_reserved": 0, "bike_id": "5e1371647c183afd1e5ad296c7cac37d", "fusion_lon": 0.0, "rental_uris": {"ios": "https://dc.lft.to/lastmile_qr_scan", "android": "https://dc.lft.to/lastmile_qr_scan"}}, {"lon": -76.9971045, "fusion_lat": 0.0, "type": "electric_scooter", "lat": 38.894685333333335, "is_disabled": 0, "name": "8ea9b5beabd9d19795b7044c0f7ccdfe", "is_reserved": 0, "bike_id": "8ea9b5beabd9d19795b7044c0f7ccdfe", "fusion_lon": 0.0, "rental_uris": {"ios": "https://dc.lft.to/lastmile_qr_scan", "android": "https://dc.lft.to/lastmile_qr_scan"}}, {"lon": -77.03267266666667, "fusion_lat": 0.0, "type": "electric_scooter", "lat": 38.929447833333334, "is_disabled": 0, "name": "cb350b07235f547c174f5785908f0290", "is_reserved": 0, "bike_id": "cb350b07235f547c174f5785908f0290", "fusion_lon": 0.0, "rental_uris": {"ios": "https://dc.lft.to/lastmile_qr_scan", "android": "https://dc.lft.to/lastmile_qr_scan"}}, {"lon": -76.94570066666667, "fusion_lat": 0.0, "type": "electric_bike", "lat": 38.866199333333334, "is_disabled": 0, "name": "21269145eea5b4fcd6852f072fe126e8", "is_reserved": 0, "bike_id": "21269145eea5b4fcd6852f072fe126e8", "fusion_lon": 0.0, "rental_uris": {"ios": "https://dc.lft.to/lastmile_qr_scan", "android": "https://dc.lft.to/lastmile_qr_scan"}}, {"lon": -76.97737833333333, "fusion_lat": 0.0, "type": "electric_scooter", "lat": 38.90493166666667, "is_disabled": 0, "name": "2b0d8a1517b15e9e7f0ddd96015e307c", "is_reserved": 0, "bike_id": "2b0d8a1517b15e9e7f0ddd96015e307c", "fusion_lon": 0.0, "rental_uris": {"ios": "https://dc.lft.to/lastmile_qr_scan", "android": "https://dc.lft.to/lastmile_qr_scan"}}, {"lon": -77.02298583333334, "fusion_lat": 0.0, "type": "electric_scooter", "lat": 38.926533166666665, "is_disabled": 0, "name": "f3dd5b7f4a936046728775d7d95dd556", "is_reserved": 0, "bike_id": "f3dd5b7f4a936046728775d7d95dd556", "fusion_lon": 0.0, "rental_uris": {"ios": "https://dc.lft.to/lastmile_qr_scan", "android": "https://dc.lft.to/lastmile_qr_scan"}}, {"lon": -77.0499055, "fusion_lat": 0.0, "type": "electric_scooter", "lat": 38.9012195, "is_disabled": 0, "name": "582d3d0e11c09b788339a433d5943d8d", "is_reserved": 0, "bike_id": "582d3d0e11c09b788339a433d5943d8d", "fusion_lon": 0.0, "rental_uris": {"ios": "https://dc.lft.to/lastmile_qr_scan", "android": "https://dc.lft.to/lastmile_qr_scan"}}, {"lon": -77.04099616666667, "fusion_lat": 0.0, "type": "electric_scooter", "lat": 38.898548, "is_disabled": 0, "name": "0903391e4713d504a4fdc24df8a6a055", "is_reserved": 0, "bike_id": "0903391e4713d504a4fdc24df8a6a055", "fusion_lon": 0.0, "rental_uris": {"ios": "https://dc.lft.to/lastmile_qr_scan", "android": "https://dc.lft.to/lastmile_qr_scan"}}, {"lon": -76.97422783333333, "fusion_lat": 0.0, "type": "electric_scooter", "lat": 38.901513333333334, "is_disabled": 0, "name": "45e31fa0bb6d23a2092f3b0fb55a4949", "is_reserved": 0, "bike_id": "45e31fa0bb6d23a2092f3b0fb55a4949", "fusion_lon": 0.0, "rental_uris": {"ios": "https://dc.lft.to/lastmile_qr_scan", "android": "https://dc.lft.to/lastmile_qr_scan"}}, {"lon": -77.01725533333334, "fusion_lat": 0.0, "type": "electric_bike", "lat": 38.87692666666667, "is_disabled": 0, "name": "afc63e43421eeda9d7d5e18fcede2b63", "is_reserved": 0, "bike_id": "afc63e43421eeda9d7d5e18fcede2b63", "fusion_lon": 0.0, "rental_uris": {"ios": "https://dc.lft.to/lastmile_qr_scan", "android": "https://dc.lft.to/lastmile_qr_scan"}}, {"lon": -77.02111416666666, "fusion_lat": 0.0, "type": "electric_scooter", "lat": 38.92749933333333, "is_disabled": 0, "name": "6825966eef3ccc725ce60b92765d35c9", "is_reserved": 0, "bike_id": "6825966eef3ccc725ce60b92765d35c9", "fusion_lon": 0.0, "rental_uris": {"ios": "https://dc.lft.to/lastmile_qr_scan", "android": "https://dc.lft.to/lastmile_qr_scan"}}, {"lon": -76.98377016666667, "fusion_lat": 0.0, "type": "electric_scooter", "lat": 38.88726333333334, "is_disabled": 0, "name": "6168b80707c37ad50dd8cbbededf2be7", "is_reserved": 0, "bike_id": "6168b80707c37ad50dd8cbbededf2be7", "fusion_lon": 0.0, "rental_uris": {"ios": "https://dc.lft.to/lastmile_qr_scan", "android": "https://dc.lft.to/lastmile_qr_scan"}}, {"lon": -77.03477066666666, "fusion_lat": 0.0, "type": "electric_scooter", "lat": 38.9027765, "is_disabled": 0, "name": "2f92a82075dfcccb8c3b352bfa564613", "is_reserved": 0, "bike_id": "2f92a82075dfcccb8c3b352bfa564613", "fusion_lon": 0.0, "rental_uris": {"ios": "https://dc.lft.to/lastmile_qr_scan", "android": "https://dc.lft.to/lastmile_qr_scan"}}, {"lon": -77.03213416666667, "fusion_lat": 0.0, "type": "electric_scooter", "lat": 38.915120333333334, "is_disabled": 0, "name": "137fb088b8e8ca34372ef02c65746a94", "is_reserved": 0, "bike_id": "137fb088b8e8ca34372ef02c65746a94", "fusion_lon": 0.0, "rental_uris": {"ios": "https://dc.lft.to/lastmile_qr_scan", "android": "https://dc.lft.to/lastmile_qr_scan"}}, {"lon": -77.04142166666666, "fusion_lat": 0.0, "type": "electric_scooter", "lat": 38.89576683333333, "is_disabled": 0, "name": "da22f51a12b05cb43295ec1c247161dd", "is_reserved": 0, "bike_id": "da22f51a12b05cb43295ec1c247161dd", "fusion_lon": 0.0, "rental_uris": {"ios": "https://dc.lft.to/lastmile_qr_scan", "android": "https://dc.lft.to/lastmile_qr_scan"}}, {"lon": -77.03171783333333, "fusion_lat": 0.0, "type": "electric_scooter", "lat": 38.914149, "is_disabled": 0, "name": "b20374874025d70d6f872e059d413520", "is_reserved": 0, "bike_id": "b20374874025d70d6f872e059d413520", "fusion_lon": 0.0, "rental_uris": {"ios": "https://dc.lft.to/lastmile_qr_scan", "android": "https://dc.lft.to/lastmile_qr_scan"}}, {"lon": -77.02982, "fusion_lat": 0.0, "type": "electric_scooter", "lat": 38.915487666666664, "is_disabled": 0, "name": "5ddfd7b215999d6673ef973a8bf6779b", "is_reserved": 0, "bike_id": "5ddfd7b215999d6673ef973a8bf6779b", "fusion_lon": 0.0, "rental_uris": {"ios": "https://dc.lft.to/lastmile_qr_scan", "android": "https://dc.lft.to/lastmile_qr_scan"}}, {"lon": -77.04843916666667, "fusion_lat": 0.0, "type": "electric_scooter", "lat": 38.89967866666667, "is_disabled": 0, "name": "0e8ffb042df0bb40e14f8e263fdb3bf9", "is_reserved": 0, "bike_id": "0e8ffb042df0bb40e14f8e263fdb3bf9", "fusion_lon": 0.0, "rental_uris": {"ios": "https://dc.lft.to/lastmile_qr_scan", "android": "https://dc.lft.to/lastmile_qr_scan"}}, {"lon": -77.01280433333334, "fusion_lat": 0.0, "type": "electric_scooter", "lat": 38.9565145, "is_disabled": 0, "name": "3ddfd0e7debbeea86dc353b5f2eadb59", "is_reserved": 0, "bike_id": "3ddfd0e7debbeea86dc353b5f2eadb59", "fusion_lon": 0.0, "rental_uris": {"ios": "https://dc.lft.to/lastmile_qr_scan", "android": "https://dc.lft.to/lastmile_qr_scan"}}, {"lon": -77.03344383333334, "fusion_lat": 0.0, "type": "electric_scooter", "lat": 38.897274, "is_disabled": 0, "name": "dff0dbfe669adc57d5cc5eac7d032c89", "is_reserved": 0, "bike_id": "dff0dbfe669adc57d5cc5eac7d032c89", "fusion_lon": 0.0, "rental_uris": {"ios": "https://dc.lft.to/lastmile_qr_scan", "android": "https://dc.lft.to/lastmile_qr_scan"}}, {"lon": -77.03025066666666, "fusion_lat": 0.0, "type": "electric_scooter", "lat": 38.892239333333336, "is_disabled": 0, "name": "4880722a7a4ed57efb0d6063ea06a67a", "is_reserved": 0, "bike_id": "4880722a7a4ed57efb0d6063ea06a67a", "fusion_lon": 0.0, "rental_uris": {"ios": "https://dc.lft.to/lastmile_qr_scan", "android": "https://dc.lft.to/lastmile_qr_scan"}}, {"lon": -77.03872316666667, "fusion_lat": 0.0, "type": "electric_scooter", "lat": 38.901351, "is_disabled": 0, "name": "a76eda00eef85d2640e4f7aabb8aaaee", "is_reserved": 0, "bike_id": "a76eda00eef85d2640e4f7aabb8aaaee", "fusion_lon": 0.0, "rental_uris": {"ios": "https://dc.lft.to/lastmile_qr_scan", "android": "https://dc.lft.to/lastmile_qr_scan"}}, {"lon": -77.009127, "fusion_lat": 0.0, "type": "electric_scooter", "lat": 38.906575333333336, "is_disabled": 0, "name": "91a95e17b488c4775c4b5393b5f3f141", "is_reserved": 0, "bike_id": "91a95e17b488c4775c4b5393b5f3f141", "fusion_lon": 0.0, "rental_uris": {"ios": "https://dc.lft.to/lastmile_qr_scan", "android": "https://dc.lft.to/lastmile_qr_scan"}}, {"lon": -77.02217816666666, "fusion_lat": 0.0, "type": "electric_scooter", "lat": 38.924702333333336, "is_disabled": 0, "name": "3b8e4f2a1b748680281be949ca01fddb", "is_reserved": 0, "bike_id": "3b8e4f2a1b748680281be949ca01fddb", "fusion_lon": 0.0, "rental_uris": {"ios": "https://dc.lft.to/lastmile_qr_scan", "android": "https://dc.lft.to/lastmile_qr_scan"}}, {"lon": -77.02236716666667, "fusion_lat": 0.0, "type": "electric_scooter", "lat": 38.924899, "is_disabled": 0, "name": "383134ce725beb7807a3b749f6f8e092", "is_reserved": 0, "bike_id": "383134ce725beb7807a3b749f6f8e092", "fusion_lon": 0.0, "rental_uris": {"ios": "https://dc.lft.to/lastmile_qr_scan", "android": "https://dc.lft.to/lastmile_qr_scan"}}, {"lon": -77.04511066666667, "fusion_lat": 0.0, "type": "electric_scooter", "lat": 38.896039333333334, "is_disabled": 0, "name": "a195401771affcdc3505ce753c671add", "is_reserved": 0, "bike_id": "a195401771affcdc3505ce753c671add", "fusion_lon": 0.0, "rental_uris": {"ios": "https://dc.lft.to/lastmile_qr_scan", "android": "https://dc.lft.to/lastmile_qr_scan"}}, {"lon": -76.95634866666667, "fusion_lat": 0.0, "type": "electric_bike", "lat": 38.88509716666667, "is_disabled": 0, "name": "1691fdae85b5c045b22bfa810ff738b4", "is_reserved": 0, "bike_id": "1691fdae85b5c045b22bfa810ff738b4", "fusion_lon": 0.0, "rental_uris": {"ios": "https://dc.lft.to/lastmile_qr_scan", "android": "https://dc.lft.to/lastmile_qr_scan"}}, {"lon": -77.0268445, "fusion_lat": 0.0, "type": "electric_scooter", "lat": 38.94334766666667, "is_disabled": 0, "name": "a64087f5f3b01f84ba434fe74b2f8913", "is_reserved": 0, "bike_id": "a64087f5f3b01f84ba434fe74b2f8913", "fusion_lon": 0.0, "rental_uris": {"ios": "https://dc.lft.to/lastmile_qr_scan", "android": "https://dc.lft.to/lastmile_qr_scan"}}, {"lon": -77.04706233333333, "fusion_lat": 0.0, "type": "electric_scooter", "lat": 38.900796166666666, "is_disabled": 0, "name": "89c2ebe3d2f9366bdff43c858d943336", "is_reserved": 0, "bike_id": "89c2ebe3d2f9366bdff43c858d943336", "fusion_lon": 0.0, "rental_uris": {"ios": "https://dc.lft.to/lastmile_qr_scan", "android": "https://dc.lft.to/lastmile_qr_scan"}}, {"lon": -77.04553216666666, "fusion_lat": 0.0, "type": "electric_scooter", "lat": 38.924178166666664, "is_disabled": 0, "name": "0a12224064eae949c5c564d8a692622d", "is_reserved": 0, "bike_id": "0a12224064eae949c5c564d8a692622d", "fusion_lon": 0.0, "rental_uris": {"ios": "https://dc.lft.to/lastmile_qr_scan", "android": "https://dc.lft.to/lastmile_qr_scan"}}, {"lon": -76.9802225, "fusion_lat": 0.0, "type": "electric_scooter", "lat": 38.906691333333335, "is_disabled": 0, "name": "3cab38e6ad4f20a4b5f95b9e0ec16b14", "is_reserved": 0, "bike_id": "3cab38e6ad4f20a4b5f95b9e0ec16b14", "fusion_lon": 0.0, "rental_uris": {"ios": "https://dc.lft.to/lastmile_qr_scan", "android": "https://dc.lft.to/lastmile_qr_scan"}}, {"lon": -77.0123345, "fusion_lat": 0.0, "type": "electric_scooter", "lat": 38.9157965, "is_disabled": 0, "name": "2397aeeb84333ee5283f0d177e4e53fc", "is_reserved": 0, "bike_id": "2397aeeb84333ee5283f0d177e4e53fc", "fusion_lon": 0.0, "rental_uris": {"ios": "https://dc.lft.to/lastmile_qr_scan", "android": "https://dc.lft.to/lastmile_qr_scan"}}, {"lon": -77.02803416666667, "fusion_lat": 0.0, "type": "electric_scooter", "lat": 38.897290166666664, "is_disabled": 0, "name": "13563526d1aec83b92e1578395c7716b", "is_reserved": 0, "bike_id": "13563526d1aec83b92e1578395c7716b", "fusion_lon": 0.0, "rental_uris": {"ios": "https://dc.lft.to/lastmile_qr_scan", "android": "https://dc.lft.to/lastmile_qr_scan"}}, {"lon": -77.08757, "fusion_lat": 0.0, "type": "electric_bike", "lat": 38.806694, "is_disabled": 0, "name": "b925d3f2f807cc7a65dddc2672eac2f3", "is_reserved": 0, "bike_id": "b925d3f2f807cc7a65dddc2672eac2f3", "fusion_lon": 0.0, "rental_uris": {"ios": "https://dc.lft.to/lastmile_qr_scan", "android": "https://dc.lft.to/lastmile_qr_scan"}}, {"lon": -77.05388866666667, "fusion_lat": 0.0, "type": "electric_scooter", "lat": 38.927989833333335, "is_disabled": 0, "name": "22756af2176e32f974085c8917d7a842", "is_reserved": 0, "bike_id": "22756af2176e32f974085c8917d7a842", "fusion_lon": 0.0, "rental_uris": {"ios": "https://dc.lft.to/lastmile_qr_scan", "android": "https://dc.lft.to/lastmile_qr_scan"}}, {"lon": -77.03815816666666, "fusion_lat": 0.0, "type": "electric_scooter", "lat": 38.906778833333334, "is_disabled": 0, "name": "0c446a75b687b4572c635a02f37da26d", "is_reserved": 0, "bike_id": "0c446a75b687b4572c635a02f37da26d", "fusion_lon": 0.0, "rental_uris": {"ios": "https://dc.lft.to/lastmile_qr_scan", "android": "https://dc.lft.to/lastmile_qr_scan"}}, {"lon": -77.03423683333334, "fusion_lat": 0.0, "type": "electric_scooter", "lat": 38.9360545, "is_disabled": 0, "name": "339c8f6621693b50d0e559afd85a9b27", "is_reserved": 0, "bike_id": "339c8f6621693b50d0e559afd85a9b27", "fusion_lon": 0.0, "rental_uris": {"ios": "https://dc.lft.to/lastmile_qr_scan", "android": "https://dc.lft.to/lastmile_qr_scan"}}, {"lon": -77.03140616666667, "fusion_lat": 0.0, "type": "electric_scooter", "lat": 38.902563666666666, "is_disabled": 0, "name": "761e14652b6631d50d72db0306cde981", "is_reserved": 0, "bike_id": "761e14652b6631d50d72db0306cde981", "fusion_lon": 0.0, "rental_uris": {"ios": "https://dc.lft.to/lastmile_qr_scan", "android": "https://dc.lft.to/lastmile_qr_scan"}}, {"lon": -76.98376983333333, "fusion_lat": 0.0, "type": "electric_scooter", "lat": 38.899745833333334, "is_disabled": 0, "name": "2992b0e9d6172e8dbed30510b4769278", "is_reserved": 0, "bike_id": "2992b0e9d6172e8dbed30510b4769278", "fusion_lon": 0.0, "rental_uris": {"ios": "https://dc.lft.to/lastmile_qr_scan", "android": "https://dc.lft.to/lastmile_qr_scan"}}, {"lon": -77.03199683333334, "fusion_lat": 0.0, "type": "electric_scooter", "lat": 38.901296, "is_disabled": 0, "name": "b2795424f9875cd38a15f358b4bf7b33", "is_reserved": 0, "bike_id": "b2795424f9875cd38a15f358b4bf7b33", "fusion_lon": 0.0, "rental_uris": {"ios": "https://dc.lft.to/lastmile_qr_scan", "android": "https://dc.lft.to/lastmile_qr_scan"}}, {"lon": -76.99571183333333, "fusion_lat": 0.0, "type": "electric_scooter", "lat": 38.8948075, "is_disabled": 0, "name": "f923d1a444d3a02c911c4be8b147bb3e", "is_reserved": 0, "bike_id": "f923d1a444d3a02c911c4be8b147bb3e", "fusion_lon": 0.0, "rental_uris": {"ios": "https://dc.lft.to/lastmile_qr_scan", "android": "https://dc.lft.to/lastmile_qr_scan"}}, {"lon": -77.02127166666666, "fusion_lat": 0.0, "type": "electric_scooter", "lat": 38.92274966666667, "is_disabled": 0, "name": "aebee8d176bd23f646bfcbb6bb6fa0a8", "is_reserved": 0, "bike_id": "aebee8d176bd23f646bfcbb6bb6fa0a8", "fusion_lon": 0.0, "rental_uris": {"ios": "https://dc.lft.to/lastmile_qr_scan", "android": "https://dc.lft.to/lastmile_qr_scan"}}, {"lon": -77.01448333333333, "fusion_lat": 0.0, "type": "electric_scooter", "lat": 38.8994105, "is_disabled": 0, "name": "9d7cde883639e41269ef222ff14a5961", "is_reserved": 0, "bike_id": "9d7cde883639e41269ef222ff14a5961", "fusion_lon": 0.0, "rental_uris": {"ios": "https://dc.lft.to/lastmile_qr_scan", "android": "https://dc.lft.to/lastmile_qr_scan"}}, {"lon": -77.04481566666666, "fusion_lat": 0.0, "type": "electric_scooter", "lat": 38.91326633333333, "is_disabled": 0, "name": "755de355b12bc2528c87c587585a2f8a", "is_reserved": 0, "bike_id": "755de355b12bc2528c87c587585a2f8a", "fusion_lon": 0.0, "rental_uris": {"ios": "https://dc.lft.to/lastmile_qr_scan", "android": "https://dc.lft.to/lastmile_qr_scan"}}, {"lon": -76.9300165, "fusion_lat": 0.0, "type": "electric_scooter", "lat": 38.90184, "is_disabled": 0, "name": "53248c1c2fc5aabfef9c02ff869d43af", "is_reserved": 0, "bike_id": "53248c1c2fc5aabfef9c02ff869d43af", "fusion_lon": 0.0, "rental_uris": {"ios": "https://dc.lft.to/lastmile_qr_scan", "android": "https://dc.lft.to/lastmile_qr_scan"}}, {"lon": -77.06990366666666, "fusion_lat": 0.0, "type": "electric_scooter", "lat": 38.954869333333335, "is_disabled": 0, "name": "69a7eb181eb32e81f475acb78617a06d", "is_reserved": 0, "bike_id": "69a7eb181eb32e81f475acb78617a06d", "fusion_lon": 0.0, "rental_uris": {"ios": "https://dc.lft.to/lastmile_qr_scan", "android": "https://dc.lft.to/lastmile_qr_scan"}}, {"lon": -76.98821583333333, "fusion_lat": 0.0, "type": "electric_scooter", "lat": 38.89905183333333, "is_disabled": 0, "name": "bd856a7293d566ede542aaa93b7a971a", "is_reserved": 0, "bike_id": "bd856a7293d566ede542aaa93b7a971a", "fusion_lon": 0.0, "rental_uris": {"ios": "https://dc.lft.to/lastmile_qr_scan", "android": "https://dc.lft.to/lastmile_qr_scan"}}, {"lon": -77.04338866666667, "fusion_lat": 0.0, "type": "electric_scooter", "lat": 38.90056533333333, "is_disabled": 0, "name": "98be111bd5e7659cc2594ad917dbdd20", "is_reserved": 0, "bike_id": "98be111bd5e7659cc2594ad917dbdd20", "fusion_lon": 0.0, "rental_uris": {"ios": "https://dc.lft.to/lastmile_qr_scan", "android": "https://dc.lft.to/lastmile_qr_scan"}}, {"lon": -77.01211783333333, "fusion_lat": 0.0, "type": "electric_scooter", "lat": 38.870972333333334, "is_disabled": 0, "name": "7a4854506609291533b6edd01f8a1118", "is_reserved": 0, "bike_id": "7a4854506609291533b6edd01f8a1118", "fusion_lon": 0.0, "rental_uris": {"ios": "https://dc.lft.to/lastmile_qr_scan", "android": "https://dc.lft.to/lastmile_qr_scan"}}, {"lon": -77.02609066666666, "fusion_lat": 0.0, "type": "electric_scooter", "lat": 38.92383783333333, "is_disabled": 0, "name": "a03c4920dc5049841088fc5fcd520616", "is_reserved": 0, "bike_id": "a03c4920dc5049841088fc5fcd520616", "fusion_lon": 0.0, "rental_uris": {"ios": "https://dc.lft.to/lastmile_qr_scan", "android": "https://dc.lft.to/lastmile_qr_scan"}}, {"lon": -77.05157666666666, "fusion_lat": 0.0, "type": "electric_bike", "lat": 38.85057533333333, "is_disabled": 0, "name": "370ac79104db03c1939a4ee962f96e43", "is_reserved": 0, "bike_id": "370ac79104db03c1939a4ee962f96e43", "fusion_lon": 0.0, "rental_uris": {"ios": "https://dc.lft.to/lastmile_qr_scan", "android": "https://dc.lft.to/lastmile_qr_scan"}}, {"lon": -77.055936, "fusion_lat": 0.0, "type": "electric_scooter", "lat": 38.937096333333336, "is_disabled": 0, "name": "31b2ef76371c4fe77f7df58bfd7b8301", "is_reserved": 0, "bike_id": "31b2ef76371c4fe77f7df58bfd7b8301", "fusion_lon": 0.0, "rental_uris": {"ios": "https://dc.lft.to/lastmile_qr_scan", "android": "https://dc.lft.to/lastmile_qr_scan"}}, {"lon": -77.01771916666667, "fusion_lat": 0.0, "type": "electric_scooter", "lat": 38.92036983333333, "is_disabled": 0, "name": "ab0fcde49f6920651a713e0409812363", "is_reserved": 0, "bike_id": "ab0fcde49f6920651a713e0409812363", "fusion_lon": 0.0, "rental_uris": {"ios": "https://dc.lft.to/lastmile_qr_scan", "android": "https://dc.lft.to/lastmile_qr_scan"}}, {"lon": -77.03083433333333, "fusion_lat": 0.0, "type": "electric_scooter", "lat": 38.9278525, "is_disabled": 0, "name": "b83fd18f0db28083e5672b8061913d9e", "is_reserved": 0, "bike_id": "b83fd18f0db28083e5672b8061913d9e", "fusion_lon": 0.0, "rental_uris": {"ios": "https://dc.lft.to/lastmile_qr_scan", "android": "https://dc.lft.to/lastmile_qr_scan"}}, {"lon": -76.98390683333334, "fusion_lat": 0.0, "type": "electric_scooter", "lat": 38.9089585, "is_disabled": 0, "name": "83f319a557d7723ca1c6e50fdd7ec44a", "is_reserved": 0, "bike_id": "83f319a557d7723ca1c6e50fdd7ec44a", "fusion_lon": 0.0, "rental_uris": {"ios": "https://dc.lft.to/lastmile_qr_scan", "android": "https://dc.lft.to/lastmile_qr_scan"}}, {"lon": -77.12079766666666, "fusion_lat": 0.0, "type": "electric_bike", "lat": 38.78398933333333, "is_disabled": 0, "name": "b9b05fdbaa3c0f093d1d52c82f0bb8f5", "is_reserved": 0, "bike_id": "b9b05fdbaa3c0f093d1d52c82f0bb8f5", "fusion_lon": 0.0, "rental_uris": {"ios": "https://dc.lft.to/lastmile_qr_scan", "android": "https://dc.lft.to/lastmile_qr_scan"}}, {"lon": -77.02224183333334, "fusion_lat": 0.0, "type": "electric_scooter", "lat": 38.924743666666664, "is_disabled": 0, "name": "44e75be8d9522cee976e2fbb900b62b7", "is_reserved": 0, "bike_id": "44e75be8d9522cee976e2fbb900b62b7", "fusion_lon": 0.0, "rental_uris": {"ios": "https://dc.lft.to/lastmile_qr_scan", "android": "https://dc.lft.to/lastmile_qr_scan"}}, {"lon": -77.031507, "fusion_lat": 0.0, "type": "electric_scooter", "lat": 38.927901, "is_disabled": 0, "name": "c1e6ef47df2cade5857e01056e17a1ec", "is_reserved": 0, "bike_id": "c1e6ef47df2cade5857e01056e17a1ec", "fusion_lon": 0.0, "rental_uris": {"ios": "https://dc.lft.to/lastmile_qr_scan", "android": "https://dc.lft.to/lastmile_qr_scan"}}, {"lon": -77.00942933333333, "fusion_lat": 0.0, "type": "electric_scooter", "lat": 38.883288666666665, "is_disabled": 0, "name": "37384205d70dd13ef73d983f13feb251", "is_reserved": 0, "bike_id": "37384205d70dd13ef73d983f13feb251", "fusion_lon": 0.0, "rental_uris": {"ios": "https://dc.lft.to/lastmile_qr_scan", "android": "https://dc.lft.to/lastmile_qr_scan"}}, {"lon": -77.01383733333333, "fusion_lat": 0.0, "type": "electric_scooter", "lat": 38.89740466666667, "is_disabled": 0, "name": "20b19568ecda27ed89404972e2a757dd", "is_reserved": 0, "bike_id": "20b19568ecda27ed89404972e2a757dd", "fusion_lon": 0.0, "rental_uris": {"ios": "https://dc.lft.to/lastmile_qr_scan", "android": "https://dc.lft.to/lastmile_qr_scan"}}, {"lon": -77.0012315, "fusion_lat": 0.0, "type": "electric_scooter", "lat": 38.90177933333333, "is_disabled": 0, "name": "95b8faa283dd4e14d2e4b317c4840018", "is_reserved": 0, "bike_id": "95b8faa283dd4e14d2e4b317c4840018", "fusion_lon": 0.0, "rental_uris": {"ios": "https://dc.lft.to/lastmile_qr_scan", "android": "https://dc.lft.to/lastmile_qr_scan"}}, {"lon": -77.0324405, "fusion_lat": 0.0, "type": "electric_scooter", "lat": 38.92676933333333, "is_disabled": 0, "name": "6c40d11ca9a80b80790ddf3eaa8d87d7", "is_reserved": 0, "bike_id": "6c40d11ca9a80b80790ddf3eaa8d87d7", "fusion_lon": 0.0, "rental_uris": {"ios": "https://dc.lft.to/lastmile_qr_scan", "android": "https://dc.lft.to/lastmile_qr_scan"}}, {"lon": -77.031005, "fusion_lat": 0.0, "type": "electric_scooter", "lat": 38.924800166666664, "is_disabled": 0, "name": "69865c8d2b79bb4b6b99d29e8c47d9ca", "is_reserved": 0, "bike_id": "69865c8d2b79bb4b6b99d29e8c47d9ca", "fusion_lon": 0.0, "rental_uris": {"ios": "https://dc.lft.to/lastmile_qr_scan", "android": "https://dc.lft.to/lastmile_qr_scan"}}, {"lon": -76.98101066666666, "fusion_lat": 0.0, "type": "electric_scooter", "lat": 38.903923, "is_disabled": 0, "name": "9ff3f0f39effe4c575b9c4334d763170", "is_reserved": 0, "bike_id": "9ff3f0f39effe4c575b9c4334d763170", "fusion_lon": 0.0, "rental_uris": {"ios": "https://dc.lft.to/lastmile_qr_scan", "android": "https://dc.lft.to/lastmile_qr_scan"}}, {"lon": -77.0317355, "fusion_lat": 0.0, "type": "electric_scooter", "lat": 38.8862305, "is_disabled": 0, "name": "1f6ad8980e201534ff9a85dc40530083", "is_reserved": 0, "bike_id": "1f6ad8980e201534ff9a85dc40530083", "fusion_lon": 0.0, "rental_uris": {"ios": "https://dc.lft.to/lastmile_qr_scan", "android": "https://dc.lft.to/lastmile_qr_scan"}}, {"lon": -77.07313, "fusion_lat": 0.0, "type": "electric_scooter", "lat": 38.9356275, "is_disabled": 0, "name": "a067c92682345e6c5aa99b0caa7e2cea", "is_reserved": 0, "bike_id": "a067c92682345e6c5aa99b0caa7e2cea", "fusion_lon": 0.0, "rental_uris": {"ios": "https://dc.lft.to/lastmile_qr_scan", "android": "https://dc.lft.to/lastmile_qr_scan"}}, {"lon": -77.026493, "fusion_lat": 0.0, "type": "electric_bike", "lat": 38.98837366666667, "is_disabled": 0, "name": "479935562d23d7d2d0e263e6e1fbebe6", "is_reserved": 0, "bike_id": "479935562d23d7d2d0e263e6e1fbebe6", "fusion_lon": 0.0, "rental_uris": {"ios": "https://dc.lft.to/lastmile_qr_scan", "android": "https://dc.lft.to/lastmile_qr_scan"}}, {"lon": -77.02288683333333, "fusion_lat": 0.0, "type": "electric_scooter", "lat": 38.8952035, "is_disabled": 0, "name": "c2a70267aca586959ca2571a4f6ba73e", "is_reserved": 0, "bike_id": "c2a70267aca586959ca2571a4f6ba73e", "fusion_lon": 0.0, "rental_uris": {"ios": "https://dc.lft.to/lastmile_qr_scan", "android": "https://dc.lft.to/lastmile_qr_scan"}}, {"lon": -77.02706633333334, "fusion_lat": 0.0, "type": "electric_scooter", "lat": 38.89764916666667, "is_disabled": 0, "name": "9d3d434f888d1f0667649ec0d4f9a8c0", "is_reserved": 0, "bike_id": "9d3d434f888d1f0667649ec0d4f9a8c0", "fusion_lon": 0.0, "rental_uris": {"ios": "https://dc.lft.to/lastmile_qr_scan", "android": "https://dc.lft.to/lastmile_qr_scan"}}, {"lon": -77.02867233333333, "fusion_lat": 0.0, "type": "electric_scooter", "lat": 38.898573999999996, "is_disabled": 0, "name": "6508e42d089111f46016e5f12011e39d", "is_reserved": 0, "bike_id": "6508e42d089111f46016e5f12011e39d", "fusion_lon": 0.0, "rental_uris": {"ios": "https://dc.lft.to/lastmile_qr_scan", "android": "https://dc.lft.to/lastmile_qr_scan"}}, {"lon": -77.02003883333333, "fusion_lat": 0.0, "type": "electric_scooter", "lat": 38.892450833333335, "is_disabled": 0, "name": "d2bd1eec87e76d20cdbe92ce29878c18", "is_reserved": 0, "bike_id": "d2bd1eec87e76d20cdbe92ce29878c18", "fusion_lon": 0.0, "rental_uris": {"ios": "https://dc.lft.to/lastmile_qr_scan", "android": "https://dc.lft.to/lastmile_qr_scan"}}, {"lon": -77.02425833333334, "fusion_lat": 0.0, "type": "electric_scooter", "lat": 38.960254166666665, "is_disabled": 0, "name": "505f3faac1d38597d82494b2526f5b39", "is_reserved": 0, "bike_id": "505f3faac1d38597d82494b2526f5b39", "fusion_lon": 0.0, "rental_uris": {"ios": "https://dc.lft.to/lastmile_qr_scan", "android": "https://dc.lft.to/lastmile_qr_scan"}}, {"lon": -77.0328035, "fusion_lat": 0.0, "type": "electric_scooter", "lat": 38.92960516666667, "is_disabled": 0, "name": "71c6282012f86c8b4b7548bdfa8d5069", "is_reserved": 0, "bike_id": "71c6282012f86c8b4b7548bdfa8d5069", "fusion_lon": 0.0, "rental_uris": {"ios": "https://dc.lft.to/lastmile_qr_scan", "android": "https://dc.lft.to/lastmile_qr_scan"}}, {"lon": -76.98497066666667, "fusion_lat": 0.0, "type": "electric_scooter", "lat": 38.920062333333334, "is_disabled": 0, "name": "f90bbdc72753d6c867f74025ab635aa3", "is_reserved": 0, "bike_id": "f90bbdc72753d6c867f74025ab635aa3", "fusion_lon": 0.0, "rental_uris": {"ios": "https://dc.lft.to/lastmile_qr_scan", "android": "https://dc.lft.to/lastmile_qr_scan"}}, {"lon": -77.028138, "fusion_lat": 0.0, "type": "electric_scooter", "lat": 38.902512333333334, "is_disabled": 0, "name": "c782826ec56a6ebb04e39cdfbe815bff", "is_reserved": 0, "bike_id": "c782826ec56a6ebb04e39cdfbe815bff", "fusion_lon": 0.0, "rental_uris": {"ios": "https://dc.lft.to/lastmile_qr_scan", "android": "https://dc.lft.to/lastmile_qr_scan"}}, {"lon": -77.02202116666666, "fusion_lat": 0.0, "type": "electric_scooter", "lat": 38.924715666666664, "is_disabled": 0, "name": "b288a90389a992e4c85bd1c2c0fcc3f1", "is_reserved": 0, "bike_id": "b288a90389a992e4c85bd1c2c0fcc3f1", "fusion_lon": 0.0, "rental_uris": {"ios": "https://dc.lft.to/lastmile_qr_scan", "android": "https://dc.lft.to/lastmile_qr_scan"}}, {"lon": -76.97711383333333, "fusion_lat": 0.0, "type": "electric_scooter", "lat": 38.88818166666667, "is_disabled": 0, "name": "aea133cc93246d5fcf37519e2a09afc1", "is_reserved": 0, "bike_id": "aea133cc93246d5fcf37519e2a09afc1", "fusion_lon": 0.0, "rental_uris": {"ios": "https://dc.lft.to/lastmile_qr_scan", "android": "https://dc.lft.to/lastmile_qr_scan"}}, {"lon": -77.0433525, "fusion_lat": 0.0, "type": "electric_scooter", "lat": 38.90029083333334, "is_disabled": 0, "name": "0979afe168d3c899a9e06340ff1a0db3", "is_reserved": 0, "bike_id": "0979afe168d3c899a9e06340ff1a0db3", "fusion_lon": 0.0, "rental_uris": {"ios": "https://dc.lft.to/lastmile_qr_scan", "android": "https://dc.lft.to/lastmile_qr_scan"}}, {"lon": -77.035266, "fusion_lat": 0.0, "type": "electric_scooter", "lat": 38.90363833333333, "is_disabled": 0, "name": "07f350835d8f7856d7b66c11d63bed12", "is_reserved": 0, "bike_id": "07f350835d8f7856d7b66c11d63bed12", "fusion_lon": 0.0, "rental_uris": {"ios": "https://dc.lft.to/lastmile_qr_scan", "android": "https://dc.lft.to/lastmile_qr_scan"}}, {"lon": -77.02386616666666, "fusion_lat": 0.0, "type": "electric_scooter", "lat": 38.896355666666665, "is_disabled": 0, "name": "323cbc5eb99987d66f0ef039ed6f7187", "is_reserved": 0, "bike_id": "323cbc5eb99987d66f0ef039ed6f7187", "fusion_lon": 0.0, "rental_uris": {"ios": "https://dc.lft.to/lastmile_qr_scan", "android": "https://dc.lft.to/lastmile_qr_scan"}}, {"lon": -77.08759016666667, "fusion_lat": 0.0, "type": "electric_bike", "lat": 38.80656366666667, "is_disabled": 0, "name": "3fb641fc3bfbfec36ebd1b5b1b42cb05", "is_reserved": 0, "bike_id": "3fb641fc3bfbfec36ebd1b5b1b42cb05", "fusion_lon": 0.0, "rental_uris": {"ios": "https://dc.lft.to/lastmile_qr_scan", "android": "https://dc.lft.to/lastmile_qr_scan"}}, {"lon": -77.005912, "fusion_lat": 0.0, "type": "electric_scooter", "lat": 38.877453333333335, "is_disabled": 0, "name": "4b3c77b66606010d5804299cb539373b", "is_reserved": 0, "bike_id": "4b3c77b66606010d5804299cb539373b", "fusion_lon": 0.0, "rental_uris": {"ios": "https://dc.lft.to/lastmile_qr_scan", "android": "https://dc.lft.to/lastmile_qr_scan"}}, {"lon": -76.9745905, "fusion_lat": 0.0, "type": "electric_bike", "lat": 38.85594283333333, "is_disabled": 0, "name": "bcb100e36495cb8b369577e4d6c997f7", "is_reserved": 0, "bike_id": "bcb100e36495cb8b369577e4d6c997f7", "fusion_lon": 0.0, "rental_uris": {"ios": "https://dc.lft.to/lastmile_qr_scan", "android": "https://dc.lft.to/lastmile_qr_scan"}}, {"lon": -77.05571183333333, "fusion_lat": 0.0, "type": "electric_scooter", "lat": 38.93063883333333, "is_disabled": 0, "name": "32adf8ae8e9f2663f6870216da4b2e66", "is_reserved": 0, "bike_id": "32adf8ae8e9f2663f6870216da4b2e66", "fusion_lon": 0.0, "rental_uris": {"ios": "https://dc.lft.to/lastmile_qr_scan", "android": "https://dc.lft.to/lastmile_qr_scan"}}, {"lon": -77.0403925, "fusion_lat": 0.0, "type": "electric_scooter", "lat": 38.905972166666665, "is_disabled": 0, "name": "8c6e2906affc67c4675ced5169f76f7a", "is_reserved": 0, "bike_id": "8c6e2906affc67c4675ced5169f76f7a", "fusion_lon": 0.0, "rental_uris": {"ios": "https://dc.lft.to/lastmile_qr_scan", "android": "https://dc.lft.to/lastmile_qr_scan"}}, {"lon": -77.01765033333334, "fusion_lat": 0.0, "type": "electric_scooter", "lat": 38.93891516666667, "is_disabled": 0, "name": "aa6163f33124a69772b6eacfd6d1681c", "is_reserved": 0, "bike_id": "aa6163f33124a69772b6eacfd6d1681c", "fusion_lon": 0.0, "rental_uris": {"ios": "https://dc.lft.to/lastmile_qr_scan", "android": "https://dc.lft.to/lastmile_qr_scan"}}, {"lon": -76.99016316666666, "fusion_lat": 0.0, "type": "electric_bike", "lat": 38.94314966666666, "is_disabled": 0, "name": "3d6dae36da82111ab85e5b81bc220faa", "is_reserved": 0, "bike_id": "3d6dae36da82111ab85e5b81bc220faa", "fusion_lon": 0.0, "rental_uris": {"ios": "https://dc.lft.to/lastmile_qr_scan", "android": "https://dc.lft.to/lastmile_qr_scan"}}, {"lon": -77.04881266666666, "fusion_lat": 0.0, "type": "electric_scooter", "lat": 38.89856283333334, "is_disabled": 0, "name": "8a4ed2c417b9bb50c09c5b07dfa48e4d", "is_reserved": 0, "bike_id": "8a4ed2c417b9bb50c09c5b07dfa48e4d", "fusion_lon": 0.0, "rental_uris": {"ios": "https://dc.lft.to/lastmile_qr_scan", "android": "https://dc.lft.to/lastmile_qr_scan"}}, {"lon": -77.05321616666667, "fusion_lat": 0.0, "type": "electric_scooter", "lat": 38.904446166666666, "is_disabled": 0, "name": "b22901e7ef0081dfe227d62cb9db6f92", "is_reserved": 0, "bike_id": "b22901e7ef0081dfe227d62cb9db6f92", "fusion_lon": 0.0, "rental_uris": {"ios": "https://dc.lft.to/lastmile_qr_scan", "android": "https://dc.lft.to/lastmile_qr_scan"}}, {"lon": -76.93481866666667, "fusion_lat": 0.0, "type": "electric_scooter", "lat": 38.907344333333334, "is_disabled": 0, "name": "9841ddd730f5a7207d9012e02dcff4cb", "is_reserved": 0, "bike_id": "9841ddd730f5a7207d9012e02dcff4cb", "fusion_lon": 0.0, "rental_uris": {"ios": "https://dc.lft.to/lastmile_qr_scan", "android": "https://dc.lft.to/lastmile_qr_scan"}}, {"lon": -77.03656716666667, "fusion_lat": 0.0, "type": "electric_scooter", "lat": 38.923445, "is_disabled": 0, "name": "11170b503fbd7e16f2293294bd053e5b", "is_reserved": 0, "bike_id": "11170b503fbd7e16f2293294bd053e5b", "fusion_lon": 0.0, "rental_uris": {"ios": "https://dc.lft.to/lastmile_qr_scan", "android": "https://dc.lft.to/lastmile_qr_scan"}}, {"lon": -77.07208233333333, "fusion_lat": 0.0, "type": "electric_scooter", "lat": 38.922493333333335, "is_disabled": 0, "name": "2e4195ca67a0d72d51225af656e79173", "is_reserved": 0, "bike_id": "2e4195ca67a0d72d51225af656e79173", "fusion_lon": 0.0, "rental_uris": {"ios": "https://dc.lft.to/lastmile_qr_scan", "android": "https://dc.lft.to/lastmile_qr_scan"}}, {"lon": -77.0467245, "fusion_lat": 0.0, "type": "electric_scooter", "lat": 38.90176983333333, "is_disabled": 0, "name": "6614cf6fbd6b62e262dc3c2359ef88ba", "is_reserved": 0, "bike_id": "6614cf6fbd6b62e262dc3c2359ef88ba", "fusion_lon": 0.0, "rental_uris": {"ios": "https://dc.lft.to/lastmile_qr_scan", "android": "https://dc.lft.to/lastmile_qr_scan"}}, {"lon": -76.98161583333334, "fusion_lat": 0.0, "type": "electric_scooter", "lat": 38.8623185, "is_disabled": 0, "name": "5381b76321e867285c98002eee035d76", "is_reserved": 0, "bike_id": "5381b76321e867285c98002eee035d76", "fusion_lon": 0.0, "rental_uris": {"ios": "https://dc.lft.to/lastmile_qr_scan", "android": "https://dc.lft.to/lastmile_qr_scan"}}, {"lon": -77.02222933333333, "fusion_lat": 0.0, "type": "electric_scooter", "lat": 38.912687166666664, "is_disabled": 0, "name": "c2a02aab285c189b0c1a49f6be7b3322", "is_reserved": 0, "bike_id": "c2a02aab285c189b0c1a49f6be7b3322", "fusion_lon": 0.0, "rental_uris": {"ios": "https://dc.lft.to/lastmile_qr_scan", "android": "https://dc.lft.to/lastmile_qr_scan"}}, {"lon": -77.04451866666666, "fusion_lat": 0.0, "type": "electric_scooter", "lat": 38.9349385, "is_disabled": 0, "name": "d10ed8f06d4e1373adbe4e9ba3c5a630", "is_reserved": 0, "bike_id": "d10ed8f06d4e1373adbe4e9ba3c5a630", "fusion_lon": 0.0, "rental_uris": {"ios": "https://dc.lft.to/lastmile_qr_scan", "android": "https://dc.lft.to/lastmile_qr_scan"}}, {"lon": -77.01952083333333, "fusion_lat": 0.0, "type": "electric_scooter", "lat": 38.923645666666665, "is_disabled": 0, "name": "d3a6fca4e4bf61ab22d44644dd1ef71d", "is_reserved": 0, "bike_id": "d3a6fca4e4bf61ab22d44644dd1ef71d", "fusion_lon": 0.0, "rental_uris": {"ios": "https://dc.lft.to/lastmile_qr_scan", "android": "https://dc.lft.to/lastmile_qr_scan"}}, {"lon": -77.01953416666667, "fusion_lat": 0.0, "type": "electric_scooter", "lat": 38.923268, "is_disabled": 0, "name": "13fefad054ec98148bdabce2f4e3b143", "is_reserved": 0, "bike_id": "13fefad054ec98148bdabce2f4e3b143", "fusion_lon": 0.0, "rental_uris": {"ios": "https://dc.lft.to/lastmile_qr_scan", "android": "https://dc.lft.to/lastmile_qr_scan"}}, {"lon": -77.02852433333334, "fusion_lat": 0.0, "type": "electric_bike", "lat": 38.92130566666667, "is_disabled": 0, "name": "c68cc915783b0319806cb1d6ca0a36ae", "is_reserved": 0, "bike_id": "c68cc915783b0319806cb1d6ca0a36ae", "fusion_lon": 0.0, "rental_uris": {"ios": "https://dc.lft.to/lastmile_qr_scan", "android": "https://dc.lft.to/lastmile_qr_scan"}}, {"lon": -77.05425533333333, "fusion_lat": 0.0, "type": "electric_scooter", "lat": 38.923441833333335, "is_disabled": 0, "name": "0a8729ccc00a2f7a2b7f320e6404d737", "is_reserved": 0, "bike_id": "0a8729ccc00a2f7a2b7f320e6404d737", "fusion_lon": 0.0, "rental_uris": {"ios": "https://dc.lft.to/lastmile_qr_scan", "android": "https://dc.lft.to/lastmile_qr_scan"}}, {"lon": -77.04118383333333, "fusion_lat": 0.0, "type": "electric_scooter", "lat": 38.92144433333333, "is_disabled": 0, "name": "4936818fe1e3771e57a131b57eb33951", "is_reserved": 0, "bike_id": "4936818fe1e3771e57a131b57eb33951", "fusion_lon": 0.0, "rental_uris": {"ios": "https://dc.lft.to/lastmile_qr_scan", "android": "https://dc.lft.to/lastmile_qr_scan"}}, {"lon": -76.996765, "fusion_lat": 0.0, "type": "electric_scooter", "lat": 38.887225666666666, "is_disabled": 0, "name": "22c1957be45984133d87c9b46d443555", "is_reserved": 0, "bike_id": "22c1957be45984133d87c9b46d443555", "fusion_lon": 0.0, "rental_uris": {"ios": "https://dc.lft.to/lastmile_qr_scan", "android": "https://dc.lft.to/lastmile_qr_scan"}}, {"lon": -77.03359583333334, "fusion_lat": 0.0, "type": "electric_scooter", "lat": 38.98988766666667, "is_disabled": 0, "name": "aa0478c51f74f64436ffed132937e81c", "is_reserved": 0, "bike_id": "aa0478c51f74f64436ffed132937e81c", "fusion_lon": 0.0, "rental_uris": {"ios": "https://dc.lft.to/lastmile_qr_scan", "android": "https://dc.lft.to/lastmile_qr_scan"}}, {"lon": -77.02505683333334, "fusion_lat": 0.0, "type": "electric_scooter", "lat": 38.88030216666667, "is_disabled": 0, "name": "ebd0e4a124e3de083d73e86e4b6029d1", "is_reserved": 0, "bike_id": "ebd0e4a124e3de083d73e86e4b6029d1", "fusion_lon": 0.0, "rental_uris": {"ios": "https://dc.lft.to/lastmile_qr_scan", "android": "https://dc.lft.to/lastmile_qr_scan"}}, {"lon": -77.01954383333333, "fusion_lat": 0.0, "type": "electric_scooter", "lat": 38.92333433333334, "is_disabled": 0, "name": "8c0c63d7d88084e32de1ea83a0c3651d", "is_reserved": 0, "bike_id": "8c0c63d7d88084e32de1ea83a0c3651d", "fusion_lon": 0.0, "rental_uris": {"ios": "https://dc.lft.to/lastmile_qr_scan", "android": "https://dc.lft.to/lastmile_qr_scan"}}, {"lon": -77.02503783333333, "fusion_lat": 0.0, "type": "electric_scooter", "lat": 38.92634183333333, "is_disabled": 0, "name": "298985ffb6bfb9b071ce857727af6f3e", "is_reserved": 0, "bike_id": "298985ffb6bfb9b071ce857727af6f3e", "fusion_lon": 0.0, "rental_uris": {"ios": "https://dc.lft.to/lastmile_qr_scan", "android": "https://dc.lft.to/lastmile_qr_scan"}}, {"lon": -77.00605266666666, "fusion_lat": 0.0, "type": "electric_scooter", "lat": 38.91119483333333, "is_disabled": 0, "name": "1a1bb845e446d5c0b502d486be42749c", "is_reserved": 0, "bike_id": "1a1bb845e446d5c0b502d486be42749c", "fusion_lon": 0.0, "rental_uris": {"ios": "https://dc.lft.to/lastmile_qr_scan", "android": "https://dc.lft.to/lastmile_qr_scan"}}, {"lon": -76.9926575, "fusion_lat": 0.0, "type": "electric_scooter", "lat": 38.897775833333334, "is_disabled": 0, "name": "57b2996db621020eba7eb6e4bc667a14", "is_reserved": 0, "bike_id": "57b2996db621020eba7eb6e4bc667a14", "fusion_lon": 0.0, "rental_uris": {"ios": "https://dc.lft.to/lastmile_qr_scan", "android": "https://dc.lft.to/lastmile_qr_scan"}}, {"lon": -77.04494233333334, "fusion_lat": 0.0, "type": "electric_scooter", "lat": 38.90118616666667, "is_disabled": 0, "name": "51fce772d5f9440b2879559e592f87aa", "is_reserved": 0, "bike_id": "51fce772d5f9440b2879559e592f87aa", "fusion_lon": 0.0, "rental_uris": {"ios": "https://dc.lft.to/lastmile_qr_scan", "android": "https://dc.lft.to/lastmile_qr_scan"}}, {"lon": -76.98837583333334, "fusion_lat": 0.0, "type": "electric_scooter", "lat": 38.898816833333335, "is_disabled": 0, "name": "ada4501899aad85ef747b774c551a766", "is_reserved": 0, "bike_id": "ada4501899aad85ef747b774c551a766", "fusion_lon": 0.0, "rental_uris": {"ios": "https://dc.lft.to/lastmile_qr_scan", "android": "https://dc.lft.to/lastmile_qr_scan"}}, {"lon": -77.02692, "fusion_lat": 0.0, "type": "electric_scooter", "lat": 38.924629833333334, "is_disabled": 0, "name": "9f2c62ad2f98adebf11354bac3425204", "is_reserved": 0, "bike_id": "9f2c62ad2f98adebf11354bac3425204", "fusion_lon": 0.0, "rental_uris": {"ios": "https://dc.lft.to/lastmile_qr_scan", "android": "https://dc.lft.to/lastmile_qr_scan"}}, {"lon": -77.02546166666667, "fusion_lat": 0.0, "type": "electric_scooter", "lat": 38.916539666666665, "is_disabled": 0, "name": "ad8e72dda64e6739882166daa2d1bbb6", "is_reserved": 0, "bike_id": "ad8e72dda64e6739882166daa2d1bbb6", "fusion_lon": 0.0, "rental_uris": {"ios": "https://dc.lft.to/lastmile_qr_scan", "android": "https://dc.lft.to/lastmile_qr_scan"}}, {"lon": -76.99119966666666, "fusion_lat": 0.0, "type": "electric_scooter", "lat": 38.8970885, "is_disabled": 0, "name": "a08b09d091cbac33ce983114d782fbd4", "is_reserved": 0, "bike_id": "a08b09d091cbac33ce983114d782fbd4", "fusion_lon": 0.0, "rental_uris": {"ios": "https://dc.lft.to/lastmile_qr_scan", "android": "https://dc.lft.to/lastmile_qr_scan"}}, {"lon": -77.03441516666666, "fusion_lat": 0.0, "type": "electric_scooter", "lat": 38.918223166666664, "is_disabled": 0, "name": "ec2da360ced6f22602f5e80d821bf782", "is_reserved": 0, "bike_id": "ec2da360ced6f22602f5e80d821bf782", "fusion_lon": 0.0, "rental_uris": {"ios": "https://dc.lft.to/lastmile_qr_scan", "android": "https://dc.lft.to/lastmile_qr_scan"}}, {"lon": -77.0727585, "fusion_lat": 0.0, "type": "electric_scooter", "lat": 38.90917966666667, "is_disabled": 0, "name": "052d1a5c47eca10ec112c8a36b5629a3", "is_reserved": 0, "bike_id": "052d1a5c47eca10ec112c8a36b5629a3", "fusion_lon": 0.0, "rental_uris": {"ios": "https://dc.lft.to/lastmile_qr_scan", "android": "https://dc.lft.to/lastmile_qr_scan"}}, {"lon": -77.03329833333333, "fusion_lat": 0.0, "type": "electric_scooter", "lat": 38.93893633333333, "is_disabled": 0, "name": "5d16ec7cef94c6a12db4ee42daa7f86f", "is_reserved": 0, "bike_id": "5d16ec7cef94c6a12db4ee42daa7f86f", "fusion_lon": 0.0, "rental_uris": {"ios": "https://dc.lft.to/lastmile_qr_scan", "android": "https://dc.lft.to/lastmile_qr_scan"}}, {"lon": -77.01112983333333, "fusion_lat": 0.0, "type": "electric_scooter", "lat": 38.8850635, "is_disabled": 0, "name": "8dc63d22913f169e196666595b3922e3", "is_reserved": 0, "bike_id": "8dc63d22913f169e196666595b3922e3", "fusion_lon": 0.0, "rental_uris": {"ios": "https://dc.lft.to/lastmile_qr_scan", "android": "https://dc.lft.to/lastmile_qr_scan"}}, {"lon": -77.00973533333334, "fusion_lat": 0.0, "type": "electric_scooter", "lat": 38.919226333333334, "is_disabled": 0, "name": "4827dddc3b5f7af8216f886f9e4233e8", "is_reserved": 0, "bike_id": "4827dddc3b5f7af8216f886f9e4233e8", "fusion_lon": 0.0, "rental_uris": {"ios": "https://dc.lft.to/lastmile_qr_scan", "android": "https://dc.lft.to/lastmile_qr_scan"}}, {"lon": -77.0179555, "fusion_lat": 0.0, "type": "electric_scooter", "lat": 38.902506833333334, "is_disabled": 0, "name": "dd59ddbacbf280b327442bbe8d24a406", "is_reserved": 0, "bike_id": "dd59ddbacbf280b327442bbe8d24a406", "fusion_lon": 0.0, "rental_uris": {"ios": "https://dc.lft.to/lastmile_qr_scan", "android": "https://dc.lft.to/lastmile_qr_scan"}}, {"lon": -77.02609316666667, "fusion_lat": 0.0, "type": "electric_scooter", "lat": 38.90355783333333, "is_disabled": 0, "name": "8cd11c8ca4740aa3fb11b633550bcb07", "is_reserved": 0, "bike_id": "8cd11c8ca4740aa3fb11b633550bcb07", "fusion_lon": 0.0, "rental_uris": {"ios": "https://dc.lft.to/lastmile_qr_scan", "android": "https://dc.lft.to/lastmile_qr_scan"}}, {"lon": -77.02303316666666, "fusion_lat": 0.0, "type": "electric_scooter", "lat": 38.92091633333333, "is_disabled": 0, "name": "16d194025a5168eabaa3c6a41a33917d", "is_reserved": 0, "bike_id": "16d194025a5168eabaa3c6a41a33917d", "fusion_lon": 0.0, "rental_uris": {"ios": "https://dc.lft.to/lastmile_qr_scan", "android": "https://dc.lft.to/lastmile_qr_scan"}}, {"lon": -76.95012383333334, "fusion_lat": 0.0, "type": "electric_scooter", "lat": 38.906108333333336, "is_disabled": 0, "name": "6192f829ac0f0e80e1ba0ab9f3d8ce5b", "is_reserved": 0, "bike_id": "6192f829ac0f0e80e1ba0ab9f3d8ce5b", "fusion_lon": 0.0, "rental_uris": {"ios": "https://dc.lft.to/lastmile_qr_scan", "android": "https://dc.lft.to/lastmile_qr_scan"}}, {"lon": -77.03852766666667, "fusion_lat": 0.0, "type": "electric_scooter", "lat": 38.90369466666667, "is_disabled": 0, "name": "c42ba73f4d1c2daae6a7c2d0356bc125", "is_reserved": 0, "bike_id": "c42ba73f4d1c2daae6a7c2d0356bc125", "fusion_lon": 0.0, "rental_uris": {"ios": "https://dc.lft.to/lastmile_qr_scan", "android": "https://dc.lft.to/lastmile_qr_scan"}}, {"lon": -77.02302033333333, "fusion_lat": 0.0, "type": "electric_scooter", "lat": 38.92090916666667, "is_disabled": 0, "name": "f584ec7f3648464fa802c8e6d7106b30", "is_reserved": 0, "bike_id": "f584ec7f3648464fa802c8e6d7106b30", "fusion_lon": 0.0, "rental_uris": {"ios": "https://dc.lft.to/lastmile_qr_scan", "android": "https://dc.lft.to/lastmile_qr_scan"}},