{"data": {"bikes": [{"fusion_lat": 0.0, "fusion_lon": 0.0, "lat": 38.803915333333336, "type": "electric_bike", "rental_uris": {"android": "https://dc.lft.to/lastmile_qr_scan", "ios": "https://dc.lft.to/lastmile_qr_scan"}, "is_reserved": 0, "lon": -77.05563233333334, "name": "26ef7fd8d00dd0be6d21c23f7715b845", "bike_id": "26ef7fd8d00dd0be6d21c23f7715b845", "is_disabled": 0}, {"fusion_lat": 0.0, "fusion_lon": 0.0, "lat": 38.875004833333335, "type": "electric_scooter", "rental_uris": {"android": "https://dc.lft.to/lastmile_qr_scan", "ios": "https://dc.lft.to/lastmile_qr_scan"}, "is_reserved": 0, "lon": -77.00130666666666, "name": "cebbf16226046078cd5da5661d24194c", "bike_id": "cebbf16226046078cd5da5661d24194c", "is_disabled": 0}, {"fusion_lat": 0.0, "fusion_lon": 0.0, "lat": 38.8936065, "type": "electric_scooter", "rental_uris": {"android": "https://dc.lft.to/lastmile_qr_scan", "ios": "https://dc.lft.to/lastmile_qr_scan"}, "is_reserved": 0, "lon": -76.9493775, "name": "6ea438901572c912ec22ff2dfd0a1229", "bike_id": "6ea438901572c912ec22ff2dfd0a1229", "is_disabled": 0}, {"fusion_lat": 0.0, "fusion_lon": 0.0, "lat": 38.909847, "type": "electric_scooter", "rental_uris": {"android": "https://dc.lft.to/lastmile_qr_scan", "ios": "https://dc.lft.to/lastmile_qr_scan"}, "is_reserved": 0, "lon": -77.03205966666667, "name": "3c7842ebe693f835f47d0095212672cd", "bike_id": "3c7842ebe693f835f47d0095212672cd", "is_disabled": 0}, {"fusion_lat": 0.0, "fusion_lon": 0.0, "lat": 38.894978333333334, "type": "electric_scooter", "rental_uris": {"android": "https://dc.lft.to/lastmile_qr_scan", "ios": "https://dc.lft.to/lastmile_qr_scan"}, "is_reserved": 0, "lon": -77.02293833333333, "name": "9b9cfce809de89a4f0ab729486667aa0", "bike_id": "9b9cfce809de89a4f0ab729486667aa0", "is_disabled": 0}, {"fusion_lat": 0.0, "fusion_lon": 0.0, "lat": 38.949212833333334, "type": "electric_scooter", "rental_uris": {"android": "https://dc.lft.to/lastmile_qr_scan", "ios": "https://dc.lft.to/lastmile_qr_scan"}, "is_reserved": 0, "lon": -77.0075945, "name": "7faa3c848c76ac3d0211d5677f3225cd", "bike_id": "7faa3c848c76ac3d0211d5677f3225cd", "is_disabled": 0}, {"fusion_lat": 0.0, "fusion_lon": 0.0, "lat": 38.915446, "type": "electric_scooter", "rental_uris": {"android": "https://dc.lft.to/lastmile_qr_scan", "ios": "https://dc.lft.to/lastmile_qr_scan"}, "is_reserved": 0, "lon": -77.0196995, "name": "e5345551e113f993e1a792df0b6ba6c9", "bike_id": "e5345551e113f993e1a792df0b6ba6c9", "is_disabled": 0}, {"fusion_lat": 0.0, "fusion_lon": 0.0, "lat": 38.921526666666665, "type": "electric_scooter", "rental_uris": {"android": "https://dc.lft.to/lastmile_qr_scan", "ios": "https://dc.lft.to/lastmile_qr_scan"}, "is_reserved": 0, "lon": -77.022037, "name": "bb2aad2d5cdb4033b75d67856b5d5920", "bike_id": "bb2aad2d5cdb4033b75d67856b5d5920", "is_disabled": 0}, {"fusion_lat": 0.0, "fusion_lon": 0.0, "lat": 38.91068216666667, "type": "electric_scooter", "rental_uris": {"android": "https://dc.lft.to/lastmile_qr_scan", "ios": "https://dc.lft.to/lastmile_qr_scan"}, "is_reserved": 0, "lon": -77.026321, "name": "84c9b54330598a08461166335751a532", "bike_id": "84c9b54330598a08461166335751a532", "is_disabled": 0}, {"fusion_lat": 0.0, "fusion_lon": 0.0, "lat": 38.923874, "type": "electric_scooter", "rental_uris": {"android": "https://dc.lft.to/lastmile_qr_scan", "ios": "https://dc.lft.to/lastmile_qr_scan"}, "is_reserved": 0, "lon": -77.03654283333333, "name": "229e08660e7617f5f58428ef264ab15c", "bike_id": "229e08660e7617f5f58428ef264ab15c", "is_disabled": 0}, {"fusion_lat": 0.0, "fusion_lon": 0.0, "lat": 38.865155, "type": "electric_bike", "rental_uris": {"android": "https://dc.lft.to/lastmile_qr_scan", "ios": "https://dc.lft.to/lastmile_qr_scan"}, "is_reserved": 0, "lon": -77.129378, "name": "386b06ff8b6f7af2052e3679f90069d8", "bike_id": "386b06ff8b6f7af2052e3679f90069d8", "is_disabled": 0}, {"fusion_lat": 0.0, "fusion_lon": 0.0, "lat": 38.88719283333333, "type": "electric_scooter", "rental_uris": {"android": "https://dc.lft.to/lastmile_qr_scan", "ios": "https://dc.lft.to/lastmile_qr_scan"}, "is_reserved": 0, "lon": -77.0216645, "name": "8a1ea00845d0415adb83ff1258ba06f6", "bike_id": "8a1ea00845d0415adb83ff1258ba06f6", "is_disabled": 0}, {"fusion_lat": 0.0, "fusion_lon": 0.0, "lat": 38.8952795, "type": "electric_scooter", "rental_uris": {"android": "https://dc.lft.to/lastmile_qr_scan", "ios": "https://dc.lft.to/lastmile_qr_scan"}, "is_reserved": 0, "lon": -77.00333433333333, "name": "bfb5a96b69648781f6ff6e1bdb7adb17", "bike_id": "bfb5a96b69648781f6ff6e1bdb7adb17", "is_disabled": 0}, {"fusion_lat": 0.0, "fusion_lon": 0.0, "lat": 38.9037025, "type": "electric_scooter", "rental_uris": {"android": "https://dc.lft.to/lastmile_qr_scan", "ios": "https://dc.lft.to/lastmile_qr_scan"}, "is_reserved": 0, "lon": -77.03165783333333, "name": "cadd2773ed09626edc5cdc8dcacc966b", "bike_id": "cadd2773ed09626edc5cdc8dcacc966b", "is_disabled": 0}, {"fusion_lat": 0.0, "fusion_lon": 0.0, "lat": 38.935770833333336, "type": "electric_scooter", "rental_uris": {"android": "https://dc.lft.to/lastmile_qr_scan", "ios": "https://dc.lft.to/lastmile_qr_scan"}, "is_reserved": 0, "lon": -77.0327065, "name": "e7dc8a9d271daf22a098755db8141b37", "bike_id": "e7dc8a9d271daf22a098755db8141b37", "is_disabled": 0}, {"fusion_lat": 0.0, "fusion_lon": 0.0, "lat": 38.90246333333333, "type": "electric_scooter", "rental_uris": {"android": "https://dc.lft.to/lastmile_qr_scan", "ios": "https://dc.lft.to/lastmile_qr_scan"}, "is_reserved": 0, "lon": -76.93762166666667, "name": "dbc0bbdae50abc4bc358e0496fdc030b", "bike_id": "dbc0bbdae50abc4bc358e0496fdc030b", "is_disabled": 0}, {"fusion_lat": 0.0, "fusion_lon": 0.0, "lat": 38.919006833333334, "type": "electric_scooter", "rental_uris": {"android": "https://dc.lft.to/lastmile_qr_scan", "ios": "https://dc.lft.to/lastmile_qr_scan"}, "is_reserved": 0, "lon": -77.04168216666666, "name": "a4caeac6d340160171e732e544dfa15c", "bike_id": "a4caeac6d340160171e732e544dfa15c", "is_disabled": 0}, {"fusion_lat": 0.0, "fusion_lon": 0.0, "lat": 38.995321833333335, "type": "electric_bike", "rental_uris": {"android": "https://dc.lft.to/lastmile_qr_scan", "ios": "https://dc.lft.to/lastmile_qr_scan"}, "is_reserved": 0, "lon": -77.06948166666666, "name": "399b7c1b4228656670d9f1283d94b70f", "bike_id": "399b7c1b4228656670d9f1283d94b70f", "is_disabled": 0}, {"fusion_lat": 0.0, "fusion_lon": 0.0, "lat": 38.83889816666667, "type": "electric_scooter", "rental_uris": {"android": "https://dc.lft.to/lastmile_qr_scan", "ios": "https://dc.lft.to/lastmile_qr_scan"}, "is_reserved": 0, "lon": -77.000649, "name": "72db965a7a592232d723cbf1fcdc0787", "bike_id": "72db965a7a592232d723cbf1fcdc0787", "is_disabled": 0}, {"fusion_lat": 0.0, "fusion_lon": 0.0, "lat": 38.900172166666664, "type": "electric_scooter", "rental_uris": {"android": "https://dc.lft.to/lastmile_qr_scan", "ios": "https://dc.lft.to/lastmile_qr_scan"}, "is_reserved": 0, "lon": -76.987695, "name": "e5fff8bdce5df4d44206a081525ff165", "bike_id": "e5fff8bdce5df4d44206a081525ff165", "is_disabled": 0}, {"fusion_lat": 0.0, "fusion_lon": 0.0, "lat": 38.93327816666667, "type": "electric_scooter", "rental_uris": {"android": "https://dc.lft.to/lastmile_qr_scan", "ios": "https://dc.lft.to/lastmile_qr_scan"}, "is_reserved": 0, "lon": -77.072312, "name": "594054a52c79c2de3814a13b330cc3a1", "bike_id": "594054a52c79c2de3814a13b330cc3a1", "is_disabled": 0}, {"fusion_lat": 0.0, "fusion_lon": 0.0, "lat": 38.898738, "type": "electric_scooter", "rental_uris": {"android": "https://dc.lft.to/lastmile_qr_scan", "ios": "https://dc.lft.to/lastmile_qr_scan"}, "is_reserved": 0, "lon": -77.04657933333333, "name": "b3c388bf4f40a58f49b113c935b5ecd5", "bike_id": "b3c388bf4f40a58f49b113c935b5ecd5", "is_disabled": 0}, {"fusion_lat": 0.0, "fusion_lon": 0.0, "lat": 38.89846266666667, "type": "electric_scooter", "rental_uris": {"android": "https://dc.lft.to/lastmile_qr_scan", "ios": "https://dc.lft.to/lastmile_qr_scan"}, "is_reserved": 0, "lon": -77.03332966666666, "name": "787b1880633e04e6d24246d3d615cc93", "bike_id": "787b1880633e04e6d24246d3d615cc93", "is_disabled": 0}, {"fusion_lat": 0.0, "fusion_lon": 0.0, "lat": 38.875453, "type": "electric_scooter", "rental_uris": {"android": "https://dc.lft.to/lastmile_qr_scan", "ios": "https://dc.lft.to/lastmile_qr_scan"}, "is_reserved": 0, "lon": -77.0053285, "name": "1c306a8ff4b7bc55bce326efb4d51819", "bike_id": "1c306a8ff4b7bc55bce326efb4d51819", "is_disabled": 0}, {"fusion_lat": 0.0, "fusion_lon": 0.0, "lat": 38.9412825, "type": "electric_scooter", "rental_uris": {"android": "https://dc.lft.to/lastmile_qr_scan", "ios": "https://dc.lft.to/lastmile_qr_scan"}, "is_reserved": 0, "lon": -77.01909833333333, "name": "6a29b2cffcbc57b7c0aa3d2ced710d95", "bike_id": "6a29b2cffcbc57b7c0aa3d2ced710d95", "is_disabled": 0}, {"fusion_lat": 0.0, "fusion_lon": 0.0, "lat": 38.900094833333334, "type": "electric_scooter", "rental_uris": {"android": "https://dc.lft.to/lastmile_qr_scan", "ios": "https://dc.lft.to/lastmile_qr_scan"}, "is_reserved": 0, "lon": -77.0271235, "name": "1e48cd72615c7837d03dff9e550e3710", "bike_id": "1e48cd72615c7837d03dff9e550e3710", "is_disabled": 0}, {"fusion_lat": 0.0, "fusion_lon": 0.0, "lat": 38.902844333333334, "type": "electric_scooter", "rental_uris": {"android": "https://dc.lft.to/lastmile_qr_scan", "ios": "https://dc.lft.to/lastmile_qr_scan"}, "is_reserved": 0, "lon": -77.04678533333333, "name": "8bf26350117d67e6883e35ee858220a9", "bike_id": "8bf26350117d67e6883e35ee858220a9", "is_disabled": 0}, {"fusion_lat": 0.0, "fusion_lon": 0.0, "lat": 38.92230716666667, "type": "electric_scooter", "rental_uris": {"android": "https://dc.lft.to/lastmile_qr_scan", "ios": "https://dc.lft.to/lastmile_qr_scan"}, "is_reserved": 0, "lon": -77.04374866666667, "name": "3b936805d89dd8b4e15865cc4a3540b0", "bike_id": "3b936805d89dd8b4e15865cc4a3540b0", "is_disabled": 0}, {"fusion_lat": 0.0, "fusion_lon": 0.0, "lat": 38.917539833333336, "type": "electric_scooter", "rental_uris": {"android": "https://dc.lft.to/lastmile_qr_scan", "ios": "https://dc.lft.to/lastmile_qr_scan"}, "is_reserved": 0, "lon": -77.0415475, "name": "a69e1710682bf7eca5ecb5638a751450", "bike_id": "a69e1710682bf7eca5ecb5638a751450", "is_disabled": 0}, {"fusion_lat": 0.0, "fusion_lon": 0.0, "lat": 38.908660166666664, "type": "electric_scooter", "rental_uris": {"android": "https://dc.lft.to/lastmile_qr_scan", "ios": "https://dc.lft.to/lastmile_qr_scan"}, "is_reserved": 0, "lon": -77.085899, "name": "6ba60a363ccf1ea56cf22c7de6f41aa2", "bike_id": "6ba60a363ccf1ea56cf22c7de6f41aa2", "is_disabled": 0}, {"fusion_lat": 0.0, "fusion_lon": 0.0, "lat": 38.898450833333335, "type": "electric_scooter", "rental_uris": {"android": "https://dc.lft.to/lastmile_qr_scan", "ios": "https://dc.lft.to/lastmile_qr_scan"}, "is_reserved": 0, "lon": -77.0435915, "name": "ed64742c15aad5095a0a33f4b761cf0a", "bike_id": "ed64742c15aad5095a0a33f4b761cf0a", "is_disabled": 0}, {"fusion_lat": 0.0, "fusion_lon": 0.0, "lat": 38.9023895, "type": "electric_scooter", "rental_uris": {"android": "https://dc.lft.to/lastmile_qr_scan", "ios": "https://dc.lft.to/lastmile_qr_scan"}, "is_reserved": 0, "lon": -77.03521683333334, "name": "3228625c57e447c53e49dc6745f5a8f8", "bike_id": "3228625c57e447c53e49dc6745f5a8f8", "is_disabled": 0}, {"fusion_lat": 0.0, "fusion_lon": 0.0, "lat": 38.91764533333333, "type": "electric_scooter", "rental_uris": {"android": "https://dc.lft.to/lastmile_qr_scan", "ios": "https://dc.lft.to/lastmile_qr_scan"}, "is_reserved": 0, "lon": -77.04561366666667, "name": "4c59525cc4ebf594ea5fda68da0db31f", "bike_id": "4c59525cc4ebf594ea5fda68da0db31f", "is_disabled": 0}, {"fusion_lat": 0.0, "fusion_lon": 0.0, "lat": 38.930247, "type": "electric_scooter", "rental_uris": {"android": "https://dc.lft.to/lastmile_qr_scan", "ios": "https://dc.lft.to/lastmile_qr_scan"}, "is_reserved": 0, "lon": -77.01989433333334, "name": "ed78b4a7334defea0dd4c0cbc9300893", "bike_id": "ed78b4a7334defea0dd4c0cbc9300893", "is_disabled": 0}, {"fusion_lat": 0.0, "fusion_lon": 0.0, "lat": 38.933542833333334, "type": "electric_scooter", "rental_uris": {"android": "https://dc.lft.to/lastmile_qr_scan", "ios": "https://dc.lft.to/lastmile_qr_scan"}, "is_reserved": 0, "lon": -77.0411535, "name": "8be8d6ae219f3e74d88fe2635df81620", "bike_id": "8be8d6ae219f3e74d88fe2635df81620", "is_disabled": 0}, {"fusion_lat": 0.0, "fusion_lon": 0.0, "lat": 38.922218666666666, "type": "electric_scooter", "rental_uris": {"android": "https://dc.lft.to/lastmile_qr_scan", "ios": "https://dc.lft.to/lastmile_qr_scan"}, "is_reserved": 0, "lon": -77.01830216666667, "name": "dc5a487889e47593b1adbcaca7255be0", "bike_id": "dc5a487889e47593b1adbcaca7255be0", "is_disabled": 0}, {"fusion_lat": 0.0, "fusion_lon": 0.0, "lat": 38.86222016666667, "type": "electric_scooter", "rental_uris": {"android": "https://dc.lft.to/lastmile_qr_scan", "ios": "https://dc.lft.to/lastmile_qr_scan"}, "is_reserved": 0, "lon": -76.994627, "name": "b9f3bfbbbf38b3157340244165049419", "bike_id": "b9f3bfbbbf38b3157340244165049419", "is_disabled": 0}, {"fusion_lat": 0.0, "fusion_lon": 0.0, "lat": 38.91670933333333, "type": "electric_scooter", "rental_uris": {"android": "https://dc.lft.to/lastmile_qr_scan", "ios": "https://dc.lft.to/lastmile_qr_scan"}, "is_reserved": 0, "lon": -77.02403666666666, "name": "a93e194e7e1eab1b0c123609a9812be5", "bike_id": "a93e194e7e1eab1b0c123609a9812be5", "is_disabled": 0}, {"fusion_lat": 0.0, "fusion_lon": 0.0, "lat": 38.902547166666665, "type": "electric_scooter", "rental_uris": {"android": "https://dc.lft.to/lastmile_qr_scan", "ios": "https://dc.lft.to/lastmile_qr_scan"}, "is_reserved": 0, "lon": -77.01730066666667, "name": "1d26060b2843e6709ce533136d3f6b23", "bike_id": "1d26060b2843e6709ce533136d3f6b23", "is_disabled": 0}, {"fusion_lat": 0.0, "fusion_lon": 0.0, "lat": 38.870639833333335, "type": "electric_scooter", "rental_uris": {"android": "https://dc.lft.to/lastmile_qr_scan", "ios": "https://dc.lft.to/lastmile_qr_scan"}, "is_reserved": 0, "lon": -76.9709495, "name": "cc4b2127382cdf747646117e795d5247", "bike_id": "cc4b2127382cdf747646117e795d5247", "is_disabled": 0}, {"fusion_lat": 0.0, "fusion_lon": 0.0, "lat": 38.922179, "type": "electric_bike", "rental_uris": {"android": "https://dc.lft.to/lastmile_qr_scan", "ios": "https://dc.lft.to/lastmile_qr_scan"}, "is_reserved": 0, "lon": -77.20137133333333, "name": "02589e6102258ee22b3b10fe3075c97d", "bike_id": "02589e6102258ee22b3b10fe3075c97d", "is_disabled": 0}, {"fusion_lat": 0.0, "fusion_lon": 0.0, "lat": 38.9210505, "type": "electric_scooter", "rental_uris": {"android": "https://dc.lft.to/lastmile_qr_scan", "ios": "https://dc.lft.to/lastmile_qr_scan"}, "is_reserved": 0, "lon": -77.04199566666666, "name": "f3fe02541cbe29f7e933dc11019572bd", "bike_id": "f3fe02541cbe29f7e933dc11019572bd", "is_disabled": 0}, {"fusion_lat": 0.0, "fusion_lon": 0.0, "lat": 38.8987025, "type": "electric_scooter", "rental_uris": {"android": "https://dc.lft.to/lastmile_qr_scan", "ios": "https://dc.lft.to/lastmile_qr_scan"}, "is_reserved": 0, "lon": -76.94634033333334, "name": "ba5011cab6abd25f3fbf17132c280fd4", "bike_id": "ba5011cab6abd25f3fbf17132c280fd4", "is_disabled": 0}, {"fusion_lat": 0.0, "fusion_lon": 0.0, "lat": 38.911832833333335, "type": "electric_scooter", "rental_uris": {"android": "https://dc.lft.to/lastmile_qr_scan", "ios": "https://dc.lft.to/lastmile_qr_scan"}, "is_reserved": 0, "lon": -77.04496783333333, "name": "fe7e78567e3a0de99987ad925c66d076", "bike_id": "fe7e78567e3a0de99987ad925c66d076", "is_disabled": 0}, {"fusion_lat": 0.0, "fusion_lon": 0.0, "lat": 38.93471516666666, "type": "electric_scooter", "rental_uris": {"android": "https://dc.lft.to/lastmile_qr_scan", "ios": "https://dc.lft.to/lastmile_qr_scan"}, "is_reserved": 0, "lon": -77.02225133333333, "name": "94b3dd95d4065a08c4d1a41657dd5783", "bike_id": "94b3dd95d4065a08c4d1a41657dd5783", "is_disabled": 0}, {"fusion_lat": 0.0, "fusion_lon": 0.0, "lat": 38.9644195, "type": "electric_bike", "rental_uris": {"android": "https://dc.lft.to/lastmile_qr_scan", "ios": "https://dc.lft.to/lastmile_qr_scan"}, "is_reserved": 0, "lon": -77.03155533333333, "name": "463dd186013378c76e676bb2a79747bf", "bike_id": "463dd186013378c76e676bb2a79747bf", "is_disabled": 0}, {"fusion_lat": 0.0, "fusion_lon": 0.0, "lat": 38.906927333333336, "type": "electric_bike", "rental_uris": {"android": "https://dc.lft.to/lastmile_qr_scan", "ios": "https://dc.lft.to/lastmile_qr_scan"}, "is_reserved": 0, "lon": -76.95249716666666, "name": "5159685d6f4a6ac4817d8aece7ee5e15", "bike_id": "5159685d6f4a6ac4817d8aece7ee5e15", "is_disabled": 0}, {"fusion_lat": 0.0, "fusion_lon": 0.0, "lat": 38.92267866666667, "type": "electric_scooter", "rental_uris": {"android": "https://dc.lft.to/lastmile_qr_scan", "ios": "https://dc.lft.to/lastmile_qr_scan"}, "is_reserved": 0, "lon": -77.03287766666666, "name": "62c256ede08d3b2de8cd16e53df68cb5", "bike_id": "62c256ede08d3b2de8cd16e53df68cb5", "is_disabled": 0}, {"fusion_lat": 0.0, "fusion_lon": 0.0, "lat": 38.91502416666667, "type": "electric_scooter", "rental_uris": {"android": "https://dc.lft.to/lastmile_qr_scan", "ios": "https://dc.lft.to/lastmile_qr_scan"}, "is_reserved": 0, "lon": -77.02185066666667, "name": "56ef0e5c9da8951684bd3aa8202d5f67", "bike_id": "56ef0e5c9da8951684bd3aa8202d5f67", "is_disabled": 0}, {"fusion_lat": 0.0, "fusion_lon": 0.0, "lat": 38.893319166666664, "type": "electric_scooter", "rental_uris": {"android": "https://dc.lft.to/lastmile_qr_scan", "ios": "https://dc.lft.to/lastmile_qr_scan"}, "is_reserved": 0, "lon": -77.046718, "name": "c7e30cf1165bcfd48edd5d6ace68c79d", "bike_id": "c7e30cf1165bcfd48edd5d6ace68c79d", "is_disabled": 0}, {"fusion_lat": 0.0, "fusion_lon": 0.0, "lat": 38.8738705, "type": "electric_scooter", "rental_uris": {"android": "https://dc.lft.to/lastmile_qr_scan", "ios": "https://dc.lft.to/lastmile_qr_scan"}, "is_reserved": 0, "lon": -77.0434725, "name": "7dae28adfe79b891bb1ebc60a483f9ca", "bike_id": "7dae28adfe79b891bb1ebc60a483f9ca", "is_disabled": 0}, {"fusion_lat": 0.0, "fusion_lon": 0.0, "lat": 38.903819, "type": "electric_scooter", "rental_uris": {"android": "https://dc.lft.to/lastmile_qr_scan", "ios": "https://dc.lft.to/lastmile_qr_scan"}, "is_reserved": 0, "lon": -77.03422783333333, "name": "5778ad01c3f2a2562de6168078e5de24", "bike_id": "5778ad01c3f2a2562de6168078e5de24", "is_disabled": 0}, {"fusion_lat": 0.0, "fusion_lon": 0.0, "lat": 38.88143133333333, "type": "electric_scooter", "rental_uris": {"android": "https://dc.lft.to/lastmile_qr_scan", "ios": "https://dc.lft.to/lastmile_qr_scan"}, "is_reserved": 0, "lon": -77.02701833333333, "name": "fe14a6ceb1107fc1edd9b74f252cce73", "bike_id": "fe14a6ceb1107fc1edd9b74f252cce73", "is_disabled": 0}, {"fusion_lat": 0.0, "fusion_lon": 0.0, "lat": 38.9305835, "type": "electric_scooter", "rental_uris": {"android": "https://dc.lft.to/lastmile_qr_scan", "ios": "https://dc.lft.to/lastmile_qr_scan"}, "is_reserved": 0, "lon": -77.03366, "name": "e766b6647c05181048990cda3f9142dd", "bike_id": "e766b6647c05181048990cda3f9142dd", "is_disabled": 0}, {"fusion_lat": 0.0, "fusion_lon": 0.0, "lat": 38.895264833333336, "type": "electric_scooter", "rental_uris": {"android": "https://dc.lft.to/lastmile_qr_scan", "ios": "https://dc.lft.to/lastmile_qr_scan"}, "is_reserved": 0, "lon": -77.00340483333333, "name": "589bcbc90d191cc0b4e738f40988606d", "bike_id": "589bcbc90d191cc0b4e738f40988606d", "is_disabled": 0}, {"fusion_lat": 0.0, "fusion_lon": 0.0, "lat": 38.893474, "type": "electric_scooter", "rental_uris": {"android": "https://dc.lft.to/lastmile_qr_scan", "ios": "https://dc.lft.to/lastmile_qr_scan"}, "is_reserved": 0, "lon": -77.0197535, "name": "75ec799a5bce692ffc52d4f6a506d1ee", "bike_id": "75ec799a5bce692ffc52d4f6a506d1ee", "is_disabled": 0}, {"fusion_lat": 0.0, "fusion_lon": 0.0, "lat": 38.9066635, "type": "electric_scooter", "rental_uris": {"android": "https://dc.lft.to/lastmile_qr_scan", "ios": "https://dc.lft.to/lastmile_qr_scan"}, "is_reserved": 0, "lon": -77.02799033333334, "name": "3dc19a5d4923fc55c9de2fd728198472", "bike_id": "3dc19a5d4923fc55c9de2fd728198472", "is_disabled": 0}, {"fusion_lat": 0.0, "fusion_lon": 0.0, "lat": 38.91794933333333, "type": "electric_scooter", "rental_uris": {"android": "https://dc.lft.to/lastmile_qr_scan", "ios": "https://dc.lft.to/lastmile_qr_scan"}, "is_reserved": 0, "lon": -77.04970716666666, "name": "59744fb077ca7d9afc1a43c73e2a3209", "bike_id": "59744fb077ca7d9afc1a43c73e2a3209", "is_disabled": 0}, {"fusion_lat": 0.0, "fusion_lon": 0.0, "lat": 38.867269666666665, "type": "electric_scooter", "rental_uris": {"android": "https://dc.lft.to/lastmile_qr_scan", "ios": "https://dc.lft.to/lastmile_qr_scan"}, "is_reserved": 0, "lon": -76.986975, "name": "cb02c0172c9c2586a19cf90acf00ea50", "bike_id": "cb02c0172c9c2586a19cf90acf00ea50", "is_disabled": 0}, {"fusion_lat": 0.0, "fusion_lon": 0.0, "lat": 38.923162833333336, "type": "electric_scooter", "rental_uris": {"android": "https://dc.lft.to/lastmile_qr_scan", "ios": "https://dc.lft.to/lastmile_qr_scan"}, "is_reserved": 0, "lon": -77.0383315, "name": "82132dec91eaf28e2e93ebaf263331f8", "bike_id": "82132dec91eaf28e2e93ebaf263331f8", "is_disabled": 0}, {"fusion_lat": 0.0, "fusion_lon": 0.0, "lat": 38.8771355, "type": "electric_scooter", "rental_uris": {"android": "https://dc.lft.to/lastmile_qr_scan", "ios": "https://dc.lft.to/lastmile_qr_scan"}, "is_reserved": 0, "lon": -77.00300883333334, "name": "402670ecae1a0e361d395427d7ae9f7c", "bike_id": "402670ecae1a0e361d395427d7ae9f7c", "is_disabled": 0}, {"fusion_lat": 0.0, "fusion_lon": 0.0, "lat": 38.89223966666667, "type": "electric_scooter", "rental_uris": {"android": "https://dc.lft.to/lastmile_qr_scan", "ios": "https://dc.lft.to/lastmile_qr_scan"}, "is_reserved": 0, "lon": -77.0436615, "name": "2b4836c72b80a86a205b69f4e453d640", "bike_id": "2b4836c72b80a86a205b69f4e453d640", "is_disabled": 0}, {"fusion_lat": 0.0, "fusion_lon": 0.0, "lat": 38.89309016666667, "type": "electric_scooter", "rental_uris": {"android": "https://dc.lft.to/lastmile_qr_scan", "ios": "https://dc.lft.to/lastmile_qr_scan"}, "is_reserved": 0, "lon": -76.9397445, "name": "fcb00c8f70ca0b1b6107b24786d6cb04", "bike_id": "fcb00c8f70ca0b1b6107b24786d6cb04", "is_disabled": 0}, {"fusion_lat": 0.0, "fusion_lon": 0.0, "lat": 38.920627, "type": "electric_scooter", "rental_uris": {"android": "https://dc.lft.to/lastmile_qr_scan", "ios": "https://dc.lft.to/lastmile_qr_scan"}, "is_reserved": 0, "lon": -77.02561566666667, "name": "092a014069bdbbb346f1d02fd50497c7", "bike_id": "092a014069bdbbb346f1d02fd50497c7", "is_disabled": 0}, {"fusion_lat": 0.0, "fusion_lon": 0.0, "lat": 38.8461515, "type": "electric_scooter", "rental_uris": {"android": "https://dc.lft.to/lastmile_qr_scan", "ios": "https://dc.lft.to/lastmile_qr_scan"}, "is_reserved": 0, "lon": -76.98268766666666, "name": "985ac909db3f1d87a0e0dc473bbf8b1a", "bike_id": "985ac909db3f1d87a0e0dc473bbf8b1a", "is_disabled": 0}, {"fusion_lat": 0.0, "fusion_lon": 0.0, "lat": 38.892306, "type": "electric_scooter", "rental_uris": {"android": "https://dc.lft.to/lastmile_qr_scan", "ios": "https://dc.lft.to/lastmile_qr_scan"}, "is_reserved": 0, "lon": -77.04155983333334, "name": "8c6ca0cba467b6500f735aa06b5ef524", "bike_id": "8c6ca0cba467b6500f735aa06b5ef524", "is_disabled": 0}, {"fusion_lat": 0.0, "fusion_lon": 0.0, "lat": 38.90552433333333, "type": "electric_scooter", "rental_uris": {"android": "https://dc.lft.to/lastmile_qr_scan", "ios": "https://dc.lft.to/lastmile_qr_scan"}, "is_reserved": 0, "lon": -77.0048845, "name": "e810b537384b89ac165ce0ba52965078", "bike_id": "e810b537384b89ac165ce0ba52965078", "is_disabled": 0}, {"fusion_lat": 0.0, "fusion_lon": 0.0, "lat": 38.8624545, "type": "electric_scooter", "rental_uris": {"android": "https://dc.lft.to/lastmile_qr_scan", "ios": "https://dc.lft.to/lastmile_qr_scan"}, "is_reserved": 0, "lon": -76.99490633333333, "name": "b605106980665f7abf72d5529ea967c3", "bike_id": "b605106980665f7abf72d5529ea967c3", "is_disabled": 0}, {"fusion_lat": 0.0, "fusion_lon": 0.0, "lat": 38.926213833333335, "type": "electric_scooter", "rental_uris": {"android": "https://dc.lft.to/lastmile_qr_scan", "ios": "https://dc.lft.to/lastmile_qr_scan"}, "is_reserved": 0, "lon": -77.04187866666666, "name": "8a89a82ffce845feb04824ea21214814", "bike_id": "8a89a82ffce845feb04824ea21214814", "is_disabled": 0}, {"fusion_lat": 0.0, "fusion_lon": 0.0, "lat": 38.897197166666665, "type": "electric_scooter", "rental_uris": {"android": "https://dc.lft.to/lastmile_qr_scan", "ios": "https://dc.lft.to/lastmile_qr_scan"}, "is_reserved": 0, "lon": -77.0263085, "name": "a02d2d71ed4837ef8c4910f2b956a0f5", "bike_id": "a02d2d71ed4837ef8c4910f2b956a0f5", "is_disabled": 0}, {"fusion_lat": 0.0, "fusion_lon": 0.0, "lat": 38.9014595, "type": "electric_scooter", "rental_uris": {"android": "https://dc.lft.to/lastmile_qr_scan", "ios": "https://dc.lft.to/lastmile_qr_scan"}, "is_reserved": 0, "lon": -77.04684816666666, "name": "83fdf39348a285f638e48b865439da64", "bike_id": "83fdf39348a285f638e48b865439da64", "is_disabled": 0}, {"fusion_lat": 0.0, "fusion_lon": 0.0, "lat": 38.903737, "type": "electric_scooter", "rental_uris": {"android": "https://dc.lft.to/lastmile_qr_scan", "ios": "https://dc.lft.to/lastmile_qr_scan"}, "is_reserved": 0, "lon": -76.9860075, "name": "ea3ecdb22ef836af45f79ade72bd95b1", "bike_id": "ea3ecdb22ef836af45f79ade72bd95b1", "is_disabled": 0}, {"fusion_lat": 0.0, "fusion_lon": 0.0, "lat": 38.93085933333333, "type": "electric_scooter", "rental_uris": {"android": "https://dc.lft.to/lastmile_qr_scan", "ios": "https://dc.lft.to/lastmile_qr_scan"}, "is_reserved": 0, "lon": -77.0247875, "name": "2115abf0364250839ec22926bccf5696", "bike_id": "2115abf0364250839ec22926bccf5696", "is_disabled": 0}, {"fusion_lat": 0.0, "fusion_lon": 0.0, "lat": 38.925285833333334, "type": "electric_scooter", "rental_uris": {"android": "https://dc.lft.to/lastmile_qr_scan", "ios": "https://dc.lft.to/lastmile_qr_scan"}, "is_reserved": 0, "lon": -77.0506865, "name": "30f8751ad9e2ce0aa28a6d9ef960c3bb", "bike_id": "30f8751ad9e2ce0aa28a6d9ef960c3bb", "is_disabled": 0}, {"fusion_lat": 0.0, "fusion_lon": 0.0, "lat": 38.915551666666666, "type": "electric_scooter", "rental_uris": {"android": "https://dc.lft.to/lastmile_qr_scan", "ios": "https://dc.lft.to/lastmile_qr_scan"}, "is_reserved": 0, "lon": -77.02127283333333, "name": "0330cef1ca83e1108f9c2a121ce376f6", "bike_id": "0330cef1ca83e1108f9c2a121ce376f6", "is_disabled": 0}, {"fusion_lat": 0.0, "fusion_lon": 0.0, "lat": 38.90575183333333, "type": "electric_scooter", "rental_uris": {"android": "https://dc.lft.to/lastmile_qr_scan", "ios": "https://dc.lft.to/lastmile_qr_scan"}, "is_reserved": 0, "lon": -77.0432105, "name": "53857afbe697aeeaff2020804341b382", "bike_id": "53857afbe697aeeaff2020804341b382", "is_disabled": 0}, {"fusion_lat": 0.0, "fusion_lon": 0.0, "lat": 38.90253883333333, "type": "electric_scooter", "rental_uris": {"android": "https://dc.lft.to/lastmile_qr_scan", "ios": "https://dc.lft.to/lastmile_qr_scan"}, "is_reserved": 0, "lon": -77.03831283333334, "name": "3f689ac16f6d1524f262aeefce1bb0a4", "bike_id": "3f689ac16f6d1524f262aeefce1bb0a4", "is_disabled": 0}, {"fusion_lat": 0.0, "fusion_lon": 0.0, "lat": 38.853513166666666, "type": "electric_bike", "rental_uris": {"android": "https://dc.lft.to/lastmile_qr_scan", "ios": "https://dc.lft.to/lastmile_qr_scan"}, "is_reserved": 0, "lon": -77.13472216666666, "name": "7917e89e326e752aa2bf8af26ed8a89e", "bike_id": "7917e89e326e752aa2bf8af26ed8a89e", "is_disabled": 0}, {"fusion_lat": 0.0, "fusion_lon": 0.0, "lat": 38.866796, "type": "electric_scooter", "rental_uris": {"android": "https://dc.lft.to/lastmile_qr_scan", "ios": "https://dc.lft.to/lastmile_qr_scan"}, "is_reserved": 0, "lon": -76.98570883333333, "name": "3722b88f7a3a749607bb633391013865", "bike_id": "3722b88f7a3a749607bb633391013865", "is_disabled": 0}, {"fusion_lat": 0.0, "fusion_lon": 0.0, "lat": 38.9896895, "type": "electric_bike", "rental_uris": {"android": "https://dc.lft.to/lastmile_qr_scan", "ios": "https://dc.lft.to/lastmile_qr_scan"}, "is_reserved": 0, "lon": -77.02383233333333, "name": "9965f158b5acdeccefd2b9c9ee29ca9e", "bike_id": "9965f158b5acdeccefd2b9c9ee29ca9e", "is_disabled": 0}, {"fusion_lat": 0.0, "fusion_lon": 0.0, "lat": 38.89744066666667, "type": "electric_scooter", "rental_uris": {"android": "https://dc.lft.to/lastmile_qr_scan", "ios": "https://dc.lft.to/lastmile_qr_scan"}, "is_reserved": 0, "lon": -76.9797465, "name": "65505a025e4ede49545bbf4c9836b98f", "bike_id": "65505a025e4ede49545bbf4c9836b98f", "is_disabled": 0}, {"fusion_lat": 0.0, "fusion_lon": 0.0, "lat": 38.918592, "type": "electric_scooter", "rental_uris": {"android": "https://dc.lft.to/lastmile_qr_scan", "ios": "https://dc.lft.to/lastmile_qr_scan"}, "is_reserved": 0, "lon": -77.04163483333333, "name": "6450dcce10ad596773d9dc35f343b6cb", "bike_id": "6450dcce10ad596773d9dc35f343b6cb", "is_disabled": 0}, {"fusion_lat": 0.0, "fusion_lon": 0.0, "lat": 38.9348415, "type": "electric_scooter", "rental_uris": {"android": "https://dc.lft.to/lastmile_qr_scan", "ios": "https://dc.lft.to/lastmile_qr_scan"}, "is_reserved": 0, "lon": -77.07268633333334, "name": "2103e3e7876e25f11cd3e1ea7366656e", "bike_id": "2103e3e7876e25f11cd3e1ea7366656e", "is_disabled": 0}, {"fusion_lat": 0.0, "fusion_lon": 0.0, "lat": 38.92134033333333, "type": "electric_scooter", "rental_uris": {"android": "https://dc.lft.to/lastmile_qr_scan", "ios": "https://dc.lft.to/lastmile_qr_scan"}, "is_reserved": 0, "lon": -77.01809483333334, "name": "b4a2d43ae0ec9f8b5d1fdab3f176a2e6", "bike_id": "b4a2d43ae0ec9f8b5d1fdab3f176a2e6", "is_disabled": 0}, {"fusion_lat": 0.0, "fusion_lon": 0.0, "lat": 38.90510416666667, "type": "electric_scooter", "rental_uris": {"android": "https://dc.lft.to/lastmile_qr_scan", "ios": "https://dc.lft.to/lastmile_qr_scan"}, "is_reserved": 0, "lon": -77.04186016666667, "name": "e63b61c13676f3a14e4524b8fc65758c", "bike_id": "e63b61c13676f3a14e4524b8fc65758c", "is_disabled": 0}, {"fusion_lat": 0.0, "fusion_lon": 0.0, "lat": 38.89235016666667, "type": "electric_scooter", "rental_uris": {"android": "https://dc.lft.to/lastmile_qr_scan", "ios": "https://dc.lft.to/lastmile_qr_scan"}, "is_reserved": 0, "lon": -77.041555, "name": "169c9b49da3429a86540fe501e8df0d6", "bike_id": "169c9b49da3429a86540fe501e8df0d6", "is_disabled": 0}, {"fusion_lat": 0.0, "fusion_lon": 0.0, "lat": 38.89182183333333, "type": "electric_scooter", "rental_uris": {"android": "https://dc.lft.to/lastmile_qr_scan", "ios": "https://dc.lft.to/lastmile_qr_scan"}, "is_reserved": 0, "lon": -76.99476966666667, "name": "0e286c368ac4a84018903aaa6e7a9870", "bike_id": "0e286c368ac4a84018903aaa6e7a9870", "is_disabled": 0}, {"fusion_lat": 0.0, "fusion_lon": 0.0, "lat": 38.927859833333336, "type": "electric_scooter", "rental_uris": {"android": "https://dc.lft.to/lastmile_qr_scan", "ios": "https://dc.lft.to/lastmile_qr_scan"}, "is_reserved": 0, "lon": -77.05252833333333, "name": "7f57b63b1470623c9c8b8077986aa5be", "bike_id": "7f57b63b1470623c9c8b8077986aa5be", "is_disabled": 0}, {"fusion_lat": 0.0, "fusion_lon": 0.0, "lat": 38.905221833333336, "type": "electric_scooter", "rental_uris": {"android": "https://dc.lft.to/lastmile_qr_scan", "ios": "https://dc.lft.to/lastmile_qr_scan"}, "is_reserved": 0, "lon": -77.0644535, "name": "87f1528879bf842e444d9ab5d2c0f712", "bike_id": "87f1528879bf842e444d9ab5d2c0f712", "is_disabled": 0}, {"fusion_lat": 0.0, "fusion_lon": 0.0, "lat": 38.879862833333334, "type": "electric_bike", "rental_uris": {"android": "https://dc.lft.to/lastmile_qr_scan", "ios": "https://dc.lft.to/lastmile_qr_scan"}, "is_reserved": 0, "lon": -76.91594533333334, "name": "a8195d890900c55d1275bb75675c463c", "bike_id": "a8195d890900c55d1275bb75675c463c", "is_disabled": 0}, {"fusion_lat": 0.0, "fusion_lon": 0.0, "lat": 38.89251066666667, "type": "electric_scooter", "rental_uris": {"android": "https://dc.lft.to/lastmile_qr_scan", "ios": "https://dc.lft.to/lastmile_qr_scan"}, "is_reserved": 0, "lon": -77.03177633333334, "name": "920150bac816edfeeafec7cf6bacb98c", "bike_id": "920150bac816edfeeafec7cf6bacb98c", "is_disabled": 0}, {"fusion_lat": 0.0, "fusion_lon": 0.0, "lat": 38.88303966666667, "type": "electric_scooter", "rental_uris": {"android": "https://dc.lft.to/lastmile_qr_scan", "ios": "https://dc.lft.to/lastmile_qr_scan"}, "is_reserved": 0, "lon": -76.94850283333334, "name": "f14696570e084d8f2d03df883dd11ed3", "bike_id": "f14696570e084d8f2d03df883dd11ed3", "is_disabled": 0}, {"fusion_lat": 0.0, "fusion_lon": 0.0, "lat": 38.93425583333333, "type": "electric_scooter", "rental_uris": {"android": "https://dc.lft.to/lastmile_qr_scan", "ios": "https://dc.lft.to/lastmile_qr_scan"}, "is_reserved": 0, "lon": -77.04002783333334, "name": "e4b7b5178c2418ac7bc28e8b80eba470", "bike_id": "e4b7b5178c2418ac7bc28e8b80eba470", "is_disabled": 0}, {"fusion_lat": 0.0, "fusion_lon": 0.0, "lat": 38.907791333333336, "type": "electric_scooter", "rental_uris": {"android": "https://dc.lft.to/lastmile_qr_scan", "ios": "https://dc.lft.to/lastmile_qr_scan"}, "is_reserved": 0, "lon": -77.0716485, "name": "c07831b7e4980f91da02caf47813fa6b", "bike_id": "c07831b7e4980f91da02caf47813fa6b", "is_disabled": 0}, {"fusion_lat": 0.0, "fusion_lon": 0.0, "lat": 38.896751333333334, "type": "electric_bike", "rental_uris": {"android": "https://dc.lft.to/lastmile_qr_scan", "ios": "https://dc.lft.to/lastmile_qr_scan"}, "is_reserved": 0, "lon": -77.104302, "name": "4babdb84959726343f2271c5d95ba50e", "bike_id": "4babdb84959726343f2271c5d95ba50e", "is_disabled": 0}, {"fusion_lat": 0.0, "fusion_lon": 0.0, "lat": 38.8999455, "type": "electric_scooter", "rental_uris": {"android": "https://dc.lft.to/lastmile_qr_scan", "ios": "https://dc.lft.to/lastmile_qr_scan"}, "is_reserved": 0, "lon": -77.0006405, "name": "ada92dd8e89fb1d6c96fd97619a1753c", "bike_id": "ada92dd8e89fb1d6c96fd97619a1753c", "is_disabled": 0}, {"fusion_lat": 0.0, "fusion_lon": 0.0, "lat": 38.90656533333333, "type": "electric_scooter", "rental_uris": {"android": "https://dc.lft.to/lastmile_qr_scan", "ios": "https://dc.lft.to/lastmile_qr_scan"}, "is_reserved": 0, "lon": -77.041849, "name": "138b41b1dbdb7d37b5bd6a2c15c1191c", "bike_id": "138b41b1dbdb7d37b5bd6a2c15c1191c", "is_disabled": 0}, {"fusion_lat": 0.0, "fusion_lon": 0.0, "lat": 38.908735666666665, "type": "electric_scooter", "rental_uris": {"android": "https://dc.lft.to/lastmile_qr_scan", "ios": "https://dc.lft.to/lastmile_qr_scan"}, "is_reserved": 0, "lon": -77.0426465, "name": "3ab8a3d60e09453efff9d751a37536bd", "bike_id": "3ab8a3d60e09453efff9d751a37536bd", "is_disabled": 0}, {"fusion_lat": 0.0, "fusion_lon": 0.0, "lat": 38.9051305, "type": "electric_bike", "rental_uris": {"android": "https://dc.lft.to/lastmile_qr_scan", "ios": "https://dc.lft.to/lastmile_qr_scan"}, "is_reserved": 0, "lon": -77.06959033333334, "name": "7de5bb19046efd8e350dbcc75c8d608d", "bike_id": "7de5bb19046efd8e350dbcc75c8d608d", "is_disabled": 0}, {"fusion_lat": 0.0, "fusion_lon": 0.0, "lat": 38.896937666666666, "type": "electric_scooter", "rental_uris": {"android": "https://dc.lft.to/lastmile_qr_scan", "ios": "https://dc.lft.to/lastmile_qr_scan"}, "is_reserved": 0, "lon": -77.023022, "name": "381f1130f92fed129124c4531566677c", "bike_id": "381f1130f92fed129124c4531566677c", "is_disabled": 0}, {"fusion_lat": 0.0, "fusion_lon": 0.0, "lat": 38.914201, "type": "electric_scooter", "rental_uris": {"android": "https://dc.lft.to/lastmile_qr_scan", "ios": "https://dc.lft.to/lastmile_qr_scan"}, "is_reserved": 0, "lon": -77.0211785, "name": "67ad3a149f13a42aec15a82eadfb4de1", "bike_id": "67ad3a149f13a42aec15a82eadfb4de1", "is_disabled": 0}, {"fusion_lat": 0.0, "fusion_lon": 0.0, "lat": 38.8923305, "type": "electric_scooter", "rental_uris": {"android": "https://dc.lft.to/lastmile_qr_scan", "ios": "https://dc.lft.to/lastmile_qr_scan"}, "is_reserved": 0, "lon": -77.0258285, "name": "9f2feba0b72e937137b56c65945a16a9", "bike_id": "9f2feba0b72e937137b56c65945a16a9", "is_disabled": 0}, {"fusion_lat": 0.0, "fusion_lon": 0.0, "lat": 38.90484683333333, "type": "electric_scooter", "rental_uris": {"android": "https://dc.lft.to/lastmile_qr_scan", "ios": "https://dc.lft.to/lastmile_qr_scan"}, "is_reserved": 0, "lon": -77.04065066666666, "name": "1738051196b95a3f79c55a43594769b6", "bike_id": "1738051196b95a3f79c55a43594769b6", "is_disabled": 0}, {"fusion_lat": 0.0, "fusion_lon": 0.0, "lat": 38.91562233333333, "type": "electric_scooter", "rental_uris": {"android": "https://dc.lft.to/lastmile_qr_scan", "ios": "https://dc.lft.to/lastmile_qr_scan"}, "is_reserved": 0, "lon": -76.97366533333333, "name": "ef1390275a5b0c0a9f459ae3537c898c", "bike_id": "ef1390275a5b0c0a9f459ae3537c898c", "is_disabled": 0}, {"fusion_lat": 0.0, "fusion_lon": 0.0, "lat": 38.88641633333334, "type": "electric_scooter", "rental_uris": {"android": "https://dc.lft.to/lastmile_qr_scan", "ios": "https://dc.lft.to/lastmile_qr_scan"}, "is_reserved": 0, "lon": -77.01368033333334, "name": "ad1623add3286e793bfa5f1ef41ad219", "bike_id": "ad1623add3286e793bfa5f1ef41ad219", "is_disabled": 0}, {"fusion_lat": 0.0, "fusion_lon": 0.0, "lat": 38.90025333333333, "type": "electric_scooter", "rental_uris": {"android": "https://dc.lft.to/lastmile_qr_scan", "ios": "https://dc.lft.to/lastmile_qr_scan"}, "is_reserved": 0, "lon": -77.03213483333333, "name": "7e7faa71c2a2c692ee573df856c84a3c", "bike_id": "7e7faa71c2a2c692ee573df856c84a3c", "is_disabled": 0}, {"fusion_lat": 0.0, "fusion_lon": 0.0, "lat": 38.866808, "type": "electric_scooter", "rental_uris": {"android": "https://dc.lft.to/lastmile_qr_scan", "ios": "https://dc.lft.to/lastmile_qr_scan"}, "is_reserved": 0, "lon": -76.98570566666666, "name": "78ac8886482f8e0c3a1417c3e98d936a", "bike_id": "78ac8886482f8e0c3a1417c3e98d936a", "is_disabled": 0}, {"fusion_lat": 0.0, "fusion_lon": 0.0, "lat": 38.8974005, "type": "electric_bike", "rental_uris": {"android": "https://dc.lft.to/lastmile_qr_scan", "ios": "https://dc.lft.to/lastmile_qr_scan"}, "is_reserved": 0, "lon": -76.94244733333333, "name": "05f40ae33e4faf338e4eb6436a7129e8", "bike_id": "05f40ae33e4faf338e4eb6436a7129e8", "is_disabled": 0}, {"fusion_lat": 0.0, "fusion_lon": 0.0, "lat": 38.866285833333336, "type": "electric_scooter", "rental_uris": {"android": "https://dc.lft.to/lastmile_qr_scan", "ios": "https://dc.lft.to/lastmile_qr_scan"}, "is_reserved": 0, "lon": -76.98713466666666, "name": "d111bf95c9fe1970e26d94efe35f8236", "bike_id": "d111bf95c9fe1970e26d94efe35f8236", "is_disabled": 0}, {"fusion_lat": 0.0, "fusion_lon": 0.0, "lat": 38.900067166666666, "type": "electric_scooter", "rental_uris": {"android": "https://dc.lft.to/lastmile_qr_scan", "ios": "https://dc.lft.to/lastmile_qr_scan"}, "is_reserved": 0, "lon": -77.006646, "name": "1211f81ce5d60376de9c532fd840cf83", "bike_id": "1211f81ce5d60376de9c532fd840cf83", "is_disabled": 0}, {"fusion_lat": 0.0, "fusion_lon": 0.0, "lat": 38.9110475, "type": "electric_scooter", "rental_uris": {"android": "https://dc.lft.to/lastmile_qr_scan", "ios": "https://dc.lft.to/lastmile_qr_scan"}, "is_reserved": 0, "lon": -77.02804483333334, "name": "e1714b21eef2917e124fc192c25494df", "bike_id": "e1714b21eef2917e124fc192c25494df", "is_disabled": 0}, {"fusion_lat": 0.0, "fusion_lon": 0.0, "lat": 38.899642166666666, "type": "electric_scooter", "rental_uris": {"android": "https://dc.lft.to/lastmile_qr_scan", "ios": "https://dc.lft.to/lastmile_qr_scan"}, "is_reserved": 0, "lon": -77.04499933333334, "name": "8239fc2af5d2cd8420a65eb8bc4407ad", "bike_id": "8239fc2af5d2cd8420a65eb8bc4407ad", "is_disabled": 0}, {"fusion_lat": 0.0, "fusion_lon": 0.0, "lat": 38.873809, "type": "electric_scooter", "rental_uris": {"android": "https://dc.lft.to/lastmile_qr_scan", "ios": "https://dc.lft.to/lastmile_qr_scan"}, "is_reserved": 0, "lon": -77.0007135, "name": "825328b2a78f8b105e7b369d85d834a7", "bike_id": "825328b2a78f8b105e7b369d85d834a7", "is_disabled": 0}, {"fusion_lat": 0.0, "fusion_lon": 0.0, "lat": 38.91555266666667, "type": "electric_scooter", "rental_uris": {"android": "https://dc.lft.to/lastmile_qr_scan", "ios": "https://dc.lft.to/lastmile_qr_scan"}, "is_reserved": 0, "lon": -77.0317, "name": "e9b68da2d2fb9ee239aed2d7f902a2f1", "bike_id": "e9b68da2d2fb9ee239aed2d7f902a2f1", "is_disabled": 0}, {"fusion_lat": 0.0, "fusion_lon": 0.0, "lat": 38.9320945, "type": "electric_scooter", "rental_uris": {"android": "https://dc.lft.to/lastmile_qr_scan", "ios": "https://dc.lft.to/lastmile_qr_scan"}, "is_reserved": 0, "lon": -76.9990145, "name": "7d74b555ccd74a43448baaa0edb2a01b", "bike_id": "7d74b555ccd74a43448baaa0edb2a01b", "is_disabled": 0}, {"fusion_lat": 0.0, "fusion_lon": 0.0, "lat": 38.88450433333333, "type": "electric_scooter", "rental_uris": {"android": "https://dc.lft.to/lastmile_qr_scan", "ios": "https://dc.lft.to/lastmile_qr_scan"}, "is_reserved": 0, "lon": -76.95091733333334, "name": "327e87ecf03524a0168cc894fdcc628f", "bike_id": "327e87ecf03524a0168cc894fdcc628f", "is_disabled": 0}, {"fusion_lat": 0.0, "fusion_lon": 0.0, "lat": 38.93942716666667, "type": "electric_scooter", "rental_uris": {"android": "https://dc.lft.to/lastmile_qr_scan", "ios": "https://dc.lft.to/lastmile_qr_scan"}, "is_reserved": 0, "lon": -77.024882, "name": "47a58ab0edba9c0b94d9feb3c834ef8d", "bike_id": "47a58ab0edba9c0b94d9feb3c834ef8d", "is_disabled": 0}, {"fusion_lat": 0.0, "fusion_lon": 0.0, "lat": 38.89557816666667, "type": "electric_scooter", "rental_uris": {"android": "https://dc.lft.to/lastmile_qr_scan", "ios": "https://dc.lft.to/lastmile_qr_scan"}, "is_reserved": 0, "lon": -77.04672816666667, "name": "7c0bfe7ad037d17e8783e9636ba92118", "bike_id": "7c0bfe7ad037d17e8783e9636ba92118", "is_disabled": 0}, {"fusion_lat": 0.0, "fusion_lon": 0.0, "lat": 38.93035366666667, "type": "electric_scooter", "rental_uris": {"android": "https://dc.lft.to/lastmile_qr_scan", "ios": "https://dc.lft.to/lastmile_qr_scan"}, "is_reserved": 0, "lon": -77.0329565, "name": "6141af8f1670390e84de329d162de826", "bike_id": "6141af8f1670390e84de329d162de826", "is_disabled": 0}, {"fusion_lat": 0.0, "fusion_lon": 0.0, "lat": 38.9350005, "type": "electric_bike", "rental_uris": {"android": "https://dc.lft.to/lastmile_qr_scan", "ios": "https://dc.lft.to/lastmile_qr_scan"}, "is_reserved": 0, "lon": -76.99802833333334, "name": "e5a5091d97bb56285402c1b820debd9e", "bike_id": "e5a5091d97bb56285402c1b820debd9e", "is_disabled": 0}, {"fusion_lat": 0.0, "fusion_lon": 0.0, "lat": 39.040850666666664, "type": "electric_bike", "rental_uris": {"android": "https://dc.lft.to/lastmile_qr_scan", "ios": "https://dc.lft.to/lastmile_qr_scan"}, "is_reserved": 0, "lon": -77.053383, "name": "00f20490144bbefec480f67cbd9bbd24", "bike_id": "00f20490144bbefec480f67cbd9bbd24", "is_disabled": 0}, {"fusion_lat": 0.0, "fusion_lon": 0.0, "lat": 38.8953735, "type": "electric_scooter", "rental_uris": {"android": "https://dc.lft.to/lastmile_qr_scan", "ios": "https://dc.lft.to/lastmile_qr_scan"}, "is_reserved": 0, "lon": -77.01130833333333, "name": "79c1d37ef295768b4c97019a2a4e6750", "bike_id": "79c1d37ef295768b4c97019a2a4e6750", "is_disabled": 0}, {"fusion_lat": 0.0, "fusion_lon": 0.0, "lat": 38.93579783333333, "type": "electric_scooter", "rental_uris": {"android": "https://dc.lft.to/lastmile_qr_scan", "ios": "https://dc.lft.to/lastmile_qr_scan"}, "is_reserved": 0, "lon": -77.03348066666666, "name": "5a604366d9e5f6ea194036397f8602d9", "bike_id": "5a604366d9e5f6ea194036397f8602d9", "is_disabled": 0}, {"fusion_lat": 0.0, "fusion_lon": 0.0, "lat": 38.917435833333336, "type": "electric_scooter", "rental_uris": {"android": "https://dc.lft.to/lastmile_qr_scan", "ios": "https://dc.lft.to/lastmile_qr_scan"}, "is_reserved": 0, "lon": -77.043169, "name": "04638f6d7065fbe40c7646ce3e2d5f19", "bike_id": "04638f6d7065fbe40c7646ce3e2d5f19", "is_disabled": 0}, {"fusion_lat": 0.0, "fusion_lon": 0.0, "lat": 38.860065, "type": "electric_scooter", "rental_uris": {"android": "https://dc.lft.to/lastmile_qr_scan", "ios": "https://dc.lft.to/lastmile_qr_scan"}, "is_reserved": 0, "lon": -76.99654883333334, "name": "c22034e59f5ae56e75aaa2b77c71517e", "bike_id": "c22034e59f5ae56e75aaa2b77c71517e", "is_disabled": 0}, {"fusion_lat": 0.0, "fusion_lon": 0.0, "lat": 38.9157095, "type": "electric_scooter", "rental_uris": {"android": "https://dc.lft.to/lastmile_qr_scan", "ios": "https://dc.lft.to/lastmile_qr_scan"}, "is_reserved": 0, "lon": -77.03188383333334, "name": "4f801e3ac1e29c23bc52fd34736e4464", "bike_id": "4f801e3ac1e29c23bc52fd34736e4464", "is_disabled": 0}, {"fusion_lat": 0.0, "fusion_lon": 0.0, "lat": 38.875442, "type": "electric_scooter", "rental_uris": {"android": "https://dc.lft.to/lastmile_qr_scan", "ios": "https://dc.lft.to/lastmile_qr_scan"}, "is_reserved": 0, "lon": -77.000702, "name": "1baf073e9b9a3389e4e0675139454411", "bike_id": "1baf073e9b9a3389e4e0675139454411", "is_disabled": 0}, {"fusion_lat": 0.0, "fusion_lon": 0.0, "lat": 38.90829183333334, "type": "electric_scooter", "rental_uris": {"android": "https://dc.lft.to/lastmile_qr_scan", "ios": "https://dc.lft.to/lastmile_qr_scan"}, "is_reserved": 0, "lon": -77.03657783333334, "name": "36bfc32864679628ccb82ab6c576d8df", "bike_id": "36bfc32864679628ccb82ab6c576d8df", "is_disabled": 0}, {"fusion_lat": 0.0, "fusion_lon": 0.0, "lat": 38.908703, "type": "electric_scooter", "rental_uris": {"android": "https://dc.lft.to/lastmile_qr_scan", "ios": "https://dc.lft.to/lastmile_qr_scan"}, "is_reserved": 0, "lon": -76.93339283333333, "name": "528818e983985d133dc6947112f15734", "bike_id": "528818e983985d133dc6947112f15734", "is_disabled": 0}, {"fusion_lat": 0.0, "fusion_lon": 0.0, "lat": 38.8842425, "type": "electric_scooter", "rental_uris": {"android": "https://dc.lft.to/lastmile_qr_scan", "ios": "https://dc.lft.to/lastmile_qr_scan"}, "is_reserved": 0, "lon": -76.99694283333334, "name": "68f14c1c039d667556c92553ea54cb79", "bike_id": "68f14c1c039d667556c92553ea54cb79", "is_disabled": 0}, {"fusion_lat": 0.0, "fusion_lon": 0.0, "lat": 38.896117833333335, "type": "electric_scooter", "rental_uris": {"android": "https://dc.lft.to/lastmile_qr_scan", "ios": "https://dc.lft.to/lastmile_qr_scan"}, "is_reserved": 0, "lon": -77.02248783333333, "name": "e2899b9e104cd11faa72cb519a445d65", "bike_id": "e2899b9e104cd11faa72cb519a445d65", "is_disabled": 0}, {"fusion_lat": 0.0, "fusion_lon": 0.0, "lat": 38.938806166666666, "type": "electric_scooter", "rental_uris": {"android": "https://dc.lft.to/lastmile_qr_scan", "ios": "https://dc.lft.to/lastmile_qr_scan"}, "is_reserved": 0, "lon": -77.03382033333334, "name": "bf3482c242cc7cc84be8b0eebaf2eaa1", "bike_id": "bf3482c242cc7cc84be8b0eebaf2eaa1", "is_disabled": 0}, {"fusion_lat": 0.0, "fusion_lon": 0.0, "lat": 38.88256833333333, "type": "electric_scooter", "rental_uris": {"android": "https://dc.lft.to/lastmile_qr_scan", "ios": "https://dc.lft.to/lastmile_qr_scan"}, "is_reserved": 0, "lon": -76.935555, "name": "e4c1add28f4fbd425e86ddfc88dfc597", "bike_id": "e4c1add28f4fbd425e86ddfc88dfc597", "is_disabled": 0}, {"fusion_lat": 0.0, "fusion_lon": 0.0, "lat": 38.914622666666666, "type": "electric_scooter", "rental_uris": {"android": "https://dc.lft.to/lastmile_qr_scan", "ios": "https://dc.lft.to/lastmile_qr_scan"}, "is_reserved": 0, "lon": -77.02168116666667, "name": "210f935078b9fac395561f874836cd88", "bike_id": "210f935078b9fac395561f874836cd88", "is_disabled": 0}, {"fusion_lat": 0.0, "fusion_lon": 0.0, "lat": 38.907251333333335, "type": "electric_scooter", "rental_uris": {"android": "https://dc.lft.to/lastmile_qr_scan", "ios": "https://dc.lft.to/lastmile_qr_scan"}, "is_reserved": 0, "lon": -77.0237525, "name": "7bbfaeb66349f5d94222018fe4bbc5e6", "bike_id": "7bbfaeb66349f5d94222018fe4bbc5e6", "is_disabled": 0}, {"fusion_lat": 0.0, "fusion_lon": 0.0, "lat": 38.905864666666666, "type": "electric_scooter", "rental_uris": {"android": "https://dc.lft.to/lastmile_qr_scan", "ios": "https://dc.lft.to/lastmile_qr_scan"}, "is_reserved": 0, "lon": -77.05704116666666, "name": "abe93cb9a2a086cb79f94f2b485ecfe6", "bike_id": "abe93cb9a2a086cb79f94f2b485ecfe6", "is_disabled": 0}, {"fusion_lat": 0.0, "fusion_lon": 0.0, "lat": 38.907551166666664, "type": "electric_scooter", "rental_uris": {"android": "https://dc.lft.to/lastmile_qr_scan", "ios": "https://dc.lft.to/lastmile_qr_scan"}, "is_reserved": 0, "lon": -77.03600433333334, "name": "190a0417880c7a04045e2b1600585d82", "bike_id": "190a0417880c7a04045e2b1600585d82", "is_disabled": 0}, {"fusion_lat": 0.0, "fusion_lon": 0.0, "lat": 38.90852666666667, "type": "electric_scooter", "rental_uris": {"android": "https://dc.lft.to/lastmile_qr_scan", "ios": "https://dc.lft.to/lastmile_qr_scan"}, "is_reserved": 0, "lon": -76.9980455, "name": "a5d333fb6a6e43a4a40e13aa78bc8fc9", "bike_id": "a5d333fb6a6e43a4a40e13aa78bc8fc9", "is_disabled": 0}, {"fusion_lat": 0.0, "fusion_lon": 0.0, "lat": 38.876608833333336, "type": "electric_scooter", "rental_uris": {"android": "https://dc.lft.to/lastmile_qr_scan", "ios": "https://dc.lft.to/lastmile_qr_scan"}, "is_reserved": 0, "lon": -77.00464333333333, "name": "2f7c24bb9e5d406edd5b9b031e383b58", "bike_id": "2f7c24bb9e5d406edd5b9b031e383b58", "is_disabled": 0}, {"fusion_lat": 0.0, "fusion_lon": 0.0, "lat": 38.900294, "type": "electric_scooter", "rental_uris": {"android": "https://dc.lft.to/lastmile_qr_scan", "ios": "https://dc.lft.to/lastmile_qr_scan"}, "is_reserved": 0, "lon": -77.01229683333334, "name": "1b9dfdda50eb8ba6c363b4ac68fd9cc4", "bike_id": "1b9dfdda50eb8ba6c363b4ac68fd9cc4", "is_disabled": 0}, {"fusion_lat": 0.0, "fusion_lon": 0.0, "lat": 38.923751, "type": "electric_scooter", "rental_uris": {"android": "https://dc.lft.to/lastmile_qr_scan", "ios": "https://dc.lft.to/lastmile_qr_scan"}, "is_reserved": 0, "lon": -77.02121616666666, "name": "b30c71168b54f64dd602272800480638", "bike_id": "b30c71168b54f64dd602272800480638", "is_disabled": 0}, {"fusion_lat": 0.0, "fusion_lon": 0.0, "lat": 38.901520833333336, "type": "electric_scooter", "rental_uris": {"android": "https://dc.lft.to/lastmile_qr_scan", "ios": "https://dc.lft.to/lastmile_qr_scan"}, "is_reserved": 0, "lon": -77.03480583333334, "name": "966aaabd98014845a2921cd6c5453bb0", "bike_id": "966aaabd98014845a2921cd6c5453bb0", "is_disabled": 0}, {"fusion_lat": 0.0, "fusion_lon": 0.0, "lat": 38.94565583333333, "type": "electric_scooter", "rental_uris": {"android": "https://dc.lft.to/lastmile_qr_scan", "ios": "https://dc.lft.to/lastmile_qr_scan"}, "is_reserved": 0, "lon": -77.07956916666667, "name": "a308c532df44fd5f237d18062726f04d", "bike_id": "a308c532df44fd5f237d18062726f04d", "is_disabled": 0}, {"fusion_lat": 0.0, "fusion_lon": 0.0, "lat": 38.9516145, "type": "electric_scooter", "rental_uris": {"android": "https://dc.lft.to/lastmile_qr_scan", "ios": "https://dc.lft.to/lastmile_qr_scan"}, "is_reserved": 0, "lon": -77.05681333333334, "name": "856d30a57237db14be3190a320b6891f", "bike_id": "856d30a57237db14be3190a320b6891f", "is_disabled": 0}, {"fusion_lat": 0.0, "fusion_lon": 0.0, "lat": 38.90277716666667, "type": "electric_scooter", "rental_uris": {"android": "https://dc.lft.to/lastmile_qr_scan", "ios": "https://dc.lft.to/lastmile_qr_scan"}, "is_reserved": 0, "lon": -77.036573, "name": "fff8a8ab87d86b6a79ef20de4b69ee23", "bike_id": "fff8a8ab87d86b6a79ef20de4b69ee23", "is_disabled": 0}, {"fusion_lat": 0.0, "fusion_lon": 0.0, "lat": 38.903450166666666, "type": "electric_scooter", "rental_uris": {"android": "https://dc.lft.to/lastmile_qr_scan", "ios": "https://dc.lft.to/lastmile_qr_scan"}, "is_reserved": 0, "lon": -77.0391295, "name": "96c1fe0c93aec235c71e1e4a5f5ae63f", "bike_id": "96c1fe0c93aec235c71e1e4a5f5ae63f", "is_disabled": 0}, {"fusion_lat": 0.0, "fusion_lon": 0.0, "lat": 38.9420275, "type": "electric_scooter", "rental_uris": {"android": "https://dc.lft.to/lastmile_qr_scan", "ios": "https://dc.lft.to/lastmile_qr_scan"}, "is_reserved": 0, "lon": -77.02585416666666, "name": "be414449296084dee15728addf41ce7a", "bike_id": "be414449296084dee15728addf41ce7a", "is_disabled": 0}, {"fusion_lat": 0.0, "fusion_lon": 0.0, "lat": 38.87303166666667, "type": "electric_bike", "rental_uris": {"android": "https://dc.lft.to/lastmile_qr_scan", "ios": "https://dc.lft.to/lastmile_qr_scan"}, "is_reserved": 0, "lon": -77.01081783333333, "name": "ffccd5c7e6805ea3e98a573e4554a0c6", "bike_id": "ffccd5c7e6805ea3e98a573e4554a0c6", "is_disabled": 0}, {"fusion_lat": 0.0, "fusion_lon": 0.0, "lat": 38.9000235, "type": "electric_scooter", "rental_uris": {"android": "https://dc.lft.to/lastmile_qr_scan", "ios": "https://dc.lft.to/lastmile_qr_scan"}, "is_reserved": 0, "lon": -77.05334516666667, "name": "4f99d83d3c21b5c699ba33af0c87b5ba", "bike_id": "4f99d83d3c21b5c699ba33af0c87b5ba", "is_disabled": 0}, {"fusion_lat": 0.0, "fusion_lon": 0.0, "lat": 38.909648833333335, "type": "electric_scooter", "rental_uris": {"android": "https://dc.lft.to/lastmile_qr_scan", "ios": "https://dc.lft.to/lastmile_qr_scan"}, "is_reserved": 0, "lon": -77.01843383333333, "name": "face85519c6c4270a0c3d16960eab103", "bike_id": "face85519c6c4270a0c3d16960eab103", "is_disabled": 0}, {"fusion_lat": 0.0, "fusion_lon": 0.0, "lat": 38.90164883333333, "type": "electric_scooter", "rental_uris": {"android": "https://dc.lft.to/lastmile_qr_scan", "ios": "https://dc.lft.to/lastmile_qr_scan"}, "is_reserved": 0, "lon": -76.93072216666667, "name": "4b0bd4f1b3800c84e02015310a43b3df", "bike_id": "4b0bd4f1b3800c84e02015310a43b3df", "is_disabled": 0}, {"fusion_lat": 0.0, "fusion_lon": 0.0, "lat": 38.8950625, "type": "electric_scooter", "rental_uris": {"android": "https://dc.lft.to/lastmile_qr_scan", "ios": "https://dc.lft.to/lastmile_qr_scan"}, "is_reserved": 0, "lon": -77.04676483333333, "name": "22764fac759aa19cbcee0639d4becb3a", "bike_id": "22764fac759aa19cbcee0639d4becb3a", "is_disabled": 0}, {"fusion_lat": 0.0, "fusion_lon": 0.0, "lat": 38.96914666666667, "type": "electric_bike", "rental_uris": {"android": "https://dc.lft.to/lastmile_qr_scan", "ios": "https://dc.lft.to/lastmile_qr_scan"}, "is_reserved": 0, "lon": -76.994938, "name": "b874de6394c58bba9cd6503dc0eeb4eb", "bike_id": "b874de6394c58bba9cd6503dc0eeb4eb", "is_disabled": 0}, {"fusion_lat": 0.0, "fusion_lon": 0.0, "lat": 38.90390816666667, "type": "electric_scooter", "rental_uris": {"android": "https://dc.lft.to/lastmile_qr_scan", "ios": "https://dc.lft.to/lastmile_qr_scan"}, "is_reserved": 0, "lon": -77.04085016666667, "name": "0e2713e999b8f692e1c65f53d6db0942", "bike_id": "0e2713e999b8f692e1c65f53d6db0942", "is_disabled": 0}, {"fusion_lat": 0.0, "fusion_lon": 0.0, "lat": 38.96409716666667, "type": "electric_bike", "rental_uris": {"android": "https://dc.lft.to/lastmile_qr_scan", "ios": "https://dc.lft.to/lastmile_qr_scan"}, "is_reserved": 0, "lon": -76.99987283333333, "name": "8f68d39c95735359ac48967b89d44347", "bike_id": "8f68d39c95735359ac48967b89d44347", "is_disabled": 0}, {"fusion_lat": 0.0, "fusion_lon": 0.0, "lat": 38.921577, "type": "electric_scooter", "rental_uris": {"android": "https://dc.lft.to/lastmile_qr_scan", "ios": "https://dc.lft.to/lastmile_qr_scan"}, "is_reserved": 0, "lon": -77.03837916666667, "name": "bad1f8b24fc1c05d8cd8b2adf5aef46a", "bike_id": "bad1f8b24fc1c05d8cd8b2adf5aef46a", "is_disabled": 0}, {"fusion_lat": 0.0, "fusion_lon": 0.0, "lat": 38.895536, "type": "electric_scooter", "rental_uris": {"android": "https://dc.lft.to/lastmile_qr_scan", "ios": "https://dc.lft.to/lastmile_qr_scan"}, "is_reserved": 0, "lon": -77.04680283333333, "name": "7dd877ab4e7c2fd5aaf146ebffa1398d", "bike_id": "7dd877ab4e7c2fd5aaf146ebffa1398d", "is_disabled": 0}, {"fusion_lat": 0.0, "fusion_lon": 0.0, "lat": 38.920441, "type": "electric_scooter", "rental_uris": {"android": "https://dc.lft.to/lastmile_qr_scan", "ios": "https://dc.lft.to/lastmile_qr_scan"}, "is_reserved": 0, "lon": -77.0168825, "name": "f292739ae386f025769d7a828aac4612", "bike_id": "f292739ae386f025769d7a828aac4612", "is_disabled": 0}, {"fusion_lat": 0.0, "fusion_lon": 0.0, "lat": 38.908011, "type": "electric_scooter", "rental_uris": {"android": "https://dc.lft.to/lastmile_qr_scan", "ios": "https://dc.lft.to/lastmile_qr_scan"}, "is_reserved": 0, "lon": -77.03060733333334, "name": "95ac7df0425f4e2fa94cfea4afa19617", "bike_id": "95ac7df0425f4e2fa94cfea4afa19617", "is_disabled": 0}, {"fusion_lat": 0.0, "fusion_lon": 0.0, "lat": 38.91144666666667, "type": "electric_scooter", "rental_uris": {"android": "https://dc.lft.to/lastmile_qr_scan", "ios": "https://dc.lft.to/lastmile_qr_scan"}, "is_reserved": 0, "lon": -77.03834216666667, "name": "195e9f36170e4b7954a607007139e4c8", "bike_id": "195e9f36170e4b7954a607007139e4c8", "is_disabled": 0}, {"fusion_lat": 0.0, "fusion_lon": 0.0, "lat": 38.898976166666664, "type": "electric_scooter", "rental_uris": {"android": "https://dc.lft.to/lastmile_qr_scan", "ios": "https://dc.lft.to/lastmile_qr_scan"}, "is_reserved": 0, "lon": -77.02815783333334, "name": "bb5a874228309296f6ca44acea9e5fb2", "bike_id": "bb5a874228309296f6ca44acea9e5fb2", "is_disabled": 0}, {"fusion_lat": 0.0, "fusion_lon": 0.0, "lat": 38.909406833333335, "type": "electric_scooter", "rental_uris": {"android": "https://dc.lft.to/lastmile_qr_scan", "ios": "https://dc.lft.to/lastmile_qr_scan"}, "is_reserved": 0, "lon": -77.044798, "name": "62eab190cf587cbd2f1609f936be3e7a", "bike_id": "62eab190cf587cbd2f1609f936be3e7a", "is_disabled": 0}, {"fusion_lat": 0.0, "fusion_lon": 0.0, "lat": 38.928987166666666, "type": "electric_scooter", "rental_uris": {"android": "https://dc.lft.to/lastmile_qr_scan", "ios": "https://dc.lft.to/lastmile_qr_scan"}, "is_reserved": 0, "lon": -77.02621366666666, "name": "5a6526afb1651c7cb202694b51fd28e8", "bike_id": "5a6526afb1651c7cb202694b51fd28e8", "is_disabled": 0}, {"fusion_lat": 0.0, "fusion_lon": 0.0, "lat": 38.923418833333336, "type": "electric_scooter", "rental_uris": {"android": "https://dc.lft.to/lastmile_qr_scan", "ios": "https://dc.lft.to/lastmile_qr_scan"}, "is_reserved": 0, "lon": -77.0503905, "name": "15575d81bd2d328a87456c572c60c462", "bike_id": "15575d81bd2d328a87456c572c60c462", "is_disabled": 0}, {"fusion_lat": 0.0, "fusion_lon": 0.0, "lat": 38.89010183333333, "type": "electric_scooter", "rental_uris": {"android": "https://dc.lft.to/lastmile_qr_scan", "ios": "https://dc.lft.to/lastmile_qr_scan"}, "is_reserved": 0, "lon": -77.03321633333333, "name": "b3b35d036886baf3e44251b8a1ee1cbd", "bike_id": "b3b35d036886baf3e44251b8a1ee1cbd", "is_disabled": 0}, {"fusion_lat": 0.0, "fusion_lon": 0.0, "lat": 38.928823666666666, "type": "electric_scooter", "rental_uris": {"android": "https://dc.lft.to/lastmile_qr_scan", "ios": "https://dc.lft.to/lastmile_qr_scan"}, "is_reserved": 0, "lon": -77.0373825, "name": "87a6a44246ae46b40cc0dcb1307c44d6", "bike_id": "87a6a44246ae46b40cc0dcb1307c44d6", "is_disabled": 0}, {"fusion_lat": 0.0, "fusion_lon": 0.0, "lat": 38.8217605, "type": "electric_bike", "rental_uris": {"android": "https://dc.lft.to/lastmile_qr_scan", "ios": "https://dc.lft.to/lastmile_qr_scan"}, "is_reserved": 0, "lon": -76.99509083333334, "name": "125b4e9acdbcabc5610710170c1247af", "bike_id": "125b4e9acdbcabc5610710170c1247af", "is_disabled": 0}, {"fusion_lat": 0.0, "fusion_lon": 0.0, "lat": 38.9181305, "type": "electric_scooter", "rental_uris": {"android": "https://dc.lft.to/lastmile_qr_scan", "ios": "https://dc.lft.to/lastmile_qr_scan"}, "is_reserved": 0, "lon": -77.0398155, "name": "0132c1d5a30037339b56d1c0df25d901", "bike_id": "0132c1d5a30037339b56d1c0df25d901", "is_disabled": 0}, {"fusion_lat": 0.0, "fusion_lon": 0.0, "lat": 38.91418016666667, "type": "electric_scooter", "rental_uris": {"android": "https://dc.lft.to/lastmile_qr_scan", "ios": "https://dc.lft.to/lastmile_qr_scan"}, "is_reserved": 0, "lon": -77.0211645, "name": "0dd5d4136d7a31c9f4f5bb8d9195b637", "bike_id": "0dd5d4136d7a31c9f4f5bb8d9195b637", "is_disabled": 0}, {"fusion_lat": 0.0, "fusion_lon": 0.0, "lat": 38.871776, "type": "electric_scooter", "rental_uris": {"android": "https://dc.lft.to/lastmile_qr_scan", "ios": "https://dc.lft.to/lastmile_qr_scan"}, "is_reserved": 0, "lon": -77.00680983333334, "name": "9c1199c9ef2fcff72e936b4027394623", "bike_id": "9c1199c9ef2fcff72e936b4027394623", "is_disabled": 0}, {"fusion_lat": 0.0, "fusion_lon": 0.0, "lat": 38.877484833333334, "type": "electric_scooter", "rental_uris": {"android": "https://dc.lft.to/lastmile_qr_scan", "ios": "https://dc.lft.to/lastmile_qr_scan"}, "is_reserved": 0, "lon": -76.9975, "name": "01696df8bb56f3072359422be7671bdd", "bike_id": "01696df8bb56f3072359422be7671bdd", "is_disabled": 0}, {"fusion_lat": 0.0, "fusion_lon": 0.0, "lat": 38.89829016666667, "type": "electric_scooter", "rental_uris": {"android": "https://dc.lft.to/lastmile_qr_scan", "ios": "https://dc.lft.to/lastmile_qr_scan"}, "is_reserved": 0, "lon": -76.9462925, "name": "3c787dd35594af8ac58a60ee6ffa1317", "bike_id": "3c787dd35594af8ac58a60ee6ffa1317", "is_disabled": 0}, {"fusion_lat": 0.0, "fusion_lon": 0.0, "lat": 38.90950516666667, "type": "electric_scooter", "rental_uris": {"android": "https://dc.lft.to/lastmile_qr_scan", "ios": "https://dc.lft.to/lastmile_qr_scan"}, "is_reserved": 0, "lon": -77.04402583333334, "name": "8546af0c2027b6479af941fbabb3a146", "bike_id": "8546af0c2027b6479af941fbabb3a146", "is_disabled": 0}, {"fusion_lat": 0.0, "fusion_lon": 0.0, "lat": 38.89358083333333, "type": "electric_scooter", "rental_uris": {"android": "https://dc.lft.to/lastmile_qr_scan", "ios": "https://dc.lft.to/lastmile_qr_scan"}, "is_reserved": 0, "lon": -76.94934383333333, "name": "67f8c4527ad32d7f88735b1f611a673d", "bike_id": "67f8c4527ad32d7f88735b1f611a673d", "is_disabled": 0}, {"fusion_lat": 0.0, "fusion_lon": 0.0, "lat": 38.9089605, "type": "electric_scooter", "rental_uris": {"android": "https://dc.lft.to/lastmile_qr_scan", "ios": "https://dc.lft.to/lastmile_qr_scan"}, "is_reserved": 0, "lon": -76.99774466666666, "name": "f99c1edde82afc3e5e302a8d8e7482b8", "bike_id": "f99c1edde82afc3e5e302a8d8e7482b8", "is_disabled": 0}, {"fusion_lat": 0.0, "fusion_lon": 0.0, "lat": 38.84636283333333, "type": "electric_scooter", "rental_uris": {"android": "https://dc.lft.to/lastmile_qr_scan", "ios": "https://dc.lft.to/lastmile_qr_scan"}, "is_reserved": 0, "lon": -76.99130933333333, "name": "f4fb3be4239e2e3402fe1b8ddc6a7146", "bike_id": "f4fb3be4239e2e3402fe1b8ddc6a7146", "is_disabled": 0}, {"fusion_lat": 0.0, "fusion_lon": 0.0, "lat": 38.917082, "type": "electric_scooter", "rental_uris": {"android": "https://dc.lft.to/lastmile_qr_scan", "ios": "https://dc.lft.to/lastmile_qr_scan"}, "is_reserved": 0, "lon": -77.02462433333334, "name": "57142d36f605f60397daf32572475046", "bike_id": "57142d36f605f60397daf32572475046", "is_disabled": 0}, {"fusion_lat": 0.0, "fusion_lon": 0.0, "lat": 38.923627, "type": "electric_scooter", "rental_uris": {"android": "https://dc.lft.to/lastmile_qr_scan", "ios": "https://dc.lft.to/lastmile_qr_scan"}, "is_reserved": 0, "lon": -77.04243716666667, "name": "9ef8e48e708c5c3d8c560e90b798bf50", "bike_id": "9ef8e48e708c5c3d8c560e90b798bf50", "is_disabled": 0}, {"fusion_lat": 0.0, "fusion_lon": 0.0, "lat": 38.85249366666667, "type": "electric_bike", "rental_uris": {"android": "https://dc.lft.to/lastmile_qr_scan", "ios": "https://dc.lft.to/lastmile_qr_scan"}, "is_reserved": 0, "lon": -77.1078595, "name": "ec2b404697e3f613da2f10ec0347df33", "bike_id": "ec2b404697e3f613da2f10ec0347df33", "is_disabled": 0}, {"fusion_lat": 0.0, "fusion_lon": 0.0, "lat": 38.866913833333335, "type": "electric_scooter", "rental_uris": {"android": "https://dc.lft.to/lastmile_qr_scan", "ios": "https://dc.lft.to/lastmile_qr_scan"}, "is_reserved": 0, "lon": -76.98541583333333, "name": "60a0bad0fdc5b3b19646d1a83204b6dd", "bike_id": "60a0bad0fdc5b3b19646d1a83204b6dd", "is_disabled": 0}, {"fusion_lat": 0.0, "fusion_lon": 0.0, "lat": 38.899645166666666, "type": "electric_scooter", "rental_uris": {"android": "https://dc.lft.to/lastmile_qr_scan", "ios": "https://dc.lft.to/lastmile_qr_scan"}, "is_reserved": 0, "lon": -77.04486766666666, "name": "0bd3c77c44427d7e92f33a89874da952", "bike_id": "0bd3c77c44427d7e92f33a89874da952", "is_disabled": 0}, {"fusion_lat": 0.0, "fusion_lon": 0.0, "lat": 38.88476583333333, "type": "electric_scooter", "rental_uris": {"android": "https://dc.lft.to/lastmile_qr_scan", "ios": "https://dc.lft.to/lastmile_qr_scan"}, "is_reserved": 0, "lon": -77.01522916666667, "name": "c193058aaf9a2200931590ed8ea591bf", "bike_id": "c193058aaf9a2200931590ed8ea591bf", "is_disabled": 0}, {"fusion_lat": 0.0, "fusion_lon": 0.0, "lat": 38.90026616666667, "type": "electric_scooter", "rental_uris": {"android": "https://dc.lft.to/lastmile_qr_scan", "ios": "https://dc.lft.to/lastmile_qr_scan"}, "is_reserved": 0, "lon": -77.04144933333333, "name": "eec7099574d07e69f7fd865a54c2063d", "bike_id": "eec7099574d07e69f7fd865a54c2063d", "is_disabled": 0}, {"fusion_lat": 0.0, "fusion_lon": 0.0, "lat": 38.887480333333336, "type": "electric_scooter", "rental_uris": {"android": "https://dc.lft.to/lastmile_qr_scan", "ios": "https://dc.lft.to/lastmile_qr_scan"}, "is_reserved": 0, "lon": -77.0256815, "name": "304de1fb0fb0fbf0370a356ee83cf228", "bike_id": "304de1fb0fb0fbf0370a356ee83cf228", "is_disabled": 0}, {"fusion_lat": 0.0, "fusion_lon": 0.0, "lat": 38.91119666666667, "type": "electric_scooter", "rental_uris": {"android": "https://dc.lft.to/lastmile_qr_scan", "ios": "https://dc.lft.to/lastmile_qr_scan"}, "is_reserved": 0, "lon": -77.03575366666666, "name": "c66d5369249110127b3704a70eda51cd", "bike_id": "c66d5369249110127b3704a70eda51cd", "is_disabled": 0}, {"fusion_lat": 0.0, "fusion_lon": 0.0, "lat": 38.90967933333334, "type": "electric_scooter", "rental_uris": {"android": "https://dc.lft.to/lastmile_qr_scan", "ios": "https://dc.lft.to/lastmile_qr_scan"}, "is_reserved": 0, "lon": -77.032736, "name": "e389f30b2d2fcb59ecdad78fa26b96b0", "bike_id": "e389f30b2d2fcb59ecdad78fa26b96b0", "is_disabled": 0}, {"fusion_lat": 0.0, "fusion_lon": 0.0, "lat": 38.892304833333334, "type": "electric_scooter", "rental_uris": {"android": "https://dc.lft.to/lastmile_qr_scan", "ios": "https://dc.lft.to/lastmile_qr_scan"}, "is_reserved": 0, "lon": -77.025853, "name": "4e35c5e30ed6e2ca3e67b81f65aaa0d8", "bike_id": "4e35c5e30ed6e2ca3e67b81f65aaa0d8", "is_disabled": 0}, {"fusion_lat": 0.0, "fusion_lon": 0.0, "lat": 38.92362166666667, "type": "electric_scooter", "rental_uris": {"android": "https://dc.lft.to/lastmile_qr_scan", "ios": "https://dc.lft.to/lastmile_qr_scan"}, "is_reserved": 0, "lon": -77.02116833333334, "name": "adf9a28469b0c1aeae133f426f54f52f", "bike_id": "adf9a28469b0c1aeae133f426f54f52f", "is_disabled": 0}, {"fusion_lat": 0.0, "fusion_lon": 0.0, "lat": 38.957841, "type": "electric_scooter", "rental_uris": {"android": "https://dc.lft.to/lastmile_qr_scan", "ios": "https://dc.lft.to/lastmile_qr_scan"}, "is_reserved": 0, "lon": -77.0247985, "name": "c8835d7f478799b664de8539a709c425", "bike_id": "c8835d7f478799b664de8539a709c425", "is_disabled": 0}, {"fusion_lat": 0.0, "fusion_lon": 0.0, "lat": 38.926565833333335, "type": "electric_scooter", "rental_uris": {"android": "https://dc.lft.to/lastmile_qr_scan", "ios": "https://dc.lft.to/lastmile_qr_scan"}, "is_reserved": 0, "lon": -77.03730183333333, "name": "a20550097b24b942e4d7a745ffac1649", "bike_id": "a20550097b24b942e4d7a745ffac1649", "is_disabled": 0}, {"fusion_lat": 0.0, "fusion_lon": 0.0, "lat": 38.914794, "type": "electric_scooter", "rental_uris": {"android": "https://dc.lft.to/lastmile_qr_scan", "ios": "https://dc.lft.to/lastmile_qr_scan"}, "is_reserved": 0, "lon": -77.045575, "name": "b6852b59754af0b69a161bf506c0fcec", "bike_id": "b6852b59754af0b69a161bf506c0fcec", "is_disabled": 0}, {"fusion_lat": 0.0, "fusion_lon": 0.0, "lat": 38.898672833333336, "type": "electric_scooter", "rental_uris": {"android": "https://dc.lft.to/lastmile_qr_scan", "ios": "https://dc.lft.to/lastmile_qr_scan"}, "is_reserved": 0, "lon": -76.94638083333334, "name": "2deba42045fd1cb29fcb5db73f6320ba", "bike_id": "2deba42045fd1cb29fcb5db73f6320ba", "is_disabled": 0}, {"fusion_lat": 0.0, "fusion_lon": 0.0, "lat": 38.881297, "type": "electric_bike", "rental_uris": {"android": "https://dc.lft.to/lastmile_qr_scan", "ios": "https://dc.lft.to/lastmile_qr_scan"}, "is_reserved": 0, "lon": -77.01652883333334, "name": "f377a9d3bf6dfe28807ff08cbfc1a266", "bike_id": "f377a9d3bf6dfe28807ff08cbfc1a266", "is_disabled": 0}, {"fusion_lat": 0.0, "fusion_lon": 0.0, "lat": 38.874787, "type": "electric_scooter", "rental_uris": {"android": "https://dc.lft.to/lastmile_qr_scan", "ios": "https://dc.lft.to/lastmile_qr_scan"}, "is_reserved": 0, "lon": -77.00233666666666, "name": "f36dcdeb0067d51aa5ccfe073efffcbc", "bike_id": "f36dcdeb0067d51aa5ccfe073efffcbc", "is_disabled": 0}, {"fusion_lat": 0.0, "fusion_lon": 0.0, "lat": 38.88576466666667, "type": "electric_scooter", "rental_uris": {"android": "https://dc.lft.to/lastmile_qr_scan", "ios": "https://dc.lft.to/lastmile_qr_scan"}, "is_reserved": 0, "lon": -77.015423, "name": "7c8d045e598939ff6fd3810740e78b53", "bike_id": "7c8d045e598939ff6fd3810740e78b53", "is_disabled": 0}, {"fusion_lat": 0.0, "fusion_lon": 0.0, "lat": 38.91104083333333, "type": "electric_scooter", "rental_uris": {"android": "https://dc.lft.to/lastmile_qr_scan", "ios": "https://dc.lft.to/lastmile_qr_scan"}, "is_reserved": 0, "lon": -77.002111, "name": "86afb5f30480e9b78af62759bbabd01d", "bike_id": "86afb5f30480e9b78af62759bbabd01d", "is_disabled": 0}, {"fusion_lat": 0.0, "fusion_lon": 0.0, "lat": 38.915695666666664, "type": "electric_scooter", "rental_uris": {"android": "https://dc.lft.to/lastmile_qr_scan", "ios": "https://dc.lft.to/lastmile_qr_scan"}, "is_reserved": 0, "lon": -77.01584133333333, "name": "6f556c0e6bf70da37afb2ee5bb4d9dae", "bike_id": "6f556c0e6bf70da37afb2ee5bb4d9dae", "is_disabled": 0}, {"fusion_lat": 0.0, "fusion_lon": 0.0, "lat": 38.899752, "type": "electric_scooter", "rental_uris": {"android": "https://dc.lft.to/lastmile_qr_scan", "ios": "https://dc.lft.to/lastmile_qr_scan"}, "is_reserved": 0, "lon": -76.983721, "name": "23d0a3f60935138544c08faf59493cff", "bike_id": "23d0a3f60935138544c08faf59493cff", "is_disabled": 0}, {"fusion_lat": 0.0, "fusion_lon": 0.0, "lat": 38.920509833333334, "type": "electric_scooter", "rental_uris": {"android": "https://dc.lft.to/lastmile_qr_scan", "ios": "https://dc.lft.to/lastmile_qr_scan"}, "is_reserved": 0, "lon": -77.0338945, "name": "b2331715bb28707e35fe8d72a5ff545d", "bike_id": "b2331715bb28707e35fe8d72a5ff545d", "is_disabled": 0}, {"fusion_lat": 0.0, "fusion_lon": 0.0, "lat": 38.844549, "type": "electric_bike", "rental_uris": {"android": "https://dc.lft.to/lastmile_qr_scan", "ios": "https://dc.lft.to/lastmile_qr_scan"}, "is_reserved": 0, "lon": -77.00169966666667, "name": "8ac180563dba2f2e79ae21b40fce88f3", "bike_id": "8ac180563dba2f2e79ae21b40fce88f3", "is_disabled": 0}, {"fusion_lat": 0.0, "fusion_lon": 0.0, "lat": 38.905801833333335, "type": "electric_scooter", "rental_uris": {"android": "https://dc.lft.to/lastmile_qr_scan", "ios": "https://dc.lft.to/lastmile_qr_scan"}, "is_reserved": 0, "lon": -77.0419335, "name": "8cc20cb9a24f8e46d7e6cfd147cb9676", "bike_id": "8cc20cb9a24f8e46d7e6cfd147cb9676", "is_disabled": 0}, {"fusion_lat": 0.0, "fusion_lon": 0.0, "lat": 38.87359983333333, "type": "electric_scooter", "rental_uris": {"android": "https://dc.lft.to/lastmile_qr_scan", "ios": "https://dc.lft.to/lastmile_qr_scan"}, "is_reserved": 0, "lon": -76.97027366666667, "name": "c6fb0388648c63faf4e1cfc60d17574f", "bike_id": "c6fb0388648c63faf4e1cfc60d17574f", "is_disabled": 0}, {"fusion_lat": 0.0, "fusion_lon": 0.0, "lat": 38.931253, "type": "electric_scooter", "rental_uris": {"android": "https://dc.lft.to/lastmile_qr_scan", "ios": "https://dc.lft.to/lastmile_qr_scan"}, "is_reserved": 0, "lon": -77.04485683333333, "name": "f527fed3b5b601a541368e78873accfb", "bike_id": "f527fed3b5b601a541368e78873accfb", "is_disabled": 0}, {"fusion_lat": 0.0, "fusion_lon": 0.0, "lat": 38.92434633333333, "type": "electric_scooter", "rental_uris": {"android": "https://dc.lft.to/lastmile_qr_scan", "ios": "https://dc.lft.to/lastmile_qr_scan"}, "is_reserved": 0, "lon": -77.02014283333334, "name": "d8c37d3de02f27e28123fc6b63e0f5e3", "bike_id": "d8c37d3de02f27e28123fc6b63e0f5e3", "is_disabled": 0}, {"fusion_lat": 0.0, "fusion_lon": 0.0, "lat": 38.918160666666665, "type": "electric_scooter", "rental_uris": {"android": "https://dc.lft.to/lastmile_qr_scan", "ios": "https://dc.lft.to/lastmile_qr_scan"}, "is_reserved": 0, "lon": -77.027182, "name": "98b15263cd6b81263c908ebabb734fed", "bike_id": "98b15263cd6b81263c908ebabb734fed", "is_disabled": 0}, {"fusion_lat": 0.0, "fusion_lon": 0.0, "lat": 38.924104666666665, "type": "electric_scooter", "rental_uris": {"android": "https://dc.lft.to/lastmile_qr_scan", "ios": "https://dc.lft.to/lastmile_qr_scan"}, "is_reserved": 0, "lon": -77.036368, "name": "ee2c1420f2b05b8ed458b7df9b8b5a46", "bike_id": "ee2c1420f2b05b8ed458b7df9b8b5a46", "is_disabled": 0}, {"fusion_lat": 0.0, "fusion_lon": 0.0, "lat": 38.89959116666667, "type": "electric_scooter", "rental_uris": {"android": "https://dc.lft.to/lastmile_qr_scan", "ios": "https://dc.lft.to/lastmile_qr_scan"}, "is_reserved": 0, "lon": -77.044792, "name": "21d6ac26487a8a645f6b1ae08b0e9ffb", "bike_id": "21d6ac26487a8a645f6b1ae08b0e9ffb", "is_disabled": 0}, {"fusion_lat": 0.0, "fusion_lon": 0.0, "lat": 38.899153166666665, "type": "electric_scooter", "rental_uris": {"android": "https://dc.lft.to/lastmile_qr_scan", "ios": "https://dc.lft.to/lastmile_qr_scan"}, "is_reserved": 0, "lon": -76.9336885, "name": "4b284092e031367d1c8410087fa62bf6", "bike_id": "4b284092e031367d1c8410087fa62bf6", "is_disabled": 0}, {"fusion_lat": 0.0, "fusion_lon": 0.0, "lat": 38.9191325, "type": "electric_scooter", "rental_uris": {"android": "https://dc.lft.to/lastmile_qr_scan", "ios": "https://dc.lft.to/lastmile_qr_scan"}, "is_reserved": 0, "lon": -77.02552933333334, "name": "cddb1c2af5932dfbfe061511bc21ee2e", "bike_id": "cddb1c2af5932dfbfe061511bc21ee2e", "is_disabled": 0}, {"fusion_lat": 0.0, "fusion_lon": 0.0, "lat": 38.91701166666667, "type": "electric_scooter", "rental_uris": {"android": "https://dc.lft.to/lastmile_qr_scan", "ios": "https://dc.lft.to/lastmile_qr_scan"}, "is_reserved": 0, "lon": -77.02307, "name": "8713abce52ceb3d05d78c85a7d0ab310", "bike_id": "8713abce52ceb3d05d78c85a7d0ab310", "is_disabled": 0}, {"fusion_lat": 0.0, "fusion_lon": 0.0, "lat": 38.873724333333335, "type": "electric_scooter", "rental_uris": {"android": "https://dc.lft.to/lastmile_qr_scan", "ios": "https://dc.lft.to/lastmile_qr_scan"}, "is_reserved": 0, "lon": -77.00113066666667, "name": "9922fe8337484de5b489860c6452b384", "bike_id": "9922fe8337484de5b489860c6452b384", "is_disabled": 0}, {"fusion_lat": 0.0, "fusion_lon": 0.0, "lat": 38.92402583333333, "type": "electric_scooter", "rental_uris": {"android": "https://dc.lft.to/lastmile_qr_scan", "ios": "https://dc.lft.to/lastmile_qr_scan"}, "is_reserved": 0, "lon": -77.012213, "name": "55e657579e761dbef0f12934438148c5", "bike_id": "55e657579e761dbef0f12934438148c5", "is_disabled": 0}, {"fusion_lat": 0.0, "fusion_lon": 0.0, "lat": 38.8968125, "type": "electric_scooter", "rental_uris": {"android": "https://dc.lft.to/lastmile_qr_scan", "ios": "https://dc.lft.to/lastmile_qr_scan"}, "is_reserved": 0, "lon": -77.04332933333333, "name": "95d687ec7151cd63e700615f50943b36", "bike_id": "95d687ec7151cd63e700615f50943b36", "is_disabled": 0}, {"fusion_lat": 0.0, "fusion_lon": 0.0, "lat": 38.91766466666667, "type": "electric_bike", "rental_uris": {"android": "https://dc.lft.to/lastmile_qr_scan", "ios": "https://dc.lft.to/lastmile_qr_scan"}, "is_reserved": 0, "lon": -77.04764166666666, "name": "d188e07b3f41f7eb4d631d0e4a055b7c", "bike_id": "d188e07b3f41f7eb4d631d0e4a055b7c", "is_disabled": 0}, {"fusion_lat": 0.0, "fusion_lon": 0.0, "lat": 38.905411666666666, "type": "electric_scooter", "rental_uris": {"android": "https://dc.lft.to/lastmile_qr_scan", "ios": "https://dc.lft.to/lastmile_qr_scan"}, "is_reserved": 0, "lon": -77.057707, "name": "41f336277c601272d826b1256dad059d", "bike_id": "41f336277c601272d826b1256dad059d", "is_disabled": 0}, {"fusion_lat": 0.0, "fusion_lon": 0.0, "lat": 38.842550833333334, "type": "electric_bike", "rental_uris": {"android": "https://dc.lft.to/lastmile_qr_scan", "ios": "https://dc.lft.to/lastmile_qr_scan"}, "is_reserved": 0, "lon": -77.0788065, "name": "46fb12b1a26c5c8ad760ff121c19bdcb", "bike_id": "46fb12b1a26c5c8ad760ff121c19bdcb", "is_disabled": 0}, {"fusion_lat": 0.0, "fusion_lon": 0.0, "lat": 38.908250333333335, "type": "electric_scooter", "rental_uris": {"android": "https://dc.lft.to/lastmile_qr_scan", "ios": "https://dc.lft.to/lastmile_qr_scan"}, "is_reserved": 0, "lon": -77.04869966666666, "name": "9461eb953a596415a5a645d511022098", "bike_id": "9461eb953a596415a5a645d511022098", "is_disabled": 0}, {"fusion_lat": 0.0, "fusion_lon": 0.0, "lat": 38.9221935, "type": "electric_scooter", "rental_uris": {"android": "https://dc.lft.to/lastmile_qr_scan", "ios": "https://dc.lft.to/lastmile_qr_scan"}, "is_reserved": 0, "lon": -77.03515583333333, "name": "bde42741b26f0351e6e449ab7a9be55c", "bike_id": "bde42741b26f0351e6e449ab7a9be55c", "is_disabled": 0}, {"fusion_lat": 0.0, "fusion_lon": 0.0, "lat": 38.928023333333336, "type": "electric_scooter", "rental_uris": {"android": "https://dc.lft.to/lastmile_qr_scan", "ios": "https://dc.lft.to/lastmile_qr_scan"}, "is_reserved": 0, "lon": -77.03266133333334, "name": "c48c242a87e052b6b5fb417af97c1d57", "bike_id": "c48c242a87e052b6b5fb417af97c1d57", "is_disabled": 0}, {"fusion_lat": 0.0, "fusion_lon": 0.0, "lat": 38.997090666666665, "type": "electric_bike", "rental_uris": {"android": "https://dc.lft.to/lastmile_qr_scan", "ios": "https://dc.lft.to/lastmile_qr_scan"}, "is_reserved": 0, "lon": -77.02547583333333, "name": "3d5b957dfe60d1b07b7bd61c506bfd19", "bike_id": "3d5b957dfe60d1b07b7bd61c506bfd19", "is_disabled": 0}, {"fusion_lat": 0.0, "fusion_lon": 0.0, "lat": 38.92698816666667, "type": "electric_scooter", "rental_uris": {"android": "https://dc.lft.to/lastmile_qr_scan", "ios": "https://dc.lft.to/lastmile_qr_scan"}, "is_reserved": 0, "lon": -77.03560866666666, "name": "50699abee19dbb12b724c8e494c0e33d", "bike_id": "50699abee19dbb12b724c8e494c0e33d", "is_disabled": 0}, {"fusion_lat": 0.0, "fusion_lon": 0.0, "lat": 38.8674715, "type": "electric_scooter", "rental_uris": {"android": "https://dc.lft.to/lastmile_qr_scan", "ios": "https://dc.lft.to/lastmile_qr_scan"}, "is_reserved": 0, "lon": -76.97857733333333, "name": "a5b1ff7470984c1d5b58a85813431977", "bike_id": "a5b1ff7470984c1d5b58a85813431977", "is_disabled": 0}, {"fusion_lat": 0.0, "fusion_lon": 0.0, "lat": 38.9286545, "type": "electric_scooter", "rental_uris": {"android": "https://dc.lft.to/lastmile_qr_scan", "ios": "https://dc.lft.to/lastmile_qr_scan"}, "is_reserved": 0, "lon": -76.97748, "name": "72188ca4d502c4170d768879f49ca2ee", "bike_id": "72188ca4d502c4170d768879f49ca2ee", "is_disabled": 0}, {"fusion_lat": 0.0, "fusion_lon": 0.0, "lat": 38.86035666666667, "type": "electric_scooter", "rental_uris": {"android": "https://dc.lft.to/lastmile_qr_scan", "ios": "https://dc.lft.to/lastmile_qr_scan"}, "is_reserved": 0, "lon": -76.96705516666667, "name": "f95ba85c0c918e787797c461d1f42c31", "bike_id": "f95ba85c0c918e787797c461d1f42c31", "is_disabled": 0}, {"fusion_lat": 0.0, "fusion_lon": 0.0, "lat": 38.90050383333333, "type": "electric_scooter", "rental_uris": {"android": "https://dc.lft.to/lastmile_qr_scan", "ios": "https://dc.lft.to/lastmile_qr_scan"}, "is_reserved": 0, "lon": -77.01662566666667, "name": "d8ca42cef727e718cdc9b2fa4b1764e8", "bike_id": "d8ca42cef727e718cdc9b2fa4b1764e8", "is_disabled": 0}, {"fusion_lat": 0.0, "fusion_lon": 0.0, "lat": 38.94624816666666, "type": "electric_scooter", "rental_uris": {"android": "https://dc.lft.to/lastmile_qr_scan", "ios": "https://dc.lft.to/lastmile_qr_scan"}, "is_reserved": 0, "lon": -77.0253345, "name": "ad4c96b3d25dcf3b2b5291de6d5d1092", "bike_id": "ad4c96b3d25dcf3b2b5291de6d5d1092", "is_disabled": 0}, {"fusion_lat": 0.0, "fusion_lon": 0.0, "lat": 38.8771235, "type": "electric_scooter", "rental_uris": {"android": "https://dc.lft.to/lastmile_qr_scan", "ios": "https://dc.lft.to/lastmile_qr_scan"}, "is_reserved": 0, "lon": -77.01781316666667, "name": "181e8339c8b606509329969604aeb52d", "bike_id": "181e8339c8b606509329969604aeb52d", "is_disabled": 0}, {"fusion_lat": 0.0, "fusion_lon": 0.0, "lat": 38.951027833333335, "type": "electric_scooter", "rental_uris": {"android": "https://dc.lft.to/lastmile_qr_scan", "ios": "https://dc.lft.to/lastmile_qr_scan"}, "is_reserved": 0, "lon": -77.09712316666666, "name": "1a118aef9c458c725de61d785b9c5064", "bike_id": "1a118aef9c458c725de61d785b9c5064", "is_disabled": 0}, {"fusion_lat": 0.0, "fusion_lon": 0.0, "lat": 38.873996, "type": "electric_scooter", "rental_uris": {"android": "https://dc.lft.to/lastmile_qr_scan", "ios": "https://dc.lft.to/lastmile_qr_scan"}, "is_reserved": 0, "lon": -77.000273, "name": "ee4d0a3ec7217de327bf79a25f425021", "bike_id": "ee4d0a3ec7217de327bf79a25f425021", "is_disabled": 0}, {"fusion_lat": 0.0, "fusion_lon": 0.0, "lat": 38.906604, "type": "electric_scooter", "rental_uris": {"android": "https://dc.lft.to/lastmile_qr_scan", "ios": "https://dc.lft.to/lastmile_qr_scan"}, "is_reserved": 0, "lon": -77.038079, "name": "429ce0051694ebaf1ad78dd3d831d13f", "bike_id": "429ce0051694ebaf1ad78dd3d831d13f", "is_disabled": 0}, {"fusion_lat": 0.0, "fusion_lon": 0.0, "lat": 38.90031316666666, "type": "electric_scooter", "rental_uris": {"android": "https://dc.lft.to/lastmile_qr_scan", "ios": "https://dc.lft.to/lastmile_qr_scan"}, "is_reserved": 0, "lon": -77.01222066666666, "name": "392148f976b2f61ef39499edbd2826a8", "bike_id": "392148f976b2f61ef39499edbd2826a8", "is_disabled": 0}, {"fusion_lat": 0.0, "fusion_lon": 0.0, "lat": 38.85971266666667, "type": "electric_scooter", "rental_uris": {"android": "https://dc.lft.to/lastmile_qr_scan", "ios": "https://dc.lft.to/lastmile_qr_scan"}, "is_reserved": 0, "lon": -76.9915665, "name": "cc22b4d82417a755df7cd61758b863a6", "bike_id": "cc22b4d82417a755df7cd61758b863a6", "is_disabled": 0}, {"fusion_lat": 0.0, "fusion_lon": 0.0, "lat": 38.98503516666667, "type": "electric_bike", "rental_uris": {"android": "https://dc.lft.to/lastmile_qr_scan", "ios": "https://dc.lft.to/lastmile_qr_scan"}, "is_reserved": 0, "lon": -76.982139, "name": "1651ba2b5bfd39e671b2d9181a4919ed", "bike_id": "1651ba2b5bfd39e671b2d9181a4919ed", "is_disabled": 0}, {"fusion_lat": 0.0, "fusion_lon": 0.0, "lat": 38.9418515, "type": "electric_scooter", "rental_uris": {"android": "https://dc.lft.to/lastmile_qr_scan", "ios": "https://dc.lft.to/lastmile_qr_scan"}, "is_reserved": 0, "lon": -77.0248715, "name": "0374e70ff413c36d6e09dc13d6d204bd", "bike_id": "0374e70ff413c36d6e09dc13d6d204bd", "is_disabled": 0}, {"fusion_lat": 0.0, "fusion_lon": 0.0, "lat": 38.90272733333333, "type": "electric_scooter", "rental_uris": {"android": "https://dc.lft.to/lastmile_qr_scan", "ios": "https://dc.lft.to/lastmile_qr_scan"}, "is_reserved": 0, "lon": -77.03345266666666, "name": "1819b663dc4ff2bb3bee9991b69135d6", "bike_id": "1819b663dc4ff2bb3bee9991b69135d6", "is_disabled": 0}, {"fusion_lat": 0.0, "fusion_lon": 0.0, "lat": 38.9565415, "type": "electric_scooter", "rental_uris": {"android": "https://dc.lft.to/lastmile_qr_scan", "ios": "https://dc.lft.to/lastmile_qr_scan"}, "is_reserved": 0, "lon": -77.0196115, "name": "e57fd71848c3a88c53f8b260fdbceb61", "bike_id": "e57fd71848c3a88c53f8b260fdbceb61", "is_disabled": 0}, {"fusion_lat": 0.0, "fusion_lon": 0.0, "lat": 38.9112215, "type": "electric_scooter", "rental_uris": {"android": "https://dc.lft.to/lastmile_qr_scan", "ios": "https://dc.lft.to/lastmile_qr_scan"}, "is_reserved": 0, "lon": -77.03185983333333, "name": "37243e6120069306910a49c6d9676401", "bike_id": "37243e6120069306910a49c6d9676401", "is_disabled": 0}, {"fusion_lat": 0.0, "fusion_lon": 0.0, "lat": 38.92149933333334, "type": "electric_scooter", "rental_uris": {"android": "https://dc.lft.to/lastmile_qr_scan", "ios": "https://dc.lft.to/lastmile_qr_scan"}, "is_reserved": 0, "lon": -77.038683, "name": "5ef28fbdbeac353e32a3b7b9dee3524b", "bike_id": "5ef28fbdbeac353e32a3b7b9dee3524b", "is_disabled": 0}, {"fusion_lat": 0.0, "fusion_lon": 0.0, "lat": 38.8922405, "type": "electric_scooter", "rental_uris": {"android": "https://dc.lft.to/lastmile_qr_scan", "ios": "https://dc.lft.to/lastmile_qr_scan"}, "is_reserved": 0, "lon": -77.04686333333333, "name": "da2435f05093711242f5ac1e3d4b981a", "bike_id": "da2435f05093711242f5ac1e3d4b981a", "is_disabled": 0}, {"fusion_lat": 0.0, "fusion_lon": 0.0, "lat": 38.88624333333333, "type": "electric_scooter", "rental_uris": {"android": "https://dc.lft.to/lastmile_qr_scan", "ios": "https://dc.lft.to/lastmile_qr_scan"}, "is_reserved": 0, "lon": -77.02827066666667, "name": "fe23316c4f2f1540ab890a020f2e230d", "bike_id": "fe23316c4f2f1540ab890a020f2e230d", "is_disabled": 0}, {"fusion_lat": 0.0, "fusion_lon": 0.0, "lat": 38.897367333333335, "type": "electric_scooter", "rental_uris": {"android": "https://dc.lft.to/lastmile_qr_scan", "ios": "https://dc.lft.to/lastmile_qr_scan"}, "is_reserved": 0, "lon": -76.94724933333333, "name": "9bd4a2c633b0550dcee5b9eb62ef5e80", "bike_id": "9bd4a2c633b0550dcee5b9eb62ef5e80", "is_disabled": 0}, {"fusion_lat": 0.0, "fusion_lon": 0.0, "lat": 38.9252435, "type": "electric_scooter", "rental_uris": {"android": "https://dc.lft.to/lastmile_qr_scan", "ios": "https://dc.lft.to/lastmile_qr_scan"}, "is_reserved": 0, "lon": -77.04092883333334, "name": "caa90d26bc79365c153da32d7c38c2af", "bike_id": "caa90d26bc79365c153da32d7c38c2af", "is_disabled": 0}, {"fusion_lat": 0.0, "fusion_lon": 0.0, "lat": 38.93043866666667, "type": "electric_scooter", "rental_uris": {"android": "https://dc.lft.to/lastmile_qr_scan", "ios": "https://dc.lft.to/lastmile_qr_scan"}, "is_reserved": 0, "lon": -77.03197283333333, "name": "aaeaac23be4edb6af4cb7639220fa6fc", "bike_id": "aaeaac23be4edb6af4cb7639220fa6fc", "is_disabled": 0}, {"fusion_lat": 0.0, "fusion_lon": 0.0, "lat": 38.92803283333333, "type": "electric_scooter", "rental_uris": {"android": "https://dc.lft.to/lastmile_qr_scan", "ios": "https://dc.lft.to/lastmile_qr_scan"}, "is_reserved": 0, "lon": -77.03591, "name": "956a74c36568f3ed0fca1a48b7bc2b4d", "bike_id": "956a74c36568f3ed0fca1a48b7bc2b4d", "is_disabled": 0}, {"fusion_lat": 0.0, "fusion_lon": 0.0, "lat": 38.91001283333333, "type": "electric_scooter", "rental_uris": {"android": "https://dc.lft.to/lastmile_qr_scan", "ios": "https://dc.lft.to/lastmile_qr_scan"}, "is_reserved": 0, "lon": -77.04002216666666, "name": "9e18c987fc30ef24c7e5d6a28ca406e7", "bike_id": "9e18c987fc30ef24c7e5d6a28ca406e7", "is_disabled": 0}, {"fusion_lat": 0.0, "fusion_lon": 0.0, "lat": 38.89657283333333, "type": "electric_scooter", "rental_uris": {"android": "https://dc.lft.to/lastmile_qr_scan", "ios": "https://dc.lft.to/lastmile_qr_scan"}, "is_reserved": 0, "lon": -77.02611283333333, "name": "9a3960ea84d4e20420c1fa554cb91205", "bike_id": "9a3960ea84d4e20420c1fa554cb91205", "is_disabled": 0}, {"fusion_lat": 0.0, "fusion_lon": 0.0, "lat": 38.891938333333336, "type": "electric_scooter", "rental_uris": {"android": "https://dc.lft.to/lastmile_qr_scan", "ios": "https://dc.lft.to/lastmile_qr_scan"}, "is_reserved": 0, "lon": -77.02241866666667, "name": "7b0572bb157729c989e090782d706bdc", "bike_id": "7b0572bb157729c989e090782d706bdc", "is_disabled": 0}, {"fusion_lat": 0.0, "fusion_lon": 0.0, "lat": 38.9191445, "type": "electric_scooter", "rental_uris": {"android": "https://dc.lft.to/lastmile_qr_scan", "ios": "https://dc.lft.to/lastmile_qr_scan"}, "is_reserved": 0, "lon": -77.01347766666666, "name": "144d62436efcf9621a8400c4fa35ab36", "bike_id": "144d62436efcf9621a8400c4fa35ab36", "is_disabled": 0}, {"fusion_lat": 0.0, "fusion_lon": 0.0, "lat": 38.91471333333333, "type": "electric_scooter", "rental_uris": {"android": "https://dc.lft.to/lastmile_qr_scan", "ios": "https://dc.lft.to/lastmile_qr_scan"}, "is_reserved": 0, "lon": -76.98110116666666, "name": "c31955b654b66afc9391f42d0a50e2a0", "bike_id": "c31955b654b66afc9391f42d0a50e2a0", "is_disabled": 0}, {"fusion_lat": 0.0, "fusion_lon": 0.0, "lat": 38.90595, "type": "electric_scooter", "rental_uris": {"android": "https://dc.lft.to/lastmile_qr_scan", "ios": "https://dc.lft.to/lastmile_qr_scan"}, "is_reserved": 0, "lon": -77.0698675, "name": "be1e090444d604ed3dbc07da2eecd0a7", "bike_id": "be1e090444d604ed3dbc07da2eecd0a7", "is_disabled": 0}, {"fusion_lat": 0.0, "fusion_lon": 0.0, "lat": 38.89846216666667, "type": "electric_scooter", "rental_uris": {"android": "https://dc.lft.to/lastmile_qr_scan", "ios": "https://dc.lft.to/lastmile_qr_scan"}, "is_reserved": 0, "lon": -77.02191866666666, "name": "f049dd592db49817f154251cd94e530d", "bike_id": "f049dd592db49817f154251cd94e530d", "is_disabled": 0}, {"fusion_lat": 0.0, "fusion_lon": 0.0, "lat": 38.8811545, "type": "electric_scooter", "rental_uris": {"android": "https://dc.lft.to/lastmile_qr_scan", "ios": "https://dc.lft.to/lastmile_qr_scan"}, "is_reserved": 0, "lon": -77.0264935, "name": "aec2155cfd2b63a288b7315f5b935df7", "bike_id": "aec2155cfd2b63a288b7315f5b935df7", "is_disabled": 0}, {"fusion_lat": 0.0, "fusion_lon": 0.0, "lat": 38.91919683333333, "type": "electric_scooter", "rental_uris": {"android": "https://dc.lft.to/lastmile_qr_scan", "ios": "https://dc.lft.to/lastmile_qr_scan"}, "is_reserved": 0, "lon": -77.034293, "name": "b3b96f8348165d5af0f45cf712c4963c", "bike_id": "b3b96f8348165d5af0f45cf712c4963c", "is_disabled": 0}, {"fusion_lat": 0.0, "fusion_lon": 0.0, "lat": 38.908205333333335, "type": "electric_scooter", "rental_uris": {"android": "https://dc.lft.to/lastmile_qr_scan", "ios": "https://dc.lft.to/lastmile_qr_scan"}, "is_reserved": 0, "lon": -77.03551433333334, "name": "28ab32fb909e5870259e65092bb751c6", "bike_id": "28ab32fb909e5870259e65092bb751c6", "is_disabled": 0}, {"fusion_lat": 0.0, "fusion_lon": 0.0, "lat": 38.90875833333333, "type": "electric_scooter", "rental_uris": {"android": "https://dc.lft.to/lastmile_qr_scan", "ios": "https://dc.lft.to/lastmile_qr_scan"}, "is_reserved": 0, "lon": -77.0018805, "name": "418e9c302b0d6e587b69b01374646dd8", "bike_id": "418e9c302b0d6e587b69b01374646dd8", "is_disabled": 0}, {"fusion_lat": 0.0, "fusion_lon": 0.0, "lat": 38.91010283333333, "type": "electric_scooter", "rental_uris": {"android": "https://dc.lft.to/lastmile_qr_scan", "ios": "https://dc.lft.to/lastmile_qr_scan"}, "is_reserved": 0, "lon": -76.99396516666667, "name": "ebb45e3d48203e638d184bd58fa8f8ed", "bike_id": "ebb45e3d48203e638d184bd58fa8f8ed", "is_disabled": 0}, {"fusion_lat": 0.0, "fusion_lon": 0.0, "lat": 38.93159566666667, "type": "electric_scooter", "rental_uris": {"android": "https://dc.lft.to/lastmile_qr_scan", "ios": "https://dc.lft.to/lastmile_qr_scan"}, "is_reserved": 0, "lon": -77.03497216666666, "name": "412bc9d54bc22196e0f353d0b7d0f758", "bike_id": "412bc9d54bc22196e0f353d0b7d0f758", "is_disabled": 0}, {"fusion_lat": 0.0, "fusion_lon": 0.0, "lat": 38.89729083333334, "type": "electric_scooter", "rental_uris": {"android": "https://dc.lft.to/lastmile_qr_scan", "ios": "https://dc.lft.to/lastmile_qr_scan"}, "is_reserved": 0, "lon": -77.04877483333334, "name": "673cbb955aad70afdaca934c116449be", "bike_id": "673cbb955aad70afdaca934c116449be", "is_disabled": 0}, {"fusion_lat": 0.0, "fusion_lon": 0.0, "lat": 38.874212666666665, "type": "electric_scooter", "rental_uris": {"android": "https://dc.lft.to/lastmile_qr_scan", "ios": "https://dc.lft.to/lastmile_qr_scan"}, "is_reserved": 0, "lon": -76.96911883333334, "name": "f0d1c4e2381b920ba0b9eeb0c333c094", "bike_id": "f0d1c4e2381b920ba0b9eeb0c333c094", "is_disabled": 0}, {"fusion_lat": 0.0, "fusion_lon": 0.0, "lat": 38.92606116666666, "type": "electric_scooter", "rental_uris": {"android": "https://dc.lft.to/lastmile_qr_scan", "ios": "https://dc.lft.to/lastmile_qr_scan"}, "is_reserved": 0, "lon": -77.03660683333334, "name": "3fcc43d56532e247fca0a0255d03c1f4", "bike_id": "3fcc43d56532e247fca0a0255d03c1f4", "is_disabled": 0}, {"fusion_lat": 0.0, "fusion_lon": 0.0, "lat": 38.898907, "type": "electric_scooter", "rental_uris": {"android": "https://dc.lft.to/lastmile_qr_scan", "ios": "https://dc.lft.to/lastmile_qr_scan"}, "is_reserved": 0, "lon": -77.02010266666667, "name": "d0e4c9715379dd93fdba39890d5f1801", "bike_id": "d0e4c9715379dd93fdba39890d5f1801", "is_disabled": 0}, {"fusion_lat": 0.0, "fusion_lon": 0.0, "lat": 38.91943366666667, "type": "electric_scooter", "rental_uris": {"android": "https://dc.lft.to/lastmile_qr_scan", "ios": "https://dc.lft.to/lastmile_qr_scan"}, "is_reserved": 0, "lon": -77.00316716666667, "name": "bed8bba4ceedcab8a172c14d8f93c899", "bike_id": "bed8bba4ceedcab8a172c14d8f93c899", "is_disabled": 0}, {"fusion_lat": 0.0, "fusion_lon": 0.0, "lat": 38.886778666666665, "type": "electric_scooter", "rental_uris": {"android": "https://dc.lft.to/lastmile_qr_scan", "ios": "https://dc.lft.to/lastmile_qr_scan"}, "is_reserved": 0, "lon": -77.0006065, "name": "9d145ed4eebb20e3a68be76c1dae263c", "bike_id": "9d145ed4eebb20e3a68be76c1dae263c", "is_disabled": 0}, {"fusion_lat": 0.0, "fusion_lon": 0.0, "lat": 38.9186515, "type": "electric_scooter", "rental_uris": {"android": "https://dc.lft.to/lastmile_qr_scan", "ios": "https://dc.lft.to/lastmile_qr_scan"}, "is_reserved": 0, "lon": -77.02476816666666, "name": "6b0a28018dd7dcefe16979fadd7b6769", "bike_id": "6b0a28018dd7dcefe16979fadd7b6769", "is_disabled": 0}, {"fusion_lat": 0.0, "fusion_lon": 0.0, "lat": 38.88419233333333, "type": "electric_scooter", "rental_uris": {"android": "https://dc.lft.to/lastmile_qr_scan", "ios": "https://dc.lft.to/lastmile_qr_scan"}, "is_reserved": 0, "lon": -77.01948716666666, "name": "ff58204c13c17f1829d55e851684b5de", "bike_id": "ff58204c13c17f1829d55e851684b5de", "is_disabled": 0}, {"fusion_lat": 0.0, "fusion_lon": 0.0, "lat": 38.8984615, "type": "electric_scooter", "rental_uris": {"android": "https://dc.lft.to/lastmile_qr_scan", "ios": "https://dc.lft.to/lastmile_qr_scan"}, "is_reserved": 0, "lon": -76.94252, "name": "2ff35a86f2c9bd9d4daf36d7594e73c9", "bike_id": "2ff35a86f2c9bd9d4daf36d7594e73c9", "is_disabled": 0}, {"fusion_lat": 0.0, "fusion_lon": 0.0, "lat": 38.888504166666664, "type": "electric_scooter", "rental_uris": {"android": "https://dc.lft.to/lastmile_qr_scan", "ios": "https://dc.lft.to/lastmile_qr_scan"}, "is_reserved": 0, "lon": -76.92676766666666, "name": "b12532053aeb7795154202735b7d06d1", "bike_id": "b12532053aeb7795154202735b7d06d1", "is_disabled": 0}, {"fusion_lat": 0.0, "fusion_lon": 0.0, "lat": 38.87864666666667, "type": "electric_scooter", "rental_uris": {"android": "https://dc.lft.to/lastmile_qr_scan", "ios": "https://dc.lft.to/lastmile_qr_scan"}, "is_reserved": 0, "lon": -76.96982583333333, "name": "bdd7b4249029fe787f208238684842c8", "bike_id": "bdd7b4249029fe787f208238684842c8", "is_disabled": 0}, {"fusion_lat": 0.0, "fusion_lon": 0.0, "lat": 38.86933916666667, "type": "electric_scooter", "rental_uris": {"android": "https://dc.lft.to/lastmile_qr_scan", "ios": "https://dc.lft.to/lastmile_qr_scan"}, "is_reserved": 0, "lon": -76.96014583333333, "name": "11dd11a294c008e28e46fa5b84498262", "bike_id": "11dd11a294c008e28e46fa5b84498262", "is_disabled": 0}, {"fusion_lat": 0.0, "fusion_lon": 0.0, "lat": 38.9236735, "type": "electric_scooter", "rental_uris": {"android": "https://dc.lft.to/lastmile_qr_scan", "ios": "https://dc.lft.to/lastmile_qr_scan"}, "is_reserved": 0, "lon": -77.05112116666666, "name": "54f148211aa4d52ebac94cb998208dd2", "bike_id": "54f148211aa4d52ebac94cb998208dd2", "is_disabled": 0}, {"fusion_lat": 0.0, "fusion_lon": 0.0, "lat": 38.8317205, "type": "electric_scooter", "rental_uris": {"android": "https://dc.lft.to/lastmile_qr_scan", "ios": "https://dc.lft.to/lastmile_qr_scan"}, "is_reserved": 0, "lon": -77.007719, "name": "5e3ea314d10b2d116cb115ac79878818", "bike_id": "5e3ea314d10b2d116cb115ac79878818", "is_disabled": 0}, {"fusion_lat": 0.0, "fusion_lon": 0.0, "lat": 38.91262833333333, "type": "electric_scooter", "rental_uris": {"android": "https://dc.lft.to/lastmile_qr_scan", "ios": "https://dc.lft.to/lastmile_qr_scan"}, "is_reserved": 0, "lon": -77.0314605, "name": "2ca30f76e6edeeca840ae064d7fcbea9", "bike_id": "2ca30f76e6edeeca840ae064d7fcbea9", "is_disabled": 0}, {"fusion_lat": 0.0, "fusion_lon": 0.0, "lat": 38.894783333333336, "type": "electric_scooter", "rental_uris": {"android": "https://dc.lft.to/lastmile_qr_scan", "ios": "https://dc.lft.to/lastmile_qr_scan"}, "is_reserved": 0, "lon": -77.04528266666667, "name": "23b7a6ec20a029ae2d01568deffedaf3", "bike_id": "23b7a6ec20a029ae2d01568deffedaf3", "is_disabled": 0}, {"fusion_lat": 0.0, "fusion_lon": 0.0, "lat": 38.8485255, "type": "electric_scooter", "rental_uris": {"android": "https://dc.lft.to/lastmile_qr_scan", "ios": "https://dc.lft.to/lastmile_qr_scan"}, "is_reserved": 0, "lon": -77.00383383333333, "name": "d04a6c5f07c538690540737f0aa9171b", "bike_id": "d04a6c5f07c538690540737f0aa9171b", "is_disabled": 0}, {"fusion_lat": 0.0, "fusion_lon": 0.0, "lat": 38.93699983333333, "type": "electric_bike", "rental_uris": {"android": "https://dc.lft.to/lastmile_qr_scan", "ios": "https://dc.lft.to/lastmile_qr_scan"}, "is_reserved": 0, "lon": -77.05591416666667, "name": "701561bdec8eadd964e80849776c820e", "bike_id": "701561bdec8eadd964e80849776c820e", "is_disabled": 0}, {"fusion_lat": 0.0, "fusion_lon": 0.0, "lat": 38.86258433333333, "type": "electric_bike", "rental_uris": {"android": "https://dc.lft.to/lastmile_qr_scan", "ios": "https://dc.lft.to/lastmile_qr_scan"}, "is_reserved": 0, "lon": -76.9834815, "name": "f8650b669dc4c60814bd8495c752b9a2", "bike_id": "f8650b669dc4c60814bd8495c752b9a2", "is_disabled": 0}, {"fusion_lat": 0.0, "fusion_lon": 0.0, "lat": 38.9065135, "type": "electric_scooter", "rental_uris": {"android": "https://dc.lft.to/lastmile_qr_scan", "ios": "https://dc.lft.to/lastmile_qr_scan"}, "is_reserved": 0, "lon": -77.02529966666667, "name": "49c881d7d863424833dbb50b4672f0d7", "bike_id": "49c881d7d863424833dbb50b4672f0d7", "is_disabled": 0}, {"fusion_lat": 0.0, "fusion_lon": 0.0, "lat": 38.90303816666667, "type": "electric_scooter", "rental_uris": {"android": "https://dc.lft.to/lastmile_qr_scan", "ios": "https://dc.lft.to/lastmile_qr_scan"}, "is_reserved": 0, "lon": -77.03835683333334, "name": "c08f7186a01707ba553efe28e545952a", "bike_id": "c08f7186a01707ba553efe28e545952a", "is_disabled": 0}, {"fusion_lat": 0.0, "fusion_lon": 0.0, "lat": 38.896903, "type": "electric_scooter", "rental_uris": {"android": "https://dc.lft.to/lastmile_qr_scan", "ios": "https://dc.lft.to/lastmile_qr_scan"}, "is_reserved": 0, "lon": -77.03247933333333, "name": "cf5e5a0e0708c093751c7d3bd6843fe0", "bike_id": "cf5e5a0e0708c093751c7d3bd6843fe0", "is_disabled": 0}, {"fusion_lat": 0.0, "fusion_lon": 0.0, "lat": 38.92321183333333, "type": "electric_scooter", "rental_uris": {"android": "https://dc.lft.to/lastmile_qr_scan", "ios": "https://dc.lft.to/lastmile_qr_scan"}, "is_reserved": 0, "lon": -77.03404616666667, "name": "6117b5ccca94b89a7190bf368f25a3f6", "bike_id": "6117b5ccca94b89a7190bf368f25a3f6", "is_disabled": 0}, {"fusion_lat": 0.0, "fusion_lon": 0.0, "lat": 38.940541833333334, "type": "electric_bike", "rental_uris": {"android": "https://dc.lft.to/lastmile_qr_scan", "ios": "https://dc.lft.to/lastmile_qr_scan"}, "is_reserved": 0, "lon": -76.904167, "name": "cd12d976abb219c179951a0cd52955e2", "bike_id": "cd12d976abb219c179951a0cd52955e2", "is_disabled": 0}, {"fusion_lat": 0.0, "fusion_lon": 0.0, "lat": 38.92422033333333, "type": "electric_scooter", "rental_uris": {"android": "https://dc.lft.to/lastmile_qr_scan", "ios": "https://dc.lft.to/lastmile_qr_scan"}, "is_reserved": 0, "lon": -77.01948866666666, "name": "5d5de4f5e59bbf27bb31edd36c6a021c", "bike_id": "5d5de4f5e59bbf27bb31edd36c6a021c", "is_disabled": 0}, {"fusion_lat": 0.0, "fusion_lon": 0.0, "lat": 38.919344833333334, "type": "electric_scooter", "rental_uris": {"android": "https://dc.lft.to/lastmile_qr_scan", "ios": "https://dc.lft.to/lastmile_qr_scan"},