{"data": {"bikes": [{"is_reserved": 0, "is_disabled": 0, "fusion_lon": 0.0, "lat": 38.9366535, "name": "e178eb2d766c71d5366e939acbea5119", "bike_id": "e178eb2d766c71d5366e939acbea5119", "lon": -76.99356883333333, "fusion_lat": 0.0, "rental_uris": {"android": "https://dc.lft.to/lastmile_qr_scan", "ios": "https://dc.lft.to/lastmile_qr_scan"}, "type": "electric_scooter"}, {"is_reserved": 0, "is_disabled": 0, "fusion_lon": 0.0, "lat": 38.919920166666664, "name": "f6dc730152bfbfa831e41bd881a2ec7f", "bike_id": "f6dc730152bfbfa831e41bd881a2ec7f", "lon": -77.0324645, "fusion_lat": 0.0, "rental_uris": {"android": "https://dc.lft.to/lastmile_qr_scan", "ios": "https://dc.lft.to/lastmile_qr_scan"}, "type": "electric_scooter"}, {"is_reserved": 0, "is_disabled": 0, "fusion_lon": 0.0, "lat": 38.894938333333336, "name": "5b3e1d61ffc33939fddcb0bf995e31c8", "bike_id": "5b3e1d61ffc33939fddcb0bf995e31c8", "lon": -77.0229155, "fusion_lat": 0.0, "rental_uris": {"android": "https://dc.lft.to/lastmile_qr_scan", "ios": "https://dc.lft.to/lastmile_qr_scan"}, "type": "electric_scooter"}, {"is_reserved": 0, "is_disabled": 0, "fusion_lon": 0.0, "lat": 38.916841166666664, "name": "293be1c8d39ae701c4a31d3b762f85dc", "bike_id": "293be1c8d39ae701c4a31d3b762f85dc", "lon": -77.03359766666667, "fusion_lat": 0.0, "rental_uris": {"android": "https://dc.lft.to/lastmile_qr_scan", "ios": "https://dc.lft.to/lastmile_qr_scan"}, "type": "electric_scooter"}, {"is_reserved": 0, "is_disabled": 0, "fusion_lon": 0.0, "lat": 38.874688166666665, "name": "0bd74ca9876d18d740be54de6d0c7d4a", "bike_id": "0bd74ca9876d18d740be54de6d0c7d4a", "lon": -77.00508483333333, "fusion_lat": 0.0, "rental_uris": {"android": "https://dc.lft.to/lastmile_qr_scan", "ios": "https://dc.lft.to/lastmile_qr_scan"}, "type": "electric_scooter"}, {"is_reserved": 0, "is_disabled": 0, "fusion_lon": 0.0, "lat": 38.923717833333335, "name": "1340d12a906edf4be384dd559ee6bcaa", "bike_id": "1340d12a906edf4be384dd559ee6bcaa", "lon": -77.0364825, "fusion_lat": 0.0, "rental_uris": {"android": "https://dc.lft.to/lastmile_qr_scan", "ios": "https://dc.lft.to/lastmile_qr_scan"}, "type": "electric_scooter"}, {"is_reserved": 0, "is_disabled": 0, "fusion_lon": 0.0, "lat": 38.9074, "name": "2c2f0011ca7fd5520ec7e1b8cc753835", "bike_id": "2c2f0011ca7fd5520ec7e1b8cc753835", "lon": -77.02810633333333, "fusion_lat": 0.0, "rental_uris": {"android": "https://dc.lft.to/lastmile_qr_scan", "ios": "https://dc.lft.to/lastmile_qr_scan"}, "type": "electric_scooter"}, {"is_reserved": 0, "is_disabled": 0, "fusion_lon": 0.0, "lat": 38.926854666666664, "name": "a31f882bbeba21a3922c38e4b37bb10c", "bike_id": "a31f882bbeba21a3922c38e4b37bb10c", "lon": -77.029624, "fusion_lat": 0.0, "rental_uris": {"android": "https://dc.lft.to/lastmile_qr_scan", "ios": "https://dc.lft.to/lastmile_qr_scan"}, "type": "electric_scooter"}, {"is_reserved": 0, "is_disabled": 0, "fusion_lon": 0.0, "lat": 38.90846066666667, "name": "75d6f8bc3b59baf38def39b0359b8532", "bike_id": "75d6f8bc3b59baf38def39b0359b8532", "lon": -77.0436015, "fusion_lat": 0.0, "rental_uris": {"android": "https://dc.lft.to/lastmile_qr_scan", "ios": "https://dc.lft.to/lastmile_qr_scan"}, "type": "electric_scooter"}, {"is_reserved": 0, "is_disabled": 0, "fusion_lon": 0.0, "lat": 38.92081433333333, "name": "afb6b954110d106ed27395e49f119503", "bike_id": "afb6b954110d106ed27395e49f119503", "lon": -77.02530483333334, "fusion_lat": 0.0, "rental_uris": {"android": "https://dc.lft.to/lastmile_qr_scan", "ios": "https://dc.lft.to/lastmile_qr_scan"}, "type": "electric_scooter"}, {"is_reserved": 0, "is_disabled": 0, "fusion_lon": 0.0, "lat": 38.92344416666667, "name": "96dca9624a4df33ce1ecd1daefbce70d", "bike_id": "96dca9624a4df33ce1ecd1daefbce70d", "lon": -77.02444533333333, "fusion_lat": 0.0, "rental_uris": {"android": "https://dc.lft.to/lastmile_qr_scan", "ios": "https://dc.lft.to/lastmile_qr_scan"}, "type": "electric_scooter"}, {"is_reserved": 0, "is_disabled": 0, "fusion_lon": 0.0, "lat": 38.9079105, "name": "0784b1f89a83267f8b581b304d20a525", "bike_id": "0784b1f89a83267f8b581b304d20a525", "lon": -77.0322495, "fusion_lat": 0.0, "rental_uris": {"android": "https://dc.lft.to/lastmile_qr_scan", "ios": "https://dc.lft.to/lastmile_qr_scan"}, "type": "electric_scooter"}, {"is_reserved": 0, "is_disabled": 0, "fusion_lon": 0.0, "lat": 38.87061283333333, "name": "3376ef79e9684a3b56d38df6fe3290b2", "bike_id": "3376ef79e9684a3b56d38df6fe3290b2", "lon": -77.1103965, "fusion_lat": 0.0, "rental_uris": {"android": "https://dc.lft.to/lastmile_qr_scan", "ios": "https://dc.lft.to/lastmile_qr_scan"}, "type": "electric_bike"}, {"is_reserved": 0, "is_disabled": 0, "fusion_lon": 0.0, "lat": 38.91710883333333, "name": "fe242e8cbc43673c9938c7ca7ba4df5a", "bike_id": "fe242e8cbc43673c9938c7ca7ba4df5a", "lon": -77.037287, "fusion_lat": 0.0, "rental_uris": {"android": "https://dc.lft.to/lastmile_qr_scan", "ios": "https://dc.lft.to/lastmile_qr_scan"}, "type": "electric_scooter"}, {"is_reserved": 0, "is_disabled": 0, "fusion_lon": 0.0, "lat": 38.923976333333336, "name": "da3b34609dd8c4c30bbc854e9bb02109", "bike_id": "da3b34609dd8c4c30bbc854e9bb02109", "lon": -77.034118, "fusion_lat": 0.0, "rental_uris": {"android": "https://dc.lft.to/lastmile_qr_scan", "ios": "https://dc.lft.to/lastmile_qr_scan"}, "type": "electric_scooter"}, {"is_reserved": 0, "is_disabled": 0, "fusion_lon": 0.0, "lat": 38.964118, "name": "1549eb15a1d02dcb24ea3bd9d3d27a81", "bike_id": "1549eb15a1d02dcb24ea3bd9d3d27a81", "lon": -77.032878, "fusion_lat": 0.0, "rental_uris": {"android": "https://dc.lft.to/lastmile_qr_scan", "ios": "https://dc.lft.to/lastmile_qr_scan"}, "type": "electric_scooter"}, {"is_reserved": 0, "is_disabled": 0, "fusion_lon": 0.0, "lat": 38.89729633333334, "name": "fcda4e24bb5b593dac90d2ccfda6e1aa", "bike_id": "fcda4e24bb5b593dac90d2ccfda6e1aa", "lon": -77.0552525, "fusion_lat": 0.0, "rental_uris": {"android": "https://dc.lft.to/lastmile_qr_scan", "ios": "https://dc.lft.to/lastmile_qr_scan"}, "type": "electric_scooter"}, {"is_reserved": 0, "is_disabled": 0, "fusion_lon": 0.0, "lat": 38.90368316666667, "name": "8ca68be52422c056262fd5753377527c", "bike_id": "8ca68be52422c056262fd5753377527c", "lon": -77.01782383333334, "fusion_lat": 0.0, "rental_uris": {"android": "https://dc.lft.to/lastmile_qr_scan", "ios": "https://dc.lft.to/lastmile_qr_scan"}, "type": "electric_scooter"}, {"is_reserved": 0, "is_disabled": 0, "fusion_lon": 0.0, "lat": 38.92683366666667, "name": "a95422650b4603d35dd677471832324d", "bike_id": "a95422650b4603d35dd677471832324d", "lon": -77.02961516666667, "fusion_lat": 0.0, "rental_uris": {"android": "https://dc.lft.to/lastmile_qr_scan", "ios": "https://dc.lft.to/lastmile_qr_scan"}, "type": "electric_scooter"}, {"is_reserved": 0, "is_disabled": 0, "fusion_lon": 0.0, "lat": 38.9052075, "name": "7fd5f60452c0919a22258cfc26641368", "bike_id": "7fd5f60452c0919a22258cfc26641368", "lon": -77.0295205, "fusion_lat": 0.0, "rental_uris": {"android": "https://dc.lft.to/lastmile_qr_scan", "ios": "https://dc.lft.to/lastmile_qr_scan"}, "type": "electric_scooter"}, {"is_reserved": 0, "is_disabled": 0, "fusion_lon": 0.0, "lat": 38.905772666666664, "name": "d8643c747bd45c5bbb5687452d96fece", "bike_id": "d8643c747bd45c5bbb5687452d96fece", "lon": -77.03422133333333, "fusion_lat": 0.0, "rental_uris": {"android": "https://dc.lft.to/lastmile_qr_scan", "ios": "https://dc.lft.to/lastmile_qr_scan"}, "type": "electric_scooter"}, {"is_reserved": 0, "is_disabled": 0, "fusion_lon": 0.0, "lat": 38.924431, "name": "0d36e2b1e8b350ff7019164942480d58", "bike_id": "0d36e2b1e8b350ff7019164942480d58", "lon": -77.04027, "fusion_lat": 0.0, "rental_uris": {"android": "https://dc.lft.to/lastmile_qr_scan", "ios": "https://dc.lft.to/lastmile_qr_scan"}, "type": "electric_scooter"}, {"is_reserved": 0, "is_disabled": 0, "fusion_lon": 0.0, "lat": 38.92178333333333, "name": "fe7750f33c1bdd96b67b30228068934a", "bike_id": "fe7750f33c1bdd96b67b30228068934a", "lon": -77.0422995, "fusion_lat": 0.0, "rental_uris": {"android": "https://dc.lft.to/lastmile_qr_scan", "ios": "https://dc.lft.to/lastmile_qr_scan"}, "type": "electric_scooter"}, {"is_reserved": 0, "is_disabled": 0, "fusion_lon": 0.0, "lat": 38.90003516666667, "name": "f1d4ea54c6309af2b91cf46487eb42a6", "bike_id": "f1d4ea54c6309af2b91cf46487eb42a6", "lon": -76.99140766666666, "fusion_lat": 0.0, "rental_uris": {"android": "https://dc.lft.to/lastmile_qr_scan", "ios": "https://dc.lft.to/lastmile_qr_scan"}, "type": "electric_scooter"}, {"is_reserved": 0, "is_disabled": 0, "fusion_lon": 0.0, "lat": 38.960316, "name": "0670a90f7560463e769022e7f46a9047", "bike_id": "0670a90f7560463e769022e7f46a9047", "lon": -77.03013466666667, "fusion_lat": 0.0, "rental_uris": {"android": "https://dc.lft.to/lastmile_qr_scan", "ios": "https://dc.lft.to/lastmile_qr_scan"}, "type": "electric_scooter"}, {"is_reserved": 0, "is_disabled": 0, "fusion_lon": 0.0, "lat": 38.830633666666664, "name": "6ca30d1bb75334dc701d40b9bc65b331", "bike_id": "6ca30d1bb75334dc701d40b9bc65b331", "lon": -77.00212333333333, "fusion_lat": 0.0, "rental_uris": {"android": "https://dc.lft.to/lastmile_qr_scan", "ios": "https://dc.lft.to/lastmile_qr_scan"}, "type": "electric_scooter"}, {"is_reserved": 0, "is_disabled": 0, "fusion_lon": 0.0, "lat": 38.9135225, "name": "7ab1e7c814a1c349ac86add33e9eb69b", "bike_id": "7ab1e7c814a1c349ac86add33e9eb69b", "lon": -77.01983166666666, "fusion_lat": 0.0, "rental_uris": {"android": "https://dc.lft.to/lastmile_qr_scan", "ios": "https://dc.lft.to/lastmile_qr_scan"}, "type": "electric_scooter"}, {"is_reserved": 0, "is_disabled": 0, "fusion_lon": 0.0, "lat": 38.848135166666665, "name": "4b6daa93a01e3708afef4390d5d474fa", "bike_id": "4b6daa93a01e3708afef4390d5d474fa", "lon": -76.95249616666666, "fusion_lat": 0.0, "rental_uris": {"android": "https://dc.lft.to/lastmile_qr_scan", "ios": "https://dc.lft.to/lastmile_qr_scan"}, "type": "electric_bike"}, {"is_reserved": 0, "is_disabled": 0, "fusion_lon": 0.0, "lat": 38.9186995, "name": "af9f41c26ebf3de3da34af463e31f01a", "bike_id": "af9f41c26ebf3de3da34af463e31f01a", "lon": -77.0483875, "fusion_lat": 0.0, "rental_uris": {"android": "https://dc.lft.to/lastmile_qr_scan", "ios": "https://dc.lft.to/lastmile_qr_scan"}, "type": "electric_scooter"}, {"is_reserved": 0, "is_disabled": 0, "fusion_lon": 0.0, "lat": 38.819390166666665, "name": "90ee9a582a597505c60b541230d2a677", "bike_id": "90ee9a582a597505c60b541230d2a677", "lon": -77.00207666666667, "fusion_lat": 0.0, "rental_uris": {"android": "https://dc.lft.to/lastmile_qr_scan", "ios": "https://dc.lft.to/lastmile_qr_scan"}, "type": "electric_bike"}, {"is_reserved": 0, "is_disabled": 0, "fusion_lon": 0.0, "lat": 38.902187166666664, "name": "54f42ac16422c5291cf8a18fdc181c5b", "bike_id": "54f42ac16422c5291cf8a18fdc181c5b", "lon": -76.9317475, "fusion_lat": 0.0, "rental_uris": {"android": "https://dc.lft.to/lastmile_qr_scan", "ios": "https://dc.lft.to/lastmile_qr_scan"}, "type": "electric_bike"}, {"is_reserved": 0, "is_disabled": 0, "fusion_lon": 0.0, "lat": 38.918096, "name": "ffc5164670317308cc48a46d9ba51a02", "bike_id": "ffc5164670317308cc48a46d9ba51a02", "lon": -77.02722033333333, "fusion_lat": 0.0, "rental_uris": {"android": "https://dc.lft.to/lastmile_qr_scan", "ios": "https://dc.lft.to/lastmile_qr_scan"}, "type": "electric_scooter"}, {"is_reserved": 0, "is_disabled": 0, "fusion_lon": 0.0, "lat": 38.93390516666667, "name": "90c936207f6d4bc686339d8fc4563197", "bike_id": "90c936207f6d4bc686339d8fc4563197", "lon": -77.03214116666666, "fusion_lat": 0.0, "rental_uris": {"android": "https://dc.lft.to/lastmile_qr_scan", "ios": "https://dc.lft.to/lastmile_qr_scan"}, "type": "electric_scooter"}, {"is_reserved": 0, "is_disabled": 0, "fusion_lon": 0.0, "lat": 38.91694566666666, "name": "131cdcad389c23288df9593ee9d7e874", "bike_id": "131cdcad389c23288df9593ee9d7e874", "lon": -77.037798, "fusion_lat": 0.0, "rental_uris": {"android": "https://dc.lft.to/lastmile_qr_scan", "ios": "https://dc.lft.to/lastmile_qr_scan"}, "type": "electric_scooter"}, {"is_reserved": 0, "is_disabled": 0, "fusion_lon": 0.0, "lat": 38.970001, "name": "ca89e20fcda420aba78efeb325de4028", "bike_id": "ca89e20fcda420aba78efeb325de4028", "lon": -77.031129, "fusion_lat": 0.0, "rental_uris": {"android": "https://dc.lft.to/lastmile_qr_scan", "ios": "https://dc.lft.to/lastmile_qr_scan"}, "type": "electric_scooter"}, {"is_reserved": 0, "is_disabled": 0, "fusion_lon": 0.0, "lat": 38.92442283333333, "name": "6d75c37717ed5850986b72d30a67a591", "bike_id": "6d75c37717ed5850986b72d30a67a591", "lon": -77.0214765, "fusion_lat": 0.0, "rental_uris": {"android": "https://dc.lft.to/lastmile_qr_scan", "ios": "https://dc.lft.to/lastmile_qr_scan"}, "type": "electric_scooter"}, {"is_reserved": 0, "is_disabled": 0, "fusion_lon": 0.0, "lat": 38.895542, "name": "f48c27486911dfba55691c406f5109cd", "bike_id": "f48c27486911dfba55691c406f5109cd", "lon": -77.009064, "fusion_lat": 0.0, "rental_uris": {"android": "https://dc.lft.to/lastmile_qr_scan", "ios": "https://dc.lft.to/lastmile_qr_scan"}, "type": "electric_scooter"}, {"is_reserved": 0, "is_disabled": 0, "fusion_lon": 0.0, "lat": 38.9135305, "name": "3d008cf83805d54a478b319822db79d7", "bike_id": "3d008cf83805d54a478b319822db79d7", "lon": -77.03185316666666, "fusion_lat": 0.0, "rental_uris": {"android": "https://dc.lft.to/lastmile_qr_scan", "ios": "https://dc.lft.to/lastmile_qr_scan"}, "type": "electric_scooter"}, {"is_reserved": 0, "is_disabled": 0, "fusion_lon": 0.0, "lat": 38.927595, "name": "ea52567d82f964d04c8a2627f693e56f", "bike_id": "ea52567d82f964d04c8a2627f693e56f", "lon": -77.02791516666667, "fusion_lat": 0.0, "rental_uris": {"android": "https://dc.lft.to/lastmile_qr_scan", "ios": "https://dc.lft.to/lastmile_qr_scan"}, "type": "electric_scooter"}, {"is_reserved": 0, "is_disabled": 0, "fusion_lon": 0.0, "lat": 38.92337583333333, "name": "ad8527ef3ec9a3b455ae0ecf253a574b", "bike_id": "ad8527ef3ec9a3b455ae0ecf253a574b", "lon": -77.05683983333333, "fusion_lat": 0.0, "rental_uris": {"android": "https://dc.lft.to/lastmile_qr_scan", "ios": "https://dc.lft.to/lastmile_qr_scan"}, "type": "electric_scooter"}, {"is_reserved": 0, "is_disabled": 0, "fusion_lon": 0.0, "lat": 38.8687375, "name": "c193b6a64c8767150853efafcc312b80", "bike_id": "c193b6a64c8767150853efafcc312b80", "lon": -76.98665016666666, "fusion_lat": 0.0, "rental_uris": {"android": "https://dc.lft.to/lastmile_qr_scan", "ios": "https://dc.lft.to/lastmile_qr_scan"}, "type": "electric_scooter"}, {"is_reserved": 0, "is_disabled": 0, "fusion_lon": 0.0, "lat": 38.92077283333333, "name": "4da9fe68c51a8abe36157650c9d654d0", "bike_id": "4da9fe68c51a8abe36157650c9d654d0", "lon": -77.02301866666667, "fusion_lat": 0.0, "rental_uris": {"android": "https://dc.lft.to/lastmile_qr_scan", "ios": "https://dc.lft.to/lastmile_qr_scan"}, "type": "electric_scooter"}, {"is_reserved": 0, "is_disabled": 0, "fusion_lon": 0.0, "lat": 38.921406166666664, "name": "6bef968bf7dbe8c1db69b5ec7d36fa8a", "bike_id": "6bef968bf7dbe8c1db69b5ec7d36fa8a", "lon": -77.01216783333334, "fusion_lat": 0.0, "rental_uris": {"android": "https://dc.lft.to/lastmile_qr_scan", "ios": "https://dc.lft.to/lastmile_qr_scan"}, "type": "electric_scooter"}, {"is_reserved": 0, "is_disabled": 0, "fusion_lon": 0.0, "lat": 38.915703666666666, "name": "9e020b90022c14d1ccb43ee42c53eb2d", "bike_id": "9e020b90022c14d1ccb43ee42c53eb2d", "lon": -77.03647233333334, "fusion_lat": 0.0, "rental_uris": {"android": "https://dc.lft.to/lastmile_qr_scan", "ios": "https://dc.lft.to/lastmile_qr_scan"}, "type": "electric_scooter"}, {"is_reserved": 0, "is_disabled": 0, "fusion_lon": 0.0, "lat": 38.919158, "name": "73db9efdee2fe858714dcfb17d031aeb", "bike_id": "73db9efdee2fe858714dcfb17d031aeb", "lon": -77.03380966666667, "fusion_lat": 0.0, "rental_uris": {"android": "https://dc.lft.to/lastmile_qr_scan", "ios": "https://dc.lft.to/lastmile_qr_scan"}, "type": "electric_scooter"}, {"is_reserved": 0, "is_disabled": 0, "fusion_lon": 0.0, "lat": 38.8544715, "name": "cf850a118de9b753f7d13b71be6abe58", "bike_id": "cf850a118de9b753f7d13b71be6abe58", "lon": -77.083226, "fusion_lat": 0.0, "rental_uris": {"android": "https://dc.lft.to/lastmile_qr_scan", "ios": "https://dc.lft.to/lastmile_qr_scan"}, "type": "electric_bike"}, {"is_reserved": 0, "is_disabled": 0, "fusion_lon": 0.0, "lat": 38.91120866666667, "name": "06890c49a033a85093592c97c4ab8ecb", "bike_id": "06890c49a033a85093592c97c4ab8ecb", "lon": -77.0383375, "fusion_lat": 0.0, "rental_uris": {"android": "https://dc.lft.to/lastmile_qr_scan", "ios": "https://dc.lft.to/lastmile_qr_scan"}, "type": "electric_scooter"}, {"is_reserved": 0, "is_disabled": 0, "fusion_lon": 0.0, "lat": 38.934486666666665, "name": "b116b4198987e7fd8acdb6463d2a2cd5", "bike_id": "b116b4198987e7fd8acdb6463d2a2cd5", "lon": -77.02358, "fusion_lat": 0.0, "rental_uris": {"android": "https://dc.lft.to/lastmile_qr_scan", "ios": "https://dc.lft.to/lastmile_qr_scan"}, "type": "electric_scooter"}, {"is_reserved": 0, "is_disabled": 0, "fusion_lon": 0.0, "lat": 38.89735, "name": "2b0e1029b49bd13dc93b086f8dc6f95d", "bike_id": "2b0e1029b49bd13dc93b086f8dc6f95d", "lon": -77.05528666666666, "fusion_lat": 0.0, "rental_uris": {"android": "https://dc.lft.to/lastmile_qr_scan", "ios": "https://dc.lft.to/lastmile_qr_scan"}, "type": "electric_scooter"}, {"is_reserved": 0, "is_disabled": 0, "fusion_lon": 0.0, "lat": 38.87704333333333, "name": "220a2690288e74ddaf59fa22c529471b", "bike_id": "220a2690288e74ddaf59fa22c529471b", "lon": -77.017618, "fusion_lat": 0.0, "rental_uris": {"android": "https://dc.lft.to/lastmile_qr_scan", "ios": "https://dc.lft.to/lastmile_qr_scan"}, "type": "electric_scooter"}, {"is_reserved": 0, "is_disabled": 0, "fusion_lon": 0.0, "lat": 38.90643716666666, "name": "36aaf418a39b9d8abc9b5dde30921a14", "bike_id": "36aaf418a39b9d8abc9b5dde30921a14", "lon": -77.01764183333333, "fusion_lat": 0.0, "rental_uris": {"android": "https://dc.lft.to/lastmile_qr_scan", "ios": "https://dc.lft.to/lastmile_qr_scan"}, "type": "electric_scooter"}, {"is_reserved": 0, "is_disabled": 0, "fusion_lon": 0.0, "lat": 38.9286885, "name": "a794dd35370019643d621d9f06989933", "bike_id": "a794dd35370019643d621d9f06989933", "lon": -77.05441816666666, "fusion_lat": 0.0, "rental_uris": {"android": "https://dc.lft.to/lastmile_qr_scan", "ios": "https://dc.lft.to/lastmile_qr_scan"}, "type": "electric_scooter"}, {"is_reserved": 0, "is_disabled": 0, "fusion_lon": 0.0, "lat": 38.922427166666665, "name": "1b43d70ba7f00c1bd942e7f6bdfbb82d", "bike_id": "1b43d70ba7f00c1bd942e7f6bdfbb82d", "lon": -77.02119883333333, "fusion_lat": 0.0, "rental_uris": {"android": "https://dc.lft.to/lastmile_qr_scan", "ios": "https://dc.lft.to/lastmile_qr_scan"}, "type": "electric_scooter"}, {"is_reserved": 0, "is_disabled": 0, "fusion_lon": 0.0, "lat": 38.923262666666666, "name": "e59527d81107cf220f26fa21e3f8b329", "bike_id": "e59527d81107cf220f26fa21e3f8b329", "lon": -77.02963683333333, "fusion_lat": 0.0, "rental_uris": {"android": "https://dc.lft.to/lastmile_qr_scan", "ios": "https://dc.lft.to/lastmile_qr_scan"}, "type": "electric_scooter"}, {"is_reserved": 0, "is_disabled": 0, "fusion_lon": 0.0, "lat": 38.9222955, "name": "04ceec873c96cf946303702c0c3aa81b", "bike_id": "04ceec873c96cf946303702c0c3aa81b", "lon": -77.0446135, "fusion_lat": 0.0, "rental_uris": {"android": "https://dc.lft.to/lastmile_qr_scan", "ios": "https://dc.lft.to/lastmile_qr_scan"}, "type": "electric_scooter"}, {"is_reserved": 0, "is_disabled": 0, "fusion_lon": 0.0, "lat": 38.920836333333334, "name": "6677311c2c1776f5b766e0e42ca3dda2", "bike_id": "6677311c2c1776f5b766e0e42ca3dda2", "lon": -77.0253185, "fusion_lat": 0.0, "rental_uris": {"android": "https://dc.lft.to/lastmile_qr_scan", "ios": "https://dc.lft.to/lastmile_qr_scan"}, "type": "electric_scooter"}, {"is_reserved": 0, "is_disabled": 0, "fusion_lon": 0.0, "lat": 38.93968366666667, "name": "51d15217780184591de71b1398008c40", "bike_id": "51d15217780184591de71b1398008c40", "lon": -76.98615416666667, "fusion_lat": 0.0, "rental_uris": {"android": "https://dc.lft.to/lastmile_qr_scan", "ios": "https://dc.lft.to/lastmile_qr_scan"}, "type": "electric_bike"}, {"is_reserved": 0, "is_disabled": 0, "fusion_lon": 0.0, "lat": 38.91413933333333, "name": "cebcff46f5944268f57d990ae63b3dd2", "bike_id": "cebcff46f5944268f57d990ae63b3dd2", "lon": -77.009352, "fusion_lat": 0.0, "rental_uris": {"android": "https://dc.lft.to/lastmile_qr_scan", "ios": "https://dc.lft.to/lastmile_qr_scan"}, "type": "electric_scooter"}, {"is_reserved": 0, "is_disabled": 0, "fusion_lon": 0.0, "lat": 38.91704583333333, "name": "a85791569b7d514e34c52c9777b4e9df", "bike_id": "a85791569b7d514e34c52c9777b4e9df", "lon": -77.03897183333333, "fusion_lat": 0.0, "rental_uris": {"android": "https://dc.lft.to/lastmile_qr_scan", "ios": "https://dc.lft.to/lastmile_qr_scan"}, "type": "electric_scooter"}, {"is_reserved": 0, "is_disabled": 0, "fusion_lon": 0.0, "lat": 38.867175833333334, "name": "1199657ea6c6d6f524d84a833d407d87", "bike_id": "1199657ea6c6d6f524d84a833d407d87", "lon": -77.01012683333333, "fusion_lat": 0.0, "rental_uris": {"android": "https://dc.lft.to/lastmile_qr_scan", "ios": "https://dc.lft.to/lastmile_qr_scan"}, "type": "electric_scooter"}, {"is_reserved": 0, "is_disabled": 0, "fusion_lon": 0.0, "lat": 38.87069233333333, "name": "4641f953d659d574efdb8dd647f30b73", "bike_id": "4641f953d659d574efdb8dd647f30b73", "lon": -76.98000916666666, "fusion_lat": 0.0, "rental_uris": {"android": "https://dc.lft.to/lastmile_qr_scan", "ios": "https://dc.lft.to/lastmile_qr_scan"}, "type": "electric_scooter"}, {"is_reserved": 0, "is_disabled": 0, "fusion_lon": 0.0, "lat": 38.865619833333334, "name": "fa0f4fe3e518c91a9300fff410047b03", "bike_id": "fa0f4fe3e518c91a9300fff410047b03", "lon": -76.9747755, "fusion_lat": 0.0, "rental_uris": {"android": "https://dc.lft.to/lastmile_qr_scan", "ios": "https://dc.lft.to/lastmile_qr_scan"}, "type": "electric_bike"}, {"is_reserved": 0, "is_disabled": 0, "fusion_lon": 0.0, "lat": 38.824330333333336, "name": "524611ea67de2ea2cc288045ee930d0e", "bike_id": "524611ea67de2ea2cc288045ee930d0e", "lon": -77.12037583333333, "fusion_lat": 0.0, "rental_uris": {"android": "https://dc.lft.to/lastmile_qr_scan", "ios": "https://dc.lft.to/lastmile_qr_scan"}, "type": "electric_bike"}, {"is_reserved": 0, "is_disabled": 0, "fusion_lon": 0.0, "lat": 38.923384666666664, "name": "b85f56261b2b2848f1a45c4784e63cc4", "bike_id": "b85f56261b2b2848f1a45c4784e63cc4", "lon": -77.035441, "fusion_lat": 0.0, "rental_uris": {"android": "https://dc.lft.to/lastmile_qr_scan", "ios": "https://dc.lft.to/lastmile_qr_scan"}, "type": "electric_scooter"}, {"is_reserved": 0, "is_disabled": 0, "fusion_lon": 0.0, "lat": 38.917848, "name": "7168e01e87e38592ff6566e9e8cfee14", "bike_id": "7168e01e87e38592ff6566e9e8cfee14", "lon": -77.0364235, "fusion_lat": 0.0, "rental_uris": {"android": "https://dc.lft.to/lastmile_qr_scan", "ios": "https://dc.lft.to/lastmile_qr_scan"}, "type": "electric_scooter"}, {"is_reserved": 0, "is_disabled": 0, "fusion_lon": 0.0, "lat": 38.93244516666667, "name": "e657f65506d3ae1477ce6fff227b48db", "bike_id": "e657f65506d3ae1477ce6fff227b48db", "lon": -77.02947716666667, "fusion_lat": 0.0, "rental_uris": {"android": "https://dc.lft.to/lastmile_qr_scan", "ios": "https://dc.lft.to/lastmile_qr_scan"}, "type": "electric_scooter"}, {"is_reserved": 0, "is_disabled": 0, "fusion_lon": 0.0, "lat": 38.909684, "name": "40648e20896c31cdec0858240b147836", "bike_id": "40648e20896c31cdec0858240b147836", "lon": -77.04612766666666, "fusion_lat": 0.0, "rental_uris": {"android": "https://dc.lft.to/lastmile_qr_scan", "ios": "https://dc.lft.to/lastmile_qr_scan"}, "type": "electric_scooter"}, {"is_reserved": 0, "is_disabled": 0, "fusion_lon": 0.0, "lat": 38.89188166666667, "name": "578b143e4ce90a32aeed777b47455edb", "bike_id": "578b143e4ce90a32aeed777b47455edb", "lon": -76.99834933333334, "fusion_lat": 0.0, "rental_uris": {"android": "https://dc.lft.to/lastmile_qr_scan", "ios": "https://dc.lft.to/lastmile_qr_scan"}, "type": "electric_scooter"}, {"is_reserved": 0, "is_disabled": 0, "fusion_lon": 0.0, "lat": 38.90684566666667, "name": "3d91aef26b95caa10e4fe3e14e888a6a", "bike_id": "3d91aef26b95caa10e4fe3e14e888a6a", "lon": -77.0269085, "fusion_lat": 0.0, "rental_uris": {"android": "https://dc.lft.to/lastmile_qr_scan", "ios": "https://dc.lft.to/lastmile_qr_scan"}, "type": "electric_scooter"}, {"is_reserved": 0, "is_disabled": 0, "fusion_lon": 0.0, "lat": 38.900695666666664, "name": "e5b6075a29f50bab2ca419f7df1d0d25", "bike_id": "e5b6075a29f50bab2ca419f7df1d0d25", "lon": -76.92743266666666, "fusion_lat": 0.0, "rental_uris": {"android": "https://dc.lft.to/lastmile_qr_scan", "ios": "https://dc.lft.to/lastmile_qr_scan"}, "type": "electric_scooter"}, {"is_reserved": 0, "is_disabled": 0, "fusion_lon": 0.0, "lat": 38.907962166666664, "name": "20879e5550a8df6b12c318a63a42f3b9", "bike_id": "20879e5550a8df6b12c318a63a42f3b9", "lon": -77.04976166666667, "fusion_lat": 0.0, "rental_uris": {"android": "https://dc.lft.to/lastmile_qr_scan", "ios": "https://dc.lft.to/lastmile_qr_scan"}, "type": "electric_scooter"}, {"is_reserved": 0, "is_disabled": 0, "fusion_lon": 0.0, "lat": 38.878598833333335, "name": "2fc83031b397cfb1a48e6070d1f7dc2d", "bike_id": "2fc83031b397cfb1a48e6070d1f7dc2d", "lon": -76.991555, "fusion_lat": 0.0, "rental_uris": {"android": "https://dc.lft.to/lastmile_qr_scan", "ios": "https://dc.lft.to/lastmile_qr_scan"}, "type": "electric_scooter"}, {"is_reserved": 0, "is_disabled": 0, "fusion_lon": 0.0, "lat": 38.88121983333333, "name": "840c4f76819cfe07e99067fc12b34da3", "bike_id": "840c4f76819cfe07e99067fc12b34da3", "lon": -76.99296816666667, "fusion_lat": 0.0, "rental_uris": {"android": "https://dc.lft.to/lastmile_qr_scan", "ios": "https://dc.lft.to/lastmile_qr_scan"}, "type": "electric_scooter"}, {"is_reserved": 0, "is_disabled": 0, "fusion_lon": 0.0, "lat": 38.9403855, "name": "88e50d4517ad5c5762ab3625f15d379d", "bike_id": "88e50d4517ad5c5762ab3625f15d379d", "lon": -77.07568083333334, "fusion_lat": 0.0, "rental_uris": {"android": "https://dc.lft.to/lastmile_qr_scan", "ios": "https://dc.lft.to/lastmile_qr_scan"}, "type": "electric_scooter"}, {"is_reserved": 0, "is_disabled": 0, "fusion_lon": 0.0, "lat": 38.91825816666667, "name": "dc74449eaf3ae069515ee66cedfc1481", "bike_id": "dc74449eaf3ae069515ee66cedfc1481", "lon": -77.047638, "fusion_lat": 0.0, "rental_uris": {"android": "https://dc.lft.to/lastmile_qr_scan", "ios": "https://dc.lft.to/lastmile_qr_scan"}, "type": "electric_scooter"}, {"is_reserved": 0, "is_disabled": 0, "fusion_lon": 0.0, "lat": 38.894592833333334, "name": "eff1bcd5bdc5feccd13112e9709d7697", "bike_id": "eff1bcd5bdc5feccd13112e9709d7697", "lon": -77.00349566666667, "fusion_lat": 0.0, "rental_uris": {"android": "https://dc.lft.to/lastmile_qr_scan", "ios": "https://dc.lft.to/lastmile_qr_scan"}, "type": "electric_scooter"}, {"is_reserved": 0, "is_disabled": 0, "fusion_lon": 0.0, "lat": 38.92838033333334, "name": "f62a2ed107b043a38a00c999be649b6c", "bike_id": "f62a2ed107b043a38a00c999be649b6c", "lon": -76.99586933333333, "fusion_lat": 0.0, "rental_uris": {"android": "https://dc.lft.to/lastmile_qr_scan", "ios": "https://dc.lft.to/lastmile_qr_scan"}, "type": "electric_scooter"}, {"is_reserved": 0, "is_disabled": 0, "fusion_lon": 0.0, "lat": 38.915428166666665, "name": "5f9f439d450e2289be64b6c18167b637", "bike_id": "5f9f439d450e2289be64b6c18167b637", "lon": -77.03637616666667, "fusion_lat": 0.0, "rental_uris": {"android": "https://dc.lft.to/lastmile_qr_scan", "ios": "https://dc.lft.to/lastmile_qr_scan"}, "type": "electric_scooter"}, {"is_reserved": 0, "is_disabled": 0, "fusion_lon": 0.0, "lat": 38.8422575, "name": "7943f2809b46ee1d4eaed3ff6c061324", "bike_id": "7943f2809b46ee1d4eaed3ff6c061324", "lon": -76.94892733333333, "fusion_lat": 0.0, "rental_uris": {"android": "https://dc.lft.to/lastmile_qr_scan", "ios": "https://dc.lft.to/lastmile_qr_scan"}, "type": "electric_bike"}, {"is_reserved": 0, "is_disabled": 0, "fusion_lon": 0.0, "lat": 38.9256175, "name": "a1e25b9654d17d932a219ce9b87f78c3", "bike_id": "a1e25b9654d17d932a219ce9b87f78c3", "lon": -77.02282066666666, "fusion_lat": 0.0, "rental_uris": {"android": "https://dc.lft.to/lastmile_qr_scan", "ios": "https://dc.lft.to/lastmile_qr_scan"}, "type": "electric_scooter"}, {"is_reserved": 0, "is_disabled": 0, "fusion_lon": 0.0, "lat": 38.8949515, "name": "2e180bd061f73ae61219f0e0a858df74", "bike_id": "2e180bd061f73ae61219f0e0a858df74", "lon": -77.04196883333333, "fusion_lat": 0.0, "rental_uris": {"android": "https://dc.lft.to/lastmile_qr_scan", "ios": "https://dc.lft.to/lastmile_qr_scan"}, "type": "electric_scooter"}, {"is_reserved": 0, "is_disabled": 0, "fusion_lon": 0.0, "lat": 38.923288166666666, "name": "9f5ae60ff27953f7b6361d087f543595", "bike_id": "9f5ae60ff27953f7b6361d087f543595", "lon": -77.05678833333333, "fusion_lat": 0.0, "rental_uris": {"android": "https://dc.lft.to/lastmile_qr_scan", "ios": "https://dc.lft.to/lastmile_qr_scan"}, "type": "electric_scooter"}, {"is_reserved": 0, "is_disabled": 0, "fusion_lon": 0.0, "lat": 38.89220516666666, "name": "b84cafafeb0a3ac3d40f720d6952d763", "bike_id": "b84cafafeb0a3ac3d40f720d6952d763", "lon": -77.04869066666667, "fusion_lat": 0.0, "rental_uris": {"android": "https://dc.lft.to/lastmile_qr_scan", "ios": "https://dc.lft.to/lastmile_qr_scan"}, "type": "electric_scooter"}, {"is_reserved": 0, "is_disabled": 0, "fusion_lon": 0.0, "lat": 38.911192166666666, "name": "e0f3860992bfad49dedba9811b361dff", "bike_id": "e0f3860992bfad49dedba9811b361dff", "lon": -77.04520416666666, "fusion_lat": 0.0, "rental_uris": {"android": "https://dc.lft.to/lastmile_qr_scan", "ios": "https://dc.lft.to/lastmile_qr_scan"}, "type": "electric_scooter"}, {"is_reserved": 0, "is_disabled": 0, "fusion_lon": 0.0, "lat": 38.927011, "name": "bc5b0aabeb320b96a0d3740433ba5ee1", "bike_id": "bc5b0aabeb320b96a0d3740433ba5ee1", "lon": -77.02073616666667, "fusion_lat": 0.0, "rental_uris": {"android": "https://dc.lft.to/lastmile_qr_scan", "ios": "https://dc.lft.to/lastmile_qr_scan"}, "type": "electric_scooter"}, {"is_reserved": 0, "is_disabled": 0, "fusion_lon": 0.0, "lat": 38.860617, "name": "dec574eae6ad3543aea83afafebaacc9", "bike_id": "dec574eae6ad3543aea83afafebaacc9", "lon": -76.98429016666667, "fusion_lat": 0.0, "rental_uris": {"android": "https://dc.lft.to/lastmile_qr_scan", "ios": "https://dc.lft.to/lastmile_qr_scan"}, "type": "electric_scooter"}, {"is_reserved": 0, "is_disabled": 0, "fusion_lon": 0.0, "lat": 38.920819333333334, "name": "126b69d0a4a21d6b2a0f2079bbbb8f39", "bike_id": "126b69d0a4a21d6b2a0f2079bbbb8f39", "lon": -77.023041, "fusion_lat": 0.0, "rental_uris": {"android": "https://dc.lft.to/lastmile_qr_scan", "ios": "https://dc.lft.to/lastmile_qr_scan"}, "type": "electric_scooter"}, {"is_reserved": 0, "is_disabled": 0, "fusion_lon": 0.0, "lat": 38.91804033333333, "name": "3174a8b1678b4fb54e3cf1404a1bf9d2", "bike_id": "3174a8b1678b4fb54e3cf1404a1bf9d2", "lon": -77.04022733333333, "fusion_lat": 0.0, "rental_uris": {"android": "https://dc.lft.to/lastmile_qr_scan", "ios": "https://dc.lft.to/lastmile_qr_scan"}, "type": "electric_scooter"}, {"is_reserved": 0, "is_disabled": 0, "fusion_lon": 0.0, "lat": 38.90248666666667, "name": "d1f7e980ae3c50289adbfbd6f9af8e49", "bike_id": "d1f7e980ae3c50289adbfbd6f9af8e49", "lon": -77.0301045, "fusion_lat": 0.0, "rental_uris": {"android": "https://dc.lft.to/lastmile_qr_scan", "ios": "https://dc.lft.to/lastmile_qr_scan"}, "type": "electric_scooter"}, {"is_reserved": 0, "is_disabled": 0, "fusion_lon": 0.0, "lat": 38.852247166666665, "name": "22c05e7fdcd9a2b7714853a54125a31f", "bike_id": "22c05e7fdcd9a2b7714853a54125a31f", "lon": -76.993728, "fusion_lat": 0.0, "rental_uris": {"android": "https://dc.lft.to/lastmile_qr_scan", "ios": "https://dc.lft.to/lastmile_qr_scan"}, "type": "electric_scooter"}, {"is_reserved": 0, "is_disabled": 0, "fusion_lon": 0.0, "lat": 38.914071, "name": "ee52f69ac489705702187fc66c0d3972", "bike_id": "ee52f69ac489705702187fc66c0d3972", "lon": -77.03262033333333, "fusion_lat": 0.0, "rental_uris": {"android": "https://dc.lft.to/lastmile_qr_scan", "ios": "https://dc.lft.to/lastmile_qr_scan"}, "type": "electric_scooter"}, {"is_reserved": 0, "is_disabled": 0, "fusion_lon": 0.0, "lat": 38.9203815, "name": "d6203155ef78c1934a59bd4a7e557aaf", "bike_id": "d6203155ef78c1934a59bd4a7e557aaf", "lon": -77.01216083333334, "fusion_lat": 0.0, "rental_uris": {"android": "https://dc.lft.to/lastmile_qr_scan", "ios": "https://dc.lft.to/lastmile_qr_scan"}, "type": "electric_scooter"}, {"is_reserved": 0, "is_disabled": 0, "fusion_lon": 0.0, "lat": 38.956065833333334, "name": "9921d294ef644d5e5d2abebbfc16b0ea", "bike_id": "9921d294ef644d5e5d2abebbfc16b0ea", "lon": -77.010111, "fusion_lat": 0.0, "rental_uris": {"android": "https://dc.lft.to/lastmile_qr_scan", "ios": "https://dc.lft.to/lastmile_qr_scan"}, "type": "electric_bike"}, {"is_reserved": 0, "is_disabled": 0, "fusion_lon": 0.0, "lat": 38.88655816666667, "name": "a7f3348c2dd69aec1a081b3ad7374627", "bike_id": "a7f3348c2dd69aec1a081b3ad7374627", "lon": -76.93673566666666, "fusion_lat": 0.0, "rental_uris": {"android": "https://dc.lft.to/lastmile_qr_scan", "ios": "https://dc.lft.to/lastmile_qr_scan"}, "type": "electric_scooter"}, {"is_reserved": 0, "is_disabled": 0, "fusion_lon": 0.0, "lat": 39.0843355, "name": "37b80d4061163bed8f78a1b8b3bc7c1b", "bike_id": "37b80d4061163bed8f78a1b8b3bc7c1b", "lon": -76.95143083333333, "fusion_lat": 0.0, "rental_uris": {"android": "https://dc.lft.to/lastmile_qr_scan", "ios": "https://dc.lft.to/lastmile_qr_scan"}, "type": "electric_bike"}, {"is_reserved": 0, "is_disabled": 0, "fusion_lon": 0.0, "lat": 38.9192175, "name": "f7b53d2887fa29bb3a2a9197e9c8ff7c", "bike_id": "f7b53d2887fa29bb3a2a9197e9c8ff7c", "lon": -77.00994416666667, "fusion_lat": 0.0, "rental_uris": {"android": "https://dc.lft.to/lastmile_qr_scan", "ios": "https://dc.lft.to/lastmile_qr_scan"}, "type": "electric_scooter"}, {"is_reserved": 0, "is_disabled": 0, "fusion_lon": 0.0, "lat": 38.92475233333333, "name": "dcbfda6604ed9c9ae94800617f81af10", "bike_id": "dcbfda6604ed9c9ae94800617f81af10", "lon": -77.02212716666666, "fusion_lat": 0.0, "rental_uris": {"android": "https://dc.lft.to/lastmile_qr_scan", "ios": "https://dc.lft.to/lastmile_qr_scan"}, "type": "electric_scooter"}, {"is_reserved": 0, "is_disabled": 0, "fusion_lon": 0.0, "lat": 38.906167833333335, "name": "d8d17dd2128bb53428650d8dbc45be3d", "bike_id": "d8d17dd2128bb53428650d8dbc45be3d", "lon": -76.977984, "fusion_lat": 0.0, "rental_uris": {"android": "https://dc.lft.to/lastmile_qr_scan", "ios": "https://dc.lft.to/lastmile_qr_scan"}, "type": "electric_scooter"}, {"is_reserved": 0, "is_disabled": 0, "fusion_lon": 0.0, "lat": 38.92070733333333, "name": "f0ba91ccee00fb1831642cdb5e580cc9", "bike_id": "f0ba91ccee00fb1831642cdb5e580cc9", "lon": -77.04546516666667, "fusion_lat": 0.0, "rental_uris": {"android": "https://dc.lft.to/lastmile_qr_scan", "ios": "https://dc.lft.to/lastmile_qr_scan"}, "type": "electric_scooter"}, {"is_reserved": 0, "is_disabled": 0, "fusion_lon": 0.0, "lat": 38.92127633333333, "name": "faf69807eecf532b68a94045af071a75", "bike_id": "faf69807eecf532b68a94045af071a75", "lon": -77.01169083333333, "fusion_lat": 0.0, "rental_uris": {"android": "https://dc.lft.to/lastmile_qr_scan", "ios": "https://dc.lft.to/lastmile_qr_scan"}, "type": "electric_scooter"}, {"is_reserved": 0, "is_disabled": 0, "fusion_lon": 0.0, "lat": 38.920654, "name": "cc4f16bbf0dd82c7e3f0a1bc7b39840f", "bike_id": "cc4f16bbf0dd82c7e3f0a1bc7b39840f", "lon": -77.024357, "fusion_lat": 0.0, "rental_uris": {"android": "https://dc.lft.to/lastmile_qr_scan", "ios": "https://dc.lft.to/lastmile_qr_scan"}, "type": "electric_scooter"}, {"is_reserved": 0, "is_disabled": 0, "fusion_lon": 0.0, "lat": 38.94534083333333, "name": "bbfd6f210c76838950518a72db305210", "bike_id": "bbfd6f210c76838950518a72db305210", "lon": -77.34460766666666, "fusion_lat": 0.0, "rental_uris": {"android": "https://dc.lft.to/lastmile_qr_scan", "ios": "https://dc.lft.to/lastmile_qr_scan"}, "type": "electric_bike"}, {"is_reserved": 0, "is_disabled": 0, "fusion_lon": 0.0, "lat": 38.9107385, "name": "a71c1e3eedd07d618f0833f12eca1256", "bike_id": "a71c1e3eedd07d618f0833f12eca1256", "lon": -77.0539205, "fusion_lat": 0.0, "rental_uris": {"android": "https://dc.lft.to/lastmile_qr_scan", "ios": "https://dc.lft.to/lastmile_qr_scan"}, "type": "electric_scooter"}, {"is_reserved": 0, "is_disabled": 0, "fusion_lon": 0.0, "lat": 38.9206365, "name": "5a76e83e10b235851a532fbd813ad8a8", "bike_id": "5a76e83e10b235851a532fbd813ad8a8", "lon": -77.023663, "fusion_lat": 0.0, "rental_uris": {"android": "https://dc.lft.to/lastmile_qr_scan", "ios": "https://dc.lft.to/lastmile_qr_scan"}, "type": "electric_scooter"}, {"is_reserved": 0, "is_disabled": 0, "fusion_lon": 0.0, "lat": 38.9181345, "name": "a9088b36054c4fab3337ca8db02d5f60", "bike_id": "a9088b36054c4fab3337ca8db02d5f60", "lon": -77.031855, "fusion_lat": 0.0, "rental_uris": {"android": "https://dc.lft.to/lastmile_qr_scan", "ios": "https://dc.lft.to/lastmile_qr_scan"}, "type": "electric_scooter"}, {"is_reserved": 0, "is_disabled": 0, "fusion_lon": 0.0, "lat": 38.882389, "name": "62690be13106d275713880e5a4effa66", "bike_id": "62690be13106d275713880e5a4effa66", "lon": -76.99494266666666, "fusion_lat": 0.0, "rental_uris": {"android": "https://dc.lft.to/lastmile_qr_scan", "ios": "https://dc.lft.to/lastmile_qr_scan"}, "type": "electric_scooter"}, {"is_reserved": 0, "is_disabled": 0, "fusion_lon": 0.0, "lat": 38.91948216666667, "name": "09b3a6b94a7c07b1fab409682374d97e", "bike_id": "09b3a6b94a7c07b1fab409682374d97e", "lon": -77.02177383333333, "fusion_lat": 0.0, "rental_uris": {"android": "https://dc.lft.to/lastmile_qr_scan", "ios": "https://dc.lft.to/lastmile_qr_scan"}, "type": "electric_scooter"}, {"is_reserved": 0, "is_disabled": 0, "fusion_lon": 0.0, "lat": 38.918434, "name": "710255aaf9f3d6dd24987a13164aa9a2", "bike_id": "710255aaf9f3d6dd24987a13164aa9a2", "lon": -77.02534016666667, "fusion_lat": 0.0, "rental_uris": {"android": "https://dc.lft.to/lastmile_qr_scan", "ios": "https://dc.lft.to/lastmile_qr_scan"}, "type": "electric_scooter"}, {"is_reserved": 0, "is_disabled": 0, "fusion_lon": 0.0, "lat": 38.88382816666667, "name": "a9132dea902b1631e6c7f96e8f589bf0", "bike_id": "a9132dea902b1631e6c7f96e8f589bf0", "lon": -76.93050133333334, "fusion_lat": 0.0, "rental_uris": {"android": "https://dc.lft.to/lastmile_qr_scan", "ios": "https://dc.lft.to/lastmile_qr_scan"}, "type": "electric_scooter"}, {"is_reserved": 0, "is_disabled": 0, "fusion_lon": 0.0, "lat": 38.90224466666667, "name": "ed10e661c38c938b891dae1335ba4f11", "bike_id": "ed10e661c38c938b891dae1335ba4f11", "lon": -77.04321983333334, "fusion_lat": 0.0, "rental_uris": {"android": "https://dc.lft.to/lastmile_qr_scan", "ios": "https://dc.lft.to/lastmile_qr_scan"}, "type": "electric_scooter"}, {"is_reserved": 0, "is_disabled": 0, "fusion_lon": 0.0, "lat": 38.918043833333336, "name": "842ee7a61d035eac96009b72c4715572", "bike_id": "842ee7a61d035eac96009b72c4715572", "lon": -77.02246183333334, "fusion_lat": 0.0, "rental_uris": {"android": "https://dc.lft.to/lastmile_qr_scan", "ios": "https://dc.lft.to/lastmile_qr_scan"}, "type": "electric_scooter"}, {"is_reserved": 0, "is_disabled": 0, "fusion_lon": 0.0, "lat": 38.925043333333335, "name": "4982f287a0816da81f9c23598fad94c5", "bike_id": "4982f287a0816da81f9c23598fad94c5", "lon": -77.02356116666667, "fusion_lat": 0.0, "rental_uris": {"android": "https://dc.lft.to/lastmile_qr_scan", "ios": "https://dc.lft.to/lastmile_qr_scan"}, "type": "electric_scooter"}, {"is_reserved": 0, "is_disabled": 0, "fusion_lon": 0.0, "lat": 38.900459833333336, "name": "74f652c0c31e7cfcbf257c13b907e9a1", "bike_id": "74f652c0c31e7cfcbf257c13b907e9a1", "lon": -77.01504266666667, "fusion_lat": 0.0, "rental_uris": {"android": "https://dc.lft.to/lastmile_qr_scan", "ios": "https://dc.lft.to/lastmile_qr_scan"}, "type": "electric_scooter"}, {"is_reserved": 0, "is_disabled": 0, "fusion_lon": 0.0, "lat": 38.912586166666664, "name": "25fe7b8a1867814ef9da990f8cb69d3f", "bike_id": "25fe7b8a1867814ef9da990f8cb69d3f", "lon": -77.003846, "fusion_lat": 0.0, "rental_uris": {"android": "https://dc.lft.to/lastmile_qr_scan", "ios": "https://dc.lft.to/lastmile_qr_scan"}, "type": "electric_scooter"}, {"is_reserved": 0, "is_disabled": 0, "fusion_lon": 0.0, "lat": 38.948457833333336, "name": "6fc91ce0b22f12e5c520e8e2c913a40e", "bike_id": "6fc91ce0b22f12e5c520e8e2c913a40e", "lon": -77.06560316666666, "fusion_lat": 0.0, "rental_uris": {"android": "https://dc.lft.to/lastmile_qr_scan", "ios": "https://dc.lft.to/lastmile_qr_scan"}, "type": "electric_scooter"}, {"is_reserved": 0, "is_disabled": 0, "fusion_lon": 0.0, "lat": 38.9568785, "name": "8fea0af680d9829330c665e60269adc1", "bike_id": "8fea0af680d9829330c665e60269adc1", "lon": -77.02235683333333, "fusion_lat": 0.0, "rental_uris": {"android": "https://dc.lft.to/lastmile_qr_scan", "ios": "https://dc.lft.to/lastmile_qr_scan"}, "type": "electric_scooter"}, {"is_reserved": 0, "is_disabled": 0, "fusion_lon": 0.0, "lat": 38.832964833333335, "name": "91244abb9b339a0df949a90e6e8f233f", "bike_id": "91244abb9b339a0df949a90e6e8f233f", "lon": -77.08416233333334, "fusion_lat": 0.0, "rental_uris": {"android": "https://dc.lft.to/lastmile_qr_scan", "ios": "https://dc.lft.to/lastmile_qr_scan"}, "type": "electric_bike"}, {"is_reserved": 0, "is_disabled": 0, "fusion_lon": 0.0, "lat": 38.89596316666667, "name": "66bcf42fe602169cac694309b0ae9423", "bike_id": "66bcf42fe602169cac694309b0ae9423", "lon": -76.94830166666667, "fusion_lat": 0.0, "rental_uris": {"android": "https://dc.lft.to/lastmile_qr_scan", "ios": "https://dc.lft.to/lastmile_qr_scan"}, "type": "electric_scooter"}, {"is_reserved": 0, "is_disabled": 0, "fusion_lon": 0.0, "lat": 38.89481633333333, "name": "0bcc12ccbd2b1930431dd900e7743c58", "bike_id": "0bcc12ccbd2b1930431dd900e7743c58", "lon": -76.995225, "fusion_lat": 0.0, "rental_uris": {"android": "https://dc.lft.to/lastmile_qr_scan", "ios": "https://dc.lft.to/lastmile_qr_scan"}, "type": "electric_scooter"}, {"is_reserved": 0, "is_disabled": 0, "fusion_lon": 0.0, "lat": 38.912665833333335, "name": "27e5455fde9b6010e61dd9cf0e8b400b", "bike_id": "27e5455fde9b6010e61dd9cf0e8b400b", "lon": -77.03830066666667, "fusion_lat": 0.0, "rental_uris": {"android": "https://dc.lft.to/lastmile_qr_scan", "ios": "https://dc.lft.to/lastmile_qr_scan"}, "type": "electric_scooter"}, {"is_reserved": 0, "is_disabled": 0, "fusion_lon": 0.0, "lat": 38.90355566666667, "name": "103b37c8f3cee225f417219e2f3c2653", "bike_id": "103b37c8f3cee225f417219e2f3c2653", "lon": -77.036416, "fusion_lat": 0.0, "rental_uris": {"android": "https://dc.lft.to/lastmile_qr_scan", "ios": "https://dc.lft.to/lastmile_qr_scan"}, "type": "electric_scooter"}, {"is_reserved": 0, "is_disabled": 0, "fusion_lon": 0.0, "lat": 38.874786, "name": "2e54a5f1a4df576eea0cf0abbf30b0f5", "bike_id": "2e54a5f1a4df576eea0cf0abbf30b0f5", "lon": -76.96536433333333, "fusion_lat": 0.0, "rental_uris": {"android": "https://dc.lft.to/lastmile_qr_scan", "ios": "https://dc.lft.to/lastmile_qr_scan"}, "type": "electric_bike"}, {"is_reserved": 0, "is_disabled": 0, "fusion_lon": 0.0, "lat": 38.8848805, "name": "b1942b0d239c06203393b12b1e6246b7", "bike_id": "b1942b0d239c06203393b12b1e6246b7", "lon": -77.0198525, "fusion_lat": 0.0, "rental_uris": {"android": "https://dc.lft.to/lastmile_qr_scan", "ios": "https://dc.lft.to/lastmile_qr_scan"}, "type": "electric_scooter"}, {"is_reserved": 0, "is_disabled": 0, "fusion_lon": 0.0, "lat": 38.89903916666667, "name": "fcf3b2c257196441482f180ae00eeab7", "bike_id": "fcf3b2c257196441482f180ae00eeab7", "lon": -77.02464533333334, "fusion_lat": 0.0, "rental_uris": {"android": "https://dc.lft.to/lastmile_qr_scan", "ios": "https://dc.lft.to/lastmile_qr_scan"}, "type": "electric_scooter"}, {"is_reserved": 0, "is_disabled": 0, "fusion_lon": 0.0, "lat": 38.905189, "name": "0b016c2a5138d9553cbdc03d5922cc88", "bike_id": "0b016c2a5138d9553cbdc03d5922cc88", "lon": -77.0293765, "fusion_lat": 0.0, "rental_uris": {"android": "https://dc.lft.to/lastmile_qr_scan", "ios": "https://dc.lft.to/lastmile_qr_scan"}, "type": "electric_scooter"}, {"is_reserved": 0, "is_disabled": 0, "fusion_lon": 0.0, "lat": 38.88445683333333, "name": "4a0c5e8c6a33dea6a0caaa6b80f3da95", "bike_id": "4a0c5e8c6a33dea6a0caaa6b80f3da95", "lon": -76.95761316666666, "fusion_lat": 0.0, "rental_uris": {"android": "https://dc.lft.to/lastmile_qr_scan", "ios": "https://dc.lft.to/lastmile_qr_scan"}, "type": "electric_scooter"}, {"is_reserved": 0, "is_disabled": 0, "fusion_lon": 0.0, "lat": 38.91555133333333, "name": "90c8eef88ec013eb104885a9635b7388", "bike_id": "90c8eef88ec013eb104885a9635b7388", "lon": -77.02047566666667, "fusion_lat": 0.0, "rental_uris": {"android": "https://dc.lft.to/lastmile_qr_scan", "ios": "https://dc.lft.to/lastmile_qr_scan"}, "type": "electric_scooter"}, {"is_reserved": 0, "is_disabled": 0, "fusion_lon": 0.0, "lat": 38.91404683333333, "name": "8a07cf0729e8ed086f0622001914c3f1", "bike_id": "8a07cf0729e8ed086f0622001914c3f1", "lon": -77.0417955, "fusion_lat": 0.0, "rental_uris": {"android": "https://dc.lft.to/lastmile_qr_scan", "ios": "https://dc.lft.to/lastmile_qr_scan"}, "type": "electric_scooter"}, {"is_reserved": 0, "is_disabled": 0, "fusion_lon": 0.0, "lat": 38.8757415, "name": "662ba5f86c5228099bb8d872d7882232", "bike_id": "662ba5f86c5228099bb8d872d7882232", "lon": -77.00576566666666, "fusion_lat": 0.0, "rental_uris": {"android": "https://dc.lft.to/lastmile_qr_scan", "ios": "https://dc.lft.to/lastmile_qr_scan"}, "type": "electric_scooter"}, {"is_reserved": 0, "is_disabled": 0, "fusion_lon": 0.0, "lat": 38.87681466666667, "name": "796a0575fb917971a63888212ce77d45", "bike_id": "796a0575fb917971a63888212ce77d45", "lon": -77.0005445, "fusion_lat": 0.0, "rental_uris": {"android": "https://dc.lft.to/lastmile_qr_scan", "ios": "https://dc.lft.to/lastmile_qr_scan"}, "type": "electric_scooter"}, {"is_reserved": 0, "is_disabled": 0, "fusion_lon": 0.0, "lat": 38.859371333333335, "name": "f6dea9a4dc81bd85e997c8a21b23c7ef", "bike_id": "f6dea9a4dc81bd85e997c8a21b23c7ef", "lon": -76.98444816666667, "fusion_lat": 0.0, "rental_uris": {"android": "https://dc.lft.to/lastmile_qr_scan", "ios": "https://dc.lft.to/lastmile_qr_scan"}, "type": "electric_scooter"}, {"is_reserved": 0, "is_disabled": 0, "fusion_lon": 0.0, "lat": 38.89204733333333, "name": "71df84daf1ac4c2fd6df5522bed272da", "bike_id": "71df84daf1ac4c2fd6df5522bed272da", "lon": -77.02747683333334, "fusion_lat": 0.0, "rental_uris": {"android": "https://dc.lft.to/lastmile_qr_scan", "ios": "https://dc.lft.to/lastmile_qr_scan"}, "type": "electric_scooter"}, {"is_reserved": 0, "is_disabled": 0, "fusion_lon": 0.0, "lat": 38.917777666666666, "name": "662bbe89684b7c61840603e2893bba27", "bike_id": "662bbe89684b7c61840603e2893bba27", "lon": -77.02311316666666, "fusion_lat": 0.0, "rental_uris": {"android": "https://dc.lft.to/lastmile_qr_scan", "ios": "https://dc.lft.to/lastmile_qr_scan"}, "type": "electric_scooter"}, {"is_reserved": 0, "is_disabled": 0, "fusion_lon": 0.0, "lat": 38.863870666666664, "name": "b322223d5907e6308d22b291c9b4d1ea", "bike_id": "b322223d5907e6308d22b291c9b4d1ea", "lon": -76.98820016666667, "fusion_lat": 0.0, "rental_uris": {"android": "https://dc.lft.to/lastmile_qr_scan", "ios": "https://dc.lft.to/lastmile_qr_scan"}, "type": "electric_scooter"}, {"is_reserved": 0, "is_disabled": 0, "fusion_lon": 0.0, "lat": 38.9003635, "name": "43bc843e6f1cf463dcf6f31ad62385b3", "bike_id": "43bc843e6f1cf463dcf6f31ad62385b3", "lon": -76.9882225, "fusion_lat": 0.0, "rental_uris": {"android": "https://dc.lft.to/lastmile_qr_scan", "ios": "https://dc.lft.to/lastmile_qr_scan"}, "type": "electric_scooter"}, {"is_reserved": 0, "is_disabled": 0, "fusion_lon": 0.0, "lat": 38.8789745, "name": "2a839b6d5d01e8d9c0fec3e58909a492", "bike_id": "2a839b6d5d01e8d9c0fec3e58909a492", "lon": -76.93528216666667, "fusion_lat": 0.0, "rental_uris": {"android": "https://dc.lft.to/lastmile_qr_scan", "ios": "https://dc.lft.to/lastmile_qr_scan"}, "type": "electric_scooter"}, {"is_reserved": 0, "is_disabled": 0, "fusion_lon": 0.0, "lat": 38.89813483333333, "name": "26fb78f49198f24b4d510686e7dd9a37", "bike_id": "26fb78f49198f24b4d510686e7dd9a37", "lon": -77.00609683333333, "fusion_lat": 0.0, "rental_uris": {"android": "https://dc.lft.to/lastmile_qr_scan", "ios": "https://dc.lft.to/lastmile_qr_scan"}, "type": "electric_bike"}, {"is_reserved": 0, "is_disabled": 0, "fusion_lon": 0.0, "lat": 38.92159383333333, "name": "7e62966045b833266657b51eb6ac4ea6", "bike_id": "7e62966045b833266657b51eb6ac4ea6", "lon": -77.04688666666667, "fusion_lat": 0.0, "rental_uris": {"android": "https://dc.lft.to/lastmile_qr_scan", "ios": "https://dc.lft.to/lastmile_qr_scan"}, "type": "electric_scooter"}, {"is_reserved": 0, "is_disabled": 0, "fusion_lon": 0.0, "lat": 38.914184, "name": "a6b867a96b93ac27fc18d0de17379421", "bike_id": "a6b867a96b93ac27fc18d0de17379421", "lon": -77.03235383333333, "fusion_lat": 0.0, "rental_uris": {"android": "https://dc.lft.to/lastmile_qr_scan", "ios": "https://dc.lft.to/lastmile_qr_scan"}, "type": "electric_scooter"}, {"is_reserved": 0, "is_disabled": 0, "fusion_lon": 0.0, "lat": 38.9027325, "name": "e5937f783e040e04b54c55ee7eeaed5f", "bike_id": "e5937f783e040e04b54c55ee7eeaed5f", "lon": -76.9899395, "fusion_lat": 0.0, "rental_uris": {"android": "https://dc.lft.to/lastmile_qr_scan", "ios": "https://dc.lft.to/lastmile_qr_scan"}, "type": "electric_scooter"}, {"is_reserved": 0, "is_disabled": 0, "fusion_lon": 0.0, "lat": 38.938571, "name": "59b61ec62bd3b081198bbb6b70fe31b7", "bike_id": "59b61ec62bd3b081198bbb6b70fe31b7", "lon": -77.0251785, "fusion_lat": 0.0, "rental_uris": {"android": "https://dc.lft.to/lastmile_qr_scan", "ios": "https://dc.lft.to/lastmile_qr_scan"}, "type": "electric_scooter"}, {"is_reserved": 0, "is_disabled": 0, "fusion_lon": 0.0, "lat": 38.835822666666665, "name": "68adcaeb621e529e6da59747ffcac2f9", "bike_id": "68adcaeb621e529e6da59747ffcac2f9", "lon": -76.99027516666666, "fusion_lat": 0.0, "rental_uris": {"android": "https://dc.lft.to/lastmile_qr_scan", "ios": "https://dc.lft.to/lastmile_qr_scan"}, "type": "electric_bike"}, {"is_reserved": 0, "is_disabled": 0, "fusion_lon": 0.0, "lat": 38.9214535, "name": "efd8306a370ffd490320e80ef21a21c5", "bike_id": "efd8306a370ffd490320e80ef21a21c5", "lon": -77.04238383333333, "fusion_lat": 0.0, "rental_uris": {"android": "https://dc.lft.to/lastmile_qr_scan", "ios": "https://dc.lft.to/lastmile_qr_scan"}, "type": "electric_scooter"}, {"is_reserved": 0, "is_disabled": 0, "fusion_lon": 0.0, "lat": 38.89824933333333, "name": "46b958b568a1b0e24fffbf767c841d91", "bike_id": "46b958b568a1b0e24fffbf767c841d91", "lon": -76.930058, "fusion_lat": 0.0, "rental_uris": {"android": "https://dc.lft.to/lastmile_qr_scan", "ios": "https://dc.lft.to/lastmile_qr_scan"}, "type": "electric_scooter"}, {"is_reserved": 0, "is_disabled": 0, "fusion_lon": 0.0, "lat": 38.922491, "name": "a3a667350641d6a271149ade739137f5", "bike_id": "a3a667350641d6a271149ade739137f5", "lon": -77.0306425, "fusion_lat": 0.0, "rental_uris": {"android": "https://dc.lft.to/lastmile_qr_scan", "ios": "https://dc.lft.to/lastmile_qr_scan"}, "type": "electric_scooter"}, {"is_reserved": 0, "is_disabled": 0, "fusion_lon": 0.0, "lat": 38.90105033333333, "name": "fe97b4ec1e48db8bf02d7fc5e3e658ea", "bike_id": "fe97b4ec1e48db8bf02d7fc5e3e658ea", "lon": -77.02190666666667, "fusion_lat": 0.0, "rental_uris": {"android": "https://dc.lft.to/lastmile_qr_scan", "ios": "https://dc.lft.to/lastmile_qr_scan"}, "type": "electric_scooter"}, {"is_reserved": 0, "is_disabled": 0, "fusion_lon": 0.0, "lat": 38.920776000000004, "name": "f3e05ebfb5d101d6dcb8fd3516668958", "bike_id": "f3e05ebfb5d101d6dcb8fd3516668958", "lon": -77.02415066666667, "fusion_lat": 0.0, "rental_uris": {"android": "https://dc.lft.to/lastmile_qr_scan", "ios": "https://dc.lft.to/lastmile_qr_scan"}, "type": "electric_scooter"}, {"is_reserved": 0, "is_disabled": 0, "fusion_lon": 0.0, "lat": 38.9125885, "name": "07ca5c1091c14b66b8f041cc0e11580c", "bike_id": "07ca5c1091c14b66b8f041cc0e11580c", "lon": -77.03187133333333, "fusion_lat": 0.0, "rental_uris": {"android": "https://dc.lft.to/lastmile_qr_scan", "ios": "https://dc.lft.to/lastmile_qr_scan"}, "type": "electric_scooter"}, {"is_reserved": 0, "is_disabled": 0, "fusion_lon": 0.0, "lat": 38.91699533333333, "name": "40faf330f782237ed20abfa9f91dc8c6", "bike_id": "40faf330f782237ed20abfa9f91dc8c6", "lon": -77.0295545, "fusion_lat": 0.0, "rental_uris": {"android": "https://dc.lft.to/lastmile_qr_scan", "ios": "https://dc.lft.to/lastmile_qr_scan"}, "type": "electric_scooter"}, {"is_reserved": 0, "is_disabled": 0, "fusion_lon": 0.0, "lat": 38.928186833333335, "name": "525250a340689ace93fc386e4b8ba723", "bike_id": "525250a340689ace93fc386e4b8ba723", "lon": -77.02242583333333, "fusion_lat": 0.0, "rental_uris": {"android": "https://dc.lft.to/lastmile_qr_scan", "ios": "https://dc.lft.to/lastmile_qr_scan"}, "type": "electric_scooter"}, {"is_reserved": 0, "is_disabled": 0, "fusion_lon": 0.0, "lat": 38.871989166666665, "name": "102c6f3f1bb11463c70f5ba44c957052", "bike_id": "102c6f3f1bb11463c70f5ba44c957052", "lon": -77.00576233333334, "fusion_lat": 0.0, "rental_uris": {"android": "https://dc.lft.to/lastmile_qr_scan", "ios": "https://dc.lft.to/lastmile_qr_scan"}, "type": "electric_scooter"}, {"is_reserved": 0, "is_disabled": 0, "fusion_lon": 0.0, "lat": 38.904804, "name": "69c01a0b8fc680999a4d67913d3238be", "bike_id": "69c01a0b8fc680999a4d67913d3238be", "lon": -77.02711383333333, "fusion_lat": 0.0, "rental_uris": {"android": "https://dc.lft.to/lastmile_qr_scan", "ios": "https://dc.lft.to/lastmile_qr_scan"}, "type": "electric_scooter"}, {"is_reserved": 0, "is_disabled": 0, "fusion_lon": 0.0, "lat": 38.92251916666667, "name": "39c8fad311ac1af20a4e83ebb61a1ba5", "bike_id": "39c8fad311ac1af20a4e83ebb61a1ba5", "lon": -77.0425045, "fusion_lat": 0.0, "rental_uris": {"android": "https://dc.lft.to/lastmile_qr_scan", "ios": "https://dc.lft.to/lastmile_qr_scan"}, "type": "electric_scooter"}, {"is_reserved": 0, "is_disabled": 0, "fusion_lon": 0.0, "lat": 38.91360783333333, "name": "f0856e1f7ab95e1b816dca40d8edfea8", "bike_id": "f0856e1f7ab95e1b816dca40d8edfea8", "lon": -77.09191033333333, "fusion_lat": 0.0, "rental_uris": {"android": "https://dc.lft.to/lastmile_qr_scan", "ios": "https://dc.lft.to/lastmile_qr_scan"}, "type": "electric_scooter"}, {"is_reserved": 0, "is_disabled": 0, "fusion_lon": 0.0, "lat": 38.89979983333333, "name": "45a983f9be39b1b2adc355b950789f0e", "bike_id": "45a983f9be39b1b2adc355b950789f0e", "lon": -77.04185933333333, "fusion_lat": 0.0, "rental_uris": {"android": "https://dc.lft.to/lastmile_qr_scan", "ios": "https://dc.lft.to/lastmile_qr_scan"}, "type": "electric_scooter"}, {"is_reserved": 0, "is_disabled": 0, "fusion_lon": 0.0, "lat": 38.9300845, "name": "6a4ccadbcfc8f805f677551668eb50e5", "bike_id": "6a4ccadbcfc8f805f677551668eb50e5", "lon": -77.01453033333334, "fusion_lat": 0.0, "rental_uris": {"android": "https://dc.lft.to/lastmile_qr_scan", "ios": "https://dc.lft.to/lastmile_qr_scan"}, "type": "electric_scooter"}, {"is_reserved": 0, "is_disabled": 0, "fusion_lon": 0.0, "lat": 38.91691633333333, "name": "877aa4aa4c3df094b0114ca6a9d99aaa", "bike_id": "877aa4aa4c3df094b0114ca6a9d99aaa", "lon": -77.0380455, "fusion_lat": 0.0, "rental_uris": {"android": "https://dc.lft.to/lastmile_qr_scan", "ios": "https://dc.lft.to/lastmile_qr_scan"}, "type": "electric_scooter"}, {"is_reserved": 0, "is_disabled": 0, "fusion_lon": 0.0, "lat": 38.831587, "name": "7f4e394584e802d0810adb4b7b9e4888", "bike_id": "7f4e394584e802d0810adb4b7b9e4888", "lon": -76.99576883333333, "fusion_lat": 0.0, "rental_uris": {"android": "https://dc.lft.to/lastmile_qr_scan", "ios": "https://dc.lft.to/lastmile_qr_scan"}, "type": "electric_bike"}, {"is_reserved": 0, "is_disabled": 0, "fusion_lon": 0.0, "lat": 38.923633833333334, "name": "484f95251edc6751152097a65c046fce", "bike_id": "484f95251edc6751152097a65c046fce", "lon": -77.01950416666666, "fusion_lat": 0.0, "rental_uris": {"android": "https://dc.lft.to/lastmile_qr_scan", "ios": "https://dc.lft.to/lastmile_qr_scan"}, "type": "electric_scooter"}, {"is_reserved": 0, "is_disabled": 0, "fusion_lon": 0.0, "lat": 38.91806183333333, "name": "9cfc2f3cbc6f2ce4e7143466427059cc", "bike_id": "9cfc2f3cbc6f2ce4e7143466427059cc", "lon": -77.02717633333333, "fusion_lat": 0.0, "rental_uris": {"android": "https://dc.lft.to/lastmile_qr_scan", "ios": "https://dc.lft.to/lastmile_qr_scan"}, "type": "electric_scooter"}, {"is_reserved": 0, "is_disabled": 0, "fusion_lon": 0.0, "lat": 38.9209805, "name": "f702c7c9e3eb773db6bebd57f45006ef", "bike_id": "f702c7c9e3eb773db6bebd57f45006ef", "lon": -77.03168366666667, "fusion_lat": 0.0, "rental_uris": {"android": "https://dc.lft.to/lastmile_qr_scan", "ios": "https://dc.lft.to/lastmile_qr_scan"}, "type": "electric_scooter"}, {"is_reserved": 0, "is_disabled": 0, "fusion_lon": 0.0, "lat": 38.936598000000004, "name": "20e9abd1c6b55fec5314b26e82f7fbb8", "bike_id": "20e9abd1c6b55fec5314b26e82f7fbb8", "lon": -77.06607566666666, "fusion_lat": 0.0, "rental_uris": {"android": "https://dc.lft.to/lastmile_qr_scan", "ios": "https://dc.lft.to/lastmile_qr_scan"}, "type": "electric_scooter"}, {"is_reserved": 0, "is_disabled": 0, "fusion_lon": 0.0, "lat": 38.912348, "name": "93bc8165df4647d342eca406bd05f585", "bike_id": "93bc8165df4647d342eca406bd05f585", "lon": -76.98668283333333, "fusion_lat": 0.0, "rental_uris": {"android": "https://dc.lft.to/lastmile_qr_scan", "ios": "https://dc.lft.to/lastmile_qr_scan"}, "type": "electric_scooter"}, {"is_reserved": 0, "is_disabled": 0, "fusion_lon": 0.0, "lat": 38.87773216666667, "name": "c2c1f1f5ffd22e64b255ad39bb88646c", "bike_id": "c2c1f1f5ffd22e64b255ad39bb88646c", "lon": -77.0059995, "fusion_lat": 0.0, "rental_uris": {"android": "https://dc.lft.to/lastmile_qr_scan", "ios": "https://dc.lft.to/lastmile_qr_scan"}, "type": "electric_scooter"}, {"is_reserved": 0, "is_disabled": 0, "fusion_lon": 0.0, "lat": 38.911904, "name": "4a4824c2b0ef823026014a113bbcc91b", "bike_id": "4a4824c2b0ef823026014a113bbcc91b", "lon": -77.01980133333333, "fusion_lat": 0.0, "rental_uris": {"android": "https://dc.lft.to/lastmile_qr_scan", "ios": "https://dc.lft.to/lastmile_qr_scan"}, "type": "electric_scooter"}, {"is_reserved": 0, "is_disabled": 0, "fusion_lon": 0.0, "lat": 38.916955, "name": "18ec33bd4891f90acf56050d4f921123", "bike_id": "18ec33bd4891f90acf56050d4f921123", "lon": -77.02950966666667, "fusion_lat": 0.0, "rental_uris": {"android": "https://dc.lft.to/lastmile_qr_scan", "ios": "https://dc.lft.to/lastmile_qr_scan"}, "type": "electric_scooter"}, {"is_reserved": 0, "is_disabled": 0, "fusion_lon": 0.0, "lat": 38.90856983333333, "name": "67527b106bba14b522089a8e2f620a46", "bike_id": "67527b106bba14b522089a8e2f620a46", "lon": -77.03755866666667, "fusion_lat": 0.0, "rental_uris": {"android": "https://dc.lft.to/lastmile_qr_scan", "ios": "https://dc.lft.to/lastmile_qr_scan"}, "type": "electric_scooter"}, {"is_reserved": 0, "is_disabled": 0, "fusion_lon": 0.0, "lat": 38.886361, "name": "a46adebfa9ba49a534232c49e26b30cc", "bike_id": "a46adebfa9ba49a534232c49e26b30cc", "lon": -77.00209583333333, "fusion_lat": 0.0, "rental_uris": {"android": "https://dc.lft.to/lastmile_qr_scan", "ios": "https://dc.lft.to/lastmile_qr_scan"}, "type": "electric_scooter"}, {"is_reserved": 0, "is_disabled": 0, "fusion_lon": 0.0, "lat": 38.92699916666667, "name": "0fa7aae52275fcdf960cd11a88060f00", "bike_id": "0fa7aae52275fcdf960cd11a88060f00", "lon": -77.02070233333333, "fusion_lat": 0.0, "rental_uris": {"android": "https://dc.lft.to/lastmile_qr_scan", "ios": "https://dc.lft.to/lastmile_qr_scan"}, "type": "electric_scooter"}, {"is_reserved": 0, "is_disabled": 0, "fusion_lon": 0.0, "lat": 38.9319295, "name": "991d5cb7b694c0095ec3d540f0441730", "bike_id": "991d5cb7b694c0095ec3d540f0441730", "lon": -77.0202625, "fusion_lat": 0.0, "rental_uris": {"android": "https://dc.lft.to/lastmile_qr_scan", "ios": "https://dc.lft.to/lastmile_qr_scan"}, "type": "electric_scooter"}, {"is_reserved": 0, "is_disabled": 0, "fusion_lon": 0.0, "lat": 38.907215666666666, "name": "562a2fd1111f813b6ec97658d5712a28", "bike_id": "562a2fd1111f813b6ec97658d5712a28", "lon": -77.02565483333333, "fusion_lat": 0.0, "rental_uris": {"android": "https://dc.lft.to/lastmile_qr_scan", "ios": "https://dc.lft.to/lastmile_qr_scan"}, "type": "electric_scooter"}, {"is_reserved": 0, "is_disabled": 0, "fusion_lon": 0.0, "lat": 38.898349, "name": "44f5434eeaf4234b7410ceeec38dfc6c", "bike_id": "44f5434eeaf4234b7410ceeec38dfc6c", "lon": -76.94640516666666, "fusion_lat": 0.0, "rental_uris": {"android": "https://dc.lft.to/lastmile_qr_scan", "ios": "https://dc.lft.to/lastmile_qr_scan"}, "type": "electric_scooter"}, {"is_reserved": 0, "is_disabled": 0, "fusion_lon": 0.0, "lat": 38.9205945, "name": "909e326738510017887efeb0616c2519", "bike_id": "909e326738510017887efeb0616c2519", "lon": -77.02432583333334, "fusion_lat": 0.0, "rental_uris": {"android": "https://dc.lft.to/lastmile_qr_scan", "ios": "https://dc.lft.to/lastmile_qr_scan"}, "type": "electric_scooter"}, {"is_reserved": 0, "is_disabled": 0, "fusion_lon": 0.0, "lat": 38.909600166666664, "name": "c2546f2364e8c99f56d038714cec261d", "bike_id": "c2546f2364e8c99f56d038714cec261d", "lon": -77.014392, "fusion_lat": 0.0, "rental_uris": {"android": "https://dc.lft.to/lastmile_qr_scan", "ios": "https://dc.lft.to/lastmile_qr_scan"}, "type": "electric_scooter"}, {"is_reserved": 0, "is_disabled": 0, "fusion_lon": 0.0, "lat": 38.90046983333333, "name": "f9af4e35018d71e07afee56de9e1e319", "bike_id": "f9af4e35018d71e07afee56de9e1e319", "lon": -76.9983245, "fusion_lat": 0.0, "rental_uris": {"android": "https://dc.lft.to/lastmile_qr_scan", "ios": "https://dc.lft.to/lastmile_qr_scan"}, "type": "electric_scooter"}, {"is_reserved": 0, "is_disabled": 0, "fusion_lon": 0.0, "lat": 38.920855833333334, "name": "84c07dfa7f4812712f7c6a2e4b8037dc", "bike_id": "84c07dfa7f4812712f7c6a2e4b8037dc", "lon": -77.0253025, "fusion_lat": 0.0, "rental_uris": {"android": "https://dc.lft.to/lastmile_qr_scan", "ios": "https://dc.lft.to/lastmile_qr_scan"}, "type": "electric_scooter"}, {"is_reserved": 0, "is_disabled": 0, "fusion_lon": 0.0, "lat": 38.87707183333333, "name": "6640286cdbeb693c3802d09ea70a3630", "bike_id": "6640286cdbeb693c3802d09ea70a3630", "lon": -77.01647633333333, "fusion_lat": 0.0, "rental_uris": {"android": "https://dc.lft.to/lastmile_qr_scan", "ios": "https://dc.lft.to/lastmile_qr_scan"}, "type": "electric_scooter"}, {"is_reserved": 0, "is_disabled": 0, "fusion_lon": 0.0, "lat": 38.9223735, "name": "abd4ac49bac826a88626b477f547993f", "bike_id": "abd4ac49bac826a88626b477f547993f", "lon": -77.02851766666667, "fusion_lat": 0.0, "rental_uris": {"android": "https://dc.lft.to/lastmile_qr_scan", "ios": "https://dc.lft.to/lastmile_qr_scan"}, "type": "electric_scooter"}, {"is_reserved": 0, "is_disabled": 0, "fusion_lon": 0.0, "lat": 38.919220833333334, "name": "c9f8359b2e0ca4fb57687d8e782398e6", "bike_id": "c9f8359b2e0ca4fb57687d8e782398e6", "lon": -77.07891066666667, "fusion_lat": 0.0, "rental_uris": {"android": "https://dc.lft.to/lastmile_qr_scan", "ios": "https://dc.lft.to/lastmile_qr_scan"}, "type": "electric_scooter"}, {"is_reserved": 0, "is_disabled": 0, "fusion_lon": 0.0, "lat": 38.8974725, "name": "60e1ab2c7b8ca8d9ec9264df5e6e7eba", "bike_id": "60e1ab2c7b8ca8d9ec9264df5e6e7eba", "lon": -77.03148983333334, "fusion_lat": 0.0, "rental_uris": {"android": "https://dc.lft.to/lastmile_qr_scan", "ios": "https://dc.lft.to/lastmile_qr_scan"}, "type": "electric_scooter"}, {"is_reserved": 0, "is_disabled": 0, "fusion_lon": 0.0, "lat": 38.92128316666667, "name": "9afe7db4d3669c5d7c6c11d2a4597763", "bike_id": "9afe7db4d3669c5d7c6c11d2a4597763", "lon": -77.01804966666667, "fusion_lat": 0.0, "rental_uris": {"android": "https://dc.lft.to/lastmile_qr_scan", "ios": "https://dc.lft.to/lastmile_qr_scan"}, "type": "electric_scooter"}, {"is_reserved": 0, "is_disabled": 0, "fusion_lon": 0.0, "lat": 38.929770500000004, "name": "c866d38121a8159b7339756cdead304a", "bike_id": "c866d38121a8159b7339756cdead304a", "lon": -77.04202533333333, "fusion_lat": 0.0, "rental_uris": {"android": "https://dc.lft.to/lastmile_qr_scan", "ios": "https://dc.lft.to/lastmile_qr_scan"}, "type": "electric_scooter"}, {"is_reserved": 0, "is_disabled": 0, "fusion_lon": 0.0, "lat": 38.92224683333333, "name": "705715e187e29b2a81c8d39280a0943a", "bike_id": "705715e187e29b2a81c8d39280a0943a", "lon": -77.04334816666666, "fusion_lat": 0.0, "rental_uris": {"android": "https://dc.lft.to/lastmile_qr_scan", "ios": "https://dc.lft.to/lastmile_qr_scan"}, "type": "electric_scooter"}, {"is_reserved": 0, "is_disabled": 0, "fusion_lon": 0.0, "lat": 38.913107333333336, "name": "e6d8aa67c5b075bdbc4a64438e7eb765", "bike_id": "e6d8aa67c5b075bdbc4a64438e7eb765", "lon": -77.0466105, "fusion_lat": 0.0, "rental_uris": {"android": "https://dc.lft.to/lastmile_qr_scan", "ios": "https://dc.lft.to/lastmile_qr_scan"}, "type": "electric_scooter"}, {"is_reserved": 0, "is_disabled": 0, "fusion_lon": 0.0, "lat": 38.912316, "name": "d5db9e9672b0fde12755b44eced6fd24", "bike_id": "d5db9e9672b0fde12755b44eced6fd24", "lon": -77.077461, "fusion_lat": 0.0, "rental_uris": {"android": "https://dc.lft.to/lastmile_qr_scan", "ios": "https://dc.lft.to/lastmile_qr_scan"}, "type": "electric_scooter"}, {"is_reserved": 0, "is_disabled": 0, "fusion_lon": 0.0, "lat": 38.914205333333335, "name": "845533a91360893b4193172066dbe0d2", "bike_id": "845533a91360893b4193172066dbe0d2", "lon": -77.03164816666667, "fusion_lat": 0.0, "rental_uris": {"android": "https://dc.lft.to/lastmile_qr_scan", "ios": "https://dc.lft.to/lastmile_qr_scan"}, "type": "electric_scooter"}, {"is_reserved": 0, "is_disabled": 0, "fusion_lon": 0.0, "lat": 38.9134995, "name": "2fb15275a1ac56b630c783b6991f7e10", "bike_id": "2fb15275a1ac56b630c783b6991f7e10", "lon": -77.03182, "fusion_lat": 0.0, "rental_uris": {"android": "https://dc.lft.to/lastmile_qr_scan", "ios": "https://dc.lft.to/lastmile_qr_scan"}, "type": "electric_scooter"}, {"is_reserved": 0, "is_disabled": 0, "fusion_lon": 0.0, "lat": 38.91785333333333, "name": "c3b60919e932eac954fe67e3f7dc5530", "bike_id": "c3b60919e932eac954fe67e3f7dc5530", "lon": -77.0425295, "fusion_lat": 0.0, "rental_uris": {"android": "https://dc.lft.to/lastmile_qr_scan", "ios": "https://dc.lft.to/lastmile_qr_scan"}, "type": "electric_scooter"}, {"is_reserved": 0, "is_disabled": 0, "fusion_lon": 0.0, "lat": 38.91059633333333, "name": "65b32daed3109da9b9071425941d613a", "bike_id": "65b32daed3109da9b9071425941d613a", "lon": -77.02213583333334, "fusion_lat": 0.0, "rental_uris": {"android": "https://dc.lft.to/lastmile_qr_scan", "ios": "https://dc.lft.to/lastmile_qr_scan"}, "type": "electric_scooter"}, {"is_reserved": 0, "is_disabled": 0, "fusion_lon": 0.0, "lat": 38.9218255, "name": "6327510f95ba3d7e84806ad5160117bb", "bike_id": "6327510f95ba3d7e84806ad5160117bb", "lon": -77.04017566666667, "fusion_lat": 0.0, "rental_uris": {"android": "https://dc.lft.to/lastmile_qr_scan", "ios": "https://dc.lft.to/lastmile_qr_scan"}, "type": "electric_scooter"}, {"is_reserved": 0, "is_disabled": 0, "fusion_lon": 0.0, "lat": 38.910291, "name": "feab2409996591b8b9040ad84d3c0e86", "bike_id": "feab2409996591b8b9040ad84d3c0e86", "lon": -77.02941683333333, "fusion_lat": 0.0, "rental_uris": {"android": "https://dc.lft.to/lastmile_qr_scan", "ios": "https://dc.lft.to/lastmile_qr_scan"}, "type": "electric_scooter"}, {"is_reserved": 0, "is_disabled": 0, "fusion_lon": 0.0, "lat": 38.920724166666666, "name": "c66a767a0da7b360276991e89aefdfea", "bike_id": "c66a767a0da7b360276991e89aefdfea", "lon": -77.04191416666667, "fusion_lat": 0.0, "rental_uris": {"android": "https://dc.lft.to/lastmile_qr_scan", "ios": "https://dc.lft.to/lastmile_qr_scan"}, "type": "electric_scooter"}, {"is_reserved": 0, "is_disabled": 0, "fusion_lon": 0.0, "lat": 38.92561216666667, "name": "8e37c0c3a7e071328585c3f3865cffab", "bike_id": "8e37c0c3a7e071328585c3f3865cffab", "lon": -77.03800416666667, "fusion_lat": 0.0, "rental_uris": {"android": "https://dc.lft.to/lastmile_qr_scan", "ios": "https://dc.lft.to/lastmile_qr_scan"}, "type": "electric_scooter"}, {"is_reserved": 0, "is_disabled": 0, "fusion_lon": 0.0, "lat": 38.9181785, "name": "c2f65de8ffa29d163e369e132da00ff3", "bike_id": "c2f65de8ffa29d163e369e132da00ff3", "lon": -77.0344, "fusion_lat": 0.0, "rental_uris": {"android": "https://dc.lft.to/lastmile_qr_scan", "ios": "https://dc.lft.to/lastmile_qr_scan"}, "type": "electric_scooter"}, {"is_reserved": 0, "is_disabled": 0, "fusion_lon": 0.0, "lat": 38.90997866666667, "name": "b48afff9bbc73a48b77d11707ebe2f05", "bike_id": "b48afff9bbc73a48b77d11707ebe2f05", "lon": -77.03197566666667, "fusion_lat": 0.0, "rental_uris": {"android": "https://dc.lft.to/lastmile_qr_scan", "ios": "https://dc.lft.to/lastmile_qr_scan"}, "type": "electric_scooter"}, {"is_reserved": 0, "is_disabled": 0, "fusion_lon": 0.0, "lat": 38.912763166666664, "name": "b23dc97f94b5bf5776ca3b7380b4f810", "bike_id": "b23dc97f94b5bf5776ca3b7380b4f810", "lon": -77.03182666666666, "fusion_lat": 0.0, "rental_uris": {"android": "https://dc.lft.to/lastmile_qr_scan", "ios": "https://dc.lft.to/lastmile_qr_scan"}, "type": "electric_scooter"}, {"is_reserved": 0, "is_disabled": 0, "fusion_lon": 0.0, "lat": 38.924463, "name": "67f2f3d489b5aaf43d0179e2393a38b3", "bike_id": "67f2f3d489b5aaf43d0179e2393a38b3", "lon": -77.0401885, "fusion_lat": 0.0, "rental_uris": {"android": "https://dc.lft.to/lastmile_qr_scan", "ios": "https://dc.lft.to/lastmile_qr_scan"}, "type": "electric_scooter"}, {"is_reserved": 0, "is_disabled": 0, "fusion_lon": 0.0, "lat": 38.92693716666667, "name": "9ae395ec3e5154ed4c4cd3a91fcdb5f3", "bike_id": "9ae395ec3e5154ed4c4cd3a91fcdb5f3", "lon": -77.00770933333334, "fusion_lat": 0.0, "rental_uris": {"android": "https://dc.lft.to/lastmile_qr_scan", "ios": "https://dc.lft.to/lastmile_qr_scan"}, "type": "electric_scooter"}, {"is_reserved": 0, "is_disabled": 0, "fusion_lon": 0.0, "lat": 38.91338666666667, "name": "b0b037067ebf9ede7821cb07794bcd67", "bike_id": "b0b037067ebf9ede7821cb07794bcd67", "lon": -77.03194716666667, "fusion_lat": 0.0, "rental_uris": {"android": "https://dc.lft.to/lastmile_qr_scan", "ios": "https://dc.lft.to/lastmile_qr_scan"}, "type": "electric_scooter"}, {"is_reserved": 0, "is_disabled": 0, "fusion_lon": 0.0, "lat": 38.927591166666666, "name": "97d2fe015f3639ed448cc5a51c7153cd", "bike_id": "97d2fe015f3639ed448cc5a51c7153cd", "lon": -77.03201916666667, "fusion_lat": 0.0, "rental_uris": {"android": "https://dc.lft.to/lastmile_qr_scan", "ios": "https://dc.lft.to/lastmile_qr_scan"}, "type": "electric_scooter"}, {"is_reserved": 0, "is_disabled": 0, "fusion_lon": 0.0, "lat": 38.903793666666665, "name": "f28700e2656577e0c8491c8767623afd", "bike_id": "f28700e2656577e0c8491c8767623afd", "lon": -77.00752516666667, "fusion_lat": 0.0, "rental_uris": {"android": "https://dc.lft.to/lastmile_qr_scan", "ios": "https://dc.lft.to/lastmile_qr_scan"}, "type": "electric_scooter"}, {"is_reserved": 0, "is_disabled": 0, "fusion_lon": 0.0, "lat": 38.92874483333333, "name": "88eabb12b923be73e97a3f9e7677082b", "bike_id": "88eabb12b923be73e97a3f9e7677082b", "lon": -77.031569, "fusion_lat": 0.0, "rental_uris": {"android": "https://dc.lft.to/lastmile_qr_scan", "ios": "https://dc.lft.to/lastmile_qr_scan"}, "type": "electric_scooter"}, {"is_reserved": 0, "is_disabled": 0, "fusion_lon": 0.0, "lat": 38.926751333333335, "name": "dc54c3053099833a6bf7f1b3bc29507c", "bike_id": "dc54c3053099833a6bf7f1b3bc29507c", "lon": -77.02582083333333, "fusion_lat": 0.0, "rental_uris": {"android": "https://dc.lft.to/lastmile_qr_scan", "ios": "https://dc.lft.to/lastmile_qr_scan"}, "type": "electric_scooter"}, {"is_reserved": 0, "is_disabled": 0, "fusion_lon": 0.0, "lat": 38.9054655, "name": "79552aa665e0aee1fbde4c51a68c859b", "bike_id": "79552aa665e0aee1fbde4c51a68c859b", "lon": -77.034689, "fusion_lat": 0.0, "rental_uris": {"android": "https://dc.lft.to/lastmile_qr_scan", "ios": "https://dc.lft.to/lastmile_qr_scan"}, "type": "electric_scooter"}, {"is_reserved": 0, "is_disabled": 0, "fusion_lon": 0.0, "lat": 38.92245916666667, "name": "bb46fcf45554990ac02d363a37d0a088", "bike_id": "bb46fcf45554990ac02d363a37d0a088", "lon": -77.0366645, "fusion_lat": 0.0, "rental_uris": {"android": "https://dc.lft.to/lastmile_qr_scan", "ios": "https://dc.lft.to/lastmile_qr_scan"}, "type": "electric_scooter"}, {"is_reserved": 0, "is_disabled": 0, "fusion_lon": 0.0, "lat": 38.862198166666666, "name": "d0ca2b806927836d628b07c3dc09b577", "bike_id": "d0ca2b806927836d628b07c3dc09b577", "lon": -76.99482183333333, "fusion_lat": 0.0, "rental_uris": {"android": "https://dc.lft.to/lastmile_qr_scan", "ios": "https://dc.lft.to/lastmile_qr_scan"}, "type": "electric_scooter"}, {"is_reserved": 0, "is_disabled": 0, "fusion_lon": 0.0, "lat": 38.90106166666666, "name": "e7cbdb0fb32183cb8c5d08326ed90a71", "bike_id": "e7cbdb0fb32183cb8c5d08326ed90a71", "lon": -77.03173333333334, "fusion_lat": 0.0, "rental_uris": {"android": "https://dc.lft.to/lastmile_qr_scan", "ios": "https://dc.lft.to/lastmile_qr_scan"}, "type": "electric_scooter"}, {"is_reserved": 0, "is_disabled": 0, "fusion_lon": 0.0, "lat": 38.919920166666664, "name": "965fdbe7656ad015afa46485a9886b50", "bike_id": "965fdbe7656ad015afa46485a9886b50", "lon": -77.032471, "fusion_lat": 0.0, "rental_uris": {"android": "https://dc.lft.to/lastmile_qr_scan", "ios": "https://dc.lft.to/lastmile_qr_scan"}, "type": "electric_scooter"}, {"is_reserved": 0, "is_disabled": 0, "fusion_lon": 0.0, "lat": 38.928265, "name": "62453cff3d5372a16b1c06a3c059fa01", "bike_id": "62453cff3d5372a16b1c06a3c059fa01", "lon": -77.02303216666667, "fusion_lat": 0.0, "rental_uris": {"android": "https://dc.lft.to/lastmile_qr_scan", "ios": "https://dc.lft.to/lastmile_qr_scan"}, "type": "electric_scooter"}, {"is_reserved": 0, "is_disabled": 0, "fusion_lon": 0.0, "lat": 38.91113883333333, "name": "696f6e6ae6fb46469e78fc783b1ed5cd", "bike_id": "696f6e6ae6fb46469e78fc783b1ed5cd", "lon": -77.038365, "fusion_lat": 0.0, "rental_uris": {"android": "https://dc.lft.to/lastmile_qr_scan", "ios": "https://dc.lft.to/lastmile_qr_scan"}, "type": "electric_scooter"}, {"is_reserved": 0, "is_disabled": 0, "fusion_lon": 0.0, "lat": 38.8570795, "name": "971fbd3035fd00ad271ca3a9ffe06079", "bike_id": "971fbd3035fd00ad271ca3a9ffe06079", "lon": -76.9813105, "fusion_lat": 0.0, "rental_uris": {"android": "https://dc.lft.to/lastmile_qr_scan", "ios": "https://dc.lft.to/lastmile_qr_scan"}, "type": "electric_scooter"}, {"is_reserved": 0, "is_disabled": 0, "fusion_lon": 0.0, "lat": 38.916328166666666, "name": "5f144c70f9c39cd3a89bcd310ba49727", "bike_id": "5f144c70f9c39cd3a89bcd310ba49727", "lon": -77.04624766666667, "fusion_lat": 0.0, "rental_uris": {"android": "https://dc.lft.to/lastmile_qr_scan", "ios": "https://dc.lft.to/lastmile_qr_scan"}, "type": "electric_scooter"}, {"is_reserved": 0, "is_disabled": 0, "fusion_lon": 0.0, "lat": 38.92134466666667, "name": "6f7a2d74c939ac64ad2f573facb439c3", "bike_id": "6f7a2d74c939ac64ad2f573facb439c3", "lon": -77.01798016666666, "fusion_lat": 0.0, "rental_uris": {"android": "https://dc.lft.to/lastmile_qr_scan", "ios": "https://dc.lft.to/lastmile_qr_scan"}, "type": "electric_scooter"}, {"is_reserved": 0, "is_disabled": 0, "fusion_lon": 0.0, "lat": 38.93462933333333, "name": "b9a147aa4a293b8e061150bfef024f0d", "bike_id": "b9a147aa4a293b8e061150bfef024f0d", "lon": -77.03498983333333, "fusion_lat": 0.0, "rental_uris": {"android": "https://dc.lft.to/lastmile_qr_scan", "ios": "https://dc.lft.to/lastmile_qr_scan"}, "type": "electric_scooter"}, {"is_reserved": 0, "is_disabled": 0, "fusion_lon": 0.0, "lat": 38.88038366666667, "name": "41e821a834f7f5c4d52092388c2557a4", "bike_id": "41e821a834f7f5c4d52092388c2557a4", "lon": -76.92722166666667, "fusion_lat": 0.0, "rental_uris": {"android": "https://dc.lft.to/lastmile_qr_scan", "ios": "https://dc.lft.to/lastmile_qr_scan"}, "type": "electric_scooter"}, {"is_reserved": 0, "is_disabled": 0, "fusion_lon": 0.0, "lat": 38.9008325, "name": "96cdad0422a6d5d98edb3a517938537b", "bike_id": "96cdad0422a6d5d98edb3a517938537b", "lon": -77.01313916666666, "fusion_lat": 0.0, "rental_uris": {"android": "https://dc.lft.to/lastmile_qr_scan", "ios": "https://dc.lft.to/lastmile_qr_scan"}, "type": "electric_scooter"}, {"is_reserved": 0, "is_disabled": 0, "fusion_lon": 0.0, "lat": 38.892282333333334, "name": "0108e4b6ae1c0514b3840f95ca8219f1", "bike_id": "0108e4b6ae1c0514b3840f95ca8219f1", "lon": -77.03189316666666, "fusion_lat": 0.0, "rental_uris": {"android": "https://dc.lft.to/lastmile_qr_scan", "ios": "https://dc.lft.to/lastmile_qr_scan"}, "type": "electric_scooter"}, {"is_reserved": 0, "is_disabled": 0, "fusion_lon": 0.0, "lat": 39.003856666666664, "name": "c529f22f21557f176fe3160dfee71f7b", "bike_id": "c529f22f21557f176fe3160dfee71f7b", "lon": -77.0129365, "fusion_lat": 0.0, "rental_uris": {"android": "https://dc.lft.to/lastmile_qr_scan", "ios": "https://dc.lft.to/lastmile_qr_scan"}, "type": "electric_bike"}, {"is_reserved": 0, "is_disabled": 0, "fusion_lon": 0.0, "lat": 38.923691, "name": "7ac9ed288c7fa4b17869f40fce8f9040", "bike_id": "7ac9ed288c7fa4b17869f40fce8f9040", "lon": -77.02977533333333, "fusion_lat": 0.0, "rental_uris": {"android": "https://dc.lft.to/lastmile_qr_scan", "ios": "https://dc.lft.to/lastmile_qr_scan"}, "type": "electric_scooter"}, {"is_reserved": 0, "is_disabled": 0, "fusion_lon": 0.0, "lat": 38.879372000000004, "name": "17dff61ed646e0a4680c942e041dcd70", "bike_id": "17dff61ed646e0a4680c942e041dcd70", "lon": -77.0084795, "fusion_lat": 0.0, "rental_uris": {"android": "https://dc.lft.to/lastmile_qr_scan", "ios": "https://dc.lft.to/lastmile_qr_scan"}, "type": "electric_scooter"}, {"is_reserved": 0, "is_disabled": 0, "fusion_lon": 0.0, "lat": 38.883767166666665, "name": "91b14a10244bd08eb0895d82884e37b2", "bike_id": "91b14a10244bd08eb0895d82884e37b2", "lon": -76.99517616666667, "fusion_lat": 0.0, "rental_uris": {"android": "https://dc.lft.to/lastmile_qr_scan", "ios": "https://dc.lft.to/lastmile_qr_scan"}, "type": "electric_scooter"}, {"is_reserved": 0, "is_disabled": 0, "fusion_lon": 0.0, "lat": 38.902340333333335, "name": "b85da964ad8ca51f95adef89bcbcb78a", "bike_id": "b85da964ad8ca51f95adef89bcbcb78a", "lon": -77.017484, "fusion_lat": 0.0, "rental_uris": {"android": "https://dc.lft.to/lastmile_qr_scan", "ios": "https://dc.lft.to/lastmile_qr_scan"}, "type": "electric_scooter"}, {"is_reserved": 0, "is_disabled": 0, "fusion_lon": 0.0, "lat": 38.93403033333333, "name": "6caeba7730bf2d1d0ef39c8383425f70", "bike_id": "6caeba7730bf2d1d0ef39c8383425f70", "lon": -77.0264025, "fusion_lat": 0.0, "rental_uris": {"android": "https://dc.lft.to/lastmile_qr_scan", "ios": "https://dc.lft.to/lastmile_qr_scan"}, "type": "electric_scooter"}, {"is_reserved": 0, "is_disabled": 0, "fusion_lon": 0.0, "lat": 38.903350833333334, "name": "77ff3db98b55abc27afd05b7d88ad6f8", "bike_id": "77ff3db98b55abc27afd05b7d88ad6f8", "lon": -76.97574633333333, "fusion_lat": 0.0, "rental_uris": {"android": "https://dc.lft.to/lastmile_qr_scan", "ios": "https://dc.lft.to/lastmile_qr_scan"}, "type": "electric_scooter"}, {"is_reserved": 0, "is_disabled": 0, "fusion_lon": 0.0, "lat": 38.9215335, "name": "37900a6354e68dcda5e0148c309bb3af", "bike_id": "37900a6354e68dcda5e0148c309bb3af", "lon": -77.0350645, "fusion_lat": 0.0, "rental_uris": {"android": "https://dc.lft.to/lastmile_qr_scan", "ios": "https://dc.lft.to/lastmile_qr_scan"}, "type": "electric_scooter"}, {"is_reserved": 0, "is_disabled": 0, "fusion_lon": 0.0, "lat": 38.916913, "name": "883940a3d30358edd02dbba0d1cf34c5", "bike_id": "883940a3d30358edd02dbba0d1cf34c5", "lon": -77.03767583333334, "fusion_lat": 0.0, "rental_uris": {"android": "https://dc.lft.to/lastmile_qr_scan", "ios": "https://dc.lft.to/lastmile_qr_scan"}, "type": "electric_scooter"}, {"is_reserved": 0, "is_disabled": 0, "fusion_lon": 0.0, "lat": 38.83745233333333, "name": "185d7f4a84177039e7c009f86d4ce340", "bike_id": "185d7f4a84177039e7c009f86d4ce340", "lon": -76.99865966666667, "fusion_lat": 0.0, "rental_uris": {"android": "https://dc.lft.to/lastmile_qr_scan", "ios": "https://dc.lft.to/lastmile_qr_scan"}, "type": "electric_scooter"}, {"is_reserved": 0, "is_disabled": 0, "fusion_lon": 0.0, "lat": 38.894927833333334, "name": "74db5493122e54a5ae6248b428b2e06c", "bike_id": "74db5493122e54a5ae6248b428b2e06c", "lon": -76.94896, "fusion_lat": 0.0, "rental_uris": {"android": "https://dc.lft.to/lastmile_qr_scan", "ios": "https://dc.lft.to/lastmile_qr_scan"}, "type": "electric_scooter"}, {"is_reserved": 0, "is_disabled": 0, "fusion_lon": 0.0, "lat": 38.8795005, "name": "dc147ee8c867377288d3d2f94089fbee", "bike_id": "dc147ee8c867377288d3d2f94089fbee", "lon": -76.98377766666667, "fusion_lat": 0.0, "rental_uris": {"android": "https://dc.lft.to/lastmile_qr_scan", "ios": "https://dc.lft.to/lastmile_qr_scan"}, "type": "electric_scooter"}, {"is_reserved": 0, "is_disabled": 0, "fusion_lon": 0.0, "lat": 38.8922725, "name": "4848dc8db20ae12d51592127796f898e", "bike_id": "4848dc8db20ae12d51592127796f898e", "lon": -77.026366, "fusion_lat": 0.0, "rental_uris": {"android": "https://dc.lft.to/lastmile_qr_scan", "ios": "https://dc.lft.to/lastmile_qr_scan"}, "type": "electric_scooter"}, {"is_reserved": 0, "is_disabled": 0, "fusion_lon": 0.0, "lat": 38.929662, "name": "ec3ab31bdfac86857e3af8c9e6d42533", "bike_id": "ec3ab31bdfac86857e3af8c9e6d42533", "lon": -77.04114566666667, "fusion_lat": 0.0, "rental_uris": {"android": "https://dc.lft.to/lastmile_qr_scan", "ios": "https://dc.lft.to/lastmile_qr_scan"}, "type": "electric_scooter"}, {"is_reserved": 0, "is_disabled": 0, "fusion_lon": 0.0, "lat": 38.91315266666667, "name": "d333ee6b6495db1c9cbc0ac21e56dd0a", "bike_id": "d333ee6b6495db1c9cbc0ac21e56dd0a", "lon": -77.04554233333333, "fusion_lat": 0.0, "rental_uris": {"android": "https://dc.lft.to/lastmile_qr_scan", "ios": "https://dc.lft.to/lastmile_qr_scan"}, "type": "electric_scooter"}, {"is_reserved": 0, "is_disabled": 0, "fusion_lon": 0.0, "lat": 38.91346516666667, "name": "cdf982956ec1d67cf54b156226b83861", "bike_id": "cdf982956ec1d67cf54b156226b83861", "lon": -77.0205495, "fusion_lat": 0.0, "rental_uris": {"android": "https://dc.lft.to/lastmile_qr_scan", "ios": "https://dc.lft.to/lastmile_qr_scan"}, "type": "electric_scooter"}, {"is_reserved": 0, "is_disabled": 0, "fusion_lon": 0.0, "lat": 38.973367, "name": "f5770857367289f79d2c338e34023cf5", "bike_id": "f5770857367289f79d2c338e34023cf5", "lon": -76.9958, "fusion_lat": 0.0, "rental_uris": {"android": "https://dc.lft.to/lastmile_qr_scan", "ios": "https://dc.lft.to/lastmile_qr_scan"}, "type": "electric_bike"}, {"is_reserved": 0, "is_disabled": 0, "fusion_lon": 0.0, "lat": 38.906464, "name": "7457bea71af7ff20319f6937a01370ff", "bike_id": "7457bea71af7ff20319f6937a01370ff", "lon": -77.01689166666667, "fusion_lat": 0.0, "rental_uris": {"android": "https://dc.lft.to/lastmile_qr_scan", "ios": "https://dc.lft.to/lastmile_qr_scan"}, "type": "electric_scooter"}, {"is_reserved": 0, "is_disabled": 0, "fusion_lon": 0.0, "lat": 39.04240983333333, "name": "923de2351e062d02b95cd59fdcd04d32", "bike_id": "923de2351e062d02b95cd59fdcd04d32", "lon": -76.997375, "fusion_lat": 0.0, "rental_uris": {"android": "https://dc.lft.to/lastmile_qr_scan", "ios": "https://dc.lft.to/lastmile_qr_scan"}, "type": "electric_bike"}, {"is_reserved": 0, "is_disabled": 0, "fusion_lon": 0.0, "lat": 38.923899, "name": "7bdf8318239f98e8cf0ec855f9273c7e", "bike_id": "7bdf8318239f98e8cf0ec855f9273c7e", "lon": -77.00063033333333, "fusion_lat": 0.0, "rental_uris": {"android": "https://dc.lft.to/lastmile_qr_scan", "ios": "https://dc.lft.to/lastmile_qr_scan"}, "type": "electric_scooter"}, {"is_reserved": 0, "is_disabled": 0, "fusion_lon": 0.0, "lat": 38.921114, "name": "4a2dc6ac70595523ba05ffa593e915e8", "bike_id": "4a2dc6ac70595523ba05ffa593e915e8", "lon": -77.02066616666667, "fusion_lat": 0.0, "rental_uris": {"android": "https://dc.lft.to/lastmile_qr_scan", "ios": "https://dc.lft.to/lastmile_qr_scan"}, "type": "electric_scooter"}, {"is_reserved": 0, "is_disabled": 0, "fusion_lon": 0.0, "lat": 38.9026585, "name": "e65f711bc7ac846811113e96a81108ab", "bike_id": "e65f711bc7ac846811113e96a81108ab", "lon": -77.0644345, "fusion_lat": 0.0, "rental_uris": {"android": "https://dc.lft.to/lastmile_qr_scan", "ios": "https://dc.lft.to/lastmile_qr_scan"}, "type": "electric_scooter"}, {"is_reserved": 0, "is_disabled": 0, "fusion_lon": 0.0, "lat": 38.888765, "name": "e8487379e70c65a4a5a6f0c78dadb02a", "bike_id": "e8487379e70c65a4a5a6f0c78dadb02a", "lon": -76.9838445, "fusion_lat": 0.0, "rental_uris": {"android": "https://dc.lft.to/lastmile_qr_scan", "ios": "https://dc.lft.to/lastmile_qr_scan"}, "type": "electric_bike"}, {"is_reserved": 0, "is_disabled": 0, "fusion_lon": 0.0, "lat": 38.9050955, "name": "55f53a4d04bb4ec4861e14f0be4426d7", "bike_id": "55f53a4d04bb4ec4861e14f0be4426d7", "lon": -77.0547855, "fusion_lat": 0.0, "rental_uris": {"android": "https://dc.lft.to/lastmile_qr_scan", "ios": "https://dc.lft.to/lastmile_qr_scan"}, "type": "electric_scooter"}, {"is_reserved": 0, "is_disabled": 0, "fusion_lon": 0.0, "lat": 38.9205495, "name": "985f48a111dcb9cda05474b8516f5be4", "bike_id": "985f48a111dcb9cda05474b8516f5be4", "lon": -76.9842815, "fusion_lat": 0.0, "rental_uris": {"android": "https://dc.lft.to/lastmile_qr_scan", "ios": "https://dc.lft.to/lastmile_qr_scan"}, "type": "electric_scooter"}, {"is_reserved": 0, "is_disabled": 0, "fusion_lon": 0.0, "lat": 38.9240775, "name": "587aa420c8228bc76819f3197f59faac", "bike_id": "587aa420c8228bc76819f3197f59faac", "lon": -77.02039, "fusion_lat": 0.0, "rental_uris": {"android": "https://dc.lft.to/lastmile_qr_scan", "ios": "https://dc.lft.to/lastmile_qr_scan"}, "type": "electric_scooter"}, {"is_reserved": 0, "is_disabled": 0, "fusion_lon": 0.0, "lat": 38.9352365, "name": "2bacfbf7118033714db34383257ff266", "bike_id": "2bacfbf7118033714db34383257ff266", "lon": -77.02352333333333, "fusion_lat": 0.0, "rental_uris": {"android": "https://dc.lft.to/lastmile_qr_scan", "ios": "https://dc.lft.to/lastmile_qr_scan"}, "type": "electric_scooter"}, {"is_reserved": 0, "is_disabled": 0, "fusion_lon": 0.0, "lat": 38.858832, "name": "38b093bf693248429f1a1ce50323e8e2", "bike_id": "38b093bf693248429f1a1ce50323e8e2", "lon": -76.989344, "fusion_lat": 0.0, "rental_uris": {"android": "https://dc.lft.to/lastmile_qr_scan", "ios": "https://dc.lft.to/lastmile_qr_scan"}, "type": "electric_scooter"}, {"is_reserved": 0, "is_disabled": 0, "fusion_lon": 0.0, "lat": 38.88431466666667, "name": "0597b7d39e2e74629ab8740ed65c18e6", "bike_id": "0597b7d39e2e74629ab8740ed65c18e6", "lon": -76.99588716666666, "fusion_lat": 0.0, "rental_uris": {"android": "https://dc.lft.to/lastmile_qr_scan", "ios": "https://dc.lft.to/lastmile_qr_scan"}, "type": "electric_scooter"}, {"is_reserved": 0, "is_disabled": 0, "fusion_lon": 0.0, "lat": 38.91942566666667, "name": "37ae42f4bfdeb50b5b2f43c1fad50da0", "bike_id": "37ae42f4bfdeb50b5b2f43c1fad50da0", "lon": -77.01795516666667, "fusion_lat": 0.0, "rental_uris": {"android": "https://dc.lft.to/lastmile_qr_scan", "ios": "https://dc.lft.to/lastmile_qr_scan"}, "type": "electric_scooter"}, {"is_reserved": 0, "is_disabled": 0, "fusion_lon": 0.0, "lat": 38.93480616666667, "name": "508183ec47f7f460b4a6a6ad7d12a8d5", "bike_id": "508183ec47f7f460b4a6a6ad7d12a8d5", "lon": -77.04461716666667, "fusion_lat": 0.0, "rental_uris": {"android": "https://dc.lft.to/lastmile_qr_scan", "ios": "https://dc.lft.to/lastmile_qr_scan"}, "type": "electric_scooter"}, {"is_reserved": 0, "is_disabled": 0, "fusion_lon": 0.0, "lat": 38.90765533333333, "name": "ec78addd73778ef414ed3bcfd7ec7fec", "bike_id": "ec78addd73778ef414ed3bcfd7ec7fec", "lon": -77.04528633333334, "fusion_lat": 0.0, "rental_uris": {"android": "https://dc.lft.to/lastmile_qr_scan", "ios": "https://dc.lft.to/lastmile_qr_scan"}, "type": "electric_scooter"}, {"is_reserved": 0, "is_disabled": 0, "fusion_lon": 0.0, "lat": 38.92200883333334, "name": "76161ff2a96ec4e9149422f0b18039a6", "bike_id": "76161ff2a96ec4e9149422f0b18039a6", "lon": -76.98364766666667, "fusion_lat": 0.0, "rental_uris": {"android": "https://dc.lft.to/lastmile_qr_scan", "ios": "https://dc.lft.to/lastmile_qr_scan"}, "type": "electric_scooter"}, {"is_reserved": 0, "is_disabled": 0, "fusion_lon": 0.0, "lat": 38.87470883333334, "name": "c89bb00211235d7e773e85a1cf7b3984", "bike_id": "c89bb00211235d7e773e85a1cf7b3984", "lon": -77.0033555, "fusion_lat": 0.0, "rental_uris": {"android": "https://dc.lft.to/lastmile_qr_scan", "ios": "https://dc.lft.to/lastmile_qr_scan"}, "type": "electric_scooter"}, {"is_reserved": 0, "is_disabled": 0, "fusion_lon": 0.0, "lat": 38.930967833333334, "name": "37a4bacecd53a8394cb78b306d994372", "bike_id": "37a4bacecd53a8394cb78b306d994372", "lon": -77.02481533333334, "fusion_lat": 0.0, "rental_uris": {"android": "https://dc.lft.to/lastmile_qr_scan", "ios": "https://dc.lft.to/lastmile_qr_scan"}, "type": "electric_scooter"}, {"is_reserved": 0, "is_disabled": 0, "fusion_lon": 0.0, "lat": 38.87550433333333, "name": "1a91ff31464cc06235eb5981ed6d47be", "bike_id": "1a91ff31464cc06235eb5981ed6d47be", "lon": -77.00569783333333, "fusion_lat": 0.0, "rental_uris": {"android": "https://dc.lft.to/lastmile_qr_scan", "ios": "https://dc.lft.to/lastmile_qr_scan"}, "type": "electric_scooter"}, {"is_reserved": 0, "is_disabled": 0, "fusion_lon": 0.0, "lat": 38.9213995, "name": "7778c01572550dab5857effc29217834", "bike_id": "7778c01572550dab5857effc29217834", "lon": -77.04583966666667, "fusion_lat": 0.0, "rental_uris": {"android": "https://dc.lft.to/lastmile_qr_scan", "ios": "https://dc.lft.to/lastmile_qr_scan"}, "type": "electric_scooter"}, {"is_reserved": 0, "is_disabled": 0, "fusion_lon": 0.0, "lat": 38.93528466666667, "name": "5e389da25f453942dcfbf6a2084a688c", "bike_id": "5e389da25f453942dcfbf6a2084a688c", "lon": -77.02345766666667, "fusion_lat": 0.0, "rental_uris": {"android": "https://dc.lft.to/lastmile_qr_scan", "ios": "https://dc.lft.to/lastmile_qr_scan"}, "type": "electric_scooter"}, {"is_reserved": 0, "is_disabled": 0, "fusion_lon": 0.0, "lat": 38.864891166666666, "name": "52865484cc1caf6c872afa9b9359a8f2", "bike_id": "52865484cc1caf6c872afa9b9359a8f2", "lon": -76.97743916666667, "fusion_lat": 0.0, "rental_uris": {"android": "https://dc.lft.to/lastmile_qr_scan", "ios": "https://dc.lft.to/lastmile_qr_scan"}, "type": "electric_bike"}, {"is_reserved": 0, "is_disabled": 0, "fusion_lon": 0.0, "lat": 38.920865, "name": "66da792cc1420bba494122a5023c03c5", "bike_id": "66da792cc1420bba494122a5023c03c5", "lon": -77.023365, "fusion_lat": 0.0, "rental_uris": {"android": "https://dc.lft.to/lastmile_qr_scan", "ios": "https://dc.lft.to/lastmile_qr_scan"}, "type": "electric_scooter"}, {"is_reserved": 0, "is_disabled": 0, "fusion_lon": 0.0, "lat": 38.91495033333333, "name": "d290d8cc4ab2756dd757b485095406d6", "bike_id": "d290d8cc4ab2756dd757b485095406d6", "lon": -77.01860183333334, "fusion_lat": 0.0, "rental_uris": {"android": "https://dc.lft.to/lastmile_qr_scan", "ios": "https://dc.lft.to/lastmile_qr_scan"}, "type": "electric_scooter"}, {"is_reserved": 0, "is_disabled": 0, "fusion_lon": 0.0, "lat": 38.92674383333333, "name": "9288e7bd2b5cf6a8496623ece82f24fa", "bike_id": "9288e7bd2b5cf6a8496623ece82f24fa", "lon": -77.054382, "fusion_lat": 0.0, "rental_uris": {"android": "https://dc.lft.to/lastmile_qr_scan", "ios": "https://dc.lft.to/lastmile_qr_scan"}, "type": "electric_scooter"}, {"is_reserved": 0, "is_disabled": 0, "fusion_lon": 0.0, "lat": 38.91963583333333, "name": "bfc2ddc885eb265a7e30dd6c42ed94ab", "bike_id": "bfc2ddc885eb265a7e30dd6c42ed94ab", "lon": -77.07877166666667, "fusion_lat": 0.0, "rental_uris": {"android": "https://dc.lft.to/lastmile_qr_scan", "ios": "https://dc.lft.to/lastmile_qr_scan"}, "type": "electric_scooter"}, {"is_reserved": 0, "is_disabled": 0, "fusion_lon": 0.0, "lat": 38.917381166666665, "name": "b9cbf2837a03c2dd3b02c952271534b4", "bike_id": "b9cbf2837a03c2dd3b02c952271534b4", "lon": -77.04172633333333, "fusion_lat": 0.0, "rental_uris": {"android": "https://dc.lft.to/lastmile_qr_scan", "ios": "https://dc.lft.to/lastmile_qr_scan"}, "type": "electric_scooter"}, {"is_reserved": 0, "is_disabled": 0, "fusion_lon": 0.0, "lat": 38.8988075, "name": "485803eed25d97e7f01a4e5ae35f2801", "bike_id": "485803eed25d97e7f01a4e5ae35f2801", "lon": -76.98000683333333, "fusion_lat": 0.0, "rental_uris": {"android": "https://dc.lft.to/lastmile_qr_scan", "ios": "https://dc.lft.to/lastmile_qr_scan"}, "type": "electric_scooter"}, {"is_reserved": 0, "is_disabled": 0, "fusion_lon": 0.0, "lat": 38.924576333333334, "name": "417aba99e59015a3c57a0f29c0c7f010", "bike_id": "417aba99e59015a3c57a0f29c0c7f010", "lon": -76.99913766666667, "fusion_lat": 0.0, "rental_uris": {"android": "https://dc.lft.to/lastmile_qr_scan", "ios": "https://dc.lft.to/lastmile_qr_scan"}, "type": "electric_scooter"}, {"is_reserved": 0, "is_disabled": 0, "fusion_lon": 0.0, "lat": 38.913381, "name": "3a8b9fcaa037ce114baaa728c24349ee", "bike_id": "3a8b9fcaa037ce114baaa728c24349ee", "lon": -77.0397965, "fusion_lat": 0.0, "rental_uris": {"android": "https://dc.lft.to/lastmile_qr_scan", "ios": "https://dc.lft.to/lastmile_qr_scan"}, "type": "electric_scooter"}, {"is_reserved": 0, "is_disabled": 0, "fusion_lon": 0.0, "lat": 38.929801499999996, "name": "3d1208cce609e3235fa4dd322b469111", "bike_id": "3d1208cce609e3235fa4dd322b469111", "lon": -77.02343816666666, "fusion_lat": 0.0, "rental_uris": {"android": "https://dc.lft.to/lastmile_qr_scan", "ios": "https://dc.lft.to/lastmile_qr_scan"}, "type": "electric_scooter"}, {"is_reserved": 0, "is_disabled": 0, "fusion_lon": 0.0, "lat": 38.92059283333333, "name": "061fc5b1b7c29d9b7aa153047b35c775", "bike_id": "061fc5b1b7c29d9b7aa153047b35c775", "lon": -77.03324916666666, "fusion_lat": 0.0, "rental_uris": {"android": "https://dc.lft.to/lastmile_qr_scan", "ios": "https://dc.lft.to/lastmile_qr_scan"}, "type": "electric_bike"}, {"is_reserved": 0, "is_disabled": 0, "fusion_lon": 0.0, "lat": 38.924422166666666, "name": "27d5c6a070d1874d0e0ec65368434351", "bike_id": "27d5c6a070d1874d0e0ec65368434351", "lon": -77.040279, "fusion_lat": 0.0, "rental_uris": {"android": "https://dc.lft.to/lastmile_qr_scan", "ios": "https://dc.lft.to/lastmile_qr_scan"}, "type": "electric_scooter"}, {"is_reserved": 0, "is_disabled": 0, "fusion_lon": 0.0, "lat": 38.910047, "name": "9c58dfbb5912f6c6907dd7a5697ca297", "bike_id": "9c58dfbb5912f6c6907dd7a5697ca297", "lon": -77.032092, "fusion_lat": 0.0, "rental_uris": {"android": "https://dc.lft.to/lastmile_qr_scan", "ios": "https://dc.lft.to/lastmile_qr_scan"}, "type": "electric_scooter"}, {"is_reserved": 0, "is_disabled": 0, "fusion_lon": 0.0, "lat": 38.937036, "name": "2a92461d5b09a938dbd7565a74db7e82", "bike_id": "2a92461d5b09a938dbd7565a74db7e82", "lon": -77.032757, "fusion_lat": 0.0, "rental_uris": {"android": "https://dc.lft.to/lastmile_qr_scan", "ios": "https://dc.lft.to/lastmile_qr_scan"}, "type": "electric_scooter"}, {"is_reserved": 0, "is_disabled": 0, "fusion_lon": 0.0, "lat": 38.87646866666667, "name": "af70e36f61f2f1a02e20add05c504906", "bike_id": "af70e36f61f2f1a02e20add05c504906", "lon": -76.9354365, "fusion_lat": 0.0, "rental_uris": {"android": "https://dc.lft.to/lastmile_qr_scan", "ios": "https://dc.lft.to/lastmile_qr_scan"}, "type": "electric_bike"}, {"is_reserved": 0, "is_disabled": 0, "fusion_lon": 0.0, "lat": 38.884836666666665, "name": "133379ac5dbc382e84b0aa930c2071f6", "bike_id": "133379ac5dbc382e84b0aa930c2071f6", "lon": -77.03354116666667, "fusion_lat": 0.0, "rental_uris": {"android": "https://dc.lft.to/lastmile_qr_scan", "ios": "https://dc.lft.to/lastmile_qr_scan"}, "type": "electric_scooter"}, {"is_reserved": 0, "is_disabled": 0, "fusion_lon": 0.0, "lat": 38.89598816666667, "name": "5462d4e58d35e437ad215fddc38a430b", "bike_id": "5462d4e58d35e437ad215fddc38a430b", "lon": -76.96782366666666, "fusion_lat": 0.0, "rental_uris": {"android": "https://dc.lft.to/lastmile_qr_scan", "ios": "https://dc.lft.to/lastmile_qr_scan"}, "type": "electric_bike"}, {"is_reserved": 0, "is_disabled": 0, "fusion_lon": 0.0, "lat": 38.9211215, "name": "5b53a12b1f4aca5a638dba5ae39cbabe", "bike_id": "5b53a12b1f4aca5a638dba5ae39cbabe", "lon": -77.0206875, "fusion_lat": 0.0, "rental_uris": {"android": "https://dc.lft.to/lastmile_qr_scan", "ios": "https://dc.lft.to/lastmile_qr_scan"}, "type": "electric_scooter"}, {"is_reserved": 0, "is_disabled": 0, "fusion_lon": 0.0, "lat": 38.884339, "name": "2ccdbe069c99161ddb848300047bff0d", "bike_id": "2ccdbe069c99161ddb848300047bff0d", "lon": -77.02389916666667, "fusion_lat": 0.0, "rental_uris": {"android": "https://dc.lft.to/lastmile_qr_scan", "ios": "https://dc.lft.to/lastmile_qr_scan"}, "type": "electric_scooter"}, {"is_reserved": 0, "is_disabled": 0, "fusion_lon": 0.0, "lat": 38.90541016666667, "name": "ae96a400e94615879b9d28e4da9fbb09", "bike_id": "ae96a400e94615879b9d28e4da9fbb09", "lon": -77.00553633333334, "fusion_lat": 0.0, "rental_uris": {"android": "https://dc.lft.to/lastmile_qr_scan", "ios": "https://dc.lft.to/lastmile_qr_scan"}, "type": "electric_scooter"}, {"is_reserved": 0, "is_disabled": 0, "fusion_lon": 0.0, "lat": 38.926758166666666, "name": "85beeff8b2ac80971b87dee18afad5b9", "bike_id": "85beeff8b2ac80971b87dee18afad5b9", "lon": -77.03230116666667, "fusion_lat": 0.0, "rental_uris": {"android": "https://dc.lft.to/lastmile_qr_scan", "ios": "https://dc.lft.to/lastmile_qr_scan"}, "type": "electric_scooter"}, {"is_reserved": 0, "is_disabled": 0, "fusion_lon": 0.0, "lat": 38.92673466666667, "name": "8724069190ca9d4d637ba4ffe4ceff22", "bike_id": "8724069190ca9d4d637ba4ffe4ceff22", "lon": -77.02744116666666, "fusion_lat": 0.0, "rental_uris": {"android": "https://dc.lft.to/lastmile_qr_scan", "ios": "https://dc.lft.to/lastmile_qr_scan"}, "type": "electric_scooter"}, {"is_reserved": 0, "is_disabled": 0, "fusion_lon": 0.0, "lat": 38.90684433333333, "name": "5dac128af1d6bca1b61ea541cb95e730", "bike_id": "5dac128af1d6bca1b61ea541cb95e730", "lon": -77.02690883333334, "fusion_lat": 0.0, "rental_uris": {"android": "https://dc.lft.to/lastmile_qr_scan", "ios": "https://dc.lft.to/lastmile_qr_scan"}, "type": "electric_scooter"}, {"is_reserved": 0, "is_disabled": 0, "fusion_lon": 0.0, "lat": 38.929136, "name": "6f4d9ae4c41ac1bdc1b9126fa0835b5d", "bike_id": "6f4d9ae4c41ac1bdc1b9126fa0835b5d", "lon": -77.03248683333334, "fusion_lat": 0.0, "rental_uris": {"android": "https://dc.lft.to/lastmile_qr_scan", "ios": "https://dc.lft.to/lastmile_qr_scan"}, "type": "electric_scooter"}, {"is_reserved": 0, "is_disabled": 0, "fusion_lon": 0.0, "lat": 38.916036166666665, "name": "5ec7b79fbc72c4cec86d102bf4c48e95", "bike_id": "5ec7b79fbc72c4cec86d102bf4c48e95", "lon": -77.04905766666667, "fusion_lat": 0.0, "rental_uris": {"android": "https://dc.lft.to/lastmile_qr_scan", "ios": "https://dc.lft.to/lastmile_qr_scan"}, "type": "electric_scooter"}, {"is_reserved": 0, "is_disabled": 0, "fusion_lon": 0.0, "lat": 38.9179935, "name": "a74d3b00ef6072e26ccf16be42d582bb", "bike_id": "a74d3b00ef6072e26ccf16be42d582bb", "lon": -77.040211, "fusion_lat": 0.0, "rental_uris": {"android": "https://dc.lft.to/lastmile_qr_scan", "ios": "https://dc.lft.to/lastmile_qr_scan"}, "type": "electric_scooter"}, {"is_reserved": 0, "is_disabled": 0, "fusion_lon": 0.0, "lat": 38.93320333333333, "name": "365fe1c9aadcd140502af503c3499ebc", "bike_id": "365fe1c9aadcd140502af503c3499ebc", "lon": -77.0318865, "fusion_lat": 0.0, "rental_uris": {"android": "https://dc.lft.to/lastmile_qr_scan", "ios": "https://dc.lft.to/lastmile_qr_scan"}, "type": "electric_scooter"},