{"data": {"bikes": [{"name": "a481dbd3d1c4fd48afb863e10c9288df", "type": "electric_scooter", "lat": 38.91804033333333, "is_reserved": 0, "lon": -77.03562916666667, "fusion_lon": 0.0, "is_disabled": 0, "fusion_lat": 0.0, "bike_id": "a481dbd3d1c4fd48afb863e10c9288df", "rental_uris": {"ios": "https://dc.lft.to/lastmile_qr_scan", "android": "https://dc.lft.to/lastmile_qr_scan"}}, {"name": "05ac71fae53099e76e19b2a8148698ac", "type": "electric_scooter", "lat": 38.896847666666666, "is_reserved": 0, "lon": -76.996252, "fusion_lon": 0.0, "is_disabled": 0, "fusion_lat": 0.0, "bike_id": "05ac71fae53099e76e19b2a8148698ac", "rental_uris": {"ios": "https://dc.lft.to/lastmile_qr_scan", "android": "https://dc.lft.to/lastmile_qr_scan"}}, {"name": "266052ffeab36ccfbf0f33c527fdd44f", "type": "electric_scooter", "lat": 38.86215283333333, "is_reserved": 0, "lon": -76.99471333333334, "fusion_lon": 0.0, "is_disabled": 0, "fusion_lat": 0.0, "bike_id": "266052ffeab36ccfbf0f33c527fdd44f", "rental_uris": {"ios": "https://dc.lft.to/lastmile_qr_scan", "android": "https://dc.lft.to/lastmile_qr_scan"}}, {"name": "0bea44f8edf94cb3ddb1ef68a4911dec", "type": "electric_scooter", "lat": 38.8910145, "is_reserved": 0, "lon": -76.98703683333333, "fusion_lon": 0.0, "is_disabled": 0, "fusion_lat": 0.0, "bike_id": "0bea44f8edf94cb3ddb1ef68a4911dec", "rental_uris": {"ios": "https://dc.lft.to/lastmile_qr_scan", "android": "https://dc.lft.to/lastmile_qr_scan"}}, {"name": "159210c336983bca61c1e6d8aef363a2", "type": "electric_scooter", "lat": 38.91570016666667, "is_reserved": 0, "lon": -77.04626733333333, "fusion_lon": 0.0, "is_disabled": 0, "fusion_lat": 0.0, "bike_id": "159210c336983bca61c1e6d8aef363a2", "rental_uris": {"ios": "https://dc.lft.to/lastmile_qr_scan", "android": "https://dc.lft.to/lastmile_qr_scan"}}, {"name": "c6ed26a1f142a6abaf7ceb05e1a6767b", "type": "electric_bike", "lat": 38.8708255, "is_reserved": 0, "lon": -77.012029, "fusion_lon": 0.0, "is_disabled": 0, "fusion_lat": 0.0, "bike_id": "c6ed26a1f142a6abaf7ceb05e1a6767b", "rental_uris": {"ios": "https://dc.lft.to/lastmile_qr_scan", "android": "https://dc.lft.to/lastmile_qr_scan"}}, {"name": "b49a6613370137a6d9790b5855a0306c", "type": "electric_scooter", "lat": 38.902818, "is_reserved": 0, "lon": -77.03669066666667, "fusion_lon": 0.0, "is_disabled": 0, "fusion_lat": 0.0, "bike_id": "b49a6613370137a6d9790b5855a0306c", "rental_uris": {"ios": "https://dc.lft.to/lastmile_qr_scan", "android": "https://dc.lft.to/lastmile_qr_scan"}}, {"name": "b2fe64645e9ac7119bea41dc0879839b", "type": "electric_scooter", "lat": 38.87472833333333, "is_reserved": 0, "lon": -77.01867383333334, "fusion_lon": 0.0, "is_disabled": 0, "fusion_lat": 0.0, "bike_id": "b2fe64645e9ac7119bea41dc0879839b", "rental_uris": {"ios": "https://dc.lft.to/lastmile_qr_scan", "android": "https://dc.lft.to/lastmile_qr_scan"}}, {"name": "5c86efaa716b04b9cc1ea4a58d6f00ed", "type": "electric_scooter", "lat": 38.904862666666666, "is_reserved": 0, "lon": -76.98429066666667, "fusion_lon": 0.0, "is_disabled": 0, "fusion_lat": 0.0, "bike_id": "5c86efaa716b04b9cc1ea4a58d6f00ed", "rental_uris": {"ios": "https://dc.lft.to/lastmile_qr_scan", "android": "https://dc.lft.to/lastmile_qr_scan"}}, {"name": "af92236dc6ea8401d1a9f6e646ad00c1", "type": "electric_scooter", "lat": 38.932883, "is_reserved": 0, "lon": -77.03979416666667, "fusion_lon": 0.0, "is_disabled": 0, "fusion_lat": 0.0, "bike_id": "af92236dc6ea8401d1a9f6e646ad00c1", "rental_uris": {"ios": "https://dc.lft.to/lastmile_qr_scan", "android": "https://dc.lft.to/lastmile_qr_scan"}}, {"name": "e7d28761f623d0c7c0069eb25509d889", "type": "electric_scooter", "lat": 38.876286, "is_reserved": 0, "lon": -76.96526983333334, "fusion_lon": 0.0, "is_disabled": 0, "fusion_lat": 0.0, "bike_id": "e7d28761f623d0c7c0069eb25509d889", "rental_uris": {"ios": "https://dc.lft.to/lastmile_qr_scan", "android": "https://dc.lft.to/lastmile_qr_scan"}}, {"name": "f232bbbfd69d60796b984f0133ac07b9", "type": "electric_scooter", "lat": 38.892343833333335, "is_reserved": 0, "lon": -77.01532833333333, "fusion_lon": 0.0, "is_disabled": 0, "fusion_lat": 0.0, "bike_id": "f232bbbfd69d60796b984f0133ac07b9", "rental_uris": {"ios": "https://dc.lft.to/lastmile_qr_scan", "android": "https://dc.lft.to/lastmile_qr_scan"}}, {"name": "4cbc9625740aaba46b4b1c30870439a1", "type": "electric_scooter", "lat": 38.927682, "is_reserved": 0, "lon": -77.07307333333334, "fusion_lon": 0.0, "is_disabled": 0, "fusion_lat": 0.0, "bike_id": "4cbc9625740aaba46b4b1c30870439a1", "rental_uris": {"ios": "https://dc.lft.to/lastmile_qr_scan", "android": "https://dc.lft.to/lastmile_qr_scan"}}, {"name": "0e5a90c78fa812afbc9bb6cb4965088e", "type": "electric_scooter", "lat": 38.89526166666667, "is_reserved": 0, "lon": -77.003411, "fusion_lon": 0.0, "is_disabled": 0, "fusion_lat": 0.0, "bike_id": "0e5a90c78fa812afbc9bb6cb4965088e", "rental_uris": {"ios": "https://dc.lft.to/lastmile_qr_scan", "android": "https://dc.lft.to/lastmile_qr_scan"}}, {"name": "bf8780c7f1d4e089ee69cacc9974dab3", "type": "electric_scooter", "lat": 38.897409833333334, "is_reserved": 0, "lon": -76.9384205, "fusion_lon": 0.0, "is_disabled": 0, "fusion_lat": 0.0, "bike_id": "bf8780c7f1d4e089ee69cacc9974dab3", "rental_uris": {"ios": "https://dc.lft.to/lastmile_qr_scan", "android": "https://dc.lft.to/lastmile_qr_scan"}}, {"name": "7c70f3f47dfca5294877372f513daec8", "type": "electric_scooter", "lat": 38.89619866666666, "is_reserved": 0, "lon": -77.04453066666666, "fusion_lon": 0.0, "is_disabled": 0, "fusion_lat": 0.0, "bike_id": "7c70f3f47dfca5294877372f513daec8", "rental_uris": {"ios": "https://dc.lft.to/lastmile_qr_scan", "android": "https://dc.lft.to/lastmile_qr_scan"}}, {"name": "ca2fed1605036ae9446fe2f747bb47a4", "type": "electric_bike", "lat": 38.83827516666667, "is_reserved": 0, "lon": -76.996812, "fusion_lon": 0.0, "is_disabled": 0, "fusion_lat": 0.0, "bike_id": "ca2fed1605036ae9446fe2f747bb47a4", "rental_uris": {"ios": "https://dc.lft.to/lastmile_qr_scan", "android": "https://dc.lft.to/lastmile_qr_scan"}}, {"name": "04b92a12273f320d29b10322f42c3e2e", "type": "electric_scooter", "lat": 38.88686, "is_reserved": 0, "lon": -76.95762416666666, "fusion_lon": 0.0, "is_disabled": 0, "fusion_lat": 0.0, "bike_id": "04b92a12273f320d29b10322f42c3e2e", "rental_uris": {"ios": "https://dc.lft.to/lastmile_qr_scan", "android": "https://dc.lft.to/lastmile_qr_scan"}}, {"name": "df50f4138ba989b94f97470332579073", "type": "electric_scooter", "lat": 38.92860066666667, "is_reserved": 0, "lon": -77.0137515, "fusion_lon": 0.0, "is_disabled": 0, "fusion_lat": 0.0, "bike_id": "df50f4138ba989b94f97470332579073", "rental_uris": {"ios": "https://dc.lft.to/lastmile_qr_scan", "android": "https://dc.lft.to/lastmile_qr_scan"}}, {"name": "32c2521a14c4a5e722fa996b92ab5876", "type": "electric_bike", "lat": 38.8381195, "is_reserved": 0, "lon": -77.09523983333334, "fusion_lon": 0.0, "is_disabled": 0, "fusion_lat": 0.0, "bike_id": "32c2521a14c4a5e722fa996b92ab5876", "rental_uris": {"ios": "https://dc.lft.to/lastmile_qr_scan", "android": "https://dc.lft.to/lastmile_qr_scan"}}, {"name": "a6218b335208b5a56bfac271d52e893f", "type": "electric_scooter", "lat": 38.9049665, "is_reserved": 0, "lon": -77.02812533333334, "fusion_lon": 0.0, "is_disabled": 0, "fusion_lat": 0.0, "bike_id": "a6218b335208b5a56bfac271d52e893f", "rental_uris": {"ios": "https://dc.lft.to/lastmile_qr_scan", "android": "https://dc.lft.to/lastmile_qr_scan"}}, {"name": "ff11faed1870a4758961e997ec3bb570", "type": "electric_scooter", "lat": 38.933418, "is_reserved": 0, "lon": -77.03281266666667, "fusion_lon": 0.0, "is_disabled": 0, "fusion_lat": 0.0, "bike_id": "ff11faed1870a4758961e997ec3bb570", "rental_uris": {"ios": "https://dc.lft.to/lastmile_qr_scan", "android": "https://dc.lft.to/lastmile_qr_scan"}}, {"name": "1b1b5fdb0dd8f41f5c12f7fd540fe9b0", "type": "electric_scooter", "lat": 38.865202333333336, "is_reserved": 0, "lon": -76.99032483333333, "fusion_lon": 0.0, "is_disabled": 0, "fusion_lat": 0.0, "bike_id": "1b1b5fdb0dd8f41f5c12f7fd540fe9b0", "rental_uris": {"ios": "https://dc.lft.to/lastmile_qr_scan", "android": "https://dc.lft.to/lastmile_qr_scan"}}, {"name": "687fe521592ab05c5cee7a47b1cd797b", "type": "electric_scooter", "lat": 38.952807166666666, "is_reserved": 0, "lon": -77.00789366666666, "fusion_lon": 0.0, "is_disabled": 0, "fusion_lat": 0.0, "bike_id": "687fe521592ab05c5cee7a47b1cd797b", "rental_uris": {"ios": "https://dc.lft.to/lastmile_qr_scan", "android": "https://dc.lft.to/lastmile_qr_scan"}}, {"name": "9dbbc8c0c3085bb4a8533c69b6087a16", "type": "electric_scooter", "lat": 38.895514666666664, "is_reserved": 0, "lon": -77.04164733333333, "fusion_lon": 0.0, "is_disabled": 0, "fusion_lat": 0.0, "bike_id": "9dbbc8c0c3085bb4a8533c69b6087a16", "rental_uris": {"ios": "https://dc.lft.to/lastmile_qr_scan", "android": "https://dc.lft.to/lastmile_qr_scan"}}, {"name": "a766f592c7ccf7f923f6d14dcb93c172", "type": "electric_scooter", "lat": 38.939501, "is_reserved": 0, "lon": -77.03277866666667, "fusion_lon": 0.0, "is_disabled": 0, "fusion_lat": 0.0, "bike_id": "a766f592c7ccf7f923f6d14dcb93c172", "rental_uris": {"ios": "https://dc.lft.to/lastmile_qr_scan", "android": "https://dc.lft.to/lastmile_qr_scan"}}, {"name": "0a7e22a9b25cb38e06bb89fcc9361055", "type": "electric_scooter", "lat": 38.922624666666664, "is_reserved": 0, "lon": -77.04127533333333, "fusion_lon": 0.0, "is_disabled": 0, "fusion_lat": 0.0, "bike_id": "0a7e22a9b25cb38e06bb89fcc9361055", "rental_uris": {"ios": "https://dc.lft.to/lastmile_qr_scan", "android": "https://dc.lft.to/lastmile_qr_scan"}}, {"name": "1226428227b8479c46b45da19307957c", "type": "electric_bike", "lat": 38.87240283333333, "is_reserved": 0, "lon": -77.01162816666667, "fusion_lon": 0.0, "is_disabled": 0, "fusion_lat": 0.0, "bike_id": "1226428227b8479c46b45da19307957c", "rental_uris": {"ios": "https://dc.lft.to/lastmile_qr_scan", "android": "https://dc.lft.to/lastmile_qr_scan"}}, {"name": "646a6e6e441d75ccf319fcddac95035d", "type": "electric_scooter", "lat": 38.9208525, "is_reserved": 0, "lon": -76.9990695, "fusion_lon": 0.0, "is_disabled": 0, "fusion_lat": 0.0, "bike_id": "646a6e6e441d75ccf319fcddac95035d", "rental_uris": {"ios": "https://dc.lft.to/lastmile_qr_scan", "android": "https://dc.lft.to/lastmile_qr_scan"}}, {"name": "ac4ee8e0fa86fec1d9a919905dc0a6e0", "type": "electric_scooter", "lat": 38.8898765, "is_reserved": 0, "lon": -77.00336283333333, "fusion_lon": 0.0, "is_disabled": 0, "fusion_lat": 0.0, "bike_id": "ac4ee8e0fa86fec1d9a919905dc0a6e0", "rental_uris": {"ios": "https://dc.lft.to/lastmile_qr_scan", "android": "https://dc.lft.to/lastmile_qr_scan"}}, {"name": "3352ecece629570b2965ca961cecd458", "type": "electric_scooter", "lat": 38.92047983333333, "is_reserved": 0, "lon": -76.99821383333334, "fusion_lon": 0.0, "is_disabled": 0, "fusion_lat": 0.0, "bike_id": "3352ecece629570b2965ca961cecd458", "rental_uris": {"ios": "https://dc.lft.to/lastmile_qr_scan", "android": "https://dc.lft.to/lastmile_qr_scan"}}, {"name": "757979aee605700d289ba40b8ef2d518", "type": "electric_scooter", "lat": 38.91805, "is_reserved": 0, "lon": -77.03437566666666, "fusion_lon": 0.0, "is_disabled": 0, "fusion_lat": 0.0, "bike_id": "757979aee605700d289ba40b8ef2d518", "rental_uris": {"ios": "https://dc.lft.to/lastmile_qr_scan", "android": "https://dc.lft.to/lastmile_qr_scan"}}, {"name": "18dda137cf1d2c1fcb7dc75910098321", "type": "electric_bike", "lat": 38.8731165, "is_reserved": 0, "lon": -77.010942, "fusion_lon": 0.0, "is_disabled": 0, "fusion_lat": 0.0, "bike_id": "18dda137cf1d2c1fcb7dc75910098321", "rental_uris": {"ios": "https://dc.lft.to/lastmile_qr_scan", "android": "https://dc.lft.to/lastmile_qr_scan"}}, {"name": "e4c12631cbdd1da8fe5106eeec697ee5", "type": "electric_scooter", "lat": 38.92952666666667, "is_reserved": 0, "lon": -77.03466616666667, "fusion_lon": 0.0, "is_disabled": 0, "fusion_lat": 0.0, "bike_id": "e4c12631cbdd1da8fe5106eeec697ee5", "rental_uris": {"ios": "https://dc.lft.to/lastmile_qr_scan", "android": "https://dc.lft.to/lastmile_qr_scan"}}, {"name": "b0e8fd5a017724fc045fb9ff513468f0", "type": "electric_bike", "lat": 38.990652, "is_reserved": 0, "lon": -77.10029016666667, "fusion_lon": 0.0, "is_disabled": 0, "fusion_lat": 0.0, "bike_id": "b0e8fd5a017724fc045fb9ff513468f0", "rental_uris": {"ios": "https://dc.lft.to/lastmile_qr_scan", "android": "https://dc.lft.to/lastmile_qr_scan"}}, {"name": "05697319ef41325cc8d5e9305fd20bba", "type": "electric_scooter", "lat": 38.94045933333334, "is_reserved": 0, "lon": -77.02978733333333, "fusion_lon": 0.0, "is_disabled": 0, "fusion_lat": 0.0, "bike_id": "05697319ef41325cc8d5e9305fd20bba", "rental_uris": {"ios": "https://dc.lft.to/lastmile_qr_scan", "android": "https://dc.lft.to/lastmile_qr_scan"}}, {"name": "ccc70f573b1c4e8b49a6965dec40421f", "type": "electric_scooter", "lat": 38.85321316666667, "is_reserved": 0, "lon": -76.98002083333333, "fusion_lon": 0.0, "is_disabled": 0, "fusion_lat": 0.0, "bike_id": "ccc70f573b1c4e8b49a6965dec40421f", "rental_uris": {"ios": "https://dc.lft.to/lastmile_qr_scan", "android": "https://dc.lft.to/lastmile_qr_scan"}}, {"name": "f971355a28c6a9e813bfc79b81d4634b", "type": "electric_scooter", "lat": 38.90169483333333, "is_reserved": 0, "lon": -77.04650583333333, "fusion_lon": 0.0, "is_disabled": 0, "fusion_lat": 0.0, "bike_id": "f971355a28c6a9e813bfc79b81d4634b", "rental_uris": {"ios": "https://dc.lft.to/lastmile_qr_scan", "android": "https://dc.lft.to/lastmile_qr_scan"}}, {"name": "0a48ce113a9fce4ffb5127e7c5f289ac", "type": "electric_bike", "lat": 38.86278766666667, "is_reserved": 0, "lon": -77.06351183333334, "fusion_lon": 0.0, "is_disabled": 0, "fusion_lat": 0.0, "bike_id": "0a48ce113a9fce4ffb5127e7c5f289ac", "rental_uris": {"ios": "https://dc.lft.to/lastmile_qr_scan", "android": "https://dc.lft.to/lastmile_qr_scan"}}, {"name": "553801ab5a4a5cb8f94aacc3ef634cb7", "type": "electric_scooter", "lat": 38.9251205, "is_reserved": 0, "lon": -77.01933783333334, "fusion_lon": 0.0, "is_disabled": 0, "fusion_lat": 0.0, "bike_id": "553801ab5a4a5cb8f94aacc3ef634cb7", "rental_uris": {"ios": "https://dc.lft.to/lastmile_qr_scan", "android": "https://dc.lft.to/lastmile_qr_scan"}}, {"name": "d228e7023a1aee61aa0040320a30c596", "type": "electric_scooter", "lat": 38.86381883333333, "is_reserved": 0, "lon": -76.9905755, "fusion_lon": 0.0, "is_disabled": 0, "fusion_lat": 0.0, "bike_id": "d228e7023a1aee61aa0040320a30c596", "rental_uris": {"ios": "https://dc.lft.to/lastmile_qr_scan", "android": "https://dc.lft.to/lastmile_qr_scan"}}, {"name": "c93c1bdc6a78d39190c23ac04a259ee7", "type": "electric_scooter", "lat": 38.89389383333334, "is_reserved": 0, "lon": -77.02989216666667, "fusion_lon": 0.0, "is_disabled": 0, "fusion_lat": 0.0, "bike_id": "c93c1bdc6a78d39190c23ac04a259ee7", "rental_uris": {"ios": "https://dc.lft.to/lastmile_qr_scan", "android": "https://dc.lft.to/lastmile_qr_scan"}}, {"name": "43f916babffa96f2c3c35b010922670c", "type": "electric_scooter", "lat": 38.88724283333333, "is_reserved": 0, "lon": -77.02578816666667, "fusion_lon": 0.0, "is_disabled": 0, "fusion_lat": 0.0, "bike_id": "43f916babffa96f2c3c35b010922670c", "rental_uris": {"ios": "https://dc.lft.to/lastmile_qr_scan", "android": "https://dc.lft.to/lastmile_qr_scan"}}, {"name": "ba0e912de240ca86185f32cc247ec06a", "type": "electric_scooter", "lat": 38.86524766666667, "is_reserved": 0, "lon": -76.9903335, "fusion_lon": 0.0, "is_disabled": 0, "fusion_lat": 0.0, "bike_id": "ba0e912de240ca86185f32cc247ec06a", "rental_uris": {"ios": "https://dc.lft.to/lastmile_qr_scan", "android": "https://dc.lft.to/lastmile_qr_scan"}}, {"name": "aed0231c49eeeaad84e9416bc0fa53e5", "type": "electric_scooter", "lat": 38.934318, "is_reserved": 0, "lon": -77.04007416666667, "fusion_lon": 0.0, "is_disabled": 0, "fusion_lat": 0.0, "bike_id": "aed0231c49eeeaad84e9416bc0fa53e5", "rental_uris": {"ios": "https://dc.lft.to/lastmile_qr_scan", "android": "https://dc.lft.to/lastmile_qr_scan"}}, {"name": "2b04a1885ffb97f94f3ea4e431f048e2", "type": "electric_bike", "lat": 38.8872335, "is_reserved": 0, "lon": -77.09745616666666, "fusion_lon": 0.0, "is_disabled": 0, "fusion_lat": 0.0, "bike_id": "2b04a1885ffb97f94f3ea4e431f048e2", "rental_uris": {"ios": "https://dc.lft.to/lastmile_qr_scan", "android": "https://dc.lft.to/lastmile_qr_scan"}}, {"name": "57c8f67e1fa4a807dc749ff783340804", "type": "electric_scooter", "lat": 38.921174, "is_reserved": 0, "lon": -77.03169716666666, "fusion_lon": 0.0, "is_disabled": 0, "fusion_lat": 0.0, "bike_id": "57c8f67e1fa4a807dc749ff783340804", "rental_uris": {"ios": "https://dc.lft.to/lastmile_qr_scan", "android": "https://dc.lft.to/lastmile_qr_scan"}}, {"name": "c1781f29317810b7d3b4c6fa71720855", "type": "electric_scooter", "lat": 38.90115983333333, "is_reserved": 0, "lon": -77.03185816666667, "fusion_lon": 0.0, "is_disabled": 0, "fusion_lat": 0.0, "bike_id": "c1781f29317810b7d3b4c6fa71720855", "rental_uris": {"ios": "https://dc.lft.to/lastmile_qr_scan", "android": "https://dc.lft.to/lastmile_qr_scan"}}, {"name": "91b76e6c866e1383436af36d3ab5c573", "type": "electric_bike", "lat": 38.91106716666667, "is_reserved": 0, "lon": -77.002163, "fusion_lon": 0.0, "is_disabled": 0, "fusion_lat": 0.0, "bike_id": "91b76e6c866e1383436af36d3ab5c573", "rental_uris": {"ios": "https://dc.lft.to/lastmile_qr_scan", "android": "https://dc.lft.to/lastmile_qr_scan"}}, {"name": "18ff7baa170cf96ab073a2a47aff812a", "type": "electric_scooter", "lat": 38.866595833333335, "is_reserved": 0, "lon": -76.98882383333333, "fusion_lon": 0.0, "is_disabled": 0, "fusion_lat": 0.0, "bike_id": "18ff7baa170cf96ab073a2a47aff812a", "rental_uris": {"ios": "https://dc.lft.to/lastmile_qr_scan", "android": "https://dc.lft.to/lastmile_qr_scan"}}, {"name": "7455854569c7d28fd700020207ead621", "type": "electric_scooter", "lat": 38.9088855, "is_reserved": 0, "lon": -77.03837316666667, "fusion_lon": 0.0, "is_disabled": 0, "fusion_lat": 0.0, "bike_id": "7455854569c7d28fd700020207ead621", "rental_uris": {"ios": "https://dc.lft.to/lastmile_qr_scan", "android": "https://dc.lft.to/lastmile_qr_scan"}}, {"name": "12a084a9c81cc05fe807e422a002cf6f", "type": "electric_scooter", "lat": 38.89730316666667, "is_reserved": 0, "lon": -77.0269725, "fusion_lon": 0.0, "is_disabled": 0, "fusion_lat": 0.0, "bike_id": "12a084a9c81cc05fe807e422a002cf6f", "rental_uris": {"ios": "https://dc.lft.to/lastmile_qr_scan", "android": "https://dc.lft.to/lastmile_qr_scan"}}, {"name": "c0804e28208a3b1ab7eaacb70ad2c5a1", "type": "electric_bike", "lat": 39.0305195, "is_reserved": 0, "lon": -77.09484883333333, "fusion_lon": 0.0, "is_disabled": 0, "fusion_lat": 0.0, "bike_id": "c0804e28208a3b1ab7eaacb70ad2c5a1", "rental_uris": {"ios": "https://dc.lft.to/lastmile_qr_scan", "android": "https://dc.lft.to/lastmile_qr_scan"}}, {"name": "b069ca772f73e4331c1e556e9a41af3c", "type": "electric_scooter", "lat": 38.88426, "is_reserved": 0, "lon": -76.99594883333333, "fusion_lon": 0.0, "is_disabled": 0, "fusion_lat": 0.0, "bike_id": "b069ca772f73e4331c1e556e9a41af3c", "rental_uris": {"ios": "https://dc.lft.to/lastmile_qr_scan", "android": "https://dc.lft.to/lastmile_qr_scan"}}, {"name": "b010f35ae3cd7dc5db9c5f7f5929605c", "type": "electric_scooter", "lat": 38.90559866666667, "is_reserved": 0, "lon": -77.040033, "fusion_lon": 0.0, "is_disabled": 0, "fusion_lat": 0.0, "bike_id": "b010f35ae3cd7dc5db9c5f7f5929605c", "rental_uris": {"ios": "https://dc.lft.to/lastmile_qr_scan", "android": "https://dc.lft.to/lastmile_qr_scan"}}, {"name": "2ff5f691b6f28ada8fec123dd31e605e", "type": "electric_scooter", "lat": 38.8919815, "is_reserved": 0, "lon": -77.015517, "fusion_lon": 0.0, "is_disabled": 0, "fusion_lat": 0.0, "bike_id": "2ff5f691b6f28ada8fec123dd31e605e", "rental_uris": {"ios": "https://dc.lft.to/lastmile_qr_scan", "android": "https://dc.lft.to/lastmile_qr_scan"}}, {"name": "3a28eba95cbc1f7158f71739e8968a0f", "type": "electric_scooter", "lat": 38.92843966666667, "is_reserved": 0, "lon": -77.054209, "fusion_lon": 0.0, "is_disabled": 0, "fusion_lat": 0.0, "bike_id": "3a28eba95cbc1f7158f71739e8968a0f", "rental_uris": {"ios": "https://dc.lft.to/lastmile_qr_scan", "android": "https://dc.lft.to/lastmile_qr_scan"}}, {"name": "a495642ea60d759124187ef76b258c51", "type": "electric_scooter", "lat": 38.891274333333335, "is_reserved": 0, "lon": -77.00334983333333, "fusion_lon": 0.0, "is_disabled": 0, "fusion_lat": 0.0, "bike_id": "a495642ea60d759124187ef76b258c51", "rental_uris": {"ios": "https://dc.lft.to/lastmile_qr_scan", "android": "https://dc.lft.to/lastmile_qr_scan"}}, {"name": "46596c3394a03c8e29741eb414bfcf27", "type": "electric_scooter", "lat": 38.908275, "is_reserved": 0, "lon": -76.99689166666667, "fusion_lon": 0.0, "is_disabled": 0, "fusion_lat": 0.0, "bike_id": "46596c3394a03c8e29741eb414bfcf27", "rental_uris": {"ios": "https://dc.lft.to/lastmile_qr_scan", "android": "https://dc.lft.to/lastmile_qr_scan"}}, {"name": "200ebec716343bf07e043a4a3368fd5e", "type": "electric_scooter", "lat": 38.87999766666667, "is_reserved": 0, "lon": -76.98545733333333, "fusion_lon": 0.0, "is_disabled": 0, "fusion_lat": 0.0, "bike_id": "200ebec716343bf07e043a4a3368fd5e", "rental_uris": {"ios": "https://dc.lft.to/lastmile_qr_scan", "android": "https://dc.lft.to/lastmile_qr_scan"}}, {"name": "857e448a66fc7cda7283f9d23a87ef5b", "type": "electric_scooter", "lat": 38.89555883333333, "is_reserved": 0, "lon": -77.02570116666666, "fusion_lon": 0.0, "is_disabled": 0, "fusion_lat": 0.0, "bike_id": "857e448a66fc7cda7283f9d23a87ef5b", "rental_uris": {"ios": "https://dc.lft.to/lastmile_qr_scan", "android": "https://dc.lft.to/lastmile_qr_scan"}}, {"name": "a432653e77bd7ede55457681ca30725f", "type": "electric_scooter", "lat": 38.902774666666666, "is_reserved": 0, "lon": -77.03335033333333, "fusion_lon": 0.0, "is_disabled": 0, "fusion_lat": 0.0, "bike_id": "a432653e77bd7ede55457681ca30725f", "rental_uris": {"ios": "https://dc.lft.to/lastmile_qr_scan", "android": "https://dc.lft.to/lastmile_qr_scan"}}, {"name": "aa8104589e3ada35ea689d1f5270ed0d", "type": "electric_scooter", "lat": 38.91940683333333, "is_reserved": 0, "lon": -77.0321505, "fusion_lon": 0.0, "is_disabled": 0, "fusion_lat": 0.0, "bike_id": "aa8104589e3ada35ea689d1f5270ed0d", "rental_uris": {"ios": "https://dc.lft.to/lastmile_qr_scan", "android": "https://dc.lft.to/lastmile_qr_scan"}}, {"name": "611dad4cb497f08e012846ddbfd04f85", "type": "electric_scooter", "lat": 38.89528683333333, "is_reserved": 0, "lon": -77.03350133333333, "fusion_lon": 0.0, "is_disabled": 0, "fusion_lat": 0.0, "bike_id": "611dad4cb497f08e012846ddbfd04f85", "rental_uris": {"ios": "https://dc.lft.to/lastmile_qr_scan", "android": "https://dc.lft.to/lastmile_qr_scan"}}, {"name": "67052865ef854d18d6902b7f1c0f82ba", "type": "electric_scooter", "lat": 38.89995783333333, "is_reserved": 0, "lon": -76.99499383333334, "fusion_lon": 0.0, "is_disabled": 0, "fusion_lat": 0.0, "bike_id": "67052865ef854d18d6902b7f1c0f82ba", "rental_uris": {"ios": "https://dc.lft.to/lastmile_qr_scan", "android": "https://dc.lft.to/lastmile_qr_scan"}}, {"name": "be9c4b5e32ef361bdb8095b0472f1066", "type": "electric_scooter", "lat": 38.90144983333333, "is_reserved": 0, "lon": -77.03333116666667, "fusion_lon": 0.0, "is_disabled": 0, "fusion_lat": 0.0, "bike_id": "be9c4b5e32ef361bdb8095b0472f1066", "rental_uris": {"ios": "https://dc.lft.to/lastmile_qr_scan", "android": "https://dc.lft.to/lastmile_qr_scan"}}, {"name": "38a95ceb3de7b52ddf4f217a1dfa750b", "type": "electric_scooter", "lat": 38.92443766666667, "is_reserved": 0, "lon": -77.03369866666667, "fusion_lon": 0.0, "is_disabled": 0, "fusion_lat": 0.0, "bike_id": "38a95ceb3de7b52ddf4f217a1dfa750b", "rental_uris": {"ios": "https://dc.lft.to/lastmile_qr_scan", "android": "https://dc.lft.to/lastmile_qr_scan"}}, {"name": "fe881dd635c52315a05950b7dad2f9a0", "type": "electric_scooter", "lat": 38.864109, "is_reserved": 0, "lon": -76.98045166666667, "fusion_lon": 0.0, "is_disabled": 0, "fusion_lat": 0.0, "bike_id": "fe881dd635c52315a05950b7dad2f9a0", "rental_uris": {"ios": "https://dc.lft.to/lastmile_qr_scan", "android": "https://dc.lft.to/lastmile_qr_scan"}}, {"name": "36636c847bf40c4af87370697c29bd55", "type": "electric_scooter", "lat": 38.91405433333333, "is_reserved": 0, "lon": -77.04570683333333, "fusion_lon": 0.0, "is_disabled": 0, "fusion_lat": 0.0, "bike_id": "36636c847bf40c4af87370697c29bd55", "rental_uris": {"ios": "https://dc.lft.to/lastmile_qr_scan", "android": "https://dc.lft.to/lastmile_qr_scan"}}, {"name": "f46cd447ce0a2a0f8e2a49597f4892a9", "type": "electric_scooter", "lat": 38.924474833333335, "is_reserved": 0, "lon": -77.02034733333333, "fusion_lon": 0.0, "is_disabled": 0, "fusion_lat": 0.0, "bike_id": "f46cd447ce0a2a0f8e2a49597f4892a9", "rental_uris": {"ios": "https://dc.lft.to/lastmile_qr_scan", "android": "https://dc.lft.to/lastmile_qr_scan"}}, {"name": "15cc94f611ed882ca6d1d46f19a46964", "type": "electric_scooter", "lat": 38.85894116666667, "is_reserved": 0, "lon": -76.96699766666667, "fusion_lon": 0.0, "is_disabled": 0, "fusion_lat": 0.0, "bike_id": "15cc94f611ed882ca6d1d46f19a46964", "rental_uris": {"ios": "https://dc.lft.to/lastmile_qr_scan", "android": "https://dc.lft.to/lastmile_qr_scan"}}, {"name": "e0dad9ee90fdfed4d42aa49bce6d22e0", "type": "electric_scooter", "lat": 38.905740333333334, "is_reserved": 0, "lon": -77.03849783333334, "fusion_lon": 0.0, "is_disabled": 0, "fusion_lat": 0.0, "bike_id": "e0dad9ee90fdfed4d42aa49bce6d22e0", "rental_uris": {"ios": "https://dc.lft.to/lastmile_qr_scan", "android": "https://dc.lft.to/lastmile_qr_scan"}}, {"name": "848b1b3f8b881e62ec477a6a634261b5", "type": "electric_scooter", "lat": 38.9723625, "is_reserved": 0, "lon": -77.02713216666666, "fusion_lon": 0.0, "is_disabled": 0, "fusion_lat": 0.0, "bike_id": "848b1b3f8b881e62ec477a6a634261b5", "rental_uris": {"ios": "https://dc.lft.to/lastmile_qr_scan", "android": "https://dc.lft.to/lastmile_qr_scan"}}, {"name": "80bee484afff5b24684a84cbe0a5a43d", "type": "electric_scooter", "lat": 38.93200133333333, "is_reserved": 0, "lon": -77.03857716666667, "fusion_lon": 0.0, "is_disabled": 0, "fusion_lat": 0.0, "bike_id": "80bee484afff5b24684a84cbe0a5a43d", "rental_uris": {"ios": "https://dc.lft.to/lastmile_qr_scan", "android": "https://dc.lft.to/lastmile_qr_scan"}}, {"name": "4399e10feeba9f22bc6ecd2e1ca6ec68", "type": "electric_scooter", "lat": 38.90795933333333, "is_reserved": 0, "lon": -77.0486965, "fusion_lon": 0.0, "is_disabled": 0, "fusion_lat": 0.0, "bike_id": "4399e10feeba9f22bc6ecd2e1ca6ec68", "rental_uris": {"ios": "https://dc.lft.to/lastmile_qr_scan", "android": "https://dc.lft.to/lastmile_qr_scan"}}, {"name": "292472e856049ebeb09de48955955106", "type": "electric_scooter", "lat": 38.90957066666667, "is_reserved": 0, "lon": -77.0337655, "fusion_lon": 0.0, "is_disabled": 0, "fusion_lat": 0.0, "bike_id": "292472e856049ebeb09de48955955106", "rental_uris": {"ios": "https://dc.lft.to/lastmile_qr_scan", "android": "https://dc.lft.to/lastmile_qr_scan"}}, {"name": "7e6a4747f98c61afd88c2e7589881ca1", "type": "electric_scooter", "lat": 38.89399783333333, "is_reserved": 0, "lon": -76.94808216666667, "fusion_lon": 0.0, "is_disabled": 0, "fusion_lat": 0.0, "bike_id": "7e6a4747f98c61afd88c2e7589881ca1", "rental_uris": {"ios": "https://dc.lft.to/lastmile_qr_scan", "android": "https://dc.lft.to/lastmile_qr_scan"}}, {"name": "98e905d495dad7ca3154091949b713c8", "type": "electric_bike", "lat": 38.85155066666667, "is_reserved": 0, "lon": -77.1287885, "fusion_lon": 0.0, "is_disabled": 0, "fusion_lat": 0.0, "bike_id": "98e905d495dad7ca3154091949b713c8", "rental_uris": {"ios": "https://dc.lft.to/lastmile_qr_scan", "android": "https://dc.lft.to/lastmile_qr_scan"}}, {"name": "3d128b4b71e0776690e8395bd2bd84c6", "type": "electric_scooter", "lat": 38.930665833333336, "is_reserved": 0, "lon": -77.03945416666667, "fusion_lon": 0.0, "is_disabled": 0, "fusion_lat": 0.0, "bike_id": "3d128b4b71e0776690e8395bd2bd84c6", "rental_uris": {"ios": "https://dc.lft.to/lastmile_qr_scan", "android": "https://dc.lft.to/lastmile_qr_scan"}}, {"name": "ee313f7832cc6f9f3d030903d7f33e83", "type": "electric_scooter", "lat": 38.906526166666666, "is_reserved": 0, "lon": -77.04284183333333, "fusion_lon": 0.0, "is_disabled": 0, "fusion_lat": 0.0, "bike_id": "ee313f7832cc6f9f3d030903d7f33e83", "rental_uris": {"ios": "https://dc.lft.to/lastmile_qr_scan", "android": "https://dc.lft.to/lastmile_qr_scan"}}, {"name": "31b904a6113f81b3f76ab7fa085b3ff0", "type": "electric_scooter", "lat": 38.8947945, "is_reserved": 0, "lon": -76.98402533333334, "fusion_lon": 0.0, "is_disabled": 0, "fusion_lat": 0.0, "bike_id": "31b904a6113f81b3f76ab7fa085b3ff0", "rental_uris": {"ios": "https://dc.lft.to/lastmile_qr_scan", "android": "https://dc.lft.to/lastmile_qr_scan"}}, {"name": "bd062d64b38f3f52fd8647845cc4bffc", "type": "electric_scooter", "lat": 38.917195166666666, "is_reserved": 0, "lon": -77.03233916666667, "fusion_lon": 0.0, "is_disabled": 0, "fusion_lat": 0.0, "bike_id": "bd062d64b38f3f52fd8647845cc4bffc", "rental_uris": {"ios": "https://dc.lft.to/lastmile_qr_scan", "android": "https://dc.lft.to/lastmile_qr_scan"}}, {"name": "1453a2ab83ad71e81aaba475a018b98a", "type": "electric_scooter", "lat": 38.89800366666667, "is_reserved": 0, "lon": -77.02818366666666, "fusion_lon": 0.0, "is_disabled": 0, "fusion_lat": 0.0, "bike_id": "1453a2ab83ad71e81aaba475a018b98a", "rental_uris": {"ios": "https://dc.lft.to/lastmile_qr_scan", "android": "https://dc.lft.to/lastmile_qr_scan"}}, {"name": "a4ee7bec6aeb89d0101c5f6bc10e6ce7", "type": "electric_scooter", "lat": 38.90022033333333, "is_reserved": 0, "lon": -76.983013, "fusion_lon": 0.0, "is_disabled": 0, "fusion_lat": 0.0, "bike_id": "a4ee7bec6aeb89d0101c5f6bc10e6ce7", "rental_uris": {"ios": "https://dc.lft.to/lastmile_qr_scan", "android": "https://dc.lft.to/lastmile_qr_scan"}}, {"name": "80a654ff0efcdd6174204c2d1942eb8c", "type": "electric_scooter", "lat": 38.9431585, "is_reserved": 0, "lon": -77.059222, "fusion_lon": 0.0, "is_disabled": 0, "fusion_lat": 0.0, "bike_id": "80a654ff0efcdd6174204c2d1942eb8c", "rental_uris": {"ios": "https://dc.lft.to/lastmile_qr_scan", "android": "https://dc.lft.to/lastmile_qr_scan"}}, {"name": "790c7417e605b6c003fe27016db6ef19", "type": "electric_scooter", "lat": 38.957334333333336, "is_reserved": 0, "lon": -77.02401883333333, "fusion_lon": 0.0, "is_disabled": 0, "fusion_lat": 0.0, "bike_id": "790c7417e605b6c003fe27016db6ef19", "rental_uris": {"ios": "https://dc.lft.to/lastmile_qr_scan", "android": "https://dc.lft.to/lastmile_qr_scan"}}, {"name": "963cd4ebe350e7ecead7f9c6f6f1b445", "type": "electric_scooter", "lat": 38.86569983333333, "is_reserved": 0, "lon": -76.98953333333333, "fusion_lon": 0.0, "is_disabled": 0, "fusion_lat": 0.0, "bike_id": "963cd4ebe350e7ecead7f9c6f6f1b445", "rental_uris": {"ios": "https://dc.lft.to/lastmile_qr_scan", "android": "https://dc.lft.to/lastmile_qr_scan"}}, {"name": "8b9894f950647813a0e34121cea7f5fc", "type": "electric_scooter", "lat": 38.9032325, "is_reserved": 0, "lon": -77.0382545, "fusion_lon": 0.0, "is_disabled": 0, "fusion_lat": 0.0, "bike_id": "8b9894f950647813a0e34121cea7f5fc", "rental_uris": {"ios": "https://dc.lft.to/lastmile_qr_scan", "android": "https://dc.lft.to/lastmile_qr_scan"}}, {"name": "1e43c772bc4ff21f5631bf42b6e8c7d2", "type": "electric_scooter", "lat": 38.89411316666666, "is_reserved": 0, "lon": -77.02369016666667, "fusion_lon": 0.0, "is_disabled": 0, "fusion_lat": 0.0, "bike_id": "1e43c772bc4ff21f5631bf42b6e8c7d2", "rental_uris": {"ios": "https://dc.lft.to/lastmile_qr_scan", "android": "https://dc.lft.to/lastmile_qr_scan"}}, {"name": "046c3b40e75ca7837d8f28731b9f8b61", "type": "electric_scooter", "lat": 38.901210666666664, "is_reserved": 0, "lon": -77.04495116666666, "fusion_lon": 0.0, "is_disabled": 0, "fusion_lat": 0.0, "bike_id": "046c3b40e75ca7837d8f28731b9f8b61", "rental_uris": {"ios": "https://dc.lft.to/lastmile_qr_scan", "android": "https://dc.lft.to/lastmile_qr_scan"}}, {"name": "17e5298a793d975efe90b7e5c98cb02a", "type": "electric_scooter", "lat": 38.899185333333335, "is_reserved": 0, "lon": -76.93383266666666, "fusion_lon": 0.0, "is_disabled": 0, "fusion_lat": 0.0, "bike_id": "17e5298a793d975efe90b7e5c98cb02a", "rental_uris": {"ios": "https://dc.lft.to/lastmile_qr_scan", "android": "https://dc.lft.to/lastmile_qr_scan"}}, {"name": "f16fcd5e2e8802281772bcc0d6691889", "type": "electric_bike", "lat": 38.8983735, "is_reserved": 0, "lon": -77.00584616666667, "fusion_lon": 0.0, "is_disabled": 0, "fusion_lat": 0.0, "bike_id": "f16fcd5e2e8802281772bcc0d6691889", "rental_uris": {"ios": "https://dc.lft.to/lastmile_qr_scan", "android": "https://dc.lft.to/lastmile_qr_scan"}}, {"name": "28f1c4dd6a9556af232957328f9454ee", "type": "electric_scooter", "lat": 38.880164666666666, "is_reserved": 0, "lon": -77.02483066666667, "fusion_lon": 0.0, "is_disabled": 0, "fusion_lat": 0.0, "bike_id": "28f1c4dd6a9556af232957328f9454ee", "rental_uris": {"ios": "https://dc.lft.to/lastmile_qr_scan", "android": "https://dc.lft.to/lastmile_qr_scan"}}, {"name": "49532ff53d0e284a94c58060480b4073", "type": "electric_scooter", "lat": 38.93510766666667, "is_reserved": 0, "lon": -77.019983, "fusion_lon": 0.0, "is_disabled": 0, "fusion_lat": 0.0, "bike_id": "49532ff53d0e284a94c58060480b4073", "rental_uris": {"ios": "https://dc.lft.to/lastmile_qr_scan", "android": "https://dc.lft.to/lastmile_qr_scan"}}, {"name": "63126eb6b030e8aad23e97f2eacedbfa", "type": "electric_scooter", "lat": 38.883539166666665, "is_reserved": 0, "lon": -76.927971, "fusion_lon": 0.0, "is_disabled": 0, "fusion_lat": 0.0, "bike_id": "63126eb6b030e8aad23e97f2eacedbfa", "rental_uris": {"ios": "https://dc.lft.to/lastmile_qr_scan", "android": "https://dc.lft.to/lastmile_qr_scan"}}, {"name": "dc7c76d6d3723477f761a20e10a76c69", "type": "electric_scooter", "lat": 38.887530166666664, "is_reserved": 0, "lon": -76.97982516666667, "fusion_lon": 0.0, "is_disabled": 0, "fusion_lat": 0.0, "bike_id": "dc7c76d6d3723477f761a20e10a76c69", "rental_uris": {"ios": "https://dc.lft.to/lastmile_qr_scan", "android": "https://dc.lft.to/lastmile_qr_scan"}}, {"name": "afb3f87cba9a928014e5381b52c7cd0e", "type": "electric_scooter", "lat": 38.905818333333336, "is_reserved": 0, "lon": -77.04693466666667, "fusion_lon": 0.0, "is_disabled": 0, "fusion_lat": 0.0, "bike_id": "afb3f87cba9a928014e5381b52c7cd0e", "rental_uris": {"ios": "https://dc.lft.to/lastmile_qr_scan", "android": "https://dc.lft.to/lastmile_qr_scan"}}, {"name": "d87d2ee2497bdd996dc87d502c46086e", "type": "electric_scooter", "lat": 38.899001, "is_reserved": 0, "lon": -77.03331316666667, "fusion_lon": 0.0, "is_disabled": 0, "fusion_lat": 0.0, "bike_id": "d87d2ee2497bdd996dc87d502c46086e", "rental_uris": {"ios": "https://dc.lft.to/lastmile_qr_scan", "android": "https://dc.lft.to/lastmile_qr_scan"}}, {"name": "cf76a7de6f7905e8bdcd697eb39337ef", "type": "electric_scooter", "lat": 38.94365033333333, "is_reserved": 0, "lon": -77.02181066666667, "fusion_lon": 0.0, "is_disabled": 0, "fusion_lat": 0.0, "bike_id": "cf76a7de6f7905e8bdcd697eb39337ef", "rental_uris": {"ios": "https://dc.lft.to/lastmile_qr_scan", "android": "https://dc.lft.to/lastmile_qr_scan"}}, {"name": "6de951b189f68bd2fb114576933d44f8", "type": "electric_bike", "lat": 38.922118166666664, "is_reserved": 0, "lon": -76.98799416666667, "fusion_lon": 0.0, "is_disabled": 0, "fusion_lat": 0.0, "bike_id": "6de951b189f68bd2fb114576933d44f8", "rental_uris": {"ios": "https://dc.lft.to/lastmile_qr_scan", "android": "https://dc.lft.to/lastmile_qr_scan"}}, {"name": "7bed98ec2f6fb0feca49bea0310e8536", "type": "electric_scooter", "lat": 38.89490966666666, "is_reserved": 0, "lon": -77.01012766666666, "fusion_lon": 0.0, "is_disabled": 0, "fusion_lat": 0.0, "bike_id": "7bed98ec2f6fb0feca49bea0310e8536", "rental_uris": {"ios": "https://dc.lft.to/lastmile_qr_scan", "android": "https://dc.lft.to/lastmile_qr_scan"}}, {"name": "60ee446dab7f58f3f6b0d53a026d7eda", "type": "electric_scooter", "lat": 38.92578116666667, "is_reserved": 0, "lon": -77.07308866666666, "fusion_lon": 0.0, "is_disabled": 0, "fusion_lat": 0.0, "bike_id": "60ee446dab7f58f3f6b0d53a026d7eda", "rental_uris": {"ios": "https://dc.lft.to/lastmile_qr_scan", "android": "https://dc.lft.to/lastmile_qr_scan"}}, {"name": "90da534627641a897d65c26229c2f409", "type": "electric_scooter", "lat": 38.921474, "is_reserved": 0, "lon": -77.036523, "fusion_lon": 0.0, "is_disabled": 0, "fusion_lat": 0.0, "bike_id": "90da534627641a897d65c26229c2f409", "rental_uris": {"ios": "https://dc.lft.to/lastmile_qr_scan", "android": "https://dc.lft.to/lastmile_qr_scan"}}, {"name": "fecf9f32fdaa5cef33589fe4e8d63711", "type": "electric_scooter", "lat": 38.9218, "is_reserved": 0, "lon": -77.04277016666667, "fusion_lon": 0.0, "is_disabled": 0, "fusion_lat": 0.0, "bike_id": "fecf9f32fdaa5cef33589fe4e8d63711", "rental_uris": {"ios": "https://dc.lft.to/lastmile_qr_scan", "android": "https://dc.lft.to/lastmile_qr_scan"}}, {"name": "1a8d72dc262a1306b27b0db35d8028f8", "type": "electric_scooter", "lat": 38.907220333333335, "is_reserved": 0, "lon": -77.0265505, "fusion_lon": 0.0, "is_disabled": 0, "fusion_lat": 0.0, "bike_id": "1a8d72dc262a1306b27b0db35d8028f8", "rental_uris": {"ios": "https://dc.lft.to/lastmile_qr_scan", "android": "https://dc.lft.to/lastmile_qr_scan"}}, {"name": "de672749c85c81634b4031063adbbb0d", "type": "electric_scooter", "lat": 38.92275716666666, "is_reserved": 0, "lon": -77.03666266666667, "fusion_lon": 0.0, "is_disabled": 0, "fusion_lat": 0.0, "bike_id": "de672749c85c81634b4031063adbbb0d", "rental_uris": {"ios": "https://dc.lft.to/lastmile_qr_scan", "android": "https://dc.lft.to/lastmile_qr_scan"}}, {"name": "8892dd4e5e3c2d6c5e5f4ccd53fdeac1", "type": "electric_scooter", "lat": 38.90573666666667, "is_reserved": 0, "lon": -77.04010166666667, "fusion_lon": 0.0, "is_disabled": 0, "fusion_lat": 0.0, "bike_id": "8892dd4e5e3c2d6c5e5f4ccd53fdeac1", "rental_uris": {"ios": "https://dc.lft.to/lastmile_qr_scan", "android": "https://dc.lft.to/lastmile_qr_scan"}}, {"name": "0e03ec15fdc1d98cdf89e8c5037bf6d9", "type": "electric_scooter", "lat": 38.921902333333335, "is_reserved": 0, "lon": -77.04247133333334, "fusion_lon": 0.0, "is_disabled": 0, "fusion_lat": 0.0, "bike_id": "0e03ec15fdc1d98cdf89e8c5037bf6d9", "rental_uris": {"ios": "https://dc.lft.to/lastmile_qr_scan", "android": "https://dc.lft.to/lastmile_qr_scan"}}, {"name": "db27a23adb2aab24bd9c947d8fc01d4f", "type": "electric_scooter", "lat": 38.949573666666666, "is_reserved": 0, "lon": -77.02721616666666, "fusion_lon": 0.0, "is_disabled": 0, "fusion_lat": 0.0, "bike_id": "db27a23adb2aab24bd9c947d8fc01d4f", "rental_uris": {"ios": "https://dc.lft.to/lastmile_qr_scan", "android": "https://dc.lft.to/lastmile_qr_scan"}}, {"name": "542b7b144de4456dfe07cbcfd57e4b41", "type": "electric_scooter", "lat": 38.899081333333335, "is_reserved": 0, "lon": -77.044994, "fusion_lon": 0.0, "is_disabled": 0, "fusion_lat": 0.0, "bike_id": "542b7b144de4456dfe07cbcfd57e4b41", "rental_uris": {"ios": "https://dc.lft.to/lastmile_qr_scan", "android": "https://dc.lft.to/lastmile_qr_scan"}}, {"name": "167cf4221966e3955e1c2f92bdefb58e", "type": "electric_scooter", "lat": 38.91041416666667, "is_reserved": 0, "lon": -77.028142, "fusion_lon": 0.0, "is_disabled": 0, "fusion_lat": 0.0, "bike_id": "167cf4221966e3955e1c2f92bdefb58e", "rental_uris": {"ios": "https://dc.lft.to/lastmile_qr_scan", "android": "https://dc.lft.to/lastmile_qr_scan"}}, {"name": "9b849f49b60984dedcfed1e3d774da68", "type": "electric_scooter", "lat": 38.905736, "is_reserved": 0, "lon": -77.02181616666667, "fusion_lon": 0.0, "is_disabled": 0, "fusion_lat": 0.0, "bike_id": "9b849f49b60984dedcfed1e3d774da68", "rental_uris": {"ios": "https://dc.lft.to/lastmile_qr_scan", "android": "https://dc.lft.to/lastmile_qr_scan"}}, {"name": "af9cbe3963fbe4a7418cb8966b1560dd", "type": "electric_scooter", "lat": 38.928844166666664, "is_reserved": 0, "lon": -77.032365, "fusion_lon": 0.0, "is_disabled": 0, "fusion_lat": 0.0, "bike_id": "af9cbe3963fbe4a7418cb8966b1560dd", "rental_uris": {"ios": "https://dc.lft.to/lastmile_qr_scan", "android": "https://dc.lft.to/lastmile_qr_scan"}}, {"name": "951a8b0939929de0e57b66a561f8cda4", "type": "electric_scooter", "lat": 38.90560033333333, "is_reserved": 0, "lon": -77.0436165, "fusion_lon": 0.0, "is_disabled": 0, "fusion_lat": 0.0, "bike_id": "951a8b0939929de0e57b66a561f8cda4", "rental_uris": {"ios": "https://dc.lft.to/lastmile_qr_scan", "android": "https://dc.lft.to/lastmile_qr_scan"}}, {"name": "980b8bb10ff6d4cd1da36d44de14a701", "type": "electric_scooter", "lat": 38.962542, "is_reserved": 0, "lon": -77.03346433333333, "fusion_lon": 0.0, "is_disabled": 0, "fusion_lat": 0.0, "bike_id": "980b8bb10ff6d4cd1da36d44de14a701", "rental_uris": {"ios": "https://dc.lft.to/lastmile_qr_scan", "android": "https://dc.lft.to/lastmile_qr_scan"}}, {"name": "301f895953a63315d0a0931ec3cd860f", "type": "electric_scooter", "lat": 38.897125333333335, "is_reserved": 0, "lon": -77.027453, "fusion_lon": 0.0, "is_disabled": 0, "fusion_lat": 0.0, "bike_id": "301f895953a63315d0a0931ec3cd860f", "rental_uris": {"ios": "https://dc.lft.to/lastmile_qr_scan", "android": "https://dc.lft.to/lastmile_qr_scan"}}, {"name": "f431bfacc94f72d2564c82e369352576", "type": "electric_scooter", "lat": 38.90384316666667, "is_reserved": 0, "lon": -77.0435315, "fusion_lon": 0.0, "is_disabled": 0, "fusion_lat": 0.0, "bike_id": "f431bfacc94f72d2564c82e369352576", "rental_uris": {"ios": "https://dc.lft.to/lastmile_qr_scan", "android": "https://dc.lft.to/lastmile_qr_scan"}}, {"name": "3fcf8f3fbd8a1d31f6615c62e2fdaa0e", "type": "electric_scooter", "lat": 38.90394833333333, "is_reserved": 0, "lon": -77.0419525, "fusion_lon": 0.0, "is_disabled": 0, "fusion_lat": 0.0, "bike_id": "3fcf8f3fbd8a1d31f6615c62e2fdaa0e", "rental_uris": {"ios": "https://dc.lft.to/lastmile_qr_scan", "android": "https://dc.lft.to/lastmile_qr_scan"}}, {"name": "cd32c70c163b20b39a2cb131feeae1f0", "type": "electric_scooter", "lat": 38.89508816666667, "is_reserved": 0, "lon": -77.00337266666666, "fusion_lon": 0.0, "is_disabled": 0, "fusion_lat": 0.0, "bike_id": "cd32c70c163b20b39a2cb131feeae1f0", "rental_uris": {"ios": "https://dc.lft.to/lastmile_qr_scan", "android": "https://dc.lft.to/lastmile_qr_scan"}}, {"name": "e4cd5ebcb73a03b37137152d6c64a60b", "type": "electric_bike", "lat": 38.8672105, "is_reserved": 0, "lon": -76.9896915, "fusion_lon": 0.0, "is_disabled": 0, "fusion_lat": 0.0, "bike_id": "e4cd5ebcb73a03b37137152d6c64a60b", "rental_uris": {"ios": "https://dc.lft.to/lastmile_qr_scan", "android": "https://dc.lft.to/lastmile_qr_scan"}}, {"name": "1c7c9de43306285f1fc5dda5c3c09547", "type": "electric_scooter", "lat": 38.92152683333333, "is_reserved": 0, "lon": -77.03532383333334, "fusion_lon": 0.0, "is_disabled": 0, "fusion_lat": 0.0, "bike_id": "1c7c9de43306285f1fc5dda5c3c09547", "rental_uris": {"ios": "https://dc.lft.to/lastmile_qr_scan", "android": "https://dc.lft.to/lastmile_qr_scan"}}, {"name": "45d006b3c08ca469133e633cedc039b7", "type": "electric_scooter", "lat": 38.9133245, "is_reserved": 0, "lon": -77.0435215, "fusion_lon": 0.0, "is_disabled": 0, "fusion_lat": 0.0, "bike_id": "45d006b3c08ca469133e633cedc039b7", "rental_uris": {"ios": "https://dc.lft.to/lastmile_qr_scan", "android": "https://dc.lft.to/lastmile_qr_scan"}}, {"name": "c9d591f52c83dfd92cbecc776df4d9c7", "type": "electric_scooter", "lat": 38.911928833333334, "is_reserved": 0, "lon": -77.06091466666666, "fusion_lon": 0.0, "is_disabled": 0, "fusion_lat": 0.0, "bike_id": "c9d591f52c83dfd92cbecc776df4d9c7", "rental_uris": {"ios": "https://dc.lft.to/lastmile_qr_scan", "android": "https://dc.lft.to/lastmile_qr_scan"}}, {"name": "31fbf84c5789580ac98ae0a6f6af8067", "type": "electric_scooter", "lat": 38.884944, "is_reserved": 0, "lon": -77.00726416666667, "fusion_lon": 0.0, "is_disabled": 0, "fusion_lat": 0.0, "bike_id": "31fbf84c5789580ac98ae0a6f6af8067", "rental_uris": {"ios": "https://dc.lft.to/lastmile_qr_scan", "android": "https://dc.lft.to/lastmile_qr_scan"}}, {"name": "8a3ebca6f4affef885f8e732991f932f", "type": "electric_bike", "lat": 38.9595405, "is_reserved": 0, "lon": -77.100898, "fusion_lon": 0.0, "is_disabled": 0, "fusion_lat": 0.0, "bike_id": "8a3ebca6f4affef885f8e732991f932f", "rental_uris": {"ios": "https://dc.lft.to/lastmile_qr_scan", "android": "https://dc.lft.to/lastmile_qr_scan"}}, {"name": "86251f3d10204f2d26a44acfa5bee13f", "type": "electric_scooter", "lat": 38.90263183333333, "is_reserved": 0, "lon": -77.02986166666666, "fusion_lon": 0.0, "is_disabled": 0, "fusion_lat": 0.0, "bike_id": "86251f3d10204f2d26a44acfa5bee13f", "rental_uris": {"ios": "https://dc.lft.to/lastmile_qr_scan", "android": "https://dc.lft.to/lastmile_qr_scan"}}, {"name": "755bcd38af5589fa40a79a6f5aead927", "type": "electric_bike", "lat": 38.93581833333333, "is_reserved": 0, "lon": -77.05843666666667, "fusion_lon": 0.0, "is_disabled": 0, "fusion_lat": 0.0, "bike_id": "755bcd38af5589fa40a79a6f5aead927", "rental_uris": {"ios": "https://dc.lft.to/lastmile_qr_scan", "android": "https://dc.lft.to/lastmile_qr_scan"}}, {"name": "0d7635a0f7c8907524f07f6924fff3c0", "type": "electric_scooter", "lat": 38.90651666666667, "is_reserved": 0, "lon": -77.00906016666667, "fusion_lon": 0.0, "is_disabled": 0, "fusion_lat": 0.0, "bike_id": "0d7635a0f7c8907524f07f6924fff3c0", "rental_uris": {"ios": "https://dc.lft.to/lastmile_qr_scan", "android": "https://dc.lft.to/lastmile_qr_scan"}}, {"name": "88dac3405f76fd2fcf3039ea6b5e8d50", "type": "electric_scooter", "lat": 38.9321105, "is_reserved": 0, "lon": -77.02737466666666, "fusion_lon": 0.0, "is_disabled": 0, "fusion_lat": 0.0, "bike_id": "88dac3405f76fd2fcf3039ea6b5e8d50", "rental_uris": {"ios": "https://dc.lft.to/lastmile_qr_scan", "android": "https://dc.lft.to/lastmile_qr_scan"}}, {"name": "f2771eb0ad10788ef9603d619eb6abc8", "type": "electric_scooter", "lat": 38.90879116666667, "is_reserved": 0, "lon": -77.023091, "fusion_lon": 0.0, "is_disabled": 0, "fusion_lat": 0.0, "bike_id": "f2771eb0ad10788ef9603d619eb6abc8", "rental_uris": {"ios": "https://dc.lft.to/lastmile_qr_scan", "android": "https://dc.lft.to/lastmile_qr_scan"}}, {"name": "dedf03e89308f0dce5666e81e627e61f", "type": "electric_scooter", "lat": 38.902500333333336, "is_reserved": 0, "lon": -77.05956983333333, "fusion_lon": 0.0, "is_disabled": 0, "fusion_lat": 0.0, "bike_id": "dedf03e89308f0dce5666e81e627e61f", "rental_uris": {"ios": "https://dc.lft.to/lastmile_qr_scan", "android": "https://dc.lft.to/lastmile_qr_scan"}}, {"name": "6f37750791ef7f9172cbf1d79d9dba19", "type": "electric_scooter", "lat": 38.91203816666667, "is_reserved": 0, "lon": -77.07309466666666, "fusion_lon": 0.0, "is_disabled": 0, "fusion_lat": 0.0, "bike_id": "6f37750791ef7f9172cbf1d79d9dba19", "rental_uris": {"ios": "https://dc.lft.to/lastmile_qr_scan", "android": "https://dc.lft.to/lastmile_qr_scan"}}, {"name": "d3f7cf3f8ab7ab3e40a7f851b4985987", "type": "electric_bike", "lat": 38.8279005, "is_reserved": 0, "lon": -77.009096, "fusion_lon": 0.0, "is_disabled": 0, "fusion_lat": 0.0, "bike_id": "d3f7cf3f8ab7ab3e40a7f851b4985987", "rental_uris": {"ios": "https://dc.lft.to/lastmile_qr_scan", "android": "https://dc.lft.to/lastmile_qr_scan"}}, {"name": "74a54f7b6497ca9e241f079a900e1949", "type": "electric_bike", "lat": 39.094583666666665, "is_reserved": 0, "lon": -77.14995683333333, "fusion_lon": 0.0, "is_disabled": 0, "fusion_lat": 0.0, "bike_id": "74a54f7b6497ca9e241f079a900e1949", "rental_uris": {"ios": "https://dc.lft.to/lastmile_qr_scan", "android": "https://dc.lft.to/lastmile_qr_scan"}}, {"name": "fc5a340c4745f8d1ca752b7da3cc5b8f", "type": "electric_bike", "lat": 38.840694666666664, "is_reserved": 0, "lon": -77.06407633333333, "fusion_lon": 0.0, "is_disabled": 0, "fusion_lat": 0.0, "bike_id": "fc5a340c4745f8d1ca752b7da3cc5b8f", "rental_uris": {"ios": "https://dc.lft.to/lastmile_qr_scan", "android": "https://dc.lft.to/lastmile_qr_scan"}}, {"name": "f45496cafd225d3ed4a72595dd7566b0", "type": "electric_scooter", "lat": 38.89844816666667, "is_reserved": 0, "lon": -76.94478916666667, "fusion_lon": 0.0, "is_disabled": 0, "fusion_lat": 0.0, "bike_id": "f45496cafd225d3ed4a72595dd7566b0", "rental_uris": {"ios": "https://dc.lft.to/lastmile_qr_scan", "android": "https://dc.lft.to/lastmile_qr_scan"}}, {"name": "c5c13f052efdaf94727dad7c2f8f6162", "type": "electric_scooter", "lat": 38.92150083333333, "is_reserved": 0, "lon": -77.0352915, "fusion_lon": 0.0, "is_disabled": 0, "fusion_lat": 0.0, "bike_id": "c5c13f052efdaf94727dad7c2f8f6162", "rental_uris": {"ios": "https://dc.lft.to/lastmile_qr_scan", "android": "https://dc.lft.to/lastmile_qr_scan"}}, {"name": "1ac16cd426f237b287ae4326b2fab1e6", "type": "electric_bike", "lat": 38.862756166666664, "is_reserved": 0, "lon": -77.06353266666666, "fusion_lon": 0.0, "is_disabled": 0, "fusion_lat": 0.0, "bike_id": "1ac16cd426f237b287ae4326b2fab1e6", "rental_uris": {"ios": "https://dc.lft.to/lastmile_qr_scan", "android": "https://dc.lft.to/lastmile_qr_scan"}}, {"name": "934b646a2c6cca3b3120070347e3f9a3", "type": "electric_bike", "lat": 38.86753233333334, "is_reserved": 0, "lon": -76.94532466666666, "fusion_lon": 0.0, "is_disabled": 0, "fusion_lat": 0.0, "bike_id": "934b646a2c6cca3b3120070347e3f9a3", "rental_uris": {"ios": "https://dc.lft.to/lastmile_qr_scan", "android": "https://dc.lft.to/lastmile_qr_scan"}}, {"name": "0b7667fa907770e16e4c04f18816e411", "type": "electric_scooter", "lat": 38.88538, "is_reserved": 0, "lon": -76.98159433333333, "fusion_lon": 0.0, "is_disabled": 0, "fusion_lat": 0.0, "bike_id": "0b7667fa907770e16e4c04f18816e411", "rental_uris": {"ios": "https://dc.lft.to/lastmile_qr_scan", "android": "https://dc.lft.to/lastmile_qr_scan"}}, {"name": "cd6e3eb2d39e1e346a5d5417071edf65", "type": "electric_scooter", "lat": 38.8972935, "is_reserved": 0, "lon": -77.01052016666667, "fusion_lon": 0.0, "is_disabled": 0, "fusion_lat": 0.0, "bike_id": "cd6e3eb2d39e1e346a5d5417071edf65", "rental_uris": {"ios": "https://dc.lft.to/lastmile_qr_scan", "android": "https://dc.lft.to/lastmile_qr_scan"}}, {"name": "999b1eb57ec17e28dbb38745d616ba32", "type": "electric_scooter", "lat": 38.927271, "is_reserved": 0, "lon": -77.005648, "fusion_lon": 0.0, "is_disabled": 0, "fusion_lat": 0.0, "bike_id": "999b1eb57ec17e28dbb38745d616ba32", "rental_uris": {"ios": "https://dc.lft.to/lastmile_qr_scan", "android": "https://dc.lft.to/lastmile_qr_scan"}}, {"name": "95a433620960d4966916e6ba61871b36", "type": "electric_scooter", "lat": 38.951089833333334, "is_reserved": 0, "lon": -77.0157945, "fusion_lon": 0.0, "is_disabled": 0, "fusion_lat": 0.0, "bike_id": "95a433620960d4966916e6ba61871b36", "rental_uris": {"ios": "https://dc.lft.to/lastmile_qr_scan", "android": "https://dc.lft.to/lastmile_qr_scan"}}, {"name": "3d51b1a617468eeda9212cb87c7af5e7", "type": "electric_scooter", "lat": 38.93095133333333, "is_reserved": 0, "lon": -77.02510083333334, "fusion_lon": 0.0, "is_disabled": 0, "fusion_lat": 0.0, "bike_id": "3d51b1a617468eeda9212cb87c7af5e7", "rental_uris": {"ios": "https://dc.lft.to/lastmile_qr_scan", "android": "https://dc.lft.to/lastmile_qr_scan"}}, {"name": "4606ad941609d49de048c2d40f8318a9", "type": "electric_scooter", "lat": 38.940142333333334, "is_reserved": 0, "lon": -77.07170983333333, "fusion_lon": 0.0, "is_disabled": 0, "fusion_lat": 0.0, "bike_id": "4606ad941609d49de048c2d40f8318a9", "rental_uris": {"ios": "https://dc.lft.to/lastmile_qr_scan", "android": "https://dc.lft.to/lastmile_qr_scan"}}, {"name": "41089c06fab865780de0679ba60318bb", "type": "electric_scooter", "lat": 38.903724, "is_reserved": 0, "lon": -77.0403985, "fusion_lon": 0.0, "is_disabled": 0, "fusion_lat": 0.0, "bike_id": "41089c06fab865780de0679ba60318bb", "rental_uris": {"ios": "https://dc.lft.to/lastmile_qr_scan", "android": "https://dc.lft.to/lastmile_qr_scan"}}, {"name": "73237792aef7dc73a3b1e761b6daf6d3", "type": "electric_scooter", "lat": 38.94492416666667, "is_reserved": 0, "lon": -77.063799, "fusion_lon": 0.0, "is_disabled": 0, "fusion_lat": 0.0, "bike_id": "73237792aef7dc73a3b1e761b6daf6d3", "rental_uris": {"ios": "https://dc.lft.to/lastmile_qr_scan", "android": "https://dc.lft.to/lastmile_qr_scan"}}, {"name": "34722b2276b06d2562574718c0c85c33", "type": "electric_scooter", "lat": 38.91567583333333, "is_reserved": 0, "lon": -77.03767933333333, "fusion_lon": 0.0, "is_disabled": 0, "fusion_lat": 0.0, "bike_id": "34722b2276b06d2562574718c0c85c33", "rental_uris": {"ios": "https://dc.lft.to/lastmile_qr_scan", "android": "https://dc.lft.to/lastmile_qr_scan"}}, {"name": "b78331da15969d9bd90af21847941325", "type": "electric_scooter", "lat": 38.907266666666665, "is_reserved": 0, "lon": -76.98598466666667, "fusion_lon": 0.0, "is_disabled": 0, "fusion_lat": 0.0, "bike_id": "b78331da15969d9bd90af21847941325", "rental_uris": {"ios": "https://dc.lft.to/lastmile_qr_scan", "android": "https://dc.lft.to/lastmile_qr_scan"}}, {"name": "913d2e3beeb0afec430f86f29656e327", "type": "electric_scooter", "lat": 38.91702816666667, "is_reserved": 0, "lon": -77.008112, "fusion_lon": 0.0, "is_disabled": 0, "fusion_lat": 0.0, "bike_id": "913d2e3beeb0afec430f86f29656e327", "rental_uris": {"ios": "https://dc.lft.to/lastmile_qr_scan", "android": "https://dc.lft.to/lastmile_qr_scan"}}, {"name": "182e2d3adb39fa87b1b393bb88690e37", "type": "electric_scooter", "lat": 38.92236033333333, "is_reserved": 0, "lon": -77.04248516666667, "fusion_lon": 0.0, "is_disabled": 0, "fusion_lat": 0.0, "bike_id": "182e2d3adb39fa87b1b393bb88690e37", "rental_uris": {"ios": "https://dc.lft.to/lastmile_qr_scan", "android": "https://dc.lft.to/lastmile_qr_scan"}}, {"name": "231813a9ca2c122318670896005776e9", "type": "electric_bike", "lat": 38.89808133333333, "is_reserved": 0, "lon": -77.00608583333333, "fusion_lon": 0.0, "is_disabled": 0, "fusion_lat": 0.0, "bike_id": "231813a9ca2c122318670896005776e9", "rental_uris": {"ios": "https://dc.lft.to/lastmile_qr_scan", "android": "https://dc.lft.to/lastmile_qr_scan"}}, {"name": "be975e61d4df4866e1ef03c51cd88532", "type": "electric_scooter", "lat": 38.9159105, "is_reserved": 0, "lon": -77.04357216666666, "fusion_lon": 0.0, "is_disabled": 0, "fusion_lat": 0.0, "bike_id": "be975e61d4df4866e1ef03c51cd88532", "rental_uris": {"ios": "https://dc.lft.to/lastmile_qr_scan", "android": "https://dc.lft.to/lastmile_qr_scan"}}, {"name": "ff7bbfab90eab46b54ca8e34853f5da1", "type": "electric_scooter", "lat": 38.90602966666667, "is_reserved": 0, "lon": -77.03983066666666, "fusion_lon": 0.0, "is_disabled": 0, "fusion_lat": 0.0, "bike_id": "ff7bbfab90eab46b54ca8e34853f5da1", "rental_uris": {"ios": "https://dc.lft.to/lastmile_qr_scan", "android": "https://dc.lft.to/lastmile_qr_scan"}}, {"name": "2eeeb64ab14f581bbe78f00934c83daa", "type": "electric_scooter", "lat": 38.90383166666667, "is_reserved": 0, "lon": -77.04482416666667, "fusion_lon": 0.0, "is_disabled": 0, "fusion_lat": 0.0, "bike_id": "2eeeb64ab14f581bbe78f00934c83daa", "rental_uris": {"ios": "https://dc.lft.to/lastmile_qr_scan", "android": "https://dc.lft.to/lastmile_qr_scan"}}, {"name": "82ab899a860c5e7be31c3ff3c7e87d32", "type": "electric_scooter", "lat": 38.88083016666667, "is_reserved": 0, "lon": -76.98532916666667, "fusion_lon": 0.0, "is_disabled": 0, "fusion_lat": 0.0, "bike_id": "82ab899a860c5e7be31c3ff3c7e87d32", "rental_uris": {"ios": "https://dc.lft.to/lastmile_qr_scan", "android": "https://dc.lft.to/lastmile_qr_scan"}}, {"name": "712ee94afdc9933c0f13dd0b236502ef", "type": "electric_scooter", "lat": 38.900172833333336, "is_reserved": 0, "lon": -76.98704366666666, "fusion_lon": 0.0, "is_disabled": 0, "fusion_lat": 0.0, "bike_id": "712ee94afdc9933c0f13dd0b236502ef", "rental_uris": {"ios": "https://dc.lft.to/lastmile_qr_scan", "android": "https://dc.lft.to/lastmile_qr_scan"}}, {"name": "55f428198b7be7a577d3b93e6c1de1b7", "type": "electric_scooter", "lat": 38.9031475, "is_reserved": 0, "lon": -77.03320266666667, "fusion_lon": 0.0, "is_disabled": 0, "fusion_lat": 0.0, "bike_id": "55f428198b7be7a577d3b93e6c1de1b7", "rental_uris": {"ios": "https://dc.lft.to/lastmile_qr_scan", "android": "https://dc.lft.to/lastmile_qr_scan"}}, {"name": "fbfa93fcc6622bbe7d66b59c46eddfb5", "type": "electric_bike", "lat": 38.854277833333335, "is_reserved": 0, "lon": -76.90968233333334, "fusion_lon": 0.0, "is_disabled": 0, "fusion_lat": 0.0, "bike_id": "fbfa93fcc6622bbe7d66b59c46eddfb5", "rental_uris": {"ios": "https://dc.lft.to/lastmile_qr_scan", "android": "https://dc.lft.to/lastmile_qr_scan"}}, {"name": "cb4df3331ba4207ea796b35080ae69c3", "type": "electric_scooter", "lat": 38.911875, "is_reserved": 0, "lon": -77.04538233333334, "fusion_lon": 0.0, "is_disabled": 0, "fusion_lat": 0.0, "bike_id": "cb4df3331ba4207ea796b35080ae69c3", "rental_uris": {"ios": "https://dc.lft.to/lastmile_qr_scan", "android": "https://dc.lft.to/lastmile_qr_scan"}}, {"name": "6804b67342ef8aeb8fbfdc3ebe28c8fb", "type": "electric_bike", "lat": 38.81051333333333, "is_reserved": 0, "lon": -77.08510033333333, "fusion_lon": 0.0, "is_disabled": 0, "fusion_lat": 0.0, "bike_id": "6804b67342ef8aeb8fbfdc3ebe28c8fb", "rental_uris": {"ios": "https://dc.lft.to/lastmile_qr_scan", "android": "https://dc.lft.to/lastmile_qr_scan"}}, {"name": "d137ff43ca891e63caf04af6c5b449af", "type": "electric_scooter", "lat": 38.88589016666667, "is_reserved": 0, "lon": -77.00568616666666, "fusion_lon": 0.0, "is_disabled": 0, "fusion_lat": 0.0, "bike_id": "d137ff43ca891e63caf04af6c5b449af", "rental_uris": {"ios": "https://dc.lft.to/lastmile_qr_scan", "android": "https://dc.lft.to/lastmile_qr_scan"}}, {"name": "42842c0accddde03a9dac11142d220b2", "type": "electric_scooter", "lat": 38.844269, "is_reserved": 0, "lon": -76.9977735, "fusion_lon": 0.0, "is_disabled": 0, "fusion_lat": 0.0, "bike_id": "42842c0accddde03a9dac11142d220b2", "rental_uris": {"ios": "https://dc.lft.to/lastmile_qr_scan", "android": "https://dc.lft.to/lastmile_qr_scan"}}, {"name": "85b846a4da296fb0d4f74a2c6b248c55", "type": "electric_bike", "lat": 38.911829833333336, "is_reserved": 0, "lon": -77.00276083333334, "fusion_lon": 0.0, "is_disabled": 0, "fusion_lat": 0.0, "bike_id": "85b846a4da296fb0d4f74a2c6b248c55", "rental_uris": {"ios": "https://dc.lft.to/lastmile_qr_scan", "android": "https://dc.lft.to/lastmile_qr_scan"}}, {"name": "ddf3c929f0bac85c9e037fe8f6b9c7ed", "type": "electric_scooter", "lat": 38.9290565, "is_reserved": 0, "lon": -77.02161, "fusion_lon": 0.0, "is_disabled": 0, "fusion_lat": 0.0, "bike_id": "ddf3c929f0bac85c9e037fe8f6b9c7ed", "rental_uris": {"ios": "https://dc.lft.to/lastmile_qr_scan", "android": "https://dc.lft.to/lastmile_qr_scan"}}, {"name": "913f001a52b2e4ef59666d6fd3aca54f", "type": "electric_scooter", "lat": 38.900274833333334, "is_reserved": 0, "lon": -76.99533733333334, "fusion_lon": 0.0, "is_disabled": 0, "fusion_lat": 0.0, "bike_id": "913f001a52b2e4ef59666d6fd3aca54f", "rental_uris": {"ios": "https://dc.lft.to/lastmile_qr_scan", "android": "https://dc.lft.to/lastmile_qr_scan"}}, {"name": "4996f00376e28394f3335fa1f6a88653", "type": "electric_scooter", "lat": 38.892237333333334, "is_reserved": 0, "lon": -77.04861916666667, "fusion_lon": 0.0, "is_disabled": 0, "fusion_lat": 0.0, "bike_id": "4996f00376e28394f3335fa1f6a88653", "rental_uris": {"ios": "https://dc.lft.to/lastmile_qr_scan", "android": "https://dc.lft.to/lastmile_qr_scan"}}, {"name": "f658d9ff97be1d1ab92e76726f268839", "type": "electric_scooter", "lat": 38.93154416666667, "is_reserved": 0, "lon": -77.043607, "fusion_lon": 0.0, "is_disabled": 0, "fusion_lat": 0.0, "bike_id": "f658d9ff97be1d1ab92e76726f268839", "rental_uris": {"ios": "https://dc.lft.to/lastmile_qr_scan", "android": "https://dc.lft.to/lastmile_qr_scan"}}, {"name": "dd3419baab6224fbc022dae6a8e51af2", "type": "electric_scooter", "lat": 38.910405833333336, "is_reserved": 0, "lon": -77.04411916666666, "fusion_lon": 0.0, "is_disabled": 0, "fusion_lat": 0.0, "bike_id": "dd3419baab6224fbc022dae6a8e51af2", "rental_uris": {"ios": "https://dc.lft.to/lastmile_qr_scan", "android": "https://dc.lft.to/lastmile_qr_scan"}}, {"name": "f9f51ee25380c9a5944b0a073466baaa", "type": "electric_scooter", "lat": 38.934933666666666, "is_reserved": 0, "lon": -77.02847383333334, "fusion_lon": 0.0, "is_disabled": 0, "fusion_lat": 0.0, "bike_id": "f9f51ee25380c9a5944b0a073466baaa", "rental_uris": {"ios": "https://dc.lft.to/lastmile_qr_scan", "android": "https://dc.lft.to/lastmile_qr_scan"}}, {"name": "3a66735df10b5458051a718d357847ac", "type": "electric_scooter", "lat": 38.90035066666667, "is_reserved": 0, "lon": -77.00195783333334, "fusion_lon": 0.0, "is_disabled": 0, "fusion_lat": 0.0, "bike_id": "3a66735df10b5458051a718d357847ac", "rental_uris": {"ios": "https://dc.lft.to/lastmile_qr_scan", "android": "https://dc.lft.to/lastmile_qr_scan"}}, {"name": "65a49d0899278ed743904adec908955c", "type": "electric_scooter", "lat": 38.86658933333333, "is_reserved": 0, "lon": -76.98888283333334, "fusion_lon": 0.0, "is_disabled": 0, "fusion_lat": 0.0, "bike_id": "65a49d0899278ed743904adec908955c", "rental_uris": {"ios": "https://dc.lft.to/lastmile_qr_scan", "android": "https://dc.lft.to/lastmile_qr_scan"}}, {"name": "a6afc1b425e4d9d2a055c79e74aaad27", "type": "electric_scooter", "lat": 38.9216605, "is_reserved": 0, "lon": -76.9939735, "fusion_lon": 0.0, "is_disabled": 0, "fusion_lat": 0.0, "bike_id": "a6afc1b425e4d9d2a055c79e74aaad27", "rental_uris": {"ios": "https://dc.lft.to/lastmile_qr_scan", "android": "https://dc.lft.to/lastmile_qr_scan"}}, {"name": "61bd0b7d13d80ebdb715f1a2f82485a8", "type": "electric_scooter", "lat": 38.90674033333333, "is_reserved": 0, "lon": -77.00026233333334, "fusion_lon": 0.0, "is_disabled": 0, "fusion_lat": 0.0, "bike_id": "61bd0b7d13d80ebdb715f1a2f82485a8", "rental_uris": {"ios": "https://dc.lft.to/lastmile_qr_scan", "android": "https://dc.lft.to/lastmile_qr_scan"}}, {"name": "15163945db064f649af895ce9a59e471", "type": "electric_scooter", "lat": 38.88640866666667, "is_reserved": 0, "lon": -77.02137516666667, "fusion_lon": 0.0, "is_disabled": 0, "fusion_lat": 0.0, "bike_id": "15163945db064f649af895ce9a59e471", "rental_uris": {"ios": "https://dc.lft.to/lastmile_qr_scan", "android": "https://dc.lft.to/lastmile_qr_scan"}}, {"name": "a0d8e2ed0b2d21bc14437c15f6cf377a", "type": "electric_scooter", "lat": 38.9162215, "is_reserved": 0, "lon": -77.0318085, "fusion_lon": 0.0, "is_disabled": 0, "fusion_lat": 0.0, "bike_id": "a0d8e2ed0b2d21bc14437c15f6cf377a", "rental_uris": {"ios": "https://dc.lft.to/lastmile_qr_scan", "android": "https://dc.lft.to/lastmile_qr_scan"}}, {"name": "6413c42117031814f824fb6b349b483f", "type": "electric_scooter", "lat": 38.90977683333333, "is_reserved": 0, "lon": -77.06711, "fusion_lon": 0.0, "is_disabled": 0, "fusion_lat": 0.0, "bike_id": "6413c42117031814f824fb6b349b483f", "rental_uris": {"ios": "https://dc.lft.to/lastmile_qr_scan", "android": "https://dc.lft.to/lastmile_qr_scan"}}, {"name": "68cda10c838b232ebfe214cc4e18f86f", "type": "electric_scooter", "lat": 38.943259833333336, "is_reserved": 0, "lon": -77.0739045, "fusion_lon": 0.0, "is_disabled": 0, "fusion_lat": 0.0, "bike_id": "68cda10c838b232ebfe214cc4e18f86f", "rental_uris": {"ios": "https://dc.lft.to/lastmile_qr_scan", "android": "https://dc.lft.to/lastmile_qr_scan"}}, {"name": "255c364a4b64988a4534969520458d85", "type": "electric_scooter", "lat": 38.91879433333333, "is_reserved": 0, "lon": -76.96543166666666, "fusion_lon": 0.0, "is_disabled": 0, "fusion_lat": 0.0, "bike_id": "255c364a4b64988a4534969520458d85", "rental_uris": {"ios": "https://dc.lft.to/lastmile_qr_scan", "android": "https://dc.lft.to/lastmile_qr_scan"}}, {"name": "faead286d9b444b96778b90b08036f6b", "type": "electric_scooter", "lat": 38.914936, "is_reserved": 0, "lon": -77.02693583333334, "fusion_lon": 0.0, "is_disabled": 0, "fusion_lat": 0.0, "bike_id": "faead286d9b444b96778b90b08036f6b", "rental_uris": {"ios": "https://dc.lft.to/lastmile_qr_scan", "android": "https://dc.lft.to/lastmile_qr_scan"}}, {"name": "0320cb5d980aae6887ac39d85349420e", "type": "electric_scooter", "lat": 38.93117933333333, "is_reserved": 0, "lon": -77.02091383333334, "fusion_lon": 0.0, "is_disabled": 0, "fusion_lat": 0.0, "bike_id": "0320cb5d980aae6887ac39d85349420e", "rental_uris": {"ios": "https://dc.lft.to/lastmile_qr_scan", "android": "https://dc.lft.to/lastmile_qr_scan"}}, {"name": "2a11263ee6477bba5b1afe570a60562c", "type": "electric_scooter", "lat": 38.90719716666667, "is_reserved": 0, "lon": -77.04215666666667, "fusion_lon": 0.0, "is_disabled": 0, "fusion_lat": 0.0, "bike_id": "2a11263ee6477bba5b1afe570a60562c", "rental_uris": {"ios": "https://dc.lft.to/lastmile_qr_scan", "android": "https://dc.lft.to/lastmile_qr_scan"}}, {"name": "0bb8aed94813668a603b18561064fa32", "type": "electric_scooter", "lat": 38.90850016666667, "is_reserved": 0, "lon": -77.02059066666666, "fusion_lon": 0.0, "is_disabled": 0, "fusion_lat": 0.0, "bike_id": "0bb8aed94813668a603b18561064fa32", "rental_uris": {"ios": "https://dc.lft.to/lastmile_qr_scan", "android": "https://dc.lft.to/lastmile_qr_scan"}}, {"name": "a0e8781598e964f546b9e31431bf8994", "type": "electric_scooter", "lat": 38.94927633333333, "is_reserved": 0, "lon": -77.01936983333333, "fusion_lon": 0.0, "is_disabled": 0, "fusion_lat": 0.0, "bike_id": "a0e8781598e964f546b9e31431bf8994", "rental_uris": {"ios": "https://dc.lft.to/lastmile_qr_scan", "android": "https://dc.lft.to/lastmile_qr_scan"}}, {"name": "1a1d10b82b0fe45720434da2f65f67b2", "type": "electric_scooter", "lat": 38.883197333333335, "is_reserved": 0, "lon": -77.01762083333334, "fusion_lon": 0.0, "is_disabled": 0, "fusion_lat": 0.0, "bike_id": "1a1d10b82b0fe45720434da2f65f67b2", "rental_uris": {"ios": "https://dc.lft.to/lastmile_qr_scan", "android": "https://dc.lft.to/lastmile_qr_scan"}}, {"name": "3eec20184842930c60de06096686ba11", "type": "electric_scooter", "lat": 38.92260733333333, "is_reserved": 0, "lon": -77.03638633333334, "fusion_lon": 0.0, "is_disabled": 0, "fusion_lat": 0.0, "bike_id": "3eec20184842930c60de06096686ba11", "rental_uris": {"ios": "https://dc.lft.to/lastmile_qr_scan", "android": "https://dc.lft.to/lastmile_qr_scan"}}, {"name": "0eaeb5c1153058adefa57639eafe8546", "type": "electric_scooter", "lat": 38.90630483333333, "is_reserved": 0, "lon": -77.039608, "fusion_lon": 0.0, "is_disabled": 0, "fusion_lat": 0.0, "bike_id": "0eaeb5c1153058adefa57639eafe8546", "rental_uris": {"ios": "https://dc.lft.to/lastmile_qr_scan", "android": "https://dc.lft.to/lastmile_qr_scan"}}, {"name": "c0e6378afe9e94c8ef7d368106d38571", "type": "electric_scooter", "lat": 38.89552366666667, "is_reserved": 0, "lon": -77.0215655, "fusion_lon": 0.0, "is_disabled": 0, "fusion_lat": 0.0, "bike_id": "c0e6378afe9e94c8ef7d368106d38571", "rental_uris": {"ios": "https://dc.lft.to/lastmile_qr_scan", "android": "https://dc.lft.to/lastmile_qr_scan"}}, {"name": "9908b0af85c4afb7729b83f6264166e3", "type": "electric_scooter", "lat": 38.892778166666666, "is_reserved": 0, "lon": -77.0260035, "fusion_lon": 0.0, "is_disabled": 0, "fusion_lat": 0.0, "bike_id": "9908b0af85c4afb7729b83f6264166e3", "rental_uris": {"ios": "https://dc.lft.to/lastmile_qr_scan", "android": "https://dc.lft.to/lastmile_qr_scan"}}, {"name": "12b7cb71d0d203a0c9d6a775f5871bc4", "type": "electric_scooter", "lat": 38.91941716666667, "is_reserved": 0, "lon": -77.04543416666667, "fusion_lon": 0.0, "is_disabled": 0, "fusion_lat": 0.0, "bike_id": "12b7cb71d0d203a0c9d6a775f5871bc4", "rental_uris": {"ios": "https://dc.lft.to/lastmile_qr_scan", "android": "https://dc.lft.to/lastmile_qr_scan"}}, {"name": "b1657c0bfd8822370452455eab3f8049", "type": "electric_scooter", "lat": 38.92853383333333, "is_reserved": 0, "lon": -77.03235983333333, "fusion_lon": 0.0, "is_disabled": 0, "fusion_lat": 0.0, "bike_id": "b1657c0bfd8822370452455eab3f8049", "rental_uris": {"ios": "https://dc.lft.to/lastmile_qr_scan", "android": "https://dc.lft.to/lastmile_qr_scan"}}, {"name": "57b0c6ff97873eac2f224c518e9e186d", "type": "electric_scooter", "lat": 38.94090116666667, "is_reserved": 0, "lon": -77.06190883333333, "fusion_lon": 0.0, "is_disabled": 0, "fusion_lat": 0.0, "bike_id": "57b0c6ff97873eac2f224c518e9e186d", "rental_uris": {"ios": "https://dc.lft.to/lastmile_qr_scan", "android": "https://dc.lft.to/lastmile_qr_scan"}}, {"name": "c5d248956236a70c99d5f58291f2aaab", "type": "electric_scooter", "lat": 38.8651855, "is_reserved": 0, "lon": -76.99039716666667, "fusion_lon": 0.0, "is_disabled": 0, "fusion_lat": 0.0, "bike_id": "c5d248956236a70c99d5f58291f2aaab", "rental_uris": {"ios": "https://dc.lft.to/lastmile_qr_scan", "android": "https://dc.lft.to/lastmile_qr_scan"}}, {"name": "5009dba204bd0ad2ea19482c98f9ec0b", "type": "electric_scooter", "lat": 38.91860716666667, "is_reserved": 0, "lon": -77.04453833333334, "fusion_lon": 0.0, "is_disabled": 0, "fusion_lat": 0.0, "bike_id": "5009dba204bd0ad2ea19482c98f9ec0b", "rental_uris": {"ios": "https://dc.lft.to/lastmile_qr_scan", "android": "https://dc.lft.to/lastmile_qr_scan"}}, {"name": "9da45a305014c5b7811c141fc49037a4", "type": "electric_scooter", "lat": 38.90860983333334, "is_reserved": 0, "lon": -77.02730383333333, "fusion_lon": 0.0, "is_disabled": 0, "fusion_lat": 0.0, "bike_id": "9da45a305014c5b7811c141fc49037a4", "rental_uris": {"ios": "https://dc.lft.to/lastmile_qr_scan", "android": "https://dc.lft.to/lastmile_qr_scan"}}, {"name": "3e418d1341de7a7ce0908c266c39c236", "type": "electric_bike", "lat": 38.9657755, "is_reserved": 0, "lon": -76.95485116666667, "fusion_lon": 0.0, "is_disabled": 0, "fusion_lat": 0.0, "bike_id": "3e418d1341de7a7ce0908c266c39c236", "rental_uris": {"ios": "https://dc.lft.to/lastmile_qr_scan", "android": "https://dc.lft.to/lastmile_qr_scan"}}, {"name": "4af12e2018d86df4e9cc947943129225", "type": "electric_bike", "lat": 38.89805066666667, "is_reserved": 0, "lon": -76.99061733333333, "fusion_lon": 0.0, "is_disabled": 0, "fusion_lat": 0.0, "bike_id": "4af12e2018d86df4e9cc947943129225", "rental_uris": {"ios": "https://dc.lft.to/lastmile_qr_scan", "android": "https://dc.lft.to/lastmile_qr_scan"}}, {"name": "4e98d436223a215097fa3b88cb8977f8", "type": "electric_bike", "lat": 38.880062, "is_reserved": 0, "lon": -76.91595083333333, "fusion_lon": 0.0, "is_disabled": 0, "fusion_lat": 0.0, "bike_id": "4e98d436223a215097fa3b88cb8977f8", "rental_uris": {"ios": "https://dc.lft.to/lastmile_qr_scan", "android": "https://dc.lft.to/lastmile_qr_scan"}}, {"name": "57ace1486808657be492fd132415cd5c", "type": "electric_scooter", "lat": 38.922317, "is_reserved": 0, "lon": -77.04118183333334, "fusion_lon": 0.0, "is_disabled": 0, "fusion_lat": 0.0, "bike_id": "57ace1486808657be492fd132415cd5c", "rental_uris": {"ios": "https://dc.lft.to/lastmile_qr_scan", "android": "https://dc.lft.to/lastmile_qr_scan"}}, {"name": "b905a7d4ca0706caaf38e379bd43dc51", "type": "electric_scooter", "lat": 38.90288133333333, "is_reserved": 0, "lon": -77.03635733333333, "fusion_lon": 0.0, "is_disabled": 0, "fusion_lat": 0.0, "bike_id": "b905a7d4ca0706caaf38e379bd43dc51", "rental_uris": {"ios": "https://dc.lft.to/lastmile_qr_scan", "android": "https://dc.lft.to/lastmile_qr_scan"}}, {"name": "9b9f8b0d9d877955427cb436b20d2bb5", "type": "electric_scooter", "lat": 38.919886, "is_reserved": 0, "lon": -77.04183483333334, "fusion_lon": 0.0, "is_disabled": 0, "fusion_lat": 0.0, "bike_id": "9b9f8b0d9d877955427cb436b20d2bb5", "rental_uris": {"ios": "https://dc.lft.to/lastmile_qr_scan", "android": "https://dc.lft.to/lastmile_qr_scan"}}, {"name": "ebb262dc4eaf54b79306e8fc31dd6d65", "type": "electric_bike", "lat": 38.91859516666667, "is_reserved": 0, "lon": -76.96091733333333, "fusion_lon": 0.0, "is_disabled": 0, "fusion_lat": 0.0, "bike_id": "ebb262dc4eaf54b79306e8fc31dd6d65", "rental_uris": {"ios": "https://dc.lft.to/lastmile_qr_scan", "android": "https://dc.lft.to/lastmile_qr_scan"}}, {"name": "f6aedcfcce647d2de311d5862743223d", "type": "electric_bike", "lat": 38.82446316666667, "is_reserved": 0, "lon": -77.07044483333334, "fusion_lon": 0.0, "is_disabled": 0, "fusion_lat": 0.0, "bike_id": "f6aedcfcce647d2de311d5862743223d", "rental_uris": {"ios": "https://dc.lft.to/lastmile_qr_scan", "android": "https://dc.lft.to/lastmile_qr_scan"}}, {"name": "06e0acbb6bdcb57e787cefe378b78b41", "type": "electric_scooter", "lat": 38.92318616666667, "is_reserved": 0, "lon": -77.0448765, "fusion_lon": 0.0, "is_disabled": 0, "fusion_lat": 0.0, "bike_id": "06e0acbb6bdcb57e787cefe378b78b41", "rental_uris": {"ios": "https://dc.lft.to/lastmile_qr_scan", "android": "https://dc.lft.to/lastmile_qr_scan"}}, {"name": "66fd26a3cbcbd30f06dbe1cd79e410c6", "type": "electric_scooter", "lat": 38.9089265, "is_reserved": 0, "lon": -77.08623883333334, "fusion_lon": 0.0, "is_disabled": 0, "fusion_lat": 0.0, "bike_id": "66fd26a3cbcbd30f06dbe1cd79e410c6", "rental_uris": {"ios": "https://dc.lft.to/lastmile_qr_scan", "android": "https://dc.lft.to/lastmile_qr_scan"}}, {"name": "322b7e5616f7ae80cd2a04412c745b94", "type": "electric_scooter", "lat": 38.8902275, "is_reserved": 0, "lon": -76.93686583333333, "fusion_lon": 0.0, "is_disabled": 0, "fusion_lat": 0.0, "bike_id": "322b7e5616f7ae80cd2a04412c745b94", "rental_uris": {"ios": "https://dc.lft.to/lastmile_qr_scan", "android": "https://dc.lft.to/lastmile_qr_scan"}}, {"name": "a1b117bc1c551af34c370a2c0d6a82a8", "type": "electric_bike", "lat": 38.906664666666664, "is_reserved": 0, "lon": -76.99959816666667, "fusion_lon": 0.0, "is_disabled": 0, "fusion_lat": 0.0, "bike_id": "a1b117bc1c551af34c370a2c0d6a82a8", "rental_uris": {"ios": "https://dc.lft.to/lastmile_qr_scan", "android": "https://dc.lft.to/lastmile_qr_scan"}}, {"name": "f7bd395a8296bb32eca6f45016df637b", "type": "electric_scooter", "lat": 38.9036695, "is_reserved": 0, "lon": -77.03898283333334, "fusion_lon": 0.0, "is_disabled": 0, "fusion_lat": 0.0, "bike_id": "f7bd395a8296bb32eca6f45016df637b", "rental_uris": {"ios": "https://dc.lft.to/lastmile_qr_scan", "android": "https://dc.lft.to/lastmile_qr_scan"}}, {"name": "93b2700121afddc757697abb6ef6ae63", "type": "electric_scooter", "lat": 38.89231933333333, "is_reserved": 0, "lon": -77.0321295, "fusion_lon": 0.0, "is_disabled": 0, "fusion_lat": 0.0, "bike_id": "93b2700121afddc757697abb6ef6ae63", "rental_uris": {"ios": "https://dc.lft.to/lastmile_qr_scan", "android": "https://dc.lft.to/lastmile_qr_scan"}}, {"name": "9a7defb701c6496ab26075e3348f539a", "type": "electric_scooter", "lat": 38.89727166666667, "is_reserved": 0, "lon": -77.0327705, "fusion_lon": 0.0, "is_disabled": 0, "fusion_lat": 0.0, "bike_id": "9a7defb701c6496ab26075e3348f539a", "rental_uris": {"ios": "https://dc.lft.to/lastmile_qr_scan", "android": "https://dc.lft.to/lastmile_qr_scan"}}, {"name": "c21717602c6fc01f67c8c44eeeed7b11", "type": "electric_scooter", "lat": 38.8851125, "is_reserved": 0, "lon": -77.00571833333333, "fusion_lon": 0.0, "is_disabled": 0, "fusion_lat": 0.0, "bike_id": "c21717602c6fc01f67c8c44eeeed7b11", "rental_uris": {"ios": "https://dc.lft.to/lastmile_qr_scan", "android": "https://dc.lft.to/lastmile_qr_scan"}}, {"name": "c2effbff6218dcdbdd99a36c007f14ba", "type": "electric_scooter", "lat": 38.89778916666667, "is_reserved": 0, "lon": -77.01103116666667, "fusion_lon": 0.0, "is_disabled": 0, "fusion_lat": 0.0, "bike_id": "c2effbff6218dcdbdd99a36c007f14ba", "rental_uris": {"ios": "https://dc.lft.to/lastmile_qr_scan", "android": "https://dc.lft.to/lastmile_qr_scan"}}, {"name": "a999fc9f304d6f65d962e0894b405eb8", "type": "electric_scooter", "lat": 38.901028833333335, "is_reserved": 0, "lon": -77.01925266666667, "fusion_lon": 0.0, "is_disabled": 0, "fusion_lat": 0.0, "bike_id": "a999fc9f304d6f65d962e0894b405eb8", "rental_uris": {"ios": "https://dc.lft.to/lastmile_qr_scan", "android": "https://dc.lft.to/lastmile_qr_scan"}}, {"name": "360abca6080c1ed7a387a6dbbd6fa2e4", "type": "electric_scooter", "lat": 38.905904666666665, "is_reserved": 0, "lon": -77.051049, "fusion_lon": 0.0, "is_disabled": 0, "fusion_lat": 0.0, "bike_id": "360abca6080c1ed7a387a6dbbd6fa2e4", "rental_uris": {"ios": "https://dc.lft.to/lastmile_qr_scan", "android": "https://dc.lft.to/lastmile_qr_scan"}}, {"name": "50af68d436402db06c1c070468e71b02", "type": "electric_scooter", "lat": 38.93713833333333, "is_reserved": 0, "lon": -77.02938983333334, "fusion_lon": 0.0, "is_disabled": 0, "fusion_lat": 0.0, "bike_id": "50af68d436402db06c1c070468e71b02", "rental_uris": {"ios": "https://dc.lft.to/lastmile_qr_scan", "android": "https://dc.lft.to/lastmile_qr_scan"}}, {"name": "da793d3c2effd568a6d35006ee6c7c74", "type": "electric_scooter", "lat": 38.900427, "is_reserved": 0, "lon": -77.00207216666666, "fusion_lon": 0.0, "is_disabled": 0, "fusion_lat": 0.0, "bike_id": "da793d3c2effd568a6d35006ee6c7c74", "rental_uris": {"ios": "https://dc.lft.to/lastmile_qr_scan", "android": "https://dc.lft.to/lastmile_qr_scan"}}, {"name": "4230bf0dde587dc42a65b3523976e6b6", "type": "electric_scooter", "lat": 38.917029166666666, "is_reserved": 0, "lon": -77.03126233333333, "fusion_lon": 0.0, "is_disabled": 0, "fusion_lat": 0.0, "bike_id": "4230bf0dde587dc42a65b3523976e6b6", "rental_uris": {"ios": "https://dc.lft.to/lastmile_qr_scan", "android": "https://dc.lft.to/lastmile_qr_scan"}}, {"name": "d15f357381ea51f6e2fb78b12412b0b9", "type": "electric_bike", "lat": 38.83147183333333, "is_reserved": 0, "lon": -77.11311066666667, "fusion_lon": 0.0, "is_disabled": 0, "fusion_lat": 0.0, "bike_id": "d15f357381ea51f6e2fb78b12412b0b9", "rental_uris": {"ios": "https://dc.lft.to/lastmile_qr_scan", "android": "https://dc.lft.to/lastmile_qr_scan"}}, {"name": "b442b7c42d3f8b9d587cc73edd90fdee", "type": "electric_scooter", "lat": 38.93968666666667, "is_reserved": 0, "lon": -77.03261666666667, "fusion_lon": 0.0, "is_disabled": 0, "fusion_lat": 0.0, "bike_id": "b442b7c42d3f8b9d587cc73edd90fdee", "rental_uris": {"ios": "https://dc.lft.to/lastmile_qr_scan", "android": "https://dc.lft.to/lastmile_qr_scan"}}, {"name": "461b7c67c29288ad7b12d934ec3f5373", "type": "electric_scooter", "lat": 38.89223033333333, "is_reserved": 0, "lon": -77.03083383333333, "fusion_lon": 0.0, "is_disabled": 0, "fusion_lat": 0.0, "bike_id": "461b7c67c29288ad7b12d934ec3f5373", "rental_uris": {"ios": "https://dc.lft.to/lastmile_qr_scan", "android": "https://dc.lft.to/lastmile_qr_scan"}}, {"name": "465af35c2a55d4c3c40cd91af4916c6a", "type": "electric_bike", "lat": 38.95072283333333, "is_reserved": 0, "lon": -77.0120155, "fusion_lon": 0.0, "is_disabled": 0, "fusion_lat": 0.0, "bike_id": "465af35c2a55d4c3c40cd91af4916c6a", "rental_uris": {"ios": "https://dc.lft.to/lastmile_qr_scan", "android": "https://dc.lft.to/lastmile_qr_scan"}}, {"name": "f886d76c556393a6fba120f6162f949f", "type": "electric_bike", "lat": 38.837218, "is_reserved": 0, "lon": -76.99769083333334, "fusion_lon": 0.0, "is_disabled": 0, "fusion_lat": 0.0, "bike_id": "f886d76c556393a6fba120f6162f949f", "rental_uris": {"ios": "https://dc.lft.to/lastmile_qr_scan", "android": "https://dc.lft.to/lastmile_qr_scan"}}, {"name": "e448c80a309400219d5ef6a24c6d1772", "type": "electric_scooter", "lat": 38.92853733333333, "is_reserved": 0, "lon": -77.01386683333334, "fusion_lon": 0.0, "is_disabled": 0, "fusion_lat": 0.0, "bike_id": "e448c80a309400219d5ef6a24c6d1772", "rental_uris": {"ios": "https://dc.lft.to/lastmile_qr_scan", "android": "https://dc.lft.to/lastmile_qr_scan"}}, {"name": "e6a0c4ac06fd3c31deff51e998ed3191", "type": "electric_scooter", "lat": 38.934264, "is_reserved": 0, "lon": -77.03997283333334, "fusion_lon": 0.0, "is_disabled": 0, "fusion_lat": 0.0, "bike_id": "e6a0c4ac06fd3c31deff51e998ed3191", "rental_uris": {"ios": "https://dc.lft.to/lastmile_qr_scan", "android": "https://dc.lft.to/lastmile_qr_scan"}}, {"name": "c51b01a228ac5b9be90f79fd30cc638d", "type": "electric_scooter", "lat": 38.9235855, "is_reserved": 0, "lon": -77.05243333333334, "fusion_lon": 0.0, "is_disabled": 0, "fusion_lat": 0.0, "bike_id": "c51b01a228ac5b9be90f79fd30cc638d", "rental_uris": {"ios": "https://dc.lft.to/lastmile_qr_scan", "android": "https://dc.lft.to/lastmile_qr_scan"}}, {"name": "43a16df5df5e5b65bb64585caf21fecd", "type": "electric_scooter", "lat": 38.89733833333333, "is_reserved": 0, "lon": -77.02696733333333, "fusion_lon": 0.0, "is_disabled": 0, "fusion_lat": 0.0, "bike_id": "43a16df5df5e5b65bb64585caf21fecd", "rental_uris": {"ios": "https://dc.lft.to/lastmile_qr_scan", "android": "https://dc.lft.to/lastmile_qr_scan"}}, {"name": "229a0510e7266c2d6775d7dfaca66613", "type": "electric_scooter", "lat": 38.89837283333333, "is_reserved": 0, "lon": -77.0074085, "fusion_lon": 0.0, "is_disabled": 0, "fusion_lat": 0.0, "bike_id": "229a0510e7266c2d6775d7dfaca66613", "rental_uris": {"ios": "https://dc.lft.to/lastmile_qr_scan", "android": "https://dc.lft.to/lastmile_qr_scan"}}, {"name": "194aad9391415f91e559a34c11b1ddac", "type": "electric_scooter", "lat": 38.894788166666665, "is_reserved": 0, "lon": -76.94870866666666, "fusion_lon": 0.0, "is_disabled": 0, "fusion_lat": 0.0, "bike_id": "194aad9391415f91e559a34c11b1ddac", "rental_uris": {"ios": "https://dc.lft.to/lastmile_qr_scan", "android": "https://dc.lft.to/lastmile_qr_scan"}}, {"name": "c92d15f47933924b0160159326d662ff", "type": "electric_scooter", "lat": 38.89938866666667, "is_reserved": 0, "lon": -77.0316555, "fusion_lon": 0.0, "is_disabled": 0, "fusion_lat": 0.0, "bike_id": "c92d15f47933924b0160159326d662ff", "rental_uris": {"ios": "https://dc.lft.to/lastmile_qr_scan", "android": "https://dc.lft.to/lastmile_qr_scan"}}, {"name": "dc2238f988b5efcd0f5320fd912c6377", "type": "electric_scooter", "lat": 38.931268333333335, "is_reserved": 0, "lon": -77.0360295, "fusion_lon": 0.0, "is_disabled": 0, "fusion_lat": 0.0, "bike_id": "dc2238f988b5efcd0f5320fd912c6377", "rental_uris": {"ios": "https://dc.lft.to/lastmile_qr_scan", "android": "https://dc.lft.to/lastmile_qr_scan"}}, {"name": "677cbc927ab47befe5fe2e40f578bf30", "type": "electric_scooter", "lat": 38.897993, "is_reserved": 0, "lon": -76.99163216666666, "fusion_lon": 0.0, "is_disabled": 0, "fusion_lat": 0.0, "bike_id": "677cbc927ab47befe5fe2e40f578bf30", "rental_uris": {"ios": "https://dc.lft.to/lastmile_qr_scan", "android": "https://dc.lft.to/lastmile_qr_scan"}}, {"name": "8177bd5f9c898e00933d6354e26a62af", "type": "electric_scooter", "lat": 38.897592833333334, "is_reserved": 0, "lon": -77.026874, "fusion_lon": 0.0, "is_disabled": 0, "fusion_lat": 0.0, "bike_id": "8177bd5f9c898e00933d6354e26a62af", "rental_uris": {"ios": "https://dc.lft.to/lastmile_qr_scan", "android": "https://dc.lft.to/lastmile_qr_scan"}}, {"name": "290ff150b4f059cb5d9e127ddfe41b8b", "type": "electric_scooter", "lat": 38.8978825, "is_reserved": 0, "lon": -77.01208816666667, "fusion_lon": 0.0, "is_disabled": 0, "fusion_lat": 0.0, "bike_id": "290ff150b4f059cb5d9e127ddfe41b8b", "rental_uris": {"ios": "https://dc.lft.to/lastmile_qr_scan", "android": "https://dc.lft.to/lastmile_qr_scan"}}, {"name": "450bd5513b36036f91ae2d719a6046c0", "type": "electric_bike", "lat": 38.956361, "is_reserved": 0, "lon": -76.93885983333334, "fusion_lon": 0.0, "is_disabled": 0, "fusion_lat": 0.0, "bike_id": "450bd5513b36036f91ae2d719a6046c0", "rental_uris": {"ios": "https://dc.lft.to/lastmile_qr_scan", "android": "https://dc.lft.to/lastmile_qr_scan"}}, {"name": "932330277f8344122769e9ac3d378871", "type": "electric_scooter", "lat": 38.866975833333335, "is_reserved": 0, "lon": -76.9871095, "fusion_lon": 0.0, "is_disabled": 0, "fusion_lat": 0.0, "bike_id": "932330277f8344122769e9ac3d378871", "rental_uris": {"ios": "https://dc.lft.to/lastmile_qr_scan", "android": "https://dc.lft.to/lastmile_qr_scan"}}, {"name": "481916e946d077b1f48ed2d124fd34af", "type": "electric_scooter", "lat": 38.930926, "is_reserved": 0, "lon": -77.034759, "fusion_lon": 0.0, "is_disabled": 0, "fusion_lat": 0.0, "bike_id": "481916e946d077b1f48ed2d124fd34af", "rental_uris": {"ios": "https://dc.lft.to/lastmile_qr_scan", "android": "https://dc.lft.to/lastmile_qr_scan"}}, {"name": "3d10b6a397467a52fae30c2fb205b4e5", "type": "electric_scooter", "lat": 38.923489000000004, "is_reserved": 0, "lon": -77.0433995, "fusion_lon": 0.0, "is_disabled": 0, "fusion_lat": 0.0, "bike_id": "3d10b6a397467a52fae30c2fb205b4e5", "rental_uris": {"ios": "https://dc.lft.to/lastmile_qr_scan", "android": "https://dc.lft.to/lastmile_qr_scan"}}, {"name": "21d8c7803bb53bb53dd6645770d94676", "type": "electric_scooter", "lat": 38.900210666666666, "is_reserved": 0, "lon": -76.99550883333333, "fusion_lon": 0.0, "is_disabled": 0, "fusion_lat": 0.0, "bike_id": "21d8c7803bb53bb53dd6645770d94676", "rental_uris": {"ios": "https://dc.lft.to/lastmile_qr_scan", "android": "https://dc.lft.to/lastmile_qr_scan"}}, {"name": "e93322fe1b55cee0eab67fcc7bed2d42", "type": "electric_scooter", "lat": 38.934438666666665, "is_reserved": 0, "lon": -77.02846533333333, "fusion_lon": 0.0, "is_disabled": 0, "fusion_lat": 0.0, "bike_id": "e93322fe1b55cee0eab67fcc7bed2d42", "rental_uris": {"ios": "https://dc.lft.to/lastmile_qr_scan", "android": "https://dc.lft.to/lastmile_qr_scan"}}, {"name": "37549a8acaf271186eed1a233f0c5579", "type": "electric_bike", "lat": 38.89766816666667, "is_reserved": 0, "lon": -76.90437283333333, "fusion_lon": 0.0, "is_disabled": 0, "fusion_lat": 0.0, "bike_id": "37549a8acaf271186eed1a233f0c5579", "rental_uris": {"ios": "https://dc.lft.to/lastmile_qr_scan", "android": "https://dc.lft.to/lastmile_qr_scan"}}, {"name": "ed60ab5b60ee5fa658b91b884001aecf", "type": "electric_scooter", "lat": 38.92481983333333, "is_reserved": 0, "lon": -77.03771, "fusion_lon": 0.0, "is_disabled": 0, "fusion_lat": 0.0, "bike_id": "ed60ab5b60ee5fa658b91b884001aecf", "rental_uris": {"ios": "https://dc.lft.to/lastmile_qr_scan", "android": "https://dc.lft.to/lastmile_qr_scan"}}, {"name": "f2d4f772fbbc78783f160a29f095af80", "type": "electric_scooter", "lat": 38.88336416666667, "is_reserved": 0, "lon": -77.01746133333333, "fusion_lon": 0.0, "is_disabled": 0, "fusion_lat": 0.0, "bike_id": "f2d4f772fbbc78783f160a29f095af80", "rental_uris": {"ios": "https://dc.lft.to/lastmile_qr_scan", "android": "https://dc.lft.to/lastmile_qr_scan"}}, {"name": "46a770b4914981d750bece14c9003172", "type": "electric_scooter", "lat": 38.918395, "is_reserved": 0, "lon": -77.0389625, "fusion_lon": 0.0, "is_disabled": 0, "fusion_lat": 0.0, "bike_id": "46a770b4914981d750bece14c9003172", "rental_uris": {"ios": "https://dc.lft.to/lastmile_qr_scan", "android": "https://dc.lft.to/lastmile_qr_scan"}}, {"name": "401499d1ab8b65799dac3f2a11c7424b", "type": "electric_scooter", "lat": 38.915591666666664, "is_reserved": 0, "lon": -77.031982, "fusion_lon": 0.0, "is_disabled": 0, "fusion_lat": 0.0, "bike_id": "401499d1ab8b65799dac3f2a11c7424b", "rental_uris": {"ios": "https://dc.lft.to/lastmile_qr_scan", "android": "https://dc.lft.to/lastmile_qr_scan"}}, {"name": "77626dccc2187e369048ba925b851eb4", "type": "electric_scooter", "lat": 38.892365166666664, "is_reserved": 0, "lon": -77.027983, "fusion_lon": 0.0, "is_disabled": 0, "fusion_lat": 0.0, "bike_id": "77626dccc2187e369048ba925b851eb4", "rental_uris": {"ios": "https://dc.lft.to/lastmile_qr_scan", "android": "https://dc.lft.to/lastmile_qr_scan"}}, {"name": "766d36b82fa6e696534afb40b5ffdfd9", "type": "electric_scooter", "lat": 38.888901, "is_reserved": 0, "lon": -77.03320966666666, "fusion_lon": 0.0, "is_disabled": 0, "fusion_lat": 0.0, "bike_id": "766d36b82fa6e696534afb40b5ffdfd9", "rental_uris": {"ios": "https://dc.lft.to/lastmile_qr_scan", "android": "https://dc.lft.to/lastmile_qr_scan"}}, {"name": "73a91a1f2042c51c8a3f650a3a6ba631", "type": "electric_scooter", "lat": 38.88363566666666, "is_reserved": 0, "lon": -77.03170566666667, "fusion_lon": 0.0, "is_disabled": 0, "fusion_lat": 0.0, "bike_id": "73a91a1f2042c51c8a3f650a3a6ba631", "rental_uris": {"ios": "https://dc.lft.to/lastmile_qr_scan", "android": "https://dc.lft.to/lastmile_qr_scan"}}, {"name": "6179953a9c2adc9f7b05739992436525", "type": "electric_scooter", "lat": 38.90359083333333, "is_reserved": 0, "lon": -77.0318465, "fusion_lon": 0.0, "is_disabled": 0, "fusion_lat": 0.0, "bike_id": "6179953a9c2adc9f7b05739992436525", "rental_uris": {"ios": "https://dc.lft.to/lastmile_qr_scan", "android": "https://dc.lft.to/lastmile_qr_scan"}}, {"name": "ba1c81e14f3de769e0aacac33e649a55", "type": "electric_scooter", "lat": 38.906962666666665, "is_reserved": 0, "lon": -77.07581, "fusion_lon": 0.0, "is_disabled": 0, "fusion_lat": 0.0, "bike_id": "ba1c81e14f3de769e0aacac33e649a55", "rental_uris": {"ios": "https://dc.lft.to/lastmile_qr_scan", "android": "https://dc.lft.to/lastmile_qr_scan"}}, {"name": "7599d997a3b7248a4f50b919a60faacf", "type": "electric_scooter", "lat": 38.89830583333333, "is_reserved": 0, "lon": -76.946338, "fusion_lon": 0.0, "is_disabled": 0, "fusion_lat": 0.0, "bike_id": "7599d997a3b7248a4f50b919a60faacf", "rental_uris": {"ios": "https://dc.lft.to/lastmile_qr_scan", "android": "https://dc.lft.to/lastmile_qr_scan"}}, {"name": "38981b6d858d21409fc86a55aba20d82", "type": "electric_scooter", "lat": 38.9259125, "is_reserved": 0, "lon": -77.00481216666667, "fusion_lon": 0.0, "is_disabled": 0, "fusion_lat": 0.0, "bike_id": "38981b6d858d21409fc86a55aba20d82", "rental_uris": {"ios": "https://dc.lft.to/lastmile_qr_scan", "android": "https://dc.lft.to/lastmile_qr_scan"}}, {"name": "5208472cade420b2c2bee8f5fd02091f", "type": "electric_scooter", "lat": 38.909258, "is_reserved": 0, "lon": -76.9997175, "fusion_lon": 0.0, "is_disabled": 0, "fusion_lat": 0.0, "bike_id": "5208472cade420b2c2bee8f5fd02091f", "rental_uris": {"ios": "https://dc.lft.to/lastmile_qr_scan", "android": "https://dc.lft.to/lastmile_qr_scan"}}, {"name": "5c072cc525a6c3a94de78d7d8121efbc", "type": "electric_scooter", "lat": 38.915429833333334, "is_reserved": 0, "lon": -77.03795116666667, "fusion_lon": 0.0, "is_disabled": 0, "fusion_lat": 0.0, "bike_id": "5c072cc525a6c3a94de78d7d8121efbc", "rental_uris": {"ios": "https://dc.lft.to/lastmile_qr_scan", "android": "https://dc.lft.to/lastmile_qr_scan"}}, {"name": "b7e48df640bf93a042a627bf87449ebc", "type": "electric_scooter", "lat": 38.935263, "is_reserved": 0, "lon": -77.02855216666667, "fusion_lon": 0.0, "is_disabled": 0, "fusion_lat": 0.0, "bike_id": "b7e48df640bf93a042a627bf87449ebc", "rental_uris": {"ios": "https://dc.lft.to/lastmile_qr_scan", "android": "https://dc.lft.to/lastmile_qr_scan"}}, {"name": "22ce8f188574b1b6099c769bb7e05070", "type": "electric_scooter", "lat": 38.8923495, "is_reserved": 0, "lon": -77.04998216666667, "fusion_lon": 0.0, "is_disabled": 0, "fusion_lat": 0.0, "bike_id": "22ce8f188574b1b6099c769bb7e05070", "rental_uris": {"ios": "https://dc.lft.to/lastmile_qr_scan", "android": "https://dc.lft.to/lastmile_qr_scan"}}, {"name": "a62ef21c35ceb427ce9851f7b147c14a", "type": "electric_scooter", "lat": 38.9069825, "is_reserved": 0, "lon": -77.0059235, "fusion_lon": 0.0, "is_disabled": 0, "fusion_lat": 0.0, "bike_id": "a62ef21c35ceb427ce9851f7b147c14a", "rental_uris": {"ios": "https://dc.lft.to/lastmile_qr_scan", "android": "https://dc.lft.to/lastmile_qr_scan"}}, {"name": "6d456a8ca7c9df5c154397adc5bbe842", "type": "electric_scooter", "lat": 38.927094, "is_reserved": 0, "lon": -77.04046366666667, "fusion_lon": 0.0, "is_disabled": 0, "fusion_lat": 0.0, "bike_id": "6d456a8ca7c9df5c154397adc5bbe842", "rental_uris": {"ios": "https://dc.lft.to/lastmile_qr_scan", "android": "https://dc.lft.to/lastmile_qr_scan"}}, {"name": "57fe5e43f090c63da7cdd514f5e5e2c8", "type": "electric_scooter", "lat": 38.91680366666667, "is_reserved": 0, "lon": -77.02957233333333, "fusion_lon": 0.0, "is_disabled": 0, "fusion_lat": 0.0, "bike_id": "57fe5e43f090c63da7cdd514f5e5e2c8", "rental_uris": {"ios": "https://dc.lft.to/lastmile_qr_scan", "android": "https://dc.lft.to/lastmile_qr_scan"}}, {"name": "2b2fac926f7b602b146d3cf5414a7faa", "type": "electric_scooter", "lat": 38.905283, "is_reserved": 0, "lon": -77.06516366666666, "fusion_lon": 0.0, "is_disabled": 0, "fusion_lat": 0.0, "bike_id": "2b2fac926f7b602b146d3cf5414a7faa", "rental_uris": {"ios": "https://dc.lft.to/lastmile_qr_scan", "android": "https://dc.lft.to/lastmile_qr_scan"}}, {"name": "ba5e266d96632a9b4f8e5921d0db9908", "type": "electric_scooter", "lat": 38.9038275, "is_reserved": 0, "lon": -77.04493416666666, "fusion_lon": 0.0, "is_disabled": 0, "fusion_lat": 0.0, "bike_id": "ba5e266d96632a9b4f8e5921d0db9908", "rental_uris": {"ios": "https://dc.lft.to/lastmile_qr_scan", "android": "https://dc.lft.to/lastmile_qr_scan"}}, {"name": "2f66d29c919109867f24e9fe98c0fbbd", "type": "electric_scooter", "lat": 38.899527666666664, "is_reserved": 0, "lon": -77.05274916666667, "fusion_lon": 0.0, "is_disabled": 0, "fusion_lat": 0.0, "bike_id": "2f66d29c919109867f24e9fe98c0fbbd", "rental_uris": {"ios": "https://dc.lft.to/lastmile_qr_scan", "android": "https://dc.lft.to/lastmile_qr_scan"}}, {"name": "dd23e4dbd37ef621a46026730dd72950", "type": "electric_scooter", "lat": 38.90128083333333, "is_reserved": 0, "lon": -76.99707916666667, "fusion_lon": 0.0, "is_disabled": 0, "fusion_lat": 0.0, "bike_id": "dd23e4dbd37ef621a46026730dd72950", "rental_uris": {"ios": "https://dc.lft.to/lastmile_qr_scan", "android": "https://dc.lft.to/lastmile_qr_scan"}}, {"name": "268cdc28ceb9b3697f8759d080044688", "type": "electric_scooter", "lat": 38.922706833333336, "is_reserved": 0, "lon": -77.01822766666666, "fusion_lon": 0.0, "is_disabled": 0, "fusion_lat": 0.0, "bike_id": "268cdc28ceb9b3697f8759d080044688", "rental_uris": {"ios": "https://dc.lft.to/lastmile_qr_scan", "android": "https://dc.lft.to/lastmile_qr_scan"}}, {"name": "e34264aab4b8256a9f56dc198aa62d8a", "type": "electric_scooter", "lat": 38.9036545, "is_reserved": 0, "lon": -77.03858933333333, "fusion_lon": 0.0, "is_disabled": 0, "fusion_lat": 0.0, "bike_id": "e34264aab4b8256a9f56dc198aa62d8a", "rental_uris": {"ios": "https://dc.lft.to/lastmile_qr_scan", "android": "https://dc.lft.to/lastmile_qr_scan"}}, {"name": "ef4608ae77ab1b71f36700f1c4b43443", "type": "electric_scooter", "lat": 38.930825666666664, "is_reserved": 0, "lon": -77.02795383333333, "fusion_lon": 0.0, "is_disabled": 0, "fusion_lat": 0.0, "bike_id": "ef4608ae77ab1b71f36700f1c4b43443", "rental_uris": {"ios": "https://dc.lft.to/lastmile_qr_scan", "android": "https://dc.lft.to/lastmile_qr_scan"}}, {"name": "e705b12678f3572287f17035b80e03a3", "type": "electric_scooter", "lat": 38.900196, "is_reserved": 0, "lon": -77.03015783333333, "fusion_lon": 0.0, "is_disabled": 0, "fusion_lat": 0.0, "bike_id": "e705b12678f3572287f17035b80e03a3", "rental_uris": {"ios": "https://dc.lft.to/lastmile_qr_scan", "android": "https://dc.lft.to/lastmile_qr_scan"}}, {"name": "b3279428d505a1d933cf5f24e4aa33d7", "type": "electric_scooter", "lat": 38.92358016666667, "is_reserved": 0, "lon": -77.0523985, "fusion_lon": 0.0, "is_disabled": 0, "fusion_lat": 0.0, "bike_id": "b3279428d505a1d933cf5f24e4aa33d7", "rental_uris": {"ios": "https://dc.lft.to/lastmile_qr_scan", "android": "https://dc.lft.to/lastmile_qr_scan"}}, {"name": "ec1e3151e84c889085d1be08bd22f223", "type": "electric_scooter", "lat": 38.930633666666665, "is_reserved": 0, "lon": -77.0318375, "fusion_lon": 0.0, "is_disabled": 0, "fusion_lat": 0.0, "bike_id": "ec1e3151e84c889085d1be08bd22f223", "rental_uris": {"ios": "https://dc.lft.to/lastmile_qr_scan", "android": "https://dc.lft.to/lastmile_qr_scan"}}, {"name": "2b29d549495de59b067f735426e97ae2", "type": "electric_scooter", "lat": 38.93204, "is_reserved": 0, "lon": -77.03850133333333, "fusion_lon": 0.0, "is_disabled": 0, "fusion_lat": 0.0, "bike_id": "2b29d549495de59b067f735426e97ae2", "rental_uris": {"ios": "https://dc.lft.to/lastmile_qr_scan", "android": "https://dc.lft.to/lastmile_qr_scan"}}, {"name": "b087393484ca9e90333dc059b02819d2", "type": "electric_scooter", "lat": 38.928745, "is_reserved": 0, "lon": -77.03474266666667, "fusion_lon": 0.0, "is_disabled": 0, "fusion_lat": 0.0, "bike_id": "b087393484ca9e90333dc059b02819d2", "rental_uris": {"ios": "https://dc.lft.to/lastmile_qr_scan", "android": "https://dc.lft.to/lastmile_qr_scan"}}, {"name": "87446518e944fae137b682d510fe3cdc", "type": "electric_scooter", "lat": 38.92477266666667, "is_reserved": 0, "lon": -77.028358, "fusion_lon": 0.0, "is_disabled": 0, "fusion_lat": 0.0, "bike_id": "87446518e944fae137b682d510fe3cdc", "rental_uris": {"ios": "https://dc.lft.to/lastmile_qr_scan", "android": "https://dc.lft.to/lastmile_qr_scan"}}, {"name": "3cee9ea4c14498bcda85921e96cb1c91", "type": "electric_scooter", "lat": 38.88401433333333, "is_reserved": 0, "lon": -77.01778533333334, "fusion_lon": 0.0, "is_disabled": 0, "fusion_lat": 0.0, "bike_id": "3cee9ea4c14498bcda85921e96cb1c91", "rental_uris": {"ios": "https://dc.lft.to/lastmile_qr_scan", "android": "https://dc.lft.to/lastmile_qr_scan"}}, {"name": "d31738db20eff6461bd7c99b95e63842", "type": "electric_scooter", "lat": 38.88629616666667, "is_reserved": 0, "lon": -77.01534966666667, "fusion_lon": 0.0, "is_disabled": 0, "fusion_lat": 0.0, "bike_id": "d31738db20eff6461bd7c99b95e63842", "rental_uris": {"ios": "https://dc.lft.to/lastmile_qr_scan", "android": "https://dc.lft.to/lastmile_qr_scan"}}, {"name": "969ac4f90bf6a397638519f7fef78c89", "type": "electric_scooter", "lat": 38.8948325, "is_reserved": 0, "lon": -76.9953695, "fusion_lon": 0.0, "is_disabled": 0, "fusion_lat": 0.0, "bike_id": "969ac4f90bf6a397638519f7fef78c89", "rental_uris": {"ios": "https://dc.lft.to/lastmile_qr_scan", "android": "https://dc.lft.to/lastmile_qr_scan"}}, {"name": "421838bb853b825c1e4aa97d1c3093a2", "type": "electric_scooter", "lat": 38.90047716666667, "is_reserved": 0, "lon": -77.03187533333333, "fusion_lon": 0.0, "is_disabled": 0, "fusion_lat": 0.0, "bike_id": "421838bb853b825c1e4aa97d1c3093a2", "rental_uris": {"ios": "https://dc.lft.to/lastmile_qr_scan", "android": "https://dc.lft.to/lastmile_qr_scan"}}, {"name": "89e633c60e8e23a957ad1cba577deeb0", "type": "electric_scooter", "lat": 38.8849535, "is_reserved": 0, "lon": -77.00727766666667, "fusion_lon": 0.0, "is_disabled": 0, "fusion_lat": 0.0, "bike_id": "89e633c60e8e23a957ad1cba577deeb0", "rental_uris": {"ios": "https://dc.lft.to/lastmile_qr_scan", "android": "https://dc.lft.to/lastmile_qr_scan"}}, {"name": "74e083d321a492f24ef21d10920dcfc3", "type": "electric_scooter", "lat": 38.908581166666664, "is_reserved": 0, "lon": -77.02731883333334, "fusion_lon": 0.0, "is_disabled": 0, "fusion_lat": 0.0, "bike_id": "74e083d321a492f24ef21d10920dcfc3", "rental_uris": {"ios": "https://dc.lft.to/lastmile_qr_scan", "android": "https://dc.lft.to/lastmile_qr_scan"}}, {"name": "47965706443f256fec7c50d8d75c0236", "type": "electric_scooter", "lat": 38.898843166666666, "is_reserved": 0, "lon": -77.03273966666667, "fusion_lon": 0.0, "is_disabled": 0, "fusion_lat": 0.0, "bike_id": "47965706443f256fec7c50d8d75c0236", "rental_uris": {"ios": "https://dc.lft.to/lastmile_qr_scan", "android": "https://dc.lft.to/lastmile_qr_scan"}}, {"name": "93327b757a921a08fab923545c99f251", "type": "electric_scooter", "lat": 38.88016316666667, "is_reserved": 0, "lon": -76.9313435, "fusion_lon": 0.0, "is_disabled": 0, "fusion_lat": 0.0, "bike_id": "93327b757a921a08fab923545c99f251", "rental_uris": {"ios": "https://dc.lft.to/lastmile_qr_scan", "android": "https://dc.lft.to/lastmile_qr_scan"}}, {"name": "13dc3fb15ab2f74b0d62337e633a8bde", "type": "electric_scooter", "lat": 38.8973445, "is_reserved": 0, "lon": -76.94716233333334, "fusion_lon": 0.0, "is_disabled": 0, "fusion_lat": 0.0, "bike_id": "13dc3fb15ab2f74b0d62337e633a8bde", "rental_uris": {"ios": "https://dc.lft.to/lastmile_qr_scan", "android": "https://dc.lft.to/lastmile_qr_scan"}}, {"name": "3f9165a25d72663bd46d572f96550175", "type": "electric_scooter", "lat": 38.89970566666667, "is_reserved": 0, "lon": -77.0556925, "fusion_lon": 0.0, "is_disabled": 0, "fusion_lat": 0.0, "bike_id": "3f9165a25d72663bd46d572f96550175", "rental_uris": {"ios": "https://dc.lft.to/lastmile_qr_scan", "android": "https://dc.lft.to/lastmile_qr_scan"}}, {"name": "ff5ae5b49855abefba11b0ba3ef9c56b", "type": "electric_scooter", "lat": 38.928003, "is_reserved": 0, "lon": -77.05360316666666, "fusion_lon": 0.0, "is_disabled": 0, "fusion_lat": 0.0, "bike_id": "ff5ae5b49855abefba11b0ba3ef9c56b", "rental_uris": {"ios": "https://dc.lft.to/lastmile_qr_scan", "android": "https://dc.lft.to/lastmile_qr_scan"}},