{"data": {"bikes": [{"lon": -76.99976333333333, "is_disabled": 0, "lat": 38.87493516666667, "fusion_lat": 0.0, "is_reserved": 0, "rental_uris": {"ios": "https://dc.lft.to/lastmile_qr_scan", "android": "https://dc.lft.to/lastmile_qr_scan"}, "fusion_lon": 0.0, "type": "electric_scooter", "bike_id": "ce0d5e8e22837d3d27b5a594b2d91b86", "name": "ce0d5e8e22837d3d27b5a594b2d91b86"}, {"lon": -77.03362383333334, "is_disabled": 0, "lat": 38.924418333333335, "fusion_lat": 0.0, "is_reserved": 0, "rental_uris": {"ios": "https://dc.lft.to/lastmile_qr_scan", "android": "https://dc.lft.to/lastmile_qr_scan"}, "fusion_lon": 0.0, "type": "electric_scooter", "bike_id": "e64d2a22c4510e8a8545a82484b702f7", "name": "e64d2a22c4510e8a8545a82484b702f7"}, {"lon": -77.04189116666667, "is_disabled": 0, "lat": 38.920509333333335, "fusion_lat": 0.0, "is_reserved": 0, "rental_uris": {"ios": "https://dc.lft.to/lastmile_qr_scan", "android": "https://dc.lft.to/lastmile_qr_scan"}, "fusion_lon": 0.0, "type": "electric_scooter", "bike_id": "6cac2ce1879eb24ce440dbd120c20a77", "name": "6cac2ce1879eb24ce440dbd120c20a77"}, {"lon": -77.0727045, "is_disabled": 0, "lat": 38.911625, "fusion_lat": 0.0, "is_reserved": 0, "rental_uris": {"ios": "https://dc.lft.to/lastmile_qr_scan", "android": "https://dc.lft.to/lastmile_qr_scan"}, "fusion_lon": 0.0, "type": "electric_scooter", "bike_id": "2de3b5f30357eb4fd9af0e87e700b8e6", "name": "2de3b5f30357eb4fd9af0e87e700b8e6"}, {"lon": -77.00220233333333, "is_disabled": 0, "lat": 38.82362283333333, "fusion_lat": 0.0, "is_reserved": 0, "rental_uris": {"ios": "https://dc.lft.to/lastmile_qr_scan", "android": "https://dc.lft.to/lastmile_qr_scan"}, "fusion_lon": 0.0, "type": "electric_bike", "bike_id": "50cec61f39031a1147778cd2168a8cd6", "name": "50cec61f39031a1147778cd2168a8cd6"}, {"lon": -76.976172, "is_disabled": 0, "lat": 38.89290033333333, "fusion_lat": 0.0, "is_reserved": 0, "rental_uris": {"ios": "https://dc.lft.to/lastmile_qr_scan", "android": "https://dc.lft.to/lastmile_qr_scan"}, "fusion_lon": 0.0, "type": "electric_bike", "bike_id": "96a33457d2465d73b55fe24c47764c4f", "name": "96a33457d2465d73b55fe24c47764c4f"}, {"lon": -77.03722433333333, "is_disabled": 0, "lat": 38.90227433333333, "fusion_lat": 0.0, "is_reserved": 0, "rental_uris": {"ios": "https://dc.lft.to/lastmile_qr_scan", "android": "https://dc.lft.to/lastmile_qr_scan"}, "fusion_lon": 0.0, "type": "electric_scooter", "bike_id": "ec976f8e262df98b9d75d3e29c7c5f62", "name": "ec976f8e262df98b9d75d3e29c7c5f62"}, {"lon": -77.11828366666667, "is_disabled": 0, "lat": 38.85934316666667, "fusion_lat": 0.0, "is_reserved": 0, "rental_uris": {"ios": "https://dc.lft.to/lastmile_qr_scan", "android": "https://dc.lft.to/lastmile_qr_scan"}, "fusion_lon": 0.0, "type": "electric_bike", "bike_id": "a6a737bdbb51aae4d049b3cb8c359e69", "name": "a6a737bdbb51aae4d049b3cb8c359e69"}, {"lon": -77.00933083333334, "is_disabled": 0, "lat": 38.91923933333333, "fusion_lat": 0.0, "is_reserved": 0, "rental_uris": {"ios": "https://dc.lft.to/lastmile_qr_scan", "android": "https://dc.lft.to/lastmile_qr_scan"}, "fusion_lon": 0.0, "type": "electric_scooter", "bike_id": "641ea1a5b81f976221be0ae7d6fd442b", "name": "641ea1a5b81f976221be0ae7d6fd442b"}, {"lon": -76.9858985, "is_disabled": 0, "lat": 38.85875566666667, "fusion_lat": 0.0, "is_reserved": 0, "rental_uris": {"ios": "https://dc.lft.to/lastmile_qr_scan", "android": "https://dc.lft.to/lastmile_qr_scan"}, "fusion_lon": 0.0, "type": "electric_scooter", "bike_id": "800103870ad2faaa46cb2dadf9b8a4dc", "name": "800103870ad2faaa46cb2dadf9b8a4dc"}, {"lon": -77.041915, "is_disabled": 0, "lat": 38.920476666666666, "fusion_lat": 0.0, "is_reserved": 0, "rental_uris": {"ios": "https://dc.lft.to/lastmile_qr_scan", "android": "https://dc.lft.to/lastmile_qr_scan"}, "fusion_lon": 0.0, "type": "electric_scooter", "bike_id": "044698b5f9e4fc3473a785a865b0fec7", "name": "044698b5f9e4fc3473a785a865b0fec7"}, {"lon": -77.036405, "is_disabled": 0, "lat": 38.931748666666664, "fusion_lat": 0.0, "is_reserved": 0, "rental_uris": {"ios": "https://dc.lft.to/lastmile_qr_scan", "android": "https://dc.lft.to/lastmile_qr_scan"}, "fusion_lon": 0.0, "type": "electric_scooter", "bike_id": "f5a25a049b63ff9a11a82fccc992f0d9", "name": "f5a25a049b63ff9a11a82fccc992f0d9"}, {"lon": -77.02110733333333, "is_disabled": 0, "lat": 38.921734, "fusion_lat": 0.0, "is_reserved": 0, "rental_uris": {"ios": "https://dc.lft.to/lastmile_qr_scan", "android": "https://dc.lft.to/lastmile_qr_scan"}, "fusion_lon": 0.0, "type": "electric_scooter", "bike_id": "2890ba634491ca472ff76704bd5a6cc2", "name": "2890ba634491ca472ff76704bd5a6cc2"}, {"lon": -77.0263115, "is_disabled": 0, "lat": 38.9298625, "fusion_lat": 0.0, "is_reserved": 0, "rental_uris": {"ios": "https://dc.lft.to/lastmile_qr_scan", "android": "https://dc.lft.to/lastmile_qr_scan"}, "fusion_lon": 0.0, "type": "electric_scooter", "bike_id": "eebe4044a9a4b764a1af9a53d5ae427c", "name": "eebe4044a9a4b764a1af9a53d5ae427c"}, {"lon": -77.01211166666667, "is_disabled": 0, "lat": 38.870912, "fusion_lat": 0.0, "is_reserved": 0, "rental_uris": {"ios": "https://dc.lft.to/lastmile_qr_scan", "android": "https://dc.lft.to/lastmile_qr_scan"}, "fusion_lon": 0.0, "type": "electric_bike", "bike_id": "71cc0284b230cc4bfe7b41524640edb6", "name": "71cc0284b230cc4bfe7b41524640edb6"}, {"lon": -77.0237665, "is_disabled": 0, "lat": 38.916647, "fusion_lat": 0.0, "is_reserved": 0, "rental_uris": {"ios": "https://dc.lft.to/lastmile_qr_scan", "android": "https://dc.lft.to/lastmile_qr_scan"}, "fusion_lon": 0.0, "type": "electric_scooter", "bike_id": "3204eda0415d3f6a42422b373058b4cc", "name": "3204eda0415d3f6a42422b373058b4cc"}, {"lon": -77.0006945, "is_disabled": 0, "lat": 38.90031833333333, "fusion_lat": 0.0, "is_reserved": 0, "rental_uris": {"ios": "https://dc.lft.to/lastmile_qr_scan", "android": "https://dc.lft.to/lastmile_qr_scan"}, "fusion_lon": 0.0, "type": "electric_scooter", "bike_id": "f398e7a0128a1bc5d5a89785196310f1", "name": "f398e7a0128a1bc5d5a89785196310f1"}, {"lon": -77.03873833333333, "is_disabled": 0, "lat": 38.93458966666667, "fusion_lat": 0.0, "is_reserved": 0, "rental_uris": {"ios": "https://dc.lft.to/lastmile_qr_scan", "android": "https://dc.lft.to/lastmile_qr_scan"}, "fusion_lon": 0.0, "type": "electric_scooter", "bike_id": "da6152d146634d53495f395b2dd24309", "name": "da6152d146634d53495f395b2dd24309"}, {"lon": -77.04124016666667, "is_disabled": 0, "lat": 38.933574166666666, "fusion_lat": 0.0, "is_reserved": 0, "rental_uris": {"ios": "https://dc.lft.to/lastmile_qr_scan", "android": "https://dc.lft.to/lastmile_qr_scan"}, "fusion_lon": 0.0, "type": "electric_scooter", "bike_id": "83c85847fe5671e77a271a8087c2b7e3", "name": "83c85847fe5671e77a271a8087c2b7e3"}, {"lon": -77.0385635, "is_disabled": 0, "lat": 38.91368666666666, "fusion_lat": 0.0, "is_reserved": 0, "rental_uris": {"ios": "https://dc.lft.to/lastmile_qr_scan", "android": "https://dc.lft.to/lastmile_qr_scan"}, "fusion_lon": 0.0, "type": "electric_scooter", "bike_id": "46f56688400734625b68d3104265cb3e", "name": "46f56688400734625b68d3104265cb3e"}, {"lon": -77.022088, "is_disabled": 0, "lat": 38.90388183333334, "fusion_lat": 0.0, "is_reserved": 0, "rental_uris": {"ios": "https://dc.lft.to/lastmile_qr_scan", "android": "https://dc.lft.to/lastmile_qr_scan"}, "fusion_lon": 0.0, "type": "electric_scooter", "bike_id": "b8fa5fe215140bdb6bf19118f6249331", "name": "b8fa5fe215140bdb6bf19118f6249331"}, {"lon": -77.02586166666667, "is_disabled": 0, "lat": 38.89816233333333, "fusion_lat": 0.0, "is_reserved": 0, "rental_uris": {"ios": "https://dc.lft.to/lastmile_qr_scan", "android": "https://dc.lft.to/lastmile_qr_scan"}, "fusion_lon": 0.0, "type": "electric_scooter", "bike_id": "30825e2edf9a7032a38bfeaf905b5962", "name": "30825e2edf9a7032a38bfeaf905b5962"}, {"lon": -77.03865983333333, "is_disabled": 0, "lat": 38.90803966666667, "fusion_lat": 0.0, "is_reserved": 0, "rental_uris": {"ios": "https://dc.lft.to/lastmile_qr_scan", "android": "https://dc.lft.to/lastmile_qr_scan"}, "fusion_lon": 0.0, "type": "electric_scooter", "bike_id": "e41cd1782390f98c951f76360d380589", "name": "e41cd1782390f98c951f76360d380589"}, {"lon": -77.03919016666667, "is_disabled": 0, "lat": 38.91704766666667, "fusion_lat": 0.0, "is_reserved": 0, "rental_uris": {"ios": "https://dc.lft.to/lastmile_qr_scan", "android": "https://dc.lft.to/lastmile_qr_scan"}, "fusion_lon": 0.0, "type": "electric_scooter", "bike_id": "1fc35ce2d575ccc9e2e18688ee19146f", "name": "1fc35ce2d575ccc9e2e18688ee19146f"}, {"lon": -76.9999315, "is_disabled": 0, "lat": 38.964083333333335, "fusion_lat": 0.0, "is_reserved": 0, "rental_uris": {"ios": "https://dc.lft.to/lastmile_qr_scan", "android": "https://dc.lft.to/lastmile_qr_scan"}, "fusion_lon": 0.0, "type": "electric_bike", "bike_id": "0d7ec05f382ad0ad8f90f253a8d0e6dd", "name": "0d7ec05f382ad0ad8f90f253a8d0e6dd"}, {"lon": -77.04864583333334, "is_disabled": 0, "lat": 38.903913833333334, "fusion_lat": 0.0, "is_reserved": 0, "rental_uris": {"ios": "https://dc.lft.to/lastmile_qr_scan", "android": "https://dc.lft.to/lastmile_qr_scan"}, "fusion_lon": 0.0, "type": "electric_scooter", "bike_id": "5d20e188fbbeff8e6d82a4b971a428b3", "name": "5d20e188fbbeff8e6d82a4b971a428b3"}, {"lon": -77.04690033333334, "is_disabled": 0, "lat": 38.895535333333335, "fusion_lat": 0.0, "is_reserved": 0, "rental_uris": {"ios": "https://dc.lft.to/lastmile_qr_scan", "android": "https://dc.lft.to/lastmile_qr_scan"}, "fusion_lon": 0.0, "type": "electric_scooter", "bike_id": "ef9b4a997221f92dd8d7dfe80b15f1b2", "name": "ef9b4a997221f92dd8d7dfe80b15f1b2"}, {"lon": -77.03873966666667, "is_disabled": 0, "lat": 38.93251016666667, "fusion_lat": 0.0, "is_reserved": 0, "rental_uris": {"ios": "https://dc.lft.to/lastmile_qr_scan", "android": "https://dc.lft.to/lastmile_qr_scan"}, "fusion_lon": 0.0, "type": "electric_scooter", "bike_id": "a36bf2d2aaceacfcee6938cad5f4906a", "name": "a36bf2d2aaceacfcee6938cad5f4906a"}, {"lon": -77.02811166666666, "is_disabled": 0, "lat": 38.89923483333333, "fusion_lat": 0.0, "is_reserved": 0, "rental_uris": {"ios": "https://dc.lft.to/lastmile_qr_scan", "android": "https://dc.lft.to/lastmile_qr_scan"}, "fusion_lon": 0.0, "type": "electric_scooter", "bike_id": "e41a3aad20041f019320c9efaa530fef", "name": "e41a3aad20041f019320c9efaa530fef"}, {"lon": -77.04816416666667, "is_disabled": 0, "lat": 38.90956533333333, "fusion_lat": 0.0, "is_reserved": 0, "rental_uris": {"ios": "https://dc.lft.to/lastmile_qr_scan", "android": "https://dc.lft.to/lastmile_qr_scan"}, "fusion_lon": 0.0, "type": "electric_scooter", "bike_id": "052aa357a12f20290dbb6dfff45d4d47", "name": "052aa357a12f20290dbb6dfff45d4d47"}, {"lon": -77.04360283333334, "is_disabled": 0, "lat": 38.90399983333333, "fusion_lat": 0.0, "is_reserved": 0, "rental_uris": {"ios": "https://dc.lft.to/lastmile_qr_scan", "android": "https://dc.lft.to/lastmile_qr_scan"}, "fusion_lon": 0.0, "type": "electric_scooter", "bike_id": "8400211b17bbe4260380f4558d654ce3", "name": "8400211b17bbe4260380f4558d654ce3"}, {"lon": -77.03736533333333, "is_disabled": 0, "lat": 38.92025116666667, "fusion_lat": 0.0, "is_reserved": 0, "rental_uris": {"ios": "https://dc.lft.to/lastmile_qr_scan", "android": "https://dc.lft.to/lastmile_qr_scan"}, "fusion_lon": 0.0, "type": "electric_scooter", "bike_id": "16ec73259a544e16e162eacd87443d93", "name": "16ec73259a544e16e162eacd87443d93"}, {"lon": -77.04335133333333, "is_disabled": 0, "lat": 38.90719466666667, "fusion_lat": 0.0, "is_reserved": 0, "rental_uris": {"ios": "https://dc.lft.to/lastmile_qr_scan", "android": "https://dc.lft.to/lastmile_qr_scan"}, "fusion_lon": 0.0, "type": "electric_scooter", "bike_id": "92f664d64455370361ada7595d5f26d8", "name": "92f664d64455370361ada7595d5f26d8"}, {"lon": -77.03636566666667, "is_disabled": 0, "lat": 38.90682533333333, "fusion_lat": 0.0, "is_reserved": 0, "rental_uris": {"ios": "https://dc.lft.to/lastmile_qr_scan", "android": "https://dc.lft.to/lastmile_qr_scan"}, "fusion_lon": 0.0, "type": "electric_scooter", "bike_id": "9d12bbeff63221d0b9fd80ba8b923ee2", "name": "9d12bbeff63221d0b9fd80ba8b923ee2"}, {"lon": -76.99578466666667, "is_disabled": 0, "lat": 38.851773, "fusion_lat": 0.0, "is_reserved": 0, "rental_uris": {"ios": "https://dc.lft.to/lastmile_qr_scan", "android": "https://dc.lft.to/lastmile_qr_scan"}, "fusion_lon": 0.0, "type": "electric_scooter", "bike_id": "89d035f2a222ea4322f002cb3582eba1", "name": "89d035f2a222ea4322f002cb3582eba1"}, {"lon": -77.01744466666666, "is_disabled": 0, "lat": 38.87836866666667, "fusion_lat": 0.0, "is_reserved": 0, "rental_uris": {"ios": "https://dc.lft.to/lastmile_qr_scan", "android": "https://dc.lft.to/lastmile_qr_scan"}, "fusion_lon": 0.0, "type": "electric_scooter", "bike_id": "9481ed27a1f79fef4a0e10f834d4d39a", "name": "9481ed27a1f79fef4a0e10f834d4d39a"}, {"lon": -77.03428883333333, "is_disabled": 0, "lat": 38.905674166666664, "fusion_lat": 0.0, "is_reserved": 0, "rental_uris": {"ios": "https://dc.lft.to/lastmile_qr_scan", "android": "https://dc.lft.to/lastmile_qr_scan"}, "fusion_lon": 0.0, "type": "electric_scooter", "bike_id": "5f97428edcde2a6bf5ce2d9615d1c4b3", "name": "5f97428edcde2a6bf5ce2d9615d1c4b3"}, {"lon": -77.117785, "is_disabled": 0, "lat": 38.8316255, "fusion_lat": 0.0, "is_reserved": 0, "rental_uris": {"ios": "https://dc.lft.to/lastmile_qr_scan", "android": "https://dc.lft.to/lastmile_qr_scan"}, "fusion_lon": 0.0, "type": "electric_bike", "bike_id": "2d333c0cc727b5fe3063018f51cfda7f", "name": "2d333c0cc727b5fe3063018f51cfda7f"}, {"lon": -77.02438733333334, "is_disabled": 0, "lat": 38.924011666666665, "fusion_lat": 0.0, "is_reserved": 0, "rental_uris": {"ios": "https://dc.lft.to/lastmile_qr_scan", "android": "https://dc.lft.to/lastmile_qr_scan"}, "fusion_lon": 0.0, "type": "electric_scooter", "bike_id": "5fceab4c2f763fe0c6ba32412d462125", "name": "5fceab4c2f763fe0c6ba32412d462125"}, {"lon": -77.06072033333334, "is_disabled": 0, "lat": 38.90676333333333, "fusion_lat": 0.0, "is_reserved": 0, "rental_uris": {"ios": "https://dc.lft.to/lastmile_qr_scan", "android": "https://dc.lft.to/lastmile_qr_scan"}, "fusion_lon": 0.0, "type": "electric_scooter", "bike_id": "f4237cd940534f8249511eed166ffe5c", "name": "f4237cd940534f8249511eed166ffe5c"}, {"lon": -77.0024075, "is_disabled": 0, "lat": 38.87480433333333, "fusion_lat": 0.0, "is_reserved": 0, "rental_uris": {"ios": "https://dc.lft.to/lastmile_qr_scan", "android": "https://dc.lft.to/lastmile_qr_scan"}, "fusion_lon": 0.0, "type": "electric_scooter", "bike_id": "d1697b5fa62684a86e60ae77febb1e34", "name": "d1697b5fa62684a86e60ae77febb1e34"}, {"lon": -77.0259515, "is_disabled": 0, "lat": 38.911057, "fusion_lat": 0.0, "is_reserved": 0, "rental_uris": {"ios": "https://dc.lft.to/lastmile_qr_scan", "android": "https://dc.lft.to/lastmile_qr_scan"}, "fusion_lon": 0.0, "type": "electric_scooter", "bike_id": "841a6c787c94e41f8337e9afbfaaba6d", "name": "841a6c787c94e41f8337e9afbfaaba6d"}, {"lon": -77.03727866666667, "is_disabled": 0, "lat": 38.926612, "fusion_lat": 0.0, "is_reserved": 0, "rental_uris": {"ios": "https://dc.lft.to/lastmile_qr_scan", "android": "https://dc.lft.to/lastmile_qr_scan"}, "fusion_lon": 0.0, "type": "electric_scooter", "bike_id": "0077845930bea2d0108efdbc4716a0f8", "name": "0077845930bea2d0108efdbc4716a0f8"}, {"lon": -77.03283633333334, "is_disabled": 0, "lat": 38.93442916666667, "fusion_lat": 0.0, "is_reserved": 0, "rental_uris": {"ios": "https://dc.lft.to/lastmile_qr_scan", "android": "https://dc.lft.to/lastmile_qr_scan"}, "fusion_lon": 0.0, "type": "electric_scooter", "bike_id": "fe1bef709c48dabea6ebf9f4551440c1", "name": "fe1bef709c48dabea6ebf9f4551440c1"}, {"lon": -77.0433915, "is_disabled": 0, "lat": 38.922179, "fusion_lat": 0.0, "is_reserved": 0, "rental_uris": {"ios": "https://dc.lft.to/lastmile_qr_scan", "android": "https://dc.lft.to/lastmile_qr_scan"}, "fusion_lon": 0.0, "type": "electric_scooter", "bike_id": "aa566b2dacbc90ea024b1f6aa54e1536", "name": "aa566b2dacbc90ea024b1f6aa54e1536"}, {"lon": -77.04160066666667, "is_disabled": 0, "lat": 38.91422033333333, "fusion_lat": 0.0, "is_reserved": 0, "rental_uris": {"ios": "https://dc.lft.to/lastmile_qr_scan", "android": "https://dc.lft.to/lastmile_qr_scan"}, "fusion_lon": 0.0, "type": "electric_scooter", "bike_id": "5ad4f089890ad01013b4ee003ca1243f", "name": "5ad4f089890ad01013b4ee003ca1243f"}, {"lon": -77.0376235, "is_disabled": 0, "lat": 38.92560266666667, "fusion_lat": 0.0, "is_reserved": 0, "rental_uris": {"ios": "https://dc.lft.to/lastmile_qr_scan", "android": "https://dc.lft.to/lastmile_qr_scan"}, "fusion_lon": 0.0, "type": "electric_scooter", "bike_id": "70f9c1900b346e6b81ddfd4d3705f169", "name": "70f9c1900b346e6b81ddfd4d3705f169"}, {"lon": -77.01661816666666, "is_disabled": 0, "lat": 38.8812025, "fusion_lat": 0.0, "is_reserved": 0, "rental_uris": {"ios": "https://dc.lft.to/lastmile_qr_scan", "android": "https://dc.lft.to/lastmile_qr_scan"}, "fusion_lon": 0.0, "type": "electric_scooter", "bike_id": "e291590249725d31fcb49228c8e4dda3", "name": "e291590249725d31fcb49228c8e4dda3"}, {"lon": -77.0053185, "is_disabled": 0, "lat": 38.8801695, "fusion_lat": 0.0, "is_reserved": 0, "rental_uris": {"ios": "https://dc.lft.to/lastmile_qr_scan", "android": "https://dc.lft.to/lastmile_qr_scan"}, "fusion_lon": 0.0, "type": "electric_scooter", "bike_id": "b9ec188675d7ed076519d65a4c122b0c", "name": "b9ec188675d7ed076519d65a4c122b0c"}, {"lon": -77.020457, "is_disabled": 0, "lat": 38.92110066666667, "fusion_lat": 0.0, "is_reserved": 0, "rental_uris": {"ios": "https://dc.lft.to/lastmile_qr_scan", "android": "https://dc.lft.to/lastmile_qr_scan"}, "fusion_lon": 0.0, "type": "electric_scooter", "bike_id": "64d73867aa9689d7a66e3e29bc361b6c", "name": "64d73867aa9689d7a66e3e29bc361b6c"}, {"lon": -77.03006666666667, "is_disabled": 0, "lat": 38.90113483333333, "fusion_lat": 0.0, "is_reserved": 0, "rental_uris": {"ios": "https://dc.lft.to/lastmile_qr_scan", "android": "https://dc.lft.to/lastmile_qr_scan"}, "fusion_lon": 0.0, "type": "electric_scooter", "bike_id": "97de943a82990205ecce4d2dbb06fad8", "name": "97de943a82990205ecce4d2dbb06fad8"}, {"lon": -77.01781433333333, "is_disabled": 0, "lat": 38.87708216666667, "fusion_lat": 0.0, "is_reserved": 0, "rental_uris": {"ios": "https://dc.lft.to/lastmile_qr_scan", "android": "https://dc.lft.to/lastmile_qr_scan"}, "fusion_lon": 0.0, "type": "electric_scooter", "bike_id": "95af1decf48b144a550934dc7e1047e1", "name": "95af1decf48b144a550934dc7e1047e1"}, {"lon": -77.04486816666666, "is_disabled": 0, "lat": 38.89913516666667, "fusion_lat": 0.0, "is_reserved": 0, "rental_uris": {"ios": "https://dc.lft.to/lastmile_qr_scan", "android": "https://dc.lft.to/lastmile_qr_scan"}, "fusion_lon": 0.0, "type": "electric_scooter", "bike_id": "8e5ad7ecec3246ea820e0999247fd63b", "name": "8e5ad7ecec3246ea820e0999247fd63b"}, {"lon": -77.0320245, "is_disabled": 0, "lat": 38.909410333333334, "fusion_lat": 0.0, "is_reserved": 0, "rental_uris": {"ios": "https://dc.lft.to/lastmile_qr_scan", "android": "https://dc.lft.to/lastmile_qr_scan"}, "fusion_lon": 0.0, "type": "electric_scooter", "bike_id": "226bb4947e0cae98c61cf1597fe7f8ca", "name": "226bb4947e0cae98c61cf1597fe7f8ca"}, {"lon": -77.03630483333333, "is_disabled": 0, "lat": 38.95638366666667, "fusion_lat": 0.0, "is_reserved": 0, "rental_uris": {"ios": "https://dc.lft.to/lastmile_qr_scan", "android": "https://dc.lft.to/lastmile_qr_scan"}, "fusion_lon": 0.0, "type": "electric_scooter", "bike_id": "eb91c79ecb8ab61b277113e022445982", "name": "eb91c79ecb8ab61b277113e022445982"}, {"lon": -77.02944966666666, "is_disabled": 0, "lat": 38.89818833333333, "fusion_lat": 0.0, "is_reserved": 0, "rental_uris": {"ios": "https://dc.lft.to/lastmile_qr_scan", "android": "https://dc.lft.to/lastmile_qr_scan"}, "fusion_lon": 0.0, "type": "electric_scooter", "bike_id": "8ffefcc2ed88fb8995cbc8fb5ba4d63c", "name": "8ffefcc2ed88fb8995cbc8fb5ba4d63c"}, {"lon": -77.03875883333333, "is_disabled": 0, "lat": 38.9215035, "fusion_lat": 0.0, "is_reserved": 0, "rental_uris": {"ios": "https://dc.lft.to/lastmile_qr_scan", "android": "https://dc.lft.to/lastmile_qr_scan"}, "fusion_lon": 0.0, "type": "electric_scooter", "bike_id": "64c5819695890c40d6f0a2666580d6f5", "name": "64c5819695890c40d6f0a2666580d6f5"}, {"lon": -77.035167, "is_disabled": 0, "lat": 38.918359, "fusion_lat": 0.0, "is_reserved": 0, "rental_uris": {"ios": "https://dc.lft.to/lastmile_qr_scan", "android": "https://dc.lft.to/lastmile_qr_scan"}, "fusion_lon": 0.0, "type": "electric_scooter", "bike_id": "664421a1a4de68d3c1cc10c4a3039a50", "name": "664421a1a4de68d3c1cc10c4a3039a50"}, {"lon": -77.00383683333334, "is_disabled": 0, "lat": 38.905869333333335, "fusion_lat": 0.0, "is_reserved": 0, "rental_uris": {"ios": "https://dc.lft.to/lastmile_qr_scan", "android": "https://dc.lft.to/lastmile_qr_scan"}, "fusion_lon": 0.0, "type": "electric_scooter", "bike_id": "0959a1d1ae95186f1d999431838b314d", "name": "0959a1d1ae95186f1d999431838b314d"}, {"lon": -77.11740033333334, "is_disabled": 0, "lat": 39.05097883333333, "fusion_lat": 0.0, "is_reserved": 0, "rental_uris": {"ios": "https://dc.lft.to/lastmile_qr_scan", "android": "https://dc.lft.to/lastmile_qr_scan"}, "fusion_lon": 0.0, "type": "electric_bike", "bike_id": "cfae1cf11ec8a1126264bdb206de149d", "name": "cfae1cf11ec8a1126264bdb206de149d"}, {"lon": -77.00198533333334, "is_disabled": 0, "lat": 38.89109, "fusion_lat": 0.0, "is_reserved": 0, "rental_uris": {"ios": "https://dc.lft.to/lastmile_qr_scan", "android": "https://dc.lft.to/lastmile_qr_scan"}, "fusion_lon": 0.0, "type": "electric_scooter", "bike_id": "ff7912ebd37bf7fa2e89462413b0db97", "name": "ff7912ebd37bf7fa2e89462413b0db97"}, {"lon": -76.96053316666666, "is_disabled": 0, "lat": 38.883989166666666, "fusion_lat": 0.0, "is_reserved": 0, "rental_uris": {"ios": "https://dc.lft.to/lastmile_qr_scan", "android": "https://dc.lft.to/lastmile_qr_scan"}, "fusion_lon": 0.0, "type": "electric_bike", "bike_id": "bfe38d5ff821edd4f0531faf8264ecd3", "name": "bfe38d5ff821edd4f0531faf8264ecd3"}, {"lon": -77.033441, "is_disabled": 0, "lat": 38.92870083333333, "fusion_lat": 0.0, "is_reserved": 0, "rental_uris": {"ios": "https://dc.lft.to/lastmile_qr_scan", "android": "https://dc.lft.to/lastmile_qr_scan"}, "fusion_lon": 0.0, "type": "electric_scooter", "bike_id": "b6df99b5ba94e0b2302ad74fd334d0a3", "name": "b6df99b5ba94e0b2302ad74fd334d0a3"}, {"lon": -77.03289416666667, "is_disabled": 0, "lat": 38.928930333333334, "fusion_lat": 0.0, "is_reserved": 0, "rental_uris": {"ios": "https://dc.lft.to/lastmile_qr_scan", "android": "https://dc.lft.to/lastmile_qr_scan"}, "fusion_lon": 0.0, "type": "electric_scooter", "bike_id": "649b1cfb59f5d13b0d14af647a08f147", "name": "649b1cfb59f5d13b0d14af647a08f147"}, {"lon": -77.04489533333333, "is_disabled": 0, "lat": 38.9085695, "fusion_lat": 0.0, "is_reserved": 0, "rental_uris": {"ios": "https://dc.lft.to/lastmile_qr_scan", "android": "https://dc.lft.to/lastmile_qr_scan"}, "fusion_lon": 0.0, "type": "electric_scooter", "bike_id": "858b6cacb55d45fdccefcaac105c81ed", "name": "858b6cacb55d45fdccefcaac105c81ed"}, {"lon": -77.03327266666666, "is_disabled": 0, "lat": 38.892256333333336, "fusion_lat": 0.0, "is_reserved": 0, "rental_uris": {"ios": "https://dc.lft.to/lastmile_qr_scan", "android": "https://dc.lft.to/lastmile_qr_scan"}, "fusion_lon": 0.0, "type": "electric_scooter", "bike_id": "670b8bb5541a049bd706e16f595e5f43", "name": "670b8bb5541a049bd706e16f595e5f43"}, {"lon": -77.02461316666667, "is_disabled": 0, "lat": 38.93859166666667, "fusion_lat": 0.0, "is_reserved": 0, "rental_uris": {"ios": "https://dc.lft.to/lastmile_qr_scan", "android": "https://dc.lft.to/lastmile_qr_scan"}, "fusion_lon": 0.0, "type": "electric_scooter", "bike_id": "27839f41f89c9df998ceb3b7c8549eb9", "name": "27839f41f89c9df998ceb3b7c8549eb9"}, {"lon": -77.05170683333333, "is_disabled": 0, "lat": 38.90544766666667, "fusion_lat": 0.0, "is_reserved": 0, "rental_uris": {"ios": "https://dc.lft.to/lastmile_qr_scan", "android": "https://dc.lft.to/lastmile_qr_scan"}, "fusion_lon": 0.0, "type": "electric_scooter", "bike_id": "4150687dea51fe2220e3bef15cf5f4e0", "name": "4150687dea51fe2220e3bef15cf5f4e0"}, {"lon": -77.00063316666666, "is_disabled": 0, "lat": 38.87351833333334, "fusion_lat": 0.0, "is_reserved": 0, "rental_uris": {"ios": "https://dc.lft.to/lastmile_qr_scan", "android": "https://dc.lft.to/lastmile_qr_scan"}, "fusion_lon": 0.0, "type": "electric_scooter", "bike_id": "ec9bd58e710259b0ef6ebb84908eceee", "name": "ec9bd58e710259b0ef6ebb84908eceee"}, {"lon": -77.01489366666667, "is_disabled": 0, "lat": 38.892224166666665, "fusion_lat": 0.0, "is_reserved": 0, "rental_uris": {"ios": "https://dc.lft.to/lastmile_qr_scan", "android": "https://dc.lft.to/lastmile_qr_scan"}, "fusion_lon": 0.0, "type": "electric_scooter", "bike_id": "f33d7659d732caf0fc9ff87a876953f4", "name": "f33d7659d732caf0fc9ff87a876953f4"}, {"lon": -77.040976, "is_disabled": 0, "lat": 38.91775883333333, "fusion_lat": 0.0, "is_reserved": 0, "rental_uris": {"ios": "https://dc.lft.to/lastmile_qr_scan", "android": "https://dc.lft.to/lastmile_qr_scan"}, "fusion_lon": 0.0, "type": "electric_scooter", "bike_id": "180a6cd398a503132feb854f79653c83", "name": "180a6cd398a503132feb854f79653c83"}, {"lon": -77.03290666666666, "is_disabled": 0, "lat": 38.93510666666667, "fusion_lat": 0.0, "is_reserved": 0, "rental_uris": {"ios": "https://dc.lft.to/lastmile_qr_scan", "android": "https://dc.lft.to/lastmile_qr_scan"}, "fusion_lon": 0.0, "type": "electric_scooter", "bike_id": "d021a1c3111081996a43a11fb3e54459", "name": "d021a1c3111081996a43a11fb3e54459"}, {"lon": -77.02516233333333, "is_disabled": 0, "lat": 38.91923416666667, "fusion_lat": 0.0, "is_reserved": 0, "rental_uris": {"ios": "https://dc.lft.to/lastmile_qr_scan", "android": "https://dc.lft.to/lastmile_qr_scan"}, "fusion_lon": 0.0, "type": "electric_scooter", "bike_id": "897f00870dcdb6f3051ada83f486575f", "name": "897f00870dcdb6f3051ada83f486575f"}, {"lon": -77.039469, "is_disabled": 0, "lat": 38.908164, "fusion_lat": 0.0, "is_reserved": 0, "rental_uris": {"ios": "https://dc.lft.to/lastmile_qr_scan", "android": "https://dc.lft.to/lastmile_qr_scan"}, "fusion_lon": 0.0, "type": "electric_scooter", "bike_id": "c26b47defe5bdb3057fc48bec95ae46f", "name": "c26b47defe5bdb3057fc48bec95ae46f"}, {"lon": -77.053408, "is_disabled": 0, "lat": 39.040805666666664, "fusion_lat": 0.0, "is_reserved": 0, "rental_uris": {"ios": "https://dc.lft.to/lastmile_qr_scan", "android": "https://dc.lft.to/lastmile_qr_scan"}, "fusion_lon": 0.0, "type": "electric_bike", "bike_id": "2ca7b0601ae92e3882b11bcbf4064c89", "name": "2ca7b0601ae92e3882b11bcbf4064c89"}, {"lon": -77.02888366666667, "is_disabled": 0, "lat": 38.904414333333335, "fusion_lat": 0.0, "is_reserved": 0, "rental_uris": {"ios": "https://dc.lft.to/lastmile_qr_scan", "android": "https://dc.lft.to/lastmile_qr_scan"}, "fusion_lon": 0.0, "type": "electric_scooter", "bike_id": "a9ff9630af2495d51ad5b0733702e428", "name": "a9ff9630af2495d51ad5b0733702e428"}, {"lon": -76.95098266666666, "is_disabled": 0, "lat": 38.884496, "fusion_lat": 0.0, "is_reserved": 0, "rental_uris": {"ios": "https://dc.lft.to/lastmile_qr_scan", "android": "https://dc.lft.to/lastmile_qr_scan"}, "fusion_lon": 0.0, "type": "electric_scooter", "bike_id": "268f2eb9e42d294f95704878ebd3dcfa", "name": "268f2eb9e42d294f95704878ebd3dcfa"}, {"lon": -77.00728433333333, "is_disabled": 0, "lat": 38.884941833333336, "fusion_lat": 0.0, "is_reserved": 0, "rental_uris": {"ios": "https://dc.lft.to/lastmile_qr_scan", "android": "https://dc.lft.to/lastmile_qr_scan"}, "fusion_lon": 0.0, "type": "electric_scooter", "bike_id": "81876f67d976fc6642057c821aab5462", "name": "81876f67d976fc6642057c821aab5462"}, {"lon": -77.03208433333333, "is_disabled": 0, "lat": 38.918433666666665, "fusion_lat": 0.0, "is_reserved": 0, "rental_uris": {"ios": "https://dc.lft.to/lastmile_qr_scan", "android": "https://dc.lft.to/lastmile_qr_scan"}, "fusion_lon": 0.0, "type": "electric_scooter", "bike_id": "a6e78b90ed3b9f150ddc5ad97cfe2756", "name": "a6e78b90ed3b9f150ddc5ad97cfe2756"}, {"lon": -77.14060416666666, "is_disabled": 0, "lat": 38.98768416666667, "fusion_lat": 0.0, "is_reserved": 0, "rental_uris": {"ios": "https://dc.lft.to/lastmile_qr_scan", "android": "https://dc.lft.to/lastmile_qr_scan"}, "fusion_lon": 0.0, "type": "electric_bike", "bike_id": "792b63bfe688a2689abbde46dacdf123", "name": "792b63bfe688a2689abbde46dacdf123"}, {"lon": -76.979214, "is_disabled": 0, "lat": 38.916529833333335, "fusion_lat": 0.0, "is_reserved": 0, "rental_uris": {"ios": "https://dc.lft.to/lastmile_qr_scan", "android": "https://dc.lft.to/lastmile_qr_scan"}, "fusion_lon": 0.0, "type": "electric_scooter", "bike_id": "7388b08b5ac28e3b7810fb4e6dfc9acc", "name": "7388b08b5ac28e3b7810fb4e6dfc9acc"}, {"lon": -77.00304333333334, "is_disabled": 0, "lat": 38.920319166666665, "fusion_lat": 0.0, "is_reserved": 0, "rental_uris": {"ios": "https://dc.lft.to/lastmile_qr_scan", "android": "https://dc.lft.to/lastmile_qr_scan"}, "fusion_lon": 0.0, "type": "electric_scooter", "bike_id": "2e2391ee0536fbf9491212e2db962b98", "name": "2e2391ee0536fbf9491212e2db962b98"}, {"lon": -77.0296995, "is_disabled": 0, "lat": 38.9129525, "fusion_lat": 0.0, "is_reserved": 0, "rental_uris": {"ios": "https://dc.lft.to/lastmile_qr_scan", "android": "https://dc.lft.to/lastmile_qr_scan"}, "fusion_lon": 0.0, "type": "electric_scooter", "bike_id": "d58e88dd0a387335cb346221386ab58a", "name": "d58e88dd0a387335cb346221386ab58a"}, {"lon": -77.04159066666666, "is_disabled": 0, "lat": 38.91417966666667, "fusion_lat": 0.0, "is_reserved": 0, "rental_uris": {"ios": "https://dc.lft.to/lastmile_qr_scan", "android": "https://dc.lft.to/lastmile_qr_scan"}, "fusion_lon": 0.0, "type": "electric_scooter", "bike_id": "b4480bf1d8c33e437698db2a40dc4fdb", "name": "b4480bf1d8c33e437698db2a40dc4fdb"}, {"lon": -77.04492833333333, "is_disabled": 0, "lat": 38.90356633333333, "fusion_lat": 0.0, "is_reserved": 0, "rental_uris": {"ios": "https://dc.lft.to/lastmile_qr_scan", "android": "https://dc.lft.to/lastmile_qr_scan"}, "fusion_lon": 0.0, "type": "electric_scooter", "bike_id": "5ea3baee573c949d28292a89a503913b", "name": "5ea3baee573c949d28292a89a503913b"}, {"lon": -77.0089035, "is_disabled": 0, "lat": 38.92327683333333, "fusion_lat": 0.0, "is_reserved": 0, "rental_uris": {"ios": "https://dc.lft.to/lastmile_qr_scan", "android": "https://dc.lft.to/lastmile_qr_scan"}, "fusion_lon": 0.0, "type": "electric_scooter", "bike_id": "daa34d153e0d5f6b1c708a70d777dbbd", "name": "daa34d153e0d5f6b1c708a70d777dbbd"}, {"lon": -77.04334783333333, "is_disabled": 0, "lat": 38.906288833333335, "fusion_lat": 0.0, "is_reserved": 0, "rental_uris": {"ios": "https://dc.lft.to/lastmile_qr_scan", "android": "https://dc.lft.to/lastmile_qr_scan"}, "fusion_lon": 0.0, "type": "electric_bike", "bike_id": "1652e857fbe2b2f3dcac3388ed72a3e7", "name": "1652e857fbe2b2f3dcac3388ed72a3e7"}, {"lon": -77.05145733333333, "is_disabled": 0, "lat": 38.92376083333333, "fusion_lat": 0.0, "is_reserved": 0, "rental_uris": {"ios": "https://dc.lft.to/lastmile_qr_scan", "android": "https://dc.lft.to/lastmile_qr_scan"}, "fusion_lon": 0.0, "type": "electric_scooter", "bike_id": "37f5e0dab1f84b84e98350fc3789ee77", "name": "37f5e0dab1f84b84e98350fc3789ee77"}, {"lon": -77.03274133333333, "is_disabled": 0, "lat": 38.92758, "fusion_lat": 0.0, "is_reserved": 0, "rental_uris": {"ios": "https://dc.lft.to/lastmile_qr_scan", "android": "https://dc.lft.to/lastmile_qr_scan"}, "fusion_lon": 0.0, "type": "electric_scooter", "bike_id": "992f0c52dd3035c23d35cd9c1b241c0b", "name": "992f0c52dd3035c23d35cd9c1b241c0b"}, {"lon": -77.03520466666667, "is_disabled": 0, "lat": 38.92237166666666, "fusion_lat": 0.0, "is_reserved": 0, "rental_uris": {"ios": "https://dc.lft.to/lastmile_qr_scan", "android": "https://dc.lft.to/lastmile_qr_scan"}, "fusion_lon": 0.0, "type": "electric_scooter", "bike_id": "6a9259e693a95d54a08a28651b6256b0", "name": "6a9259e693a95d54a08a28651b6256b0"}, {"lon": -77.046801, "is_disabled": 0, "lat": 38.90349533333333, "fusion_lat": 0.0, "is_reserved": 0, "rental_uris": {"ios": "https://dc.lft.to/lastmile_qr_scan", "android": "https://dc.lft.to/lastmile_qr_scan"}, "fusion_lon": 0.0, "type": "electric_scooter", "bike_id": "cdb822fe042d7f8030e6fa6b08f2d57c", "name": "cdb822fe042d7f8030e6fa6b08f2d57c"}, {"lon": -77.06407866666666, "is_disabled": 0, "lat": 38.94440083333333, "fusion_lat": 0.0, "is_reserved": 0, "rental_uris": {"ios": "https://dc.lft.to/lastmile_qr_scan", "android": "https://dc.lft.to/lastmile_qr_scan"}, "fusion_lon": 0.0, "type": "electric_scooter", "bike_id": "3ede87460ff33d861395e3169e7aeadc", "name": "3ede87460ff33d861395e3169e7aeadc"}, {"lon": -77.0188475, "is_disabled": 0, "lat": 38.874417666666666, "fusion_lat": 0.0, "is_reserved": 0, "rental_uris": {"ios": "https://dc.lft.to/lastmile_qr_scan", "android": "https://dc.lft.to/lastmile_qr_scan"}, "fusion_lon": 0.0, "type": "electric_scooter", "bike_id": "1e3425b172d7408c3d51fd0e9c9024d9", "name": "1e3425b172d7408c3d51fd0e9c9024d9"}, {"lon": -77.02402733333334, "is_disabled": 0, "lat": 38.91549233333333, "fusion_lat": 0.0, "is_reserved": 0, "rental_uris": {"ios": "https://dc.lft.to/lastmile_qr_scan", "android": "https://dc.lft.to/lastmile_qr_scan"}, "fusion_lon": 0.0, "type": "electric_scooter", "bike_id": "25ca7222697a74b6c9b5262eaef599cd", "name": "25ca7222697a74b6c9b5262eaef599cd"}, {"lon": -77.0843095, "is_disabled": 0, "lat": 38.9318215, "fusion_lat": 0.0, "is_reserved": 0, "rental_uris": {"ios": "https://dc.lft.to/lastmile_qr_scan", "android": "https://dc.lft.to/lastmile_qr_scan"}, "fusion_lon": 0.0, "type": "electric_scooter", "bike_id": "6774b52d2557e1303e3a83ea423c4785", "name": "6774b52d2557e1303e3a83ea423c4785"}, {"lon": -77.04153183333334, "is_disabled": 0, "lat": 38.90127, "fusion_lat": 0.0, "is_reserved": 0, "rental_uris": {"ios": "https://dc.lft.to/lastmile_qr_scan", "android": "https://dc.lft.to/lastmile_qr_scan"}, "fusion_lon": 0.0, "type": "electric_scooter", "bike_id": "9b50f38ede22980e616a206e1f7c003e", "name": "9b50f38ede22980e616a206e1f7c003e"}, {"lon": -76.945722, "is_disabled": 0, "lat": 38.866198, "fusion_lat": 0.0, "is_reserved": 0, "rental_uris": {"ios": "https://dc.lft.to/lastmile_qr_scan", "android": "https://dc.lft.to/lastmile_qr_scan"}, "fusion_lon": 0.0, "type": "electric_bike", "bike_id": "ec82ec31befd0f488f151fd8deca2f02", "name": "ec82ec31befd0f488f151fd8deca2f02"}, {"lon": -77.03200466666667, "is_disabled": 0, "lat": 38.92882616666667, "fusion_lat": 0.0, "is_reserved": 0, "rental_uris": {"ios": "https://dc.lft.to/lastmile_qr_scan", "android": "https://dc.lft.to/lastmile_qr_scan"}, "fusion_lon": 0.0, "type": "electric_scooter", "bike_id": "4313bfa6c84aebfe4c835c1be36cf645", "name": "4313bfa6c84aebfe4c835c1be36cf645"}, {"lon": -77.005175, "is_disabled": 0, "lat": 38.87468833333333, "fusion_lat": 0.0, "is_reserved": 0, "rental_uris": {"ios": "https://dc.lft.to/lastmile_qr_scan", "android": "https://dc.lft.to/lastmile_qr_scan"}, "fusion_lon": 0.0, "type": "electric_scooter", "bike_id": "095a69355eccaeda996bf82010178ee5", "name": "095a69355eccaeda996bf82010178ee5"}, {"lon": -77.045363, "is_disabled": 0, "lat": 38.91325116666667, "fusion_lat": 0.0, "is_reserved": 0, "rental_uris": {"ios": "https://dc.lft.to/lastmile_qr_scan", "android": "https://dc.lft.to/lastmile_qr_scan"}, "fusion_lon": 0.0, "type": "electric_scooter", "bike_id": "0183e704ed05e749ec548018c3d4821b", "name": "0183e704ed05e749ec548018c3d4821b"}, {"lon": -77.00680333333334, "is_disabled": 0, "lat": 38.8716745, "fusion_lat": 0.0, "is_reserved": 0, "rental_uris": {"ios": "https://dc.lft.to/lastmile_qr_scan", "android": "https://dc.lft.to/lastmile_qr_scan"}, "fusion_lon": 0.0, "type": "electric_scooter", "bike_id": "1be7e5756c3aff8159cbdd4997e8316d", "name": "1be7e5756c3aff8159cbdd4997e8316d"}, {"lon": -76.94893333333333, "is_disabled": 0, "lat": 38.895332833333335, "fusion_lat": 0.0, "is_reserved": 0, "rental_uris": {"ios": "https://dc.lft.to/lastmile_qr_scan", "android": "https://dc.lft.to/lastmile_qr_scan"}, "fusion_lon": 0.0, "type": "electric_scooter", "bike_id": "82874134464dabb999ff817431dee754", "name": "82874134464dabb999ff817431dee754"}, {"lon": -77.01996516666667, "is_disabled": 0, "lat": 38.89744733333333, "fusion_lat": 0.0, "is_reserved": 0, "rental_uris": {"ios": "https://dc.lft.to/lastmile_qr_scan", "android": "https://dc.lft.to/lastmile_qr_scan"}, "fusion_lon": 0.0, "type": "electric_scooter", "bike_id": "5e99c06a932fd6a19a272216539dc26d", "name": "5e99c06a932fd6a19a272216539dc26d"}, {"lon": -77.02022816666667, "is_disabled": 0, "lat": 38.92427416666666, "fusion_lat": 0.0, "is_reserved": 0, "rental_uris": {"ios": "https://dc.lft.to/lastmile_qr_scan", "android": "https://dc.lft.to/lastmile_qr_scan"}, "fusion_lon": 0.0, "type": "electric_scooter", "bike_id": "7a5fcbde5469733a2add80ae83ba9cf3", "name": "7a5fcbde5469733a2add80ae83ba9cf3"}, {"lon": -77.03640516666667, "is_disabled": 0, "lat": 38.91781183333333, "fusion_lat": 0.0, "is_reserved": 0, "rental_uris": {"ios": "https://dc.lft.to/lastmile_qr_scan", "android": "https://dc.lft.to/lastmile_qr_scan"}, "fusion_lon": 0.0, "type": "electric_scooter", "bike_id": "704ecbe0b08d42c43c843b33f781d5c2", "name": "704ecbe0b08d42c43c843b33f781d5c2"}, {"lon": -77.03701633333333, "is_disabled": 0, "lat": 38.91663966666667, "fusion_lat": 0.0, "is_reserved": 0, "rental_uris": {"ios": "https://dc.lft.to/lastmile_qr_scan", "android": "https://dc.lft.to/lastmile_qr_scan"}, "fusion_lon": 0.0, "type": "electric_scooter", "bike_id": "954110a50d535829293e4ade3d648101", "name": "954110a50d535829293e4ade3d648101"}, {"lon": -77.085324, "is_disabled": 0, "lat": 38.9160755, "fusion_lat": 0.0, "is_reserved": 0, "rental_uris": {"ios": "https://dc.lft.to/lastmile_qr_scan", "android": "https://dc.lft.to/lastmile_qr_scan"}, "fusion_lon": 0.0, "type": "electric_scooter", "bike_id": "da15097dab79db7bd3628ec8f5e2ef92", "name": "da15097dab79db7bd3628ec8f5e2ef92"}, {"lon": -76.97054833333334, "is_disabled": 0, "lat": 38.98462933333333, "fusion_lat": 0.0, "is_reserved": 0, "rental_uris": {"ios": "https://dc.lft.to/lastmile_qr_scan", "android": "https://dc.lft.to/lastmile_qr_scan"}, "fusion_lon": 0.0, "type": "electric_bike", "bike_id": "b969ca80ccdb6c8fd94a95b0ebe0ebef", "name": "b969ca80ccdb6c8fd94a95b0ebe0ebef"}, {"lon": -77.0382865, "is_disabled": 0, "lat": 38.90259733333333, "fusion_lat": 0.0, "is_reserved": 0, "rental_uris": {"ios": "https://dc.lft.to/lastmile_qr_scan", "android": "https://dc.lft.to/lastmile_qr_scan"}, "fusion_lon": 0.0, "type": "electric_scooter", "bike_id": "d15ae85eaf7c1ae0fdb910b0ed8e4869", "name": "d15ae85eaf7c1ae0fdb910b0ed8e4869"}, {"lon": -77.01964816666667, "is_disabled": 0, "lat": 38.95251316666667, "fusion_lat": 0.0, "is_reserved": 0, "rental_uris": {"ios": "https://dc.lft.to/lastmile_qr_scan", "android": "https://dc.lft.to/lastmile_qr_scan"}, "fusion_lon": 0.0, "type": "electric_scooter", "bike_id": "e207662229d6b5e7273306c1b1ec8a93", "name": "e207662229d6b5e7273306c1b1ec8a93"}, {"lon": -77.04121866666667, "is_disabled": 0, "lat": 38.92522733333333, "fusion_lat": 0.0, "is_reserved": 0, "rental_uris": {"ios": "https://dc.lft.to/lastmile_qr_scan", "android": "https://dc.lft.to/lastmile_qr_scan"}, "fusion_lon": 0.0, "type": "electric_scooter", "bike_id": "0104675a439a891e4bdbed900762a6a4", "name": "0104675a439a891e4bdbed900762a6a4"}, {"lon": -76.96984233333333, "is_disabled": 0, "lat": 38.87867516666667, "fusion_lat": 0.0, "is_reserved": 0, "rental_uris": {"ios": "https://dc.lft.to/lastmile_qr_scan", "android": "https://dc.lft.to/lastmile_qr_scan"}, "fusion_lon": 0.0, "type": "electric_scooter", "bike_id": "bad1135c5a40d1254645e189edf19da4", "name": "bad1135c5a40d1254645e189edf19da4"}, {"lon": -77.0531135, "is_disabled": 0, "lat": 38.904298833333335, "fusion_lat": 0.0, "is_reserved": 0, "rental_uris": {"ios": "https://dc.lft.to/lastmile_qr_scan", "android": "https://dc.lft.to/lastmile_qr_scan"}, "fusion_lon": 0.0, "type": "electric_scooter", "bike_id": "2ef6e087553a4170d9fd2c6e9104bf96", "name": "2ef6e087553a4170d9fd2c6e9104bf96"}, {"lon": -76.96909183333334, "is_disabled": 0, "lat": 38.87421616666666, "fusion_lat": 0.0, "is_reserved": 0, "rental_uris": {"ios": "https://dc.lft.to/lastmile_qr_scan", "android": "https://dc.lft.to/lastmile_qr_scan"}, "fusion_lon": 0.0, "type": "electric_scooter", "bike_id": "d745c1a8c019ba6c85111d9b87258dba", "name": "d745c1a8c019ba6c85111d9b87258dba"}, {"lon": -77.00326783333334, "is_disabled": 0, "lat": 38.919274, "fusion_lat": 0.0, "is_reserved": 0, "rental_uris": {"ios": "https://dc.lft.to/lastmile_qr_scan", "android": "https://dc.lft.to/lastmile_qr_scan"}, "fusion_lon": 0.0, "type": "electric_scooter", "bike_id": "a0df0ee9f5483ddd46fe1f686eb8dc6f", "name": "a0df0ee9f5483ddd46fe1f686eb8dc6f"}, {"lon": -77.022059, "is_disabled": 0, "lat": 38.896382833333334, "fusion_lat": 0.0, "is_reserved": 0, "rental_uris": {"ios": "https://dc.lft.to/lastmile_qr_scan", "android": "https://dc.lft.to/lastmile_qr_scan"}, "fusion_lon": 0.0, "type": "electric_scooter", "bike_id": "0a1f8442b97adad43468a5dd7230b825", "name": "0a1f8442b97adad43468a5dd7230b825"}, {"lon": -77.04459, "is_disabled": 0, "lat": 38.9111495, "fusion_lat": 0.0, "is_reserved": 0, "rental_uris": {"ios": "https://dc.lft.to/lastmile_qr_scan", "android": "https://dc.lft.to/lastmile_qr_scan"}, "fusion_lon": 0.0, "type": "electric_scooter", "bike_id": "78950d4bdf71515b0613fe6ea1f1f516", "name": "78950d4bdf71515b0613fe6ea1f1f516"}, {"lon": -76.9425525, "is_disabled": 0, "lat": 38.89842383333333, "fusion_lat": 0.0, "is_reserved": 0, "rental_uris": {"ios": "https://dc.lft.to/lastmile_qr_scan", "android": "https://dc.lft.to/lastmile_qr_scan"}, "fusion_lon": 0.0, "type": "electric_scooter", "bike_id": "26825561870396d7b376df6276692d03", "name": "26825561870396d7b376df6276692d03"}, {"lon": -77.0153335, "is_disabled": 0, "lat": 38.95030533333333, "fusion_lat": 0.0, "is_reserved": 0, "rental_uris": {"ios": "https://dc.lft.to/lastmile_qr_scan", "android": "https://dc.lft.to/lastmile_qr_scan"}, "fusion_lon": 0.0, "type": "electric_bike", "bike_id": "42beceb383f7006303d0ebab6210d88b", "name": "42beceb383f7006303d0ebab6210d88b"}, {"lon": -77.0196335, "is_disabled": 0, "lat": 38.8836815, "fusion_lat": 0.0, "is_reserved": 0, "rental_uris": {"ios": "https://dc.lft.to/lastmile_qr_scan", "android": "https://dc.lft.to/lastmile_qr_scan"}, "fusion_lon": 0.0, "type": "electric_scooter", "bike_id": "6570fa9974b0d5dab47ce09e6d28992e", "name": "6570fa9974b0d5dab47ce09e6d28992e"}, {"lon": -76.926801, "is_disabled": 0, "lat": 38.8884895, "fusion_lat": 0.0, "is_reserved": 0, "rental_uris": {"ios": "https://dc.lft.to/lastmile_qr_scan", "android": "https://dc.lft.to/lastmile_qr_scan"}, "fusion_lon": 0.0, "type": "electric_scooter", "bike_id": "f46834d0dbcbadfe7507a3821263777e", "name": "f46834d0dbcbadfe7507a3821263777e"}, {"lon": -76.98416766666666, "is_disabled": 0, "lat": 38.91388466666667, "fusion_lat": 0.0, "is_reserved": 0, "rental_uris": {"ios": "https://dc.lft.to/lastmile_qr_scan", "android": "https://dc.lft.to/lastmile_qr_scan"}, "fusion_lon": 0.0, "type": "electric_scooter", "bike_id": "33f81ba67608b4116ec0d300d79b6870", "name": "33f81ba67608b4116ec0d300d79b6870"}, {"lon": -77.00598716666667, "is_disabled": 0, "lat": 38.875728333333335, "fusion_lat": 0.0, "is_reserved": 0, "rental_uris": {"ios": "https://dc.lft.to/lastmile_qr_scan", "android": "https://dc.lft.to/lastmile_qr_scan"}, "fusion_lon": 0.0, "type": "electric_scooter", "bike_id": "3c7da3747772910be24bd6879867f596", "name": "3c7da3747772910be24bd6879867f596"}, {"lon": -76.98016733333333, "is_disabled": 0, "lat": 38.853155, "fusion_lat": 0.0, "is_reserved": 0, "rental_uris": {"ios": "https://dc.lft.to/lastmile_qr_scan", "android": "https://dc.lft.to/lastmile_qr_scan"}, "fusion_lon": 0.0, "type": "electric_scooter", "bike_id": "534ac1c3114934a8683d1d0acf005ba6", "name": "534ac1c3114934a8683d1d0acf005ba6"}, {"lon": -77.0246705, "is_disabled": 0, "lat": 38.91880833333333, "fusion_lat": 0.0, "is_reserved": 0, "rental_uris": {"ios": "https://dc.lft.to/lastmile_qr_scan", "android": "https://dc.lft.to/lastmile_qr_scan"}, "fusion_lon": 0.0, "type": "electric_scooter", "bike_id": "33831ec44c01fc5d29b9b824092aced5", "name": "33831ec44c01fc5d29b9b824092aced5"}, {"lon": -77.0568315, "is_disabled": 0, "lat": 38.92333633333333, "fusion_lat": 0.0, "is_reserved": 0, "rental_uris": {"ios": "https://dc.lft.to/lastmile_qr_scan", "android": "https://dc.lft.to/lastmile_qr_scan"}, "fusion_lon": 0.0, "type": "electric_scooter", "bike_id": "987ed666a5bca143cd13892947400446", "name": "987ed666a5bca143cd13892947400446"}, {"lon": -77.0038365, "is_disabled": 0, "lat": 38.83610133333333, "fusion_lat": 0.0, "is_reserved": 0, "rental_uris": {"ios": "https://dc.lft.to/lastmile_qr_scan", "android": "https://dc.lft.to/lastmile_qr_scan"}, "fusion_lon": 0.0, "type": "electric_bike", "bike_id": "da46e1a91957c75ef66a39f3ebdfae34", "name": "da46e1a91957c75ef66a39f3ebdfae34"}, {"lon": -77.01216033333333, "is_disabled": 0, "lat": 38.91749433333333, "fusion_lat": 0.0, "is_reserved": 0, "rental_uris": {"ios": "https://dc.lft.to/lastmile_qr_scan", "android": "https://dc.lft.to/lastmile_qr_scan"}, "fusion_lon": 0.0, "type": "electric_scooter", "bike_id": "c2e6edcf406767e4ea0b30c728b63cb4", "name": "c2e6edcf406767e4ea0b30c728b63cb4"}, {"lon": -77.01902666666666, "is_disabled": 0, "lat": 38.90921083333333, "fusion_lat": 0.0, "is_reserved": 0, "rental_uris": {"ios": "https://dc.lft.to/lastmile_qr_scan", "android": "https://dc.lft.to/lastmile_qr_scan"}, "fusion_lon": 0.0, "type": "electric_scooter", "bike_id": "9d15ccf92a93b02c41c4ee7a1f10142c", "name": "9d15ccf92a93b02c41c4ee7a1f10142c"}, {"lon": -77.01984866666666, "is_disabled": 0, "lat": 38.91428633333334, "fusion_lat": 0.0, "is_reserved": 0, "rental_uris": {"ios": "https://dc.lft.to/lastmile_qr_scan", "android": "https://dc.lft.to/lastmile_qr_scan"}, "fusion_lon": 0.0, "type": "electric_scooter", "bike_id": "8e640c8acc8ce9a967126eadf8333f3e", "name": "8e640c8acc8ce9a967126eadf8333f3e"}, {"lon": -77.00196083333333, "is_disabled": 0, "lat": 38.9026355, "fusion_lat": 0.0, "is_reserved": 0, "rental_uris": {"ios": "https://dc.lft.to/lastmile_qr_scan", "android": "https://dc.lft.to/lastmile_qr_scan"}, "fusion_lon": 0.0, "type": "electric_scooter", "bike_id": "20cf5646f98e682926eb813a2737bc97", "name": "20cf5646f98e682926eb813a2737bc97"}, {"lon": -77.06342916666667, "is_disabled": 0, "lat": 38.906813166666666, "fusion_lat": 0.0, "is_reserved": 0, "rental_uris": {"ios": "https://dc.lft.to/lastmile_qr_scan", "android": "https://dc.lft.to/lastmile_qr_scan"}, "fusion_lon": 0.0, "type": "electric_scooter", "bike_id": "7ebc6fb413e00f5c5f307b8b7bdafb89", "name": "7ebc6fb413e00f5c5f307b8b7bdafb89"}, {"lon": -77.02291533333333, "is_disabled": 0, "lat": 38.915691, "fusion_lat": 0.0, "is_reserved": 0, "rental_uris": {"ios": "https://dc.lft.to/lastmile_qr_scan", "android": "https://dc.lft.to/lastmile_qr_scan"}, "fusion_lon": 0.0, "type": "electric_scooter", "bike_id": "8e1df7138516a2c062a3b63248dbe6c7", "name": "8e1df7138516a2c062a3b63248dbe6c7"}, {"lon": -77.03402983333334, "is_disabled": 0, "lat": 38.909759, "fusion_lat": 0.0, "is_reserved": 0, "rental_uris": {"ios": "https://dc.lft.to/lastmile_qr_scan", "android": "https://dc.lft.to/lastmile_qr_scan"}, "fusion_lon": 0.0, "type": "electric_scooter", "bike_id": "c6dd73b44273b5c7dbcbc36df4cdec3c", "name": "c6dd73b44273b5c7dbcbc36df4cdec3c"}, {"lon": -77.02688433333333, "is_disabled": 0, "lat": 38.9067625, "fusion_lat": 0.0, "is_reserved": 0, "rental_uris": {"ios": "https://dc.lft.to/lastmile_qr_scan", "android": "https://dc.lft.to/lastmile_qr_scan"}, "fusion_lon": 0.0, "type": "electric_scooter", "bike_id": "ca5101a4ec9857ab82f875ada911f651", "name": "ca5101a4ec9857ab82f875ada911f651"}, {"lon": -77.04095116666667, "is_disabled": 0, "lat": 38.903609333333335, "fusion_lat": 0.0, "is_reserved": 0, "rental_uris": {"ios": "https://dc.lft.to/lastmile_qr_scan", "android": "https://dc.lft.to/lastmile_qr_scan"}, "fusion_lon": 0.0, "type": "electric_bike", "bike_id": "4737e3d903ada19028354c66673bb613", "name": "4737e3d903ada19028354c66673bb613"}, {"lon": -77.059743, "is_disabled": 0, "lat": 38.90104633333333, "fusion_lat": 0.0, "is_reserved": 0, "rental_uris": {"ios": "https://dc.lft.to/lastmile_qr_scan", "android": "https://dc.lft.to/lastmile_qr_scan"}, "fusion_lon": 0.0, "type": "electric_scooter", "bike_id": "d8103f365c117a53d40162bfaa1dc7d0", "name": "d8103f365c117a53d40162bfaa1dc7d0"}, {"lon": -76.98439466666666, "is_disabled": 0, "lat": 38.905804, "fusion_lat": 0.0, "is_reserved": 0, "rental_uris": {"ios": "https://dc.lft.to/lastmile_qr_scan", "android": "https://dc.lft.to/lastmile_qr_scan"}, "fusion_lon": 0.0, "type": "electric_scooter", "bike_id": "4b5771a2d506e39fa87527a841d0d209", "name": "4b5771a2d506e39fa87527a841d0d209"}, {"lon": -77.02408683333333, "is_disabled": 0, "lat": 38.91399716666667, "fusion_lat": 0.0, "is_reserved": 0, "rental_uris": {"ios": "https://dc.lft.to/lastmile_qr_scan", "android": "https://dc.lft.to/lastmile_qr_scan"}, "fusion_lon": 0.0, "type": "electric_scooter", "bike_id": "ea15a904164a3400cab34cfbb4f1c89f", "name": "ea15a904164a3400cab34cfbb4f1c89f"}, {"lon": -76.97561616666667, "is_disabled": 0, "lat": 38.924579, "fusion_lat": 0.0, "is_reserved": 0, "rental_uris": {"ios": "https://dc.lft.to/lastmile_qr_scan", "android": "https://dc.lft.to/lastmile_qr_scan"}, "fusion_lon": 0.0, "type": "electric_bike", "bike_id": "0a72d7c713fbce5d31c04a7ecc6b608c", "name": "0a72d7c713fbce5d31c04a7ecc6b608c"}, {"lon": -77.0249935, "is_disabled": 0, "lat": 38.918078, "fusion_lat": 0.0, "is_reserved": 0, "rental_uris": {"ios": "https://dc.lft.to/lastmile_qr_scan", "android": "https://dc.lft.to/lastmile_qr_scan"}, "fusion_lon": 0.0, "type": "electric_scooter", "bike_id": "fab0a67f441a8bc7196c188c0a84d7bc", "name": "fab0a67f441a8bc7196c188c0a84d7bc"}, {"lon": -77.12737916666667, "is_disabled": 0, "lat": 38.895680666666664, "fusion_lat": 0.0, "is_reserved": 0, "rental_uris": {"ios": "https://dc.lft.to/lastmile_qr_scan", "android": "https://dc.lft.to/lastmile_qr_scan"}, "fusion_lon": 0.0, "type": "electric_bike", "bike_id": "50811ac72e7d0ae359292c213ff206be", "name": "50811ac72e7d0ae359292c213ff206be"}, {"lon": -77.057358, "is_disabled": 0, "lat": 38.93366133333333, "fusion_lat": 0.0, "is_reserved": 0, "rental_uris": {"ios": "https://dc.lft.to/lastmile_qr_scan", "android": "https://dc.lft.to/lastmile_qr_scan"}, "fusion_lon": 0.0, "type": "electric_scooter", "bike_id": "a1c010862f3cc6b5d112b7b362e5f103", "name": "a1c010862f3cc6b5d112b7b362e5f103"}, {"lon": -77.02443416666667, "is_disabled": 0, "lat": 38.918937666666665, "fusion_lat": 0.0, "is_reserved": 0, "rental_uris": {"ios": "https://dc.lft.to/lastmile_qr_scan", "android": "https://dc.lft.to/lastmile_qr_scan"}, "fusion_lon": 0.0, "type": "electric_scooter", "bike_id": "57e7d1a88c9048e46c801140e4e44b05", "name": "57e7d1a88c9048e46c801140e4e44b05"}, {"lon": -77.03525333333333, "is_disabled": 0, "lat": 38.9225475, "fusion_lat": 0.0, "is_reserved": 0, "rental_uris": {"ios": "https://dc.lft.to/lastmile_qr_scan", "android": "https://dc.lft.to/lastmile_qr_scan"}, "fusion_lon": 0.0, "type": "electric_scooter", "bike_id": "cfbddf4faebabacc8338593c0cac5742", "name": "cfbddf4faebabacc8338593c0cac5742"}, {"lon": -77.00204166666667, "is_disabled": 0, "lat": 38.9655545, "fusion_lat": 0.0, "is_reserved": 0, "rental_uris": {"ios": "https://dc.lft.to/lastmile_qr_scan", "android": "https://dc.lft.to/lastmile_qr_scan"}, "fusion_lon": 0.0, "type": "electric_scooter", "bike_id": "8d8a3cd75c0211da18afb62327d627d2", "name": "8d8a3cd75c0211da18afb62327d627d2"}, {"lon": -77.0425825, "is_disabled": 0, "lat": 38.9103565, "fusion_lat": 0.0, "is_reserved": 0, "rental_uris": {"ios": "https://dc.lft.to/lastmile_qr_scan", "android": "https://dc.lft.to/lastmile_qr_scan"}, "fusion_lon": 0.0, "type": "electric_scooter", "bike_id": "74e4cb14f782d83ba13152b48253997d", "name": "74e4cb14f782d83ba13152b48253997d"}, {"lon": -77.01952516666667, "is_disabled": 0, "lat": 38.9242515, "fusion_lat": 0.0, "is_reserved": 0, "rental_uris": {"ios": "https://dc.lft.to/lastmile_qr_scan", "android": "https://dc.lft.to/lastmile_qr_scan"}, "fusion_lon": 0.0, "type": "electric_scooter", "bike_id": "7da97c79c28bd9e0df47222d290ab368", "name": "7da97c79c28bd9e0df47222d290ab368"}, {"lon": -77.02742366666666, "is_disabled": 0, "lat": 38.93357833333334, "fusion_lat": 0.0, "is_reserved": 0, "rental_uris": {"ios": "https://dc.lft.to/lastmile_qr_scan", "android": "https://dc.lft.to/lastmile_qr_scan"}, "fusion_lon": 0.0, "type": "electric_scooter", "bike_id": "9b6f446708b58eeb16882fca06fe8b17", "name": "9b6f446708b58eeb16882fca06fe8b17"}, {"lon": -77.04800833333333, "is_disabled": 0, "lat": 38.90235883333333, "fusion_lat": 0.0, "is_reserved": 0, "rental_uris": {"ios": "https://dc.lft.to/lastmile_qr_scan", "android": "https://dc.lft.to/lastmile_qr_scan"}, "fusion_lon": 0.0, "type": "electric_scooter", "bike_id": "5ba68e7c2d72b42cd6c9f0220a537ce3", "name": "5ba68e7c2d72b42cd6c9f0220a537ce3"}, {"lon": -77.0270975, "is_disabled": 0, "lat": 38.91957516666667, "fusion_lat": 0.0, "is_reserved": 0, "rental_uris": {"ios": "https://dc.lft.to/lastmile_qr_scan", "android": "https://dc.lft.to/lastmile_qr_scan"}, "fusion_lon": 0.0, "type": "electric_scooter", "bike_id": "3e159e6313256a0bc2110496c74a3bac", "name": "3e159e6313256a0bc2110496c74a3bac"}, {"lon": -77.06450033333333, "is_disabled": 0, "lat": 38.94605583333333, "fusion_lat": 0.0, "is_reserved": 0, "rental_uris": {"ios": "https://dc.lft.to/lastmile_qr_scan", "android": "https://dc.lft.to/lastmile_qr_scan"}, "fusion_lon": 0.0, "type": "electric_scooter", "bike_id": "e37d7c06e7064aca5ccd03096bd6819f", "name": "e37d7c06e7064aca5ccd03096bd6819f"}, {"lon": -77.0019555, "is_disabled": 0, "lat": 38.91596166666667, "fusion_lat": 0.0, "is_reserved": 0, "rental_uris": {"ios": "https://dc.lft.to/lastmile_qr_scan", "android": "https://dc.lft.to/lastmile_qr_scan"}, "fusion_lon": 0.0, "type": "electric_scooter", "bike_id": "991612203a6abb6367f76d6ae328c306", "name": "991612203a6abb6367f76d6ae328c306"}, {"lon": -77.026944, "is_disabled": 0, "lat": 38.8945795, "fusion_lat": 0.0, "is_reserved": 0, "rental_uris": {"ios": "https://dc.lft.to/lastmile_qr_scan", "android": "https://dc.lft.to/lastmile_qr_scan"}, "fusion_lon": 0.0, "type": "electric_scooter", "bike_id": "77d9c629e53b313868e0d8feb91b0f83", "name": "77d9c629e53b313868e0d8feb91b0f83"}, {"lon": -77.0254945, "is_disabled": 0, "lat": 38.941108666666665, "fusion_lat": 0.0, "is_reserved": 0, "rental_uris": {"ios": "https://dc.lft.to/lastmile_qr_scan", "android": "https://dc.lft.to/lastmile_qr_scan"}, "fusion_lon": 0.0, "type": "electric_scooter", "bike_id": "08eb8cebb0d4d699e2b109655e8ca6a0", "name": "08eb8cebb0d4d699e2b109655e8ca6a0"}, {"lon": -77.01846733333333, "is_disabled": 0, "lat": 38.94631, "fusion_lat": 0.0, "is_reserved": 0, "rental_uris": {"ios": "https://dc.lft.to/lastmile_qr_scan", "android": "https://dc.lft.to/lastmile_qr_scan"}, "fusion_lon": 0.0, "type": "electric_scooter", "bike_id": "3da617e02bcf91b11afea09d09243b59", "name": "3da617e02bcf91b11afea09d09243b59"}, {"lon": -77.04268583333334, "is_disabled": 0, "lat": 38.922411833333335, "fusion_lat": 0.0, "is_reserved": 0, "rental_uris": {"ios": "https://dc.lft.to/lastmile_qr_scan", "android": "https://dc.lft.to/lastmile_qr_scan"}, "fusion_lon": 0.0, "type": "electric_scooter", "bike_id": "c917d257c78db10f07360bead34353ec", "name": "c917d257c78db10f07360bead34353ec"}, {"lon": -77.04093183333333, "is_disabled": 0, "lat": 38.920374, "fusion_lat": 0.0, "is_reserved": 0, "rental_uris": {"ios": "https://dc.lft.to/lastmile_qr_scan", "android": "https://dc.lft.to/lastmile_qr_scan"}, "fusion_lon": 0.0, "type": "electric_scooter", "bike_id": "9a728d72ad0ac74099f8712aa06f85e6", "name": "9a728d72ad0ac74099f8712aa06f85e6"}, {"lon": -77.04451316666666, "is_disabled": 0, "lat": 38.89612183333333, "fusion_lat": 0.0, "is_reserved": 0, "rental_uris": {"ios": "https://dc.lft.to/lastmile_qr_scan", "android": "https://dc.lft.to/lastmile_qr_scan"}, "fusion_lon": 0.0, "type": "electric_scooter", "bike_id": "be42bbcb3ae768e0b82de0a7ec363270", "name": "be42bbcb3ae768e0b82de0a7ec363270"}, {"lon": -77.032326, "is_disabled": 0, "lat": 38.921643, "fusion_lat": 0.0, "is_reserved": 0, "rental_uris": {"ios": "https://dc.lft.to/lastmile_qr_scan", "android": "https://dc.lft.to/lastmile_qr_scan"}, "fusion_lon": 0.0, "type": "electric_scooter", "bike_id": "61e4bee5b5720c4daef438a6f3022504", "name": "61e4bee5b5720c4daef438a6f3022504"}, {"lon": -77.04165866666666, "is_disabled": 0, "lat": 38.91604266666667, "fusion_lat": 0.0, "is_reserved": 0, "rental_uris": {"ios": "https://dc.lft.to/lastmile_qr_scan", "android": "https://dc.lft.to/lastmile_qr_scan"}, "fusion_lon": 0.0, "type": "electric_scooter", "bike_id": "f1728433a461b4d5b08c06c501f3c760", "name": "f1728433a461b4d5b08c06c501f3c760"}, {"lon": -77.048375, "is_disabled": 0, "lat": 38.90429616666667, "fusion_lat": 0.0, "is_reserved": 0, "rental_uris": {"ios": "https://dc.lft.to/lastmile_qr_scan", "android": "https://dc.lft.to/lastmile_qr_scan"}, "fusion_lon": 0.0, "type": "electric_scooter", "bike_id": "2a0f26abc0ed1ef46d28266fde54accb", "name": "2a0f26abc0ed1ef46d28266fde54accb"}, {"lon": -77.04335333333333, "is_disabled": 0, "lat": 38.92221, "fusion_lat": 0.0, "is_reserved": 0, "rental_uris": {"ios": "https://dc.lft.to/lastmile_qr_scan", "android": "https://dc.lft.to/lastmile_qr_scan"}, "fusion_lon": 0.0, "type": "electric_scooter", "bike_id": "9c8d73fba7083cf060ae22d83c8651de", "name": "9c8d73fba7083cf060ae22d83c8651de"}, {"lon": -77.0433775, "is_disabled": 0, "lat": 38.89524333333333, "fusion_lat": 0.0, "is_reserved": 0, "rental_uris": {"ios": "https://dc.lft.to/lastmile_qr_scan", "android": "https://dc.lft.to/lastmile_qr_scan"}, "fusion_lon": 0.0, "type": "electric_scooter", "bike_id": "185450016e47251cf225516a5741c1b0", "name": "185450016e47251cf225516a5741c1b0"}, {"lon": -77.130999, "is_disabled": 0, "lat": 39.02439416666667, "fusion_lat": 0.0, "is_reserved": 0, "rental_uris": {"ios": "https://dc.lft.to/lastmile_qr_scan", "android": "https://dc.lft.to/lastmile_qr_scan"}, "fusion_lon": 0.0, "type": "electric_bike", "bike_id": "7051e27a424f0784a427fd358ee39f50", "name": "7051e27a424f0784a427fd358ee39f50"}, {"lon": -77.01434483333334, "is_disabled": 0, "lat": 38.9131165, "fusion_lat": 0.0, "is_reserved": 0, "rental_uris": {"ios": "https://dc.lft.to/lastmile_qr_scan", "android": "https://dc.lft.to/lastmile_qr_scan"}, "fusion_lon": 0.0, "type": "electric_scooter", "bike_id": "d9afbcd5b9a5365bfc10722034db3933", "name": "d9afbcd5b9a5365bfc10722034db3933"}, {"lon": -77.0332065, "is_disabled": 0, "lat": 38.89811866666667, "fusion_lat": 0.0, "is_reserved": 0, "rental_uris": {"ios": "https://dc.lft.to/lastmile_qr_scan", "android": "https://dc.lft.to/lastmile_qr_scan"}, "fusion_lon": 0.0, "type": "electric_scooter", "bike_id": "da0896168242e457f5fff1ef4d1d5f38", "name": "da0896168242e457f5fff1ef4d1d5f38"}, {"lon": -76.998601, "is_disabled": 0, "lat": 38.891998, "fusion_lat": 0.0, "is_reserved": 0, "rental_uris": {"ios": "https://dc.lft.to/lastmile_qr_scan", "android": "https://dc.lft.to/lastmile_qr_scan"}, "fusion_lon": 0.0, "type": "electric_scooter", "bike_id": "189769bd437140b3a9c8c8b36391a638", "name": "189769bd437140b3a9c8c8b36391a638"}, {"lon": -77.01952616666667, "is_disabled": 0, "lat": 38.92250816666667, "fusion_lat": 0.0, "is_reserved": 0, "rental_uris": {"ios": "https://dc.lft.to/lastmile_qr_scan", "android": "https://dc.lft.to/lastmile_qr_scan"}, "fusion_lon": 0.0, "type": "electric_scooter", "bike_id": "efdba153b708eb1c6c9e467a7c923415", "name": "efdba153b708eb1c6c9e467a7c923415"}, {"lon": -77.04568966666666, "is_disabled": 0, "lat": 38.9140385, "fusion_lat": 0.0, "is_reserved": 0, "rental_uris": {"ios": "https://dc.lft.to/lastmile_qr_scan", "android": "https://dc.lft.to/lastmile_qr_scan"}, "fusion_lon": 0.0, "type": "electric_scooter", "bike_id": "b8a9e4196b52412ba00caa26961ce56a", "name": "b8a9e4196b52412ba00caa26961ce56a"}, {"lon": -77.04334533333333, "is_disabled": 0, "lat": 38.907198, "fusion_lat": 0.0, "is_reserved": 0, "rental_uris": {"ios": "https://dc.lft.to/lastmile_qr_scan", "android": "https://dc.lft.to/lastmile_qr_scan"}, "fusion_lon": 0.0, "type": "electric_scooter", "bike_id": "5075490e3fb39ee9c68709eeb32a2736", "name": "5075490e3fb39ee9c68709eeb32a2736"}, {"lon": -77.114658, "is_disabled": 0, "lat": 38.841465666666664, "fusion_lat": 0.0, "is_reserved": 0, "rental_uris": {"ios": "https://dc.lft.to/lastmile_qr_scan", "android": "https://dc.lft.to/lastmile_qr_scan"}, "fusion_lon": 0.0, "type": "electric_bike", "bike_id": "5b7ecf2bb02ba1d6496267729855843d", "name": "5b7ecf2bb02ba1d6496267729855843d"}, {"lon": -77.03918866666666, "is_disabled": 0, "lat": 38.924724833333336, "fusion_lat": 0.0, "is_reserved": 0, "rental_uris": {"ios": "https://dc.lft.to/lastmile_qr_scan", "android": "https://dc.lft.to/lastmile_qr_scan"}, "fusion_lon": 0.0, "type": "electric_scooter", "bike_id": "434c393d05947bffbfaef57063c587e5", "name": "434c393d05947bffbfaef57063c587e5"}, {"lon": -76.94421583333333, "is_disabled": 0, "lat": 38.992235, "fusion_lat": 0.0, "is_reserved": 0, "rental_uris": {"ios": "https://dc.lft.to/lastmile_qr_scan", "android": "https://dc.lft.to/lastmile_qr_scan"}, "fusion_lon": 0.0, "type": "electric_bike", "bike_id": "0a6108a28910414a901e26a83d5aeaf1", "name": "0a6108a28910414a901e26a83d5aeaf1"}, {"lon": -77.03402616666666, "is_disabled": 0, "lat": 38.92446, "fusion_lat": 0.0, "is_reserved": 0, "rental_uris": {"ios": "https://dc.lft.to/lastmile_qr_scan", "android": "https://dc.lft.to/lastmile_qr_scan"}, "fusion_lon": 0.0, "type": "electric_scooter", "bike_id": "98553a3d6f319ad21a63e5443f681cd3", "name": "98553a3d6f319ad21a63e5443f681cd3"}, {"lon": -77.03863883333334, "is_disabled": 0, "lat": 38.907395333333334, "fusion_lat": 0.0, "is_reserved": 0, "rental_uris": {"ios": "https://dc.lft.to/lastmile_qr_scan", "android": "https://dc.lft.to/lastmile_qr_scan"}, "fusion_lon": 0.0, "type": "electric_scooter", "bike_id": "85ea0299367be92317554b4bb6f503a7", "name": "85ea0299367be92317554b4bb6f503a7"}, {"lon": -77.046585, "is_disabled": 0, "lat": 38.90576933333333, "fusion_lat": 0.0, "is_reserved": 0, "rental_uris": {"ios": "https://dc.lft.to/lastmile_qr_scan", "android": "https://dc.lft.to/lastmile_qr_scan"}, "fusion_lon": 0.0, "type": "electric_scooter", "bike_id": "fb6ba7a3392b0ef0c09577ef7e69ef8b", "name": "fb6ba7a3392b0ef0c09577ef7e69ef8b"}, {"lon": -77.01680033333334, "is_disabled": 0, "lat": 38.90564466666667, "fusion_lat": 0.0, "is_reserved": 0, "rental_uris": {"ios": "https://dc.lft.to/lastmile_qr_scan", "android": "https://dc.lft.to/lastmile_qr_scan"}, "fusion_lon": 0.0, "type": "electric_scooter", "bike_id": "f12bbbfe246848f2fe613ac5f50b7015", "name": "f12bbbfe246848f2fe613ac5f50b7015"}, {"lon": -77.02008233333333, "is_disabled": 0, "lat": 38.914038, "fusion_lat": 0.0, "is_reserved": 0, "rental_uris": {"ios": "https://dc.lft.to/lastmile_qr_scan", "android": "https://dc.lft.to/lastmile_qr_scan"}, "fusion_lon": 0.0, "type": "electric_scooter", "bike_id": "00fd89762c994abcc1c5f00a3250860e", "name": "00fd89762c994abcc1c5f00a3250860e"}, {"lon": -77.03644466666667, "is_disabled": 0, "lat": 38.9080535, "fusion_lat": 0.0, "is_reserved": 0, "rental_uris": {"ios": "https://dc.lft.to/lastmile_qr_scan", "android": "https://dc.lft.to/lastmile_qr_scan"}, "fusion_lon": 0.0, "type": "electric_scooter", "bike_id": "849e094eeaa44b76a94ca07ef9cf15b3", "name": "849e094eeaa44b76a94ca07ef9cf15b3"}, {"lon": -77.02208583333334, "is_disabled": 0, "lat": 38.933943666666664, "fusion_lat": 0.0, "is_reserved": 0, "rental_uris": {"ios": "https://dc.lft.to/lastmile_qr_scan", "android": "https://dc.lft.to/lastmile_qr_scan"}, "fusion_lon": 0.0, "type": "electric_scooter", "bike_id": "3709718e6ca4dc8d27748edd70c9d830", "name": "3709718e6ca4dc8d27748edd70c9d830"}, {"lon": -77.116055, "is_disabled": 0, "lat": 38.854743, "fusion_lat": 0.0, "is_reserved": 0, "rental_uris": {"ios": "https://dc.lft.to/lastmile_qr_scan", "android": "https://dc.lft.to/lastmile_qr_scan"}, "fusion_lon": 0.0, "type": "electric_bike", "bike_id": "c832d053266b23502cb482d13dc18bcb", "name": "c832d053266b23502cb482d13dc18bcb"}, {"lon": -77.02605566666666, "is_disabled": 0, "lat": 38.896442666666665, "fusion_lat": 0.0, "is_reserved": 0, "rental_uris": {"ios": "https://dc.lft.to/lastmile_qr_scan", "android": "https://dc.lft.to/lastmile_qr_scan"}, "fusion_lon": 0.0, "type": "electric_scooter", "bike_id": "3517d9c125e853787522de57b5e23aae", "name": "3517d9c125e853787522de57b5e23aae"}, {"lon": -77.03431516666667, "is_disabled": 0, "lat": 38.91913566666667, "fusion_lat": 0.0, "is_reserved": 0, "rental_uris": {"ios": "https://dc.lft.to/lastmile_qr_scan", "android": "https://dc.lft.to/lastmile_qr_scan"}, "fusion_lon": 0.0, "type": "electric_scooter", "bike_id": "4a4c6df0ecccc478a96de114edf40fa5", "name": "4a4c6df0ecccc478a96de114edf40fa5"}, {"lon": -76.97880016666667, "is_disabled": 0, "lat": 38.90194116666667, "fusion_lat": 0.0, "is_reserved": 0, "rental_uris": {"ios": "https://dc.lft.to/lastmile_qr_scan", "android": "https://dc.lft.to/lastmile_qr_scan"}, "fusion_lon": 0.0, "type": "electric_scooter", "bike_id": "c27007d935862d0510cae24c9ee35778", "name": "c27007d935862d0510cae24c9ee35778"}, {"lon": -77.04332433333333, "is_disabled": 0, "lat": 38.908299666666665, "fusion_lat": 0.0, "is_reserved": 0, "rental_uris": {"ios": "https://dc.lft.to/lastmile_qr_scan", "android": "https://dc.lft.to/lastmile_qr_scan"}, "fusion_lon": 0.0, "type": "electric_scooter", "bike_id": "5454a1758d4f55579b6cc4e177cafecb", "name": "5454a1758d4f55579b6cc4e177cafecb"}, {"lon": -77.01352616666667, "is_disabled": 0, "lat": 38.919061, "fusion_lat": 0.0, "is_reserved": 0, "rental_uris": {"ios": "https://dc.lft.to/lastmile_qr_scan", "android": "https://dc.lft.to/lastmile_qr_scan"}, "fusion_lon": 0.0, "type": "electric_scooter", "bike_id": "1af38809da44c6de897482f93c480c4f", "name": "1af38809da44c6de897482f93c480c4f"}, {"lon": -77.005458, "is_disabled": 0, "lat": 38.90557366666667, "fusion_lat": 0.0, "is_reserved": 0, "rental_uris": {"ios": "https://dc.lft.to/lastmile_qr_scan", "android": "https://dc.lft.to/lastmile_qr_scan"}, "fusion_lon": 0.0, "type": "electric_scooter", "bike_id": "258f72fa735bf0ff7682c2485667b562", "name": "258f72fa735bf0ff7682c2485667b562"}, {"lon": -77.02743833333334, "is_disabled": 0, "lat": 38.90091116666667, "fusion_lat": 0.0, "is_reserved": 0, "rental_uris": {"ios": "https://dc.lft.to/lastmile_qr_scan", "android": "https://dc.lft.to/lastmile_qr_scan"}, "fusion_lon": 0.0, "type": "electric_scooter", "bike_id": "ca948edeedcb6dc02fa56957565422c3", "name": "ca948edeedcb6dc02fa56957565422c3"}, {"lon": -77.02233416666667, "is_disabled": 0, "lat": 38.89196533333333, "fusion_lat": 0.0, "is_reserved": 0, "rental_uris": {"ios": "https://dc.lft.to/lastmile_qr_scan", "android": "https://dc.lft.to/lastmile_qr_scan"}, "fusion_lon": 0.0, "type": "electric_scooter", "bike_id": "b9de50324daba171c38cc533583853be", "name": "b9de50324daba171c38cc533583853be"}, {"lon": -77.01335416666667, "is_disabled": 0, "lat": 38.926237666666665, "fusion_lat": 0.0, "is_reserved": 0, "rental_uris": {"ios": "https://dc.lft.to/lastmile_qr_scan", "android": "https://dc.lft.to/lastmile_qr_scan"}, "fusion_lon": 0.0, "type": "electric_scooter", "bike_id": "f09d98d4fac84ec1f5baa77f1a47be6d", "name": "f09d98d4fac84ec1f5baa77f1a47be6d"}, {"lon": -76.99398716666667, "is_disabled": 0, "lat": 38.910066, "fusion_lat": 0.0, "is_reserved": 0, "rental_uris": {"ios": "https://dc.lft.to/lastmile_qr_scan", "android": "https://dc.lft.to/lastmile_qr_scan"}, "fusion_lon": 0.0, "type": "electric_scooter", "bike_id": "7d405c8b53868c34b63cdbca201ad7c4", "name": "7d405c8b53868c34b63cdbca201ad7c4"}, {"lon": -77.0376325, "is_disabled": 0, "lat": 38.91878716666667, "fusion_lat": 0.0, "is_reserved": 0, "rental_uris": {"ios": "https://dc.lft.to/lastmile_qr_scan", "android": "https://dc.lft.to/lastmile_qr_scan"}, "fusion_lon": 0.0, "type": "electric_scooter", "bike_id": "c772fe8c4243616c3bd879eab705b793", "name": "c772fe8c4243616c3bd879eab705b793"}, {"lon": -77.050331, "is_disabled": 0, "lat": 38.923678333333335, "fusion_lat": 0.0, "is_reserved": 0, "rental_uris": {"ios": "https://dc.lft.to/lastmile_qr_scan", "android": "https://dc.lft.to/lastmile_qr_scan"}, "fusion_lon": 0.0, "type": "electric_scooter", "bike_id": "8c9958395bb8f3d1b39a78a20892ec83", "name": "8c9958395bb8f3d1b39a78a20892ec83"}, {"lon": -77.021825, "is_disabled": 0, "lat": 38.90217466666667, "fusion_lat": 0.0, "is_reserved": 0, "rental_uris": {"ios": "https://dc.lft.to/lastmile_qr_scan", "android": "https://dc.lft.to/lastmile_qr_scan"}, "fusion_lon": 0.0, "type": "electric_scooter", "bike_id": "ee5f8078c32a52601bdce81433d0b6e9", "name": "ee5f8078c32a52601bdce81433d0b6e9"}, {"lon": -77.0420695, "is_disabled": 0, "lat": 38.923052, "fusion_lat": 0.0, "is_reserved": 0, "rental_uris": {"ios": "https://dc.lft.to/lastmile_qr_scan", "android": "https://dc.lft.to/lastmile_qr_scan"}, "fusion_lon": 0.0, "type": "electric_scooter", "bike_id": "38037b5485c36dcb201413ad4a72621e", "name": "38037b5485c36dcb201413ad4a72621e"}, {"lon": -77.02718233333333, "is_disabled": 0, "lat": 38.9276295, "fusion_lat": 0.0, "is_reserved": 0, "rental_uris": {"ios": "https://dc.lft.to/lastmile_qr_scan", "android": "https://dc.lft.to/lastmile_qr_scan"}, "fusion_lon": 0.0, "type": "electric_scooter", "bike_id": "c23adb3e10ec9007dd4f48e4ef072e8c", "name": "c23adb3e10ec9007dd4f48e4ef072e8c"}, {"lon": -77.01209483333334, "is_disabled": 0, "lat": 38.91975983333333, "fusion_lat": 0.0, "is_reserved": 0, "rental_uris": {"ios": "https://dc.lft.to/lastmile_qr_scan", "android": "https://dc.lft.to/lastmile_qr_scan"}, "fusion_lon": 0.0, "type": "electric_scooter", "bike_id": "53963fe2f5b7dfa3b5b82b7ea3a45a1f", "name": "53963fe2f5b7dfa3b5b82b7ea3a45a1f"}, {"lon": -77.02161316666667, "is_disabled": 0, "lat": 38.92610066666667, "fusion_lat": 0.0, "is_reserved": 0, "rental_uris": {"ios": "https://dc.lft.to/lastmile_qr_scan", "android": "https://dc.lft.to/lastmile_qr_scan"}, "fusion_lon": 0.0, "type": "electric_scooter", "bike_id": "b23be44edf9cccc7782d4c837474cbd9", "name": "b23be44edf9cccc7782d4c837474cbd9"}, {"lon": -77.04090066666667, "is_disabled": 0, "lat": 38.9050145, "fusion_lat": 0.0, "is_reserved": 0, "rental_uris": {"ios": "https://dc.lft.to/lastmile_qr_scan", "android": "https://dc.lft.to/lastmile_qr_scan"}, "fusion_lon": 0.0, "type": "electric_scooter", "bike_id": "2692ef27f90371b7f22ecaa8b881748e", "name": "2692ef27f90371b7f22ecaa8b881748e"}, {"lon": -76.98217666666666, "is_disabled": 0, "lat": 38.90881983333333, "fusion_lat": 0.0, "is_reserved": 0, "rental_uris": {"ios": "https://dc.lft.to/lastmile_qr_scan", "android": "https://dc.lft.to/lastmile_qr_scan"}, "fusion_lon": 0.0, "type": "electric_scooter", "bike_id": "b0fa7f07ddb286f69e1deb14a48de58d", "name": "b0fa7f07ddb286f69e1deb14a48de58d"}, {"lon": -77.02407716666667, "is_disabled": 0, "lat": 38.9191375, "fusion_lat": 0.0, "is_reserved": 0, "rental_uris": {"ios": "https://dc.lft.to/lastmile_qr_scan", "android": "https://dc.lft.to/lastmile_qr_scan"}, "fusion_lon": 0.0, "type": "electric_scooter", "bike_id": "fdeeed68843f54b8d27ddedd77a4f36a", "name": "fdeeed68843f54b8d27ddedd77a4f36a"}, {"lon": -77.0284485, "is_disabled": 0, "lat": 38.9426615, "fusion_lat": 0.0, "is_reserved": 0, "rental_uris": {"ios": "https://dc.lft.to/lastmile_qr_scan", "android": "https://dc.lft.to/lastmile_qr_scan"}, "fusion_lon": 0.0, "type": "electric_scooter", "bike_id": "58e10786425bdfd0efb8bfe8ee5268d9", "name": "58e10786425bdfd0efb8bfe8ee5268d9"}, {"lon": -77.041449, "is_disabled": 0, "lat": 38.907070166666664, "fusion_lat": 0.0, "is_reserved": 0, "rental_uris": {"ios": "https://dc.lft.to/lastmile_qr_scan", "android": "https://dc.lft.to/lastmile_qr_scan"}, "fusion_lon": 0.0, "type": "electric_scooter", "bike_id": "4d7ff32f3691abde219dd31ac28e1c07", "name": "4d7ff32f3691abde219dd31ac28e1c07"}, {"lon": -77.06840466666667, "is_disabled": 0, "lat": 38.917288166666665, "fusion_lat": 0.0, "is_reserved": 0, "rental_uris": {"ios": "https://dc.lft.to/lastmile_qr_scan", "android": "https://dc.lft.to/lastmile_qr_scan"}, "fusion_lon": 0.0, "type": "electric_scooter", "bike_id": "cbb4d14831c31a1e046fb3ae1bf3a095", "name": "cbb4d14831c31a1e046fb3ae1bf3a095"}, {"lon": -77.04423283333334, "is_disabled": 0, "lat": 38.90894616666667, "fusion_lat": 0.0, "is_reserved": 0, "rental_uris": {"ios": "https://dc.lft.to/lastmile_qr_scan", "android": "https://dc.lft.to/lastmile_qr_scan"}, "fusion_lon": 0.0, "type": "electric_scooter", "bike_id": "75769af042f8a34156e52f6c203e9d0a", "name": "75769af042f8a34156e52f6c203e9d0a"}, {"lon": -76.99011, "is_disabled": 0, "lat": 38.865057166666666, "fusion_lat": 0.0, "is_reserved": 0, "rental_uris": {"ios": "https://dc.lft.to/lastmile_qr_scan", "android": "https://dc.lft.to/lastmile_qr_scan"}, "fusion_lon": 0.0, "type": "electric_scooter", "bike_id": "042f2b1b7c14475f6aee7cba6254698d", "name": "042f2b1b7c14475f6aee7cba6254698d"}, {"lon": -77.01753866666667, "is_disabled": 0, "lat": 38.8839165, "fusion_lat": 0.0, "is_reserved": 0, "rental_uris": {"ios": "https://dc.lft.to/lastmile_qr_scan", "android": "https://dc.lft.to/lastmile_qr_scan"}, "fusion_lon": 0.0, "type": "electric_scooter", "bike_id": "8d5ab2c85298bb6f761a7d52c06536ea", "name": "8d5ab2c85298bb6f761a7d52c06536ea"}, {"lon": -77.02203866666666, "is_disabled": 0, "lat": 38.910419, "fusion_lat": 0.0, "is_reserved": 0, "rental_uris": {"ios": "https://dc.lft.to/lastmile_qr_scan", "android": "https://dc.lft.to/lastmile_qr_scan"}, "fusion_lon": 0.0, "type": "electric_scooter", "bike_id": "23314a397fe0f8ec1bea7031dd1432cd", "name": "23314a397fe0f8ec1bea7031dd1432cd"}, {"lon": -77.0284315, "is_disabled": 0, "lat": 38.942649333333335, "fusion_lat": 0.0, "is_reserved": 0, "rental_uris": {"ios": "https://dc.lft.to/lastmile_qr_scan", "android": "https://dc.lft.to/lastmile_qr_scan"}, "fusion_lon": 0.0, "type": "electric_bike", "bike_id": "11193d65f64751e4f0b5d5f9356b8513", "name": "11193d65f64751e4f0b5d5f9356b8513"}, {"lon": -77.02780683333333, "is_disabled": 0, "lat": 38.9276355, "fusion_lat": 0.0, "is_reserved": 0, "rental_uris": {"ios": "https://dc.lft.to/lastmile_qr_scan", "android": "https://dc.lft.to/lastmile_qr_scan"}, "fusion_lon": 0.0, "type": "electric_scooter", "bike_id": "25d3009c23de84e8c8a455ef447311dd", "name": "25d3009c23de84e8c8a455ef447311dd"}, {"lon": -77.03728883333333, "is_disabled": 0, "lat": 38.926549666666666, "fusion_lat": 0.0, "is_reserved": 0, "rental_uris": {"ios": "https://dc.lft.to/lastmile_qr_scan", "android": "https://dc.lft.to/lastmile_qr_scan"}, "fusion_lon": 0.0, "type": "electric_scooter", "bike_id": "0d77ad0ec67c8f35aef94cb3ab868067", "name": "0d77ad0ec67c8f35aef94cb3ab868067"}, {"lon": -77.03579066666667, "is_disabled": 0, "lat": 38.9112195, "fusion_lat": 0.0, "is_reserved": 0, "rental_uris": {"ios": "https://dc.lft.to/lastmile_qr_scan", "android": "https://dc.lft.to/lastmile_qr_scan"}, "fusion_lon": 0.0, "type": "electric_scooter", "bike_id": "d9cfe3ca1cb54260044abd02822ac230", "name": "d9cfe3ca1cb54260044abd02822ac230"}, {"lon": -77.0090645, "is_disabled": 0, "lat": 38.87512566666667, "fusion_lat": 0.0, "is_reserved": 0, "rental_uris": {"ios": "https://dc.lft.to/lastmile_qr_scan", "android": "https://dc.lft.to/lastmile_qr_scan"}, "fusion_lon": 0.0, "type": "electric_bike", "bike_id": "87c9669060319dd2c9615dffecb24b6b", "name": "87c9669060319dd2c9615dffecb24b6b"}, {"lon": -77.05494233333333, "is_disabled": 0, "lat": 39.01477, "fusion_lat": 0.0, "is_reserved": 0, "rental_uris": {"ios": "https://dc.lft.to/lastmile_qr_scan", "android": "https://dc.lft.to/lastmile_qr_scan"}, "fusion_lon": 0.0, "type": "electric_bike", "bike_id": "6139dadc93903921a20c1be88e6abb4d", "name": "6139dadc93903921a20c1be88e6abb4d"}, {"lon": -77.045645, "is_disabled": 0, "lat": 38.91481983333333, "fusion_lat": 0.0, "is_reserved": 0, "rental_uris": {"ios": "https://dc.lft.to/lastmile_qr_scan", "android": "https://dc.lft.to/lastmile_qr_scan"}, "fusion_lon": 0.0, "type": "electric_scooter", "bike_id": "425d7257a8cc462c96792128e450410f", "name": "425d7257a8cc462c96792128e450410f"}, {"lon": -77.02491083333334, "is_disabled": 0, "lat": 38.95780283333333, "fusion_lat": 0.0, "is_reserved": 0, "rental_uris": {"ios": "https://dc.lft.to/lastmile_qr_scan", "android": "https://dc.lft.to/lastmile_qr_scan"}, "fusion_lon": 0.0, "type": "electric_scooter", "bike_id": "014e53419a4f425cf50901cd2cc0c781", "name": "014e53419a4f425cf50901cd2cc0c781"}, {"lon": -77.02763916666666, "is_disabled": 0, "lat": 38.91706833333333, "fusion_lat": 0.0, "is_reserved": 0, "rental_uris": {"ios": "https://dc.lft.to/lastmile_qr_scan", "android": "https://dc.lft.to/lastmile_qr_scan"}, "fusion_lon": 0.0, "type": "electric_scooter", "bike_id": "d3a6f4c94e833f4b23fd9550019cc97d", "name": "d3a6f4c94e833f4b23fd9550019cc97d"}, {"lon": -76.94636483333333, "is_disabled": 0, "lat": 38.8986795, "fusion_lat": 0.0, "is_reserved": 0, "rental_uris": {"ios": "https://dc.lft.to/lastmile_qr_scan", "android": "https://dc.lft.to/lastmile_qr_scan"}, "fusion_lon": 0.0, "type": "electric_scooter", "bike_id": "d0470fc300885bdf013a303907ba64eb", "name": "d0470fc300885bdf013a303907ba64eb"}, {"lon": -77.05128016666667, "is_disabled": 0, "lat": 38.905258333333336, "fusion_lat": 0.0, "is_reserved": 0, "rental_uris": {"ios": "https://dc.lft.to/lastmile_qr_scan", "android": "https://dc.lft.to/lastmile_qr_scan"}, "fusion_lon": 0.0, "type": "electric_scooter", "bike_id": "eec120b9867cbe6a9f41304124972021", "name": "eec120b9867cbe6a9f41304124972021"}, {"lon": -77.0215115, "is_disabled": 0, "lat": 38.91558116666667, "fusion_lat": 0.0, "is_reserved": 0, "rental_uris": {"ios": "https://dc.lft.to/lastmile_qr_scan", "android": "https://dc.lft.to/lastmile_qr_scan"}, "fusion_lon": 0.0, "type": "electric_scooter", "bike_id": "39f320e3332ec63ede8d78f02cd3e272", "name": "39f320e3332ec63ede8d78f02cd3e272"}, {"lon": -77.02575316666666, "is_disabled": 0, "lat": 38.88745766666667, "fusion_lat": 0.0, "is_reserved": 0, "rental_uris": {"ios": "https://dc.lft.to/lastmile_qr_scan", "android": "https://dc.lft.to/lastmile_qr_scan"}, "fusion_lon": 0.0, "type": "electric_scooter", "bike_id": "fa970e06e710aa2a91a9c38e63954496", "name": "fa970e06e710aa2a91a9c38e63954496"}, {"lon": -77.02292983333334, "is_disabled": 0, "lat": 38.91620733333333, "fusion_lat": 0.0, "is_reserved": 0, "rental_uris": {"ios": "https://dc.lft.to/lastmile_qr_scan", "android": "https://dc.lft.to/lastmile_qr_scan"}, "fusion_lon": 0.0, "type": "electric_scooter", "bike_id": "bc83458097c7d6250539a791a1e8d078", "name": "bc83458097c7d6250539a791a1e8d078"}, {"lon": -77.02470933333333, "is_disabled": 0, "lat": 38.8972345, "fusion_lat": 0.0, "is_reserved": 0, "rental_uris": {"ios": "https://dc.lft.to/lastmile_qr_scan", "android": "https://dc.lft.to/lastmile_qr_scan"}, "fusion_lon": 0.0, "type": "electric_scooter", "bike_id": "8a43052eff0ece2c308a53dfe356d502", "name": "8a43052eff0ece2c308a53dfe356d502"}, {"lon": -77.04176883333334, "is_disabled": 0, "lat": 38.913950166666666, "fusion_lat": 0.0, "is_reserved": 0, "rental_uris": {"ios": "https://dc.lft.to/lastmile_qr_scan", "android": "https://dc.lft.to/lastmile_qr_scan"}, "fusion_lon": 0.0, "type": "electric_scooter", "bike_id": "81231483447125a471ad53df7174fd5d", "name": "81231483447125a471ad53df7174fd5d"}, {"lon": -77.03585316666667, "is_disabled": 0, "lat": 38.94243633333333, "fusion_lat": 0.0, "is_reserved": 0, "rental_uris": {"ios": "https://dc.lft.to/lastmile_qr_scan", "android": "https://dc.lft.to/lastmile_qr_scan"}, "fusion_lon": 0.0, "type": "electric_scooter", "bike_id": "d903cad401c8649c23373f07abe626c2", "name": "d903cad401c8649c23373f07abe626c2"}, {"lon": -77.03428716666667, "is_disabled": 0, "lat": 38.90558633333333, "fusion_lat": 0.0, "is_reserved": 0, "rental_uris": {"ios": "https://dc.lft.to/lastmile_qr_scan", "android": "https://dc.lft.to/lastmile_qr_scan"}, "fusion_lon": 0.0, "type": "electric_scooter", "bike_id": "34e967e971d1828ef7e7927a180cea2d", "name": "34e967e971d1828ef7e7927a180cea2d"}, {"lon": -77.03915783333333, "is_disabled": 0, "lat": 38.92417983333333, "fusion_lat": 0.0, "is_reserved": 0, "rental_uris": {"ios": "https://dc.lft.to/lastmile_qr_scan", "android": "https://dc.lft.to/lastmile_qr_scan"}, "fusion_lon": 0.0, "type": "electric_scooter", "bike_id": "e5fd6bd2883ed1ee6e259baa92bc9300", "name": "e5fd6bd2883ed1ee6e259baa92bc9300"}, {"lon": -77.03804533333333, "is_disabled": 0, "lat": 38.90664133333333, "fusion_lat": 0.0, "is_reserved": 0, "rental_uris": {"ios": "https://dc.lft.to/lastmile_qr_scan", "android": "https://dc.lft.to/lastmile_qr_scan"}, "fusion_lon": 0.0, "type": "electric_scooter", "bike_id": "07967252011744b4a690783a55eb9da7", "name": "07967252011744b4a690783a55eb9da7"}, {"lon": -76.95760433333334, "is_disabled": 0, "lat": 38.884331333333336, "fusion_lat": 0.0, "is_reserved": 0, "rental_uris": {"ios": "https://dc.lft.to/lastmile_qr_scan", "android": "https://dc.lft.to/lastmile_qr_scan"}, "fusion_lon": 0.0, "type": "electric_scooter", "bike_id": "3df46380a5f0b8b126922229551e1d98", "name": "3df46380a5f0b8b126922229551e1d98"}, {"lon": -77.033344, "is_disabled": 0, "lat": 38.920478833333334, "fusion_lat": 0.0, "is_reserved": 0, "rental_uris": {"ios": "https://dc.lft.to/lastmile_qr_scan", "android": "https://dc.lft.to/lastmile_qr_scan"}, "fusion_lon": 0.0, "type": "electric_scooter", "bike_id": "73ac27353b2beef12cc4c1016a21e1b4", "name": "73ac27353b2beef12cc4c1016a21e1b4"}, {"lon": -77.0574265, "is_disabled": 0, "lat": 38.93388683333333, "fusion_lat": 0.0, "is_reserved": 0, "rental_uris": {"ios": "https://dc.lft.to/lastmile_qr_scan", "android": "https://dc.lft.to/lastmile_qr_scan"}, "fusion_lon": 0.0, "type": "electric_scooter", "bike_id": "3e011185daf1cc4bfea445f0acf4e2d8", "name": "3e011185daf1cc4bfea445f0acf4e2d8"}, {"lon": -77.0386755, "is_disabled": 0, "lat": 38.92146983333333, "fusion_lat": 0.0, "is_reserved": 0, "rental_uris": {"ios": "https://dc.lft.to/lastmile_qr_scan", "android": "https://dc.lft.to/lastmile_qr_scan"}, "fusion_lon": 0.0, "type": "electric_scooter", "bike_id": "dde25a2f1967792fc38a48a3c4a33a66", "name": "dde25a2f1967792fc38a48a3c4a33a66"}, {"lon": -76.981866, "is_disabled": 0, "lat": 38.89581416666667, "fusion_lat": 0.0, "is_reserved": 0, "rental_uris": {"ios": "https://dc.lft.to/lastmile_qr_scan", "android": "https://dc.lft.to/lastmile_qr_scan"}, "fusion_lon": 0.0, "type": "electric_scooter", "bike_id": "be9462700da1aaeb5f8cdd6d58fee183", "name": "be9462700da1aaeb5f8cdd6d58fee183"}, {"lon": -76.992449, "is_disabled": 0, "lat": 38.794719666666666, "fusion_lat": 0.0, "is_reserved": 0, "rental_uris": {"ios": "https://dc.lft.to/lastmile_qr_scan", "android": "https://dc.lft.to/lastmile_qr_scan"}, "fusion_lon": 0.0, "type": "electric_bike", "bike_id": "7397a952868cf04625094bd4de8267ea", "name": "7397a952868cf04625094bd4de8267ea"}, {"lon": -77.02209916666666, "is_disabled": 0, "lat": 38.9082775, "fusion_lat": 0.0, "is_reserved": 0, "rental_uris": {"ios": "https://dc.lft.to/lastmile_qr_scan", "android": "https://dc.lft.to/lastmile_qr_scan"}, "fusion_lon": 0.0, "type": "electric_scooter", "bike_id": "7c1ddc5133a3cab94c331980f55a94d3", "name": "7c1ddc5133a3cab94c331980f55a94d3"}, {"lon": -77.00162933333333, "is_disabled": 0, "lat": 38.873866666666665, "fusion_lat": 0.0, "is_reserved": 0, "rental_uris": {"ios": "https://dc.lft.to/lastmile_qr_scan", "android": "https://dc.lft.to/lastmile_qr_scan"}, "fusion_lon": 0.0, "type": "electric_scooter", "bike_id": "4ad993cb9a2cc789fcc233de4af5d966", "name": "4ad993cb9a2cc789fcc233de4af5d966"}, {"lon": -76.94640216666667, "is_disabled": 0, "lat": 38.89864216666667, "fusion_lat": 0.0, "is_reserved": 0, "rental_uris": {"ios": "https://dc.lft.to/lastmile_qr_scan", "android": "https://dc.lft.to/lastmile_qr_scan"}, "fusion_lon": 0.0, "type": "electric_scooter", "bike_id": "1dbfddfc8610d7c4f823e95fd91ccbb1", "name": "1dbfddfc8610d7c4f823e95fd91ccbb1"}, {"lon": -77.03222816666667, "is_disabled": 0, "lat": 38.90865433333333, "fusion_lat": 0.0, "is_reserved": 0, "rental_uris": {"ios": "https://dc.lft.to/lastmile_qr_scan", "android": "https://dc.lft.to/lastmile_qr_scan"}, "fusion_lon": 0.0, "type": "electric_scooter", "bike_id": "a9ee7a7c632304d45ff6e33ac15c51d4", "name": "a9ee7a7c632304d45ff6e33ac15c51d4"}, {"lon": -77.03665133333334, "is_disabled": 0, "lat": 38.921656166666665, "fusion_lat": 0.0, "is_reserved": 0, "rental_uris": {"ios": "https://dc.lft.to/lastmile_qr_scan", "android": "https://dc.lft.to/lastmile_qr_scan"}, "fusion_lon": 0.0, "type": "electric_scooter", "bike_id": "eb35e084448ece413130f9942e7539f3", "name": "eb35e084448ece413130f9942e7539f3"}, {"lon": -77.03210016666667, "is_disabled": 0, "lat": 38.892479, "fusion_lat": 0.0, "is_reserved": 0, "rental_uris": {"ios": "https://dc.lft.to/lastmile_qr_scan", "android": "https://dc.lft.to/lastmile_qr_scan"}, "fusion_lon": 0.0, "type": "electric_scooter", "bike_id": "6945ba381b56ce409a5e47586c048cfd", "name": "6945ba381b56ce409a5e47586c048cfd"}, {"lon": -77.0250035, "is_disabled": 0, "lat": 38.91804783333333, "fusion_lat": 0.0, "is_reserved": 0, "rental_uris": {"ios": "https://dc.lft.to/lastmile_qr_scan", "android": "https://dc.lft.to/lastmile_qr_scan"}, "fusion_lon": 0.0, "type": "electric_scooter", "bike_id": "0a0fd1870b68dca38325572b39e4015e", "name": "0a0fd1870b68dca38325572b39e4015e"}, {"lon": -77.1266115, "is_disabled": 0, "lat": 38.8151045, "fusion_lat": 0.0, "is_reserved": 0, "rental_uris": {"ios": "https://dc.lft.to/lastmile_qr_scan", "android": "https://dc.lft.to/lastmile_qr_scan"}, "fusion_lon": 0.0, "type": "electric_bike", "bike_id": "fc6a098dadacaa4dcbe246c8ea778690", "name": "fc6a098dadacaa4dcbe246c8ea778690"}, {"lon": -77.032259, "is_disabled": 0, "lat": 38.917093666666666, "fusion_lat": 0.0, "is_reserved": 0, "rental_uris": {"ios": "https://dc.lft.to/lastmile_qr_scan", "android": "https://dc.lft.to/lastmile_qr_scan"}, "fusion_lon": 0.0, "type": "electric_scooter", "bike_id": "7ab99fb57bd3a4cfb3b69526a7685650", "name": "7ab99fb57bd3a4cfb3b69526a7685650"}, {"lon": -77.03401266666667, "is_disabled": 0, "lat": 38.92200183333333, "fusion_lat": 0.0, "is_reserved": 0, "rental_uris": {"ios": "https://dc.lft.to/lastmile_qr_scan", "android": "https://dc.lft.to/lastmile_qr_scan"}, "fusion_lon": 0.0, "type": "electric_scooter", "bike_id": "42fe181537789995b4fdfc72a71a0966", "name": "42fe181537789995b4fdfc72a71a0966"}, {"lon": -77.04690033333334, "is_disabled": 0, "lat": 38.90312633333333, "fusion_lat": 0.0, "is_reserved": 0, "rental_uris": {"ios": "https://dc.lft.to/lastmile_qr_scan", "android": "https://dc.lft.to/lastmile_qr_scan"}, "fusion_lon": 0.0, "type": "electric_scooter", "bike_id": "3c251a8781ade4d2ebd0b4b20303b519", "name": "3c251a8781ade4d2ebd0b4b20303b519"}, {"lon": -77.01636083333334, "is_disabled": 0, "lat": 38.906459, "fusion_lat": 0.0, "is_reserved": 0, "rental_uris": {"ios": "https://dc.lft.to/lastmile_qr_scan", "android": "https://dc.lft.to/lastmile_qr_scan"}, "fusion_lon": 0.0, "type": "electric_scooter", "bike_id": "58b2719bed59cd33e8aa5c1cd0b1d1cc", "name": "58b2719bed59cd33e8aa5c1cd0b1d1cc"}, {"lon": -77.02210133333334, "is_disabled": 0, "lat": 38.91270216666667, "fusion_lat": 0.0, "is_reserved": 0, "rental_uris": {"ios": "https://dc.lft.to/lastmile_qr_scan", "android": "https://dc.lft.to/lastmile_qr_scan"}, "fusion_lon": 0.0, "type": "electric_scooter", "bike_id": "2d85a276de58de872dcc2bf85794d112", "name": "2d85a276de58de872dcc2bf85794d112"}, {"lon": -77.02721633333333, "is_disabled": 0, "lat": 38.9276205, "fusion_lat": 0.0, "is_reserved": 0, "rental_uris": {"ios": "https://dc.lft.to/lastmile_qr_scan", "android": "https://dc.lft.to/lastmile_qr_scan"}, "fusion_lon": 0.0, "type": "electric_scooter", "bike_id": "3c4b6a244a1552cc6f718f7efb0a3401", "name": "3c4b6a244a1552cc6f718f7efb0a3401"}, {"lon": -77.02263966666666, "is_disabled": 0, "lat": 38.927357666666666, "fusion_lat": 0.0, "is_reserved": 0, "rental_uris": {"ios": "https://dc.lft.to/lastmile_qr_scan", "android": "https://dc.lft.to/lastmile_qr_scan"}, "fusion_lon": 0.0, "type": "electric_scooter", "bike_id": "5d29427049c0d3f27fcc41d869b8c9d9", "name": "5d29427049c0d3f27fcc41d869b8c9d9"}, {"lon": -77.0166745, "is_disabled": 0, "lat": 38.881026, "fusion_lat": 0.0, "is_reserved": 0, "rental_uris": {"ios": "https://dc.lft.to/lastmile_qr_scan", "android": "https://dc.lft.to/lastmile_qr_scan"}, "fusion_lon": 0.0, "type": "electric_scooter", "bike_id": "f19e86dc955ec581bf6e389d0c27d6b4", "name": "f19e86dc955ec581bf6e389d0c27d6b4"}, {"lon": -77.0006465, "is_disabled": 0, "lat": 38.873508, "fusion_lat": 0.0, "is_reserved": 0, "rental_uris": {"ios": "https://dc.lft.to/lastmile_qr_scan", "android": "https://dc.lft.to/lastmile_qr_scan"}, "fusion_lon": 0.0, "type": "electric_scooter", "bike_id": "fe6de61505b2b5659f1abcf4f7ab7344", "name": "fe6de61505b2b5659f1abcf4f7ab7344"}, {"lon": -77.04492983333333, "is_disabled": 0, "lat": 38.9084135, "fusion_lat": 0.0, "is_reserved": 0, "rental_uris": {"ios": "https://dc.lft.to/lastmile_qr_scan", "android": "https://dc.lft.to/lastmile_qr_scan"}, "fusion_lon": 0.0, "type": "electric_scooter", "bike_id": "ba23d0a908c02f41c6fb97daef4b5343", "name": "ba23d0a908c02f41c6fb97daef4b5343"}, {"lon": -77.031927, "is_disabled": 0, "lat": 38.917508166666664, "fusion_lat": 0.0, "is_reserved": 0, "rental_uris": {"ios": "https://dc.lft.to/lastmile_qr_scan", "android": "https://dc.lft.to/lastmile_qr_scan"}, "fusion_lon": 0.0, "type": "electric_scooter", "bike_id": "5f564d1261fa4cb0343b3a426cf3a708", "name": "5f564d1261fa4cb0343b3a426cf3a708"}, {"lon": -77.030466, "is_disabled": 0, "lat": 38.9162045, "fusion_lat": 0.0, "is_reserved": 0, "rental_uris": {"ios": "https://dc.lft.to/lastmile_qr_scan", "android": "https://dc.lft.to/lastmile_qr_scan"}, "fusion_lon": 0.0, "type": "electric_scooter", "bike_id": "09c9c3413163cd0187bfab05d59672f9", "name": "09c9c3413163cd0187bfab05d59672f9"}, {"lon": -77.05425916666667, "is_disabled": 0, "lat": 38.92849616666667, "fusion_lat": 0.0, "is_reserved": 0, "rental_uris": {"ios": "https://dc.lft.to/lastmile_qr_scan", "android": "https://dc.lft.to/lastmile_qr_scan"}, "fusion_lon": 0.0, "type": "electric_scooter", "bike_id": "c0e666a213d51ff6b630f6ba250a98db", "name": "c0e666a213d51ff6b630f6ba250a98db"}, {"lon": -77.014228, "is_disabled": 0, "lat": 38.928287166666664, "fusion_lat": 0.0, "is_reserved": 0, "rental_uris": {"ios": "https://dc.lft.to/lastmile_qr_scan", "android": "https://dc.lft.to/lastmile_qr_scan"}, "fusion_lon": 0.0, "type": "electric_scooter", "bike_id": "c4b886c1e790486c22dd26251f46f7a2", "name": "c4b886c1e790486c22dd26251f46f7a2"}, {"lon": -76.94893583333334, "is_disabled": 0, "lat": 38.8953445, "fusion_lat": 0.0, "is_reserved": 0, "rental_uris": {"ios": "https://dc.lft.to/lastmile_qr_scan", "android": "https://dc.lft.to/lastmile_qr_scan"}, "fusion_lon": 0.0, "type": "electric_scooter", "bike_id": "e32e95b1e00e70e21e9457b2e1c7bc05", "name": "e32e95b1e00e70e21e9457b2e1c7bc05"}, {"lon": -76.94892166666666, "is_disabled": 0, "lat": 38.89532366666667, "fusion_lat": 0.0, "is_reserved": 0, "rental_uris": {"ios": "https://dc.lft.to/lastmile_qr_scan", "android": "https://dc.lft.to/lastmile_qr_scan"}, "fusion_lon": 0.0, "type": "electric_scooter", "bike_id": "089f82095f0f73706aa6d1a75c195083", "name": "089f82095f0f73706aa6d1a75c195083"}, {"lon": -77.0318625, "is_disabled": 0, "lat": 38.89251816666667, "fusion_lat": 0.0, "is_reserved": 0, "rental_uris": {"ios": "https://dc.lft.to/lastmile_qr_scan", "android": "https://dc.lft.to/lastmile_qr_scan"}, "fusion_lon": 0.0, "type": "electric_scooter", "bike_id": "d13edfcd4892b7f01b039bf081f97307", "name": "d13edfcd4892b7f01b039bf081f97307"}, {"lon": -76.99128733333333, "is_disabled": 0, "lat": 38.908772166666665, "fusion_lat": 0.0, "is_reserved": 0, "rental_uris": {"ios": "https://dc.lft.to/lastmile_qr_scan", "android": "https://dc.lft.to/lastmile_qr_scan"}, "fusion_lon": 0.0, "type": "electric_bike", "bike_id": "4b559d03fcd3112580b94af9ef2ab6fd", "name": "4b559d03fcd3112580b94af9ef2ab6fd"}, {"lon": -77.03211083333333, "is_disabled": 0, "lat": 38.892337166666664, "fusion_lat": 0.0, "is_reserved": 0, "rental_uris": {"ios": "https://dc.lft.to/lastmile_qr_scan", "android": "https://dc.lft.to/lastmile_qr_scan"}, "fusion_lon": 0.0, "type": "electric_scooter", "bike_id": "71bfa00bd69f95a902d82c7d241a727a", "name": "71bfa00bd69f95a902d82c7d241a727a"}, {"lon": -77.0333465, "is_disabled": 0, "lat": 38.915642166666665, "fusion_lat": 0.0, "is_reserved": 0, "rental_uris": {"ios": "https://dc.lft.to/lastmile_qr_scan", "android": "https://dc.lft.to/lastmile_qr_scan"}, "fusion_lon": 0.0, "type": "electric_scooter", "bike_id": "e014769f3438c86c4f03efb8d8547abf", "name": "e014769f3438c86c4f03efb8d8547abf"}, {"lon": -77.04874683333334, "is_disabled": 0, "lat": 38.909775, "fusion_lat": 0.0, "is_reserved": 0, "rental_uris": {"ios": "https://dc.lft.to/lastmile_qr_scan", "android": "https://dc.lft.to/lastmile_qr_scan"}, "fusion_lon": 0.0, "type": "electric_scooter", "bike_id": "12dd0deba630a89609ab1ea48cc7c214", "name": "12dd0deba630a89609ab1ea48cc7c214"}, {"lon": -76.91598166666667, "is_disabled": 0, "lat": 38.879849, "fusion_lat": 0.0, "is_reserved": 0, "rental_uris": {"ios": "https://dc.lft.to/lastmile_qr_scan", "android": "https://dc.lft.to/lastmile_qr_scan"}, "fusion_lon": 0.0, "type": "electric_bike", "bike_id": "547bc639fed40674f91a3d4d7c1dba90", "name": "547bc639fed40674f91a3d4d7c1dba90"}, {"lon": -77.04004316666666, "is_disabled": 0, "lat": 38.934233166666665, "fusion_lat": 0.0, "is_reserved": 0, "rental_uris": {"ios": "https://dc.lft.to/lastmile_qr_scan", "android": "https://dc.lft.to/lastmile_qr_scan"}, "fusion_lon": 0.0, "type": "electric_scooter", "bike_id": "396a4af46600d4445f5e9d1f7077d8d9", "name": "396a4af46600d4445f5e9d1f7077d8d9"}, {"lon": -77.05259583333333, "is_disabled": 0, "lat": 38.92787966666667, "fusion_lat": 0.0, "is_reserved": 0, "rental_uris": {"ios": "https://dc.lft.to/lastmile_qr_scan", "android": "https://dc.lft.to/lastmile_qr_scan"}, "fusion_lon": 0.0, "type": "electric_scooter", "bike_id": "a73d407b4aee9b668384244b86157238", "name": "a73d407b4aee9b668384244b86157238"}, {"lon": -76.99483933333333, "is_disabled": 0, "lat": 38.891789333333335, "fusion_lat": 0.0, "is_reserved": 0, "rental_uris": {"ios": "https://dc.lft.to/lastmile_qr_scan", "android": "https://dc.lft.to/lastmile_qr_scan"}, "fusion_lon": 0.0, "type": "electric_scooter", "bike_id": "bdf18c2a97f80b279a68d9e0ebb1ee66", "name": "bdf18c2a97f80b279a68d9e0ebb1ee66"}, {"lon": -77.00500816666667, "is_disabled": 0, "lat": 38.89687333333333, "fusion_lat": 0.0, "is_reserved": 0, "rental_uris": {"ios": "https://dc.lft.to/lastmile_qr_scan", "android": "https://dc.lft.to/lastmile_qr_scan"}, "fusion_lon": 0.0, "type": "electric_scooter", "bike_id": "76546768048f070f02764fa58d137982", "name": "76546768048f070f02764fa58d137982"}, {"lon": -77.02600066666666, "is_disabled": 0, "lat": 38.923812833333336, "fusion_lat": 0.0, "is_reserved": 0, "rental_uris": {"ios": "https://dc.lft.to/lastmile_qr_scan", "android": "https://dc.lft.to/lastmile_qr_scan"}, "fusion_lon": 0.0, "type": "electric_scooter", "bike_id": "e18d1e60e78dacae533672497885b8e0", "name": "e18d1e60e78dacae533672497885b8e0"}, {"lon": -77.02175266666667, "is_disabled": 0, "lat": 38.9020685, "fusion_lat": 0.0, "is_reserved": 0, "rental_uris": {"ios": "https://dc.lft.to/lastmile_qr_scan", "android": "https://dc.lft.to/lastmile_qr_scan"}, "fusion_lon": 0.0, "type": "electric_scooter", "bike_id": "840bfeb7c71f386fdee651c531d6ed48", "name": "840bfeb7c71f386fdee651c531d6ed48"}, {"lon": -76.97083483333333, "is_disabled": 0, "lat": 38.8922025, "fusion_lat": 0.0, "is_reserved": 0, "rental_uris": {"ios": "https://dc.lft.to/lastmile_qr_scan", "android": "https://dc.lft.to/lastmile_qr_scan"}, "fusion_lon": 0.0, "type": "electric_bike", "bike_id": "113966a462a098e208965ae01cbe3558", "name": "113966a462a098e208965ae01cbe3558"}, {"lon": -77.0385435, "is_disabled": 0, "lat": 38.9028845, "fusion_lat": 0.0, "is_reserved": 0, "rental_uris": {"ios": "https://dc.lft.to/lastmile_qr_scan", "android": "https://dc.lft.to/lastmile_qr_scan"}, "fusion_lon": 0.0, "type": "electric_scooter", "bike_id": "e4c82d979e01e8c754e4953deeaa8505", "name": "e4c82d979e01e8c754e4953deeaa8505"}, {"lon": -77.0503045, "is_disabled": 0, "lat": 38.900837, "fusion_lat": 0.0, "is_reserved": 0, "rental_uris": {"ios": "https://dc.lft.to/lastmile_qr_scan", "android": "https://dc.lft.to/lastmile_qr_scan"}, "fusion_lon": 0.0, "type": "electric_scooter", "bike_id": "b9d532efbc437d4eb9021e9289e4fe6f", "name": "b9d532efbc437d4eb9021e9289e4fe6f"}, {"lon": -77.02499983333334, "is_disabled": 0, "lat": 38.919258166666665, "fusion_lat": 0.0, "is_reserved": 0, "rental_uris": {"ios": "https://dc.lft.to/lastmile_qr_scan", "android": "https://dc.lft.to/lastmile_qr_scan"}, "fusion_lon": 0.0, "type": "electric_scooter", "bike_id": "aa8fe86f4476b04e65ff3e35755b6755", "name": "aa8fe86f4476b04e65ff3e35755b6755"}, {"lon": -77.00656733333334, "is_disabled": 0, "lat": 38.899945833333334, "fusion_lat": 0.0, "is_reserved": 0, "rental_uris": {"ios": "https://dc.lft.to/lastmile_qr_scan", "android": "https://dc.lft.to/lastmile_qr_scan"}, "fusion_lon": 0.0, "type": "electric_scooter", "bike_id": "7fb6a918912e00e067cb48626145d8c7", "name": "7fb6a918912e00e067cb48626145d8c7"}, {"lon": -76.96059816666667, "is_disabled": 0, "lat": 38.884088, "fusion_lat": 0.0, "is_reserved": 0, "rental_uris": {"ios": "https://dc.lft.to/lastmile_qr_scan", "android": "https://dc.lft.to/lastmile_qr_scan"}, "fusion_lon": 0.0, "type": "electric_bike", "bike_id": "321097218784737b7fed68ddb0d7adb6", "name": "321097218784737b7fed68ddb0d7adb6"}, {"lon": -77.01111, "is_disabled": 0, "lat": 38.909724, "fusion_lat": 0.0, "is_reserved": 0, "rental_uris": {"ios": "https://dc.lft.to/lastmile_qr_scan", "android": "https://dc.lft.to/lastmile_qr_scan"}, "fusion_lon": 0.0, "type": "electric_scooter", "bike_id": "d91494e8e99da3bad775e9bb01ae0bc9", "name": "d91494e8e99da3bad775e9bb01ae0bc9"}, {"lon": -77.02470816666667, "is_disabled": 0, "lat": 38.91880283333333, "fusion_lat": 0.0, "is_reserved": 0, "rental_uris": {"ios": "https://dc.lft.to/lastmile_qr_scan", "android": "https://dc.lft.to/lastmile_qr_scan"}, "fusion_lon": 0.0, "type": "electric_scooter", "bike_id": "dfc35bc981a9d393e2174b029654fbb8", "name": "dfc35bc981a9d393e2174b029654fbb8"}, {"lon": -77.00903916666667, "is_disabled": 0, "lat": 38.90108016666667, "fusion_lat": 0.0, "is_reserved": 0, "rental_uris": {"ios": "https://dc.lft.to/lastmile_qr_scan", "android": "https://dc.lft.to/lastmile_qr_scan"}, "fusion_lon": 0.0, "type": "electric_scooter", "bike_id": "9c4678eaca49a44c74316e2d308f0c1d", "name": "9c4678eaca49a44c74316e2d308f0c1d"}, {"lon": -77.03714516666666, "is_disabled": 0, "lat": 38.92865283333333, "fusion_lat": 0.0, "is_reserved": 0, "rental_uris": {"ios": "https://dc.lft.to/lastmile_qr_scan", "android": "https://dc.lft.to/lastmile_qr_scan"}, "fusion_lon": 0.0, "type": "electric_scooter", "bike_id": "971c184def5ac5f83696d49208e2b710", "name": "971c184def5ac5f83696d49208e2b710"}, {"lon": -77.02629233333333, "is_disabled": 0, "lat": 38.92822533333333, "fusion_lat": 0.0, "is_reserved": 0, "rental_uris": {"ios": "https://dc.lft.to/lastmile_qr_scan", "android": "https://dc.lft.to/lastmile_qr_scan"}, "fusion_lon": 0.0, "type": "electric_scooter", "bike_id": "bf5a20b9758e1ba2863d995d5f8708df", "name": "bf5a20b9758e1ba2863d995d5f8708df"},