{"data": {"bikes": [{"lon": -77.02221366666667, "bike_id": "30bdf900a4f7f0ff775cde08f0105314", "lat": 38.9125755, "fusion_lon": 0.0, "fusion_lat": 0.0, "type": "electric_scooter", "name": "30bdf900a4f7f0ff775cde08f0105314", "is_disabled": 0, "rental_uris": {"ios": "https://dc.lft.to/lastmile_qr_scan", "android": "https://dc.lft.to/lastmile_qr_scan"}, "is_reserved": 0}, {"lon": -77.0034585, "bike_id": "2eaf7ab07b5126fbb1307e0cf6f2e161", "lat": 38.916255, "fusion_lon": 0.0, "fusion_lat": 0.0, "type": "electric_scooter", "name": "2eaf7ab07b5126fbb1307e0cf6f2e161", "is_disabled": 0, "rental_uris": {"ios": "https://dc.lft.to/lastmile_qr_scan", "android": "https://dc.lft.to/lastmile_qr_scan"}, "is_reserved": 0}, {"lon": -77.02704016666667, "bike_id": "0072fd96b204c196d7a73d658762f4da", "lat": 38.90926816666666, "fusion_lon": 0.0, "fusion_lat": 0.0, "type": "electric_scooter", "name": "0072fd96b204c196d7a73d658762f4da", "is_disabled": 0, "rental_uris": {"ios": "https://dc.lft.to/lastmile_qr_scan", "android": "https://dc.lft.to/lastmile_qr_scan"}, "is_reserved": 0}, {"lon": -77.02429416666666, "bike_id": "be5752224e9f3d8da29a04a371d1fa85", "lat": 38.923501, "fusion_lon": 0.0, "fusion_lat": 0.0, "type": "electric_scooter", "name": "be5752224e9f3d8da29a04a371d1fa85", "is_disabled": 0, "rental_uris": {"ios": "https://dc.lft.to/lastmile_qr_scan", "android": "https://dc.lft.to/lastmile_qr_scan"}, "is_reserved": 0}, {"lon": -76.98455183333333, "bike_id": "4b991c3cd06aa08554e226cdf547627e", "lat": 38.90552666666667, "fusion_lon": 0.0, "fusion_lat": 0.0, "type": "electric_scooter", "name": "4b991c3cd06aa08554e226cdf547627e", "is_disabled": 0, "rental_uris": {"ios": "https://dc.lft.to/lastmile_qr_scan", "android": "https://dc.lft.to/lastmile_qr_scan"}, "is_reserved": 0}, {"lon": -77.0325215, "bike_id": "187f6c636179b53b612c5b3e557e646e", "lat": 38.92884866666667, "fusion_lon": 0.0, "fusion_lat": 0.0, "type": "electric_scooter", "name": "187f6c636179b53b612c5b3e557e646e", "is_disabled": 0, "rental_uris": {"ios": "https://dc.lft.to/lastmile_qr_scan", "android": "https://dc.lft.to/lastmile_qr_scan"}, "is_reserved": 0}, {"lon": -77.03635383333334, "bike_id": "c4ee1a29c953500aa580fdad24d689c4", "lat": 38.91762516666667, "fusion_lon": 0.0, "fusion_lat": 0.0, "type": "electric_scooter", "name": "c4ee1a29c953500aa580fdad24d689c4", "is_disabled": 0, "rental_uris": {"ios": "https://dc.lft.to/lastmile_qr_scan", "android": "https://dc.lft.to/lastmile_qr_scan"}, "is_reserved": 0}, {"lon": -77.06581433333334, "bike_id": "8c2dff63d023a9a2f3bf638edbec8c5a", "lat": 38.91134066666667, "fusion_lon": 0.0, "fusion_lat": 0.0, "type": "electric_bike", "name": "8c2dff63d023a9a2f3bf638edbec8c5a", "is_disabled": 0, "rental_uris": {"ios": "https://dc.lft.to/lastmile_qr_scan", "android": "https://dc.lft.to/lastmile_qr_scan"}, "is_reserved": 0}, {"lon": -77.03217833333333, "bike_id": "ff183d0e68c5872e6c1e47e6ec89d4ab", "lat": 38.90521183333333, "fusion_lon": 0.0, "fusion_lat": 0.0, "type": "electric_scooter", "name": "ff183d0e68c5872e6c1e47e6ec89d4ab", "is_disabled": 0, "rental_uris": {"ios": "https://dc.lft.to/lastmile_qr_scan", "android": "https://dc.lft.to/lastmile_qr_scan"}, "is_reserved": 0}, {"lon": -77.04500183333333, "bike_id": "632530d5ba0ac25f0d1f294ea48627a6", "lat": 38.907234833333334, "fusion_lon": 0.0, "fusion_lat": 0.0, "type": "electric_scooter", "name": "632530d5ba0ac25f0d1f294ea48627a6", "is_disabled": 0, "rental_uris": {"ios": "https://dc.lft.to/lastmile_qr_scan", "android": "https://dc.lft.to/lastmile_qr_scan"}, "is_reserved": 0}, {"lon": -77.02838166666666, "bike_id": "52a6d58eff20725d36d4a92a53cca206", "lat": 38.92961666666667, "fusion_lon": 0.0, "fusion_lat": 0.0, "type": "electric_scooter", "name": "52a6d58eff20725d36d4a92a53cca206", "is_disabled": 0, "rental_uris": {"ios": "https://dc.lft.to/lastmile_qr_scan", "android": "https://dc.lft.to/lastmile_qr_scan"}, "is_reserved": 0}, {"lon": -77.00984366666667, "bike_id": "445947d7ba33f5699fa27f00aab9002b", "lat": 38.903767333333334, "fusion_lon": 0.0, "fusion_lat": 0.0, "type": "electric_scooter", "name": "445947d7ba33f5699fa27f00aab9002b", "is_disabled": 0, "rental_uris": {"ios": "https://dc.lft.to/lastmile_qr_scan", "android": "https://dc.lft.to/lastmile_qr_scan"}, "is_reserved": 0}, {"lon": -77.03581116666666, "bike_id": "7510cb2b8754a844afdcee2b442164c0", "lat": 38.91779, "fusion_lon": 0.0, "fusion_lat": 0.0, "type": "electric_scooter", "name": "7510cb2b8754a844afdcee2b442164c0", "is_disabled": 0, "rental_uris": {"ios": "https://dc.lft.to/lastmile_qr_scan", "android": "https://dc.lft.to/lastmile_qr_scan"}, "is_reserved": 0}, {"lon": -77.05040066666666, "bike_id": "da6f065536a7488496e47c25f7d636b1", "lat": 38.92410783333333, "fusion_lon": 0.0, "fusion_lat": 0.0, "type": "electric_bike", "name": "da6f065536a7488496e47c25f7d636b1", "is_disabled": 0, "rental_uris": {"ios": "https://dc.lft.to/lastmile_qr_scan", "android": "https://dc.lft.to/lastmile_qr_scan"}, "is_reserved": 0}, {"lon": -77.03985933333334, "bike_id": "1f1f03625b5deff2c01d2f2b7bf7ffdd", "lat": 38.916319666666666, "fusion_lon": 0.0, "fusion_lat": 0.0, "type": "electric_scooter", "name": "1f1f03625b5deff2c01d2f2b7bf7ffdd", "is_disabled": 0, "rental_uris": {"ios": "https://dc.lft.to/lastmile_qr_scan", "android": "https://dc.lft.to/lastmile_qr_scan"}, "is_reserved": 0}, {"lon": -77.04863733333333, "bike_id": "90ab36765f086dbb4fd044f1e9b7755b", "lat": 38.90472366666667, "fusion_lon": 0.0, "fusion_lat": 0.0, "type": "electric_scooter", "name": "90ab36765f086dbb4fd044f1e9b7755b", "is_disabled": 0, "rental_uris": {"ios": "https://dc.lft.to/lastmile_qr_scan", "android": "https://dc.lft.to/lastmile_qr_scan"}, "is_reserved": 0}, {"lon": -77.06551416666667, "bike_id": "b225d59b1be7e0de33772dcafc521070", "lat": 38.91149266666667, "fusion_lon": 0.0, "fusion_lat": 0.0, "type": "electric_bike", "name": "b225d59b1be7e0de33772dcafc521070", "is_disabled": 0, "rental_uris": {"ios": "https://dc.lft.to/lastmile_qr_scan", "android": "https://dc.lft.to/lastmile_qr_scan"}, "is_reserved": 0}, {"lon": -77.0105625, "bike_id": "7434cbcf530018911974cdb8a0fbedd6", "lat": 38.96339733333333, "fusion_lon": 0.0, "fusion_lat": 0.0, "type": "electric_scooter", "name": "7434cbcf530018911974cdb8a0fbedd6", "is_disabled": 0, "rental_uris": {"ios": "https://dc.lft.to/lastmile_qr_scan", "android": "https://dc.lft.to/lastmile_qr_scan"}, "is_reserved": 0}, {"lon": -77.00372883333333, "bike_id": "fd6afb9da9e3888d64317ea58e38c7c7", "lat": 38.906022666666665, "fusion_lon": 0.0, "fusion_lat": 0.0, "type": "electric_scooter", "name": "fd6afb9da9e3888d64317ea58e38c7c7", "is_disabled": 0, "rental_uris": {"ios": "https://dc.lft.to/lastmile_qr_scan", "android": "https://dc.lft.to/lastmile_qr_scan"}, "is_reserved": 0}, {"lon": -77.0019225, "bike_id": "610da6097babf354e7b5d89fc7f25a65", "lat": 38.90011333333333, "fusion_lon": 0.0, "fusion_lat": 0.0, "type": "electric_scooter", "name": "610da6097babf354e7b5d89fc7f25a65", "is_disabled": 0, "rental_uris": {"ios": "https://dc.lft.to/lastmile_qr_scan", "android": "https://dc.lft.to/lastmile_qr_scan"}, "is_reserved": 0}, {"lon": -77.10341166666667, "bike_id": "34e16b6c144aba9092afffeeb9307065", "lat": 38.8855055, "fusion_lon": 0.0, "fusion_lat": 0.0, "type": "electric_bike", "name": "34e16b6c144aba9092afffeeb9307065", "is_disabled": 0, "rental_uris": {"ios": "https://dc.lft.to/lastmile_qr_scan", "android": "https://dc.lft.to/lastmile_qr_scan"}, "is_reserved": 0}, {"lon": -77.03813616666666, "bike_id": "b4aa813f568a550790d2b4da0b0abe53", "lat": 38.92073466666667, "fusion_lon": 0.0, "fusion_lat": 0.0, "type": "electric_scooter", "name": "b4aa813f568a550790d2b4da0b0abe53", "is_disabled": 0, "rental_uris": {"ios": "https://dc.lft.to/lastmile_qr_scan", "android": "https://dc.lft.to/lastmile_qr_scan"}, "is_reserved": 0}, {"lon": -77.0404725, "bike_id": "3c4992f4a56ef31d26519a12b848f001", "lat": 38.9085125, "fusion_lon": 0.0, "fusion_lat": 0.0, "type": "electric_bike", "name": "3c4992f4a56ef31d26519a12b848f001", "is_disabled": 0, "rental_uris": {"ios": "https://dc.lft.to/lastmile_qr_scan", "android": "https://dc.lft.to/lastmile_qr_scan"}, "is_reserved": 0}, {"lon": -77.032228, "bike_id": "03e4ab193fb991b5264454089c556e3e", "lat": 38.898542166666665, "fusion_lon": 0.0, "fusion_lat": 0.0, "type": "electric_scooter", "name": "03e4ab193fb991b5264454089c556e3e", "is_disabled": 0, "rental_uris": {"ios": "https://dc.lft.to/lastmile_qr_scan", "android": "https://dc.lft.to/lastmile_qr_scan"}, "is_reserved": 0}, {"lon": -76.97767166666667, "bike_id": "7e4003188f010a7a0a1f8da0a95e919f", "lat": 38.951537333333334, "fusion_lon": 0.0, "fusion_lat": 0.0, "type": "electric_bike", "name": "7e4003188f010a7a0a1f8da0a95e919f", "is_disabled": 0, "rental_uris": {"ios": "https://dc.lft.to/lastmile_qr_scan", "android": "https://dc.lft.to/lastmile_qr_scan"}, "is_reserved": 0}, {"lon": -77.0067225, "bike_id": "2604bf9f4d55eee4cd03230a07fe723f", "lat": 38.945117833333335, "fusion_lon": 0.0, "fusion_lat": 0.0, "type": "electric_bike", "name": "2604bf9f4d55eee4cd03230a07fe723f", "is_disabled": 0, "rental_uris": {"ios": "https://dc.lft.to/lastmile_qr_scan", "android": "https://dc.lft.to/lastmile_qr_scan"}, "is_reserved": 0}, {"lon": -77.02593816666666, "bike_id": "663f4adb98ac2cd063f46ea201deb554", "lat": 38.94200516666667, "fusion_lon": 0.0, "fusion_lat": 0.0, "type": "electric_scooter", "name": "663f4adb98ac2cd063f46ea201deb554", "is_disabled": 0, "rental_uris": {"ios": "https://dc.lft.to/lastmile_qr_scan", "android": "https://dc.lft.to/lastmile_qr_scan"}, "is_reserved": 0}, {"lon": -77.04374916666667, "bike_id": "77cbce7ef84c012ca519cce37933738d", "lat": 38.920922166666664, "fusion_lon": 0.0, "fusion_lat": 0.0, "type": "electric_scooter", "name": "77cbce7ef84c012ca519cce37933738d", "is_disabled": 0, "rental_uris": {"ios": "https://dc.lft.to/lastmile_qr_scan", "android": "https://dc.lft.to/lastmile_qr_scan"}, "is_reserved": 0}, {"lon": -77.01765733333333, "bike_id": "de0e6f4ce09de7a7485b165dce4b4fbc", "lat": 38.885966, "fusion_lon": 0.0, "fusion_lat": 0.0, "type": "electric_scooter", "name": "de0e6f4ce09de7a7485b165dce4b4fbc", "is_disabled": 0, "rental_uris": {"ios": "https://dc.lft.to/lastmile_qr_scan", "android": "https://dc.lft.to/lastmile_qr_scan"}, "is_reserved": 0}, {"lon": -77.04190816666667, "bike_id": "7062a0c621cc288d0c6fa5010b1f27de", "lat": 38.89967983333333, "fusion_lon": 0.0, "fusion_lat": 0.0, "type": "electric_scooter", "name": "7062a0c621cc288d0c6fa5010b1f27de", "is_disabled": 0, "rental_uris": {"ios": "https://dc.lft.to/lastmile_qr_scan", "android": "https://dc.lft.to/lastmile_qr_scan"}, "is_reserved": 0}, {"lon": -77.04847833333334, "bike_id": "caa5389d83dbd6387ce982ae2e175cba", "lat": 38.9151785, "fusion_lon": 0.0, "fusion_lat": 0.0, "type": "electric_scooter", "name": "caa5389d83dbd6387ce982ae2e175cba", "is_disabled": 0, "rental_uris": {"ios": "https://dc.lft.to/lastmile_qr_scan", "android": "https://dc.lft.to/lastmile_qr_scan"}, "is_reserved": 0}, {"lon": -77.0221315, "bike_id": "e8a2ba8e106b706c09e42c9658a92f70", "lat": 38.8873775, "fusion_lon": 0.0, "fusion_lat": 0.0, "type": "electric_scooter", "name": "e8a2ba8e106b706c09e42c9658a92f70", "is_disabled": 0, "rental_uris": {"ios": "https://dc.lft.to/lastmile_qr_scan", "android": "https://dc.lft.to/lastmile_qr_scan"}, "is_reserved": 0}, {"lon": -76.9732005, "bike_id": "23b3d5c1419a42206ab4cb8f40608251", "lat": 38.90474483333333, "fusion_lon": 0.0, "fusion_lat": 0.0, "type": "electric_bike", "name": "23b3d5c1419a42206ab4cb8f40608251", "is_disabled": 0, "rental_uris": {"ios": "https://dc.lft.to/lastmile_qr_scan", "android": "https://dc.lft.to/lastmile_qr_scan"}, "is_reserved": 0}, {"lon": -77.04183216666667, "bike_id": "04af74afcbe56d560c6640ebbba2851a", "lat": 38.9197865, "fusion_lon": 0.0, "fusion_lat": 0.0, "type": "electric_scooter", "name": "04af74afcbe56d560c6640ebbba2851a", "is_disabled": 0, "rental_uris": {"ios": "https://dc.lft.to/lastmile_qr_scan", "android": "https://dc.lft.to/lastmile_qr_scan"}, "is_reserved": 0}, {"lon": -77.03842466666667, "bike_id": "9bcfee37a06bf0245ba1d2320004df71", "lat": 38.91044183333333, "fusion_lon": 0.0, "fusion_lat": 0.0, "type": "electric_scooter", "name": "9bcfee37a06bf0245ba1d2320004df71", "is_disabled": 0, "rental_uris": {"ios": "https://dc.lft.to/lastmile_qr_scan", "android": "https://dc.lft.to/lastmile_qr_scan"}, "is_reserved": 0}, {"lon": -77.02570966666667, "bike_id": "0b71ac2880ff5d3d8dc6215ac2cc1f27", "lat": 38.882882, "fusion_lon": 0.0, "fusion_lat": 0.0, "type": "electric_scooter", "name": "0b71ac2880ff5d3d8dc6215ac2cc1f27", "is_disabled": 0, "rental_uris": {"ios": "https://dc.lft.to/lastmile_qr_scan", "android": "https://dc.lft.to/lastmile_qr_scan"}, "is_reserved": 0}, {"lon": -77.02397283333333, "bike_id": "da5d4872c281af20c31f186ef2aaed1d", "lat": 38.88133766666667, "fusion_lon": 0.0, "fusion_lat": 0.0, "type": "electric_scooter", "name": "da5d4872c281af20c31f186ef2aaed1d", "is_disabled": 0, "rental_uris": {"ios": "https://dc.lft.to/lastmile_qr_scan", "android": "https://dc.lft.to/lastmile_qr_scan"}, "is_reserved": 0}, {"lon": -77.03991, "bike_id": "ceae04352df99a75523a5226f1584f3b", "lat": 38.933345333333335, "fusion_lon": 0.0, "fusion_lat": 0.0, "type": "electric_scooter", "name": "ceae04352df99a75523a5226f1584f3b", "is_disabled": 0, "rental_uris": {"ios": "https://dc.lft.to/lastmile_qr_scan", "android": "https://dc.lft.to/lastmile_qr_scan"}, "is_reserved": 0}, {"lon": -77.032902, "bike_id": "e1a0c7942da9b1fe22abfa33082bd3f3", "lat": 38.956505, "fusion_lon": 0.0, "fusion_lat": 0.0, "type": "electric_scooter", "name": "e1a0c7942da9b1fe22abfa33082bd3f3", "is_disabled": 0, "rental_uris": {"ios": "https://dc.lft.to/lastmile_qr_scan", "android": "https://dc.lft.to/lastmile_qr_scan"}, "is_reserved": 0}, {"lon": -76.99794066666666, "bike_id": "c45c5b240c629a8cfa6bf59fee053f7e", "lat": 38.9564295, "fusion_lon": 0.0, "fusion_lat": 0.0, "type": "electric_bike", "name": "c45c5b240c629a8cfa6bf59fee053f7e", "is_disabled": 0, "rental_uris": {"ios": "https://dc.lft.to/lastmile_qr_scan", "android": "https://dc.lft.to/lastmile_qr_scan"}, "is_reserved": 0}, {"lon": -77.01616066666666, "bike_id": "40f2923634742eded28baf149f536fc6", "lat": 38.8996205, "fusion_lon": 0.0, "fusion_lat": 0.0, "type": "electric_scooter", "name": "40f2923634742eded28baf149f536fc6", "is_disabled": 0, "rental_uris": {"ios": "https://dc.lft.to/lastmile_qr_scan", "android": "https://dc.lft.to/lastmile_qr_scan"}, "is_reserved": 0}, {"lon": -77.01999916666666, "bike_id": "a143ae44295cec8137d238dbb399fc55", "lat": 38.91528783333333, "fusion_lon": 0.0, "fusion_lat": 0.0, "type": "electric_scooter", "name": "a143ae44295cec8137d238dbb399fc55", "is_disabled": 0, "rental_uris": {"ios": "https://dc.lft.to/lastmile_qr_scan", "android": "https://dc.lft.to/lastmile_qr_scan"}, "is_reserved": 0}, {"lon": -77.05861233333333, "bike_id": "ac972cd0c9533c14ff09c3b1eb3f57d9", "lat": 38.9354535, "fusion_lon": 0.0, "fusion_lat": 0.0, "type": "electric_scooter", "name": "ac972cd0c9533c14ff09c3b1eb3f57d9", "is_disabled": 0, "rental_uris": {"ios": "https://dc.lft.to/lastmile_qr_scan", "android": "https://dc.lft.to/lastmile_qr_scan"}, "is_reserved": 0}, {"lon": -76.9985015, "bike_id": "50b497e49b394d4f7863632993c4b2ea", "lat": 38.96252166666667, "fusion_lon": 0.0, "fusion_lat": 0.0, "type": "electric_bike", "name": "50b497e49b394d4f7863632993c4b2ea", "is_disabled": 0, "rental_uris": {"ios": "https://dc.lft.to/lastmile_qr_scan", "android": "https://dc.lft.to/lastmile_qr_scan"}, "is_reserved": 0}, {"lon": -76.88403466666666, "bike_id": "fd012f9363fc36c548b24f29edc5c082", "lat": 38.93168883333333, "fusion_lon": 0.0, "fusion_lat": 0.0, "type": "electric_bike", "name": "fd012f9363fc36c548b24f29edc5c082", "is_disabled": 0, "rental_uris": {"ios": "https://dc.lft.to/lastmile_qr_scan", "android": "https://dc.lft.to/lastmile_qr_scan"}, "is_reserved": 0}, {"lon": -77.0603555, "bike_id": "1e91debbd6cf446740aba99141e10b1c", "lat": 38.93355783333333, "fusion_lon": 0.0, "fusion_lat": 0.0, "type": "electric_scooter", "name": "1e91debbd6cf446740aba99141e10b1c", "is_disabled": 0, "rental_uris": {"ios": "https://dc.lft.to/lastmile_qr_scan", "android": "https://dc.lft.to/lastmile_qr_scan"}, "is_reserved": 0}, {"lon": -77.037336, "bike_id": "5679c78c709709b4e92f6527d4c595a8", "lat": 38.92704116666667, "fusion_lon": 0.0, "fusion_lat": 0.0, "type": "electric_scooter", "name": "5679c78c709709b4e92f6527d4c595a8", "is_disabled": 0, "rental_uris": {"ios": "https://dc.lft.to/lastmile_qr_scan", "android": "https://dc.lft.to/lastmile_qr_scan"}, "is_reserved": 0}, {"lon": -77.055923, "bike_id": "8448bee7160dcdde7561a2d97d6c0bbd", "lat": 38.93355183333333, "fusion_lon": 0.0, "fusion_lat": 0.0, "type": "electric_scooter", "name": "8448bee7160dcdde7561a2d97d6c0bbd", "is_disabled": 0, "rental_uris": {"ios": "https://dc.lft.to/lastmile_qr_scan", "android": "https://dc.lft.to/lastmile_qr_scan"}, "is_reserved": 0}, {"lon": -77.0465485, "bike_id": "e279f122a5b0f90665b8c71c7f8968e6", "lat": 39.05500833333333, "fusion_lon": 0.0, "fusion_lat": 0.0, "type": "electric_bike", "name": "e279f122a5b0f90665b8c71c7f8968e6", "is_disabled": 0, "rental_uris": {"ios": "https://dc.lft.to/lastmile_qr_scan", "android": "https://dc.lft.to/lastmile_qr_scan"}, "is_reserved": 0}, {"lon": -77.02770483333333, "bike_id": "def8afe5f305acc3fd04875fa6d871c5", "lat": 38.965672166666664, "fusion_lon": 0.0, "fusion_lat": 0.0, "type": "electric_bike", "name": "def8afe5f305acc3fd04875fa6d871c5", "is_disabled": 0, "rental_uris": {"ios": "https://dc.lft.to/lastmile_qr_scan", "android": "https://dc.lft.to/lastmile_qr_scan"}, "is_reserved": 0}, {"lon": -77.13070433333333, "bike_id": "caa6f485940e685de871ac2cb0628729", "lat": 38.89629133333333, "fusion_lon": 0.0, "fusion_lat": 0.0, "type": "electric_bike", "name": "caa6f485940e685de871ac2cb0628729", "is_disabled": 0, "rental_uris": {"ios": "https://dc.lft.to/lastmile_qr_scan", "android": "https://dc.lft.to/lastmile_qr_scan"}, "is_reserved": 0}, {"lon": -77.03664983333333, "bike_id": "6cc64417df03c3887ea0750de2e95408", "lat": 38.90386516666667, "fusion_lon": 0.0, "fusion_lat": 0.0, "type": "electric_scooter", "name": "6cc64417df03c3887ea0750de2e95408", "is_disabled": 0, "rental_uris": {"ios": "https://dc.lft.to/lastmile_qr_scan", "android": "https://dc.lft.to/lastmile_qr_scan"}, "is_reserved": 0}, {"lon": -77.02944183333334, "bike_id": "a41c6b3dd39c49c54c9b71a899557707", "lat": 38.885043, "fusion_lon": 0.0, "fusion_lat": 0.0, "type": "electric_scooter", "name": "a41c6b3dd39c49c54c9b71a899557707", "is_disabled": 0, "rental_uris": {"ios": "https://dc.lft.to/lastmile_qr_scan", "android": "https://dc.lft.to/lastmile_qr_scan"}, "is_reserved": 0}, {"lon": -76.95652633333333, "bike_id": "f75b8290768d09025a1d8d5939f41b0e", "lat": 38.89620583333333, "fusion_lon": 0.0, "fusion_lat": 0.0, "type": "electric_scooter", "name": "f75b8290768d09025a1d8d5939f41b0e", "is_disabled": 0, "rental_uris": {"ios": "https://dc.lft.to/lastmile_qr_scan", "android": "https://dc.lft.to/lastmile_qr_scan"}, "is_reserved": 0}, {"lon": -77.03878283333333, "bike_id": "bf5f4fa3ecdd6ec1ce21a73363c54370", "lat": 38.94868133333333, "fusion_lon": 0.0, "fusion_lat": 0.0, "type": "electric_scooter", "name": "bf5f4fa3ecdd6ec1ce21a73363c54370", "is_disabled": 0, "rental_uris": {"ios": "https://dc.lft.to/lastmile_qr_scan", "android": "https://dc.lft.to/lastmile_qr_scan"}, "is_reserved": 0}, {"lon": -77.041713, "bike_id": "5c39a387cabf69e3b779b196066e232a", "lat": 38.9179085, "fusion_lon": 0.0, "fusion_lat": 0.0, "type": "electric_scooter", "name": "5c39a387cabf69e3b779b196066e232a", "is_disabled": 0, "rental_uris": {"ios": "https://dc.lft.to/lastmile_qr_scan", "android": "https://dc.lft.to/lastmile_qr_scan"}, "is_reserved": 0}, {"lon": -77.02481166666666, "bike_id": "cf739d785b32f18fc2d6d4cc440c8f8b", "lat": 38.916989666666666, "fusion_lon": 0.0, "fusion_lat": 0.0, "type": "electric_scooter", "name": "cf739d785b32f18fc2d6d4cc440c8f8b", "is_disabled": 0, "rental_uris": {"ios": "https://dc.lft.to/lastmile_qr_scan", "android": "https://dc.lft.to/lastmile_qr_scan"}, "is_reserved": 0}, {"lon": -77.05251783333334, "bike_id": "90b6e682bceefb46fe36cc59ffdd05fb", "lat": 38.927355166666665, "fusion_lon": 0.0, "fusion_lat": 0.0, "type": "electric_scooter", "name": "90b6e682bceefb46fe36cc59ffdd05fb", "is_disabled": 0, "rental_uris": {"ios": "https://dc.lft.to/lastmile_qr_scan", "android": "https://dc.lft.to/lastmile_qr_scan"}, "is_reserved": 0}, {"lon": -77.04325266666666, "bike_id": "264d00d34e96a641a11a316fbf9f205c", "lat": 38.90231216666667, "fusion_lon": 0.0, "fusion_lat": 0.0, "type": "electric_scooter", "name": "264d00d34e96a641a11a316fbf9f205c", "is_disabled": 0, "rental_uris": {"ios": "https://dc.lft.to/lastmile_qr_scan", "android": "https://dc.lft.to/lastmile_qr_scan"}, "is_reserved": 0}, {"lon": -77.03200816666667, "bike_id": "37b1538a7cc24a550fa89807c6be19bc", "lat": 38.906888, "fusion_lon": 0.0, "fusion_lat": 0.0, "type": "electric_scooter", "name": "37b1538a7cc24a550fa89807c6be19bc", "is_disabled": 0, "rental_uris": {"ios": "https://dc.lft.to/lastmile_qr_scan", "android": "https://dc.lft.to/lastmile_qr_scan"}, "is_reserved": 0}, {"lon": -77.02301666666666, "bike_id": "ce49a3cbbae915a54c5c7718f1e97b7a", "lat": 38.894856833333336, "fusion_lon": 0.0, "fusion_lat": 0.0, "type": "electric_scooter", "name": "ce49a3cbbae915a54c5c7718f1e97b7a", "is_disabled": 0, "rental_uris": {"ios": "https://dc.lft.to/lastmile_qr_scan", "android": "https://dc.lft.to/lastmile_qr_scan"}, "is_reserved": 0}, {"lon": -77.0174345, "bike_id": "ff4fcdc3ce1cef3c2d58750e36ebfe8a", "lat": 38.903846333333334, "fusion_lon": 0.0, "fusion_lat": 0.0, "type": "electric_scooter", "name": "ff4fcdc3ce1cef3c2d58750e36ebfe8a", "is_disabled": 0, "rental_uris": {"ios": "https://dc.lft.to/lastmile_qr_scan", "android": "https://dc.lft.to/lastmile_qr_scan"}, "is_reserved": 0}, {"lon": -77.02244, "bike_id": "c4c6b464c845fbca8764d836d59e3cf7", "lat": 38.927322333333336, "fusion_lon": 0.0, "fusion_lat": 0.0, "type": "electric_scooter", "name": "c4c6b464c845fbca8764d836d59e3cf7", "is_disabled": 0, "rental_uris": {"ios": "https://dc.lft.to/lastmile_qr_scan", "android": "https://dc.lft.to/lastmile_qr_scan"}, "is_reserved": 0}, {"lon": -77.11708683333333, "bike_id": "51428e9dd1489080abcf57c160054e1a", "lat": 38.86744683333333, "fusion_lon": 0.0, "fusion_lat": 0.0, "type": "electric_bike", "name": "51428e9dd1489080abcf57c160054e1a", "is_disabled": 0, "rental_uris": {"ios": "https://dc.lft.to/lastmile_qr_scan", "android": "https://dc.lft.to/lastmile_qr_scan"}, "is_reserved": 0}, {"lon": -76.95749716666667, "bike_id": "52bccad06a6c5f2ce9393718854c52c3", "lat": 38.88427983333333, "fusion_lon": 0.0, "fusion_lat": 0.0, "type": "electric_scooter", "name": "52bccad06a6c5f2ce9393718854c52c3", "is_disabled": 0, "rental_uris": {"ios": "https://dc.lft.to/lastmile_qr_scan", "android": "https://dc.lft.to/lastmile_qr_scan"}, "is_reserved": 0}, {"lon": -77.03426833333333, "bike_id": "3e1fb5d3c60cc38f4aeb1b95dcbaa33b", "lat": 38.9653525, "fusion_lon": 0.0, "fusion_lat": 0.0, "type": "electric_bike", "name": "3e1fb5d3c60cc38f4aeb1b95dcbaa33b", "is_disabled": 0, "rental_uris": {"ios": "https://dc.lft.to/lastmile_qr_scan", "android": "https://dc.lft.to/lastmile_qr_scan"}, "is_reserved": 0}, {"lon": -77.04196, "bike_id": "1d633debb0f147feb96ee93ea990cb3d", "lat": 38.89968616666667, "fusion_lon": 0.0, "fusion_lat": 0.0, "type": "electric_scooter", "name": "1d633debb0f147feb96ee93ea990cb3d", "is_disabled": 0, "rental_uris": {"ios": "https://dc.lft.to/lastmile_qr_scan", "android": "https://dc.lft.to/lastmile_qr_scan"}, "is_reserved": 0}, {"lon": -76.94070466666666, "bike_id": "ef263f44c7552eb3561a1edf76f2926c", "lat": 38.8932055, "fusion_lon": 0.0, "fusion_lat": 0.0, "type": "electric_scooter", "name": "ef263f44c7552eb3561a1edf76f2926c", "is_disabled": 0, "rental_uris": {"ios": "https://dc.lft.to/lastmile_qr_scan", "android": "https://dc.lft.to/lastmile_qr_scan"}, "is_reserved": 0}, {"lon": -77.03607133333334, "bike_id": "c613c9d54fa3cea839590fddb5a60a44", "lat": 38.9367955, "fusion_lon": 0.0, "fusion_lat": 0.0, "type": "electric_scooter", "name": "c613c9d54fa3cea839590fddb5a60a44", "is_disabled": 0, "rental_uris": {"ios": "https://dc.lft.to/lastmile_qr_scan", "android": "https://dc.lft.to/lastmile_qr_scan"}, "is_reserved": 0}, {"lon": -76.9980795, "bike_id": "414db4d67e49b1ad88ae0c3f7c8006ee", "lat": 38.82921016666667, "fusion_lon": 0.0, "fusion_lat": 0.0, "type": "electric_bike", "name": "414db4d67e49b1ad88ae0c3f7c8006ee", "is_disabled": 0, "rental_uris": {"ios": "https://dc.lft.to/lastmile_qr_scan", "android": "https://dc.lft.to/lastmile_qr_scan"}, "is_reserved": 0}, {"lon": -77.0230415, "bike_id": "eb2ff6d404a6f7181a192021280fd05a", "lat": 38.917793333333336, "fusion_lon": 0.0, "fusion_lat": 0.0, "type": "electric_scooter", "name": "eb2ff6d404a6f7181a192021280fd05a", "is_disabled": 0, "rental_uris": {"ios": "https://dc.lft.to/lastmile_qr_scan", "android": "https://dc.lft.to/lastmile_qr_scan"}, "is_reserved": 0}, {"lon": -77.0308425, "bike_id": "1a9138c76d577ab167ec5217452865ca", "lat": 38.92038, "fusion_lon": 0.0, "fusion_lat": 0.0, "type": "electric_scooter", "name": "1a9138c76d577ab167ec5217452865ca", "is_disabled": 0, "rental_uris": {"ios": "https://dc.lft.to/lastmile_qr_scan", "android": "https://dc.lft.to/lastmile_qr_scan"}, "is_reserved": 0}, {"lon": -77.02714983333334, "bike_id": "56cec657f8d13fe9f39f0564823949aa", "lat": 38.909532, "fusion_lon": 0.0, "fusion_lat": 0.0, "type": "electric_scooter", "name": "56cec657f8d13fe9f39f0564823949aa", "is_disabled": 0, "rental_uris": {"ios": "https://dc.lft.to/lastmile_qr_scan", "android": "https://dc.lft.to/lastmile_qr_scan"}, "is_reserved": 0}, {"lon": -77.07621483333334, "bike_id": "66adb0216bc1d121f0cf0409fac0f8c3", "lat": 38.965776166666664, "fusion_lon": 0.0, "fusion_lat": 0.0, "type": "electric_bike", "name": "66adb0216bc1d121f0cf0409fac0f8c3", "is_disabled": 0, "rental_uris": {"ios": "https://dc.lft.to/lastmile_qr_scan", "android": "https://dc.lft.to/lastmile_qr_scan"}, "is_reserved": 0}, {"lon": -77.03031083333333, "bike_id": "3ef25dfc9a28eee7a3f0368f6ae471bd", "lat": 38.88442283333333, "fusion_lon": 0.0, "fusion_lat": 0.0, "type": "electric_scooter", "name": "3ef25dfc9a28eee7a3f0368f6ae471bd", "is_disabled": 0, "rental_uris": {"ios": "https://dc.lft.to/lastmile_qr_scan", "android": "https://dc.lft.to/lastmile_qr_scan"}, "is_reserved": 0}, {"lon": -77.0332325, "bike_id": "7e60cec665f23e6238927bdd5a2d81ae", "lat": 38.90136283333333, "fusion_lon": 0.0, "fusion_lat": 0.0, "type": "electric_scooter", "name": "7e60cec665f23e6238927bdd5a2d81ae", "is_disabled": 0, "rental_uris": {"ios": "https://dc.lft.to/lastmile_qr_scan", "android": "https://dc.lft.to/lastmile_qr_scan"}, "is_reserved": 0}, {"lon": -76.99382533333333, "bike_id": "133754a3019d87ff9f834e79d57777cd", "lat": 38.88349916666667, "fusion_lon": 0.0, "fusion_lat": 0.0, "type": "electric_scooter", "name": "133754a3019d87ff9f834e79d57777cd", "is_disabled": 0, "rental_uris": {"ios": "https://dc.lft.to/lastmile_qr_scan", "android": "https://dc.lft.to/lastmile_qr_scan"}, "is_reserved": 0}, {"lon": -76.98336283333333, "bike_id": "281551bdf13385d4d13e4c5cd430faf9", "lat": 38.89545, "fusion_lon": 0.0, "fusion_lat": 0.0, "type": "electric_scooter", "name": "281551bdf13385d4d13e4c5cd430faf9", "is_disabled": 0, "rental_uris": {"ios": "https://dc.lft.to/lastmile_qr_scan", "android": "https://dc.lft.to/lastmile_qr_scan"}, "is_reserved": 0}, {"lon": -77.06763116666667, "bike_id": "198a5f8d29048b04713a3e1b24ada512", "lat": 38.90372983333334, "fusion_lon": 0.0, "fusion_lat": 0.0, "type": "electric_scooter", "name": "198a5f8d29048b04713a3e1b24ada512", "is_disabled": 0, "rental_uris": {"ios": "https://dc.lft.to/lastmile_qr_scan", "android": "https://dc.lft.to/lastmile_qr_scan"}, "is_reserved": 0}, {"lon": -76.96152383333333, "bike_id": "b656f8df77d0b19cfa1d913748f932ec", "lat": 38.8835655, "fusion_lon": 0.0, "fusion_lat": 0.0, "type": "electric_scooter", "name": "b656f8df77d0b19cfa1d913748f932ec", "is_disabled": 0, "rental_uris": {"ios": "https://dc.lft.to/lastmile_qr_scan", "android": "https://dc.lft.to/lastmile_qr_scan"}, "is_reserved": 0}, {"lon": -77.04663816666667, "bike_id": "a43398a895fb06ff801264ae640aa6b1", "lat": 38.896675333333334, "fusion_lon": 0.0, "fusion_lat": 0.0, "type": "electric_scooter", "name": "a43398a895fb06ff801264ae640aa6b1", "is_disabled": 0, "rental_uris": {"ios": "https://dc.lft.to/lastmile_qr_scan", "android": "https://dc.lft.to/lastmile_qr_scan"}, "is_reserved": 0}, {"lon": -76.9678105, "bike_id": "1cda53465ea8a1c458cd58e2fdc4c25c", "lat": 38.86849016666667, "fusion_lon": 0.0, "fusion_lat": 0.0, "type": "electric_scooter", "name": "1cda53465ea8a1c458cd58e2fdc4c25c", "is_disabled": 0, "rental_uris": {"ios": "https://dc.lft.to/lastmile_qr_scan", "android": "https://dc.lft.to/lastmile_qr_scan"}, "is_reserved": 0}, {"lon": -77.04590066666667, "bike_id": "9d4c49b91725043024067b2345bc55e5", "lat": 38.91624916666667, "fusion_lon": 0.0, "fusion_lat": 0.0, "type": "electric_scooter", "name": "9d4c49b91725043024067b2345bc55e5", "is_disabled": 0, "rental_uris": {"ios": "https://dc.lft.to/lastmile_qr_scan", "android": "https://dc.lft.to/lastmile_qr_scan"}, "is_reserved": 0}, {"lon": -77.03933433333333, "bike_id": "19ee9107972ca6ef18709cceb4fa825f", "lat": 38.917076, "fusion_lon": 0.0, "fusion_lat": 0.0, "type": "electric_scooter", "name": "19ee9107972ca6ef18709cceb4fa825f", "is_disabled": 0, "rental_uris": {"ios": "https://dc.lft.to/lastmile_qr_scan", "android": "https://dc.lft.to/lastmile_qr_scan"}, "is_reserved": 0}, {"lon": -76.9690935, "bike_id": "c269b8464dae18cec186e460c95f3a03", "lat": 38.84613433333333, "fusion_lon": 0.0, "fusion_lat": 0.0, "type": "electric_bike", "name": "c269b8464dae18cec186e460c95f3a03", "is_disabled": 0, "rental_uris": {"ios": "https://dc.lft.to/lastmile_qr_scan", "android": "https://dc.lft.to/lastmile_qr_scan"}, "is_reserved": 0}, {"lon": -77.03662783333333, "bike_id": "49924bab7d8783e1c96e6a05013d6f95", "lat": 38.917783166666666, "fusion_lon": 0.0, "fusion_lat": 0.0, "type": "electric_scooter", "name": "49924bab7d8783e1c96e6a05013d6f95", "is_disabled": 0, "rental_uris": {"ios": "https://dc.lft.to/lastmile_qr_scan", "android": "https://dc.lft.to/lastmile_qr_scan"}, "is_reserved": 0}, {"lon": -76.99473766666667, "bike_id": "9aef9ce40aac5d4420f1fec9e0fab258", "lat": 38.86228116666667, "fusion_lon": 0.0, "fusion_lat": 0.0, "type": "electric_scooter", "name": "9aef9ce40aac5d4420f1fec9e0fab258", "is_disabled": 0, "rental_uris": {"ios": "https://dc.lft.to/lastmile_qr_scan", "android": "https://dc.lft.to/lastmile_qr_scan"}, "is_reserved": 0}, {"lon": -77.037256, "bike_id": "2488d81995e4b7414e3264b1b065d801", "lat": 38.93185616666667, "fusion_lon": 0.0, "fusion_lat": 0.0, "type": "electric_scooter", "name": "2488d81995e4b7414e3264b1b065d801", "is_disabled": 0, "rental_uris": {"ios": "https://dc.lft.to/lastmile_qr_scan", "android": "https://dc.lft.to/lastmile_qr_scan"}, "is_reserved": 0}, {"lon": -77.02483266666667, "bike_id": "ab96ccc882a888eb5b86dfd12271e0b3", "lat": 38.916945166666665, "fusion_lon": 0.0, "fusion_lat": 0.0, "type": "electric_scooter", "name": "ab96ccc882a888eb5b86dfd12271e0b3", "is_disabled": 0, "rental_uris": {"ios": "https://dc.lft.to/lastmile_qr_scan", "android": "https://dc.lft.to/lastmile_qr_scan"}, "is_reserved": 0}, {"lon": -77.03060316666667, "bike_id": "2cd87b4cb62e4bb9ecb392808d3e7ef2", "lat": 38.88747866666667, "fusion_lon": 0.0, "fusion_lat": 0.0, "type": "electric_scooter", "name": "2cd87b4cb62e4bb9ecb392808d3e7ef2", "is_disabled": 0, "rental_uris": {"ios": "https://dc.lft.to/lastmile_qr_scan", "android": "https://dc.lft.to/lastmile_qr_scan"}, "is_reserved": 0}, {"lon": -76.92771266666666, "bike_id": "1f9b75478b7ef3683d7de603545c0fd6", "lat": 38.96924416666667, "fusion_lon": 0.0, "fusion_lat": 0.0, "type": "electric_bike", "name": "1f9b75478b7ef3683d7de603545c0fd6", "is_disabled": 0, "rental_uris": {"ios": "https://dc.lft.to/lastmile_qr_scan", "android": "https://dc.lft.to/lastmile_qr_scan"}, "is_reserved": 0}, {"lon": -76.92768, "bike_id": "fc4ad2c71a059f274da016ffd5feb526", "lat": 38.90089733333333, "fusion_lon": 0.0, "fusion_lat": 0.0, "type": "electric_scooter", "name": "fc4ad2c71a059f274da016ffd5feb526", "is_disabled": 0, "rental_uris": {"ios": "https://dc.lft.to/lastmile_qr_scan", "android": "https://dc.lft.to/lastmile_qr_scan"}, "is_reserved": 0}, {"lon": -77.0019605, "bike_id": "a3496aa9f15962d87a3d5e696cf7b0c4", "lat": 38.90027583333333, "fusion_lon": 0.0, "fusion_lat": 0.0, "type": "electric_scooter", "name": "a3496aa9f15962d87a3d5e696cf7b0c4", "is_disabled": 0, "rental_uris": {"ios": "https://dc.lft.to/lastmile_qr_scan", "android": "https://dc.lft.to/lastmile_qr_scan"}, "is_reserved": 0}, {"lon": -76.9790985, "bike_id": "3e679df7a1ba1d3c66f09add05e1666d", "lat": 38.863555166666664, "fusion_lon": 0.0, "fusion_lat": 0.0, "type": "electric_scooter", "name": "3e679df7a1ba1d3c66f09add05e1666d", "is_disabled": 0, "rental_uris": {"ios": "https://dc.lft.to/lastmile_qr_scan", "android": "https://dc.lft.to/lastmile_qr_scan"}, "is_reserved": 0}, {"lon": -76.98884333333334, "bike_id": "f85bdb97f972922225a52a1dad45b5c2", "lat": 38.86659216666666, "fusion_lon": 0.0, "fusion_lat": 0.0, "type": "electric_scooter", "name": "f85bdb97f972922225a52a1dad45b5c2", "is_disabled": 0, "rental_uris": {"ios": "https://dc.lft.to/lastmile_qr_scan", "android": "https://dc.lft.to/lastmile_qr_scan"}, "is_reserved": 0}, {"lon": -76.987135, "bike_id": "7a1118a3de93338dcb20132c5d394ba4", "lat": 38.866261333333334, "fusion_lon": 0.0, "fusion_lat": 0.0, "type": "electric_scooter", "name": "7a1118a3de93338dcb20132c5d394ba4", "is_disabled": 0, "rental_uris": {"ios": "https://dc.lft.to/lastmile_qr_scan", "android": "https://dc.lft.to/lastmile_qr_scan"}, "is_reserved": 0}, {"lon": -77.00203816666667, "bike_id": "2958c621fb73beb962d9c5c9e1d1e3ff", "lat": 38.98842633333334, "fusion_lon": 0.0, "fusion_lat": 0.0, "type": "electric_bike", "name": "2958c621fb73beb962d9c5c9e1d1e3ff", "is_disabled": 0, "rental_uris": {"ios": "https://dc.lft.to/lastmile_qr_scan", "android": "https://dc.lft.to/lastmile_qr_scan"}, "is_reserved": 0}, {"lon": -77.02502866666667, "bike_id": "2346cb19229883df39b58308cac0dab1", "lat": 38.92063733333333, "fusion_lon": 0.0, "fusion_lat": 0.0, "type": "electric_scooter", "name": "2346cb19229883df39b58308cac0dab1", "is_disabled": 0, "rental_uris": {"ios": "https://dc.lft.to/lastmile_qr_scan", "android": "https://dc.lft.to/lastmile_qr_scan"}, "is_reserved": 0}, {"lon": -77.0382485, "bike_id": "9b90a6359080395cdfd4ef1c96e5fc37", "lat": 38.9104405, "fusion_lon": 0.0, "fusion_lat": 0.0, "type": "electric_scooter", "name": "9b90a6359080395cdfd4ef1c96e5fc37", "is_disabled": 0, "rental_uris": {"ios": "https://dc.lft.to/lastmile_qr_scan", "android": "https://dc.lft.to/lastmile_qr_scan"}, "is_reserved": 0}, {"lon": -77.00052566666666, "bike_id": "2f5531fa255639dd13b92f8818979688", "lat": 38.89990383333333, "fusion_lon": 0.0, "fusion_lat": 0.0, "type": "electric_scooter", "name": "2f5531fa255639dd13b92f8818979688", "is_disabled": 0, "rental_uris": {"ios": "https://dc.lft.to/lastmile_qr_scan", "android": "https://dc.lft.to/lastmile_qr_scan"}, "is_reserved": 0}, {"lon": -77.02369633333333, "bike_id": "2f0112cbe85b8c878936e01eda2b0d19", "lat": 38.90729233333333, "fusion_lon": 0.0, "fusion_lat": 0.0, "type": "electric_scooter", "name": "2f0112cbe85b8c878936e01eda2b0d19", "is_disabled": 0, "rental_uris": {"ios": "https://dc.lft.to/lastmile_qr_scan", "android": "https://dc.lft.to/lastmile_qr_scan"}, "is_reserved": 0}, {"lon": -77.0437925, "bike_id": "05e2622d83ae841cf1e1727f47d4e037", "lat": 38.918675, "fusion_lon": 0.0, "fusion_lat": 0.0, "type": "electric_scooter", "name": "05e2622d83ae841cf1e1727f47d4e037", "is_disabled": 0, "rental_uris": {"ios": "https://dc.lft.to/lastmile_qr_scan", "android": "https://dc.lft.to/lastmile_qr_scan"}, "is_reserved": 0}, {"lon": -77.04870183333334, "bike_id": "934533ce21bad8ca9e660ef976cb2b10", "lat": 38.91624083333333, "fusion_lon": 0.0, "fusion_lat": 0.0, "type": "electric_scooter", "name": "934533ce21bad8ca9e660ef976cb2b10", "is_disabled": 0, "rental_uris": {"ios": "https://dc.lft.to/lastmile_qr_scan", "android": "https://dc.lft.to/lastmile_qr_scan"}, "is_reserved": 0}, {"lon": -76.983508, "bike_id": "ed5396841b770c2a2ce52f70aa6fc6a0", "lat": 38.862632166666664, "fusion_lon": 0.0, "fusion_lat": 0.0, "type": "electric_bike", "name": "ed5396841b770c2a2ce52f70aa6fc6a0", "is_disabled": 0, "rental_uris": {"ios": "https://dc.lft.to/lastmile_qr_scan", "android": "https://dc.lft.to/lastmile_qr_scan"}, "is_reserved": 0}, {"lon": -77.03604133333333, "bike_id": "96f1d675d73330aac8ebc3ba40d7eb49", "lat": 38.92854283333333, "fusion_lon": 0.0, "fusion_lat": 0.0, "type": "electric_scooter", "name": "96f1d675d73330aac8ebc3ba40d7eb49", "is_disabled": 0, "rental_uris": {"ios": "https://dc.lft.to/lastmile_qr_scan", "android": "https://dc.lft.to/lastmile_qr_scan"}, "is_reserved": 0}, {"lon": -76.94977866666666, "bike_id": "51ffb858aeef4fc11a140d4f64be95a4", "lat": 38.89366166666667, "fusion_lon": 0.0, "fusion_lat": 0.0, "type": "electric_scooter", "name": "51ffb858aeef4fc11a140d4f64be95a4", "is_disabled": 0, "rental_uris": {"ios": "https://dc.lft.to/lastmile_qr_scan", "android": "https://dc.lft.to/lastmile_qr_scan"}, "is_reserved": 0}, {"lon": -77.044369, "bike_id": "45ec801dd51727bfd844d190a61970be", "lat": 38.921699, "fusion_lon": 0.0, "fusion_lat": 0.0, "type": "electric_scooter", "name": "45ec801dd51727bfd844d190a61970be", "is_disabled": 0, "rental_uris": {"ios": "https://dc.lft.to/lastmile_qr_scan", "android": "https://dc.lft.to/lastmile_qr_scan"}, "is_reserved": 0}, {"lon": -77.00838616666667, "bike_id": "7f0c0ff591ebe944c3ccfbdbd7e845fe", "lat": 38.94924233333333, "fusion_lon": 0.0, "fusion_lat": 0.0, "type": "electric_scooter", "name": "7f0c0ff591ebe944c3ccfbdbd7e845fe", "is_disabled": 0, "rental_uris": {"ios": "https://dc.lft.to/lastmile_qr_scan", "android": "https://dc.lft.to/lastmile_qr_scan"}, "is_reserved": 0}, {"lon": -76.977249, "bike_id": "891b8362394db9bd9a4146fff87018e8", "lat": 38.8724285, "fusion_lon": 0.0, "fusion_lat": 0.0, "type": "electric_scooter", "name": "891b8362394db9bd9a4146fff87018e8", "is_disabled": 0, "rental_uris": {"ios": "https://dc.lft.to/lastmile_qr_scan", "android": "https://dc.lft.to/lastmile_qr_scan"}, "is_reserved": 0}, {"lon": -77.03646883333333, "bike_id": "41a89da6c9b6bb9369e5e714a54625d5", "lat": 38.90369866666666, "fusion_lon": 0.0, "fusion_lat": 0.0, "type": "electric_scooter", "name": "41a89da6c9b6bb9369e5e714a54625d5", "is_disabled": 0, "rental_uris": {"ios": "https://dc.lft.to/lastmile_qr_scan", "android": "https://dc.lft.to/lastmile_qr_scan"}, "is_reserved": 0}, {"lon": -77.00601833333333, "bike_id": "7ab380f929f62beb8deb4eae4b312845", "lat": 38.9063305, "fusion_lon": 0.0, "fusion_lat": 0.0, "type": "electric_scooter", "name": "7ab380f929f62beb8deb4eae4b312845", "is_disabled": 0, "rental_uris": {"ios": "https://dc.lft.to/lastmile_qr_scan", "android": "https://dc.lft.to/lastmile_qr_scan"}, "is_reserved": 0}, {"lon": -77.0515785, "bike_id": "d2a8d6d2eeb64d83590e64b812314154", "lat": 38.905506333333335, "fusion_lon": 0.0, "fusion_lat": 0.0, "type": "electric_scooter", "name": "d2a8d6d2eeb64d83590e64b812314154", "is_disabled": 0, "rental_uris": {"ios": "https://dc.lft.to/lastmile_qr_scan", "android": "https://dc.lft.to/lastmile_qr_scan"}, "is_reserved": 0}, {"lon": -77.00305716666666, "bike_id": "93cdb84b8b04c5adfd9ccbdd529db9fd", "lat": 38.92348583333333, "fusion_lon": 0.0, "fusion_lat": 0.0, "type": "electric_scooter", "name": "93cdb84b8b04c5adfd9ccbdd529db9fd", "is_disabled": 0, "rental_uris": {"ios": "https://dc.lft.to/lastmile_qr_scan", "android": "https://dc.lft.to/lastmile_qr_scan"}, "is_reserved": 0}, {"lon": -77.04133483333334, "bike_id": "cdaccb52388d8bcecd915b250f748ae5", "lat": 38.92365483333333, "fusion_lon": 0.0, "fusion_lat": 0.0, "type": "electric_scooter", "name": "cdaccb52388d8bcecd915b250f748ae5", "is_disabled": 0, "rental_uris": {"ios": "https://dc.lft.to/lastmile_qr_scan", "android": "https://dc.lft.to/lastmile_qr_scan"}, "is_reserved": 0}, {"lon": -77.02970783333333, "bike_id": "2fced2a3cebf775c5819e9523b2e599f", "lat": 38.91680916666667, "fusion_lon": 0.0, "fusion_lat": 0.0, "type": "electric_scooter", "name": "2fced2a3cebf775c5819e9523b2e599f", "is_disabled": 0, "rental_uris": {"ios": "https://dc.lft.to/lastmile_qr_scan", "android": "https://dc.lft.to/lastmile_qr_scan"}, "is_reserved": 0}, {"lon": -76.9463525, "bike_id": "dbc13d7e882a19576b319dfbefdd708a", "lat": 38.89834166666667, "fusion_lon": 0.0, "fusion_lat": 0.0, "type": "electric_scooter", "name": "dbc13d7e882a19576b319dfbefdd708a", "is_disabled": 0, "rental_uris": {"ios": "https://dc.lft.to/lastmile_qr_scan", "android": "https://dc.lft.to/lastmile_qr_scan"}, "is_reserved": 0}, {"lon": -76.98486416666667, "bike_id": "757623699fdbf76e8abf427d16821c71", "lat": 38.879437, "fusion_lon": 0.0, "fusion_lat": 0.0, "type": "electric_bike", "name": "757623699fdbf76e8abf427d16821c71", "is_disabled": 0, "rental_uris": {"ios": "https://dc.lft.to/lastmile_qr_scan", "android": "https://dc.lft.to/lastmile_qr_scan"}, "is_reserved": 0}, {"lon": -77.0308815, "bike_id": "4d92ca54f2bc556f776b24812044baf6", "lat": 38.91000066666667, "fusion_lon": 0.0, "fusion_lat": 0.0, "type": "electric_scooter", "name": "4d92ca54f2bc556f776b24812044baf6", "is_disabled": 0, "rental_uris": {"ios": "https://dc.lft.to/lastmile_qr_scan", "android": "https://dc.lft.to/lastmile_qr_scan"}, "is_reserved": 0}, {"lon": -77.04474616666667, "bike_id": "21095f36a1b69dfd8c6547a6e4564bce", "lat": 38.89219416666667, "fusion_lon": 0.0, "fusion_lat": 0.0, "type": "electric_scooter", "name": "21095f36a1b69dfd8c6547a6e4564bce", "is_disabled": 0, "rental_uris": {"ios": "https://dc.lft.to/lastmile_qr_scan", "android": "https://dc.lft.to/lastmile_qr_scan"}, "is_reserved": 0}, {"lon": -77.0003965, "bike_id": "f9b38b4ff348deee3692545afd15fda1", "lat": 38.9068535, "fusion_lon": 0.0, "fusion_lat": 0.0, "type": "electric_scooter", "name": "f9b38b4ff348deee3692545afd15fda1", "is_disabled": 0, "rental_uris": {"ios": "https://dc.lft.to/lastmile_qr_scan", "android": "https://dc.lft.to/lastmile_qr_scan"}, "is_reserved": 0}, {"lon": -77.0165685, "bike_id": "6a1699944eba9b99634ec1bd9baff956", "lat": 38.88119483333333, "fusion_lon": 0.0, "fusion_lat": 0.0, "type": "electric_scooter", "name": "6a1699944eba9b99634ec1bd9baff956", "is_disabled": 0, "rental_uris": {"ios": "https://dc.lft.to/lastmile_qr_scan", "android": "https://dc.lft.to/lastmile_qr_scan"}, "is_reserved": 0}, {"lon": -77.0363805, "bike_id": "6b03de087199d557643ec84250b97037", "lat": 38.9117805, "fusion_lon": 0.0, "fusion_lat": 0.0, "type": "electric_scooter", "name": "6b03de087199d557643ec84250b97037", "is_disabled": 0, "rental_uris": {"ios": "https://dc.lft.to/lastmile_qr_scan", "android": "https://dc.lft.to/lastmile_qr_scan"}, "is_reserved": 0}, {"lon": -77.0689155, "bike_id": "911372bc89ad10558eac863617eed305", "lat": 38.90508716666667, "fusion_lon": 0.0, "fusion_lat": 0.0, "type": "electric_scooter", "name": "911372bc89ad10558eac863617eed305", "is_disabled": 0, "rental_uris": {"ios": "https://dc.lft.to/lastmile_qr_scan", "android": "https://dc.lft.to/lastmile_qr_scan"}, "is_reserved": 0}, {"lon": -76.983766, "bike_id": "e1c5f5bfeb2aa7c572845a6c53b69d56", "lat": 38.90650883333333, "fusion_lon": 0.0, "fusion_lat": 0.0, "type": "electric_scooter", "name": "e1c5f5bfeb2aa7c572845a6c53b69d56", "is_disabled": 0, "rental_uris": {"ios": "https://dc.lft.to/lastmile_qr_scan", "android": "https://dc.lft.to/lastmile_qr_scan"}, "is_reserved": 0}, {"lon": -77.02378016666667, "bike_id": "569d5dce94bcaf3e138b86c7932db173", "lat": 38.9170505, "fusion_lon": 0.0, "fusion_lat": 0.0, "type": "electric_scooter", "name": "569d5dce94bcaf3e138b86c7932db173", "is_disabled": 0, "rental_uris": {"ios": "https://dc.lft.to/lastmile_qr_scan", "android": "https://dc.lft.to/lastmile_qr_scan"}, "is_reserved": 0}, {"lon": -77.01976566666667, "bike_id": "dab699f42776f7ff683edbc2e9d7c9e7", "lat": 38.883746333333335, "fusion_lon": 0.0, "fusion_lat": 0.0, "type": "electric_scooter", "name": "dab699f42776f7ff683edbc2e9d7c9e7", "is_disabled": 0, "rental_uris": {"ios": "https://dc.lft.to/lastmile_qr_scan", "android": "https://dc.lft.to/lastmile_qr_scan"}, "is_reserved": 0}, {"lon": -76.99003016666667, "bike_id": "95797ad8087fec352da2117b5ffefa56", "lat": 38.86507666666667, "fusion_lon": 0.0, "fusion_lat": 0.0, "type": "electric_scooter", "name": "95797ad8087fec352da2117b5ffefa56", "is_disabled": 0, "rental_uris": {"ios": "https://dc.lft.to/lastmile_qr_scan", "android": "https://dc.lft.to/lastmile_qr_scan"}, "is_reserved": 0}, {"lon": -77.02917266666667, "bike_id": "c45d6ed272d5b65aa0693851a66b9a09", "lat": 38.91688666666667, "fusion_lon": 0.0, "fusion_lat": 0.0, "type": "electric_bike", "name": "c45d6ed272d5b65aa0693851a66b9a09", "is_disabled": 0, "rental_uris": {"ios": "https://dc.lft.to/lastmile_qr_scan", "android": "https://dc.lft.to/lastmile_qr_scan"}, "is_reserved": 0}, {"lon": -76.9936835, "bike_id": "93df1535cd7bc9d867192cbed074331a", "lat": 38.879719333333334, "fusion_lon": 0.0, "fusion_lat": 0.0, "type": "electric_scooter", "name": "93df1535cd7bc9d867192cbed074331a", "is_disabled": 0, "rental_uris": {"ios": "https://dc.lft.to/lastmile_qr_scan", "android": "https://dc.lft.to/lastmile_qr_scan"}, "is_reserved": 0}, {"lon": -77.03699833333333, "bike_id": "c79bb95b6bd70b77c6dbb1c1a824d677", "lat": 38.935273333333335, "fusion_lon": 0.0, "fusion_lat": 0.0, "type": "electric_scooter", "name": "c79bb95b6bd70b77c6dbb1c1a824d677", "is_disabled": 0, "rental_uris": {"ios": "https://dc.lft.to/lastmile_qr_scan", "android": "https://dc.lft.to/lastmile_qr_scan"}, "is_reserved": 0}, {"lon": -76.989036, "bike_id": "39378d452ca154461cfa78c68700b57d", "lat": 38.8666665, "fusion_lon": 0.0, "fusion_lat": 0.0, "type": "electric_scooter", "name": "39378d452ca154461cfa78c68700b57d", "is_disabled": 0, "rental_uris": {"ios": "https://dc.lft.to/lastmile_qr_scan", "android": "https://dc.lft.to/lastmile_qr_scan"}, "is_reserved": 0}, {"lon": -77.0091935, "bike_id": "a50ee8c553ff20063350c37735637493", "lat": 38.89606366666667, "fusion_lon": 0.0, "fusion_lat": 0.0, "type": "electric_scooter", "name": "a50ee8c553ff20063350c37735637493", "is_disabled": 0, "rental_uris": {"ios": "https://dc.lft.to/lastmile_qr_scan", "android": "https://dc.lft.to/lastmile_qr_scan"}, "is_reserved": 0}, {"lon": -76.99817066666667, "bike_id": "79769746fd71cc3d013a637faf5959c1", "lat": 38.900103, "fusion_lon": 0.0, "fusion_lat": 0.0, "type": "electric_scooter", "name": "79769746fd71cc3d013a637faf5959c1", "is_disabled": 0, "rental_uris": {"ios": "https://dc.lft.to/lastmile_qr_scan", "android": "https://dc.lft.to/lastmile_qr_scan"}, "is_reserved": 0}, {"lon": -77.031163, "bike_id": "fa37c87b7d0dd2efa546f8f4744b65f4", "lat": 38.92382583333333, "fusion_lon": 0.0, "fusion_lat": 0.0, "type": "electric_scooter", "name": "fa37c87b7d0dd2efa546f8f4744b65f4", "is_disabled": 0, "rental_uris": {"ios": "https://dc.lft.to/lastmile_qr_scan", "android": "https://dc.lft.to/lastmile_qr_scan"}, "is_reserved": 0}, {"lon": -77.0270875, "bike_id": "b7a7f3740719a528f4750de4cb232739", "lat": 38.897305, "fusion_lon": 0.0, "fusion_lat": 0.0, "type": "electric_scooter", "name": "b7a7f3740719a528f4750de4cb232739", "is_disabled": 0, "rental_uris": {"ios": "https://dc.lft.to/lastmile_qr_scan", "android": "https://dc.lft.to/lastmile_qr_scan"}, "is_reserved": 0}, {"lon": -77.01896133333334, "bike_id": "e5b4378b37407f11753dab45e0827524", "lat": 38.90313116666667, "fusion_lon": 0.0, "fusion_lat": 0.0, "type": "electric_scooter", "name": "e5b4378b37407f11753dab45e0827524", "is_disabled": 0, "rental_uris": {"ios": "https://dc.lft.to/lastmile_qr_scan", "android": "https://dc.lft.to/lastmile_qr_scan"}, "is_reserved": 0}, {"lon": -77.03967866666666, "bike_id": "a7969704d6c9bfcc4f9600b43ebe4d1b", "lat": 38.8922275, "fusion_lon": 0.0, "fusion_lat": 0.0, "type": "electric_scooter", "name": "a7969704d6c9bfcc4f9600b43ebe4d1b", "is_disabled": 0, "rental_uris": {"ios": "https://dc.lft.to/lastmile_qr_scan", "android": "https://dc.lft.to/lastmile_qr_scan"}, "is_reserved": 0}, {"lon": -77.037378, "bike_id": "a988f11ea20139960b8e563b7d41f9aa", "lat": 38.91805383333333, "fusion_lon": 0.0, "fusion_lat": 0.0, "type": "electric_scooter", "name": "a988f11ea20139960b8e563b7d41f9aa", "is_disabled": 0, "rental_uris": {"ios": "https://dc.lft.to/lastmile_qr_scan", "android": "https://dc.lft.to/lastmile_qr_scan"}, "is_reserved": 0}, {"lon": -77.03245183333334, "bike_id": "4988e3832f6da047018092692e3c4283", "lat": 38.9055385, "fusion_lon": 0.0, "fusion_lat": 0.0, "type": "electric_scooter", "name": "4988e3832f6da047018092692e3c4283", "is_disabled": 0, "rental_uris": {"ios": "https://dc.lft.to/lastmile_qr_scan", "android": "https://dc.lft.to/lastmile_qr_scan"}, "is_reserved": 0}, {"lon": -77.04335966666666, "bike_id": "5b1fb58761d3d40735017977b1be31da", "lat": 38.89221, "fusion_lon": 0.0, "fusion_lat": 0.0, "type": "electric_scooter", "name": "5b1fb58761d3d40735017977b1be31da", "is_disabled": 0, "rental_uris": {"ios": "https://dc.lft.to/lastmile_qr_scan", "android": "https://dc.lft.to/lastmile_qr_scan"}, "is_reserved": 0}, {"lon": -77.04873233333333, "bike_id": "4680bb5b67bae6bae9108bca298a8c8e", "lat": 38.89229483333333, "fusion_lon": 0.0, "fusion_lat": 0.0, "type": "electric_scooter", "name": "4680bb5b67bae6bae9108bca298a8c8e", "is_disabled": 0, "rental_uris": {"ios": "https://dc.lft.to/lastmile_qr_scan", "android": "https://dc.lft.to/lastmile_qr_scan"}, "is_reserved": 0}, {"lon": -77.01305983333333, "bike_id": "026de6d631d1d8a56ee87597f2f01aa7", "lat": 38.943248, "fusion_lon": 0.0, "fusion_lat": 0.0, "type": "electric_scooter", "name": "026de6d631d1d8a56ee87597f2f01aa7", "is_disabled": 0, "rental_uris": {"ios": "https://dc.lft.to/lastmile_qr_scan", "android": "https://dc.lft.to/lastmile_qr_scan"}, "is_reserved": 0}, {"lon": -77.02023066666666, "bike_id": "fb0ac0c6a8a82ae874a467cf2d67f242", "lat": 38.91558716666667, "fusion_lon": 0.0, "fusion_lat": 0.0, "type": "electric_scooter", "name": "fb0ac0c6a8a82ae874a467cf2d67f242", "is_disabled": 0, "rental_uris": {"ios": "https://dc.lft.to/lastmile_qr_scan", "android": "https://dc.lft.to/lastmile_qr_scan"}, "is_reserved": 0}, {"lon": -76.96090766666667, "bike_id": "27dc5ab02fac8d5cccafbb622d7f151e", "lat": 38.9186765, "fusion_lon": 0.0, "fusion_lat": 0.0, "type": "electric_bike", "name": "27dc5ab02fac8d5cccafbb622d7f151e", "is_disabled": 0, "rental_uris": {"ios": "https://dc.lft.to/lastmile_qr_scan", "android": "https://dc.lft.to/lastmile_qr_scan"}, "is_reserved": 0}, {"lon": -77.01815333333333, "bike_id": "b854977d923ca50ccd33fb53fcb38c13", "lat": 38.922256833333336, "fusion_lon": 0.0, "fusion_lat": 0.0, "type": "electric_scooter", "name": "b854977d923ca50ccd33fb53fcb38c13", "is_disabled": 0, "rental_uris": {"ios": "https://dc.lft.to/lastmile_qr_scan", "android": "https://dc.lft.to/lastmile_qr_scan"}, "is_reserved": 0}, {"lon": -77.045702, "bike_id": "a30e9690b722094523e1da3f21b6d461", "lat": 38.921163, "fusion_lon": 0.0, "fusion_lat": 0.0, "type": "electric_scooter", "name": "a30e9690b722094523e1da3f21b6d461", "is_disabled": 0, "rental_uris": {"ios": "https://dc.lft.to/lastmile_qr_scan", "android": "https://dc.lft.to/lastmile_qr_scan"}, "is_reserved": 0}, {"lon": -77.0360835, "bike_id": "3b5931c993077c135c7015509f6a1da9", "lat": 38.93681266666667, "fusion_lon": 0.0, "fusion_lat": 0.0, "type": "electric_scooter", "name": "3b5931c993077c135c7015509f6a1da9", "is_disabled": 0, "rental_uris": {"ios": "https://dc.lft.to/lastmile_qr_scan", "android": "https://dc.lft.to/lastmile_qr_scan"}, "is_reserved": 0}, {"lon": -77.0352195, "bike_id": "b9965e92a602efed86e41cd784632b7f", "lat": 38.9359625, "fusion_lon": 0.0, "fusion_lat": 0.0, "type": "electric_bike", "name": "b9965e92a602efed86e41cd784632b7f", "is_disabled": 0, "rental_uris": {"ios": "https://dc.lft.to/lastmile_qr_scan", "android": "https://dc.lft.to/lastmile_qr_scan"}, "is_reserved": 0}, {"lon": -77.0176365, "bike_id": "6140469d3bc260d8c79e425561712d31", "lat": 38.887303, "fusion_lon": 0.0, "fusion_lat": 0.0, "type": "electric_scooter", "name": "6140469d3bc260d8c79e425561712d31", "is_disabled": 0, "rental_uris": {"ios": "https://dc.lft.to/lastmile_qr_scan", "android": "https://dc.lft.to/lastmile_qr_scan"}, "is_reserved": 0}, {"lon": -77.00578666666667, "bike_id": "82231cf76c98ba21e629b93a44f25b61", "lat": 38.835903333333334, "fusion_lon": 0.0, "fusion_lat": 0.0, "type": "electric_scooter", "name": "82231cf76c98ba21e629b93a44f25b61", "is_disabled": 0, "rental_uris": {"ios": "https://dc.lft.to/lastmile_qr_scan", "android": "https://dc.lft.to/lastmile_qr_scan"}, "is_reserved": 0}, {"lon": -77.00886716666666, "bike_id": "a0a4e4194cce92f3054cb2ff8133d176", "lat": 38.898011333333336, "fusion_lon": 0.0, "fusion_lat": 0.0, "type": "electric_scooter", "name": "a0a4e4194cce92f3054cb2ff8133d176", "is_disabled": 0, "rental_uris": {"ios": "https://dc.lft.to/lastmile_qr_scan", "android": "https://dc.lft.to/lastmile_qr_scan"}, "is_reserved": 0}, {"lon": -77.0723245, "bike_id": "9bd68e03bd138f86f3057f8988f2aa46", "lat": 38.96813316666667, "fusion_lon": 0.0, "fusion_lat": 0.0, "type": "electric_bike", "name": "9bd68e03bd138f86f3057f8988f2aa46", "is_disabled": 0, "rental_uris": {"ios": "https://dc.lft.to/lastmile_qr_scan", "android": "https://dc.lft.to/lastmile_qr_scan"}, "is_reserved": 0}, {"lon": -77.03379983333333, "bike_id": "ca6e276a692aa598874a7d77480a6a50", "lat": 38.92158966666667, "fusion_lon": 0.0, "fusion_lat": 0.0, "type": "electric_scooter", "name": "ca6e276a692aa598874a7d77480a6a50", "is_disabled": 0, "rental_uris": {"ios": "https://dc.lft.to/lastmile_qr_scan", "android": "https://dc.lft.to/lastmile_qr_scan"}, "is_reserved": 0}, {"lon": -76.99380083333334, "bike_id": "fb9c6a56fa1791c5b1df025377515f18", "lat": 38.97185616666667, "fusion_lon": 0.0, "fusion_lat": 0.0, "type": "electric_bike", "name": "fb9c6a56fa1791c5b1df025377515f18", "is_disabled": 0, "rental_uris": {"ios": "https://dc.lft.to/lastmile_qr_scan", "android": "https://dc.lft.to/lastmile_qr_scan"}, "is_reserved": 0}, {"lon": -77.0239655, "bike_id": "2acd16b55228d0c1885f24b18d36fb68", "lat": 38.91984866666667, "fusion_lon": 0.0, "fusion_lat": 0.0, "type": "electric_scooter", "name": "2acd16b55228d0c1885f24b18d36fb68", "is_disabled": 0, "rental_uris": {"ios": "https://dc.lft.to/lastmile_qr_scan", "android": "https://dc.lft.to/lastmile_qr_scan"}, "is_reserved": 0}, {"lon": -76.990501, "bike_id": "6d4065e3ddfe033820c1ac56dcfe5d06", "lat": 38.8637785, "fusion_lon": 0.0, "fusion_lat": 0.0, "type": "electric_scooter", "name": "6d4065e3ddfe033820c1ac56dcfe5d06", "is_disabled": 0, "rental_uris": {"ios": "https://dc.lft.to/lastmile_qr_scan", "android": "https://dc.lft.to/lastmile_qr_scan"}, "is_reserved": 0}, {"lon": -77.04444016666666, "bike_id": "bc887166f308dd6a830293a1c9df3349", "lat": 38.91799133333333, "fusion_lon": 0.0, "fusion_lat": 0.0, "type": "electric_scooter", "name": "bc887166f308dd6a830293a1c9df3349", "is_disabled": 0, "rental_uris": {"ios": "https://dc.lft.to/lastmile_qr_scan", "android": "https://dc.lft.to/lastmile_qr_scan"}, "is_reserved": 0}, {"lon": -77.0276975, "bike_id": "7086bd4929ef59c974901fe9e27159bf", "lat": 38.89219516666667, "fusion_lon": 0.0, "fusion_lat": 0.0, "type": "electric_scooter", "name": "7086bd4929ef59c974901fe9e27159bf", "is_disabled": 0, "rental_uris": {"ios": "https://dc.lft.to/lastmile_qr_scan", "android": "https://dc.lft.to/lastmile_qr_scan"}, "is_reserved": 0}, {"lon": -77.020565, "bike_id": "3f9a6118700822f959cba75fc20d9c06", "lat": 38.9291665, "fusion_lon": 0.0, "fusion_lat": 0.0, "type": "electric_scooter", "name": "3f9a6118700822f959cba75fc20d9c06", "is_disabled": 0, "rental_uris": {"ios": "https://dc.lft.to/lastmile_qr_scan", "android": "https://dc.lft.to/lastmile_qr_scan"}, "is_reserved": 0}, {"lon": -77.02692416666666, "bike_id": "98be9ec3231a97739335dfc8670ec7ee", "lat": 38.908392666666664, "fusion_lon": 0.0, "fusion_lat": 0.0, "type": "electric_scooter", "name": "98be9ec3231a97739335dfc8670ec7ee", "is_disabled": 0, "rental_uris": {"ios": "https://dc.lft.to/lastmile_qr_scan", "android": "https://dc.lft.to/lastmile_qr_scan"}, "is_reserved": 0}, {"lon": -77.0006275, "bike_id": "8c5ca09288293af14972792a460e4cd5", "lat": 38.900816666666664, "fusion_lon": 0.0, "fusion_lat": 0.0, "type": "electric_scooter", "name": "8c5ca09288293af14972792a460e4cd5", "is_disabled": 0, "rental_uris": {"ios": "https://dc.lft.to/lastmile_qr_scan", "android": "https://dc.lft.to/lastmile_qr_scan"}, "is_reserved": 0}, {"lon": -77.0198485, "bike_id": "fec49037625f0b4700d03c23e3609550", "lat": 38.92547883333334, "fusion_lon": 0.0, "fusion_lat": 0.0, "type": "electric_bike", "name": "fec49037625f0b4700d03c23e3609550", "is_disabled": 0, "rental_uris": {"ios": "https://dc.lft.to/lastmile_qr_scan", "android": "https://dc.lft.to/lastmile_qr_scan"}, "is_reserved": 0}, {"lon": -77.017895, "bike_id": "8bf83971b1166222c5f29f430bcd7155", "lat": 38.94116066666667, "fusion_lon": 0.0, "fusion_lat": 0.0, "type": "electric_scooter", "name": "8bf83971b1166222c5f29f430bcd7155", "is_disabled": 0, "rental_uris": {"ios": "https://dc.lft.to/lastmile_qr_scan", "android": "https://dc.lft.to/lastmile_qr_scan"}, "is_reserved": 0}, {"lon": -77.03213116666667, "bike_id": "50e42183d2bbbfd666aa8ad7beb72fcc", "lat": 38.912602166666666, "fusion_lon": 0.0, "fusion_lat": 0.0, "type": "electric_scooter", "name": "50e42183d2bbbfd666aa8ad7beb72fcc", "is_disabled": 0, "rental_uris": {"ios": "https://dc.lft.to/lastmile_qr_scan", "android": "https://dc.lft.to/lastmile_qr_scan"}, "is_reserved": 0}, {"lon": -76.94879316666666, "bike_id": "893da86cda6f0765b38d1311bd12b50b", "lat": 38.89425966666667, "fusion_lon": 0.0, "fusion_lat": 0.0, "type": "electric_scooter", "name": "893da86cda6f0765b38d1311bd12b50b", "is_disabled": 0, "rental_uris": {"ios": "https://dc.lft.to/lastmile_qr_scan", "android": "https://dc.lft.to/lastmile_qr_scan"}, "is_reserved": 0}, {"lon": -76.993628, "bike_id": "4b29e4ca05d0b5dd4719af368e68e405", "lat": 38.893819, "fusion_lon": 0.0, "fusion_lat": 0.0, "type": "electric_scooter", "name": "4b29e4ca05d0b5dd4719af368e68e405", "is_disabled": 0, "rental_uris": {"ios": "https://dc.lft.to/lastmile_qr_scan", "android": "https://dc.lft.to/lastmile_qr_scan"}, "is_reserved": 0}, {"lon": -77.02747216666667, "bike_id": "2bb37f18d3e82934b0ae87eff9958434", "lat": 38.95778166666667, "fusion_lon": 0.0, "fusion_lat": 0.0, "type": "electric_scooter", "name": "2bb37f18d3e82934b0ae87eff9958434", "is_disabled": 0, "rental_uris": {"ios": "https://dc.lft.to/lastmile_qr_scan", "android": "https://dc.lft.to/lastmile_qr_scan"}, "is_reserved": 0}, {"lon": -77.03386583333334, "bike_id": "d920647cb87f8f894eef849acbb1616a", "lat": 38.938554833333335, "fusion_lon": 0.0, "fusion_lat": 0.0, "type": "electric_scooter", "name": "d920647cb87f8f894eef849acbb1616a", "is_disabled": 0, "rental_uris": {"ios": "https://dc.lft.to/lastmile_qr_scan", "android": "https://dc.lft.to/lastmile_qr_scan"}, "is_reserved": 0}, {"lon": -77.00679583333333, "bike_id": "06e1ace19d37e9aa9ab3fedf6aaf847a", "lat": 38.83491583333333, "fusion_lon": 0.0, "fusion_lat": 0.0, "type": "electric_scooter", "name": "06e1ace19d37e9aa9ab3fedf6aaf847a", "is_disabled": 0, "rental_uris": {"ios": "https://dc.lft.to/lastmile_qr_scan", "android": "https://dc.lft.to/lastmile_qr_scan"}, "is_reserved": 0}, {"lon": -77.0309075, "bike_id": "12e4f13e000d42e0afbc1d4201f354a1", "lat": 38.90076416666667, "fusion_lon": 0.0, "fusion_lat": 0.0, "type": "electric_scooter", "name": "12e4f13e000d42e0afbc1d4201f354a1", "is_disabled": 0, "rental_uris": {"ios": "https://dc.lft.to/lastmile_qr_scan", "android": "https://dc.lft.to/lastmile_qr_scan"}, "is_reserved": 0}, {"lon": -77.03317633333333, "bike_id": "96a3556da4bc81b07f1505b1accc9d58", "lat": 38.92151416666667, "fusion_lon": 0.0, "fusion_lat": 0.0, "type": "electric_scooter", "name": "96a3556da4bc81b07f1505b1accc9d58", "is_disabled": 0, "rental_uris": {"ios": "https://dc.lft.to/lastmile_qr_scan", "android": "https://dc.lft.to/lastmile_qr_scan"}, "is_reserved": 0}, {"lon": -77.0453415, "bike_id": "bce63e9aeb5864c014dbb6910f8215a1", "lat": 38.9130395, "fusion_lon": 0.0, "fusion_lat": 0.0, "type": "electric_scooter", "name": "bce63e9aeb5864c014dbb6910f8215a1", "is_disabled": 0, "rental_uris": {"ios": "https://dc.lft.to/lastmile_qr_scan", "android": "https://dc.lft.to/lastmile_qr_scan"}, "is_reserved": 0}, {"lon": -77.02978066666667, "bike_id": "5e51706fdf87d2de22636a47182e998e", "lat": 38.907377333333336, "fusion_lon": 0.0, "fusion_lat": 0.0, "type": "electric_scooter", "name": "5e51706fdf87d2de22636a47182e998e", "is_disabled": 0, "rental_uris": {"ios": "https://dc.lft.to/lastmile_qr_scan", "android": "https://dc.lft.to/lastmile_qr_scan"}, "is_reserved": 0}, {"lon": -77.04007583333333, "bike_id": "21bacec57ab46dd4de1afa7012f08408", "lat": 38.9038535, "fusion_lon": 0.0, "fusion_lat": 0.0, "type": "electric_scooter", "name": "21bacec57ab46dd4de1afa7012f08408", "is_disabled": 0, "rental_uris": {"ios": "https://dc.lft.to/lastmile_qr_scan", "android": "https://dc.lft.to/lastmile_qr_scan"}, "is_reserved": 0}, {"lon": -77.1159055, "bike_id": "872c56014f88caf63bc84f1626b36f9a", "lat": 39.07492833333333, "fusion_lon": 0.0, "fusion_lat": 0.0, "type": "electric_bike", "name": "872c56014f88caf63bc84f1626b36f9a", "is_disabled": 0, "rental_uris": {"ios": "https://dc.lft.to/lastmile_qr_scan", "android": "https://dc.lft.to/lastmile_qr_scan"}, "is_reserved": 0}, {"lon": -77.0312675, "bike_id": "a18295a7c7df17eabf141763bfde3133", "lat": 38.91261083333333, "fusion_lon": 0.0, "fusion_lat": 0.0, "type": "electric_scooter", "name": "a18295a7c7df17eabf141763bfde3133", "is_disabled": 0, "rental_uris": {"ios": "https://dc.lft.to/lastmile_qr_scan", "android": "https://dc.lft.to/lastmile_qr_scan"}, "is_reserved": 0}, {"lon": -77.03213133333334, "bike_id": "e1b158aa67610acb52c4f3eff1ef7c47", "lat": 38.892442833333334, "fusion_lon": 0.0, "fusion_lat": 0.0, "type": "electric_scooter", "name": "e1b158aa67610acb52c4f3eff1ef7c47", "is_disabled": 0, "rental_uris": {"ios": "https://dc.lft.to/lastmile_qr_scan", "android": "https://dc.lft.to/lastmile_qr_scan"}, "is_reserved": 0}, {"lon": -76.99027483333333, "bike_id": "845a6260b1f7f3315151bed92069aab6", "lat": 38.8640155, "fusion_lon": 0.0, "fusion_lat": 0.0, "type": "electric_scooter", "name": "845a6260b1f7f3315151bed92069aab6", "is_disabled": 0, "rental_uris": {"ios": "https://dc.lft.to/lastmile_qr_scan", "android": "https://dc.lft.to/lastmile_qr_scan"}, "is_reserved": 0}, {"lon": -77.04689316666666, "bike_id": "aee09ed1153470a056b1abac0caeac6a", "lat": 38.89223033333333, "fusion_lon": 0.0, "fusion_lat": 0.0, "type": "electric_scooter", "name": "aee09ed1153470a056b1abac0caeac6a", "is_disabled": 0, "rental_uris": {"ios": "https://dc.lft.to/lastmile_qr_scan", "android": "https://dc.lft.to/lastmile_qr_scan"}, "is_reserved": 0}, {"lon": -77.02173633333334, "bike_id": "c3a792fdc4a301440a8ee77de37573c3", "lat": 38.913076333333336, "fusion_lon": 0.0, "fusion_lat": 0.0, "type": "electric_bike", "name": "c3a792fdc4a301440a8ee77de37573c3", "is_disabled": 0, "rental_uris": {"ios": "https://dc.lft.to/lastmile_qr_scan", "android": "https://dc.lft.to/lastmile_qr_scan"}, "is_reserved": 0}, {"lon": -76.96908333333333, "bike_id": "0d2623a645b5bd16763ca28cfff0f25d", "lat": 38.84612416666667, "fusion_lon": 0.0, "fusion_lat": 0.0, "type": "electric_bike", "name": "0d2623a645b5bd16763ca28cfff0f25d", "is_disabled": 0, "rental_uris": {"ios": "https://dc.lft.to/lastmile_qr_scan", "android": "https://dc.lft.to/lastmile_qr_scan"}, "is_reserved": 0}, {"lon": -77.01759733333333, "bike_id": "0a9c32ce4932faf7c64db279df5114ac", "lat": 38.87665233333333, "fusion_lon": 0.0, "fusion_lat": 0.0, "type": "electric_scooter", "name": "0a9c32ce4932faf7c64db279df5114ac", "is_disabled": 0, "rental_uris": {"ios": "https://dc.lft.to/lastmile_qr_scan", "android": "https://dc.lft.to/lastmile_qr_scan"}, "is_reserved": 0}, {"lon": -77.00063483333334, "bike_id": "ba1a86def6157b399a1d5f395702d2ce", "lat": 38.90143483333333, "fusion_lon": 0.0, "fusion_lat": 0.0, "type": "electric_bike", "name": "ba1a86def6157b399a1d5f395702d2ce", "is_disabled": 0, "rental_uris": {"ios": "https://dc.lft.to/lastmile_qr_scan", "android": "https://dc.lft.to/lastmile_qr_scan"}, "is_reserved": 0}, {"lon": -77.02979466666666, "bike_id": "456fc9a319a4e5c5cbf4150b4c053250", "lat": 38.916290833333335, "fusion_lon": 0.0, "fusion_lat": 0.0, "type": "electric_scooter", "name": "456fc9a319a4e5c5cbf4150b4c053250", "is_disabled": 0, "rental_uris": {"ios": "https://dc.lft.to/lastmile_qr_scan", "android": "https://dc.lft.to/lastmile_qr_scan"}, "is_reserved": 0}, {"lon": -77.02703316666667, "bike_id": "fb7e955e1d60c2970f0c47b510bcf8be", "lat": 38.920231666666666, "fusion_lon": 0.0, "fusion_lat": 0.0, "type": "electric_scooter", "name": "fb7e955e1d60c2970f0c47b510bcf8be", "is_disabled": 0, "rental_uris": {"ios": "https://dc.lft.to/lastmile_qr_scan", "android": "https://dc.lft.to/lastmile_qr_scan"}, "is_reserved": 0}, {"lon": -77.00448716666666, "bike_id": "899af855baacbaac798584cd5bd8ca06", "lat": 38.880595666666665, "fusion_lon": 0.0, "fusion_lat": 0.0, "type": "electric_scooter", "name": "899af855baacbaac798584cd5bd8ca06", "is_disabled": 0, "rental_uris": {"ios": "https://dc.lft.to/lastmile_qr_scan", "android": "https://dc.lft.to/lastmile_qr_scan"}, "is_reserved": 0}, {"lon": -76.99087833333333, "bike_id": "c4cc273706952fb3231cfda93d786d5f", "lat": 38.8623295, "fusion_lon": 0.0, "fusion_lat": 0.0, "type": "electric_bike", "name": "c4cc273706952fb3231cfda93d786d5f", "is_disabled": 0, "rental_uris": {"ios": "https://dc.lft.to/lastmile_qr_scan", "android": "https://dc.lft.to/lastmile_qr_scan"}, "is_reserved": 0}, {"lon": -77.0193665, "bike_id": "6cc46b006e28718dec5eb0033433a5a3", "lat": 38.935241166666664, "fusion_lon": 0.0, "fusion_lat": 0.0, "type": "electric_scooter", "name": "6cc46b006e28718dec5eb0033433a5a3", "is_disabled": 0, "rental_uris": {"ios": "https://dc.lft.to/lastmile_qr_scan", "android": "https://dc.lft.to/lastmile_qr_scan"}, "is_reserved": 0}, {"lon": -76.99534766666666, "bike_id": "5534d77ea0f68d25e287474ab30be6ac", "lat": 38.8837375, "fusion_lon": 0.0, "fusion_lat": 0.0, "type": "electric_scooter", "name": "5534d77ea0f68d25e287474ab30be6ac", "is_disabled": 0, "rental_uris": {"ios": "https://dc.lft.to/lastmile_qr_scan", "android": "https://dc.lft.to/lastmile_qr_scan"}, "is_reserved": 0}, {"lon": -77.00653533333333, "bike_id": "5912ddb91db34be6de587c6b20d674cb", "lat": 38.92618, "fusion_lon": 0.0, "fusion_lat": 0.0, "type": "electric_scooter", "name": "5912ddb91db34be6de587c6b20d674cb", "is_disabled": 0, "rental_uris": {"ios": "https://dc.lft.to/lastmile_qr_scan", "android": "https://dc.lft.to/lastmile_qr_scan"}, "is_reserved": 0}, {"lon": -77.08067216666667, "bike_id": "c8547e5610a0c81bb44cc7e04bbbf81a", "lat": 39.05277783333333, "fusion_lon": 0.0, "fusion_lat": 0.0, "type": "electric_bike", "name": "c8547e5610a0c81bb44cc7e04bbbf81a", "is_disabled": 0, "rental_uris": {"ios": "https://dc.lft.to/lastmile_qr_scan", "android": "https://dc.lft.to/lastmile_qr_scan"}, "is_reserved": 0}, {"lon": -76.998367, "bike_id": "f49a8d790f3a2f9d8348b9f4b4fb3b7b", "lat": 38.904914166666664, "fusion_lon": 0.0, "fusion_lat": 0.0, "type": "electric_scooter", "name": "f49a8d790f3a2f9d8348b9f4b4fb3b7b", "is_disabled": 0, "rental_uris": {"ios": "https://dc.lft.to/lastmile_qr_scan", "android": "https://dc.lft.to/lastmile_qr_scan"}, "is_reserved": 0}, {"lon": -77.02224983333333, "bike_id": "85d8ebf0e31e7076dab0ebaa1594b300", "lat": 38.95689866666667, "fusion_lon": 0.0, "fusion_lat": 0.0, "type": "electric_bike", "name": "85d8ebf0e31e7076dab0ebaa1594b300", "is_disabled": 0, "rental_uris": {"ios": "https://dc.lft.to/lastmile_qr_scan", "android": "https://dc.lft.to/lastmile_qr_scan"}, "is_reserved": 0}, {"lon": -77.017658, "bike_id": "e91c4aa3c66a277f13df3f509ab6d6f3", "lat": 38.88730183333333, "fusion_lon": 0.0, "fusion_lat": 0.0, "type": "electric_scooter", "name": "e91c4aa3c66a277f13df3f509ab6d6f3", "is_disabled": 0, "rental_uris": {"ios": "https://dc.lft.to/lastmile_qr_scan", "android": "https://dc.lft.to/lastmile_qr_scan"}, "is_reserved": 0}, {"lon": -77.0209385, "bike_id": "0fa7f1fa96023c50c3b9e8b1ae523645", "lat": 38.927086333333335, "fusion_lon": 0.0, "fusion_lat": 0.0, "type": "electric_scooter", "name": "0fa7f1fa96023c50c3b9e8b1ae523645", "is_disabled": 0, "rental_uris": {"ios": "https://dc.lft.to/lastmile_qr_scan", "android": "https://dc.lft.to/lastmile_qr_scan"}, "is_reserved": 0}, {"lon": -76.97356783333333, "bike_id": "4cb813d3b6e37988815baec2b0b400d1", "lat": 38.873357666666664, "fusion_lon": 0.0, "fusion_lat": 0.0, "type": "electric_scooter", "name": "4cb813d3b6e37988815baec2b0b400d1", "is_disabled": 0, "rental_uris": {"ios": "https://dc.lft.to/lastmile_qr_scan", "android": "https://dc.lft.to/lastmile_qr_scan"}, "is_reserved": 0}, {"lon": -77.02803366666667, "bike_id": "3019829ad313c570c83649964148db67", "lat": 38.9305745, "fusion_lon": 0.0, "fusion_lat": 0.0, "type": "electric_scooter", "name": "3019829ad313c570c83649964148db67", "is_disabled": 0, "rental_uris": {"ios": "https://dc.lft.to/lastmile_qr_scan", "android": "https://dc.lft.to/lastmile_qr_scan"}, "is_reserved": 0}, {"lon": -77.03458266666667, "bike_id": "e3b17d6ee377506f8d934c4da59f66fa", "lat": 38.9072795, "fusion_lon": 0.0, "fusion_lat": 0.0, "type": "electric_scooter", "name": "e3b17d6ee377506f8d934c4da59f66fa", "is_disabled": 0, "rental_uris": {"ios": "https://dc.lft.to/lastmile_qr_scan", "android": "https://dc.lft.to/lastmile_qr_scan"}, "is_reserved": 0}, {"lon": -77.03175416666667, "bike_id": "563b7090fb1df59a872388658c7c532b", "lat": 38.915565666666666, "fusion_lon": 0.0, "fusion_lat": 0.0, "type": "electric_scooter", "name": "563b7090fb1df59a872388658c7c532b", "is_disabled": 0, "rental_uris": {"ios": "https://dc.lft.to/lastmile_qr_scan", "android": "https://dc.lft.to/lastmile_qr_scan"}, "is_reserved": 0}, {"lon": -77.06518083333333, "bike_id": "078de6f179e948fa019d893d1246fd52", "lat": 38.903932, "fusion_lon": 0.0, "fusion_lat": 0.0, "type": "electric_scooter", "name": "078de6f179e948fa019d893d1246fd52", "is_disabled": 0, "rental_uris": {"ios": "https://dc.lft.to/lastmile_qr_scan", "android": "https://dc.lft.to/lastmile_qr_scan"}, "is_reserved": 0}, {"lon": -76.97480516666667, "bike_id": "a52534c3a3c71fb6737bb918e7e42d67", "lat": 38.90350866666667, "fusion_lon": 0.0, "fusion_lat": 0.0, "type": "electric_scooter", "name": "a52534c3a3c71fb6737bb918e7e42d67", "is_disabled": 0, "rental_uris": {"ios": "https://dc.lft.to/lastmile_qr_scan", "android": "https://dc.lft.to/lastmile_qr_scan"}, "is_reserved": 0}, {"lon": -77.05857133333333, "bike_id": "12b96881612912f1ab03f1623e5f74d6", "lat": 38.936059666666665, "fusion_lon": 0.0, "fusion_lat": 0.0, "type": "electric_bike", "name": "12b96881612912f1ab03f1623e5f74d6", "is_disabled": 0, "rental_uris": {"ios": "https://dc.lft.to/lastmile_qr_scan", "android": "https://dc.lft.to/lastmile_qr_scan"}, "is_reserved": 0}, {"lon": -77.047736, "bike_id": "121a0ed1d764189e04b7a64ae0d20b27", "lat": 38.917553833333336, "fusion_lon": 0.0, "fusion_lat": 0.0, "type": "electric_scooter", "name": "121a0ed1d764189e04b7a64ae0d20b27", "is_disabled": 0, "rental_uris": {"ios": "https://dc.lft.to/lastmile_qr_scan", "android": "https://dc.lft.to/lastmile_qr_scan"}, "is_reserved": 0}, {"lon": -77.02500316666666, "bike_id": "61c935721dcfad0d6a0f6265b7a55ca5", "lat": 38.9206665, "fusion_lon": 0.0, "fusion_lat": 0.0, "type": "electric_scooter", "name": "61c935721dcfad0d6a0f6265b7a55ca5", "is_disabled": 0, "rental_uris": {"ios": "https://dc.lft.to/lastmile_qr_scan", "android": "https://dc.lft.to/lastmile_qr_scan"}, "is_reserved": 0}, {"lon": -76.98032666666667, "bike_id": "c560acf4ada9688275d4ff89aec5ef3f", "lat": 38.88968283333333, "fusion_lon": 0.0, "fusion_lat": 0.0, "type": "electric_scooter", "name": "c560acf4ada9688275d4ff89aec5ef3f", "is_disabled": 0, "rental_uris": {"ios": "https://dc.lft.to/lastmile_qr_scan", "android": "https://dc.lft.to/lastmile_qr_scan"}, "is_reserved": 0}, {"lon": -76.92204583333333, "bike_id": "e518c39a7264663403368bfefe74b947", "lat": 38.8950275, "fusion_lon": 0.0, "fusion_lat": 0.0, "type": "electric_bike", "name": "e518c39a7264663403368bfefe74b947", "is_disabled": 0, "rental_uris": {"ios": "https://dc.lft.to/lastmile_qr_scan", "android": "https://dc.lft.to/lastmile_qr_scan"}, "is_reserved": 0}, {"lon": -77.0328685, "bike_id": "2bb21a371d30e4bf1515ff5d6914e381", "lat": 38.90711, "fusion_lon": 0.0, "fusion_lat": 0.0, "type": "electric_scooter", "name": "2bb21a371d30e4bf1515ff5d6914e381", "is_disabled": 0, "rental_uris": {"ios": "https://dc.lft.to/lastmile_qr_scan", "android": "https://dc.lft.to/lastmile_qr_scan"}, "is_reserved": 0}, {"lon": -77.079045, "bike_id": "06082969c023f91f70ead74c3cf37ce1", "lat": 38.839342, "fusion_lon": 0.0, "fusion_lat": 0.0, "type": "electric_bike", "name": "06082969c023f91f70ead74c3cf37ce1", "is_disabled": 0, "rental_uris": {"ios": "https://dc.lft.to/lastmile_qr_scan", "android": "https://dc.lft.to/lastmile_qr_scan"}, "is_reserved": 0}, {"lon": -76.984003, "bike_id": "7240e93397bf0d8ba3d702759e6d1200", "lat": 38.86638266666667, "fusion_lon": 0.0, "fusion_lat": 0.0, "type": "electric_scooter", "name": "7240e93397bf0d8ba3d702759e6d1200", "is_disabled": 0, "rental_uris": {"ios": "https://dc.lft.to/lastmile_qr_scan", "android": "https://dc.lft.to/lastmile_qr_scan"}, "is_reserved": 0}, {"lon": -77.01495866666667, "bike_id": "c440b9fc10b0b17cd52eb82490a0e874", "lat": 38.917537833333334, "fusion_lon": 0.0, "fusion_lat": 0.0, "type": "electric_scooter", "name": "c440b9fc10b0b17cd52eb82490a0e874", "is_disabled": 0, "rental_uris": {"ios": "https://dc.lft.to/lastmile_qr_scan", "android": "https://dc.lft.to/lastmile_qr_scan"}, "is_reserved": 0}, {"lon": -77.08003916666667, "bike_id": "03fca5685374e2dec8c68f865f9bd62d", "lat": 38.96491133333333, "fusion_lon": 0.0, "fusion_lat": 0.0, "type": "electric_scooter", "name": "03fca5685374e2dec8c68f865f9bd62d", "is_disabled": 0, "rental_uris": {"ios": "https://dc.lft.to/lastmile_qr_scan", "android": "https://dc.lft.to/lastmile_qr_scan"}, "is_reserved": 0}, {"lon": -77.03245816666667, "bike_id": "5b3641a5370477c4293b02ec24986f79", "lat": 38.9054755, "fusion_lon": 0.0, "fusion_lat": 0.0, "type": "electric_scooter", "name": "5b3641a5370477c4293b02ec24986f79", "is_disabled": 0, "rental_uris": {"ios": "https://dc.lft.to/lastmile_qr_scan", "android": "https://dc.lft.to/lastmile_qr_scan"}, "is_reserved": 0}, {"lon": -77.02396166666666, "bike_id": "6bb3b04f58e1213e30e64bfad1bcfaa8", "lat": 38.914382833333335, "fusion_lon": 0.0, "fusion_lat": 0.0, "type": "electric_scooter", "name": "6bb3b04f58e1213e30e64bfad1bcfaa8", "is_disabled": 0, "rental_uris": {"ios": "https://dc.lft.to/lastmile_qr_scan", "android": "https://dc.lft.to/lastmile_qr_scan"}, "is_reserved": 0}, {"lon": -77.00372766666666, "bike_id": "6d44c4fc7c8dd094bb15b4a68959788b", "lat": 38.89733416666667, "fusion_lon": 0.0, "fusion_lat": 0.0, "type": "electric_scooter", "name": "6d44c4fc7c8dd094bb15b4a68959788b", "is_disabled": 0, "rental_uris": {"ios": "https://dc.lft.to/lastmile_qr_scan", "android": "https://dc.lft.to/lastmile_qr_scan"}, "is_reserved": 0}, {"lon": -76.99016633333333, "bike_id": "70a32341aeb30eeb178b40fbc61b0e2f", "lat": 38.882746833333336, "fusion_lon": 0.0, "fusion_lat": 0.0, "type": "electric_scooter", "name": "70a32341aeb30eeb178b40fbc61b0e2f", "is_disabled": 0, "rental_uris": {"ios": "https://dc.lft.to/lastmile_qr_scan", "android": "https://dc.lft.to/lastmile_qr_scan"}, "is_reserved": 0}, {"lon": -76.93190533333333, "bike_id": "d2b187a63ca77c6dc5f4498e3ad58c08", "lat": 38.898755, "fusion_lon": 0.0, "fusion_lat": 0.0, "type": "electric_scooter", "name": "d2b187a63ca77c6dc5f4498e3ad58c08", "is_disabled": 0, "rental_uris": {"ios": "https://dc.lft.to/lastmile_qr_scan", "android": "https://dc.lft.to/lastmile_qr_scan"}, "is_reserved": 0}, {"lon": -77.08119483333333, "bike_id": "0d55451c788420b1e5115f877f55f01e", "lat": 38.910739166666666, "fusion_lon": 0.0, "fusion_lat": 0.0, "type": "electric_scooter", "name": "0d55451c788420b1e5115f877f55f01e", "is_disabled": 0, "rental_uris": {"ios": "https://dc.lft.to/lastmile_qr_scan", "android": "https://dc.lft.to/lastmile_qr_scan"}, "is_reserved": 0}, {"lon": -77.01986516666666, "bike_id": "f7b11c1aaf9b4d81dc5795da48a90872", "lat": 38.90285766666667, "fusion_lon": 0.0, "fusion_lat": 0.0, "type": "electric_scooter", "name": "f7b11c1aaf9b4d81dc5795da48a90872", "is_disabled": 0, "rental_uris": {"ios": "https://dc.lft.to/lastmile_qr_scan", "android": "https://dc.lft.to/lastmile_qr_scan"}, "is_reserved": 0}, {"lon": -77.1249125, "bike_id": "1da229052f46f13b80d9cde38e6829c8", "lat": 38.827946, "fusion_lon": 0.0, "fusion_lat": 0.0, "type": "electric_bike", "name": "1da229052f46f13b80d9cde38e6829c8", "is_disabled": 0, "rental_uris": {"ios": "https://dc.lft.to/lastmile_qr_scan", "android": "https://dc.lft.to/lastmile_qr_scan"}, "is_reserved": 0}, {"lon": -77.00280433333333, "bike_id": "bc9cc5e6d7af466c292182e57ef0a4b3", "lat": 38.95708966666667, "fusion_lon": 0.0, "fusion_lat": 0.0, "type": "electric_bike", "name": "bc9cc5e6d7af466c292182e57ef0a4b3", "is_disabled": 0, "rental_uris": {"ios": "https://dc.lft.to/lastmile_qr_scan", "android": "https://dc.lft.to/lastmile_qr_scan"}, "is_reserved": 0}, {"lon": -77.04347833333334, "bike_id": "fd156f765e352208ac0a80e79385a73e", "lat": 38.921392, "fusion_lon": 0.0, "fusion_lat": 0.0, "type": "electric_scooter", "name": "fd156f765e352208ac0a80e79385a73e", "is_disabled": 0, "rental_uris": {"ios": "https://dc.lft.to/lastmile_qr_scan", "android": "https://dc.lft.to/lastmile_qr_scan"}, "is_reserved": 0}, {"lon": -77.04884733333333, "bike_id": "5846c0d150328f7dcd204a8bc6474103", "lat": 38.912439, "fusion_lon": 0.0, "fusion_lat": 0.0, "type": "electric_scooter", "name": "5846c0d150328f7dcd204a8bc6474103", "is_disabled": 0, "rental_uris": {"ios": "https://dc.lft.to/lastmile_qr_scan", "android": "https://dc.lft.to/lastmile_qr_scan"}, "is_reserved": 0}, {"lon": -77.02985183333334, "bike_id": "6190100e0941e1c59c51fc4f44cf28b9", "lat": 38.930609, "fusion_lon": 0.0, "fusion_lat": 0.0, "type": "electric_scooter", "name": "6190100e0941e1c59c51fc4f44cf28b9", "is_disabled": 0, "rental_uris": {"ios": "https://dc.lft.to/lastmile_qr_scan", "android": "https://dc.lft.to/lastmile_qr_scan"}, "is_reserved": 0}, {"lon": -77.03905683333333, "bike_id": "ebd90bf88d899d42ca8de77c2a09dd39", "lat": 38.914179, "fusion_lon": 0.0, "fusion_lat": 0.0, "type": "electric_scooter", "name": "ebd90bf88d899d42ca8de77c2a09dd39", "is_disabled": 0, "rental_uris": {"ios": "https://dc.lft.to/lastmile_qr_scan", "android": "https://dc.lft.to/lastmile_qr_scan"}, "is_reserved": 0}, {"lon": -77.03470466666667, "bike_id": "eb0981ea14c47c849e432823698ad1ac", "lat": 38.917095333333336, "fusion_lon": 0.0, "fusion_lat": 0.0, "type": "electric_scooter", "name": "eb0981ea14c47c849e432823698ad1ac", "is_disabled": 0, "rental_uris": {"ios": "https://dc.lft.to/lastmile_qr_scan", "android": "https://dc.lft.to/lastmile_qr_scan"}, "is_reserved": 0}, {"lon": -76.99850583333334, "bike_id": "6073020642676c7e99645f1936b7fd8d", "lat": 38.841579333333335, "fusion_lon": 0.0, "fusion_lat": 0.0, "type": "electric_scooter", "name": "6073020642676c7e99645f1936b7fd8d", "is_disabled": 0, "rental_uris": {"ios": "https://dc.lft.to/lastmile_qr_scan", "android": "https://dc.lft.to/lastmile_qr_scan"}, "is_reserved": 0}, {"lon": -77.03406033333333, "bike_id": "113dbde81f32be735cdd99106a96a81f", "lat": 38.960313666666664, "fusion_lon": 0.0, "fusion_lat": 0.0, "type": "electric_bike", "name": "113dbde81f32be735cdd99106a96a81f", "is_disabled": 0, "rental_uris": {"ios": "https://dc.lft.to/lastmile_qr_scan", "android": "https://dc.lft.to/lastmile_qr_scan"}, "is_reserved": 0}, {"lon": -76.9856285, "bike_id": "db15f51ce16f2bcc3c7d40eb6e83c91b", "lat": 38.899550833333336, "fusion_lon": 0.0, "fusion_lat": 0.0, "type": "electric_scooter", "name": "db15f51ce16f2bcc3c7d40eb6e83c91b", "is_disabled": 0, "rental_uris": {"ios": "https://dc.lft.to/lastmile_qr_scan", "android": "https://dc.lft.to/lastmile_qr_scan"}, "is_reserved": 0}, {"lon": -76.99712583333333, "bike_id": "d1b10ba212275b8b7b9df9368441938a", "lat": 38.910905166666666, "fusion_lon": 0.0, "fusion_lat": 0.0, "type": "electric_scooter", "name": "d1b10ba212275b8b7b9df9368441938a", "is_disabled": 0, "rental_uris": {"ios": "https://dc.lft.to/lastmile_qr_scan", "android": "https://dc.lft.to/lastmile_qr_scan"}, "is_reserved": 0}, {"lon": -77.048269, "bike_id": "d2e1e947e06dba9fabfd6be1e7e4a97f", "lat": 38.90970033333333, "fusion_lon": 0.0, "fusion_lat": 0.0, "type": "electric_scooter", "name": "d2e1e947e06dba9fabfd6be1e7e4a97f", "is_disabled": 0, "rental_uris": {"ios": "https://dc.lft.to/lastmile_qr_scan", "android": "https://dc.lft.to/lastmile_qr_scan"}, "is_reserved": 0}, {"lon": -77.027167, "bike_id": "44d7e917a80f2edafd88136bffb9d03c", "lat": 38.93472516666667, "fusion_lon": 0.0, "fusion_lat": 0.0, "type": "electric_scooter", "name": "44d7e917a80f2edafd88136bffb9d03c", "is_disabled": 0, "rental_uris": {"ios": "https://dc.lft.to/lastmile_qr_scan", "android": "https://dc.lft.to/lastmile_qr_scan"}, "is_reserved": 0}, {"lon": -77.04660916666667, "bike_id": "bd3128d9af54de5d7ba6a2550ed9fa8a", "lat": 38.90783033333334, "fusion_lon": 0.0, "fusion_lat": 0.0, "type": "electric_scooter", "name": "bd3128d9af54de5d7ba6a2550ed9fa8a", "is_disabled": 0, "rental_uris": {"ios": "https://dc.lft.to/lastmile_qr_scan", "android": "https://dc.lft.to/lastmile_qr_scan"}, "is_reserved": 0}, {"lon": -76.99520166666667, "bike_id": "0c4b2f8b00e9e752787af2fbd6442bec", "lat": 38.89172533333333, "fusion_lon": 0.0, "fusion_lat": 0.0, "type": "electric_scooter", "name": "0c4b2f8b00e9e752787af2fbd6442bec", "is_disabled": 0, "rental_uris": {"ios": "https://dc.lft.to/lastmile_qr_scan", "android": "https://dc.lft.to/lastmile_qr_scan"}, "is_reserved": 0}, {"lon": -77.02727266666666, "bike_id": "073023944692c2210315cc6a240022b3", "lat": 38.89462, "fusion_lon": 0.0, "fusion_lat": 0.0, "type": "electric_scooter", "name": "073023944692c2210315cc6a240022b3", "is_disabled": 0, "rental_uris": {"ios": "https://dc.lft.to/lastmile_qr_scan", "android": "https://dc.lft.to/lastmile_qr_scan"}, "is_reserved": 0}, {"lon": -76.99367766666667, "bike_id": "f6142c11a8e119f4c0ee1ecae78609dd", "lat": 38.90025966666666, "fusion_lon": 0.0, "fusion_lat": 0.0, "type": "electric_bike", "name": "f6142c11a8e119f4c0ee1ecae78609dd", "is_disabled": 0, "rental_uris": {"ios": "https://dc.lft.to/lastmile_qr_scan", "android": "https://dc.lft.to/lastmile_qr_scan"}, "is_reserved": 0}, {"lon": -77.03265666666667, "bike_id": "1603cff7d60d716c304682357e333acb", "lat": 38.938898333333334, "fusion_lon": 0.0, "fusion_lat": 0.0, "type": "electric_scooter", "name": "1603cff7d60d716c304682357e333acb", "is_disabled": 0, "rental_uris": {"ios": "https://dc.lft.to/lastmile_qr_scan", "android": "https://dc.lft.to/lastmile_qr_scan"}, "is_reserved": 0}, {"lon": -76.98665683333333, "bike_id": "c94d3830f956eab87c5c3c28edf45c52", "lat": 38.8673445, "fusion_lon": 0.0, "fusion_lat": 0.0, "type": "electric_scooter", "name": "c94d3830f956eab87c5c3c28edf45c52", "is_disabled": 0, "rental_uris": {"ios": "https://dc.lft.to/lastmile_qr_scan", "android": "https://dc.lft.to/lastmile_qr_scan"}, "is_reserved": 0}, {"lon": -77.02736616666667, "bike_id": "37ce3ddb238464ab5ffab01667e383cc", "lat": 38.88164616666667, "fusion_lon": 0.0, "fusion_lat": 0.0, "type": "electric_scooter", "name": "37ce3ddb238464ab5ffab01667e383cc", "is_disabled": 0, "rental_uris": {"ios": "https://dc.lft.to/lastmile_qr_scan", "android": "https://dc.lft.to/lastmile_qr_scan"}, "is_reserved": 0}, {"lon": -77.0271405, "bike_id": "763e965f8904d0819c61c72c131f3456", "lat": 38.950849833333336, "fusion_lon": 0.0, "fusion_lat": 0.0, "type": "electric_scooter", "name": "763e965f8904d0819c61c72c131f3456", "is_disabled": 0, "rental_uris": {"ios": "https://dc.lft.to/lastmile_qr_scan", "android": "https://dc.lft.to/lastmile_qr_scan"}, "is_reserved": 0}, {"lon": -77.043626, "bike_id": "9209fdb7328aad773a4419f05f9e8aa9", "lat": 38.921009166666664, "fusion_lon": 0.0, "fusion_lat": 0.0, "type": "electric_scooter", "name": "9209fdb7328aad773a4419f05f9e8aa9", "is_disabled": 0, "rental_uris": {"ios": "https://dc.lft.to/lastmile_qr_scan", "android": "https://dc.lft.to/lastmile_qr_scan"}, "is_reserved": 0}, {"lon": -77.16625566666667, "bike_id": "f16eb3e68397c4e209aad7e9d732f4fc", "lat": 38.888362666666666, "fusion_lon": 0.0, "fusion_lat": 0.0, "type": "electric_bike", "name": "f16eb3e68397c4e209aad7e9d732f4fc", "is_disabled": 0, "rental_uris": {"ios": "https://dc.lft.to/lastmile_qr_scan", "android": "https://dc.lft.to/lastmile_qr_scan"}, "is_reserved": 0}, {"lon": -77.03101416666667, "bike_id": "3fc3761d9f0e809f62238fb216ce1e21", "lat": 38.9180595, "fusion_lon": 0.0, "fusion_lat": 0.0, "type": "electric_scooter", "name": "3fc3761d9f0e809f62238fb216ce1e21", "is_disabled": 0, "rental_uris": {"ios": "https://dc.lft.to/lastmile_qr_scan", "android": "https://dc.lft.to/lastmile_qr_scan"}, "is_reserved": 0}, {"lon": -77.042577, "bike_id": "71fab1e56360997aa7651f50a670f14d", "lat": 38.90424183333333, "fusion_lon": 0.0, "fusion_lat": 0.0, "type": "electric_scooter", "name": "71fab1e56360997aa7651f50a670f14d", "is_disabled": 0, "rental_uris": {"ios": "https://dc.lft.to/lastmile_qr_scan", "android": "https://dc.lft.to/lastmile_qr_scan"}, "is_reserved": 0}, {"lon": -77.03993083333333, "bike_id": "cce4e707075097cbba97863fcec6d372", "lat": 38.932759, "fusion_lon": 0.0, "fusion_lat": 0.0, "type": "electric_scooter", "name": "cce4e707075097cbba97863fcec6d372", "is_disabled": 0, "rental_uris": {"ios": "https://dc.lft.to/lastmile_qr_scan", "android": "https://dc.lft.to/lastmile_qr_scan"}, "is_reserved": 0}, {"lon": -77.02470616666666, "bike_id": "c536bafe58e34755c9bdab9c99f8a286", "lat": 38.93722316666667, "fusion_lon": 0.0, "fusion_lat": 0.0, "type": "electric_scooter", "name": "c536bafe58e34755c9bdab9c99f8a286", "is_disabled": 0, "rental_uris": {"ios": "https://dc.lft.to/lastmile_qr_scan", "android": "https://dc.lft.to/lastmile_qr_scan"}, "is_reserved": 0}, {"lon": -77.0301345, "bike_id": "a9de79ef80d5a9124554cbbc72a5c23e", "lat": 38.92568983333334, "fusion_lon": 0.0, "fusion_lat": 0.0, "type": "electric_scooter", "name": "a9de79ef80d5a9124554cbbc72a5c23e", "is_disabled": 0, "rental_uris": {"ios": "https://dc.lft.to/lastmile_qr_scan", "android": "https://dc.lft.to/lastmile_qr_scan"}, "is_reserved": 0}, {"lon": -77.03258916666667, "bike_id": "103c149dc8f5d1eb275e04c24e532f05", "lat": 38.93220016666667, "fusion_lon": 0.0, "fusion_lat": 0.0, "type": "electric_scooter", "name": "103c149dc8f5d1eb275e04c24e532f05", "is_disabled": 0, "rental_uris": {"ios": "https://dc.lft.to/lastmile_qr_scan", "android": "https://dc.lft.to/lastmile_qr_scan"}, "is_reserved": 0}, {"lon": -76.98584566666666, "bike_id": "cc684fafa400542f20281e44ac5b4436", "lat": 38.9003195, "fusion_lon": 0.0, "fusion_lat": 0.0, "type": "electric_scooter", "name": "cc684fafa400542f20281e44ac5b4436", "is_disabled": 0, "rental_uris": {"ios": "https://dc.lft.to/lastmile_qr_scan", "android": "https://dc.lft.to/lastmile_qr_scan"}, "is_reserved": 0}, {"lon": -77.03946883333333, "bike_id": "59dd7c4469ff5147b78e0936cc814276", "lat": 38.93062333333334, "fusion_lon": 0.0, "fusion_lat": 0.0, "type": "electric_scooter", "name": "59dd7c4469ff5147b78e0936cc814276", "is_disabled": 0, "rental_uris": {"ios": "https://dc.lft.to/lastmile_qr_scan", "android": "https://dc.lft.to/lastmile_qr_scan"}, "is_reserved": 0}, {"lon": -76.997754, "bike_id": "29d6ab608212d675b81032103e557f3b", "lat": 38.8442445, "fusion_lon": 0.0, "fusion_lat": 0.0, "type": "electric_scooter", "name": "29d6ab608212d675b81032103e557f3b", "is_disabled": 0, "rental_uris": {"ios": "https://dc.lft.to/lastmile_qr_scan", "android": "https://dc.lft.to/lastmile_qr_scan"}, "is_reserved": 0}, {"lon": -77.0296955, "bike_id": "d7a129739d36dc5d3fdc94e55083c009", "lat": 38.93061266666667, "fusion_lon": 0.0, "fusion_lat": 0.0, "type": "electric_scooter", "name": "d7a129739d36dc5d3fdc94e55083c009", "is_disabled": 0, "rental_uris": {"ios": "https://dc.lft.to/lastmile_qr_scan", "android": "https://dc.lft.to/lastmile_qr_scan"}, "is_reserved": 0}, {"lon": -77.0346755, "bike_id": "2f583ac74a6da448a0dd3897b5630d62", "lat": 38.9072745, "fusion_lon": 0.0, "fusion_lat": 0.0, "type": "electric_scooter", "name": "2f583ac74a6da448a0dd3897b5630d62", "is_disabled": 0, "rental_uris": {"ios": "https://dc.lft.to/lastmile_qr_scan", "android": "https://dc.lft.to/lastmile_qr_scan"}, "is_reserved": 0}, {"lon": -77.04738633333334, "bike_id": "eaf5be7f097d50424ca059f0ffbf659b", "lat": 38.9052255, "fusion_lon": 0.0, "fusion_lat": 0.0, "type": "electric_scooter", "name": "eaf5be7f097d50424ca059f0ffbf659b", "is_disabled": 0, "rental_uris": {"ios": "https://dc.lft.to/lastmile_qr_scan", "android": "https://dc.lft.to/lastmile_qr_scan"}, "is_reserved": 0}, {"lon": -77.025907, "bike_id": "f20925be405b8488927806e23183e92b", "lat": 38.9419915, "fusion_lon": 0.0, "fusion_lat": 0.0, "type": "electric_scooter", "name": "f20925be405b8488927806e23183e92b", "is_disabled": 0, "rental_uris": {"ios": "https://dc.lft.to/lastmile_qr_scan", "android": "https://dc.lft.to/lastmile_qr_scan"}, "is_reserved": 0}, {"lon": -77.04062266666666, "bike_id": "0a865465b3efd3a085294a8306681386", "lat": 38.91765983333333, "fusion_lon": 0.0, "fusion_lat": 0.0, "type": "electric_scooter", "name": "0a865465b3efd3a085294a8306681386", "is_disabled": 0, "rental_uris": {"ios": "https://dc.lft.to/lastmile_qr_scan", "android": "https://dc.lft.to/lastmile_qr_scan"}, "is_reserved": 0}, {"lon": -77.00098583333333, "bike_id": "119f2e964b7906ca510451ba896b2981", "lat": 38.907573, "fusion_lon": 0.0, "fusion_lat": 0.0, "type": "electric_scooter", "name": "119f2e964b7906ca510451ba896b2981", "is_disabled": 0, "rental_uris": {"ios": "https://dc.lft.to/lastmile_qr_scan", "android": "https://dc.lft.to/lastmile_qr_scan"}, "is_reserved": 0}, {"lon": -77.02695016666667, "bike_id": "e33974574caab7e8a59db60a1dc8a2e8", "lat": 38.906185, "fusion_lon": 0.0, "fusion_lat": 0.0, "type": "electric_scooter", "name": "e33974574caab7e8a59db60a1dc8a2e8", "is_disabled": 0, "rental_uris": {"ios": "https://dc.lft.to/lastmile_qr_scan", "android": "https://dc.lft.to/lastmile_qr_scan"}, "is_reserved": 0}, {"lon": -77.067477, "bike_id": "68db0732b0f1a83e00da791596b438f9", "lat": 38.90337666666667, "fusion_lon": 0.0, "fusion_lat": 0.0, "type": "electric_scooter", "name": "68db0732b0f1a83e00da791596b438f9", "is_disabled": 0, "rental_uris": {"ios": "https://dc.lft.to/lastmile_qr_scan", "android": "https://dc.lft.to/lastmile_qr_scan"}, "is_reserved": 0}, {"lon": -77.03852883333333, "bike_id": "06d5d547204f613e56b294b1320e6d3c", "lat": 38.906479, "fusion_lon": 0.0, "fusion_lat": 0.0, "type": "electric_scooter", "name": "06d5d547204f613e56b294b1320e6d3c", "is_disabled": 0, "rental_uris": {"ios": "https://dc.lft.to/lastmile_qr_scan", "android": "https://dc.lft.to/lastmile_qr_scan"}, "is_reserved": 0}, {"lon": -77.0385395, "bike_id": "df109098528aef85cdf7e6559bca02e5", "lat": 38.915453166666666, "fusion_lon": 0.0, "fusion_lat": 0.0, "type": "electric_scooter", "name": "df109098528aef85cdf7e6559bca02e5", "is_disabled": 0, "rental_uris": {"ios": "https://dc.lft.to/lastmile_qr_scan", "android": "https://dc.lft.to/lastmile_qr_scan"}, "is_reserved": 0}, {"lon": -77.03815083333333, "bike_id": "3ba639de3c68db4c7a4e6ca9d8a7a236", "lat": 38.93090316666667, "fusion_lon": 0.0, "fusion_lat": 0.0, "type": "electric_scooter", "name": "3ba639de3c68db4c7a4e6ca9d8a7a236", "is_disabled": 0, "rental_uris": {"ios": "https://dc.lft.to/lastmile_qr_scan", "android": "https://dc.lft.to/lastmile_qr_scan"}, "is_reserved": 0}, {"lon": -77.0091885, "bike_id": "ebe0d04e20ee04f38ec034616a59d49f", "lat": 38.82787533333333, "fusion_lon": 0.0, "fusion_lat": 0.0, "type": "electric_bike", "name": "ebe0d04e20ee04f38ec034616a59d49f", "is_disabled": 0, "rental_uris": {"ios": "https://dc.lft.to/lastmile_qr_scan", "android": "https://dc.lft.to/lastmile_qr_scan"}, "is_reserved": 0}, {"lon": -77.03515366666667, "bike_id": "95a7bee8993c5961b5f1b8ae199b7fa5", "lat": 38.92138166666667, "fusion_lon": 0.0, "fusion_lat": 0.0, "type": "electric_scooter", "name": "95a7bee8993c5961b5f1b8ae199b7fa5", "is_disabled": 0, "rental_uris": {"ios": "https://dc.lft.to/lastmile_qr_scan", "android": "https://dc.lft.to/lastmile_qr_scan"}, "is_reserved": 0}, {"lon": -77.021113, "bike_id": "3787e70abea4a6b14d45cedbd9279202", "lat": 38.93702833333333, "fusion_lon": 0.0, "fusion_lat": 0.0, "type": "electric_scooter", "name": "3787e70abea4a6b14d45cedbd9279202", "is_disabled": 0, "rental_uris": {"ios": "https://dc.lft.to/lastmile_qr_scan", "android": "https://dc.lft.to/lastmile_qr_scan"}, "is_reserved": 0}, {"lon": -77.04693916666666, "bike_id": "a498aecb8a9a4cf65eda31cd520ada74", "lat": 38.89222516666667, "fusion_lon": 0.0, "fusion_lat": 0.0, "type": "electric_scooter", "name": "a498aecb8a9a4cf65eda31cd520ada74", "is_disabled": 0, "rental_uris": {"ios": "https://dc.lft.to/lastmile_qr_scan", "android": "https://dc.lft.to/lastmile_qr_scan"}, "is_reserved": 0}, {"lon": -77.04688083333333, "bike_id": "00e3c454fa1b59aaf35f92da3e01ddb0", "lat": 38.892221, "fusion_lon": 0.0, "fusion_lat": 0.0, "type": "electric_scooter", "name": "00e3c454fa1b59aaf35f92da3e01ddb0", "is_disabled": 0, "rental_uris": {"ios": "https://dc.lft.to/lastmile_qr_scan", "android": "https://dc.lft.to/lastmile_qr_scan"}, "is_reserved": 0}, {"lon": -77.02963133333333, "bike_id": "61ac3b996aad5e49ba3cbfb173efe4e8", "lat": 38.906598, "fusion_lon": 0.0, "fusion_lat": 0.0, "type": "electric_scooter", "name": "61ac3b996aad5e49ba3cbfb173efe4e8", "is_disabled": 0, "rental_uris": {"ios": "https://dc.lft.to/lastmile_qr_scan", "android": "https://dc.lft.to/lastmile_qr_scan"}, "is_reserved": 0}, {"lon": -76.95890833333333, "bike_id": "38e1b49f9b2b0f620cd14b6c3b047a1b", "lat": 38.890057, "fusion_lon": 0.0, "fusion_lat": 0.0, "type": "electric_scooter", "name": "38e1b49f9b2b0f620cd14b6c3b047a1b", "is_disabled": 0, "rental_uris": {"ios": "https://dc.lft.to/lastmile_qr_scan", "android": "https://dc.lft.to/lastmile_qr_scan"}, "is_reserved": 0}, {"lon": -77.02416733333334, "bike_id": "20a269beceeddb27dbe07cbe6c4411eb", "lat": 38.90415333333333, "fusion_lon": 0.0, "fusion_lat": 0.0, "type": "electric_scooter", "name": "20a269beceeddb27dbe07cbe6c4411eb", "is_disabled": 0, "rental_uris": {"ios": "https://dc.lft.to/lastmile_qr_scan", "android": "https://dc.lft.to/lastmile_qr_scan"}, "is_reserved": 0}, {"lon": -76.9635755, "bike_id": "a728db0f9272a446b3a1fd153ff2a11d", "lat": 38.93502766666667, "fusion_lon": 0.0, "fusion_lat": 0.0, "type": "electric_scooter", "name": "a728db0f9272a446b3a1fd153ff2a11d", "is_disabled": 0, "rental_uris": {"ios": "https://dc.lft.to/lastmile_qr_scan", "android": "https://dc.lft.to/lastmile_qr_scan"}, "is_reserved": 0}, {"lon": -77.04897183333334, "bike_id": "a56bcf3a2701ebbfd81a6f2d4fc196f3", "lat": 38.89226516666667, "fusion_lon": 0.0, "fusion_lat": 0.0, "type": "electric_scooter", "name": "a56bcf3a2701ebbfd81a6f2d4fc196f3", "is_disabled": 0, "rental_uris": {"ios": "https://dc.lft.to/lastmile_qr_scan", "android": "https://dc.lft.to/lastmile_qr_scan"}, "is_reserved": 0}, {"lon": -77.02220333333334, "bike_id": "6ea02ce0ab73b85a0bca1e6e1754ac7e", "lat": 38.892195666666666, "fusion_lon": 0.0, "fusion_lat": 0.0, "type": "electric_scooter", "name": "6ea02ce0ab73b85a0bca1e6e1754ac7e", "is_disabled": 0, "rental_uris": {"ios": "https://dc.lft.to/lastmile_qr_scan", "android": "https://dc.lft.to/lastmile_qr_scan"}, "is_reserved": 0}, {"lon": -77.0252885, "bike_id": "2b76ff4c13478e18aa93c69c0f03c15b", "lat": 38.9208025, "fusion_lon": 0.0, "fusion_lat": 0.0, "type": "electric_scooter", "name": "2b76ff4c13478e18aa93c69c0f03c15b", "is_disabled": 0, "rental_uris": {"ios": "https://dc.lft.to/lastmile_qr_scan", "android": "https://dc.lft.to/lastmile_qr_scan"}, "is_reserved": 0}, {"lon": -77.054358, "bike_id": "5665de5e219daae738bfb63ae2f04553", "lat": 38.90368866666667, "fusion_lon": 0.0, "fusion_lat": 0.0, "type": "electric_scooter", "name": "5665de5e219daae738bfb63ae2f04553", "is_disabled": 0, "rental_uris": {"ios": "https://dc.lft.to/lastmile_qr_scan", "android": "https://dc.lft.to/lastmile_qr_scan"}, "is_reserved": 0}, {"lon": -77.02644033333333, "bike_id": "9f303fa4f9a5fe6c436ebb98a4b807c5", "lat": 38.89965766666667, "fusion_lon": 0.0, "fusion_lat": 0.0, "type": "electric_scooter", "name": "9f303fa4f9a5fe6c436ebb98a4b807c5", "is_disabled": 0, "rental_uris": {"ios": "https://dc.lft.to/lastmile_qr_scan", "android": "https://dc.lft.to/lastmile_qr_scan"}, "is_reserved": 0}, {"lon": -77.00051366666666, "bike_id": "d3947d79744c0041eab9d1662ad0c3e1", "lat": 38.87502283333333, "fusion_lon": 0.0, "fusion_lat": 0.0, "type": "electric_scooter", "name": "d3947d79744c0041eab9d1662ad0c3e1", "is_disabled": 0, "rental_uris": {"ios": "https://dc.lft.to/lastmile_qr_scan", "android": "https://dc.lft.to/lastmile_qr_scan"}, "is_reserved": 0}, {"lon": -77.02619883333334, "bike_id": "646f61399d9bacdb147711d77e710452", "lat": 38.89221916666666, "fusion_lon": 0.0, "fusion_lat": 0.0, "type": "electric_scooter", "name": "646f61399d9bacdb147711d77e710452", "is_disabled": 0, "rental_uris": {"ios": "https://dc.lft.to/lastmile_qr_scan", "android": "https://dc.lft.to/lastmile_qr_scan"}, "is_reserved": 0}, {"lon": -77.03188083333333, "bike_id": "13934365d97e6d9320d0f68e7ed1f528", "lat": 38.892247166666664, "fusion_lon": 0.0, "fusion_lat": 0.0, "type": "electric_scooter", "name": "13934365d97e6d9320d0f68e7ed1f528", "is_disabled": 0, "rental_uris": {"ios": "https://dc.lft.to/lastmile_qr_scan", "android": "https://dc.lft.to/lastmile_qr_scan"}, "is_reserved": 0}, {"lon": -76.98939833333333, "bike_id": "943b111b8817693fb31197cf893ea471", "lat": 38.866934, "fusion_lon": 0.0, "fusion_lat": 0.0, "type": "electric_bike", "name": "943b111b8817693fb31197cf893ea471", "is_disabled": 0, "rental_uris": {"ios": "https://dc.lft.to/lastmile_qr_scan", "android": "https://dc.lft.to/lastmile_qr_scan"}, "is_reserved": 0}, {"lon": -77.03182766666667, "bike_id": "58056e8dce251105f44b5dd6dbab9191", "lat": 38.8922055, "fusion_lon": 0.0, "fusion_lat": 0.0, "type": "electric_scooter", "name": "58056e8dce251105f44b5dd6dbab9191", "is_disabled": 0, "rental_uris": {"ios": "https://dc.lft.to/lastmile_qr_scan", "android": "https://dc.lft.to/lastmile_qr_scan"}, "is_reserved": 0}, {"lon": -76.985868, "bike_id": "6b5b12d50b9c2cd82f34b75548725911", "lat": 38.866827, "fusion_lon": 0.0, "fusion_lat": 0.0, "type": "electric_scooter", "name": "6b5b12d50b9c2cd82f34b75548725911", "is_disabled": 0, "rental_uris": {"ios": "https://dc.lft.to/lastmile_qr_scan", "android": "https://dc.lft.to/lastmile_qr_scan"}, "is_reserved": 0}, {"lon": -77.03456566666667, "bike_id": "f0b904e9debf04b8572a20077b1b5020", "lat": 38.905657166666664, "fusion_lon": 0.0, "fusion_lat": 0.0, "type": "electric_scooter", "name": "f0b904e9debf04b8572a20077b1b5020", "is_disabled": 0, "rental_uris": {"ios": "https://dc.lft.to/lastmile_qr_scan", "android": "https://dc.lft.to/lastmile_qr_scan"}, "is_reserved": 0},