{"data": {"bikes": [{"is_disabled": 0, "fusion_lon": 0.0, "fusion_lat": 0.0, "lat": 39.02688916666666, "type": "electric_bike", "lon": -77.12600166666667, "bike_id": "96069f6adbc8d774ba1b5f3c808f5510", "rental_uris": {"android": "https://dc.lft.to/lastmile_qr_scan", "ios": "https://dc.lft.to/lastmile_qr_scan"}, "name": "96069f6adbc8d774ba1b5f3c808f5510", "is_reserved": 0}, {"is_disabled": 0, "fusion_lon": 0.0, "fusion_lat": 0.0, "lat": 38.9001605, "type": "electric_scooter", "lon": -77.05226883333333, "bike_id": "4e17f2a8d611ff19a99b0a985fd9c90e", "rental_uris": {"android": "https://dc.lft.to/lastmile_qr_scan", "ios": "https://dc.lft.to/lastmile_qr_scan"}, "name": "4e17f2a8d611ff19a99b0a985fd9c90e", "is_reserved": 0}, {"is_disabled": 0, "fusion_lon": 0.0, "fusion_lat": 0.0, "lat": 38.91712283333333, "type": "electric_scooter", "lon": -77.09810733333333, "bike_id": "d0a7bb4be98ee3632fd5a02d1a2d2398", "rental_uris": {"android": "https://dc.lft.to/lastmile_qr_scan", "ios": "https://dc.lft.to/lastmile_qr_scan"}, "name": "d0a7bb4be98ee3632fd5a02d1a2d2398", "is_reserved": 0}, {"is_disabled": 0, "fusion_lon": 0.0, "fusion_lat": 0.0, "lat": 38.90397166666666, "type": "electric_scooter", "lon": -77.048903, "bike_id": "6fcd122f74e9b9224abe6e57c40cdd2d", "rental_uris": {"android": "https://dc.lft.to/lastmile_qr_scan", "ios": "https://dc.lft.to/lastmile_qr_scan"}, "name": "6fcd122f74e9b9224abe6e57c40cdd2d", "is_reserved": 0}, {"is_disabled": 0, "fusion_lon": 0.0, "fusion_lat": 0.0, "lat": 38.889852166666664, "type": "electric_scooter", "lon": -77.00244966666666, "bike_id": "84b10b5042c24856b9fb5b740490ac58", "rental_uris": {"android": "https://dc.lft.to/lastmile_qr_scan", "ios": "https://dc.lft.to/lastmile_qr_scan"}, "name": "84b10b5042c24856b9fb5b740490ac58", "is_reserved": 0}, {"is_disabled": 0, "fusion_lon": 0.0, "fusion_lat": 0.0, "lat": 38.906372, "type": "electric_scooter", "lon": -76.98572266666666, "bike_id": "28161e892f0ea07feecd3e6a1922ec1d", "rental_uris": {"android": "https://dc.lft.to/lastmile_qr_scan", "ios": "https://dc.lft.to/lastmile_qr_scan"}, "name": "28161e892f0ea07feecd3e6a1922ec1d", "is_reserved": 0}, {"is_disabled": 0, "fusion_lon": 0.0, "fusion_lat": 0.0, "lat": 38.901430833333336, "type": "electric_scooter", "lon": -76.98970466666667, "bike_id": "962070511c7296a44c16d7a23a95c48c", "rental_uris": {"android": "https://dc.lft.to/lastmile_qr_scan", "ios": "https://dc.lft.to/lastmile_qr_scan"}, "name": "962070511c7296a44c16d7a23a95c48c", "is_reserved": 0}, {"is_disabled": 0, "fusion_lon": 0.0, "fusion_lat": 0.0, "lat": 38.92342, "type": "electric_scooter", "lon": -77.03516733333333, "bike_id": "64e435725c26d078f8071178b0c4da1f", "rental_uris": {"android": "https://dc.lft.to/lastmile_qr_scan", "ios": "https://dc.lft.to/lastmile_qr_scan"}, "name": "64e435725c26d078f8071178b0c4da1f", "is_reserved": 0}, {"is_disabled": 0, "fusion_lon": 0.0, "fusion_lat": 0.0, "lat": 38.921510833333336, "type": "electric_scooter", "lon": -77.0351585, "bike_id": "f1667d07705cc69cc90c974c0fc7c862", "rental_uris": {"android": "https://dc.lft.to/lastmile_qr_scan", "ios": "https://dc.lft.to/lastmile_qr_scan"}, "name": "f1667d07705cc69cc90c974c0fc7c862", "is_reserved": 0}, {"is_disabled": 0, "fusion_lon": 0.0, "fusion_lat": 0.0, "lat": 38.915634, "type": "electric_scooter", "lon": -77.0387245, "bike_id": "a6adcde2716cfd3d11d6446b4c8cca5f", "rental_uris": {"android": "https://dc.lft.to/lastmile_qr_scan", "ios": "https://dc.lft.to/lastmile_qr_scan"}, "name": "a6adcde2716cfd3d11d6446b4c8cca5f", "is_reserved": 0}, {"is_disabled": 0, "fusion_lon": 0.0, "fusion_lat": 0.0, "lat": 38.921588166666666, "type": "electric_scooter", "lon": -77.03393966666667, "bike_id": "a5dac564a26b74fad9a417a4e6c6e068", "rental_uris": {"android": "https://dc.lft.to/lastmile_qr_scan", "ios": "https://dc.lft.to/lastmile_qr_scan"}, "name": "a5dac564a26b74fad9a417a4e6c6e068", "is_reserved": 0}, {"is_disabled": 0, "fusion_lon": 0.0, "fusion_lat": 0.0, "lat": 38.8947265, "type": "electric_scooter", "lon": -76.933049, "bike_id": "33a09310428cc6a7aaf283423b2e46f8", "rental_uris": {"android": "https://dc.lft.to/lastmile_qr_scan", "ios": "https://dc.lft.to/lastmile_qr_scan"}, "name": "33a09310428cc6a7aaf283423b2e46f8", "is_reserved": 0}, {"is_disabled": 0, "fusion_lon": 0.0, "fusion_lat": 0.0, "lat": 38.93125233333333, "type": "electric_scooter", "lon": -77.01985083333334, "bike_id": "5059d1d41e69e4b317ed24e78606da56", "rental_uris": {"android": "https://dc.lft.to/lastmile_qr_scan", "ios": "https://dc.lft.to/lastmile_qr_scan"}, "name": "5059d1d41e69e4b317ed24e78606da56", "is_reserved": 0}, {"is_disabled": 0, "fusion_lon": 0.0, "fusion_lat": 0.0, "lat": 38.90827316666667, "type": "electric_scooter", "lon": -77.04176916666667, "bike_id": "2bad538a350fc6a70be0812772ff5629", "rental_uris": {"android": "https://dc.lft.to/lastmile_qr_scan", "ios": "https://dc.lft.to/lastmile_qr_scan"}, "name": "2bad538a350fc6a70be0812772ff5629", "is_reserved": 0}, {"is_disabled": 0, "fusion_lon": 0.0, "fusion_lat": 0.0, "lat": 38.896297, "type": "electric_scooter", "lon": -77.02933233333333, "bike_id": "a6bf5b5d20164a5c9e4b2ea61cc35937", "rental_uris": {"android": "https://dc.lft.to/lastmile_qr_scan", "ios": "https://dc.lft.to/lastmile_qr_scan"}, "name": "a6bf5b5d20164a5c9e4b2ea61cc35937", "is_reserved": 0}, {"is_disabled": 0, "fusion_lon": 0.0, "fusion_lat": 0.0, "lat": 38.905024166666664, "type": "electric_scooter", "lon": -77.02948633333334, "bike_id": "8cbd58b637f020580f61ff9259f4dbc3", "rental_uris": {"android": "https://dc.lft.to/lastmile_qr_scan", "ios": "https://dc.lft.to/lastmile_qr_scan"}, "name": "8cbd58b637f020580f61ff9259f4dbc3", "is_reserved": 0}, {"is_disabled": 0, "fusion_lon": 0.0, "fusion_lat": 0.0, "lat": 38.920941166666665, "type": "electric_scooter", "lon": -77.03043016666666, "bike_id": "bcda329df2cf92bc99e64657a9ce370d", "rental_uris": {"android": "https://dc.lft.to/lastmile_qr_scan", "ios": "https://dc.lft.to/lastmile_qr_scan"}, "name": "bcda329df2cf92bc99e64657a9ce370d", "is_reserved": 0}, {"is_disabled": 0, "fusion_lon": 0.0, "fusion_lat": 0.0, "lat": 38.91918916666667, "type": "electric_scooter", "lon": -77.03421166666666, "bike_id": "c4f8ee84a13b900356ac5f0433a09e9f", "rental_uris": {"android": "https://dc.lft.to/lastmile_qr_scan", "ios": "https://dc.lft.to/lastmile_qr_scan"}, "name": "c4f8ee84a13b900356ac5f0433a09e9f", "is_reserved": 0}, {"is_disabled": 0, "fusion_lon": 0.0, "fusion_lat": 0.0, "lat": 38.9287685, "type": "electric_scooter", "lon": -77.041323, "bike_id": "467a443c7459cbcba326fe58caf278cc", "rental_uris": {"android": "https://dc.lft.to/lastmile_qr_scan", "ios": "https://dc.lft.to/lastmile_qr_scan"}, "name": "467a443c7459cbcba326fe58caf278cc", "is_reserved": 0}, {"is_disabled": 0, "fusion_lon": 0.0, "fusion_lat": 0.0, "lat": 38.89724233333333, "type": "electric_scooter", "lon": -77.00929666666667, "bike_id": "5c00e714efb4ffa227011f867215548b", "rental_uris": {"android": "https://dc.lft.to/lastmile_qr_scan", "ios": "https://dc.lft.to/lastmile_qr_scan"}, "name": "5c00e714efb4ffa227011f867215548b", "is_reserved": 0}, {"is_disabled": 0, "fusion_lon": 0.0, "fusion_lat": 0.0, "lat": 38.941289, "type": "electric_scooter", "lon": -77.01821533333333, "bike_id": "e689066a4131339aa5f5054a39c0770d", "rental_uris": {"android": "https://dc.lft.to/lastmile_qr_scan", "ios": "https://dc.lft.to/lastmile_qr_scan"}, "name": "e689066a4131339aa5f5054a39c0770d", "is_reserved": 0}, {"is_disabled": 0, "fusion_lon": 0.0, "fusion_lat": 0.0, "lat": 38.93141633333333, "type": "electric_scooter", "lon": -77.03451383333334, "bike_id": "120db2f86e8d693d5c92031d8dcf81d8", "rental_uris": {"android": "https://dc.lft.to/lastmile_qr_scan", "ios": "https://dc.lft.to/lastmile_qr_scan"}, "name": "120db2f86e8d693d5c92031d8dcf81d8", "is_reserved": 0}, {"is_disabled": 0, "fusion_lon": 0.0, "fusion_lat": 0.0, "lat": 38.890035833333336, "type": "electric_scooter", "lon": -77.04903, "bike_id": "dfe353571bd8e714207b4e37f0fd7d72", "rental_uris": {"android": "https://dc.lft.to/lastmile_qr_scan", "ios": "https://dc.lft.to/lastmile_qr_scan"}, "name": "dfe353571bd8e714207b4e37f0fd7d72", "is_reserved": 0}, {"is_disabled": 0, "fusion_lon": 0.0, "fusion_lat": 0.0, "lat": 38.86059316666667, "type": "electric_scooter", "lon": -76.98513, "bike_id": "9ef08d2bec62a75b181ec29b55be65d0", "rental_uris": {"android": "https://dc.lft.to/lastmile_qr_scan", "ios": "https://dc.lft.to/lastmile_qr_scan"}, "name": "9ef08d2bec62a75b181ec29b55be65d0", "is_reserved": 0}, {"is_disabled": 0, "fusion_lon": 0.0, "fusion_lat": 0.0, "lat": 38.91111033333333, "type": "electric_scooter", "lon": -77.0382895, "bike_id": "23d79105b877fd55532c181f5e1f6c71", "rental_uris": {"android": "https://dc.lft.to/lastmile_qr_scan", "ios": "https://dc.lft.to/lastmile_qr_scan"}, "name": "23d79105b877fd55532c181f5e1f6c71", "is_reserved": 0}, {"is_disabled": 0, "fusion_lon": 0.0, "fusion_lat": 0.0, "lat": 38.90064266666667, "type": "electric_scooter", "lon": -77.01284366666667, "bike_id": "236d6cfc8172780245a4638707ec9ba4", "rental_uris": {"android": "https://dc.lft.to/lastmile_qr_scan", "ios": "https://dc.lft.to/lastmile_qr_scan"}, "name": "236d6cfc8172780245a4638707ec9ba4", "is_reserved": 0}, {"is_disabled": 0, "fusion_lon": 0.0, "fusion_lat": 0.0, "lat": 38.85869816666667, "type": "electric_scooter", "lon": -76.99025383333333, "bike_id": "c7099699c3ef2667b1b629ebea2d034a", "rental_uris": {"android": "https://dc.lft.to/lastmile_qr_scan", "ios": "https://dc.lft.to/lastmile_qr_scan"}, "name": "c7099699c3ef2667b1b629ebea2d034a", "is_reserved": 0}, {"is_disabled": 0, "fusion_lon": 0.0, "fusion_lat": 0.0, "lat": 38.93095116666667, "type": "electric_scooter", "lon": -77.0380925, "bike_id": "c20f211dbd31f0abda4beb0d753ad6bb", "rental_uris": {"android": "https://dc.lft.to/lastmile_qr_scan", "ios": "https://dc.lft.to/lastmile_qr_scan"}, "name": "c20f211dbd31f0abda4beb0d753ad6bb", "is_reserved": 0}, {"is_disabled": 0, "fusion_lon": 0.0, "fusion_lat": 0.0, "lat": 38.906987, "type": "electric_scooter", "lon": -77.063054, "bike_id": "afc04344e37caa13c45265603deffc15", "rental_uris": {"android": "https://dc.lft.to/lastmile_qr_scan", "ios": "https://dc.lft.to/lastmile_qr_scan"}, "name": "afc04344e37caa13c45265603deffc15", "is_reserved": 0}, {"is_disabled": 0, "fusion_lon": 0.0, "fusion_lat": 0.0, "lat": 38.907694, "type": "electric_scooter", "lon": -77.03193016666667, "bike_id": "d07cc26a0efae072669ceee2571a101a", "rental_uris": {"android": "https://dc.lft.to/lastmile_qr_scan", "ios": "https://dc.lft.to/lastmile_qr_scan"}, "name": "d07cc26a0efae072669ceee2571a101a", "is_reserved": 0}, {"is_disabled": 0, "fusion_lon": 0.0, "fusion_lat": 0.0, "lat": 38.8975285, "type": "electric_scooter", "lon": -77.02871433333334, "bike_id": "814d07d7395b2674628a31713b49039c", "rental_uris": {"android": "https://dc.lft.to/lastmile_qr_scan", "ios": "https://dc.lft.to/lastmile_qr_scan"}, "name": "814d07d7395b2674628a31713b49039c", "is_reserved": 0}, {"is_disabled": 0, "fusion_lon": 0.0, "fusion_lat": 0.0, "lat": 38.958779666666665, "type": "electric_bike", "lon": -76.92488066666667, "bike_id": "50bc4453896b0d1d614d0de9eaf2db32", "rental_uris": {"android": "https://dc.lft.to/lastmile_qr_scan", "ios": "https://dc.lft.to/lastmile_qr_scan"}, "name": "50bc4453896b0d1d614d0de9eaf2db32", "is_reserved": 0}, {"is_disabled": 0, "fusion_lon": 0.0, "fusion_lat": 0.0, "lat": 38.8973265, "type": "electric_scooter", "lon": -77.02508533333334, "bike_id": "055a3ad5254c345031f63532c3cb2eca", "rental_uris": {"android": "https://dc.lft.to/lastmile_qr_scan", "ios": "https://dc.lft.to/lastmile_qr_scan"}, "name": "055a3ad5254c345031f63532c3cb2eca", "is_reserved": 0}, {"is_disabled": 0, "fusion_lon": 0.0, "fusion_lat": 0.0, "lat": 38.8937145, "type": "electric_scooter", "lon": -76.978224, "bike_id": "8f75d4958564e5862be79a51aee171e8", "rental_uris": {"android": "https://dc.lft.to/lastmile_qr_scan", "ios": "https://dc.lft.to/lastmile_qr_scan"}, "name": "8f75d4958564e5862be79a51aee171e8", "is_reserved": 0}, {"is_disabled": 0, "fusion_lon": 0.0, "fusion_lat": 0.0, "lat": 38.89312666666667, "type": "electric_scooter", "lon": -77.02204166666667, "bike_id": "2042f1f566a236cf4c90be257d28c055", "rental_uris": {"android": "https://dc.lft.to/lastmile_qr_scan", "ios": "https://dc.lft.to/lastmile_qr_scan"}, "name": "2042f1f566a236cf4c90be257d28c055", "is_reserved": 0}, {"is_disabled": 0, "fusion_lon": 0.0, "fusion_lat": 0.0, "lat": 38.905195666666664, "type": "electric_scooter", "lon": -77.05041933333334, "bike_id": "95cfc78511440ce1880103586ef79341", "rental_uris": {"android": "https://dc.lft.to/lastmile_qr_scan", "ios": "https://dc.lft.to/lastmile_qr_scan"}, "name": "95cfc78511440ce1880103586ef79341", "is_reserved": 0}, {"is_disabled": 0, "fusion_lon": 0.0, "fusion_lat": 0.0, "lat": 38.91659083333333, "type": "electric_scooter", "lon": -77.04652683333333, "bike_id": "fa97a0c07a6abe70bed4cfdac3d121ca", "rental_uris": {"android": "https://dc.lft.to/lastmile_qr_scan", "ios": "https://dc.lft.to/lastmile_qr_scan"}, "name": "fa97a0c07a6abe70bed4cfdac3d121ca", "is_reserved": 0}, {"is_disabled": 0, "fusion_lon": 0.0, "fusion_lat": 0.0, "lat": 38.885312166666665, "type": "electric_scooter", "lon": -76.99811633333333, "bike_id": "e499310eae15dc9ffc5e8368f01954a4", "rental_uris": {"android": "https://dc.lft.to/lastmile_qr_scan", "ios": "https://dc.lft.to/lastmile_qr_scan"}, "name": "e499310eae15dc9ffc5e8368f01954a4", "is_reserved": 0}, {"is_disabled": 0, "fusion_lon": 0.0, "fusion_lat": 0.0, "lat": 38.920180333333334, "type": "electric_scooter", "lon": -77.04425683333334, "bike_id": "75f385cceed38167be12e47f821e87b5", "rental_uris": {"android": "https://dc.lft.to/lastmile_qr_scan", "ios": "https://dc.lft.to/lastmile_qr_scan"}, "name": "75f385cceed38167be12e47f821e87b5", "is_reserved": 0}, {"is_disabled": 0, "fusion_lon": 0.0, "fusion_lat": 0.0, "lat": 38.916929833333334, "type": "electric_scooter", "lon": -77.02601966666667, "bike_id": "7ee5a3418bb9786831ee24c5cc73ff10", "rental_uris": {"android": "https://dc.lft.to/lastmile_qr_scan", "ios": "https://dc.lft.to/lastmile_qr_scan"}, "name": "7ee5a3418bb9786831ee24c5cc73ff10", "is_reserved": 0}, {"is_disabled": 0, "fusion_lon": 0.0, "fusion_lat": 0.0, "lat": 38.96050683333333, "type": "electric_bike", "lon": -76.92704383333333, "bike_id": "cdac39ca95c74d22100b19935c9fa54e", "rental_uris": {"android": "https://dc.lft.to/lastmile_qr_scan", "ios": "https://dc.lft.to/lastmile_qr_scan"}, "name": "cdac39ca95c74d22100b19935c9fa54e", "is_reserved": 0}, {"is_disabled": 0, "fusion_lon": 0.0, "fusion_lat": 0.0, "lat": 39.058115, "type": "electric_bike", "lon": -77.12627216666667, "bike_id": "778488a6ad10b1af941cc0a1dbbc36c0", "rental_uris": {"android": "https://dc.lft.to/lastmile_qr_scan", "ios": "https://dc.lft.to/lastmile_qr_scan"}, "name": "778488a6ad10b1af941cc0a1dbbc36c0", "is_reserved": 0}, {"is_disabled": 0, "fusion_lon": 0.0, "fusion_lat": 0.0, "lat": 38.9415235, "type": "electric_bike", "lon": -77.00193283333333, "bike_id": "b6d7fa25cdab41b9e3cfcf1df375d49c", "rental_uris": {"android": "https://dc.lft.to/lastmile_qr_scan", "ios": "https://dc.lft.to/lastmile_qr_scan"}, "name": "b6d7fa25cdab41b9e3cfcf1df375d49c", "is_reserved": 0}, {"is_disabled": 0, "fusion_lon": 0.0, "fusion_lat": 0.0, "lat": 38.9034735, "type": "electric_scooter", "lon": -77.02549933333333, "bike_id": "a8c3bd9e7a650e759aa47f3f4e8aefff", "rental_uris": {"android": "https://dc.lft.to/lastmile_qr_scan", "ios": "https://dc.lft.to/lastmile_qr_scan"}, "name": "a8c3bd9e7a650e759aa47f3f4e8aefff", "is_reserved": 0}, {"is_disabled": 0, "fusion_lon": 0.0, "fusion_lat": 0.0, "lat": 38.905137833333335, "type": "electric_scooter", "lon": -77.02598216666667, "bike_id": "767191dc630542761844136bfaf00c70", "rental_uris": {"android": "https://dc.lft.to/lastmile_qr_scan", "ios": "https://dc.lft.to/lastmile_qr_scan"}, "name": "767191dc630542761844136bfaf00c70", "is_reserved": 0}, {"is_disabled": 0, "fusion_lon": 0.0, "fusion_lat": 0.0, "lat": 38.922953666666665, "type": "electric_scooter", "lon": -77.04021416666667, "bike_id": "79639bdd275637f521978aa7c190dcd2", "rental_uris": {"android": "https://dc.lft.to/lastmile_qr_scan", "ios": "https://dc.lft.to/lastmile_qr_scan"}, "name": "79639bdd275637f521978aa7c190dcd2", "is_reserved": 0}, {"is_disabled": 0, "fusion_lon": 0.0, "fusion_lat": 0.0, "lat": 38.88762216666667, "type": "electric_scooter", "lon": -77.033844, "bike_id": "833dabbb1953a5dc8698059ea6230719", "rental_uris": {"android": "https://dc.lft.to/lastmile_qr_scan", "ios": "https://dc.lft.to/lastmile_qr_scan"}, "name": "833dabbb1953a5dc8698059ea6230719", "is_reserved": 0}, {"is_disabled": 0, "fusion_lon": 0.0, "fusion_lat": 0.0, "lat": 38.91862016666666, "type": "electric_scooter", "lon": -77.03511483333334, "bike_id": "b29d775e9ac7cae00d5ff6ace1c20466", "rental_uris": {"android": "https://dc.lft.to/lastmile_qr_scan", "ios": "https://dc.lft.to/lastmile_qr_scan"}, "name": "b29d775e9ac7cae00d5ff6ace1c20466", "is_reserved": 0}, {"is_disabled": 0, "fusion_lon": 0.0, "fusion_lat": 0.0, "lat": 38.8767705, "type": "electric_bike", "lon": -77.014504, "bike_id": "45c723067b897acc441de4aaacaa6b9c", "rental_uris": {"android": "https://dc.lft.to/lastmile_qr_scan", "ios": "https://dc.lft.to/lastmile_qr_scan"}, "name": "45c723067b897acc441de4aaacaa6b9c", "is_reserved": 0}, {"is_disabled": 0, "fusion_lon": 0.0, "fusion_lat": 0.0, "lat": 38.9190305, "type": "electric_scooter", "lon": -77.02758883333334, "bike_id": "03eae037492108dcd8bbaa5d414b1c76", "rental_uris": {"android": "https://dc.lft.to/lastmile_qr_scan", "ios": "https://dc.lft.to/lastmile_qr_scan"}, "name": "03eae037492108dcd8bbaa5d414b1c76", "is_reserved": 0}, {"is_disabled": 0, "fusion_lon": 0.0, "fusion_lat": 0.0, "lat": 38.918015833333335, "type": "electric_scooter", "lon": -77.035571, "bike_id": "d26f10efcf16fbe6dd15da291c289c2a", "rental_uris": {"android": "https://dc.lft.to/lastmile_qr_scan", "ios": "https://dc.lft.to/lastmile_qr_scan"}, "name": "d26f10efcf16fbe6dd15da291c289c2a", "is_reserved": 0}, {"is_disabled": 0, "fusion_lon": 0.0, "fusion_lat": 0.0, "lat": 38.90505616666667, "type": "electric_scooter", "lon": -77.029466, "bike_id": "d9d662d23837f69782abb03e23223b52", "rental_uris": {"android": "https://dc.lft.to/lastmile_qr_scan", "ios": "https://dc.lft.to/lastmile_qr_scan"}, "name": "d9d662d23837f69782abb03e23223b52", "is_reserved": 0}, {"is_disabled": 0, "fusion_lon": 0.0, "fusion_lat": 0.0, "lat": 38.92793666666667, "type": "electric_scooter", "lon": -77.02297483333334, "bike_id": "7cdcd797d07c891ef37e294f1b81a9bd", "rental_uris": {"android": "https://dc.lft.to/lastmile_qr_scan", "ios": "https://dc.lft.to/lastmile_qr_scan"}, "name": "7cdcd797d07c891ef37e294f1b81a9bd", "is_reserved": 0}, {"is_disabled": 0, "fusion_lon": 0.0, "fusion_lat": 0.0, "lat": 38.90526466666667, "type": "electric_scooter", "lon": -77.05166233333334, "bike_id": "3aee787875586584253a375bc482c4ad", "rental_uris": {"android": "https://dc.lft.to/lastmile_qr_scan", "ios": "https://dc.lft.to/lastmile_qr_scan"}, "name": "3aee787875586584253a375bc482c4ad", "is_reserved": 0}, {"is_disabled": 0, "fusion_lon": 0.0, "fusion_lat": 0.0, "lat": 38.956301833333335, "type": "electric_scooter", "lon": -77.02981883333334, "bike_id": "0d5512032680e50a820a189d91be2f27", "rental_uris": {"android": "https://dc.lft.to/lastmile_qr_scan", "ios": "https://dc.lft.to/lastmile_qr_scan"}, "name": "0d5512032680e50a820a189d91be2f27", "is_reserved": 0}, {"is_disabled": 0, "fusion_lon": 0.0, "fusion_lat": 0.0, "lat": 38.85976516666667, "type": "electric_scooter", "lon": -76.98415883333334, "bike_id": "e5c7cf823f6c5b8b8d64d22429f8bd37", "rental_uris": {"android": "https://dc.lft.to/lastmile_qr_scan", "ios": "https://dc.lft.to/lastmile_qr_scan"}, "name": "e5c7cf823f6c5b8b8d64d22429f8bd37", "is_reserved": 0}, {"is_disabled": 0, "fusion_lon": 0.0, "fusion_lat": 0.0, "lat": 38.881729166666666, "type": "electric_scooter", "lon": -77.00907283333333, "bike_id": "5703ad5f155ea8c311de12e795a15172", "rental_uris": {"android": "https://dc.lft.to/lastmile_qr_scan", "ios": "https://dc.lft.to/lastmile_qr_scan"}, "name": "5703ad5f155ea8c311de12e795a15172", "is_reserved": 0}, {"is_disabled": 0, "fusion_lon": 0.0, "fusion_lat": 0.0, "lat": 38.927346, "type": "electric_bike", "lon": -76.99367216666667, "bike_id": "be7f26fe7fb6756f931da447aed3e560", "rental_uris": {"android": "https://dc.lft.to/lastmile_qr_scan", "ios": "https://dc.lft.to/lastmile_qr_scan"}, "name": "be7f26fe7fb6756f931da447aed3e560", "is_reserved": 0}, {"is_disabled": 0, "fusion_lon": 0.0, "fusion_lat": 0.0, "lat": 38.85065216666667, "type": "electric_bike", "lon": -76.973351, "bike_id": "5cad9003246cddaf3e962819a1e2f560", "rental_uris": {"android": "https://dc.lft.to/lastmile_qr_scan", "ios": "https://dc.lft.to/lastmile_qr_scan"}, "name": "5cad9003246cddaf3e962819a1e2f560", "is_reserved": 0}, {"is_disabled": 0, "fusion_lon": 0.0, "fusion_lat": 0.0, "lat": 38.9096375, "type": "electric_scooter", "lon": -77.022847, "bike_id": "f5da911ff0596951289dff8e28000ec2", "rental_uris": {"android": "https://dc.lft.to/lastmile_qr_scan", "ios": "https://dc.lft.to/lastmile_qr_scan"}, "name": "f5da911ff0596951289dff8e28000ec2", "is_reserved": 0}, {"is_disabled": 0, "fusion_lon": 0.0, "fusion_lat": 0.0, "lat": 38.920309333333336, "type": "electric_scooter", "lon": -77.0388895, "bike_id": "b9d500a5ee8fa007f6614e172c36b2b0", "rental_uris": {"android": "https://dc.lft.to/lastmile_qr_scan", "ios": "https://dc.lft.to/lastmile_qr_scan"}, "name": "b9d500a5ee8fa007f6614e172c36b2b0", "is_reserved": 0}, {"is_disabled": 0, "fusion_lon": 0.0, "fusion_lat": 0.0, "lat": 38.907030666666664, "type": "electric_scooter", "lon": -77.02697533333334, "bike_id": "66c7789b1fd0e120d04cc79f8ea1a758", "rental_uris": {"android": "https://dc.lft.to/lastmile_qr_scan", "ios": "https://dc.lft.to/lastmile_qr_scan"}, "name": "66c7789b1fd0e120d04cc79f8ea1a758", "is_reserved": 0}, {"is_disabled": 0, "fusion_lon": 0.0, "fusion_lat": 0.0, "lat": 38.93102433333333, "type": "electric_scooter", "lon": -77.02461383333333, "bike_id": "8ee0f22945ef43fea5662d351f4e7dff", "rental_uris": {"android": "https://dc.lft.to/lastmile_qr_scan", "ios": "https://dc.lft.to/lastmile_qr_scan"}, "name": "8ee0f22945ef43fea5662d351f4e7dff", "is_reserved": 0}, {"is_disabled": 0, "fusion_lon": 0.0, "fusion_lat": 0.0, "lat": 38.920325166666665, "type": "electric_scooter", "lon": -77.02583383333334, "bike_id": "9ef51d639bbb7d904d0e1cb28672b0dc", "rental_uris": {"android": "https://dc.lft.to/lastmile_qr_scan", "ios": "https://dc.lft.to/lastmile_qr_scan"}, "name": "9ef51d639bbb7d904d0e1cb28672b0dc", "is_reserved": 0}, {"is_disabled": 0, "fusion_lon": 0.0, "fusion_lat": 0.0, "lat": 38.87933433333333, "type": "electric_scooter", "lon": -77.01351283333334, "bike_id": "a09f2cef92e890e63bc8a97a1d1e00c9", "rental_uris": {"android": "https://dc.lft.to/lastmile_qr_scan", "ios": "https://dc.lft.to/lastmile_qr_scan"}, "name": "a09f2cef92e890e63bc8a97a1d1e00c9", "is_reserved": 0}, {"is_disabled": 0, "fusion_lon": 0.0, "fusion_lat": 0.0, "lat": 38.88510866666667, "type": "electric_scooter", "lon": -76.9984975, "bike_id": "da4363bf081110412e80282198f73925", "rental_uris": {"android": "https://dc.lft.to/lastmile_qr_scan", "ios": "https://dc.lft.to/lastmile_qr_scan"}, "name": "da4363bf081110412e80282198f73925", "is_reserved": 0}, {"is_disabled": 0, "fusion_lon": 0.0, "fusion_lat": 0.0, "lat": 38.988274, "type": "electric_bike", "lon": -76.9875715, "bike_id": "da69ee04e02ed1a60b6cdec99f946c7c", "rental_uris": {"android": "https://dc.lft.to/lastmile_qr_scan", "ios": "https://dc.lft.to/lastmile_qr_scan"}, "name": "da69ee04e02ed1a60b6cdec99f946c7c", "is_reserved": 0}, {"is_disabled": 0, "fusion_lon": 0.0, "fusion_lat": 0.0, "lat": 38.91816, "type": "electric_scooter", "lon": -77.03632216666666, "bike_id": "35d5b3055ba023207440468ffea0d12e", "rental_uris": {"android": "https://dc.lft.to/lastmile_qr_scan", "ios": "https://dc.lft.to/lastmile_qr_scan"}, "name": "35d5b3055ba023207440468ffea0d12e", "is_reserved": 0}, {"is_disabled": 0, "fusion_lon": 0.0, "fusion_lat": 0.0, "lat": 38.9364185, "type": "electric_bike", "lon": -76.95459433333333, "bike_id": "5a2cc7162ed101e6c82eacd9e7d24042", "rental_uris": {"android": "https://dc.lft.to/lastmile_qr_scan", "ios": "https://dc.lft.to/lastmile_qr_scan"}, "name": "5a2cc7162ed101e6c82eacd9e7d24042", "is_reserved": 0}, {"is_disabled": 0, "fusion_lon": 0.0, "fusion_lat": 0.0, "lat": 38.91055866666667, "type": "electric_scooter", "lon": -77.05451416666666, "bike_id": "72964bfc78a73ca54e14e49bec2c6244", "rental_uris": {"android": "https://dc.lft.to/lastmile_qr_scan", "ios": "https://dc.lft.to/lastmile_qr_scan"}, "name": "72964bfc78a73ca54e14e49bec2c6244", "is_reserved": 0}, {"is_disabled": 0, "fusion_lon": 0.0, "fusion_lat": 0.0, "lat": 38.9047735, "type": "electric_scooter", "lon": -77.0357265, "bike_id": "629af6f9af6fed65e96fcb4c8591a387", "rental_uris": {"android": "https://dc.lft.to/lastmile_qr_scan", "ios": "https://dc.lft.to/lastmile_qr_scan"}, "name": "629af6f9af6fed65e96fcb4c8591a387", "is_reserved": 0}, {"is_disabled": 0, "fusion_lon": 0.0, "fusion_lat": 0.0, "lat": 38.9345765, "type": "electric_scooter", "lon": -77.03007566666666, "bike_id": "8cd85cf7dde47b4eab4c9d121f7a74f6", "rental_uris": {"android": "https://dc.lft.to/lastmile_qr_scan", "ios": "https://dc.lft.to/lastmile_qr_scan"}, "name": "8cd85cf7dde47b4eab4c9d121f7a74f6", "is_reserved": 0}, {"is_disabled": 0, "fusion_lon": 0.0, "fusion_lat": 0.0, "lat": 38.96282, "type": "electric_bike", "lon": -77.02870633333333, "bike_id": "179617311e3e3aedb1f1889939ce89fe", "rental_uris": {"android": "https://dc.lft.to/lastmile_qr_scan", "ios": "https://dc.lft.to/lastmile_qr_scan"}, "name": "179617311e3e3aedb1f1889939ce89fe", "is_reserved": 0}, {"is_disabled": 0, "fusion_lon": 0.0, "fusion_lat": 0.0, "lat": 38.901726833333335, "type": "electric_scooter", "lon": -77.02502666666666, "bike_id": "77375aa5efae1213caab65b158f499ee", "rental_uris": {"android": "https://dc.lft.to/lastmile_qr_scan", "ios": "https://dc.lft.to/lastmile_qr_scan"}, "name": "77375aa5efae1213caab65b158f499ee", "is_reserved": 0}, {"is_disabled": 0, "fusion_lon": 0.0, "fusion_lat": 0.0, "lat": 38.911898, "type": "electric_scooter", "lon": -77.04161783333333, "bike_id": "27fa24a3c9b3bb59f2e313fa25d2c7ef", "rental_uris": {"android": "https://dc.lft.to/lastmile_qr_scan", "ios": "https://dc.lft.to/lastmile_qr_scan"}, "name": "27fa24a3c9b3bb59f2e313fa25d2c7ef", "is_reserved": 0}, {"is_disabled": 0, "fusion_lon": 0.0, "fusion_lat": 0.0, "lat": 38.905769666666664, "type": "electric_scooter", "lon": -77.02200766666667, "bike_id": "ca1b0e4b484c03d89e97a4f7615dd51f", "rental_uris": {"android": "https://dc.lft.to/lastmile_qr_scan", "ios": "https://dc.lft.to/lastmile_qr_scan"}, "name": "ca1b0e4b484c03d89e97a4f7615dd51f", "is_reserved": 0}, {"is_disabled": 0, "fusion_lon": 0.0, "fusion_lat": 0.0, "lat": 38.8239125, "type": "electric_scooter", "lon": -77.00700166666667, "bike_id": "ccd59f684dd7e5621a44be01a38720de", "rental_uris": {"android": "https://dc.lft.to/lastmile_qr_scan", "ios": "https://dc.lft.to/lastmile_qr_scan"}, "name": "ccd59f684dd7e5621a44be01a38720de", "is_reserved": 0}, {"is_disabled": 0, "fusion_lon": 0.0, "fusion_lat": 0.0, "lat": 38.92156966666667, "type": "electric_scooter", "lon": -77.03361466666667, "bike_id": "4d1542ae294af05f21528e0ba4c3a225", "rental_uris": {"android": "https://dc.lft.to/lastmile_qr_scan", "ios": "https://dc.lft.to/lastmile_qr_scan"}, "name": "4d1542ae294af05f21528e0ba4c3a225", "is_reserved": 0}, {"is_disabled": 0, "fusion_lon": 0.0, "fusion_lat": 0.0, "lat": 38.9003395, "type": "electric_scooter", "lon": -77.0019285, "bike_id": "3c6c78ccf32d554450f1b43137011794", "rental_uris": {"android": "https://dc.lft.to/lastmile_qr_scan", "ios": "https://dc.lft.to/lastmile_qr_scan"}, "name": "3c6c78ccf32d554450f1b43137011794", "is_reserved": 0}, {"is_disabled": 0, "fusion_lon": 0.0, "fusion_lat": 0.0, "lat": 38.89002116666666, "type": "electric_scooter", "lon": -77.04897066666666, "bike_id": "26a624a447f116e3ef08ee37d117fdb3", "rental_uris": {"android": "https://dc.lft.to/lastmile_qr_scan", "ios": "https://dc.lft.to/lastmile_qr_scan"}, "name": "26a624a447f116e3ef08ee37d117fdb3", "is_reserved": 0}, {"is_disabled": 0, "fusion_lon": 0.0, "fusion_lat": 0.0, "lat": 38.897448833333335, "type": "electric_scooter", "lon": -77.03040616666667, "bike_id": "de5a44054abb12bc394a726c4347f24f", "rental_uris": {"android": "https://dc.lft.to/lastmile_qr_scan", "ios": "https://dc.lft.to/lastmile_qr_scan"}, "name": "de5a44054abb12bc394a726c4347f24f", "is_reserved": 0}, {"is_disabled": 0, "fusion_lon": 0.0, "fusion_lat": 0.0, "lat": 38.945776, "type": "electric_bike", "lon": -76.98779416666666, "bike_id": "ae7dac250277e99d3b95355613ef53a9", "rental_uris": {"android": "https://dc.lft.to/lastmile_qr_scan", "ios": "https://dc.lft.to/lastmile_qr_scan"}, "name": "ae7dac250277e99d3b95355613ef53a9", "is_reserved": 0}, {"is_disabled": 0, "fusion_lon": 0.0, "fusion_lat": 0.0, "lat": 38.9289575, "type": "electric_scooter", "lon": -76.984601, "bike_id": "b0e049413a17eff1575be944b7a01ba7", "rental_uris": {"android": "https://dc.lft.to/lastmile_qr_scan", "ios": "https://dc.lft.to/lastmile_qr_scan"}, "name": "b0e049413a17eff1575be944b7a01ba7", "is_reserved": 0}, {"is_disabled": 0, "fusion_lon": 0.0, "fusion_lat": 0.0, "lat": 38.902901666666665, "type": "electric_scooter", "lon": -77.04269416666666, "bike_id": "a3eec259d14bc32bc752b590d045e22d", "rental_uris": {"android": "https://dc.lft.to/lastmile_qr_scan", "ios": "https://dc.lft.to/lastmile_qr_scan"}, "name": "a3eec259d14bc32bc752b590d045e22d", "is_reserved": 0}, {"is_disabled": 0, "fusion_lon": 0.0, "fusion_lat": 0.0, "lat": 38.9363765, "type": "electric_scooter", "lon": -77.036627, "bike_id": "f718dc00e9add378740b410b4d9a23bc", "rental_uris": {"android": "https://dc.lft.to/lastmile_qr_scan", "ios": "https://dc.lft.to/lastmile_qr_scan"}, "name": "f718dc00e9add378740b410b4d9a23bc", "is_reserved": 0}, {"is_disabled": 0, "fusion_lon": 0.0, "fusion_lat": 0.0, "lat": 38.924474833333335, "type": "electric_bike", "lon": -76.96838283333334, "bike_id": "c06830c43e87a96826c71b0086824b7f", "rental_uris": {"android": "https://dc.lft.to/lastmile_qr_scan", "ios": "https://dc.lft.to/lastmile_qr_scan"}, "name": "c06830c43e87a96826c71b0086824b7f", "is_reserved": 0}, {"is_disabled": 0, "fusion_lon": 0.0, "fusion_lat": 0.0, "lat": 38.8937225, "type": "electric_scooter", "lon": -76.95000216666666, "bike_id": "d7f0b5950c1bb246be58d436b4ac880a", "rental_uris": {"android": "https://dc.lft.to/lastmile_qr_scan", "ios": "https://dc.lft.to/lastmile_qr_scan"}, "name": "d7f0b5950c1bb246be58d436b4ac880a", "is_reserved": 0}, {"is_disabled": 0, "fusion_lon": 0.0, "fusion_lat": 0.0, "lat": 39.105652166666665, "type": "electric_bike", "lon": -77.1526845, "bike_id": "5fcae2440d830b5fe6fcbdbd23e01644", "rental_uris": {"android": "https://dc.lft.to/lastmile_qr_scan", "ios": "https://dc.lft.to/lastmile_qr_scan"}, "name": "5fcae2440d830b5fe6fcbdbd23e01644", "is_reserved": 0}, {"is_disabled": 0, "fusion_lon": 0.0, "fusion_lat": 0.0, "lat": 38.919801, "type": "electric_scooter", "lon": -77.0002735, "bike_id": "00489cc0a3c649488b2915287e5bf402", "rental_uris": {"android": "https://dc.lft.to/lastmile_qr_scan", "ios": "https://dc.lft.to/lastmile_qr_scan"}, "name": "00489cc0a3c649488b2915287e5bf402", "is_reserved": 0}, {"is_disabled": 0, "fusion_lon": 0.0, "fusion_lat": 0.0, "lat": 38.92276616666667, "type": "electric_bike", "lon": -76.99428183333333, "bike_id": "ddbbfc695220d0463ec635a7c23f081b", "rental_uris": {"android": "https://dc.lft.to/lastmile_qr_scan", "ios": "https://dc.lft.to/lastmile_qr_scan"}, "name": "ddbbfc695220d0463ec635a7c23f081b", "is_reserved": 0}, {"is_disabled": 0, "fusion_lon": 0.0, "fusion_lat": 0.0, "lat": 38.929127666666666, "type": "electric_scooter", "lon": -77.02345416666667, "bike_id": "a08be913cc7859061b819a1e127cb589", "rental_uris": {"android": "https://dc.lft.to/lastmile_qr_scan", "ios": "https://dc.lft.to/lastmile_qr_scan"}, "name": "a08be913cc7859061b819a1e127cb589", "is_reserved": 0}, {"is_disabled": 0, "fusion_lon": 0.0, "fusion_lat": 0.0, "lat": 38.9285585, "type": "electric_bike", "lon": -77.02075916666666, "bike_id": "6dcc85bcf49d1d4eacb2cc68a1d77fa6", "rental_uris": {"android": "https://dc.lft.to/lastmile_qr_scan", "ios": "https://dc.lft.to/lastmile_qr_scan"}, "name": "6dcc85bcf49d1d4eacb2cc68a1d77fa6", "is_reserved": 0}, {"is_disabled": 0, "fusion_lon": 0.0, "fusion_lat": 0.0, "lat": 38.90472533333333, "type": "electric_bike", "lon": -76.929459, "bike_id": "79677fd6f5f69c1670adffe0d0632461", "rental_uris": {"android": "https://dc.lft.to/lastmile_qr_scan", "ios": "https://dc.lft.to/lastmile_qr_scan"}, "name": "79677fd6f5f69c1670adffe0d0632461", "is_reserved": 0}, {"is_disabled": 0, "fusion_lon": 0.0, "fusion_lat": 0.0, "lat": 38.90577666666667, "type": "electric_scooter", "lon": -77.0559645, "bike_id": "8894755d713b6837c26a8f9f029be50b", "rental_uris": {"android": "https://dc.lft.to/lastmile_qr_scan", "ios": "https://dc.lft.to/lastmile_qr_scan"}, "name": "8894755d713b6837c26a8f9f029be50b", "is_reserved": 0}, {"is_disabled": 0, "fusion_lon": 0.0, "fusion_lat": 0.0, "lat": 38.904438166666665, "type": "electric_scooter", "lon": -77.02403666666666, "bike_id": "d546c9b0645f40a158cd70e922cd4094", "rental_uris": {"android": "https://dc.lft.to/lastmile_qr_scan", "ios": "https://dc.lft.to/lastmile_qr_scan"}, "name": "d546c9b0645f40a158cd70e922cd4094", "is_reserved": 0}, {"is_disabled": 0, "fusion_lon": 0.0, "fusion_lat": 0.0, "lat": 38.94332833333333, "type": "electric_bike", "lon": -77.01480183333334, "bike_id": "5ff548f4deacdaef319b8290e99e82f8", "rental_uris": {"android": "https://dc.lft.to/lastmile_qr_scan", "ios": "https://dc.lft.to/lastmile_qr_scan"}, "name": "5ff548f4deacdaef319b8290e99e82f8", "is_reserved": 0}, {"is_disabled": 0, "fusion_lon": 0.0, "fusion_lat": 0.0, "lat": 38.91418783333334, "type": "electric_scooter", "lon": -77.02973016666667, "bike_id": "adb8e809029cf1508fdeef6412484ab6", "rental_uris": {"android": "https://dc.lft.to/lastmile_qr_scan", "ios": "https://dc.lft.to/lastmile_qr_scan"}, "name": "adb8e809029cf1508fdeef6412484ab6", "is_reserved": 0}, {"is_disabled": 0, "fusion_lon": 0.0, "fusion_lat": 0.0, "lat": 38.91120983333333, "type": "electric_scooter", "lon": -77.0421095, "bike_id": "7237469ab373d432cc6a061e1c4d00ce", "rental_uris": {"android": "https://dc.lft.to/lastmile_qr_scan", "ios": "https://dc.lft.to/lastmile_qr_scan"}, "name": "7237469ab373d432cc6a061e1c4d00ce", "is_reserved": 0}, {"is_disabled": 0, "fusion_lon": 0.0, "fusion_lat": 0.0, "lat": 38.91778133333333, "type": "electric_scooter", "lon": -77.0415045, "bike_id": "3fc79a0ab6b79554b19bc1c249213060", "rental_uris": {"android": "https://dc.lft.to/lastmile_qr_scan", "ios": "https://dc.lft.to/lastmile_qr_scan"}, "name": "3fc79a0ab6b79554b19bc1c249213060", "is_reserved": 0}, {"is_disabled": 0, "fusion_lon": 0.0, "fusion_lat": 0.0, "lat": 38.899968333333334, "type": "electric_scooter", "lon": -77.03341583333334, "bike_id": "610a345e6bdd23415b35f1ff8115a464", "rental_uris": {"android": "https://dc.lft.to/lastmile_qr_scan", "ios": "https://dc.lft.to/lastmile_qr_scan"}, "name": "610a345e6bdd23415b35f1ff8115a464", "is_reserved": 0}, {"is_disabled": 0, "fusion_lon": 0.0, "fusion_lat": 0.0, "lat": 38.921274333333336, "type": "electric_scooter", "lon": -77.04456433333333, "bike_id": "013c0a8320672dc23e0673c3d492d564", "rental_uris": {"android": "https://dc.lft.to/lastmile_qr_scan", "ios": "https://dc.lft.to/lastmile_qr_scan"}, "name": "013c0a8320672dc23e0673c3d492d564", "is_reserved": 0}, {"is_disabled": 0, "fusion_lon": 0.0, "fusion_lat": 0.0, "lat": 38.921225666666665, "type": "electric_scooter", "lon": -77.0439145, "bike_id": "ff8abdbe3c2139b5c078c441e3bf0833", "rental_uris": {"android": "https://dc.lft.to/lastmile_qr_scan", "ios": "https://dc.lft.to/lastmile_qr_scan"}, "name": "ff8abdbe3c2139b5c078c441e3bf0833", "is_reserved": 0}, {"is_disabled": 0, "fusion_lon": 0.0, "fusion_lat": 0.0, "lat": 38.89231366666667, "type": "electric_scooter", "lon": -77.043673, "bike_id": "ec712015b9d2b5c89adfb65384eeb74c", "rental_uris": {"android": "https://dc.lft.to/lastmile_qr_scan", "ios": "https://dc.lft.to/lastmile_qr_scan"}, "name": "ec712015b9d2b5c89adfb65384eeb74c", "is_reserved": 0}, {"is_disabled": 0, "fusion_lon": 0.0, "fusion_lat": 0.0, "lat": 38.852818166666665, "type": "electric_bike", "lon": -76.98155483333333, "bike_id": "05c45ba7106b2a5697bafbc200ddb4e8", "rental_uris": {"android": "https://dc.lft.to/lastmile_qr_scan", "ios": "https://dc.lft.to/lastmile_qr_scan"}, "name": "05c45ba7106b2a5697bafbc200ddb4e8", "is_reserved": 0}, {"is_disabled": 0, "fusion_lon": 0.0, "fusion_lat": 0.0, "lat": 38.8578255, "type": "electric_bike", "lon": -76.9876605, "bike_id": "451ae7da0d48db3a044fe0d55f4029b5", "rental_uris": {"android": "https://dc.lft.to/lastmile_qr_scan", "ios": "https://dc.lft.to/lastmile_qr_scan"}, "name": "451ae7da0d48db3a044fe0d55f4029b5", "is_reserved": 0}, {"is_disabled": 0, "fusion_lon": 0.0, "fusion_lat": 0.0, "lat": 38.897535500000004, "type": "electric_scooter", "lon": -77.027616, "bike_id": "4dfe5fc036720c2520f90626773e6f23", "rental_uris": {"android": "https://dc.lft.to/lastmile_qr_scan", "ios": "https://dc.lft.to/lastmile_qr_scan"}, "name": "4dfe5fc036720c2520f90626773e6f23", "is_reserved": 0}, {"is_disabled": 0, "fusion_lon": 0.0, "fusion_lat": 0.0, "lat": 38.8734945, "type": "electric_scooter", "lon": -77.0173825, "bike_id": "cf4e7b5d868db01b06fe68660d101c83", "rental_uris": {"android": "https://dc.lft.to/lastmile_qr_scan", "ios": "https://dc.lft.to/lastmile_qr_scan"}, "name": "cf4e7b5d868db01b06fe68660d101c83", "is_reserved": 0}, {"is_disabled": 0, "fusion_lon": 0.0, "fusion_lat": 0.0, "lat": 38.908520333333335, "type": "electric_scooter", "lon": -77.06081416666666, "bike_id": "56f57868236bcbaa68414bdd1ea29abf", "rental_uris": {"android": "https://dc.lft.to/lastmile_qr_scan", "ios": "https://dc.lft.to/lastmile_qr_scan"}, "name": "56f57868236bcbaa68414bdd1ea29abf", "is_reserved": 0}, {"is_disabled": 0, "fusion_lon": 0.0, "fusion_lat": 0.0, "lat": 38.897400166666664, "type": "electric_scooter", "lon": -77.051539, "bike_id": "4cff8eac6545f264fcc3eeb1cb062621", "rental_uris": {"android": "https://dc.lft.to/lastmile_qr_scan", "ios": "https://dc.lft.to/lastmile_qr_scan"}, "name": "4cff8eac6545f264fcc3eeb1cb062621", "is_reserved": 0}, {"is_disabled": 0, "fusion_lon": 0.0, "fusion_lat": 0.0, "lat": 38.945278, "type": "electric_bike", "lon": -77.02657266666667, "bike_id": "b0b679732be373c9fd2d65917e297f49", "rental_uris": {"android": "https://dc.lft.to/lastmile_qr_scan", "ios": "https://dc.lft.to/lastmile_qr_scan"}, "name": "b0b679732be373c9fd2d65917e297f49", "is_reserved": 0}, {"is_disabled": 0, "fusion_lon": 0.0, "fusion_lat": 0.0, "lat": 38.936331833333334, "type": "electric_scooter", "lon": -77.02702283333333, "bike_id": "6c017cafa980f7248d09f5d5aa35c8cf", "rental_uris": {"android": "https://dc.lft.to/lastmile_qr_scan", "ios": "https://dc.lft.to/lastmile_qr_scan"}, "name": "6c017cafa980f7248d09f5d5aa35c8cf", "is_reserved": 0}, {"is_disabled": 0, "fusion_lon": 0.0, "fusion_lat": 0.0, "lat": 38.92152033333333, "type": "electric_scooter", "lon": -77.03508833333333, "bike_id": "77148cf3507e14d551670afe3df80d94", "rental_uris": {"android": "https://dc.lft.to/lastmile_qr_scan", "ios": "https://dc.lft.to/lastmile_qr_scan"}, "name": "77148cf3507e14d551670afe3df80d94", "is_reserved": 0}, {"is_disabled": 0, "fusion_lon": 0.0, "fusion_lat": 0.0, "lat": 38.935282, "type": "electric_scooter", "lon": -77.06633633333334, "bike_id": "606be87d28b3dae89d14ea8edb9a34bd", "rental_uris": {"android": "https://dc.lft.to/lastmile_qr_scan", "ios": "https://dc.lft.to/lastmile_qr_scan"}, "name": "606be87d28b3dae89d14ea8edb9a34bd", "is_reserved": 0}, {"is_disabled": 0, "fusion_lon": 0.0, "fusion_lat": 0.0, "lat": 38.910366333333336, "type": "electric_scooter", "lon": -77.042785, "bike_id": "1f9a6fc38924c29c489b3a06b4eb5228", "rental_uris": {"android": "https://dc.lft.to/lastmile_qr_scan", "ios": "https://dc.lft.to/lastmile_qr_scan"}, "name": "1f9a6fc38924c29c489b3a06b4eb5228", "is_reserved": 0}, {"is_disabled": 0, "fusion_lon": 0.0, "fusion_lat": 0.0, "lat": 38.91610433333334, "type": "electric_scooter", "lon": -77.0460535, "bike_id": "6b87e1e609a13f57c8354393e383e16b", "rental_uris": {"android": "https://dc.lft.to/lastmile_qr_scan", "ios": "https://dc.lft.to/lastmile_qr_scan"}, "name": "6b87e1e609a13f57c8354393e383e16b", "is_reserved": 0}, {"is_disabled": 0, "fusion_lon": 0.0, "fusion_lat": 0.0, "lat": 38.91786033333333, "type": "electric_scooter", "lon": -77.0430555, "bike_id": "798fbf0b13612355c26ac4f92119638d", "rental_uris": {"android": "https://dc.lft.to/lastmile_qr_scan", "ios": "https://dc.lft.to/lastmile_qr_scan"}, "name": "798fbf0b13612355c26ac4f92119638d", "is_reserved": 0}, {"is_disabled": 0, "fusion_lon": 0.0, "fusion_lat": 0.0, "lat": 38.90698116666667, "type": "electric_scooter", "lon": -76.98692133333333, "bike_id": "7dae3257802b9f2d94b6af1093614752", "rental_uris": {"android": "https://dc.lft.to/lastmile_qr_scan", "ios": "https://dc.lft.to/lastmile_qr_scan"}, "name": "7dae3257802b9f2d94b6af1093614752", "is_reserved": 0}, {"is_disabled": 0, "fusion_lon": 0.0, "fusion_lat": 0.0, "lat": 38.90731866666667, "type": "electric_scooter", "lon": -77.03210566666667, "bike_id": "293dfed5c8c0e313c4cb826c0638cbd3", "rental_uris": {"android": "https://dc.lft.to/lastmile_qr_scan", "ios": "https://dc.lft.to/lastmile_qr_scan"}, "name": "293dfed5c8c0e313c4cb826c0638cbd3", "is_reserved": 0}, {"is_disabled": 0, "fusion_lon": 0.0, "fusion_lat": 0.0, "lat": 38.9190525, "type": "electric_scooter", "lon": -77.027569, "bike_id": "9d819ea42a083b33e6c653851be6bec6", "rental_uris": {"android": "https://dc.lft.to/lastmile_qr_scan", "ios": "https://dc.lft.to/lastmile_qr_scan"}, "name": "9d819ea42a083b33e6c653851be6bec6", "is_reserved": 0}, {"is_disabled": 0, "fusion_lon": 0.0, "fusion_lat": 0.0, "lat": 38.91996016666667, "type": "electric_scooter", "lon": -77.03969533333333, "bike_id": "729541d973f371a81365ee21dfae49b5", "rental_uris": {"android": "https://dc.lft.to/lastmile_qr_scan", "ios": "https://dc.lft.to/lastmile_qr_scan"}, "name": "729541d973f371a81365ee21dfae49b5", "is_reserved": 0}, {"is_disabled": 0, "fusion_lon": 0.0, "fusion_lat": 0.0, "lat": 38.94623, "type": "electric_scooter", "lon": -77.0362485, "bike_id": "3310a0fce861f7fca773d3fbf2d54105", "rental_uris": {"android": "https://dc.lft.to/lastmile_qr_scan", "ios": "https://dc.lft.to/lastmile_qr_scan"}, "name": "3310a0fce861f7fca773d3fbf2d54105", "is_reserved": 0}, {"is_disabled": 0, "fusion_lon": 0.0, "fusion_lat": 0.0, "lat": 38.934347, "type": "electric_scooter", "lon": -77.0259245, "bike_id": "ef6b99cb0b402ceebf96b8612706ffa3", "rental_uris": {"android": "https://dc.lft.to/lastmile_qr_scan", "ios": "https://dc.lft.to/lastmile_qr_scan"}, "name": "ef6b99cb0b402ceebf96b8612706ffa3", "is_reserved": 0}, {"is_disabled": 0, "fusion_lon": 0.0, "fusion_lat": 0.0, "lat": 38.9131135, "type": "electric_scooter", "lon": -77.0085275, "bike_id": "4e8658fcb3efab1707d9ba5b83643c5d", "rental_uris": {"android": "https://dc.lft.to/lastmile_qr_scan", "ios": "https://dc.lft.to/lastmile_qr_scan"}, "name": "4e8658fcb3efab1707d9ba5b83643c5d", "is_reserved": 0}, {"is_disabled": 0, "fusion_lon": 0.0, "fusion_lat": 0.0, "lat": 38.95175, "type": "electric_scooter", "lon": -77.03334583333333, "bike_id": "6de10096caa0f55fcaff7fbd068a3934", "rental_uris": {"android": "https://dc.lft.to/lastmile_qr_scan", "ios": "https://dc.lft.to/lastmile_qr_scan"}, "name": "6de10096caa0f55fcaff7fbd068a3934", "is_reserved": 0}, {"is_disabled": 0, "fusion_lon": 0.0, "fusion_lat": 0.0, "lat": 38.91274816666667, "type": "electric_scooter", "lon": -77.03364083333334, "bike_id": "34443fa933dbbb0f3cf5bea9dc09b892", "rental_uris": {"android": "https://dc.lft.to/lastmile_qr_scan", "ios": "https://dc.lft.to/lastmile_qr_scan"}, "name": "34443fa933dbbb0f3cf5bea9dc09b892", "is_reserved": 0}, {"is_disabled": 0, "fusion_lon": 0.0, "fusion_lat": 0.0, "lat": 38.929617, "type": "electric_scooter", "lon": -77.0420325, "bike_id": "4935fb0d1cb07fc2b5a4966a45517ee6", "rental_uris": {"android": "https://dc.lft.to/lastmile_qr_scan", "ios": "https://dc.lft.to/lastmile_qr_scan"}, "name": "4935fb0d1cb07fc2b5a4966a45517ee6", "is_reserved": 0}, {"is_disabled": 0, "fusion_lon": 0.0, "fusion_lat": 0.0, "lat": 38.966198166666665, "type": "electric_scooter", "lon": -77.03530933333333, "bike_id": "76dd4835c4442537b53b9d8263f418ef", "rental_uris": {"android": "https://dc.lft.to/lastmile_qr_scan", "ios": "https://dc.lft.to/lastmile_qr_scan"}, "name": "76dd4835c4442537b53b9d8263f418ef", "is_reserved": 0}, {"is_disabled": 0, "fusion_lon": 0.0, "fusion_lat": 0.0, "lat": 38.92249233333333, "type": "electric_scooter", "lon": -77.0308295, "bike_id": "f604e05b175c0ddb185ce52cf782d521", "rental_uris": {"android": "https://dc.lft.to/lastmile_qr_scan", "ios": "https://dc.lft.to/lastmile_qr_scan"}, "name": "f604e05b175c0ddb185ce52cf782d521", "is_reserved": 0}, {"is_disabled": 0, "fusion_lon": 0.0, "fusion_lat": 0.0, "lat": 38.90382816666666, "type": "electric_scooter", "lon": -77.032118, "bike_id": "f3d5666d79cf7621db8de56a4ea20002", "rental_uris": {"android": "https://dc.lft.to/lastmile_qr_scan", "ios": "https://dc.lft.to/lastmile_qr_scan"}, "name": "f3d5666d79cf7621db8de56a4ea20002", "is_reserved": 0}, {"is_disabled": 0, "fusion_lon": 0.0, "fusion_lat": 0.0, "lat": 38.918229833333335, "type": "electric_scooter", "lon": -77.032548, "bike_id": "6022917eb3737060ae62ed2db2dd16d6", "rental_uris": {"android": "https://dc.lft.to/lastmile_qr_scan", "ios": "https://dc.lft.to/lastmile_qr_scan"}, "name": "6022917eb3737060ae62ed2db2dd16d6", "is_reserved": 0}, {"is_disabled": 0, "fusion_lon": 0.0, "fusion_lat": 0.0, "lat": 38.9650515, "type": "electric_scooter", "lon": -77.02481733333333, "bike_id": "e21b02680db0ac2ab72240db09445e57", "rental_uris": {"android": "https://dc.lft.to/lastmile_qr_scan", "ios": "https://dc.lft.to/lastmile_qr_scan"}, "name": "e21b02680db0ac2ab72240db09445e57", "is_reserved": 0}, {"is_disabled": 0, "fusion_lon": 0.0, "fusion_lat": 0.0, "lat": 38.95396933333333, "type": "electric_scooter", "lon": -77.02756633333334, "bike_id": "019be6c904b085f16b1c8034f4e5a5f6", "rental_uris": {"android": "https://dc.lft.to/lastmile_qr_scan", "ios": "https://dc.lft.to/lastmile_qr_scan"}, "name": "019be6c904b085f16b1c8034f4e5a5f6", "is_reserved": 0}, {"is_disabled": 0, "fusion_lon": 0.0, "fusion_lat": 0.0, "lat": 38.89223766666667, "type": "electric_scooter", "lon": -77.0333845, "bike_id": "e181b26b0b92d0ab0b84f373697cb3eb", "rental_uris": {"android": "https://dc.lft.to/lastmile_qr_scan", "ios": "https://dc.lft.to/lastmile_qr_scan"}, "name": "e181b26b0b92d0ab0b84f373697cb3eb", "is_reserved": 0}, {"is_disabled": 0, "fusion_lon": 0.0, "fusion_lat": 0.0, "lat": 38.85838, "type": "electric_bike", "lon": -76.99284466666667, "bike_id": "3d40f85250542ba2a4cf000ebddbdd08", "rental_uris": {"android": "https://dc.lft.to/lastmile_qr_scan", "ios": "https://dc.lft.to/lastmile_qr_scan"}, "name": "3d40f85250542ba2a4cf000ebddbdd08", "is_reserved": 0}, {"is_disabled": 0, "fusion_lon": 0.0, "fusion_lat": 0.0, "lat": 38.937699, "type": "electric_scooter", "lon": -77.03088633333333, "bike_id": "9e68c19d8960e4efb420c13f3bb035cc", "rental_uris": {"android": "https://dc.lft.to/lastmile_qr_scan", "ios": "https://dc.lft.to/lastmile_qr_scan"}, "name": "9e68c19d8960e4efb420c13f3bb035cc", "is_reserved": 0}, {"is_disabled": 0, "fusion_lon": 0.0, "fusion_lat": 0.0, "lat": 38.929914333333336, "type": "electric_scooter", "lon": -77.0781265, "bike_id": "458e1757363a111bebf571452e8ddefd", "rental_uris": {"android": "https://dc.lft.to/lastmile_qr_scan", "ios": "https://dc.lft.to/lastmile_qr_scan"}, "name": "458e1757363a111bebf571452e8ddefd", "is_reserved": 0}, {"is_disabled": 0, "fusion_lon": 0.0, "fusion_lat": 0.0, "lat": 38.9241445, "type": "electric_scooter", "lon": -77.04166733333334, "bike_id": "1d7b0522c58692c0e16f460b42dfed4f", "rental_uris": {"android": "https://dc.lft.to/lastmile_qr_scan", "ios": "https://dc.lft.to/lastmile_qr_scan"}, "name": "1d7b0522c58692c0e16f460b42dfed4f", "is_reserved": 0}, {"is_disabled": 0, "fusion_lon": 0.0, "fusion_lat": 0.0, "lat": 38.87978733333333, "type": "electric_bike", "lon": -76.9159785, "bike_id": "95999454d7b77036b21d95841c144f0d", "rental_uris": {"android": "https://dc.lft.to/lastmile_qr_scan", "ios": "https://dc.lft.to/lastmile_qr_scan"}, "name": "95999454d7b77036b21d95841c144f0d", "is_reserved": 0}, {"is_disabled": 0, "fusion_lon": 0.0, "fusion_lat": 0.0, "lat": 38.907329, "type": "electric_scooter", "lon": -77.03825233333333, "bike_id": "49bb1198a823b6b0c5453a9f035d4bb7", "rental_uris": {"android": "https://dc.lft.to/lastmile_qr_scan", "ios": "https://dc.lft.to/lastmile_qr_scan"}, "name": "49bb1198a823b6b0c5453a9f035d4bb7", "is_reserved": 0}, {"is_disabled": 0, "fusion_lon": 0.0, "fusion_lat": 0.0, "lat": 38.96649766666667, "type": "electric_bike", "lon": -76.93025733333333, "bike_id": "7646044a01eac06142666d311ed1811a", "rental_uris": {"android": "https://dc.lft.to/lastmile_qr_scan", "ios": "https://dc.lft.to/lastmile_qr_scan"}, "name": "7646044a01eac06142666d311ed1811a", "is_reserved": 0}, {"is_disabled": 0, "fusion_lon": 0.0, "fusion_lat": 0.0, "lat": 38.90834666666667, "type": "electric_scooter", "lon": -77.002362, "bike_id": "a29a9533b75404baebccfe7e4a645e2e", "rental_uris": {"android": "https://dc.lft.to/lastmile_qr_scan", "ios": "https://dc.lft.to/lastmile_qr_scan"}, "name": "a29a9533b75404baebccfe7e4a645e2e", "is_reserved": 0}, {"is_disabled": 0, "fusion_lon": 0.0, "fusion_lat": 0.0, "lat": 38.911728, "type": "electric_scooter", "lon": -77.004306, "bike_id": "af590a76b5c0f94417c69f5d452528bb", "rental_uris": {"android": "https://dc.lft.to/lastmile_qr_scan", "ios": "https://dc.lft.to/lastmile_qr_scan"}, "name": "af590a76b5c0f94417c69f5d452528bb", "is_reserved": 0}, {"is_disabled": 0, "fusion_lon": 0.0, "fusion_lat": 0.0, "lat": 38.9036925, "type": "electric_scooter", "lon": -77.0503535, "bike_id": "6d78ec09a8f22578f084cffed5c21d0a", "rental_uris": {"android": "https://dc.lft.to/lastmile_qr_scan", "ios": "https://dc.lft.to/lastmile_qr_scan"}, "name": "6d78ec09a8f22578f084cffed5c21d0a", "is_reserved": 0}, {"is_disabled": 0, "fusion_lon": 0.0, "fusion_lat": 0.0, "lat": 38.916236, "type": "electric_scooter", "lon": -77.04597266666667, "bike_id": "40c356bb9792fd3b7c50c5a8058c6ab4", "rental_uris": {"android": "https://dc.lft.to/lastmile_qr_scan", "ios": "https://dc.lft.to/lastmile_qr_scan"}, "name": "40c356bb9792fd3b7c50c5a8058c6ab4", "is_reserved": 0}, {"is_disabled": 0, "fusion_lon": 0.0, "fusion_lat": 0.0, "lat": 38.902681333333334, "type": "electric_scooter", "lon": -77.03437233333334, "bike_id": "0ce0a85a5678a4677dcf18eb3f32ed6e", "rental_uris": {"android": "https://dc.lft.to/lastmile_qr_scan", "ios": "https://dc.lft.to/lastmile_qr_scan"}, "name": "0ce0a85a5678a4677dcf18eb3f32ed6e", "is_reserved": 0}, {"is_disabled": 0, "fusion_lon": 0.0, "fusion_lat": 0.0, "lat": 38.89739816666667, "type": "electric_scooter", "lon": -77.04810183333333, "bike_id": "6d7c24f69466468847d3472c9e5161a7", "rental_uris": {"android": "https://dc.lft.to/lastmile_qr_scan", "ios": "https://dc.lft.to/lastmile_qr_scan"}, "name": "6d7c24f69466468847d3472c9e5161a7", "is_reserved": 0}, {"is_disabled": 0, "fusion_lon": 0.0, "fusion_lat": 0.0, "lat": 38.919017833333335, "type": "electric_scooter", "lon": -77.023952, "bike_id": "b77ba7e0817adb137b1e1b55ee40c3f2", "rental_uris": {"android": "https://dc.lft.to/lastmile_qr_scan", "ios": "https://dc.lft.to/lastmile_qr_scan"}, "name": "b77ba7e0817adb137b1e1b55ee40c3f2", "is_reserved": 0}, {"is_disabled": 0, "fusion_lon": 0.0, "fusion_lat": 0.0, "lat": 38.9162915, "type": "electric_bike", "lon": -77.01362166666667, "bike_id": "dc1c0e88ab76784d77cd5c8b3c765ab5", "rental_uris": {"android": "https://dc.lft.to/lastmile_qr_scan", "ios": "https://dc.lft.to/lastmile_qr_scan"}, "name": "dc1c0e88ab76784d77cd5c8b3c765ab5", "is_reserved": 0}, {"is_disabled": 0, "fusion_lon": 0.0, "fusion_lat": 0.0, "lat": 38.880843166666665, "type": "electric_scooter", "lon": -77.01667866666666, "bike_id": "0d330fd4b95ab5224dba287ec7656187", "rental_uris": {"android": "https://dc.lft.to/lastmile_qr_scan", "ios": "https://dc.lft.to/lastmile_qr_scan"}, "name": "0d330fd4b95ab5224dba287ec7656187", "is_reserved": 0}, {"is_disabled": 0, "fusion_lon": 0.0, "fusion_lat": 0.0, "lat": 38.873104, "type": "electric_bike", "lon": -76.971071, "bike_id": "3265f860349db5c34db3bedc668934a0", "rental_uris": {"android": "https://dc.lft.to/lastmile_qr_scan", "ios": "https://dc.lft.to/lastmile_qr_scan"}, "name": "3265f860349db5c34db3bedc668934a0", "is_reserved": 0}, {"is_disabled": 0, "fusion_lon": 0.0, "fusion_lat": 0.0, "lat": 38.95373433333334, "type": "electric_scooter", "lon": -77.02555033333333, "bike_id": "61be00a7c533bb2970d5000059c26892", "rental_uris": {"android": "https://dc.lft.to/lastmile_qr_scan", "ios": "https://dc.lft.to/lastmile_qr_scan"}, "name": "61be00a7c533bb2970d5000059c26892", "is_reserved": 0}, {"is_disabled": 0, "fusion_lon": 0.0, "fusion_lat": 0.0, "lat": 38.925092, "type": "electric_scooter", "lon": -77.04090383333333, "bike_id": "70813d54cc0dbacae1beed956e8bf9a4", "rental_uris": {"android": "https://dc.lft.to/lastmile_qr_scan", "ios": "https://dc.lft.to/lastmile_qr_scan"}, "name": "70813d54cc0dbacae1beed956e8bf9a4", "is_reserved": 0}, {"is_disabled": 0, "fusion_lon": 0.0, "fusion_lat": 0.0, "lat": 38.895140166666664, "type": "electric_bike", "lon": -76.94947083333334, "bike_id": "cbd136cf639d8052c31843405a84a1c6", "rental_uris": {"android": "https://dc.lft.to/lastmile_qr_scan", "ios": "https://dc.lft.to/lastmile_qr_scan"}, "name": "cbd136cf639d8052c31843405a84a1c6", "is_reserved": 0}, {"is_disabled": 0, "fusion_lon": 0.0, "fusion_lat": 0.0, "lat": 38.863349, "type": "electric_bike", "lon": -76.98723516666666, "bike_id": "afb55d7853982128a4b822b25a028145", "rental_uris": {"android": "https://dc.lft.to/lastmile_qr_scan", "ios": "https://dc.lft.to/lastmile_qr_scan"}, "name": "afb55d7853982128a4b822b25a028145", "is_reserved": 0}, {"is_disabled": 0, "fusion_lon": 0.0, "fusion_lat": 0.0, "lat": 38.88582066666667, "type": "electric_scooter", "lon": -77.0310995, "bike_id": "60368e1ae58be84d43b17603033dcb5f", "rental_uris": {"android": "https://dc.lft.to/lastmile_qr_scan", "ios": "https://dc.lft.to/lastmile_qr_scan"}, "name": "60368e1ae58be84d43b17603033dcb5f", "is_reserved": 0}, {"is_disabled": 0, "fusion_lon": 0.0, "fusion_lat": 0.0, "lat": 38.932299, "type": "electric_scooter", "lon": -77.02028416666667, "bike_id": "0b2e522ba4ca5388a7364a7f19883385", "rental_uris": {"android": "https://dc.lft.to/lastmile_qr_scan", "ios": "https://dc.lft.to/lastmile_qr_scan"}, "name": "0b2e522ba4ca5388a7364a7f19883385", "is_reserved": 0}, {"is_disabled": 0, "fusion_lon": 0.0, "fusion_lat": 0.0, "lat": 38.900680666666666, "type": "electric_scooter", "lon": -77.05344566666666, "bike_id": "0ed81f749040c5fc0fe18d424d85ba7b", "rental_uris": {"android": "https://dc.lft.to/lastmile_qr_scan", "ios": "https://dc.lft.to/lastmile_qr_scan"}, "name": "0ed81f749040c5fc0fe18d424d85ba7b", "is_reserved": 0}, {"is_disabled": 0, "fusion_lon": 0.0, "fusion_lat": 0.0, "lat": 38.92263033333333, "type": "electric_scooter", "lon": -77.0415225, "bike_id": "2e08c6c5560cd3856fbbbaf250a08c8d", "rental_uris": {"android": "https://dc.lft.to/lastmile_qr_scan", "ios": "https://dc.lft.to/lastmile_qr_scan"}, "name": "2e08c6c5560cd3856fbbbaf250a08c8d", "is_reserved": 0}, {"is_disabled": 0, "fusion_lon": 0.0, "fusion_lat": 0.0, "lat": 38.900615, "type": "electric_scooter", "lon": -76.93479383333333, "bike_id": "18ac05446a4f0e07917cd94e3964d50f", "rental_uris": {"android": "https://dc.lft.to/lastmile_qr_scan", "ios": "https://dc.lft.to/lastmile_qr_scan"}, "name": "18ac05446a4f0e07917cd94e3964d50f", "is_reserved": 0}, {"is_disabled": 0, "fusion_lon": 0.0, "fusion_lat": 0.0, "lat": 38.91956066666667, "type": "electric_scooter", "lon": -77.0007585, "bike_id": "b36ea04881caef48c91edaaa1e47f7b7", "rental_uris": {"android": "https://dc.lft.to/lastmile_qr_scan", "ios": "https://dc.lft.to/lastmile_qr_scan"}, "name": "b36ea04881caef48c91edaaa1e47f7b7", "is_reserved": 0}, {"is_disabled": 0, "fusion_lon": 0.0, "fusion_lat": 0.0, "lat": 38.90687466666667, "type": "electric_bike", "lon": -76.9519855, "bike_id": "f0b0e611eea312dc4a1598d27f90ca13", "rental_uris": {"android": "https://dc.lft.to/lastmile_qr_scan", "ios": "https://dc.lft.to/lastmile_qr_scan"}, "name": "f0b0e611eea312dc4a1598d27f90ca13", "is_reserved": 0}, {"is_disabled": 0, "fusion_lon": 0.0, "fusion_lat": 0.0, "lat": 38.90715183333333, "type": "electric_scooter", "lon": -77.02981816666667, "bike_id": "ef201487729135d0d6931901be283a8b", "rental_uris": {"android": "https://dc.lft.to/lastmile_qr_scan", "ios": "https://dc.lft.to/lastmile_qr_scan"}, "name": "ef201487729135d0d6931901be283a8b", "is_reserved": 0}, {"is_disabled": 0, "fusion_lon": 0.0, "fusion_lat": 0.0, "lat": 38.930331, "type": "electric_scooter", "lon": -77.01957416666667, "bike_id": "0caa1718ed5e3914360ccc577b7e5773", "rental_uris": {"android": "https://dc.lft.to/lastmile_qr_scan", "ios": "https://dc.lft.to/lastmile_qr_scan"}, "name": "0caa1718ed5e3914360ccc577b7e5773", "is_reserved": 0}, {"is_disabled": 0, "fusion_lon": 0.0, "fusion_lat": 0.0, "lat": 38.91956233333333, "type": "electric_scooter", "lon": -77.01657233333333, "bike_id": "2b0b807a611f35ef14c7301d95fbccad", "rental_uris": {"android": "https://dc.lft.to/lastmile_qr_scan", "ios": "https://dc.lft.to/lastmile_qr_scan"}, "name": "2b0b807a611f35ef14c7301d95fbccad", "is_reserved": 0}, {"is_disabled": 0, "fusion_lon": 0.0, "fusion_lat": 0.0, "lat": 38.90972816666667, "type": "electric_scooter", "lon": -77.03867166666667, "bike_id": "03c04ca4d78296605d25b5f78f5d4a79", "rental_uris": {"android": "https://dc.lft.to/lastmile_qr_scan", "ios": "https://dc.lft.to/lastmile_qr_scan"}, "name": "03c04ca4d78296605d25b5f78f5d4a79", "is_reserved": 0}, {"is_disabled": 0, "fusion_lon": 0.0, "fusion_lat": 0.0, "lat": 38.91284383333333, "type": "electric_scooter", "lon": -77.03867833333334, "bike_id": "656e69998669370471ada5ba2d82df5c", "rental_uris": {"android": "https://dc.lft.to/lastmile_qr_scan", "ios": "https://dc.lft.to/lastmile_qr_scan"}, "name": "656e69998669370471ada5ba2d82df5c", "is_reserved": 0}, {"is_disabled": 0, "fusion_lon": 0.0, "fusion_lat": 0.0, "lat": 38.992529833333336, "type": "electric_bike", "lon": -77.049972, "bike_id": "ab0ce1ba77544a5ab548b93497e73331", "rental_uris": {"android": "https://dc.lft.to/lastmile_qr_scan", "ios": "https://dc.lft.to/lastmile_qr_scan"}, "name": "ab0ce1ba77544a5ab548b93497e73331", "is_reserved": 0}, {"is_disabled": 0, "fusion_lon": 0.0, "fusion_lat": 0.0, "lat": 38.89746016666667, "type": "electric_scooter", "lon": -77.02686916666667, "bike_id": "ca595cf1e9e8959a4f1c5333a1cb7167", "rental_uris": {"android": "https://dc.lft.to/lastmile_qr_scan", "ios": "https://dc.lft.to/lastmile_qr_scan"}, "name": "ca595cf1e9e8959a4f1c5333a1cb7167", "is_reserved": 0}, {"is_disabled": 0, "fusion_lon": 0.0, "fusion_lat": 0.0, "lat": 38.9147165, "type": "electric_bike", "lon": -77.00926366666667, "bike_id": "d554c4a2c79cc9234ccf0efaa14363de", "rental_uris": {"android": "https://dc.lft.to/lastmile_qr_scan", "ios": "https://dc.lft.to/lastmile_qr_scan"}, "name": "d554c4a2c79cc9234ccf0efaa14363de", "is_reserved": 0}, {"is_disabled": 0, "fusion_lon": 0.0, "fusion_lat": 0.0, "lat": 38.91759533333333, "type": "electric_scooter", "lon": -77.03591133333333, "bike_id": "36861ec09127e9211302faf621a2699e", "rental_uris": {"android": "https://dc.lft.to/lastmile_qr_scan", "ios": "https://dc.lft.to/lastmile_qr_scan"}, "name": "36861ec09127e9211302faf621a2699e", "is_reserved": 0}, {"is_disabled": 0, "fusion_lon": 0.0, "fusion_lat": 0.0, "lat": 38.918813166666666, "type": "electric_scooter", "lon": -77.01598183333333, "bike_id": "22d6d41a62485cc778a8fc2de6b67305", "rental_uris": {"android": "https://dc.lft.to/lastmile_qr_scan", "ios": "https://dc.lft.to/lastmile_qr_scan"}, "name": "22d6d41a62485cc778a8fc2de6b67305", "is_reserved": 0}, {"is_disabled": 0, "fusion_lon": 0.0, "fusion_lat": 0.0, "lat": 38.950807166666664, "type": "electric_scooter", "lon": -77.02877883333333, "bike_id": "c8f21f71dacb13d966f6f65854fe1ead", "rental_uris": {"android": "https://dc.lft.to/lastmile_qr_scan", "ios": "https://dc.lft.to/lastmile_qr_scan"}, "name": "c8f21f71dacb13d966f6f65854fe1ead", "is_reserved": 0}, {"is_disabled": 0, "fusion_lon": 0.0, "fusion_lat": 0.0, "lat": 38.9205535, "type": "electric_scooter", "lon": -76.99870816666666, "bike_id": "809dc6199784c16c722e2de0e1c43ec7", "rental_uris": {"android": "https://dc.lft.to/lastmile_qr_scan", "ios": "https://dc.lft.to/lastmile_qr_scan"}, "name": "809dc6199784c16c722e2de0e1c43ec7", "is_reserved": 0}, {"is_disabled": 0, "fusion_lon": 0.0, "fusion_lat": 0.0, "lat": 38.88374066666667, "type": "electric_scooter", "lon": -76.92646933333333, "bike_id": "3d8cbaa4624b4660caca657633401fc6", "rental_uris": {"android": "https://dc.lft.to/lastmile_qr_scan", "ios": "https://dc.lft.to/lastmile_qr_scan"}, "name": "3d8cbaa4624b4660caca657633401fc6", "is_reserved": 0}, {"is_disabled": 0, "fusion_lon": 0.0, "fusion_lat": 0.0, "lat": 38.93189383333333, "type": "electric_bike", "lon": -77.2293825, "bike_id": "b394c13a124c57630d9a6fccb91a4664", "rental_uris": {"android": "https://dc.lft.to/lastmile_qr_scan", "ios": "https://dc.lft.to/lastmile_qr_scan"}, "name": "b394c13a124c57630d9a6fccb91a4664", "is_reserved": 0}, {"is_disabled": 0, "fusion_lon": 0.0, "fusion_lat": 0.0, "lat": 38.9191275, "type": "electric_scooter", "lon": -77.02406583333334, "bike_id": "29b4f10193636a004d619d3c399c9bf8", "rental_uris": {"android": "https://dc.lft.to/lastmile_qr_scan", "ios": "https://dc.lft.to/lastmile_qr_scan"}, "name": "29b4f10193636a004d619d3c399c9bf8", "is_reserved": 0}, {"is_disabled": 0, "fusion_lon": 0.0, "fusion_lat": 0.0, "lat": 38.856497, "type": "electric_bike", "lon": -77.08531466666666, "bike_id": "74791261be362e4df2a9a18c12aa7b8d", "rental_uris": {"android": "https://dc.lft.to/lastmile_qr_scan", "ios": "https://dc.lft.to/lastmile_qr_scan"}, "name": "74791261be362e4df2a9a18c12aa7b8d", "is_reserved": 0}, {"is_disabled": 0, "fusion_lon": 0.0, "fusion_lat": 0.0, "lat": 38.849334166666665, "type": "electric_bike", "lon": -77.1001225, "bike_id": "a4022e38f6ca2b5f969e449b8acf5ab1", "rental_uris": {"android": "https://dc.lft.to/lastmile_qr_scan", "ios": "https://dc.lft.to/lastmile_qr_scan"}, "name": "a4022e38f6ca2b5f969e449b8acf5ab1", "is_reserved": 0}, {"is_disabled": 0, "fusion_lon": 0.0, "fusion_lat": 0.0, "lat": 38.9170215, "type": "electric_scooter", "lon": -77.01176116666667, "bike_id": "de5a0d1adb3aa02c689c47e463dc9131", "rental_uris": {"android": "https://dc.lft.to/lastmile_qr_scan", "ios": "https://dc.lft.to/lastmile_qr_scan"}, "name": "de5a0d1adb3aa02c689c47e463dc9131", "is_reserved": 0}, {"is_disabled": 0, "fusion_lon": 0.0, "fusion_lat": 0.0, "lat": 38.9370005, "type": "electric_scooter", "lon": -77.05598, "bike_id": "e7083b8f5b3b979ba540519f5632b81a", "rental_uris": {"android": "https://dc.lft.to/lastmile_qr_scan", "ios": "https://dc.lft.to/lastmile_qr_scan"}, "name": "e7083b8f5b3b979ba540519f5632b81a", "is_reserved": 0}, {"is_disabled": 0, "fusion_lon": 0.0, "fusion_lat": 0.0, "lat": 38.903917, "type": "electric_scooter", "lon": -77.05367666666666, "bike_id": "b3b19dda6df8f208d31e4a7f2555cd34", "rental_uris": {"android": "https://dc.lft.to/lastmile_qr_scan", "ios": "https://dc.lft.to/lastmile_qr_scan"}, "name": "b3b19dda6df8f208d31e4a7f2555cd34", "is_reserved": 0}, {"is_disabled": 0, "fusion_lon": 0.0, "fusion_lat": 0.0, "lat": 38.886135, "type": "electric_scooter", "lon": -77.00575333333333, "bike_id": "6f9e3e266be0ee32a16899882601f731", "rental_uris": {"android": "https://dc.lft.to/lastmile_qr_scan", "ios": "https://dc.lft.to/lastmile_qr_scan"}, "name": "6f9e3e266be0ee32a16899882601f731", "is_reserved": 0}, {"is_disabled": 0, "fusion_lon": 0.0, "fusion_lat": 0.0, "lat": 38.91314283333333, "type": "electric_scooter", "lon": -77.01436033333333, "bike_id": "e648fd9f914a3a374e2d969c86265f1c", "rental_uris": {"android": "https://dc.lft.to/lastmile_qr_scan", "ios": "https://dc.lft.to/lastmile_qr_scan"}, "name": "e648fd9f914a3a374e2d969c86265f1c", "is_reserved": 0}, {"is_disabled": 0, "fusion_lon": 0.0, "fusion_lat": 0.0, "lat": 38.87057266666667, "type": "electric_scooter", "lon": -76.98090966666666, "bike_id": "976cddd1930ff00cf1c14284c9d01a5a", "rental_uris": {"android": "https://dc.lft.to/lastmile_qr_scan", "ios": "https://dc.lft.to/lastmile_qr_scan"}, "name": "976cddd1930ff00cf1c14284c9d01a5a", "is_reserved": 0}, {"is_disabled": 0, "fusion_lon": 0.0, "fusion_lat": 0.0, "lat": 38.95639383333334, "type": "electric_scooter", "lon": -77.09099766666667, "bike_id": "6bae9f92515c0c82fc2d0a21c50b8fd0", "rental_uris": {"android": "https://dc.lft.to/lastmile_qr_scan", "ios": "https://dc.lft.to/lastmile_qr_scan"}, "name": "6bae9f92515c0c82fc2d0a21c50b8fd0", "is_reserved": 0}, {"is_disabled": 0, "fusion_lon": 0.0, "fusion_lat": 0.0, "lat": 38.91806833333333, "type": "electric_scooter", "lon": -77.040311, "bike_id": "df7d8d3ad4b0c51731cd36a51e02f5f7", "rental_uris": {"android": "https://dc.lft.to/lastmile_qr_scan", "ios": "https://dc.lft.to/lastmile_qr_scan"}, "name": "df7d8d3ad4b0c51731cd36a51e02f5f7", "is_reserved": 0}, {"is_disabled": 0, "fusion_lon": 0.0, "fusion_lat": 0.0, "lat": 38.907528, "type": "electric_scooter", "lon": -77.000992, "bike_id": "0756ec8f7c140450b0930d00fd0a32e6", "rental_uris": {"android": "https://dc.lft.to/lastmile_qr_scan", "ios": "https://dc.lft.to/lastmile_qr_scan"}, "name": "0756ec8f7c140450b0930d00fd0a32e6", "is_reserved": 0}, {"is_disabled": 0, "fusion_lon": 0.0, "fusion_lat": 0.0, "lat": 38.88689216666667, "type": "electric_scooter", "lon": -76.98800433333334, "bike_id": "e051c8dbee74256dece40d04d3cb1ccd", "rental_uris": {"android": "https://dc.lft.to/lastmile_qr_scan", "ios": "https://dc.lft.to/lastmile_qr_scan"}, "name": "e051c8dbee74256dece40d04d3cb1ccd", "is_reserved": 0}, {"is_disabled": 0, "fusion_lon": 0.0, "fusion_lat": 0.0, "lat": 38.930792333333336, "type": "electric_scooter", "lon": -77.05815766666667, "bike_id": "cb9cc489969865450bece9c4ade00f58", "rental_uris": {"android": "https://dc.lft.to/lastmile_qr_scan", "ios": "https://dc.lft.to/lastmile_qr_scan"}, "name": "cb9cc489969865450bece9c4ade00f58", "is_reserved": 0}, {"is_disabled": 0, "fusion_lon": 0.0, "fusion_lat": 0.0, "lat": 38.90021566666667, "type": "electric_scooter", "lon": -77.03995383333333, "bike_id": "9242b8f070dc1e56a1293c54f47182ee", "rental_uris": {"android": "https://dc.lft.to/lastmile_qr_scan", "ios": "https://dc.lft.to/lastmile_qr_scan"}, "name": "9242b8f070dc1e56a1293c54f47182ee", "is_reserved": 0}, {"is_disabled": 0, "fusion_lon": 0.0, "fusion_lat": 0.0, "lat": 38.905818333333336, "type": "electric_scooter", "lon": -77.04663866666667, "bike_id": "0ec9c85c6c7c8ed0f8d3f241268ade20", "rental_uris": {"android": "https://dc.lft.to/lastmile_qr_scan", "ios": "https://dc.lft.to/lastmile_qr_scan"}, "name": "0ec9c85c6c7c8ed0f8d3f241268ade20", "is_reserved": 0}, {"is_disabled": 0, "fusion_lon": 0.0, "fusion_lat": 0.0, "lat": 38.906673833333336, "type": "electric_scooter", "lon": -77.0271395, "bike_id": "037ed9759c2fceeb6f140f120cca991e", "rental_uris": {"android": "https://dc.lft.to/lastmile_qr_scan", "ios": "https://dc.lft.to/lastmile_qr_scan"}, "name": "037ed9759c2fceeb6f140f120cca991e", "is_reserved": 0}, {"is_disabled": 0, "fusion_lon": 0.0, "fusion_lat": 0.0, "lat": 38.880487, "type": "electric_scooter", "lon": -77.0037325, "bike_id": "cfaca7e0ae9204100a8ccee966c0b69f", "rental_uris": {"android": "https://dc.lft.to/lastmile_qr_scan", "ios": "https://dc.lft.to/lastmile_qr_scan"}, "name": "cfaca7e0ae9204100a8ccee966c0b69f", "is_reserved": 0}, {"is_disabled": 0, "fusion_lon": 0.0, "fusion_lat": 0.0, "lat": 38.94919933333333, "type": "electric_scooter", "lon": -77.02298816666666, "bike_id": "24f6129882ba37178efe9777558c7220", "rental_uris": {"android": "https://dc.lft.to/lastmile_qr_scan", "ios": "https://dc.lft.to/lastmile_qr_scan"}, "name": "24f6129882ba37178efe9777558c7220", "is_reserved": 0}, {"is_disabled": 0, "fusion_lon": 0.0, "fusion_lat": 0.0, "lat": 38.94984683333333, "type": "electric_scooter", "lon": -77.027037, "bike_id": "7ad20de294ffcc4367deebaeeb952b10", "rental_uris": {"android": "https://dc.lft.to/lastmile_qr_scan", "ios": "https://dc.lft.to/lastmile_qr_scan"}, "name": "7ad20de294ffcc4367deebaeeb952b10", "is_reserved": 0}, {"is_disabled": 0, "fusion_lon": 0.0, "fusion_lat": 0.0, "lat": 38.926614, "type": "electric_scooter", "lon": -77.02308516666666, "bike_id": "4ea821fe96c31448408c889f586f3e1f", "rental_uris": {"android": "https://dc.lft.to/lastmile_qr_scan", "ios": "https://dc.lft.to/lastmile_qr_scan"}, "name": "4ea821fe96c31448408c889f586f3e1f", "is_reserved": 0}, {"is_disabled": 0, "fusion_lon": 0.0, "fusion_lat": 0.0, "lat": 38.831547, "type": "electric_bike", "lon": -76.99696883333333, "bike_id": "497dfbc1a134d6c06a98f8594d9ed022", "rental_uris": {"android": "https://dc.lft.to/lastmile_qr_scan", "ios": "https://dc.lft.to/lastmile_qr_scan"}, "name": "497dfbc1a134d6c06a98f8594d9ed022", "is_reserved": 0}, {"is_disabled": 0, "fusion_lon": 0.0, "fusion_lat": 0.0, "lat": 38.942494833333335, "type": "electric_scooter", "lon": -77.02170983333333, "bike_id": "a30dd0f495b4ff879779e99b3c03a078", "rental_uris": {"android": "https://dc.lft.to/lastmile_qr_scan", "ios": "https://dc.lft.to/lastmile_qr_scan"}, "name": "a30dd0f495b4ff879779e99b3c03a078", "is_reserved": 0}, {"is_disabled": 0, "fusion_lon": 0.0, "fusion_lat": 0.0, "lat": 38.98817783333333, "type": "electric_bike", "lon": -77.02648933333333, "bike_id": "f9f47e81d1950842a1e5f57a67998184", "rental_uris": {"android": "https://dc.lft.to/lastmile_qr_scan", "ios": "https://dc.lft.to/lastmile_qr_scan"}, "name": "f9f47e81d1950842a1e5f57a67998184", "is_reserved": 0}, {"is_disabled": 0, "fusion_lon": 0.0, "fusion_lat": 0.0, "lat": 38.89794766666667, "type": "electric_scooter", "lon": -76.93052833333333, "bike_id": "520a134b45aad6f131ac92d3c4c36949", "rental_uris": {"android": "https://dc.lft.to/lastmile_qr_scan", "ios": "https://dc.lft.to/lastmile_qr_scan"}, "name": "520a134b45aad6f131ac92d3c4c36949", "is_reserved": 0}, {"is_disabled": 0, "fusion_lon": 0.0, "fusion_lat": 0.0, "lat": 38.867349, "type": "electric_scooter", "lon": -76.9885285, "bike_id": "1db837cf1ab7fef418c2c2d77e19ac89", "rental_uris": {"android": "https://dc.lft.to/lastmile_qr_scan", "ios": "https://dc.lft.to/lastmile_qr_scan"}, "name": "1db837cf1ab7fef418c2c2d77e19ac89", "is_reserved": 0}, {"is_disabled": 0, "fusion_lon": 0.0, "fusion_lat": 0.0, "lat": 38.91810316666667, "type": "electric_scooter", "lon": -77.03182266666667, "bike_id": "e0009a2794e656900c75149ffeecdde3", "rental_uris": {"android": "https://dc.lft.to/lastmile_qr_scan", "ios": "https://dc.lft.to/lastmile_qr_scan"}, "name": "e0009a2794e656900c75149ffeecdde3", "is_reserved": 0}, {"is_disabled": 0, "fusion_lon": 0.0, "fusion_lat": 0.0, "lat": 38.85498166666667, "type": "electric_bike", "lon": -77.12037383333333, "bike_id": "1ea92358a39e6f5901f3252df14619e6", "rental_uris": {"android": "https://dc.lft.to/lastmile_qr_scan", "ios": "https://dc.lft.to/lastmile_qr_scan"}, "name": "1ea92358a39e6f5901f3252df14619e6", "is_reserved": 0}, {"is_disabled": 0, "fusion_lon": 0.0, "fusion_lat": 0.0, "lat": 38.91539483333333, "type": "electric_scooter", "lon": -77.03800283333334, "bike_id": "90755f02f779f3e8391927c9facd3a84", "rental_uris": {"android": "https://dc.lft.to/lastmile_qr_scan", "ios": "https://dc.lft.to/lastmile_qr_scan"}, "name": "90755f02f779f3e8391927c9facd3a84", "is_reserved": 0}, {"is_disabled": 0, "fusion_lon": 0.0, "fusion_lat": 0.0, "lat": 38.922285333333335, "type": "electric_scooter", "lon": -77.03316166666667, "bike_id": "742de099d55f0dda4cda117e80f9f717", "rental_uris": {"android": "https://dc.lft.to/lastmile_qr_scan", "ios": "https://dc.lft.to/lastmile_qr_scan"}, "name": "742de099d55f0dda4cda117e80f9f717", "is_reserved": 0}, {"is_disabled": 0, "fusion_lon": 0.0, "fusion_lat": 0.0, "lat": 38.936569666666664, "type": "electric_scooter", "lon": -77.059296, "bike_id": "481af51d1f3084a80a771879cd700011", "rental_uris": {"android": "https://dc.lft.to/lastmile_qr_scan", "ios": "https://dc.lft.to/lastmile_qr_scan"}, "name": "481af51d1f3084a80a771879cd700011", "is_reserved": 0}, {"is_disabled": 0, "fusion_lon": 0.0, "fusion_lat": 0.0, "lat": 38.92211783333333, "type": "electric_scooter", "lon": -77.04242666666667, "bike_id": "d08ab0243313a3699c9426b35d221d61", "rental_uris": {"android": "https://dc.lft.to/lastmile_qr_scan", "ios": "https://dc.lft.to/lastmile_qr_scan"}, "name": "d08ab0243313a3699c9426b35d221d61", "is_reserved": 0}, {"is_disabled": 0, "fusion_lon": 0.0, "fusion_lat": 0.0, "lat": 38.88398133333333, "type": "electric_scooter", "lon": -77.02405383333334, "bike_id": "ce50a29391d136457412fd35319a58c0", "rental_uris": {"android": "https://dc.lft.to/lastmile_qr_scan", "ios": "https://dc.lft.to/lastmile_qr_scan"}, "name": "ce50a29391d136457412fd35319a58c0", "is_reserved": 0}, {"is_disabled": 0, "fusion_lon": 0.0, "fusion_lat": 0.0, "lat": 38.88738766666667, "type": "electric_scooter", "lon": -77.01539383333333, "bike_id": "c9fd66a46a85b10320df584d8c9aebc7", "rental_uris": {"android": "https://dc.lft.to/lastmile_qr_scan", "ios": "https://dc.lft.to/lastmile_qr_scan"}, "name": "c9fd66a46a85b10320df584d8c9aebc7", "is_reserved": 0}, {"is_disabled": 0, "fusion_lon": 0.0, "fusion_lat": 0.0, "lat": 38.90747916666667, "type": "electric_scooter", "lon": -77.00765466666667, "bike_id": "5e9fd91cc730d6aaf15e48bc8ba9c2ba", "rental_uris": {"android": "https://dc.lft.to/lastmile_qr_scan", "ios": "https://dc.lft.to/lastmile_qr_scan"}, "name": "5e9fd91cc730d6aaf15e48bc8ba9c2ba", "is_reserved": 0}, {"is_disabled": 0, "fusion_lon": 0.0, "fusion_lat": 0.0, "lat": 38.897452666666666, "type": "electric_scooter", "lon": -77.02191616666667, "bike_id": "c17c9362b1fd44a286da551773fb08cc", "rental_uris": {"android": "https://dc.lft.to/lastmile_qr_scan", "ios": "https://dc.lft.to/lastmile_qr_scan"}, "name": "c17c9362b1fd44a286da551773fb08cc", "is_reserved": 0}, {"is_disabled": 0, "fusion_lon": 0.0, "fusion_lat": 0.0, "lat": 38.912579, "type": "electric_scooter", "lon": -77.01066216666666, "bike_id": "1a1accc247fd987a1ecba516137b79d2", "rental_uris": {"android": "https://dc.lft.to/lastmile_qr_scan", "ios": "https://dc.lft.to/lastmile_qr_scan"}, "name": "1a1accc247fd987a1ecba516137b79d2", "is_reserved": 0}, {"is_disabled": 0, "fusion_lon": 0.0, "fusion_lat": 0.0, "lat": 38.919502333333334, "type": "electric_scooter", "lon": -77.013932, "bike_id": "1fb29d17a62551842103f04bda0de60e", "rental_uris": {"android": "https://dc.lft.to/lastmile_qr_scan", "ios": "https://dc.lft.to/lastmile_qr_scan"}, "name": "1fb29d17a62551842103f04bda0de60e", "is_reserved": 0}, {"is_disabled": 0, "fusion_lon": 0.0, "fusion_lat": 0.0, "lat": 38.80295233333333, "type": "electric_bike", "lon": -77.03987233333334, "bike_id": "10abe4eabdf5ee2b4eea7b6cfcbf6a09", "rental_uris": {"android": "https://dc.lft.to/lastmile_qr_scan", "ios": "https://dc.lft.to/lastmile_qr_scan"}, "name": "10abe4eabdf5ee2b4eea7b6cfcbf6a09", "is_reserved": 0}, {"is_disabled": 0, "fusion_lon": 0.0, "fusion_lat": 0.0, "lat": 38.909499333333336, "type": "electric_scooter", "lon": -77.0218935, "bike_id": "75ac10e4cd21d164f95014ee47e14af6", "rental_uris": {"android": "https://dc.lft.to/lastmile_qr_scan", "ios": "https://dc.lft.to/lastmile_qr_scan"}, "name": "75ac10e4cd21d164f95014ee47e14af6", "is_reserved": 0}, {"is_disabled": 0, "fusion_lon": 0.0, "fusion_lat": 0.0, "lat": 38.934805833333336, "type": "electric_scooter", "lon": -77.02414733333333, "bike_id": "833f9126525485bbddfa903497d0733b", "rental_uris": {"android": "https://dc.lft.to/lastmile_qr_scan", "ios": "https://dc.lft.to/lastmile_qr_scan"}, "name": "833f9126525485bbddfa903497d0733b", "is_reserved": 0}, {"is_disabled": 0, "fusion_lon": 0.0, "fusion_lat": 0.0, "lat": 38.917131166666664, "type": "electric_scooter", "lon": -77.02882083333333, "bike_id": "1d106830705d6727dc1725f2a0593db0", "rental_uris": {"android": "https://dc.lft.to/lastmile_qr_scan", "ios": "https://dc.lft.to/lastmile_qr_scan"}, "name": "1d106830705d6727dc1725f2a0593db0", "is_reserved": 0}, {"is_disabled": 0, "fusion_lon": 0.0, "fusion_lat": 0.0, "lat": 38.91739783333333, "type": "electric_scooter", "lon": -77.008825, "bike_id": "933d2bb4d462452adcedbf8d829482a8", "rental_uris": {"android": "https://dc.lft.to/lastmile_qr_scan", "ios": "https://dc.lft.to/lastmile_qr_scan"}, "name": "933d2bb4d462452adcedbf8d829482a8", "is_reserved": 0}, {"is_disabled": 0, "fusion_lon": 0.0, "fusion_lat": 0.0, "lat": 38.93035416666667, "type": "electric_bike", "lon": -77.08277416666667, "bike_id": "6f5a7155f85a014d1bf69c98443b8858", "rental_uris": {"android": "https://dc.lft.to/lastmile_qr_scan", "ios": "https://dc.lft.to/lastmile_qr_scan"}, "name": "6f5a7155f85a014d1bf69c98443b8858", "is_reserved": 0}, {"is_disabled": 0, "fusion_lon": 0.0, "fusion_lat": 0.0, "lat": 38.936099666666664, "type": "electric_scooter", "lon": -77.055867, "bike_id": "264f03e8bc9be55cb9c9c28c2f18ed19", "rental_uris": {"android": "https://dc.lft.to/lastmile_qr_scan", "ios": "https://dc.lft.to/lastmile_qr_scan"}, "name": "264f03e8bc9be55cb9c9c28c2f18ed19", "is_reserved": 0}, {"is_disabled": 0, "fusion_lon": 0.0, "fusion_lat": 0.0, "lat": 38.90803916666667, "type": "electric_scooter", "lon": -77.03401933333333, "bike_id": "6280eca5ab04572e7cda9a6823e18f6d", "rental_uris": {"android": "https://dc.lft.to/lastmile_qr_scan", "ios": "https://dc.lft.to/lastmile_qr_scan"}, "name": "6280eca5ab04572e7cda9a6823e18f6d", "is_reserved": 0}, {"is_disabled": 0, "fusion_lon": 0.0, "fusion_lat": 0.0, "lat": 38.932134, "type": "electric_scooter", "lon": -77.03662566666667, "bike_id": "f1502f2ec29701d0468f53bb959191b0", "rental_uris": {"android": "https://dc.lft.to/lastmile_qr_scan", "ios": "https://dc.lft.to/lastmile_qr_scan"}, "name": "f1502f2ec29701d0468f53bb959191b0", "is_reserved": 0}, {"is_disabled": 0, "fusion_lon": 0.0, "fusion_lat": 0.0, "lat": 38.874977, "type": "electric_scooter", "lon": -76.99797316666667, "bike_id": "a1ee6b0ae7e92d2dffef95d204f0ce39", "rental_uris": {"android": "https://dc.lft.to/lastmile_qr_scan", "ios": "https://dc.lft.to/lastmile_qr_scan"}, "name": "a1ee6b0ae7e92d2dffef95d204f0ce39", "is_reserved": 0}, {"is_disabled": 0, "fusion_lon": 0.0, "fusion_lat": 0.0, "lat": 38.9053265, "type": "electric_scooter", "lon": -77.048801, "bike_id": "189cefdca8c7d052ccf9582608b3a586", "rental_uris": {"android": "https://dc.lft.to/lastmile_qr_scan", "ios": "https://dc.lft.to/lastmile_qr_scan"}, "name": "189cefdca8c7d052ccf9582608b3a586", "is_reserved": 0}, {"is_disabled": 0, "fusion_lon": 0.0, "fusion_lat": 0.0, "lat": 38.90866883333333, "type": "electric_scooter", "lon": -77.04429466666667, "bike_id": "e83b014fccb2cb1cdc9fcd5d67158718", "rental_uris": {"android": "https://dc.lft.to/lastmile_qr_scan", "ios": "https://dc.lft.to/lastmile_qr_scan"}, "name": "e83b014fccb2cb1cdc9fcd5d67158718", "is_reserved": 0}, {"is_disabled": 0, "fusion_lon": 0.0, "fusion_lat": 0.0, "lat": 38.929988333333334, "type": "electric_scooter", "lon": -77.03800283333334, "bike_id": "b31c6ab5c5b421f8e92dc3e5eb0b4972", "rental_uris": {"android": "https://dc.lft.to/lastmile_qr_scan", "ios": "https://dc.lft.to/lastmile_qr_scan"}, "name": "b31c6ab5c5b421f8e92dc3e5eb0b4972", "is_reserved": 0}, {"is_disabled": 0, "fusion_lon": 0.0, "fusion_lat": 0.0, "lat": 38.93550116666667, "type": "electric_scooter", "lon": -77.03448666666667, "bike_id": "01c280d0debfbf002156192f72d1892d", "rental_uris": {"android": "https://dc.lft.to/lastmile_qr_scan", "ios": "https://dc.lft.to/lastmile_qr_scan"}, "name": "01c280d0debfbf002156192f72d1892d", "is_reserved": 0}, {"is_disabled": 0, "fusion_lon": 0.0, "fusion_lat": 0.0, "lat": 38.92998433333333, "type": "electric_scooter", "lon": -77.02403066666666, "bike_id": "bc8462f270845940c8096b645da877f5", "rental_uris": {"android": "https://dc.lft.to/lastmile_qr_scan", "ios": "https://dc.lft.to/lastmile_qr_scan"}, "name": "bc8462f270845940c8096b645da877f5", "is_reserved": 0}, {"is_disabled": 0, "fusion_lon": 0.0, "fusion_lat": 0.0, "lat": 38.8949885, "type": "electric_scooter", "lon": -77.00946116666667, "bike_id": "01884f99c80dbeadc9e18743f5463093", "rental_uris": {"android": "https://dc.lft.to/lastmile_qr_scan", "ios": "https://dc.lft.to/lastmile_qr_scan"}, "name": "01884f99c80dbeadc9e18743f5463093", "is_reserved": 0}, {"is_disabled": 0, "fusion_lon": 0.0, "fusion_lat": 0.0, "lat": 38.921186666666664, "type": "electric_scooter", "lon": -77.012123, "bike_id": "f0df7e36494c868a191d603561a11700", "rental_uris": {"android": "https://dc.lft.to/lastmile_qr_scan", "ios": "https://dc.lft.to/lastmile_qr_scan"}, "name": "f0df7e36494c868a191d603561a11700", "is_reserved": 0}, {"is_disabled": 0, "fusion_lon": 0.0, "fusion_lat": 0.0, "lat": 38.9309415, "type": "electric_scooter", "lon": -77.02541533333333, "bike_id": "0a454b479b869106884fe68de993aaad", "rental_uris": {"android": "https://dc.lft.to/lastmile_qr_scan", "ios": "https://dc.lft.to/lastmile_qr_scan"}, "name": "0a454b479b869106884fe68de993aaad", "is_reserved": 0}, {"is_disabled": 0, "fusion_lon": 0.0, "fusion_lat": 0.0, "lat": 38.931375833333334, "type": "electric_scooter", "lon": -77.07851683333334, "bike_id": "c7fc1c0c4235a9fb8eeeb3622854aab8", "rental_uris": {"android": "https://dc.lft.to/lastmile_qr_scan", "ios": "https://dc.lft.to/lastmile_qr_scan"}, "name": "c7fc1c0c4235a9fb8eeeb3622854aab8", "is_reserved": 0}, {"is_disabled": 0, "fusion_lon": 0.0, "fusion_lat": 0.0, "lat": 38.90731183333333, "type": "electric_scooter", "lon": -77.03204366666667, "bike_id": "c600d5b3e7f07d387b962bb4a34b7584", "rental_uris": {"android": "https://dc.lft.to/lastmile_qr_scan", "ios": "https://dc.lft.to/lastmile_qr_scan"}, "name": "c600d5b3e7f07d387b962bb4a34b7584", "is_reserved": 0}, {"is_disabled": 0, "fusion_lon": 0.0, "fusion_lat": 0.0, "lat": 38.949824666666665, "type": "electric_scooter", "lon": -77.0270555, "bike_id": "7d277eda94c497b01b7bdb5c1e1c56ab", "rental_uris": {"android": "https://dc.lft.to/lastmile_qr_scan", "ios": "https://dc.lft.to/lastmile_qr_scan"}, "name": "7d277eda94c497b01b7bdb5c1e1c56ab", "is_reserved": 0}, {"is_disabled": 0, "fusion_lon": 0.0, "fusion_lat": 0.0, "lat": 38.915285, "type": "electric_scooter", "lon": -77.018449, "bike_id": "5848d35a21b0071944c06bed49c213cf", "rental_uris": {"android": "https://dc.lft.to/lastmile_qr_scan", "ios": "https://dc.lft.to/lastmile_qr_scan"}, "name": "5848d35a21b0071944c06bed49c213cf", "is_reserved": 0}, {"is_disabled": 0, "fusion_lon": 0.0, "fusion_lat": 0.0, "lat": 38.91198333333333, "type": "electric_scooter", "lon": -77.00429316666667, "bike_id": "f522284034362a00fa7ec430a6397a0b", "rental_uris": {"android": "https://dc.lft.to/lastmile_qr_scan", "ios": "https://dc.lft.to/lastmile_qr_scan"}, "name": "f522284034362a00fa7ec430a6397a0b", "is_reserved": 0}, {"is_disabled": 0, "fusion_lon": 0.0, "fusion_lat": 0.0, "lat": 38.935409166666666, "type": "electric_scooter", "lon": -77.0342055, "bike_id": "b263444a641860d06fd181dc351ad272", "rental_uris": {"android": "https://dc.lft.to/lastmile_qr_scan", "ios": "https://dc.lft.to/lastmile_qr_scan"}, "name": "b263444a641860d06fd181dc351ad272", "is_reserved": 0}, {"is_disabled": 0, "fusion_lon": 0.0, "fusion_lat": 0.0, "lat": 38.920647833333334, "type": "electric_scooter", "lon": -77.04358566666667, "bike_id": "72ae09bfdaddb0d98fb6b73e928d413b", "rental_uris": {"android": "https://dc.lft.to/lastmile_qr_scan", "ios": "https://dc.lft.to/lastmile_qr_scan"}, "name": "72ae09bfdaddb0d98fb6b73e928d413b", "is_reserved": 0}, {"is_disabled": 0, "fusion_lon": 0.0, "fusion_lat": 0.0, "lat": 38.8954485, "type": "electric_scooter", "lon": -77.0110605, "bike_id": "a107d8be5b22b6f64a2879d20cc8ee90", "rental_uris": {"android": "https://dc.lft.to/lastmile_qr_scan", "ios": "https://dc.lft.to/lastmile_qr_scan"}, "name": "a107d8be5b22b6f64a2879d20cc8ee90", "is_reserved": 0}, {"is_disabled": 0, "fusion_lon": 0.0, "fusion_lat": 0.0, "lat": 38.91919, "type": "electric_scooter", "lon": -77.03025433333333, "bike_id": "935ba962d0051b252bcc4a9d57626d56", "rental_uris": {"android": "https://dc.lft.to/lastmile_qr_scan", "ios": "https://dc.lft.to/lastmile_qr_scan"}, "name": "935ba962d0051b252bcc4a9d57626d56", "is_reserved": 0}, {"is_disabled": 0, "fusion_lon": 0.0, "fusion_lat": 0.0, "lat": 38.899735, "type": "electric_scooter", "lon": -77.0162605, "bike_id": "2422f864392715ad6efed3f128429c38", "rental_uris": {"android": "https://dc.lft.to/lastmile_qr_scan", "ios": "https://dc.lft.to/lastmile_qr_scan"}, "name": "2422f864392715ad6efed3f128429c38", "is_reserved": 0}, {"is_disabled": 0, "fusion_lon": 0.0, "fusion_lat": 0.0, "lat": 38.90034716666667, "type": "electric_scooter", "lon": -77.0019805, "bike_id": "e50c1e0afb8a7b741dd51f5c9636a5a8", "rental_uris": {"android": "https://dc.lft.to/lastmile_qr_scan", "ios": "https://dc.lft.to/lastmile_qr_scan"}, "name": "e50c1e0afb8a7b741dd51f5c9636a5a8", "is_reserved": 0}, {"is_disabled": 0, "fusion_lon": 0.0, "fusion_lat": 0.0, "lat": 38.961234166666664, "type": "electric_scooter", "lon": -77.08521633333334, "bike_id": "00653e29714ea8deaee00984b61d00cd", "rental_uris": {"android": "https://dc.lft.to/lastmile_qr_scan", "ios": "https://dc.lft.to/lastmile_qr_scan"}, "name": "00653e29714ea8deaee00984b61d00cd", "is_reserved": 0}, {"is_disabled": 0, "fusion_lon": 0.0, "fusion_lat": 0.0, "lat": 38.937862833333334, "type": "electric_scooter", "lon": -77.01884366666667, "bike_id": "88c085b4165612df3cd5fe5b2beafbe5", "rental_uris": {"android": "https://dc.lft.to/lastmile_qr_scan", "ios": "https://dc.lft.to/lastmile_qr_scan"}, "name": "88c085b4165612df3cd5fe5b2beafbe5", "is_reserved": 0}, {"is_disabled": 0, "fusion_lon": 0.0, "fusion_lat": 0.0, "lat": 38.9221615, "type": "electric_scooter", "lon": -77.0329225, "bike_id": "03df5034300f300757662f580ca16c08", "rental_uris": {"android": "https://dc.lft.to/lastmile_qr_scan", "ios": "https://dc.lft.to/lastmile_qr_scan"}, "name": "03df5034300f300757662f580ca16c08", "is_reserved": 0}, {"is_disabled": 0, "fusion_lon": 0.0, "fusion_lat": 0.0, "lat": 38.887418833333335, "type": "electric_scooter", "lon": -77.01538133333334, "bike_id": "33b3733f1b1e36b8e5402af420c0106b", "rental_uris": {"android": "https://dc.lft.to/lastmile_qr_scan", "ios": "https://dc.lft.to/lastmile_qr_scan"}, "name": "33b3733f1b1e36b8e5402af420c0106b", "is_reserved": 0}, {"is_disabled": 0, "fusion_lon": 0.0, "fusion_lat": 0.0, "lat": 38.91618966666667, "type": "electric_scooter", "lon": -77.048633, "bike_id": "606063569071899d30449dd7445c2e9c", "rental_uris": {"android": "https://dc.lft.to/lastmile_qr_scan", "ios": "https://dc.lft.to/lastmile_qr_scan"}, "name": "606063569071899d30449dd7445c2e9c", "is_reserved": 0}, {"is_disabled": 0, "fusion_lon": 0.0, "fusion_lat": 0.0, "lat": 38.89564933333333, "type": "electric_bike", "lon": -77.127413, "bike_id": "24a872d655e10e059a45c4e097f513d5", "rental_uris": {"android": "https://dc.lft.to/lastmile_qr_scan", "ios": "https://dc.lft.to/lastmile_qr_scan"}, "name": "24a872d655e10e059a45c4e097f513d5", "is_reserved": 0}, {"is_disabled": 0, "fusion_lon": 0.0, "fusion_lat": 0.0, "lat": 38.905531833333335, "type": "electric_scooter", "lon": -77.03480483333334, "bike_id": "8345adb476ba69c8857bc7a95a5b9583", "rental_uris": {"android": "https://dc.lft.to/lastmile_qr_scan", "ios": "https://dc.lft.to/lastmile_qr_scan"}, "name": "8345adb476ba69c8857bc7a95a5b9583", "is_reserved": 0}, {"is_disabled": 0, "fusion_lon": 0.0, "fusion_lat": 0.0, "lat": 38.92259583333333, "type": "electric_scooter", "lon": -77.04135233333334, "bike_id": "dce01fe98395fd0b36d70f3625c1c0c0", "rental_uris": {"android": "https://dc.lft.to/lastmile_qr_scan", "ios": "https://dc.lft.to/lastmile_qr_scan"}, "name": "dce01fe98395fd0b36d70f3625c1c0c0", "is_reserved": 0}, {"is_disabled": 0, "fusion_lon": 0.0, "fusion_lat": 0.0, "lat": 38.89484083333333, "type": "electric_bike", "lon": -76.9952225, "bike_id": "77dead34eb4c0cb9f32effcbdee07755", "rental_uris": {"android": "https://dc.lft.to/lastmile_qr_scan", "ios": "https://dc.lft.to/lastmile_qr_scan"}, "name": "77dead34eb4c0cb9f32effcbdee07755", "is_reserved": 0}, {"is_disabled": 0, "fusion_lon": 0.0, "fusion_lat": 0.0, "lat": 38.92581583333333, "type": "electric_scooter", "lon": -76.994911, "bike_id": "86680dc592c9e486b7b26949a78a88d6", "rental_uris": {"android": "https://dc.lft.to/lastmile_qr_scan", "ios": "https://dc.lft.to/lastmile_qr_scan"}, "name": "86680dc592c9e486b7b26949a78a88d6", "is_reserved": 0}, {"is_disabled": 0, "fusion_lon": 0.0, "fusion_lat": 0.0, "lat": 38.9043015, "type": "electric_bike", "lon": -77.02770333333333, "bike_id": "8422921864054ebbb376f84c76e27e4a", "rental_uris": {"android": "https://dc.lft.to/lastmile_qr_scan", "ios": "https://dc.lft.to/lastmile_qr_scan"}, "name": "8422921864054ebbb376f84c76e27e4a", "is_reserved": 0}, {"is_disabled": 0, "fusion_lon": 0.0, "fusion_lat": 0.0, "lat": 38.92331766666667, "type": "electric_scooter", "lon": -77.047485, "bike_id": "be3dd5d8a2f89f7e8b46619b94f0ec68", "rental_uris": {"android": "https://dc.lft.to/lastmile_qr_scan", "ios": "https://dc.lft.to/lastmile_qr_scan"}, "name": "be3dd5d8a2f89f7e8b46619b94f0ec68", "is_reserved": 0}, {"is_disabled": 0, "fusion_lon": 0.0, "fusion_lat": 0.0, "lat": 38.9104065, "type": "electric_scooter", "lon": -77.04067433333333, "bike_id": "980368d423d3ec1b806e241264f85c16", "rental_uris": {"android": "https://dc.lft.to/lastmile_qr_scan", "ios": "https://dc.lft.to/lastmile_qr_scan"}, "name": "980368d423d3ec1b806e241264f85c16", "is_reserved": 0}, {"is_disabled": 0, "fusion_lon": 0.0, "fusion_lat": 0.0, "lat": 38.905038, "type": "electric_scooter", "lon": -76.98861966666666, "bike_id": "ae8817c479580aba1f4d133eb47faf92", "rental_uris": {"android": "https://dc.lft.to/lastmile_qr_scan", "ios": "https://dc.lft.to/lastmile_qr_scan"}, "name": "ae8817c479580aba1f4d133eb47faf92", "is_reserved": 0}, {"is_disabled": 0, "fusion_lon": 0.0, "fusion_lat": 0.0, "lat": 38.893699166666664, "type": "electric_scooter", "lon": -76.9499875, "bike_id": "570eaa70463386a2c8647354dd9effb2", "rental_uris": {"android": "https://dc.lft.to/lastmile_qr_scan", "ios": "https://dc.lft.to/lastmile_qr_scan"}, "name": "570eaa70463386a2c8647354dd9effb2", "is_reserved": 0}, {"is_disabled": 0, "fusion_lon": 0.0, "fusion_lat": 0.0, "lat": 38.903778833333334, "type": "electric_scooter", "lon": -77.0177685, "bike_id": "7dba5bedcf4a60d6d72865f9c10c3a68", "rental_uris": {"android": "https://dc.lft.to/lastmile_qr_scan", "ios": "https://dc.lft.to/lastmile_qr_scan"}, "name": "7dba5bedcf4a60d6d72865f9c10c3a68", "is_reserved": 0}, {"is_disabled": 0, "fusion_lon": 0.0, "fusion_lat": 0.0, "lat": 38.90579133333333, "type": "electric_scooter", "lon": -76.98755366666667, "bike_id": "ee8841be11195ec50a1caaf5c596d503", "rental_uris": {"android": "https://dc.lft.to/lastmile_qr_scan", "ios": "https://dc.lft.to/lastmile_qr_scan"}, "name": "ee8841be11195ec50a1caaf5c596d503", "is_reserved": 0}, {"is_disabled": 0, "fusion_lon": 0.0, "fusion_lat": 0.0, "lat": 38.9308995, "type": "electric_scooter", "lon": -77.0343565, "bike_id": "5a9140b75ee86de907e51a65e8e43b3b", "rental_uris": {"android": "https://dc.lft.to/lastmile_qr_scan", "ios": "https://dc.lft.to/lastmile_qr_scan"}, "name": "5a9140b75ee86de907e51a65e8e43b3b", "is_reserved": 0}, {"is_disabled": 0, "fusion_lon": 0.0, "fusion_lat": 0.0, "lat": 38.952741833333334, "type": "electric_scooter", "lon": -77.06885683333333, "bike_id": "4a761e5afa5fa9142c0a47bcc27c6aa9", "rental_uris": {"android": "https://dc.lft.to/lastmile_qr_scan", "ios": "https://dc.lft.to/lastmile_qr_scan"}, "name": "4a761e5afa5fa9142c0a47bcc27c6aa9", "is_reserved": 0}, {"is_disabled": 0, "fusion_lon": 0.0, "fusion_lat": 0.0, "lat": 38.89226766666667, "type": "electric_scooter", "lon": -77.0436325, "bike_id": "e367bb23f4ceb2e23b347e249252c5f8", "rental_uris": {"android": "https://dc.lft.to/lastmile_qr_scan", "ios": "https://dc.lft.to/lastmile_qr_scan"}, "name": "e367bb23f4ceb2e23b347e249252c5f8", "is_reserved": 0}, {"is_disabled": 0, "fusion_lon": 0.0, "fusion_lat": 0.0, "lat": 38.893109333333335, "type": "electric_scooter", "lon": -77.02213433333333, "bike_id": "a749f14812dbd21558da14d7fc97342b", "rental_uris": {"android": "https://dc.lft.to/lastmile_qr_scan", "ios": "https://dc.lft.to/lastmile_qr_scan"}, "name": "a749f14812dbd21558da14d7fc97342b", "is_reserved": 0}, {"is_disabled": 0, "fusion_lon": 0.0, "fusion_lat": 0.0, "lat": 38.968159166666666, "type": "electric_scooter", "lon": -77.0089105, "bike_id": "d99799317f7de1c6c142a5d5a132d84a", "rental_uris": {"android": "https://dc.lft.to/lastmile_qr_scan", "ios": "https://dc.lft.to/lastmile_qr_scan"}, "name": "d99799317f7de1c6c142a5d5a132d84a", "is_reserved": 0}, {"is_disabled": 0, "fusion_lon": 0.0, "fusion_lat": 0.0, "lat": 38.89730683333333, "type": "electric_bike", "lon": -76.90540083333333, "bike_id": "b38c65ef6f17d54d5d88549fec776082", "rental_uris": {"android": "https://dc.lft.to/lastmile_qr_scan", "ios": "https://dc.lft.to/lastmile_qr_scan"}, "name": "b38c65ef6f17d54d5d88549fec776082", "is_reserved": 0}, {"is_disabled": 0, "fusion_lon": 0.0, "fusion_lat": 0.0, "lat": 39.0520495, "type": "electric_bike", "lon": -77.04413616666666, "bike_id": "1b42383f31ea0eb9fcbf05c341579cf2", "rental_uris": {"android": "https://dc.lft.to/lastmile_qr_scan", "ios": "https://dc.lft.to/lastmile_qr_scan"}, "name": "1b42383f31ea0eb9fcbf05c341579cf2", "is_reserved": 0}, {"is_disabled": 0, "fusion_lon": 0.0, "fusion_lat": 0.0, "lat": 38.916591, "type": "electric_scooter", "lon": -77.04652883333333, "bike_id": "53cca5347d68f5d0cf1284587499ce98", "rental_uris": {"android": "https://dc.lft.to/lastmile_qr_scan", "ios": "https://dc.lft.to/lastmile_qr_scan"}, "name": "53cca5347d68f5d0cf1284587499ce98", "is_reserved": 0}, {"is_disabled": 0, "fusion_lon": 0.0, "fusion_lat": 0.0, "lat": 38.90424983333333, "type": "electric_scooter", "lon": -77.031616, "bike_id": "e00a92436fa5ae7c93476ee300a9b441", "rental_uris": {"android": "https://dc.lft.to/lastmile_qr_scan", "ios": "https://dc.lft.to/lastmile_qr_scan"}, "name": "e00a92436fa5ae7c93476ee300a9b441", "is_reserved": 0}, {"is_disabled": 0, "fusion_lon": 0.0, "fusion_lat": 0.0, "lat": 38.93903266666667, "type": "electric_scooter", "lon": -77.0780645, "bike_id": "e07b6d95da031cdad1c84a7dbe74f007", "rental_uris": {"android": "https://dc.lft.to/lastmile_qr_scan", "ios": "https://dc.lft.to/lastmile_qr_scan"}, "name": "e07b6d95da031cdad1c84a7dbe74f007", "is_reserved": 0}, {"is_disabled": 0, "fusion_lon": 0.0, "fusion_lat": 0.0, "lat": 38.9118845, "type": "electric_scooter", "lon": -77.04166366666666, "bike_id": "5d1a128af41f5cf0bb8510e039874078", "rental_uris": {"android": "https://dc.lft.to/lastmile_qr_scan", "ios": "https://dc.lft.to/lastmile_qr_scan"}, "name": "5d1a128af41f5cf0bb8510e039874078", "is_reserved": 0}, {"is_disabled": 0, "fusion_lon": 0.0, "fusion_lat": 0.0, "lat": 38.88686166666667, "type": "electric_scooter", "lon": -77.01371, "bike_id": "f630f55b4bf1309b740aaa7e665e188e", "rental_uris": {"android": "https://dc.lft.to/lastmile_qr_scan", "ios": "https://dc.lft.to/lastmile_qr_scan"}, "name": "f630f55b4bf1309b740aaa7e665e188e", "is_reserved": 0}, {"is_disabled": 0, "fusion_lon": 0.0, "fusion_lat": 0.0, "lat": 38.901869, "type": "electric_scooter", "lon": -77.05019783333333, "bike_id": "be98f7c3f918afc2f051d1cbf6f51090", "rental_uris": {"android": "https://dc.lft.to/lastmile_qr_scan", "ios": "https://dc.lft.to/lastmile_qr_scan"}, "name": "be98f7c3f918afc2f051d1cbf6f51090", "is_reserved": 0}, {"is_disabled": 0, "fusion_lon": 0.0, "fusion_lat": 0.0, "lat": 38.88666833333333, "type": "electric_scooter", "lon": -77.00358783333333, "bike_id": "11ba9a38757f5f0bf54b7cbcba0be219", "rental_uris": {"android": "https://dc.lft.to/lastmile_qr_scan", "ios": "https://dc.lft.to/lastmile_qr_scan"}, "name": "11ba9a38757f5f0bf54b7cbcba0be219", "is_reserved": 0}, {"is_disabled": 0, "fusion_lon": 0.0, "fusion_lat": 0.0, "lat": 38.92734933333333, "type": "electric_scooter", "lon": -77.02704633333333, "bike_id": "f8f774d2b0fa68aae46864462542fd28", "rental_uris": {"android": "https://dc.lft.to/lastmile_qr_scan", "ios": "https://dc.lft.to/lastmile_qr_scan"}, "name": "f8f774d2b0fa68aae46864462542fd28", "is_reserved": 0}, {"is_disabled": 0, "fusion_lon": 0.0, "fusion_lat": 0.0, "lat": 38.928598666666666, "type": "electric_bike", "lon": -76.98936116666667, "bike_id": "6b78f8d4f7e4a82046a890e862710b07", "rental_uris": {"android": "https://dc.lft.to/lastmile_qr_scan", "ios": "https://dc.lft.to/lastmile_qr_scan"}, "name": "6b78f8d4f7e4a82046a890e862710b07", "is_reserved": 0}, {"is_disabled": 0, "fusion_lon": 0.0, "fusion_lat": 0.0, "lat": 38.92260733333333, "type": "electric_bike", "lon": -77.07723483333334, "bike_id": "c914c278a159b006f6b4fac65977cbef", "rental_uris": {"android": "https://dc.lft.to/lastmile_qr_scan", "ios": "https://dc.lft.to/lastmile_qr_scan"}, "name": "c914c278a159b006f6b4fac65977cbef", "is_reserved": 0}, {"is_disabled": 0, "fusion_lon": 0.0, "fusion_lat": 0.0, "lat": 38.9007845, "type": "electric_scooter", "lon": -77.05002566666667, "bike_id": "1db6bc113173b386b3e13676b9e3ab19", "rental_uris": {"android": "https://dc.lft.to/lastmile_qr_scan", "ios": "https://dc.lft.to/lastmile_qr_scan"}, "name": "1db6bc113173b386b3e13676b9e3ab19", "is_reserved": 0}, {"is_disabled": 0, "fusion_lon": 0.0, "fusion_lat": 0.0, "lat": 38.906839166666664, "type": "electric_scooter", "lon": -77.02695833333334, "bike_id": "d3d184f46b1acd35f0b84f45c61b0eed", "rental_uris": {"android": "https://dc.lft.to/lastmile_qr_scan", "ios": "https://dc.lft.to/lastmile_qr_scan"}, "name": "d3d184f46b1acd35f0b84f45c61b0eed", "is_reserved": 0}, {"is_disabled": 0, "fusion_lon": 0.0, "fusion_lat": 0.0, "lat": 38.90831766666667, "type": "electric_scooter", "lon": -76.99692316666666, "bike_id": "029cb0b7d089b7260ba5a3e93061d4da", "rental_uris": {"android": "https://dc.lft.to/lastmile_qr_scan", "ios": "https://dc.lft.to/lastmile_qr_scan"}, "name": "029cb0b7d089b7260ba5a3e93061d4da", "is_reserved": 0}, {"is_disabled": 0, "fusion_lon": 0.0, "fusion_lat": 0.0, "lat": 38.916849666666664, "type": "electric_scooter", "lon": -77.02714366666666, "bike_id": "fc99044c3b419b6d3137513a2647e023", "rental_uris": {"android": "https://dc.lft.to/lastmile_qr_scan", "ios": "https://dc.lft.to/lastmile_qr_scan"}, "name": "fc99044c3b419b6d3137513a2647e023", "is_reserved": 0}, {"is_disabled": 0, "fusion_lon": 0.0, "fusion_lat": 0.0, "lat": 38.84518333333333, "type": "electric_bike", "lon": -77.07794833333334, "bike_id": "4450207e1b42833fb653a71f4b3d9b62", "rental_uris": {"android": "https://dc.lft.to/lastmile_qr_scan", "ios": "https://dc.lft.to/lastmile_qr_scan"}, "name": "4450207e1b42833fb653a71f4b3d9b62", "is_reserved": 0}, {"is_disabled": 0, "fusion_lon": 0.0, "fusion_lat": 0.0, "lat": 38.90732716666667, "type": "electric_scooter", "lon": -77.03448066666667, "bike_id": "0e5430c05c5ff5a3fba58d586ec5a458", "rental_uris": {"android": "https://dc.lft.to/lastmile_qr_scan", "ios": "https://dc.lft.to/lastmile_qr_scan"}, "name": "0e5430c05c5ff5a3fba58d586ec5a458", "is_reserved": 0},