{"data": {"bikes": [{"name": "e33a64a9f98ad5d7d548d8fb37712e78", "fusion_lat": 0.0, "type": "electric_bike", "lat": 38.939721, "is_reserved": 0, "is_disabled": 0, "fusion_lon": 0.0, "bike_id": "e33a64a9f98ad5d7d548d8fb37712e78", "lon": -76.9548985, "rental_uris": {"ios": "https://dc.lft.to/lastmile_qr_scan", "android": "https://dc.lft.to/lastmile_qr_scan"}}, {"name": "31d026b9bb39d6464b63ab63691aadce", "fusion_lat": 0.0, "type": "electric_scooter", "lat": 38.921489666666666, "is_reserved": 0, "is_disabled": 0, "fusion_lon": 0.0, "bike_id": "31d026b9bb39d6464b63ab63691aadce", "lon": -77.035173, "rental_uris": {"ios": "https://dc.lft.to/lastmile_qr_scan", "android": "https://dc.lft.to/lastmile_qr_scan"}}, {"name": "7deb541931e0f60a252e7ef197431987", "fusion_lat": 0.0, "type": "electric_scooter", "lat": 38.91050383333334, "is_reserved": 0, "is_disabled": 0, "fusion_lon": 0.0, "bike_id": "7deb541931e0f60a252e7ef197431987", "lon": -77.04847233333334, "rental_uris": {"ios": "https://dc.lft.to/lastmile_qr_scan", "android": "https://dc.lft.to/lastmile_qr_scan"}}, {"name": "2ee9a309e172b903ff604949e5f4b5f5", "fusion_lat": 0.0, "type": "electric_scooter", "lat": 38.8635525, "is_reserved": 0, "is_disabled": 0, "fusion_lon": 0.0, "bike_id": "2ee9a309e172b903ff604949e5f4b5f5", "lon": -76.9906715, "rental_uris": {"ios": "https://dc.lft.to/lastmile_qr_scan", "android": "https://dc.lft.to/lastmile_qr_scan"}}, {"name": "337a16214c1cd9eb1536e8498366618f", "fusion_lat": 0.0, "type": "electric_scooter", "lat": 38.961499, "is_reserved": 0, "is_disabled": 0, "fusion_lon": 0.0, "bike_id": "337a16214c1cd9eb1536e8498366618f", "lon": -77.02811083333333, "rental_uris": {"ios": "https://dc.lft.to/lastmile_qr_scan", "android": "https://dc.lft.to/lastmile_qr_scan"}}, {"name": "def3f15bcb78e844ff6bfec4a11cec74", "fusion_lat": 0.0, "type": "electric_scooter", "lat": 38.9412325, "is_reserved": 0, "is_disabled": 0, "fusion_lon": 0.0, "bike_id": "def3f15bcb78e844ff6bfec4a11cec74", "lon": -77.02058783333334, "rental_uris": {"ios": "https://dc.lft.to/lastmile_qr_scan", "android": "https://dc.lft.to/lastmile_qr_scan"}}, {"name": "06915d9999d77d5b076e599952224672", "fusion_lat": 0.0, "type": "electric_scooter", "lat": 38.9396055, "is_reserved": 0, "is_disabled": 0, "fusion_lon": 0.0, "bike_id": "06915d9999d77d5b076e599952224672", "lon": -77.02752766666667, "rental_uris": {"ios": "https://dc.lft.to/lastmile_qr_scan", "android": "https://dc.lft.to/lastmile_qr_scan"}}, {"name": "c828a45ef89dd4de846f911e732ee426", "fusion_lat": 0.0, "type": "electric_scooter", "lat": 38.916347, "is_reserved": 0, "is_disabled": 0, "fusion_lon": 0.0, "bike_id": "c828a45ef89dd4de846f911e732ee426", "lon": -77.00100216666667, "rental_uris": {"ios": "https://dc.lft.to/lastmile_qr_scan", "android": "https://dc.lft.to/lastmile_qr_scan"}}, {"name": "211199fbe173bc5d8fa271db6698d033", "fusion_lat": 0.0, "type": "electric_bike", "lat": 38.94923216666667, "is_reserved": 0, "is_disabled": 0, "fusion_lon": 0.0, "bike_id": "211199fbe173bc5d8fa271db6698d033", "lon": -77.00798183333333, "rental_uris": {"ios": "https://dc.lft.to/lastmile_qr_scan", "android": "https://dc.lft.to/lastmile_qr_scan"}}, {"name": "81981a5f5235a2119d770225bcb04155", "fusion_lat": 0.0, "type": "electric_scooter", "lat": 38.927513166666664, "is_reserved": 0, "is_disabled": 0, "fusion_lon": 0.0, "bike_id": "81981a5f5235a2119d770225bcb04155", "lon": -77.02309533333333, "rental_uris": {"ios": "https://dc.lft.to/lastmile_qr_scan", "android": "https://dc.lft.to/lastmile_qr_scan"}}, {"name": "19493592f6b7229120a3e9862cbbf6cb", "fusion_lat": 0.0, "type": "electric_scooter", "lat": 38.9306485, "is_reserved": 0, "is_disabled": 0, "fusion_lon": 0.0, "bike_id": "19493592f6b7229120a3e9862cbbf6cb", "lon": -77.02975433333333, "rental_uris": {"ios": "https://dc.lft.to/lastmile_qr_scan", "android": "https://dc.lft.to/lastmile_qr_scan"}}, {"name": "5c0c7baa708c9f84b1a0270d03ff4682", "fusion_lat": 0.0, "type": "electric_scooter", "lat": 38.88493916666667, "is_reserved": 0, "is_disabled": 0, "fusion_lon": 0.0, "bike_id": "5c0c7baa708c9f84b1a0270d03ff4682", "lon": -77.02193366666667, "rental_uris": {"ios": "https://dc.lft.to/lastmile_qr_scan", "android": "https://dc.lft.to/lastmile_qr_scan"}}, {"name": "fc4571164123efc2a9a59750ad66c4c4", "fusion_lat": 0.0, "type": "electric_scooter", "lat": 38.91109433333333, "is_reserved": 0, "is_disabled": 0, "fusion_lon": 0.0, "bike_id": "fc4571164123efc2a9a59750ad66c4c4", "lon": -77.03839066666667, "rental_uris": {"ios": "https://dc.lft.to/lastmile_qr_scan", "android": "https://dc.lft.to/lastmile_qr_scan"}}, {"name": "be01f13c81e46253b905262c6396fadc", "fusion_lat": 0.0, "type": "electric_bike", "lat": 39.000160666666666, "is_reserved": 0, "is_disabled": 0, "fusion_lon": 0.0, "bike_id": "be01f13c81e46253b905262c6396fadc", "lon": -77.0174375, "rental_uris": {"ios": "https://dc.lft.to/lastmile_qr_scan", "android": "https://dc.lft.to/lastmile_qr_scan"}}, {"name": "43851f7650c869ff4c9af33fb2b5e785", "fusion_lat": 0.0, "type": "electric_bike", "lat": 38.85850116666667, "is_reserved": 0, "is_disabled": 0, "fusion_lon": 0.0, "bike_id": "43851f7650c869ff4c9af33fb2b5e785", "lon": -77.09755783333334, "rental_uris": {"ios": "https://dc.lft.to/lastmile_qr_scan", "android": "https://dc.lft.to/lastmile_qr_scan"}}, {"name": "2c99ae3f0c54c6fe47bec4cd2f51b4da", "fusion_lat": 0.0, "type": "electric_scooter", "lat": 38.892342, "is_reserved": 0, "is_disabled": 0, "fusion_lon": 0.0, "bike_id": "2c99ae3f0c54c6fe47bec4cd2f51b4da", "lon": -77.0151045, "rental_uris": {"ios": "https://dc.lft.to/lastmile_qr_scan", "android": "https://dc.lft.to/lastmile_qr_scan"}}, {"name": "93dea8317a66afa083211d55f69436f6", "fusion_lat": 0.0, "type": "electric_scooter", "lat": 38.91777416666667, "is_reserved": 0, "is_disabled": 0, "fusion_lon": 0.0, "bike_id": "93dea8317a66afa083211d55f69436f6", "lon": -77.0235575, "rental_uris": {"ios": "https://dc.lft.to/lastmile_qr_scan", "android": "https://dc.lft.to/lastmile_qr_scan"}}, {"name": "0f0fc44213784612edc73f98a36ac7b9", "fusion_lat": 0.0, "type": "electric_scooter", "lat": 38.902677, "is_reserved": 0, "is_disabled": 0, "fusion_lon": 0.0, "bike_id": "0f0fc44213784612edc73f98a36ac7b9", "lon": -77.0176225, "rental_uris": {"ios": "https://dc.lft.to/lastmile_qr_scan", "android": "https://dc.lft.to/lastmile_qr_scan"}}, {"name": "8c8613f2fea6d90e8a834d1e27b62220", "fusion_lat": 0.0, "type": "electric_scooter", "lat": 38.895674666666665, "is_reserved": 0, "is_disabled": 0, "fusion_lon": 0.0, "bike_id": "8c8613f2fea6d90e8a834d1e27b62220", "lon": -77.01351616666666, "rental_uris": {"ios": "https://dc.lft.to/lastmile_qr_scan", "android": "https://dc.lft.to/lastmile_qr_scan"}}, {"name": "7edc51b808bdaa39082a2560d6aebb06", "fusion_lat": 0.0, "type": "electric_scooter", "lat": 38.908481333333334, "is_reserved": 0, "is_disabled": 0, "fusion_lon": 0.0, "bike_id": "7edc51b808bdaa39082a2560d6aebb06", "lon": -77.04511333333333, "rental_uris": {"ios": "https://dc.lft.to/lastmile_qr_scan", "android": "https://dc.lft.to/lastmile_qr_scan"}}, {"name": "88424fc7154242c7e164bb73819d35b6", "fusion_lat": 0.0, "type": "electric_scooter", "lat": 38.9156115, "is_reserved": 0, "is_disabled": 0, "fusion_lon": 0.0, "bike_id": "88424fc7154242c7e164bb73819d35b6", "lon": -77.038939, "rental_uris": {"ios": "https://dc.lft.to/lastmile_qr_scan", "android": "https://dc.lft.to/lastmile_qr_scan"}}, {"name": "2e2c73c7a21e909abb4dd5374189b8a9", "fusion_lat": 0.0, "type": "electric_scooter", "lat": 38.918010333333335, "is_reserved": 0, "is_disabled": 0, "fusion_lon": 0.0, "bike_id": "2e2c73c7a21e909abb4dd5374189b8a9", "lon": -77.02503233333333, "rental_uris": {"ios": "https://dc.lft.to/lastmile_qr_scan", "android": "https://dc.lft.to/lastmile_qr_scan"}}, {"name": "6a497043caca097d9c790d234caaffcf", "fusion_lat": 0.0, "type": "electric_bike", "lat": 39.024180666666666, "is_reserved": 0, "is_disabled": 0, "fusion_lon": 0.0, "bike_id": "6a497043caca097d9c790d234caaffcf", "lon": -77.12502783333333, "rental_uris": {"ios": "https://dc.lft.to/lastmile_qr_scan", "android": "https://dc.lft.to/lastmile_qr_scan"}}, {"name": "0660df495046c5e1221f4bbfaed9f58e", "fusion_lat": 0.0, "type": "electric_scooter", "lat": 38.8922205, "is_reserved": 0, "is_disabled": 0, "fusion_lon": 0.0, "bike_id": "0660df495046c5e1221f4bbfaed9f58e", "lon": -77.039813, "rental_uris": {"ios": "https://dc.lft.to/lastmile_qr_scan", "android": "https://dc.lft.to/lastmile_qr_scan"}}, {"name": "ee8567b5127966d4fb6e3c7078fe614f", "fusion_lat": 0.0, "type": "electric_scooter", "lat": 38.88136333333333, "is_reserved": 0, "is_disabled": 0, "fusion_lon": 0.0, "bike_id": "ee8567b5127966d4fb6e3c7078fe614f", "lon": -77.016801, "rental_uris": {"ios": "https://dc.lft.to/lastmile_qr_scan", "android": "https://dc.lft.to/lastmile_qr_scan"}}, {"name": "10ef124e7e84968f9e0c8bd9550a1e97", "fusion_lat": 0.0, "type": "electric_scooter", "lat": 38.896009166666666, "is_reserved": 0, "is_disabled": 0, "fusion_lon": 0.0, "bike_id": "10ef124e7e84968f9e0c8bd9550a1e97", "lon": -77.041355, "rental_uris": {"ios": "https://dc.lft.to/lastmile_qr_scan", "android": "https://dc.lft.to/lastmile_qr_scan"}}, {"name": "f9eba719e29fe66305bcdca6a789b59c", "fusion_lat": 0.0, "type": "electric_scooter", "lat": 38.896059666666666, "is_reserved": 0, "is_disabled": 0, "fusion_lon": 0.0, "bike_id": "f9eba719e29fe66305bcdca6a789b59c", "lon": -77.04765616666667, "rental_uris": {"ios": "https://dc.lft.to/lastmile_qr_scan", "android": "https://dc.lft.to/lastmile_qr_scan"}}, {"name": "e9ae683d579769eeda40b893e4ce6f0e", "fusion_lat": 0.0, "type": "electric_scooter", "lat": 38.908455000000004, "is_reserved": 0, "is_disabled": 0, "fusion_lon": 0.0, "bike_id": "e9ae683d579769eeda40b893e4ce6f0e", "lon": -77.02087933333334, "rental_uris": {"ios": "https://dc.lft.to/lastmile_qr_scan", "android": "https://dc.lft.to/lastmile_qr_scan"}}, {"name": "017d85422c6fcf2dc00f0fcbfa9f0d23", "fusion_lat": 0.0, "type": "electric_scooter", "lat": 38.899147666666664, "is_reserved": 0, "is_disabled": 0, "fusion_lon": 0.0, "bike_id": "017d85422c6fcf2dc00f0fcbfa9f0d23", "lon": -77.0709755, "rental_uris": {"ios": "https://dc.lft.to/lastmile_qr_scan", "android": "https://dc.lft.to/lastmile_qr_scan"}}, {"name": "619319bf389cd1d3ec8d393f9791a304", "fusion_lat": 0.0, "type": "electric_scooter", "lat": 38.89726816666666, "is_reserved": 0, "is_disabled": 0, "fusion_lon": 0.0, "bike_id": "619319bf389cd1d3ec8d393f9791a304", "lon": -77.00209683333334, "rental_uris": {"ios": "https://dc.lft.to/lastmile_qr_scan", "android": "https://dc.lft.to/lastmile_qr_scan"}}, {"name": "865495f271e2e80abe560afe51f6d9df", "fusion_lat": 0.0, "type": "electric_scooter", "lat": 38.90627666666666, "is_reserved": 0, "is_disabled": 0, "fusion_lon": 0.0, "bike_id": "865495f271e2e80abe560afe51f6d9df", "lon": -77.0512715, "rental_uris": {"ios": "https://dc.lft.to/lastmile_qr_scan", "android": "https://dc.lft.to/lastmile_qr_scan"}}, {"name": "9231e9bb139406c395fe5093cf1b7450", "fusion_lat": 0.0, "type": "electric_scooter", "lat": 38.907323833333336, "is_reserved": 0, "is_disabled": 0, "fusion_lon": 0.0, "bike_id": "9231e9bb139406c395fe5093cf1b7450", "lon": -77.03451, "rental_uris": {"ios": "https://dc.lft.to/lastmile_qr_scan", "android": "https://dc.lft.to/lastmile_qr_scan"}}, {"name": "31ce799466c71b9ac4b3e72275c1353c", "fusion_lat": 0.0, "type": "electric_scooter", "lat": 38.90456233333333, "is_reserved": 0, "is_disabled": 0, "fusion_lon": 0.0, "bike_id": "31ce799466c71b9ac4b3e72275c1353c", "lon": -76.98525666666667, "rental_uris": {"ios": "https://dc.lft.to/lastmile_qr_scan", "android": "https://dc.lft.to/lastmile_qr_scan"}}, {"name": "9d81a966f55445d76a982d382b854ccf", "fusion_lat": 0.0, "type": "electric_scooter", "lat": 38.941753166666665, "is_reserved": 0, "is_disabled": 0, "fusion_lon": 0.0, "bike_id": "9d81a966f55445d76a982d382b854ccf", "lon": -77.02515133333333, "rental_uris": {"ios": "https://dc.lft.to/lastmile_qr_scan", "android": "https://dc.lft.to/lastmile_qr_scan"}}, {"name": "4689585448165cde32a714f5f1638107", "fusion_lat": 0.0, "type": "electric_scooter", "lat": 38.908167, "is_reserved": 0, "is_disabled": 0, "fusion_lon": 0.0, "bike_id": "4689585448165cde32a714f5f1638107", "lon": -77.04328883333334, "rental_uris": {"ios": "https://dc.lft.to/lastmile_qr_scan", "android": "https://dc.lft.to/lastmile_qr_scan"}}, {"name": "a64f4ddee657a49df48fcc9ed82bb8c8", "fusion_lat": 0.0, "type": "electric_scooter", "lat": 38.921813666666665, "is_reserved": 0, "is_disabled": 0, "fusion_lon": 0.0, "bike_id": "a64f4ddee657a49df48fcc9ed82bb8c8", "lon": -77.0242125, "rental_uris": {"ios": "https://dc.lft.to/lastmile_qr_scan", "android": "https://dc.lft.to/lastmile_qr_scan"}}, {"name": "bc532365e2b6062ade46898cf3dbff42", "fusion_lat": 0.0, "type": "electric_scooter", "lat": 38.876829, "is_reserved": 0, "is_disabled": 0, "fusion_lon": 0.0, "bike_id": "bc532365e2b6062ade46898cf3dbff42", "lon": -77.0073905, "rental_uris": {"ios": "https://dc.lft.to/lastmile_qr_scan", "android": "https://dc.lft.to/lastmile_qr_scan"}}, {"name": "674838800556e32e68af1fdde44b1420", "fusion_lat": 0.0, "type": "electric_bike", "lat": 38.854924833333335, "is_reserved": 0, "is_disabled": 0, "fusion_lon": 0.0, "bike_id": "674838800556e32e68af1fdde44b1420", "lon": -77.11525616666667, "rental_uris": {"ios": "https://dc.lft.to/lastmile_qr_scan", "android": "https://dc.lft.to/lastmile_qr_scan"}}, {"name": "56556ad003370f45a1db37adb44eec2b", "fusion_lat": 0.0, "type": "electric_scooter", "lat": 38.9324775, "is_reserved": 0, "is_disabled": 0, "fusion_lon": 0.0, "bike_id": "56556ad003370f45a1db37adb44eec2b", "lon": -77.03283133333333, "rental_uris": {"ios": "https://dc.lft.to/lastmile_qr_scan", "android": "https://dc.lft.to/lastmile_qr_scan"}}, {"name": "4654ca3795566e588d15754ecacd30db", "fusion_lat": 0.0, "type": "electric_scooter", "lat": 38.9129705, "is_reserved": 0, "is_disabled": 0, "fusion_lon": 0.0, "bike_id": "4654ca3795566e588d15754ecacd30db", "lon": -77.06120616666666, "rental_uris": {"ios": "https://dc.lft.to/lastmile_qr_scan", "android": "https://dc.lft.to/lastmile_qr_scan"}}, {"name": "9e27eb2a922070429b7c50c18bdfbadd", "fusion_lat": 0.0, "type": "electric_scooter", "lat": 38.91818516666667, "is_reserved": 0, "is_disabled": 0, "fusion_lon": 0.0, "bike_id": "9e27eb2a922070429b7c50c18bdfbadd", "lon": -77.01287916666666, "rental_uris": {"ios": "https://dc.lft.to/lastmile_qr_scan", "android": "https://dc.lft.to/lastmile_qr_scan"}}, {"name": "03226ebf1c53c52bf28398078360e602", "fusion_lat": 0.0, "type": "electric_scooter", "lat": 38.94249283333333, "is_reserved": 0, "is_disabled": 0, "fusion_lon": 0.0, "bike_id": "03226ebf1c53c52bf28398078360e602", "lon": -77.04138316666666, "rental_uris": {"ios": "https://dc.lft.to/lastmile_qr_scan", "android": "https://dc.lft.to/lastmile_qr_scan"}}, {"name": "329cf3da403b4420bbc87aff1432ae78", "fusion_lat": 0.0, "type": "electric_scooter", "lat": 38.865019, "is_reserved": 0, "is_disabled": 0, "fusion_lon": 0.0, "bike_id": "329cf3da403b4420bbc87aff1432ae78", "lon": -76.990053, "rental_uris": {"ios": "https://dc.lft.to/lastmile_qr_scan", "android": "https://dc.lft.to/lastmile_qr_scan"}}, {"name": "9e61343a98422b561f32265575d9ba6e", "fusion_lat": 0.0, "type": "electric_scooter", "lat": 38.9014435, "is_reserved": 0, "is_disabled": 0, "fusion_lon": 0.0, "bike_id": "9e61343a98422b561f32265575d9ba6e", "lon": -76.97422533333334, "rental_uris": {"ios": "https://dc.lft.to/lastmile_qr_scan", "android": "https://dc.lft.to/lastmile_qr_scan"}}, {"name": "9300a10728145604b9e5c19a0e1ce0ba", "fusion_lat": 0.0, "type": "electric_scooter", "lat": 38.924652333333334, "is_reserved": 0, "is_disabled": 0, "fusion_lon": 0.0, "bike_id": "9300a10728145604b9e5c19a0e1ce0ba", "lon": -77.02712666666666, "rental_uris": {"ios": "https://dc.lft.to/lastmile_qr_scan", "android": "https://dc.lft.to/lastmile_qr_scan"}}, {"name": "8b135f98aa2f18e461b8cb2f5b2dcb95", "fusion_lat": 0.0, "type": "electric_scooter", "lat": 38.93734716666667, "is_reserved": 0, "is_disabled": 0, "fusion_lon": 0.0, "bike_id": "8b135f98aa2f18e461b8cb2f5b2dcb95", "lon": -77.03268716666666, "rental_uris": {"ios": "https://dc.lft.to/lastmile_qr_scan", "android": "https://dc.lft.to/lastmile_qr_scan"}}, {"name": "f24680f01ce5c8be618d07008c674a3a", "fusion_lat": 0.0, "type": "electric_scooter", "lat": 38.90732666666667, "is_reserved": 0, "is_disabled": 0, "fusion_lon": 0.0, "bike_id": "f24680f01ce5c8be618d07008c674a3a", "lon": -77.01078466666667, "rental_uris": {"ios": "https://dc.lft.to/lastmile_qr_scan", "android": "https://dc.lft.to/lastmile_qr_scan"}}, {"name": "0e0988b918a0d757bef1c0c7007df5b4", "fusion_lat": 0.0, "type": "electric_scooter", "lat": 38.9182595, "is_reserved": 0, "is_disabled": 0, "fusion_lon": 0.0, "bike_id": "0e0988b918a0d757bef1c0c7007df5b4", "lon": -77.0241825, "rental_uris": {"ios": "https://dc.lft.to/lastmile_qr_scan", "android": "https://dc.lft.to/lastmile_qr_scan"}}, {"name": "60926d697edaa381b5822a1d21cbdff2", "fusion_lat": 0.0, "type": "electric_scooter", "lat": 38.902966, "is_reserved": 0, "is_disabled": 0, "fusion_lon": 0.0, "bike_id": "60926d697edaa381b5822a1d21cbdff2", "lon": -77.05800266666667, "rental_uris": {"ios": "https://dc.lft.to/lastmile_qr_scan", "android": "https://dc.lft.to/lastmile_qr_scan"}}, {"name": "683b5b8af825c3b1e3e805adf64f666e", "fusion_lat": 0.0, "type": "electric_scooter", "lat": 38.90637316666667, "is_reserved": 0, "is_disabled": 0, "fusion_lon": 0.0, "bike_id": "683b5b8af825c3b1e3e805adf64f666e", "lon": -76.985686, "rental_uris": {"ios": "https://dc.lft.to/lastmile_qr_scan", "android": "https://dc.lft.to/lastmile_qr_scan"}}, {"name": "f2fde6c37fbf7860b378c65ad6a5cf2a", "fusion_lat": 0.0, "type": "electric_scooter", "lat": 38.9231035, "is_reserved": 0, "is_disabled": 0, "fusion_lon": 0.0, "bike_id": "f2fde6c37fbf7860b378c65ad6a5cf2a", "lon": -77.02980066666667, "rental_uris": {"ios": "https://dc.lft.to/lastmile_qr_scan", "android": "https://dc.lft.to/lastmile_qr_scan"}}, {"name": "1aca29789ab0376acba3ce6535f1a7e3", "fusion_lat": 0.0, "type": "electric_bike", "lat": 38.824476, "is_reserved": 0, "is_disabled": 0, "fusion_lon": 0.0, "bike_id": "1aca29789ab0376acba3ce6535f1a7e3", "lon": -77.07044266666666, "rental_uris": {"ios": "https://dc.lft.to/lastmile_qr_scan", "android": "https://dc.lft.to/lastmile_qr_scan"}}, {"name": "862fc85c0589cbe5b6011c7f9016c05e", "fusion_lat": 0.0, "type": "electric_scooter", "lat": 38.931877, "is_reserved": 0, "is_disabled": 0, "fusion_lon": 0.0, "bike_id": "862fc85c0589cbe5b6011c7f9016c05e", "lon": -77.02582683333333, "rental_uris": {"ios": "https://dc.lft.to/lastmile_qr_scan", "android": "https://dc.lft.to/lastmile_qr_scan"}}, {"name": "c6404124a8b48a7a8d5b292dce43b87a", "fusion_lat": 0.0, "type": "electric_bike", "lat": 38.90288266666667, "is_reserved": 0, "is_disabled": 0, "fusion_lon": 0.0, "bike_id": "c6404124a8b48a7a8d5b292dce43b87a", "lon": -77.02021433333333, "rental_uris": {"ios": "https://dc.lft.to/lastmile_qr_scan", "android": "https://dc.lft.to/lastmile_qr_scan"}}, {"name": "aba0261f92e0f87e6366017f0c9c658d", "fusion_lat": 0.0, "type": "electric_scooter", "lat": 38.9022525, "is_reserved": 0, "is_disabled": 0, "fusion_lon": 0.0, "bike_id": "aba0261f92e0f87e6366017f0c9c658d", "lon": -77.03195566666666, "rental_uris": {"ios": "https://dc.lft.to/lastmile_qr_scan", "android": "https://dc.lft.to/lastmile_qr_scan"}}, {"name": "90ac99fc9b0f608eeb673b0e9aa2e5d4", "fusion_lat": 0.0, "type": "electric_scooter", "lat": 38.879192, "is_reserved": 0, "is_disabled": 0, "fusion_lon": 0.0, "bike_id": "90ac99fc9b0f608eeb673b0e9aa2e5d4", "lon": -77.022802, "rental_uris": {"ios": "https://dc.lft.to/lastmile_qr_scan", "android": "https://dc.lft.to/lastmile_qr_scan"}}, {"name": "a5f5780b2b85ad4205d8a20ba34da1f7", "fusion_lat": 0.0, "type": "electric_scooter", "lat": 38.910450833333336, "is_reserved": 0, "is_disabled": 0, "fusion_lon": 0.0, "bike_id": "a5f5780b2b85ad4205d8a20ba34da1f7", "lon": -77.043519, "rental_uris": {"ios": "https://dc.lft.to/lastmile_qr_scan", "android": "https://dc.lft.to/lastmile_qr_scan"}}, {"name": "606fb7c406f99076682525b83b55941a", "fusion_lat": 0.0, "type": "electric_scooter", "lat": 38.84294116666667, "is_reserved": 0, "is_disabled": 0, "fusion_lon": 0.0, "bike_id": "606fb7c406f99076682525b83b55941a", "lon": -76.99950616666666, "rental_uris": {"ios": "https://dc.lft.to/lastmile_qr_scan", "android": "https://dc.lft.to/lastmile_qr_scan"}}, {"name": "c6c27375015a2163f8fdef33018c9645", "fusion_lat": 0.0, "type": "electric_bike", "lat": 38.881304, "is_reserved": 0, "is_disabled": 0, "fusion_lon": 0.0, "bike_id": "c6c27375015a2163f8fdef33018c9645", "lon": -76.9808925, "rental_uris": {"ios": "https://dc.lft.to/lastmile_qr_scan", "android": "https://dc.lft.to/lastmile_qr_scan"}}, {"name": "d5f5a91cd8577bfb148a2b62dac10e10", "fusion_lat": 0.0, "type": "electric_scooter", "lat": 38.8844235, "is_reserved": 0, "is_disabled": 0, "fusion_lon": 0.0, "bike_id": "d5f5a91cd8577bfb148a2b62dac10e10", "lon": -77.0303685, "rental_uris": {"ios": "https://dc.lft.to/lastmile_qr_scan", "android": "https://dc.lft.to/lastmile_qr_scan"}}, {"name": "d0f6d2e2d16881db39bc2a57280d7bfb", "fusion_lat": 0.0, "type": "electric_scooter", "lat": 38.92204066666667, "is_reserved": 0, "is_disabled": 0, "fusion_lon": 0.0, "bike_id": "d0f6d2e2d16881db39bc2a57280d7bfb", "lon": -77.0412575, "rental_uris": {"ios": "https://dc.lft.to/lastmile_qr_scan", "android": "https://dc.lft.to/lastmile_qr_scan"}}, {"name": "7b71b9a5b8975e0f86fe16fbbfa1c22f", "fusion_lat": 0.0, "type": "electric_scooter", "lat": 38.90267166666667, "is_reserved": 0, "is_disabled": 0, "fusion_lon": 0.0, "bike_id": "7b71b9a5b8975e0f86fe16fbbfa1c22f", "lon": -76.99855533333333, "rental_uris": {"ios": "https://dc.lft.to/lastmile_qr_scan", "android": "https://dc.lft.to/lastmile_qr_scan"}}, {"name": "630f78ed1383261fe403c1f2f3c31683", "fusion_lat": 0.0, "type": "electric_scooter", "lat": 38.886527, "is_reserved": 0, "is_disabled": 0, "fusion_lon": 0.0, "bike_id": "630f78ed1383261fe403c1f2f3c31683", "lon": -77.01367483333334, "rental_uris": {"ios": "https://dc.lft.to/lastmile_qr_scan", "android": "https://dc.lft.to/lastmile_qr_scan"}}, {"name": "24972114332886a1f9d6df5f017c1710", "fusion_lat": 0.0, "type": "electric_scooter", "lat": 38.89526633333333, "is_reserved": 0, "is_disabled": 0, "fusion_lon": 0.0, "bike_id": "24972114332886a1f9d6df5f017c1710", "lon": -77.04291483333333, "rental_uris": {"ios": "https://dc.lft.to/lastmile_qr_scan", "android": "https://dc.lft.to/lastmile_qr_scan"}}, {"name": "45d06a6cbf69430b2c983d7ba6f39c31", "fusion_lat": 0.0, "type": "electric_scooter", "lat": 38.91870983333333, "is_reserved": 0, "is_disabled": 0, "fusion_lon": 0.0, "bike_id": "45d06a6cbf69430b2c983d7ba6f39c31", "lon": -77.036824, "rental_uris": {"ios": "https://dc.lft.to/lastmile_qr_scan", "android": "https://dc.lft.to/lastmile_qr_scan"}}, {"name": "87e3243c7d6c4ab03c496557e7b4312e", "fusion_lat": 0.0, "type": "electric_bike", "lat": 38.80224533333333, "is_reserved": 0, "is_disabled": 0, "fusion_lon": 0.0, "bike_id": "87e3243c7d6c4ab03c496557e7b4312e", "lon": -77.07919133333333, "rental_uris": {"ios": "https://dc.lft.to/lastmile_qr_scan", "android": "https://dc.lft.to/lastmile_qr_scan"}}, {"name": "ab67c693b56a152aa7c7f418f59c0840", "fusion_lat": 0.0, "type": "electric_bike", "lat": 38.935676666666666, "is_reserved": 0, "is_disabled": 0, "fusion_lon": 0.0, "bike_id": "ab67c693b56a152aa7c7f418f59c0840", "lon": -77.10443566666666, "rental_uris": {"ios": "https://dc.lft.to/lastmile_qr_scan", "android": "https://dc.lft.to/lastmile_qr_scan"}}, {"name": "60e6674fe0d72d6e23db192d90963e16", "fusion_lat": 0.0, "type": "electric_scooter", "lat": 38.911203, "is_reserved": 0, "is_disabled": 0, "fusion_lon": 0.0, "bike_id": "60e6674fe0d72d6e23db192d90963e16", "lon": -77.02200966666666, "rental_uris": {"ios": "https://dc.lft.to/lastmile_qr_scan", "android": "https://dc.lft.to/lastmile_qr_scan"}}, {"name": "77b9b431d1e46f330da89a9a09ab73bd", "fusion_lat": 0.0, "type": "electric_scooter", "lat": 38.91274266666667, "is_reserved": 0, "is_disabled": 0, "fusion_lon": 0.0, "bike_id": "77b9b431d1e46f330da89a9a09ab73bd", "lon": -77.03868933333334, "rental_uris": {"ios": "https://dc.lft.to/lastmile_qr_scan", "android": "https://dc.lft.to/lastmile_qr_scan"}}, {"name": "faba114057f6e099c4baa91752a0da6b", "fusion_lat": 0.0, "type": "electric_scooter", "lat": 38.916854, "is_reserved": 0, "is_disabled": 0, "fusion_lon": 0.0, "bike_id": "faba114057f6e099c4baa91752a0da6b", "lon": -77.03145816666667, "rental_uris": {"ios": "https://dc.lft.to/lastmile_qr_scan", "android": "https://dc.lft.to/lastmile_qr_scan"}}, {"name": "db655f7199d7c98b38ca9c20ee245d35", "fusion_lat": 0.0, "type": "electric_scooter", "lat": 38.909583166666664, "is_reserved": 0, "is_disabled": 0, "fusion_lon": 0.0, "bike_id": "db655f7199d7c98b38ca9c20ee245d35", "lon": -77.02388266666667, "rental_uris": {"ios": "https://dc.lft.to/lastmile_qr_scan", "android": "https://dc.lft.to/lastmile_qr_scan"}}, {"name": "d534957c1a488337bb526b9b9235924b", "fusion_lat": 0.0, "type": "electric_scooter", "lat": 38.906150833333335, "is_reserved": 0, "is_disabled": 0, "fusion_lon": 0.0, "bike_id": "d534957c1a488337bb526b9b9235924b", "lon": -77.024113, "rental_uris": {"ios": "https://dc.lft.to/lastmile_qr_scan", "android": "https://dc.lft.to/lastmile_qr_scan"}}, {"name": "721db37c25d48bf76c2642e1f76de4c9", "fusion_lat": 0.0, "type": "electric_scooter", "lat": 38.912530833333335, "is_reserved": 0, "is_disabled": 0, "fusion_lon": 0.0, "bike_id": "721db37c25d48bf76c2642e1f76de4c9", "lon": -77.038408, "rental_uris": {"ios": "https://dc.lft.to/lastmile_qr_scan", "android": "https://dc.lft.to/lastmile_qr_scan"}}, {"name": "d8bd2c37e3e4e59f428ff68dd9398275", "fusion_lat": 0.0, "type": "electric_scooter", "lat": 38.952734666666665, "is_reserved": 0, "is_disabled": 0, "fusion_lon": 0.0, "bike_id": "d8bd2c37e3e4e59f428ff68dd9398275", "lon": -77.0714855, "rental_uris": {"ios": "https://dc.lft.to/lastmile_qr_scan", "android": "https://dc.lft.to/lastmile_qr_scan"}}, {"name": "13a230c7f313f0f740235149349a535a", "fusion_lat": 0.0, "type": "electric_bike", "lat": 38.906820833333335, "is_reserved": 0, "is_disabled": 0, "fusion_lon": 0.0, "bike_id": "13a230c7f313f0f740235149349a535a", "lon": -76.95187816666666, "rental_uris": {"ios": "https://dc.lft.to/lastmile_qr_scan", "android": "https://dc.lft.to/lastmile_qr_scan"}}, {"name": "d6d802a08642444aa78aff009cf4e720", "fusion_lat": 0.0, "type": "electric_scooter", "lat": 38.903521833333336, "is_reserved": 0, "is_disabled": 0, "fusion_lon": 0.0, "bike_id": "d6d802a08642444aa78aff009cf4e720", "lon": -77.01105983333333, "rental_uris": {"ios": "https://dc.lft.to/lastmile_qr_scan", "android": "https://dc.lft.to/lastmile_qr_scan"}}, {"name": "8d9925eba30d45bf4d9c244251d81e54", "fusion_lat": 0.0, "type": "electric_scooter", "lat": 38.8983445, "is_reserved": 0, "is_disabled": 0, "fusion_lon": 0.0, "bike_id": "8d9925eba30d45bf4d9c244251d81e54", "lon": -76.94572716666667, "rental_uris": {"ios": "https://dc.lft.to/lastmile_qr_scan", "android": "https://dc.lft.to/lastmile_qr_scan"}}, {"name": "549dad12ba411adc946f79b80798d248", "fusion_lat": 0.0, "type": "electric_scooter", "lat": 38.941728833333336, "is_reserved": 0, "is_disabled": 0, "fusion_lon": 0.0, "bike_id": "549dad12ba411adc946f79b80798d248", "lon": -77.0250935, "rental_uris": {"ios": "https://dc.lft.to/lastmile_qr_scan", "android": "https://dc.lft.to/lastmile_qr_scan"}}, {"name": "32fdaa302e66da3b7bf72fb043ace8f4", "fusion_lat": 0.0, "type": "electric_bike", "lat": 38.89604716666667, "is_reserved": 0, "is_disabled": 0, "fusion_lon": 0.0, "bike_id": "32fdaa302e66da3b7bf72fb043ace8f4", "lon": -76.988447, "rental_uris": {"ios": "https://dc.lft.to/lastmile_qr_scan", "android": "https://dc.lft.to/lastmile_qr_scan"}}, {"name": "db9adaaa69c05b21487d80502052cb71", "fusion_lat": 0.0, "type": "electric_scooter", "lat": 38.864144833333334, "is_reserved": 0, "is_disabled": 0, "fusion_lon": 0.0, "bike_id": "db9adaaa69c05b21487d80502052cb71", "lon": -76.98047566666666, "rental_uris": {"ios": "https://dc.lft.to/lastmile_qr_scan", "android": "https://dc.lft.to/lastmile_qr_scan"}}, {"name": "518f6fea44143dd4e223757c049229a5", "fusion_lat": 0.0, "type": "electric_scooter", "lat": 38.92387316666667, "is_reserved": 0, "is_disabled": 0, "fusion_lon": 0.0, "bike_id": "518f6fea44143dd4e223757c049229a5", "lon": -77.02978883333333, "rental_uris": {"ios": "https://dc.lft.to/lastmile_qr_scan", "android": "https://dc.lft.to/lastmile_qr_scan"}}, {"name": "096f08fca367c0622d985a6096da00cd", "fusion_lat": 0.0, "type": "electric_scooter", "lat": 38.907486, "is_reserved": 0, "is_disabled": 0, "fusion_lon": 0.0, "bike_id": "096f08fca367c0622d985a6096da00cd", "lon": -76.98343566666667, "rental_uris": {"ios": "https://dc.lft.to/lastmile_qr_scan", "android": "https://dc.lft.to/lastmile_qr_scan"}}, {"name": "36291a03350b5004385ac8e582b1585b", "fusion_lat": 0.0, "type": "electric_scooter", "lat": 38.868214333333334, "is_reserved": 0, "is_disabled": 0, "fusion_lon": 0.0, "bike_id": "36291a03350b5004385ac8e582b1585b", "lon": -76.98622983333334, "rental_uris": {"ios": "https://dc.lft.to/lastmile_qr_scan", "android": "https://dc.lft.to/lastmile_qr_scan"}}, {"name": "c8fb19fade36fac58d618d56c6bb7d7d", "fusion_lat": 0.0, "type": "electric_scooter", "lat": 38.885139333333335, "is_reserved": 0, "is_disabled": 0, "fusion_lon": 0.0, "bike_id": "c8fb19fade36fac58d618d56c6bb7d7d", "lon": -77.00343116666667, "rental_uris": {"ios": "https://dc.lft.to/lastmile_qr_scan", "android": "https://dc.lft.to/lastmile_qr_scan"}}, {"name": "93c1518c15f57b27c89c46259bbb3734", "fusion_lat": 0.0, "type": "electric_scooter", "lat": 38.9301065, "is_reserved": 0, "is_disabled": 0, "fusion_lon": 0.0, "bike_id": "93c1518c15f57b27c89c46259bbb3734", "lon": -77.0231395, "rental_uris": {"ios": "https://dc.lft.to/lastmile_qr_scan", "android": "https://dc.lft.to/lastmile_qr_scan"}}, {"name": "32bd3fdfeb78840ddb164bacfb135d86", "fusion_lat": 0.0, "type": "electric_scooter", "lat": 38.9003485, "is_reserved": 0, "is_disabled": 0, "fusion_lon": 0.0, "bike_id": "32bd3fdfeb78840ddb164bacfb135d86", "lon": -77.00215033333333, "rental_uris": {"ios": "https://dc.lft.to/lastmile_qr_scan", "android": "https://dc.lft.to/lastmile_qr_scan"}}, {"name": "7926be4d06c4ffd14fd39b54b5c8c4a0", "fusion_lat": 0.0, "type": "electric_scooter", "lat": 38.912092, "is_reserved": 0, "is_disabled": 0, "fusion_lon": 0.0, "bike_id": "7926be4d06c4ffd14fd39b54b5c8c4a0", "lon": -77.03850583333333, "rental_uris": {"ios": "https://dc.lft.to/lastmile_qr_scan", "android": "https://dc.lft.to/lastmile_qr_scan"}}, {"name": "551faceb281384ad85c1561fcfbf8cf9", "fusion_lat": 0.0, "type": "electric_scooter", "lat": 38.898244166666665, "is_reserved": 0, "is_disabled": 0, "fusion_lon": 0.0, "bike_id": "551faceb281384ad85c1561fcfbf8cf9", "lon": -77.02947, "rental_uris": {"ios": "https://dc.lft.to/lastmile_qr_scan", "android": "https://dc.lft.to/lastmile_qr_scan"}}, {"name": "6336ea8cdb05a00d2ef0207d73c5b618", "fusion_lat": 0.0, "type": "electric_scooter", "lat": 38.90945416666667, "is_reserved": 0, "is_disabled": 0, "fusion_lon": 0.0, "bike_id": "6336ea8cdb05a00d2ef0207d73c5b618", "lon": -77.02353716666667, "rental_uris": {"ios": "https://dc.lft.to/lastmile_qr_scan", "android": "https://dc.lft.to/lastmile_qr_scan"}}, {"name": "718b10e3e7c0cb8db5099147afd47159", "fusion_lat": 0.0, "type": "electric_scooter", "lat": 38.89048583333334, "is_reserved": 0, "is_disabled": 0, "fusion_lon": 0.0, "bike_id": "718b10e3e7c0cb8db5099147afd47159", "lon": -76.937593, "rental_uris": {"ios": "https://dc.lft.to/lastmile_qr_scan", "android": "https://dc.lft.to/lastmile_qr_scan"}}, {"name": "a0099fe6458e116505aed9332b0e28d3", "fusion_lat": 0.0, "type": "electric_bike", "lat": 38.896383166666666, "is_reserved": 0, "is_disabled": 0, "fusion_lon": 0.0, "bike_id": "a0099fe6458e116505aed9332b0e28d3", "lon": -77.1046245, "rental_uris": {"ios": "https://dc.lft.to/lastmile_qr_scan", "android": "https://dc.lft.to/lastmile_qr_scan"}}, {"name": "4d53e9c1cd27dc30ef9a2261ff693248", "fusion_lat": 0.0, "type": "electric_scooter", "lat": 38.9233755, "is_reserved": 0, "is_disabled": 0, "fusion_lon": 0.0, "bike_id": "4d53e9c1cd27dc30ef9a2261ff693248", "lon": -77.03213866666667, "rental_uris": {"ios": "https://dc.lft.to/lastmile_qr_scan", "android": "https://dc.lft.to/lastmile_qr_scan"}}, {"name": "57e4e002a1f50de9ec50011658fd4ce6", "fusion_lat": 0.0, "type": "electric_scooter", "lat": 38.92636733333333, "is_reserved": 0, "is_disabled": 0, "fusion_lon": 0.0, "bike_id": "57e4e002a1f50de9ec50011658fd4ce6", "lon": -77.03694466666667, "rental_uris": {"ios": "https://dc.lft.to/lastmile_qr_scan", "android": "https://dc.lft.to/lastmile_qr_scan"}}, {"name": "e380735c1f1ab39ee7bc9610a9962d31", "fusion_lat": 0.0, "type": "electric_scooter", "lat": 38.899096, "is_reserved": 0, "is_disabled": 0, "fusion_lon": 0.0, "bike_id": "e380735c1f1ab39ee7bc9610a9962d31", "lon": -77.02155683333334, "rental_uris": {"ios": "https://dc.lft.to/lastmile_qr_scan", "android": "https://dc.lft.to/lastmile_qr_scan"}}, {"name": "22d8ae140ca0b90d75d9bbdf18bf4604", "fusion_lat": 0.0, "type": "electric_scooter", "lat": 38.905466833333335, "is_reserved": 0, "is_disabled": 0, "fusion_lon": 0.0, "bike_id": "22d8ae140ca0b90d75d9bbdf18bf4604", "lon": -77.04747633333334, "rental_uris": {"ios": "https://dc.lft.to/lastmile_qr_scan", "android": "https://dc.lft.to/lastmile_qr_scan"}}, {"name": "509cecc6dd7bd96e3d184f73c97253c0", "fusion_lat": 0.0, "type": "electric_scooter", "lat": 38.934958333333334, "is_reserved": 0, "is_disabled": 0, "fusion_lon": 0.0, "bike_id": "509cecc6dd7bd96e3d184f73c97253c0", "lon": -77.025494, "rental_uris": {"ios": "https://dc.lft.to/lastmile_qr_scan", "android": "https://dc.lft.to/lastmile_qr_scan"}}, {"name": "ca5c1830f50395f0367067ff7a2216c4", "fusion_lat": 0.0, "type": "electric_scooter", "lat": 38.8891745, "is_reserved": 0, "is_disabled": 0, "fusion_lon": 0.0, "bike_id": "ca5c1830f50395f0367067ff7a2216c4", "lon": -76.95377433333333, "rental_uris": {"ios": "https://dc.lft.to/lastmile_qr_scan", "android": "https://dc.lft.to/lastmile_qr_scan"}}, {"name": "5341aa03b33579e273ee43be2b6eb4e9", "fusion_lat": 0.0, "type": "electric_scooter", "lat": 38.921132166666666, "is_reserved": 0, "is_disabled": 0, "fusion_lon": 0.0, "bike_id": "5341aa03b33579e273ee43be2b6eb4e9", "lon": -77.04392, "rental_uris": {"ios": "https://dc.lft.to/lastmile_qr_scan", "android": "https://dc.lft.to/lastmile_qr_scan"}}, {"name": "2a06447cfd0d7d14706df582446e78bd", "fusion_lat": 0.0, "type": "electric_scooter", "lat": 38.92884883333333, "is_reserved": 0, "is_disabled": 0, "fusion_lon": 0.0, "bike_id": "2a06447cfd0d7d14706df582446e78bd", "lon": -77.023079, "rental_uris": {"ios": "https://dc.lft.to/lastmile_qr_scan", "android": "https://dc.lft.to/lastmile_qr_scan"}}, {"name": "13d8ffdf022dbee891e1de473c30233f", "fusion_lat": 0.0, "type": "electric_scooter", "lat": 38.8984475, "is_reserved": 0, "is_disabled": 0, "fusion_lon": 0.0, "bike_id": "13d8ffdf022dbee891e1de473c30233f", "lon": -77.03315883333333, "rental_uris": {"ios": "https://dc.lft.to/lastmile_qr_scan", "android": "https://dc.lft.to/lastmile_qr_scan"}}, {"name": "cf9d848f3e59d62e5f3ed0058f069dee", "fusion_lat": 0.0, "type": "electric_scooter", "lat": 38.90701, "is_reserved": 0, "is_disabled": 0, "fusion_lon": 0.0, "bike_id": "cf9d848f3e59d62e5f3ed0058f069dee", "lon": -76.9869755, "rental_uris": {"ios": "https://dc.lft.to/lastmile_qr_scan", "android": "https://dc.lft.to/lastmile_qr_scan"}}, {"name": "59b16f63a0996ffcdaca886227cd927e", "fusion_lat": 0.0, "type": "electric_bike", "lat": 38.930185333333334, "is_reserved": 0, "is_disabled": 0, "fusion_lon": 0.0, "bike_id": "59b16f63a0996ffcdaca886227cd927e", "lon": -77.03782083333333, "rental_uris": {"ios": "https://dc.lft.to/lastmile_qr_scan", "android": "https://dc.lft.to/lastmile_qr_scan"}}, {"name": "b9f1ee863f93175aea3ddfa38c41a428", "fusion_lat": 0.0, "type": "electric_scooter", "lat": 38.91558166666667, "is_reserved": 0, "is_disabled": 0, "fusion_lon": 0.0, "bike_id": "b9f1ee863f93175aea3ddfa38c41a428", "lon": -77.0428585, "rental_uris": {"ios": "https://dc.lft.to/lastmile_qr_scan", "android": "https://dc.lft.to/lastmile_qr_scan"}}, {"name": "6bc1691725617069d5dc9b395ef41985", "fusion_lat": 0.0, "type": "electric_scooter", "lat": 38.8944155, "is_reserved": 0, "is_disabled": 0, "fusion_lon": 0.0, "bike_id": "6bc1691725617069d5dc9b395ef41985", "lon": -77.011009, "rental_uris": {"ios": "https://dc.lft.to/lastmile_qr_scan", "android": "https://dc.lft.to/lastmile_qr_scan"}}, {"name": "fff78b918fdc028cd154df9cec8e53fb", "fusion_lat": 0.0, "type": "electric_scooter", "lat": 38.902707166666666, "is_reserved": 0, "is_disabled": 0, "fusion_lon": 0.0, "bike_id": "fff78b918fdc028cd154df9cec8e53fb", "lon": -77.040419, "rental_uris": {"ios": "https://dc.lft.to/lastmile_qr_scan", "android": "https://dc.lft.to/lastmile_qr_scan"}}, {"name": "286091e3dd48ec51eded26b03ccfd82c", "fusion_lat": 0.0, "type": "electric_bike", "lat": 38.81934583333334, "is_reserved": 0, "is_disabled": 0, "fusion_lon": 0.0, "bike_id": "286091e3dd48ec51eded26b03ccfd82c", "lon": -77.00207783333333, "rental_uris": {"ios": "https://dc.lft.to/lastmile_qr_scan", "android": "https://dc.lft.to/lastmile_qr_scan"}}, {"name": "59dc7f397d026f59739b03a0382fed70", "fusion_lat": 0.0, "type": "electric_scooter", "lat": 38.9268295, "is_reserved": 0, "is_disabled": 0, "fusion_lon": 0.0, "bike_id": "59dc7f397d026f59739b03a0382fed70", "lon": -77.01470483333334, "rental_uris": {"ios": "https://dc.lft.to/lastmile_qr_scan", "android": "https://dc.lft.to/lastmile_qr_scan"}}, {"name": "d7f90d8efce6c668bd3ff95b99f15e5d", "fusion_lat": 0.0, "type": "electric_bike", "lat": 38.96533316666667, "is_reserved": 0, "is_disabled": 0, "fusion_lon": 0.0, "bike_id": "d7f90d8efce6c668bd3ff95b99f15e5d", "lon": -77.0352455, "rental_uris": {"ios": "https://dc.lft.to/lastmile_qr_scan", "android": "https://dc.lft.to/lastmile_qr_scan"}}, {"name": "50404f7fdf7f5b48498601d346ca42d8", "fusion_lat": 0.0, "type": "electric_scooter", "lat": 38.9031595, "is_reserved": 0, "is_disabled": 0, "fusion_lon": 0.0, "bike_id": "50404f7fdf7f5b48498601d346ca42d8", "lon": -77.05323833333334, "rental_uris": {"ios": "https://dc.lft.to/lastmile_qr_scan", "android": "https://dc.lft.to/lastmile_qr_scan"}}, {"name": "56a8dc4b937306a95b929dabbad1a328", "fusion_lat": 0.0, "type": "electric_scooter", "lat": 38.894890833333335, "is_reserved": 0, "is_disabled": 0, "fusion_lon": 0.0, "bike_id": "56a8dc4b937306a95b929dabbad1a328", "lon": -77.01012983333334, "rental_uris": {"ios": "https://dc.lft.to/lastmile_qr_scan", "android": "https://dc.lft.to/lastmile_qr_scan"}}, {"name": "7bbc5984d1949d1be274a29823007a5f", "fusion_lat": 0.0, "type": "electric_scooter", "lat": 38.91041933333333, "is_reserved": 0, "is_disabled": 0, "fusion_lon": 0.0, "bike_id": "7bbc5984d1949d1be274a29823007a5f", "lon": -77.02825383333334, "rental_uris": {"ios": "https://dc.lft.to/lastmile_qr_scan", "android": "https://dc.lft.to/lastmile_qr_scan"}}, {"name": "3d8ddabaf50f1812d97d1e4e318c77f0", "fusion_lat": 0.0, "type": "electric_scooter", "lat": 38.91065116666667, "is_reserved": 0, "is_disabled": 0, "fusion_lon": 0.0, "bike_id": "3d8ddabaf50f1812d97d1e4e318c77f0", "lon": -77.008565, "rental_uris": {"ios": "https://dc.lft.to/lastmile_qr_scan", "android": "https://dc.lft.to/lastmile_qr_scan"}}, {"name": "058c2af5d0101bf687b8d073a69f0b49", "fusion_lat": 0.0, "type": "electric_scooter", "lat": 38.88824816666666, "is_reserved": 0, "is_disabled": 0, "fusion_lon": 0.0, "bike_id": "058c2af5d0101bf687b8d073a69f0b49", "lon": -77.049354, "rental_uris": {"ios": "https://dc.lft.to/lastmile_qr_scan", "android": "https://dc.lft.to/lastmile_qr_scan"}}, {"name": "98efc44d8db3c52db9b2b5f53a2f47a7", "fusion_lat": 0.0, "type": "electric_bike", "lat": 38.915501166666665, "is_reserved": 0, "is_disabled": 0, "fusion_lon": 0.0, "bike_id": "98efc44d8db3c52db9b2b5f53a2f47a7", "lon": -77.06755116666666, "rental_uris": {"ios": "https://dc.lft.to/lastmile_qr_scan", "android": "https://dc.lft.to/lastmile_qr_scan"}}, {"name": "d50be857698345fffdcab009b9e3552e", "fusion_lat": 0.0, "type": "electric_scooter", "lat": 38.919228333333336, "is_reserved": 0, "is_disabled": 0, "fusion_lon": 0.0, "bike_id": "d50be857698345fffdcab009b9e3552e", "lon": -77.03428933333333, "rental_uris": {"ios": "https://dc.lft.to/lastmile_qr_scan", "android": "https://dc.lft.to/lastmile_qr_scan"}}, {"name": "0276d326599c3efb29ec1aa9c227d59a", "fusion_lat": 0.0, "type": "electric_scooter", "lat": 38.892407666666664, "is_reserved": 0, "is_disabled": 0, "fusion_lon": 0.0, "bike_id": "0276d326599c3efb29ec1aa9c227d59a", "lon": -77.01527866666666, "rental_uris": {"ios": "https://dc.lft.to/lastmile_qr_scan", "android": "https://dc.lft.to/lastmile_qr_scan"}}, {"name": "d042313b2cbee4ad1dca34f3e01112d5", "fusion_lat": 0.0, "type": "electric_scooter", "lat": 38.899622666666666, "is_reserved": 0, "is_disabled": 0, "fusion_lon": 0.0, "bike_id": "d042313b2cbee4ad1dca34f3e01112d5", "lon": -77.0161165, "rental_uris": {"ios": "https://dc.lft.to/lastmile_qr_scan", "android": "https://dc.lft.to/lastmile_qr_scan"}}, {"name": "4756ce9c4765b1139bc3c6fe5bc92b6f", "fusion_lat": 0.0, "type": "electric_bike", "lat": 38.8637355, "is_reserved": 0, "is_disabled": 0, "fusion_lon": 0.0, "bike_id": "4756ce9c4765b1139bc3c6fe5bc92b6f", "lon": -77.12900833333333, "rental_uris": {"ios": "https://dc.lft.to/lastmile_qr_scan", "android": "https://dc.lft.to/lastmile_qr_scan"}}, {"name": "f8372a44ada02ee0f0e9aa6b9bbd64f3", "fusion_lat": 0.0, "type": "electric_scooter", "lat": 38.9187315, "is_reserved": 0, "is_disabled": 0, "fusion_lon": 0.0, "bike_id": "f8372a44ada02ee0f0e9aa6b9bbd64f3", "lon": -77.04490316666667, "rental_uris": {"ios": "https://dc.lft.to/lastmile_qr_scan", "android": "https://dc.lft.to/lastmile_qr_scan"}}, {"name": "c93a2371118adfe28a24ffbbf48aa36c", "fusion_lat": 0.0, "type": "electric_scooter", "lat": 38.912462, "is_reserved": 0, "is_disabled": 0, "fusion_lon": 0.0, "bike_id": "c93a2371118adfe28a24ffbbf48aa36c", "lon": -77.032096, "rental_uris": {"ios": "https://dc.lft.to/lastmile_qr_scan", "android": "https://dc.lft.to/lastmile_qr_scan"}}, {"name": "3aee1ab98a881bf45d60110314f6653a", "fusion_lat": 0.0, "type": "electric_scooter", "lat": 38.926291666666664, "is_reserved": 0, "is_disabled": 0, "fusion_lon": 0.0, "bike_id": "3aee1ab98a881bf45d60110314f6653a", "lon": -77.03794333333333, "rental_uris": {"ios": "https://dc.lft.to/lastmile_qr_scan", "android": "https://dc.lft.to/lastmile_qr_scan"}}, {"name": "9d71c1baf9e7a946ccf8bee8c6589f90", "fusion_lat": 0.0, "type": "electric_scooter", "lat": 38.920147, "is_reserved": 0, "is_disabled": 0, "fusion_lon": 0.0, "bike_id": "9d71c1baf9e7a946ccf8bee8c6589f90", "lon": -77.03118516666666, "rental_uris": {"ios": "https://dc.lft.to/lastmile_qr_scan", "android": "https://dc.lft.to/lastmile_qr_scan"}}, {"name": "83a80f1f8dcda7279aa0548aed1a2aa9", "fusion_lat": 0.0, "type": "electric_scooter", "lat": 38.91689316666667, "is_reserved": 0, "is_disabled": 0, "fusion_lon": 0.0, "bike_id": "83a80f1f8dcda7279aa0548aed1a2aa9", "lon": -77.03765183333333, "rental_uris": {"ios": "https://dc.lft.to/lastmile_qr_scan", "android": "https://dc.lft.to/lastmile_qr_scan"}}, {"name": "60cee1a3a941c32289c9f3276d566ea0", "fusion_lat": 0.0, "type": "electric_bike", "lat": 38.97085366666667, "is_reserved": 0, "is_disabled": 0, "fusion_lon": 0.0, "bike_id": "60cee1a3a941c32289c9f3276d566ea0", "lon": -77.06971033333333, "rental_uris": {"ios": "https://dc.lft.to/lastmile_qr_scan", "android": "https://dc.lft.to/lastmile_qr_scan"}}, {"name": "ef0037e9fb709cee5fe46327f2258ed4", "fusion_lat": 0.0, "type": "electric_scooter", "lat": 38.883868666666665, "is_reserved": 0, "is_disabled": 0, "fusion_lon": 0.0, "bike_id": "ef0037e9fb709cee5fe46327f2258ed4", "lon": -76.98566733333334, "rental_uris": {"ios": "https://dc.lft.to/lastmile_qr_scan", "android": "https://dc.lft.to/lastmile_qr_scan"}}, {"name": "21b2c495fa7629f665e31daa493f3338", "fusion_lat": 0.0, "type": "electric_bike", "lat": 38.984538, "is_reserved": 0, "is_disabled": 0, "fusion_lon": 0.0, "bike_id": "21b2c495fa7629f665e31daa493f3338", "lon": -76.95530316666667, "rental_uris": {"ios": "https://dc.lft.to/lastmile_qr_scan", "android": "https://dc.lft.to/lastmile_qr_scan"}}, {"name": "1baa7b5d29c359d93ea6accbfa0c8569", "fusion_lat": 0.0, "type": "electric_scooter", "lat": 38.89553633333333, "is_reserved": 0, "is_disabled": 0, "fusion_lon": 0.0, "bike_id": "1baa7b5d29c359d93ea6accbfa0c8569", "lon": -76.98373883333333, "rental_uris": {"ios": "https://dc.lft.to/lastmile_qr_scan", "android": "https://dc.lft.to/lastmile_qr_scan"}}, {"name": "aacd7bf5032d064708472ca479da2319", "fusion_lat": 0.0, "type": "electric_scooter", "lat": 38.88042766666667, "is_reserved": 0, "is_disabled": 0, "fusion_lon": 0.0, "bike_id": "aacd7bf5032d064708472ca479da2319", "lon": -76.9599395, "rental_uris": {"ios": "https://dc.lft.to/lastmile_qr_scan", "android": "https://dc.lft.to/lastmile_qr_scan"}}, {"name": "250f901b55083f935467de2bb91d396e", "fusion_lat": 0.0, "type": "electric_scooter", "lat": 38.87841133333333, "is_reserved": 0, "is_disabled": 0, "fusion_lon": 0.0, "bike_id": "250f901b55083f935467de2bb91d396e", "lon": -77.02283466666667, "rental_uris": {"ios": "https://dc.lft.to/lastmile_qr_scan", "android": "https://dc.lft.to/lastmile_qr_scan"}}, {"name": "78ab638398d497d6298e3e4a22d5c88d", "fusion_lat": 0.0, "type": "electric_scooter", "lat": 38.878277, "is_reserved": 0, "is_disabled": 0, "fusion_lon": 0.0, "bike_id": "78ab638398d497d6298e3e4a22d5c88d", "lon": -77.02262666666667, "rental_uris": {"ios": "https://dc.lft.to/lastmile_qr_scan", "android": "https://dc.lft.to/lastmile_qr_scan"}}, {"name": "09fa8e6a31e7eec6dcc7eb2299b3107e", "fusion_lat": 0.0, "type": "electric_bike", "lat": 38.852191833333336, "is_reserved": 0, "is_disabled": 0, "fusion_lon": 0.0, "bike_id": "09fa8e6a31e7eec6dcc7eb2299b3107e", "lon": -77.12966783333333, "rental_uris": {"ios": "https://dc.lft.to/lastmile_qr_scan", "android": "https://dc.lft.to/lastmile_qr_scan"}}, {"name": "656f3b4d578b04b0658772baee909b8d", "fusion_lat": 0.0, "type": "electric_scooter", "lat": 38.939119, "is_reserved": 0, "is_disabled": 0, "fusion_lon": 0.0, "bike_id": "656f3b4d578b04b0658772baee909b8d", "lon": -77.0365925, "rental_uris": {"ios": "https://dc.lft.to/lastmile_qr_scan", "android": "https://dc.lft.to/lastmile_qr_scan"}}, {"name": "8cbb90b8536b1b9ad41e7b9d7ab87534", "fusion_lat": 0.0, "type": "electric_scooter", "lat": 38.930546, "is_reserved": 0, "is_disabled": 0, "fusion_lon": 0.0, "bike_id": "8cbb90b8536b1b9ad41e7b9d7ab87534", "lon": -77.023187, "rental_uris": {"ios": "https://dc.lft.to/lastmile_qr_scan", "android": "https://dc.lft.to/lastmile_qr_scan"}}, {"name": "85db26f1388fe7f4e18c47515dff6af3", "fusion_lat": 0.0, "type": "electric_scooter", "lat": 38.9067215, "is_reserved": 0, "is_disabled": 0, "fusion_lon": 0.0, "bike_id": "85db26f1388fe7f4e18c47515dff6af3", "lon": -77.03851266666666, "rental_uris": {"ios": "https://dc.lft.to/lastmile_qr_scan", "android": "https://dc.lft.to/lastmile_qr_scan"}}, {"name": "dfe1bfc397bf03a243659843bf1e7cde", "fusion_lat": 0.0, "type": "electric_scooter", "lat": 38.89390233333334, "is_reserved": 0, "is_disabled": 0, "fusion_lon": 0.0, "bike_id": "dfe1bfc397bf03a243659843bf1e7cde", "lon": -77.05475833333334, "rental_uris": {"ios": "https://dc.lft.to/lastmile_qr_scan", "android": "https://dc.lft.to/lastmile_qr_scan"}}, {"name": "06d565f47ec41d0fc14cfef9850cfca5", "fusion_lat": 0.0, "type": "electric_scooter", "lat": 38.900297333333334, "is_reserved": 0, "is_disabled": 0, "fusion_lon": 0.0, "bike_id": "06d565f47ec41d0fc14cfef9850cfca5", "lon": -77.00211233333333, "rental_uris": {"ios": "https://dc.lft.to/lastmile_qr_scan", "android": "https://dc.lft.to/lastmile_qr_scan"}}, {"name": "0eedeca842c6b40865d723db5265f458", "fusion_lat": 0.0, "type": "electric_scooter", "lat": 38.900538833333336, "is_reserved": 0, "is_disabled": 0, "fusion_lon": 0.0, "bike_id": "0eedeca842c6b40865d723db5265f458", "lon": -76.947597, "rental_uris": {"ios": "https://dc.lft.to/lastmile_qr_scan", "android": "https://dc.lft.to/lastmile_qr_scan"}}, {"name": "afa59c57c269ad8960554c0e96ac21fc", "fusion_lat": 0.0, "type": "electric_scooter", "lat": 38.903412333333335, "is_reserved": 0, "is_disabled": 0, "fusion_lon": 0.0, "bike_id": "afa59c57c269ad8960554c0e96ac21fc", "lon": -76.971076, "rental_uris": {"ios": "https://dc.lft.to/lastmile_qr_scan", "android": "https://dc.lft.to/lastmile_qr_scan"}}, {"name": "b82fa8d99780378e8adb46301c94a07d", "fusion_lat": 0.0, "type": "electric_bike", "lat": 38.86590366666667, "is_reserved": 0, "is_disabled": 0, "fusion_lon": 0.0, "bike_id": "b82fa8d99780378e8adb46301c94a07d", "lon": -76.93232333333333, "rental_uris": {"ios": "https://dc.lft.to/lastmile_qr_scan", "android": "https://dc.lft.to/lastmile_qr_scan"}}, {"name": "591d3ef206a9485ac642f9cfe6653250", "fusion_lat": 0.0, "type": "electric_scooter", "lat": 38.90283983333333, "is_reserved": 0, "is_disabled": 0, "fusion_lon": 0.0, "bike_id": "591d3ef206a9485ac642f9cfe6653250", "lon": -77.03181666666667, "rental_uris": {"ios": "https://dc.lft.to/lastmile_qr_scan", "android": "https://dc.lft.to/lastmile_qr_scan"}}, {"name": "14fd804ceb9571238567061696b72252", "fusion_lat": 0.0, "type": "electric_scooter", "lat": 38.90482466666667, "is_reserved": 0, "is_disabled": 0, "fusion_lon": 0.0, "bike_id": "14fd804ceb9571238567061696b72252", "lon": -77.04144983333333, "rental_uris": {"ios": "https://dc.lft.to/lastmile_qr_scan", "android": "https://dc.lft.to/lastmile_qr_scan"}}, {"name": "98ee8f77723f1e9de2596e3ee313d5ad", "fusion_lat": 0.0, "type": "electric_scooter", "lat": 38.897296, "is_reserved": 0, "is_disabled": 0, "fusion_lon": 0.0, "bike_id": "98ee8f77723f1e9de2596e3ee313d5ad", "lon": -77.046556, "rental_uris": {"ios": "https://dc.lft.to/lastmile_qr_scan", "android": "https://dc.lft.to/lastmile_qr_scan"}}, {"name": "bc7e67ba2a6ca57941a9f3372c4adc20", "fusion_lat": 0.0, "type": "electric_scooter", "lat": 38.91808916666667, "is_reserved": 0, "is_disabled": 0, "fusion_lon": 0.0, "bike_id": "bc7e67ba2a6ca57941a9f3372c4adc20", "lon": -77.01150816666667, "rental_uris": {"ios": "https://dc.lft.to/lastmile_qr_scan", "android": "https://dc.lft.to/lastmile_qr_scan"}}, {"name": "ce18e6686513cd129744af3184f0aa05", "fusion_lat": 0.0, "type": "electric_scooter", "lat": 38.92513783333333, "is_reserved": 0, "is_disabled": 0, "fusion_lon": 0.0, "bike_id": "ce18e6686513cd129744af3184f0aa05", "lon": -77.02401, "rental_uris": {"ios": "https://dc.lft.to/lastmile_qr_scan", "android": "https://dc.lft.to/lastmile_qr_scan"}}, {"name": "0db19e5a7da8b46f9b63777ffece4697", "fusion_lat": 0.0, "type": "electric_scooter", "lat": 38.89662766666667, "is_reserved": 0, "is_disabled": 0, "fusion_lon": 0.0, "bike_id": "0db19e5a7da8b46f9b63777ffece4697", "lon": -77.04894766666666, "rental_uris": {"ios": "https://dc.lft.to/lastmile_qr_scan", "android": "https://dc.lft.to/lastmile_qr_scan"}}, {"name": "3994ee3f86018ccf6431bac0ff12ab26", "fusion_lat": 0.0, "type": "electric_scooter", "lat": 38.94978733333333, "is_reserved": 0, "is_disabled": 0, "fusion_lon": 0.0, "bike_id": "3994ee3f86018ccf6431bac0ff12ab26", "lon": -77.03499116666667, "rental_uris": {"ios": "https://dc.lft.to/lastmile_qr_scan", "android": "https://dc.lft.to/lastmile_qr_scan"}}, {"name": "db64d8018a17ef3074563a6b12e7212d", "fusion_lat": 0.0, "type": "electric_scooter", "lat": 38.92427333333333, "is_reserved": 0, "is_disabled": 0, "fusion_lon": 0.0, "bike_id": "db64d8018a17ef3074563a6b12e7212d", "lon": -77.05182783333333, "rental_uris": {"ios": "https://dc.lft.to/lastmile_qr_scan", "android": "https://dc.lft.to/lastmile_qr_scan"}}, {"name": "6d731e562ea711f95bbb840087a75b54", "fusion_lat": 0.0, "type": "electric_scooter", "lat": 38.892262333333335, "is_reserved": 0, "is_disabled": 0, "fusion_lon": 0.0, "bike_id": "6d731e562ea711f95bbb840087a75b54", "lon": -77.04500033333333, "rental_uris": {"ios": "https://dc.lft.to/lastmile_qr_scan", "android": "https://dc.lft.to/lastmile_qr_scan"}}, {"name": "828deed4d5285d0742c964ee93695631", "fusion_lat": 0.0, "type": "electric_scooter", "lat": 38.90457816666667, "is_reserved": 0, "is_disabled": 0, "fusion_lon": 0.0, "bike_id": "828deed4d5285d0742c964ee93695631", "lon": -77.04150716666666, "rental_uris": {"ios": "https://dc.lft.to/lastmile_qr_scan", "android": "https://dc.lft.to/lastmile_qr_scan"}}, {"name": "ec02df3a4b547a5d52153179104c078c", "fusion_lat": 0.0, "type": "electric_bike", "lat": 38.953607166666664, "is_reserved": 0, "is_disabled": 0, "fusion_lon": 0.0, "bike_id": "ec02df3a4b547a5d52153179104c078c", "lon": -77.0885755, "rental_uris": {"ios": "https://dc.lft.to/lastmile_qr_scan", "android": "https://dc.lft.to/lastmile_qr_scan"}}, {"name": "374818a44d9a813b5e5b097421b4a00c", "fusion_lat": 0.0, "type": "electric_scooter", "lat": 38.89543966666667, "is_reserved": 0, "is_disabled": 0, "fusion_lon": 0.0, "bike_id": "374818a44d9a813b5e5b097421b4a00c", "lon": -77.03106283333334, "rental_uris": {"ios": "https://dc.lft.to/lastmile_qr_scan", "android": "https://dc.lft.to/lastmile_qr_scan"}}, {"name": "11453757f963cd1dadaa17bcf22e28e1", "fusion_lat": 0.0, "type": "electric_scooter", "lat": 38.90972766666667, "is_reserved": 0, "is_disabled": 0, "fusion_lon": 0.0, "bike_id": "11453757f963cd1dadaa17bcf22e28e1", "lon": -77.044843, "rental_uris": {"ios": "https://dc.lft.to/lastmile_qr_scan", "android": "https://dc.lft.to/lastmile_qr_scan"}}, {"name": "479851abe6bd58c25367ef3fcc37e8e9", "fusion_lat": 0.0, "type": "electric_scooter", "lat": 38.919428, "is_reserved": 0, "is_disabled": 0, "fusion_lon": 0.0, "bike_id": "479851abe6bd58c25367ef3fcc37e8e9", "lon": -77.02361783333333, "rental_uris": {"ios": "https://dc.lft.to/lastmile_qr_scan", "android": "https://dc.lft.to/lastmile_qr_scan"}}, {"name": "3795c32eea3db985a9155d109e30cc01", "fusion_lat": 0.0, "type": "electric_scooter", "lat": 38.92032433333333, "is_reserved": 0, "is_disabled": 0, "fusion_lon": 0.0, "bike_id": "3795c32eea3db985a9155d109e30cc01", "lon": -77.02588333333334, "rental_uris": {"ios": "https://dc.lft.to/lastmile_qr_scan", "android": "https://dc.lft.to/lastmile_qr_scan"}}, {"name": "f5401b337c90bf96e3caf9468c508f27", "fusion_lat": 0.0, "type": "electric_scooter", "lat": 38.89885233333333, "is_reserved": 0, "is_disabled": 0, "fusion_lon": 0.0, "bike_id": "f5401b337c90bf96e3caf9468c508f27", "lon": -76.931772, "rental_uris": {"ios": "https://dc.lft.to/lastmile_qr_scan", "android": "https://dc.lft.to/lastmile_qr_scan"}}, {"name": "790e47610bc456f5341382e472f8c168", "fusion_lat": 0.0, "type": "electric_scooter", "lat": 38.9057835, "is_reserved": 0, "is_disabled": 0, "fusion_lon": 0.0, "bike_id": "790e47610bc456f5341382e472f8c168", "lon": -77.02207933333334, "rental_uris": {"ios": "https://dc.lft.to/lastmile_qr_scan", "android": "https://dc.lft.to/lastmile_qr_scan"}}, {"name": "94e6fdbb3c0046853279ee51171f2ee7", "fusion_lat": 0.0, "type": "electric_scooter", "lat": 38.91543933333333, "is_reserved": 0, "is_disabled": 0, "fusion_lon": 0.0, "bike_id": "94e6fdbb3c0046853279ee51171f2ee7", "lon": -77.0197575, "rental_uris": {"ios": "https://dc.lft.to/lastmile_qr_scan", "android": "https://dc.lft.to/lastmile_qr_scan"}}, {"name": "fb186049ca3064c25ea08f5c0ca8a520", "fusion_lat": 0.0, "type": "electric_scooter", "lat": 38.905221166666664, "is_reserved": 0, "is_disabled": 0, "fusion_lon": 0.0, "bike_id": "fb186049ca3064c25ea08f5c0ca8a520", "lon": -77.05011983333333, "rental_uris": {"ios": "https://dc.lft.to/lastmile_qr_scan", "android": "https://dc.lft.to/lastmile_qr_scan"}}, {"name": "cb4d4950b80075b62c3136ce77d81f63", "fusion_lat": 0.0, "type": "electric_scooter", "lat": 38.91799616666667, "is_reserved": 0, "is_disabled": 0, "fusion_lon": 0.0, "bike_id": "cb4d4950b80075b62c3136ce77d81f63", "lon": -77.0281245, "rental_uris": {"ios": "https://dc.lft.to/lastmile_qr_scan", "android": "https://dc.lft.to/lastmile_qr_scan"}}, {"name": "83e5630038ce149fab1ac1fc0d7d544d", "fusion_lat": 0.0, "type": "electric_scooter", "lat": 38.93384416666667, "is_reserved": 0, "is_disabled": 0, "fusion_lon": 0.0, "bike_id": "83e5630038ce149fab1ac1fc0d7d544d", "lon": -77.03160116666666, "rental_uris": {"ios": "https://dc.lft.to/lastmile_qr_scan", "android": "https://dc.lft.to/lastmile_qr_scan"}}, {"name": "55c2fd681f12ec7d35c5de07d61f78e2", "fusion_lat": 0.0, "type": "electric_scooter", "lat": 38.87648733333333, "is_reserved": 0, "is_disabled": 0, "fusion_lon": 0.0, "bike_id": "55c2fd681f12ec7d35c5de07d61f78e2", "lon": -76.96509033333334, "rental_uris": {"ios": "https://dc.lft.to/lastmile_qr_scan", "android": "https://dc.lft.to/lastmile_qr_scan"}}, {"name": "e716ceac37aec9bb6ac7fbbe6409a1f6", "fusion_lat": 0.0, "type": "electric_scooter", "lat": 38.9012935, "is_reserved": 0, "is_disabled": 0, "fusion_lon": 0.0, "bike_id": "e716ceac37aec9bb6ac7fbbe6409a1f6", "lon": -76.9918495, "rental_uris": {"ios": "https://dc.lft.to/lastmile_qr_scan", "android": "https://dc.lft.to/lastmile_qr_scan"}}, {"name": "afd12f2d00ae8c6c3ecbbf81ad751589", "fusion_lat": 0.0, "type": "electric_scooter", "lat": 38.89605483333333, "is_reserved": 0, "is_disabled": 0, "fusion_lon": 0.0, "bike_id": "afd12f2d00ae8c6c3ecbbf81ad751589", "lon": -77.05442483333333, "rental_uris": {"ios": "https://dc.lft.to/lastmile_qr_scan", "android": "https://dc.lft.to/lastmile_qr_scan"}}, {"name": "6bf1d81021f2e18e041633a0359ece7a", "fusion_lat": 0.0, "type": "electric_scooter", "lat": 38.9164535, "is_reserved": 0, "is_disabled": 0, "fusion_lon": 0.0, "bike_id": "6bf1d81021f2e18e041633a0359ece7a", "lon": -77.015926, "rental_uris": {"ios": "https://dc.lft.to/lastmile_qr_scan", "android": "https://dc.lft.to/lastmile_qr_scan"}}, {"name": "822ee2f6a7b453ab546a035b0e3905ba", "fusion_lat": 0.0, "type": "electric_bike", "lat": 38.862797, "is_reserved": 0, "is_disabled": 0, "fusion_lon": 0.0, "bike_id": "822ee2f6a7b453ab546a035b0e3905ba", "lon": -76.98005383333333, "rental_uris": {"ios": "https://dc.lft.to/lastmile_qr_scan", "android": "https://dc.lft.to/lastmile_qr_scan"}}, {"name": "e879a10a45965b56bfa65993f6695607", "fusion_lat": 0.0, "type": "electric_scooter", "lat": 38.937019666666664, "is_reserved": 0, "is_disabled": 0, "fusion_lon": 0.0, "bike_id": "e879a10a45965b56bfa65993f6695607", "lon": -77.02403333333334, "rental_uris": {"ios": "https://dc.lft.to/lastmile_qr_scan", "android": "https://dc.lft.to/lastmile_qr_scan"}}, {"name": "8aa6ae493dfc32c65c9a20f86b0f0c6d", "fusion_lat": 0.0, "type": "electric_scooter", "lat": 38.909548666666666, "is_reserved": 0, "is_disabled": 0, "fusion_lon": 0.0, "bike_id": "8aa6ae493dfc32c65c9a20f86b0f0c6d", "lon": -77.0237805, "rental_uris": {"ios": "https://dc.lft.to/lastmile_qr_scan", "android": "https://dc.lft.to/lastmile_qr_scan"}}, {"name": "b014f67b1e578654b0ef225c1867b78a", "fusion_lat": 0.0, "type": "electric_scooter", "lat": 38.90661566666667, "is_reserved": 0, "is_disabled": 0, "fusion_lon": 0.0, "bike_id": "b014f67b1e578654b0ef225c1867b78a", "lon": -77.0295305, "rental_uris": {"ios": "https://dc.lft.to/lastmile_qr_scan", "android": "https://dc.lft.to/lastmile_qr_scan"}}, {"name": "c482d4239bed3c3a24151b663f5c1028", "fusion_lat": 0.0, "type": "electric_scooter", "lat": 38.90956933333333, "is_reserved": 0, "is_disabled": 0, "fusion_lon": 0.0, "bike_id": "c482d4239bed3c3a24151b663f5c1028", "lon": -77.011343, "rental_uris": {"ios": "https://dc.lft.to/lastmile_qr_scan", "android": "https://dc.lft.to/lastmile_qr_scan"}}, {"name": "4220064fd3cf26ac946704f1d9680b1e", "fusion_lat": 0.0, "type": "electric_scooter", "lat": 38.8984765, "is_reserved": 0, "is_disabled": 0, "fusion_lon": 0.0, "bike_id": "4220064fd3cf26ac946704f1d9680b1e", "lon": -77.03308666666666, "rental_uris": {"ios": "https://dc.lft.to/lastmile_qr_scan", "android": "https://dc.lft.to/lastmile_qr_scan"}}, {"name": "d6d251024479844855383c94371bcb66", "fusion_lat": 0.0, "type": "electric_scooter", "lat": 38.877831666666665, "is_reserved": 0, "is_disabled": 0, "fusion_lon": 0.0, "bike_id": "d6d251024479844855383c94371bcb66", "lon": -76.99409733333333, "rental_uris": {"ios": "https://dc.lft.to/lastmile_qr_scan", "android": "https://dc.lft.to/lastmile_qr_scan"}}, {"name": "5e5279ac0524caeed32b92747ebc9a3e", "fusion_lat": 0.0, "type": "electric_scooter", "lat": 38.915635333333334, "is_reserved": 0, "is_disabled": 0, "fusion_lon": 0.0, "bike_id": "5e5279ac0524caeed32b92747ebc9a3e", "lon": -77.01416166666667, "rental_uris": {"ios": "https://dc.lft.to/lastmile_qr_scan", "android": "https://dc.lft.to/lastmile_qr_scan"}}, {"name": "1aa4d46dc336f0299afb3832bb800e07", "fusion_lat": 0.0, "type": "electric_scooter", "lat": 38.8954095, "is_reserved": 0, "is_disabled": 0, "fusion_lon": 0.0, "bike_id": "1aa4d46dc336f0299afb3832bb800e07", "lon": -77.0109055, "rental_uris": {"ios": "https://dc.lft.to/lastmile_qr_scan", "android": "https://dc.lft.to/lastmile_qr_scan"}}, {"name": "845d7164729b285d62c3d56932b65ebb", "fusion_lat": 0.0, "type": "electric_scooter", "lat": 38.91242333333334, "is_reserved": 0, "is_disabled": 0, "fusion_lon": 0.0, "bike_id": "845d7164729b285d62c3d56932b65ebb", "lon": -77.0487625, "rental_uris": {"ios": "https://dc.lft.to/lastmile_qr_scan", "android": "https://dc.lft.to/lastmile_qr_scan"}}, {"name": "bbc8f1529698b964eb859ff8272aae2d", "fusion_lat": 0.0, "type": "electric_scooter", "lat": 38.917699166666665, "is_reserved": 0, "is_disabled": 0, "fusion_lon": 0.0, "bike_id": "bbc8f1529698b964eb859ff8272aae2d", "lon": -77.02960866666666, "rental_uris": {"ios": "https://dc.lft.to/lastmile_qr_scan", "android": "https://dc.lft.to/lastmile_qr_scan"}}, {"name": "740f24c058aa1450fc9afccc65dbecb8", "fusion_lat": 0.0, "type": "electric_bike", "lat": 38.968328, "is_reserved": 0, "is_disabled": 0, "fusion_lon": 0.0, "bike_id": "740f24c058aa1450fc9afccc65dbecb8", "lon": -77.03330866666667, "rental_uris": {"ios": "https://dc.lft.to/lastmile_qr_scan", "android": "https://dc.lft.to/lastmile_qr_scan"}}, {"name": "cf1b8f93e193e2d3de627bee45daee76", "fusion_lat": 0.0, "type": "electric_scooter", "lat": 38.93204866666667, "is_reserved": 0, "is_disabled": 0, "fusion_lon": 0.0, "bike_id": "cf1b8f93e193e2d3de627bee45daee76", "lon": -77.02732216666666, "rental_uris": {"ios": "https://dc.lft.to/lastmile_qr_scan", "android": "https://dc.lft.to/lastmile_qr_scan"}}, {"name": "e7e292941437773c596b2308708d7609", "fusion_lat": 0.0, "type": "electric_scooter", "lat": 38.898981166666665, "is_reserved": 0, "is_disabled": 0, "fusion_lon": 0.0, "bike_id": "e7e292941437773c596b2308708d7609", "lon": -77.03939566666666, "rental_uris": {"ios": "https://dc.lft.to/lastmile_qr_scan", "android": "https://dc.lft.to/lastmile_qr_scan"}}, {"name": "7bf816572c93173367a0e91485d727c5", "fusion_lat": 0.0, "type": "electric_scooter", "lat": 38.874925, "is_reserved": 0, "is_disabled": 0, "fusion_lon": 0.0, "bike_id": "7bf816572c93173367a0e91485d727c5", "lon": -77.00172166666667, "rental_uris": {"ios": "https://dc.lft.to/lastmile_qr_scan", "android": "https://dc.lft.to/lastmile_qr_scan"}}, {"name": "f12db55470823f69428f19c95fc1f1ad", "fusion_lat": 0.0, "type": "electric_scooter", "lat": 38.899538166666666, "is_reserved": 0, "is_disabled": 0, "fusion_lon": 0.0, "bike_id": "f12db55470823f69428f19c95fc1f1ad", "lon": -77.03126866666666, "rental_uris": {"ios": "https://dc.lft.to/lastmile_qr_scan", "android": "https://dc.lft.to/lastmile_qr_scan"}}, {"name": "c69635410bb52407643f1bb39c754794", "fusion_lat": 0.0, "type": "electric_scooter", "lat": 38.896078333333335, "is_reserved": 0, "is_disabled": 0, "fusion_lon": 0.0, "bike_id": "c69635410bb52407643f1bb39c754794", "lon": -77.04684183333333, "rental_uris": {"ios": "https://dc.lft.to/lastmile_qr_scan", "android": "https://dc.lft.to/lastmile_qr_scan"}}, {"name": "b95c821123e71c1db5ad6bc6afd55850", "fusion_lat": 0.0, "type": "electric_scooter", "lat": 38.9029745, "is_reserved": 0, "is_disabled": 0, "fusion_lon": 0.0, "bike_id": "b95c821123e71c1db5ad6bc6afd55850", "lon": -77.04181616666666, "rental_uris": {"ios": "https://dc.lft.to/lastmile_qr_scan", "android": "https://dc.lft.to/lastmile_qr_scan"}}, {"name": "b72fa91622c24795a3d2e4306184e32b", "fusion_lat": 0.0, "type": "electric_scooter", "lat": 38.903922, "is_reserved": 0, "is_disabled": 0, "fusion_lon": 0.0, "bike_id": "b72fa91622c24795a3d2e4306184e32b", "lon": -77.04017533333334, "rental_uris": {"ios": "https://dc.lft.to/lastmile_qr_scan", "android": "https://dc.lft.to/lastmile_qr_scan"}}, {"name": "7db5e95b2cf784d78ff57c92eb1ac388", "fusion_lat": 0.0, "type": "electric_scooter", "lat": 38.930672333333334, "is_reserved": 0, "is_disabled": 0, "fusion_lon": 0.0, "bike_id": "7db5e95b2cf784d78ff57c92eb1ac388", "lon": -77.0396795, "rental_uris": {"ios": "https://dc.lft.to/lastmile_qr_scan", "android": "https://dc.lft.to/lastmile_qr_scan"}}, {"name": "81b4bf43dd2f7f5a8e36e72a3a389bde", "fusion_lat": 0.0, "type": "electric_scooter", "lat": 38.91331816666667, "is_reserved": 0, "is_disabled": 0, "fusion_lon": 0.0, "bike_id": "81b4bf43dd2f7f5a8e36e72a3a389bde", "lon": -77.03136466666666, "rental_uris": {"ios": "https://dc.lft.to/lastmile_qr_scan", "android": "https://dc.lft.to/lastmile_qr_scan"}}, {"name": "b66651ec6a026f923bfd7436f5dbdc47", "fusion_lat": 0.0, "type": "electric_scooter", "lat": 38.92239466666667, "is_reserved": 0, "is_disabled": 0, "fusion_lon": 0.0, "bike_id": "b66651ec6a026f923bfd7436f5dbdc47", "lon": -77.036639, "rental_uris": {"ios": "https://dc.lft.to/lastmile_qr_scan", "android": "https://dc.lft.to/lastmile_qr_scan"}}, {"name": "a53b866f89854e6af8b2c7ebba8f98b1", "fusion_lat": 0.0, "type": "electric_scooter", "lat": 38.923360333333335, "is_reserved": 0, "is_disabled": 0, "fusion_lon": 0.0, "bike_id": "a53b866f89854e6af8b2c7ebba8f98b1", "lon": -77.03668383333333, "rental_uris": {"ios": "https://dc.lft.to/lastmile_qr_scan", "android": "https://dc.lft.to/lastmile_qr_scan"}}, {"name": "bd8a3f96ff55d8bafa8375e406b1f418", "fusion_lat": 0.0, "type": "electric_scooter", "lat": 38.911209666666664, "is_reserved": 0, "is_disabled": 0, "fusion_lon": 0.0, "bike_id": "bd8a3f96ff55d8bafa8375e406b1f418", "lon": -77.02198016666667, "rental_uris": {"ios": "https://dc.lft.to/lastmile_qr_scan", "android": "https://dc.lft.to/lastmile_qr_scan"}}, {"name": "08461d3bf5de31faf950cdf7a03444cf", "fusion_lat": 0.0, "type": "electric_scooter", "lat": 38.865043166666666, "is_reserved": 0, "is_disabled": 0, "fusion_lon": 0.0, "bike_id": "08461d3bf5de31faf950cdf7a03444cf", "lon": -76.9900085, "rental_uris": {"ios": "https://dc.lft.to/lastmile_qr_scan", "android": "https://dc.lft.to/lastmile_qr_scan"}}, {"name": "6b289db73dfbeb3a2e0101198f7295a9", "fusion_lat": 0.0, "type": "electric_scooter", "lat": 38.89454816666667, "is_reserved": 0, "is_disabled": 0, "fusion_lon": 0.0, "bike_id": "6b289db73dfbeb3a2e0101198f7295a9", "lon": -77.03085883333334, "rental_uris": {"ios": "https://dc.lft.to/lastmile_qr_scan", "android": "https://dc.lft.to/lastmile_qr_scan"}}, {"name": "ffb45fc88b6c580a4ef941cc67d46b78", "fusion_lat": 0.0, "type": "electric_scooter", "lat": 38.87662683333333, "is_reserved": 0, "is_disabled": 0, "fusion_lon": 0.0, "bike_id": "ffb45fc88b6c580a4ef941cc67d46b78", "lon": -77.01571316666667, "rental_uris": {"ios": "https://dc.lft.to/lastmile_qr_scan", "android": "https://dc.lft.to/lastmile_qr_scan"}}, {"name": "fbdbd5e6595df7b6c2266c09ab33a5f1", "fusion_lat": 0.0, "type": "electric_scooter", "lat": 38.89726816666666, "is_reserved": 0, "is_disabled": 0, "fusion_lon": 0.0, "bike_id": "fbdbd5e6595df7b6c2266c09ab33a5f1", "lon": -77.0198515, "rental_uris": {"ios": "https://dc.lft.to/lastmile_qr_scan", "android": "https://dc.lft.to/lastmile_qr_scan"}}, {"name": "847fe6f15ff3e37ffbaf1d0cdffbce99", "fusion_lat": 0.0, "type": "electric_scooter", "lat": 38.9056825, "is_reserved": 0, "is_disabled": 0, "fusion_lon": 0.0, "bike_id": "847fe6f15ff3e37ffbaf1d0cdffbce99", "lon": -77.022181, "rental_uris": {"ios": "https://dc.lft.to/lastmile_qr_scan", "android": "https://dc.lft.to/lastmile_qr_scan"}}, {"name": "c75de26038af626d15e40867bf87e711", "fusion_lat": 0.0, "type": "electric_scooter", "lat": 38.919730333333334, "is_reserved": 0, "is_disabled": 0, "fusion_lon": 0.0, "bike_id": "c75de26038af626d15e40867bf87e711", "lon": -77.02368016666667, "rental_uris": {"ios": "https://dc.lft.to/lastmile_qr_scan", "android": "https://dc.lft.to/lastmile_qr_scan"}}, {"name": "d809c41c2bdf9db9331ad738c8c32bba", "fusion_lat": 0.0, "type": "electric_scooter", "lat": 38.8695985, "is_reserved": 0, "is_disabled": 0, "fusion_lon": 0.0, "bike_id": "d809c41c2bdf9db9331ad738c8c32bba", "lon": -77.013795, "rental_uris": {"ios": "https://dc.lft.to/lastmile_qr_scan", "android": "https://dc.lft.to/lastmile_qr_scan"}}, {"name": "e8abed207f9e72657a45e94f911f13cf", "fusion_lat": 0.0, "type": "electric_scooter", "lat": 38.91794383333333, "is_reserved": 0, "is_disabled": 0, "fusion_lon": 0.0, "bike_id": "e8abed207f9e72657a45e94f911f13cf", "lon": -77.02708616666666, "rental_uris": {"ios": "https://dc.lft.to/lastmile_qr_scan", "android": "https://dc.lft.to/lastmile_qr_scan"}}, {"name": "ccfe2c239a718bc47e29db3885257a6e", "fusion_lat": 0.0, "type": "electric_bike", "lat": 38.900789333333336, "is_reserved": 0, "is_disabled": 0, "fusion_lon": 0.0, "bike_id": "ccfe2c239a718bc47e29db3885257a6e", "lon": -77.013035, "rental_uris": {"ios": "https://dc.lft.to/lastmile_qr_scan", "android": "https://dc.lft.to/lastmile_qr_scan"}}, {"name": "7a95f66f24f2405ce05573c7d8e01963", "fusion_lat": 0.0, "type": "electric_scooter", "lat": 38.92272583333333, "is_reserved": 0, "is_disabled": 0, "fusion_lon": 0.0, "bike_id": "7a95f66f24f2405ce05573c7d8e01963", "lon": -77.03405616666667, "rental_uris": {"ios": "https://dc.lft.to/lastmile_qr_scan", "android": "https://dc.lft.to/lastmile_qr_scan"}}, {"name": "9369af0ef8d0a4ec3197ea111add8ef4", "fusion_lat": 0.0, "type": "electric_scooter", "lat": 38.90004116666667, "is_reserved": 0, "is_disabled": 0, "fusion_lon": 0.0, "bike_id": "9369af0ef8d0a4ec3197ea111add8ef4", "lon": -77.04136633333333, "rental_uris": {"ios": "https://dc.lft.to/lastmile_qr_scan", "android": "https://dc.lft.to/lastmile_qr_scan"}}, {"name": "00cb6a19314630ef3576219108b26834", "fusion_lat": 0.0, "type": "electric_bike", "lat": 39.02419066666667, "is_reserved": 0, "is_disabled": 0, "fusion_lon": 0.0, "bike_id": "00cb6a19314630ef3576219108b26834", "lon": -77.12507466666666, "rental_uris": {"ios": "https://dc.lft.to/lastmile_qr_scan", "android": "https://dc.lft.to/lastmile_qr_scan"}}, {"name": "3b8c6f34fce7e054eb2ff242c75f0aab", "fusion_lat": 0.0, "type": "electric_scooter", "lat": 38.9060265, "is_reserved": 0, "is_disabled": 0, "fusion_lon": 0.0, "bike_id": "3b8c6f34fce7e054eb2ff242c75f0aab", "lon": -77.05617883333333, "rental_uris": {"ios": "https://dc.lft.to/lastmile_qr_scan", "android": "https://dc.lft.to/lastmile_qr_scan"}}, {"name": "b4dcd892e8db0914c8928470bac834e0", "fusion_lat": 0.0, "type": "electric_bike", "lat": 38.96619416666667, "is_reserved": 0, "is_disabled": 0, "fusion_lon": 0.0, "bike_id": "b4dcd892e8db0914c8928470bac834e0", "lon": -76.94424983333333, "rental_uris": {"ios": "https://dc.lft.to/lastmile_qr_scan", "android": "https://dc.lft.to/lastmile_qr_scan"}}, {"name": "955125d9d85b2ab5ef7b38e3517f68c6", "fusion_lat": 0.0, "type": "electric_scooter", "lat": 38.96176616666666, "is_reserved": 0, "is_disabled": 0, "fusion_lon": 0.0, "bike_id": "955125d9d85b2ab5ef7b38e3517f68c6", "lon": -77.032288, "rental_uris": {"ios": "https://dc.lft.to/lastmile_qr_scan", "android": "https://dc.lft.to/lastmile_qr_scan"}}, {"name": "f6eac14e7bbfe804ad4818a777000187", "fusion_lat": 0.0, "type": "electric_scooter", "lat": 38.91549233333333, "is_reserved": 0, "is_disabled": 0, "fusion_lon": 0.0, "bike_id": "f6eac14e7bbfe804ad4818a777000187", "lon": -77.03834316666666, "rental_uris": {"ios": "https://dc.lft.to/lastmile_qr_scan", "android": "https://dc.lft.to/lastmile_qr_scan"}}, {"name": "62faf620fc6210a852d52d993b83e481", "fusion_lat": 0.0, "type": "electric_scooter", "lat": 38.9126535, "is_reserved": 0, "is_disabled": 0, "fusion_lon": 0.0, "bike_id": "62faf620fc6210a852d52d993b83e481", "lon": -77.04511333333333, "rental_uris": {"ios": "https://dc.lft.to/lastmile_qr_scan", "android": "https://dc.lft.to/lastmile_qr_scan"}}, {"name": "ea21bf96b4679ee31212b0c3356d5d2b", "fusion_lat": 0.0, "type": "electric_scooter", "lat": 38.90607833333333, "is_reserved": 0, "is_disabled": 0, "fusion_lon": 0.0, "bike_id": "ea21bf96b4679ee31212b0c3356d5d2b", "lon": -77.0470275, "rental_uris": {"ios": "https://dc.lft.to/lastmile_qr_scan", "android": "https://dc.lft.to/lastmile_qr_scan"}}, {"name": "a4eaf60f3fdbd3743b6f622f5b26415f", "fusion_lat": 0.0, "type": "electric_scooter", "lat": 38.8624335, "is_reserved": 0, "is_disabled": 0, "fusion_lon": 0.0, "bike_id": "a4eaf60f3fdbd3743b6f622f5b26415f", "lon": -76.9949975, "rental_uris": {"ios": "https://dc.lft.to/lastmile_qr_scan", "android": "https://dc.lft.to/lastmile_qr_scan"}}, {"name": "9d141c87f809a9c3d9b59844a395cbb7", "fusion_lat": 0.0, "type": "electric_bike", "lat": 38.883821166666664, "is_reserved": 0, "is_disabled": 0, "fusion_lon": 0.0, "bike_id": "9d141c87f809a9c3d9b59844a395cbb7", "lon": -76.98562483333333, "rental_uris": {"ios": "https://dc.lft.to/lastmile_qr_scan", "android": "https://dc.lft.to/lastmile_qr_scan"}}, {"name": "081f396562e87eeb05c96f1f0c2ff234", "fusion_lat": 0.0, "type": "electric_scooter", "lat": 38.943105833333334, "is_reserved": 0, "is_disabled": 0, "fusion_lon": 0.0, "bike_id": "081f396562e87eeb05c96f1f0c2ff234", "lon": -77.0247985, "rental_uris": {"ios": "https://dc.lft.to/lastmile_qr_scan", "android": "https://dc.lft.to/lastmile_qr_scan"}}, {"name": "451bd434a6da704fe6e7316999a4bfc0", "fusion_lat": 0.0, "type": "electric_scooter", "lat": 38.8859865, "is_reserved": 0, "is_disabled": 0, "fusion_lon": 0.0, "bike_id": "451bd434a6da704fe6e7316999a4bfc0", "lon": -77.02206116666666, "rental_uris": {"ios": "https://dc.lft.to/lastmile_qr_scan", "android": "https://dc.lft.to/lastmile_qr_scan"}}, {"name": "8e1a558bc5819ed3e389490d9fc6e758", "fusion_lat": 0.0, "type": "electric_bike", "lat": 38.999856, "is_reserved": 0, "is_disabled": 0, "fusion_lon": 0.0, "bike_id": "8e1a558bc5819ed3e389490d9fc6e758", "lon": -77.0800915, "rental_uris": {"ios": "https://dc.lft.to/lastmile_qr_scan", "android": "https://dc.lft.to/lastmile_qr_scan"}}, {"name": "c286979201ead95cf441502d3900556c", "fusion_lat": 0.0, "type": "electric_scooter", "lat": 38.900412333333335, "is_reserved": 0, "is_disabled": 0, "fusion_lon": 0.0, "bike_id": "c286979201ead95cf441502d3900556c", "lon": -76.98823133333333, "rental_uris": {"ios": "https://dc.lft.to/lastmile_qr_scan", "android": "https://dc.lft.to/lastmile_qr_scan"}}, {"name": "7006c6d0e768a078cdd346a43218d989", "fusion_lat": 0.0, "type": "electric_bike", "lat": 38.839932833333336, "is_reserved": 0, "is_disabled": 0, "fusion_lon": 0.0, "bike_id": "7006c6d0e768a078cdd346a43218d989", "lon": -77.005676, "rental_uris": {"ios": "https://dc.lft.to/lastmile_qr_scan", "android": "https://dc.lft.to/lastmile_qr_scan"}}, {"name": "e9272d66b8b809d12c167e09e9091b5b", "fusion_lat": 0.0, "type": "electric_scooter", "lat": 38.9124905, "is_reserved": 0, "is_disabled": 0, "fusion_lon": 0.0, "bike_id": "e9272d66b8b809d12c167e09e9091b5b", "lon": -77.0384045, "rental_uris": {"ios": "https://dc.lft.to/lastmile_qr_scan", "android": "https://dc.lft.to/lastmile_qr_scan"}}, {"name": "2abd964d57d83680ac87558f89be5caf", "fusion_lat": 0.0, "type": "electric_scooter", "lat": 38.885012333333336, "is_reserved": 0, "is_disabled": 0, "fusion_lon": 0.0, "bike_id": "2abd964d57d83680ac87558f89be5caf", "lon": -77.00570783333333, "rental_uris": {"ios": "https://dc.lft.to/lastmile_qr_scan", "android": "https://dc.lft.to/lastmile_qr_scan"}}, {"name": "e6952acd074eb4eec5936aad919a54f4", "fusion_lat": 0.0, "type": "electric_scooter", "lat": 38.912589, "is_reserved": 0, "is_disabled": 0, "fusion_lon": 0.0, "bike_id": "e6952acd074eb4eec5936aad919a54f4", "lon": -77.03874066666667, "rental_uris": {"ios": "https://dc.lft.to/lastmile_qr_scan", "android": "https://dc.lft.to/lastmile_qr_scan"}}, {"name": "21fe2d070ad65c1281d3c4bdbfc640cd", "fusion_lat": 0.0, "type": "electric_scooter", "lat": 38.929829, "is_reserved": 0, "is_disabled": 0, "fusion_lon": 0.0, "bike_id": "21fe2d070ad65c1281d3c4bdbfc640cd", "lon": -77.01454883333334, "rental_uris": {"ios": "https://dc.lft.to/lastmile_qr_scan", "android": "https://dc.lft.to/lastmile_qr_scan"}}, {"name": "4d08925742763ed0087bc6ea42c20741", "fusion_lat": 0.0, "type": "electric_scooter", "lat": 38.8993055, "is_reserved": 0, "is_disabled": 0, "fusion_lon": 0.0, "bike_id": "4d08925742763ed0087bc6ea42c20741", "lon": -77.053072, "rental_uris": {"ios": "https://dc.lft.to/lastmile_qr_scan", "android": "https://dc.lft.to/lastmile_qr_scan"}}, {"name": "7a8b4b99a2f56af3f150f5a96319607f", "fusion_lat": 0.0, "type": "electric_scooter", "lat": 38.91548566666667, "is_reserved": 0, "is_disabled": 0, "fusion_lon": 0.0, "bike_id": "7a8b4b99a2f56af3f150f5a96319607f", "lon": -77.04157, "rental_uris": {"ios": "https://dc.lft.to/lastmile_qr_scan", "android": "https://dc.lft.to/lastmile_qr_scan"}}, {"name": "041b211ac0f1c66588013df024f80f34", "fusion_lat": 0.0, "type": "electric_scooter", "lat": 38.93255716666667, "is_reserved": 0, "is_disabled": 0, "fusion_lon": 0.0, "bike_id": "041b211ac0f1c66588013df024f80f34", "lon": -77.04016466666667, "rental_uris": {"ios": "https://dc.lft.to/lastmile_qr_scan", "android": "https://dc.lft.to/lastmile_qr_scan"}}, {"name": "982b2249bc6b30aabe9702719f62eae7", "fusion_lat": 0.0, "type": "electric_scooter", "lat": 38.9033325, "is_reserved": 0, "is_disabled": 0, "fusion_lon": 0.0, "bike_id": "982b2249bc6b30aabe9702719f62eae7", "lon": -77.0654285, "rental_uris": {"ios": "https://dc.lft.to/lastmile_qr_scan", "android": "https://dc.lft.to/lastmile_qr_scan"}}, {"name": "adeeb46e645c14010b25a768feac37bf", "fusion_lat": 0.0, "type": "electric_bike", "lat": 38.881291, "is_reserved": 0, "is_disabled": 0, "fusion_lon": 0.0, "bike_id": "adeeb46e645c14010b25a768feac37bf", "lon": -77.0168225, "rental_uris": {"ios": "https://dc.lft.to/lastmile_qr_scan", "android": "https://dc.lft.to/lastmile_qr_scan"}}, {"name": "18d74af08189be1c6f824a5676437beb", "fusion_lat": 0.0, "type": "electric_scooter", "lat": 38.89967733333334, "is_reserved": 0, "is_disabled": 0, "fusion_lon": 0.0, "bike_id": "18d74af08189be1c6f824a5676437beb", "lon": -76.93964683333333, "rental_uris": {"ios": "https://dc.lft.to/lastmile_qr_scan", "android": "https://dc.lft.to/lastmile_qr_scan"}}, {"name": "cd6da4309bff42b952b5dd107bf7cd75", "fusion_lat": 0.0, "type": "electric_scooter", "lat": 38.8975065, "is_reserved": 0, "is_disabled": 0, "fusion_lon": 0.0, "bike_id": "cd6da4309bff42b952b5dd107bf7cd75", "lon": -77.03114266666667, "rental_uris": {"ios": "https://dc.lft.to/lastmile_qr_scan", "android": "https://dc.lft.to/lastmile_qr_scan"}}, {"name": "5544fc66ab9800731becf86542f9f451", "fusion_lat": 0.0, "type": "electric_scooter", "lat": 38.88428316666667, "is_reserved": 0, "is_disabled": 0, "fusion_lon": 0.0, "bike_id": "5544fc66ab9800731becf86542f9f451", "lon": -76.95758116666667, "rental_uris": {"ios": "https://dc.lft.to/lastmile_qr_scan", "android": "https://dc.lft.to/lastmile_qr_scan"}}, {"name": "351bedf46c36ac4165df6df49fea4cb9", "fusion_lat": 0.0, "type": "electric_scooter", "lat": 38.857054833333336, "is_reserved": 0, "is_disabled": 0, "fusion_lon": 0.0, "bike_id": "351bedf46c36ac4165df6df49fea4cb9", "lon": -76.98133133333333, "rental_uris": {"ios": "https://dc.lft.to/lastmile_qr_scan", "android": "https://dc.lft.to/lastmile_qr_scan"}}, {"name": "fbb1374302f12ab0fb691207acfb1c2b", "fusion_lat": 0.0, "type": "electric_scooter", "lat": 38.931905666666665, "is_reserved": 0, "is_disabled": 0, "fusion_lon": 0.0, "bike_id": "fbb1374302f12ab0fb691207acfb1c2b", "lon": -77.02839133333333, "rental_uris": {"ios": "https://dc.lft.to/lastmile_qr_scan", "android": "https://dc.lft.to/lastmile_qr_scan"}}, {"name": "6516db01d6bb7f821016e78f6aa55267", "fusion_lat": 0.0, "type": "electric_bike", "lat": 38.8484355, "is_reserved": 0, "is_disabled": 0, "fusion_lon": 0.0, "bike_id": "6516db01d6bb7f821016e78f6aa55267", "lon": -77.08050016666667, "rental_uris": {"ios": "https://dc.lft.to/lastmile_qr_scan", "android": "https://dc.lft.to/lastmile_qr_scan"}}, {"name": "50fd6b398c6c1322dfa100d979367f5d", "fusion_lat": 0.0, "type": "electric_scooter", "lat": 38.9072495, "is_reserved": 0, "is_disabled": 0, "fusion_lon": 0.0, "bike_id": "50fd6b398c6c1322dfa100d979367f5d", "lon": -77.02975816666667, "rental_uris": {"ios": "https://dc.lft.to/lastmile_qr_scan", "android": "https://dc.lft.to/lastmile_qr_scan"}}, {"name": "ef6b66c0a64227499f195b00adcd5a1e", "fusion_lat": 0.0, "type": "electric_scooter", "lat": 38.905626833333336, "is_reserved": 0, "is_disabled": 0, "fusion_lon": 0.0, "bike_id": "ef6b66c0a64227499f195b00adcd5a1e", "lon": -77.02214283333333, "rental_uris": {"ios": "https://dc.lft.to/lastmile_qr_scan", "android": "https://dc.lft.to/lastmile_qr_scan"}}, {"name": "4782b5222edb7625cdb498e97ba939f7", "fusion_lat": 0.0, "type": "electric_scooter", "lat": 38.939713, "is_reserved": 0, "is_disabled": 0, "fusion_lon": 0.0, "bike_id": "4782b5222edb7625cdb498e97ba939f7", "lon": -77.03556566666667, "rental_uris": {"ios": "https://dc.lft.to/lastmile_qr_scan", "android": "https://dc.lft.to/lastmile_qr_scan"}}, {"name": "223fd607816783c897133427e6bf800a", "fusion_lat": 0.0, "type": "electric_bike", "lat": 38.912650166666666, "is_reserved": 0, "is_disabled": 0, "fusion_lon": 0.0, "bike_id": "223fd607816783c897133427e6bf800a", "lon": -77.0304045, "rental_uris": {"ios": "https://dc.lft.to/lastmile_qr_scan", "android": "https://dc.lft.to/lastmile_qr_scan"}}, {"name": "437b75f3e464f9e7380083e7adc957b8", "fusion_lat": 0.0, "type": "electric_scooter", "lat": 38.8873875, "is_reserved": 0, "is_disabled": 0, "fusion_lon": 0.0, "bike_id": "437b75f3e464f9e7380083e7adc957b8", "lon": -77.02135233333334, "rental_uris": {"ios": "https://dc.lft.to/lastmile_qr_scan", "android": "https://dc.lft.to/lastmile_qr_scan"}}, {"name": "f9a2dddbda27f982fbecde402b734eef", "fusion_lat": 0.0, "type": "electric_scooter", "lat": 38.925294, "is_reserved": 0, "is_disabled": 0, "fusion_lon": 0.0, "bike_id": "f9a2dddbda27f982fbecde402b734eef", "lon": -77.05555733333334, "rental_uris": {"ios": "https://dc.lft.to/lastmile_qr_scan", "android": "https://dc.lft.to/lastmile_qr_scan"}}, {"name": "583395d97efadcc4e921f01aed3975fc", "fusion_lat": 0.0, "type": "electric_scooter", "lat": 38.95224783333333, "is_reserved": 0, "is_disabled": 0, "fusion_lon": 0.0, "bike_id": "583395d97efadcc4e921f01aed3975fc", "lon": -77.07072116666667, "rental_uris": {"ios": "https://dc.lft.to/lastmile_qr_scan", "android": "https://dc.lft.to/lastmile_qr_scan"}}, {"name": "3e0665c8d2603d86c07408e18cd8d9c7", "fusion_lat": 0.0, "type": "electric_scooter", "lat": 38.910554833333336, "is_reserved": 0, "is_disabled": 0, "fusion_lon": 0.0, "bike_id": "3e0665c8d2603d86c07408e18cd8d9c7", "lon": -77.04576766666666, "rental_uris": {"ios": "https://dc.lft.to/lastmile_qr_scan", "android": "https://dc.lft.to/lastmile_qr_scan"}}, {"name": "bb215ee4b6920c047ef488238ba1ceb4", "fusion_lat": 0.0, "type": "electric_scooter", "lat": 38.89481166666667, "is_reserved": 0, "is_disabled": 0, "fusion_lon": 0.0, "bike_id": "bb215ee4b6920c047ef488238ba1ceb4", "lon": -76.94873716666666, "rental_uris": {"ios": "https://dc.lft.to/lastmile_qr_scan", "android": "https://dc.lft.to/lastmile_qr_scan"}}, {"name": "a76dcdc8f1d84929cc17f2393dcdf481", "fusion_lat": 0.0, "type": "electric_bike", "lat": 38.82727783333333, "is_reserved": 0, "is_disabled": 0, "fusion_lon": 0.0, "bike_id": "a76dcdc8f1d84929cc17f2393dcdf481", "lon": -77.0085855, "rental_uris": {"ios": "https://dc.lft.to/lastmile_qr_scan", "android": "https://dc.lft.to/lastmile_qr_scan"}}, {"name": "72fec531d03b02199c1b30c780da77bd", "fusion_lat": 0.0, "type": "electric_scooter", "lat": 38.86503966666667, "is_reserved": 0, "is_disabled": 0, "fusion_lon": 0.0, "bike_id": "72fec531d03b02199c1b30c780da77bd", "lon": -76.99002016666667, "rental_uris": {"ios": "https://dc.lft.to/lastmile_qr_scan", "android": "https://dc.lft.to/lastmile_qr_scan"}}, {"name": "5d755408256d45a313658e601d8681c9", "fusion_lat": 0.0, "type": "electric_scooter", "lat": 38.9189225, "is_reserved": 0, "is_disabled": 0, "fusion_lon": 0.0, "bike_id": "5d755408256d45a313658e601d8681c9", "lon": -77.0529535, "rental_uris": {"ios": "https://dc.lft.to/lastmile_qr_scan", "android": "https://dc.lft.to/lastmile_qr_scan"}}, {"name": "d6600695b082e82e282173044621b5ec", "fusion_lat": 0.0, "type": "electric_scooter", "lat": 38.919222166666664, "is_reserved": 0, "is_disabled": 0, "fusion_lon": 0.0, "bike_id": "d6600695b082e82e282173044621b5ec", "lon": -77.03425366666667, "rental_uris": {"ios": "https://dc.lft.to/lastmile_qr_scan", "android": "https://dc.lft.to/lastmile_qr_scan"}}, {"name": "f52ff7f1d1cf3b7f392f9a1e4955b169", "fusion_lat": 0.0, "type": "electric_scooter", "lat": 38.93188516666667, "is_reserved": 0, "is_disabled": 0, "fusion_lon": 0.0, "bike_id": "f52ff7f1d1cf3b7f392f9a1e4955b169", "lon": -77.02833083333333, "rental_uris": {"ios": "https://dc.lft.to/lastmile_qr_scan", "android": "https://dc.lft.to/lastmile_qr_scan"}}, {"name": "41fa4e81555c2101f9b6412386c90fee", "fusion_lat": 0.0, "type": "electric_scooter", "lat": 38.909722333333335, "is_reserved": 0, "is_disabled": 0, "fusion_lon": 0.0, "bike_id": "41fa4e81555c2101f9b6412386c90fee", "lon": -77.02177533333334, "rental_uris": {"ios": "https://dc.lft.to/lastmile_qr_scan", "android": "https://dc.lft.to/lastmile_qr_scan"}}, {"name": "1568adb59d685c4a51a48c6925e976ec", "fusion_lat": 0.0, "type": "electric_scooter", "lat": 38.89475183333333, "is_reserved": 0, "is_disabled": 0, "fusion_lon": 0.0, "bike_id": "1568adb59d685c4a51a48c6925e976ec", "lon": -77.02384683333334, "rental_uris": {"ios": "https://dc.lft.to/lastmile_qr_scan", "android": "https://dc.lft.to/lastmile_qr_scan"}}, {"name": "0381e1af1397024b3227c7e607b5d276", "fusion_lat": 0.0, "type": "electric_scooter", "lat": 38.9258015, "is_reserved": 0, "is_disabled": 0, "fusion_lon": 0.0, "bike_id": "0381e1af1397024b3227c7e607b5d276", "lon": -77.052938, "rental_uris": {"ios": "https://dc.lft.to/lastmile_qr_scan", "android": "https://dc.lft.to/lastmile_qr_scan"}}, {"name": "79cd1603920ef14cec1744330ad73526", "fusion_lat": 0.0, "type": "electric_scooter", "lat": 38.901309833333336, "is_reserved": 0, "is_disabled": 0, "fusion_lon": 0.0, "bike_id": "79cd1603920ef14cec1744330ad73526", "lon": -77.03365216666667, "rental_uris": {"ios": "https://dc.lft.to/lastmile_qr_scan", "android": "https://dc.lft.to/lastmile_qr_scan"}}, {"name": "e04adefdec897cf1315fec3e3609862a", "fusion_lat": 0.0, "type": "electric_scooter", "lat": 38.92327983333333, "is_reserved": 0, "is_disabled": 0, "fusion_lon": 0.0, "bike_id": "e04adefdec897cf1315fec3e3609862a", "lon": -77.05436116666667, "rental_uris": {"ios": "https://dc.lft.to/lastmile_qr_scan", "android": "https://dc.lft.to/lastmile_qr_scan"}}, {"name": "76a7fb72cc5eeebc483082709b00d5b0", "fusion_lat": 0.0, "type": "electric_scooter", "lat": 38.886752666666666, "is_reserved": 0, "is_disabled": 0, "fusion_lon": 0.0, "bike_id": "76a7fb72cc5eeebc483082709b00d5b0", "lon": -76.936149, "rental_uris": {"ios": "https://dc.lft.to/lastmile_qr_scan", "android": "https://dc.lft.to/lastmile_qr_scan"}}, {"name": "c600331f8fe61fa2bea4d6f6e6d18994", "fusion_lat": 0.0, "type": "electric_scooter", "lat": 38.90267083333333, "is_reserved": 0, "is_disabled": 0, "fusion_lon": 0.0, "bike_id": "c600331f8fe61fa2bea4d6f6e6d18994", "lon": -77.01763633333333, "rental_uris": {"ios": "https://dc.lft.to/lastmile_qr_scan", "android": "https://dc.lft.to/lastmile_qr_scan"}}, {"name": "90f418a20017d7554e596f459fed23de", "fusion_lat": 0.0, "type": "electric_scooter", "lat": 38.9223175, "is_reserved": 0, "is_disabled": 0, "fusion_lon": 0.0, "bike_id": "90f418a20017d7554e596f459fed23de", "lon": -77.0471035, "rental_uris": {"ios": "https://dc.lft.to/lastmile_qr_scan", "android": "https://dc.lft.to/lastmile_qr_scan"}}, {"name": "75702b3bc336b88bd6aa5501e3b4a355", "fusion_lat": 0.0, "type": "electric_scooter", "lat": 38.92892283333333, "is_reserved": 0, "is_disabled": 0, "fusion_lon": 0.0, "bike_id": "75702b3bc336b88bd6aa5501e3b4a355", "lon": -77.03256816666666, "rental_uris": {"ios": "https://dc.lft.to/lastmile_qr_scan", "android": "https://dc.lft.to/lastmile_qr_scan"}}, {"name": "80d4d235a2d76519505deb84de347b47", "fusion_lat": 0.0, "type": "electric_scooter", "lat": 38.896273666666666, "is_reserved": 0, "is_disabled": 0, "fusion_lon": 0.0, "bike_id": "80d4d235a2d76519505deb84de347b47", "lon": -77.027159, "rental_uris": {"ios": "https://dc.lft.to/lastmile_qr_scan", "android": "https://dc.lft.to/lastmile_qr_scan"}}, {"name": "0baa84140c57b6c07019137778611811", "fusion_lat": 0.0, "type": "electric_scooter", "lat": 38.914215666666664, "is_reserved": 0, "is_disabled": 0, "fusion_lon": 0.0, "bike_id": "0baa84140c57b6c07019137778611811", "lon": -77.02209666666667, "rental_uris": {"ios": "https://dc.lft.to/lastmile_qr_scan", "android": "https://dc.lft.to/lastmile_qr_scan"}}, {"name": "fd2cbdecea78c34caaaacac5fb652295", "fusion_lat": 0.0, "type": "electric_scooter", "lat": 38.937065833333335, "is_reserved": 0, "is_disabled": 0, "fusion_lon": 0.0, "bike_id": "fd2cbdecea78c34caaaacac5fb652295", "lon": -77.06106366666667, "rental_uris": {"ios": "https://dc.lft.to/lastmile_qr_scan", "android": "https://dc.lft.to/lastmile_qr_scan"}}, {"name": "6c9e850bd56039c84403560e5963b9bf", "fusion_lat": 0.0, "type": "electric_scooter", "lat": 38.87666133333333, "is_reserved": 0, "is_disabled": 0, "fusion_lon": 0.0, "bike_id": "6c9e850bd56039c84403560e5963b9bf", "lon": -77.004174, "rental_uris": {"ios": "https://dc.lft.to/lastmile_qr_scan", "android": "https://dc.lft.to/lastmile_qr_scan"}}, {"name": "5333e8dd32788932d6e166972a68537e", "fusion_lat": 0.0, "type": "electric_scooter", "lat": 38.93390333333333, "is_reserved": 0, "is_disabled": 0, "fusion_lon": 0.0, "bike_id": "5333e8dd32788932d6e166972a68537e", "lon": -77.03583683333333, "rental_uris": {"ios": "https://dc.lft.to/lastmile_qr_scan", "android": "https://dc.lft.to/lastmile_qr_scan"}}, {"name": "20d77fd0beb4f51c953b662aed7d3cca", "fusion_lat": 0.0, "type": "electric_bike", "lat": 38.97381983333333, "is_reserved": 0, "is_disabled": 0, "fusion_lon": 0.0, "bike_id": "20d77fd0beb4f51c953b662aed7d3cca", "lon": -77.0647665, "rental_uris": {"ios": "https://dc.lft.to/lastmile_qr_scan", "android": "https://dc.lft.to/lastmile_qr_scan"}}, {"name": "4257100c3f48bea4f7a97e93a7578328", "fusion_lat": 0.0, "type": "electric_bike", "lat": 38.9990985, "is_reserved": 0, "is_disabled": 0, "fusion_lon": 0.0, "bike_id": "4257100c3f48bea4f7a97e93a7578328", "lon": -77.0462345, "rental_uris": {"ios": "https://dc.lft.to/lastmile_qr_scan", "android": "https://dc.lft.to/lastmile_qr_scan"}}, {"name": "18bddc3d22dccd2f0096811df03b7922", "fusion_lat": 0.0, "type": "electric_scooter", "lat": 38.876573, "is_reserved": 0, "is_disabled": 0, "fusion_lon": 0.0, "bike_id": "18bddc3d22dccd2f0096811df03b7922", "lon": -77.00072533333334, "rental_uris": {"ios": "https://dc.lft.to/lastmile_qr_scan", "android": "https://dc.lft.to/lastmile_qr_scan"}}, {"name": "edccfd11539d2b27c1db27d649408b9d", "fusion_lat": 0.0, "type": "electric_scooter", "lat": 38.8789155, "is_reserved": 0, "is_disabled": 0, "fusion_lon": 0.0, "bike_id": "edccfd11539d2b27c1db27d649408b9d", "lon": -77.00554416666667, "rental_uris": {"ios": "https://dc.lft.to/lastmile_qr_scan", "android": "https://dc.lft.to/lastmile_qr_scan"}}, {"name": "fba09f2404fffd19c5ab89193110fffd", "fusion_lat": 0.0, "type": "electric_scooter", "lat": 38.878156, "is_reserved": 0, "is_disabled": 0, "fusion_lon": 0.0, "bike_id": "fba09f2404fffd19c5ab89193110fffd", "lon": -77.005958, "rental_uris": {"ios": "https://dc.lft.to/lastmile_qr_scan", "android": "https://dc.lft.to/lastmile_qr_scan"}}, {"name": "81f0c50fa3e500c54569728456c36fca", "fusion_lat": 0.0, "type": "electric_scooter", "lat": 38.9090625, "is_reserved": 0, "is_disabled": 0, "fusion_lon": 0.0, "bike_id": "81f0c50fa3e500c54569728456c36fca", "lon": -77.02711983333333, "rental_uris": {"ios": "https://dc.lft.to/lastmile_qr_scan", "android": "https://dc.lft.to/lastmile_qr_scan"}}, {"name": "0b867eb3379a896535660a1136c7ed00", "fusion_lat": 0.0, "type": "electric_scooter", "lat": 38.9041735, "is_reserved": 0, "is_disabled": 0, "fusion_lon": 0.0, "bike_id": "0b867eb3379a896535660a1136c7ed00", "lon": -77.03436116666667, "rental_uris": {"ios": "https://dc.lft.to/lastmile_qr_scan", "android": "https://dc.lft.to/lastmile_qr_scan"}}, {"name": "bdc58681a1dcd5c4886cb99983b770a4", "fusion_lat": 0.0, "type": "electric_bike", "lat": 39.03860183333333, "is_reserved": 0, "is_disabled": 0, "fusion_lon": 0.0, "bike_id": "bdc58681a1dcd5c4886cb99983b770a4", "lon": -76.99026633333334, "rental_uris": {"ios": "https://dc.lft.to/lastmile_qr_scan", "android": "https://dc.lft.to/lastmile_qr_scan"}}, {"name": "81ba1fca7661501d4d16753ed73e3e73", "fusion_lat": 0.0, "type": "electric_scooter", "lat": 38.90953066666667, "is_reserved": 0, "is_disabled": 0, "fusion_lon": 0.0, "bike_id": "81ba1fca7661501d4d16753ed73e3e73", "lon": -77.02759616666667, "rental_uris": {"ios": "https://dc.lft.to/lastmile_qr_scan", "android": "https://dc.lft.to/lastmile_qr_scan"}}, {"name": "bdca9f2a834fe8600034e12ac8212916", "fusion_lat": 0.0, "type": "electric_scooter", "lat": 38.903573, "is_reserved": 0, "is_disabled": 0, "fusion_lon": 0.0, "bike_id": "bdca9f2a834fe8600034e12ac8212916", "lon": -77.05339933333333, "rental_uris": {"ios": "https://dc.lft.to/lastmile_qr_scan", "android": "https://dc.lft.to/lastmile_qr_scan"}}, {"name": "014b8e4e9f3aface9d399ff354672dfe", "fusion_lat": 0.0, "type": "electric_scooter", "lat": 38.916063, "is_reserved": 0, "is_disabled": 0, "fusion_lon": 0.0, "bike_id": "014b8e4e9f3aface9d399ff354672dfe", "lon": -77.03196666666666, "rental_uris": {"ios": "https://dc.lft.to/lastmile_qr_scan", "android": "https://dc.lft.to/lastmile_qr_scan"}}, {"name": "67de1e6a5caab94d55899e7c3eca0655", "fusion_lat": 0.0, "type": "electric_scooter", "lat": 38.922071, "is_reserved": 0, "is_disabled": 0, "fusion_lon": 0.0, "bike_id": "67de1e6a5caab94d55899e7c3eca0655", "lon": -77.04325283333333, "rental_uris": {"ios": "https://dc.lft.to/lastmile_qr_scan", "android": "https://dc.lft.to/lastmile_qr_scan"}}, {"name": "2dbfb1a9ebeb1a250e4c9b956619dd5f", "fusion_lat": 0.0, "type": "electric_scooter", "lat": 38.914052833333336, "is_reserved": 0, "is_disabled": 0, "fusion_lon": 0.0, "bike_id": "2dbfb1a9ebeb1a250e4c9b956619dd5f", "lon": -77.0131845, "rental_uris": {"ios": "https://dc.lft.to/lastmile_qr_scan", "android": "https://dc.lft.to/lastmile_qr_scan"}}, {"name": "ad281e073c5ae128925435c1e1dcb5f9", "fusion_lat": 0.0, "type": "electric_scooter", "lat": 38.93251716666666, "is_reserved": 0, "is_disabled": 0, "fusion_lon": 0.0, "bike_id": "ad281e073c5ae128925435c1e1dcb5f9", "lon": -77.0202635, "rental_uris": {"ios": "https://dc.lft.to/lastmile_qr_scan", "android": "https://dc.lft.to/lastmile_qr_scan"}}, {"name": "f8ece8e40154fbb76ae1fb84010e23aa", "fusion_lat": 0.0, "type": "electric_scooter", "lat": 38.917105666666664, "is_reserved": 0, "is_disabled": 0, "fusion_lon": 0.0, "bike_id": "f8ece8e40154fbb76ae1fb84010e23aa", "lon": -77.0314515, "rental_uris": {"ios": "https://dc.lft.to/lastmile_qr_scan", "android": "https://dc.lft.to/lastmile_qr_scan"}}, {"name": "95b6cd77ceba13508c3d61f10e51eb8b", "fusion_lat": 0.0, "type": "electric_scooter", "lat": 38.88598016666667, "is_reserved": 0, "is_disabled": 0, "fusion_lon": 0.0, "bike_id": "95b6cd77ceba13508c3d61f10e51eb8b", "lon": -77.02207833333334, "rental_uris": {"ios": "https://dc.lft.to/lastmile_qr_scan", "android": "https://dc.lft.to/lastmile_qr_scan"}}, {"name": "906a0f297389530f9ca236e48b07beb4", "fusion_lat": 0.0, "type": "electric_scooter", "lat": 38.934551166666665, "is_reserved": 0, "is_disabled": 0, "fusion_lon": 0.0, "bike_id": "906a0f297389530f9ca236e48b07beb4", "lon": -77.02919116666666, "rental_uris": {"ios": "https://dc.lft.to/lastmile_qr_scan", "android": "https://dc.lft.to/lastmile_qr_scan"}}, {"name": "a5d8152f4a73338660287b4dee014727", "fusion_lat": 0.0, "type": "electric_scooter", "lat": 38.90244766666667, "is_reserved": 0, "is_disabled": 0, "fusion_lon": 0.0, "bike_id": "a5d8152f4a73338660287b4dee014727", "lon": -77.04340783333333, "rental_uris": {"ios": "https://dc.lft.to/lastmile_qr_scan", "android": "https://dc.lft.to/lastmile_qr_scan"}}, {"name": "5ea97dc0580685d02b19ebc17e64bb11", "fusion_lat": 0.0, "type": "electric_scooter", "lat": 38.923630333333335, "is_reserved": 0, "is_disabled": 0, "fusion_lon": 0.0, "bike_id": "5ea97dc0580685d02b19ebc17e64bb11", "lon": -77.051354, "rental_uris": {"ios": "https://dc.lft.to/lastmile_qr_scan", "android": "https://dc.lft.to/lastmile_qr_scan"}}, {"name": "241275ce2a57608dcd3fd0c9297fde29", "fusion_lat": 0.0, "type": "electric_scooter", "lat": 38.860890833333336, "is_reserved": 0, "is_disabled": 0, "fusion_lon": 0.0, "bike_id": "241275ce2a57608dcd3fd0c9297fde29", "lon": -76.96707783333333, "rental_uris": {"ios": "https://dc.lft.to/lastmile_qr_scan", "android": "https://dc.lft.to/lastmile_qr_scan"}}, {"name": "742a9161b511a1183911a4926600192c", "fusion_lat": 0.0, "type": "electric_scooter", "lat": 38.9027105, "is_reserved": 0, "is_disabled": 0, "fusion_lon": 0.0, "bike_id": "742a9161b511a1183911a4926600192c", "lon": -77.0176695, "rental_uris": {"ios": "https://dc.lft.to/lastmile_qr_scan", "android": "https://dc.lft.to/lastmile_qr_scan"}}, {"name": "5ef9c5a85cc48e67a73faa0e4b94c3d0", "fusion_lat": 0.0, "type": "electric_bike", "lat": 38.9372495, "is_reserved": 0, "is_disabled": 0, "fusion_lon": 0.0, "bike_id": "5ef9c5a85cc48e67a73faa0e4b94c3d0", "lon": -77.0268755, "rental_uris": {"ios": "https://dc.lft.to/lastmile_qr_scan", "android": "https://dc.lft.to/lastmile_qr_scan"}}, {"name": "9eafa58f470a11ee19e339609fc1eb86", "fusion_lat": 0.0, "type": "electric_scooter", "lat": 38.8757235, "is_reserved": 0, "is_disabled": 0, "fusion_lon": 0.0, "bike_id": "9eafa58f470a11ee19e339609fc1eb86", "lon": -77.00614533333334, "rental_uris": {"ios": "https://dc.lft.to/lastmile_qr_scan", "android": "https://dc.lft.to/lastmile_qr_scan"}}, {"name": "a7e6b909f78ec498e5801d08166cc590", "fusion_lat": 0.0, "type": "electric_scooter", "lat": 38.903754666666664, "is_reserved": 0, "is_disabled": 0, "fusion_lon": 0.0, "bike_id": "a7e6b909f78ec498e5801d08166cc590", "lon": -77.04532616666667, "rental_uris": {"ios": "https://dc.lft.to/lastmile_qr_scan", "android": "https://dc.lft.to/lastmile_qr_scan"}}, {"name": "e7f43d1e0d6870532b21243e45804bf4", "fusion_lat": 0.0, "type": "electric_scooter", "lat": 38.92860266666667, "is_reserved": 0, "is_disabled": 0, "fusion_lon": 0.0, "bike_id": "e7f43d1e0d6870532b21243e45804bf4", "lon": -77.01377983333333, "rental_uris": {"ios": "https://dc.lft.to/lastmile_qr_scan", "android": "https://dc.lft.to/lastmile_qr_scan"}}, {"name": "694498073b199b3c84ab4db279b97a6e", "fusion_lat": 0.0, "type": "electric_scooter", "lat": 38.8964575, "is_reserved": 0, "is_disabled": 0, "fusion_lon": 0.0, "bike_id": "694498073b199b3c84ab4db279b97a6e", "lon": -77.0090555, "rental_uris": {"ios": "https://dc.lft.to/lastmile_qr_scan", "android": "https://dc.lft.to/lastmile_qr_scan"}},