{"data": {"bikes": [{"type": "electric_scooter", "name": "93ceca2f30d865f396a005e5f1c0a650", "rental_uris": {"ios": "https://dc.lft.to/lastmile_qr_scan", "android": "https://dc.lft.to/lastmile_qr_scan"}, "fusion_lon": 0.0, "lat": 38.90008733333333, "is_disabled": 0, "bike_id": "93ceca2f30d865f396a005e5f1c0a650", "fusion_lat": 0.0, "is_reserved": 0, "lon": -77.071369}, {"type": "electric_scooter", "name": "b7c2d0e64033094037ae71bbdd4ac891", "rental_uris": {"ios": "https://dc.lft.to/lastmile_qr_scan", "android": "https://dc.lft.to/lastmile_qr_scan"}, "fusion_lon": 0.0, "lat": 38.9055475, "is_disabled": 0, "bike_id": "b7c2d0e64033094037ae71bbdd4ac891", "fusion_lat": 0.0, "is_reserved": 0, "lon": -77.04637433333333}, {"type": "electric_scooter", "name": "a6f970e458917e5713bc27a0af4be605", "rental_uris": {"ios": "https://dc.lft.to/lastmile_qr_scan", "android": "https://dc.lft.to/lastmile_qr_scan"}, "fusion_lon": 0.0, "lat": 38.900469, "is_disabled": 0, "bike_id": "a6f970e458917e5713bc27a0af4be605", "fusion_lat": 0.0, "is_reserved": 0, "lon": -77.024088}, {"type": "electric_scooter", "name": "b04415570056e1a528277b90f0698295", "rental_uris": {"ios": "https://dc.lft.to/lastmile_qr_scan", "android": "https://dc.lft.to/lastmile_qr_scan"}, "fusion_lon": 0.0, "lat": 38.93880566666667, "is_disabled": 0, "bike_id": "b04415570056e1a528277b90f0698295", "fusion_lat": 0.0, "is_reserved": 0, "lon": -77.030798}, {"type": "electric_scooter", "name": "16155bd6995ed3655189328b529ceb90", "rental_uris": {"ios": "https://dc.lft.to/lastmile_qr_scan", "android": "https://dc.lft.to/lastmile_qr_scan"}, "fusion_lon": 0.0, "lat": 38.8963335, "is_disabled": 0, "bike_id": "16155bd6995ed3655189328b529ceb90", "fusion_lat": 0.0, "is_reserved": 0, "lon": -77.03321783333334}, {"type": "electric_scooter", "name": "4baa0d56b3c62b0f6c8b8f60e3b1428b", "rental_uris": {"ios": "https://dc.lft.to/lastmile_qr_scan", "android": "https://dc.lft.to/lastmile_qr_scan"}, "fusion_lon": 0.0, "lat": 38.904053166666664, "is_disabled": 0, "bike_id": "4baa0d56b3c62b0f6c8b8f60e3b1428b", "fusion_lat": 0.0, "is_reserved": 0, "lon": -77.033003}, {"type": "electric_scooter", "name": "231208949b248e77088ed0b622d9fc73", "rental_uris": {"ios": "https://dc.lft.to/lastmile_qr_scan", "android": "https://dc.lft.to/lastmile_qr_scan"}, "fusion_lon": 0.0, "lat": 38.94334533333333, "is_disabled": 0, "bike_id": "231208949b248e77088ed0b622d9fc73", "fusion_lat": 0.0, "is_reserved": 0, "lon": -77.02687116666667}, {"type": "electric_scooter", "name": "8a05fe6c07654e725d40cfbaca55a813", "rental_uris": {"ios": "https://dc.lft.to/lastmile_qr_scan", "android": "https://dc.lft.to/lastmile_qr_scan"}, "fusion_lon": 0.0, "lat": 38.9223505, "is_disabled": 0, "bike_id": "8a05fe6c07654e725d40cfbaca55a813", "fusion_lat": 0.0, "is_reserved": 0, "lon": -77.02978816666666}, {"type": "electric_scooter", "name": "6917eff2e641150bea5941388c157b7a", "rental_uris": {"ios": "https://dc.lft.to/lastmile_qr_scan", "android": "https://dc.lft.to/lastmile_qr_scan"}, "fusion_lon": 0.0, "lat": 38.90974933333333, "is_disabled": 0, "bike_id": "6917eff2e641150bea5941388c157b7a", "fusion_lat": 0.0, "is_reserved": 0, "lon": -77.034418}, {"type": "electric_scooter", "name": "271a36c9638625b59c1bb40402af6739", "rental_uris": {"ios": "https://dc.lft.to/lastmile_qr_scan", "android": "https://dc.lft.to/lastmile_qr_scan"}, "fusion_lon": 0.0, "lat": 38.916140666666664, "is_disabled": 0, "bike_id": "271a36c9638625b59c1bb40402af6739", "fusion_lat": 0.0, "is_reserved": 0, "lon": -77.0462215}, {"type": "electric_scooter", "name": "31c06d6eb4e4fa5507aaac3bcefbc17a", "rental_uris": {"ios": "https://dc.lft.to/lastmile_qr_scan", "android": "https://dc.lft.to/lastmile_qr_scan"}, "fusion_lon": 0.0, "lat": 38.9209005, "is_disabled": 0, "bike_id": "31c06d6eb4e4fa5507aaac3bcefbc17a", "fusion_lat": 0.0, "is_reserved": 0, "lon": -77.02256366666667}, {"type": "electric_scooter", "name": "171f4c69fc8e9c67096c3ef3d3363d66", "rental_uris": {"ios": "https://dc.lft.to/lastmile_qr_scan", "android": "https://dc.lft.to/lastmile_qr_scan"}, "fusion_lon": 0.0, "lat": 38.91413433333334, "is_disabled": 0, "bike_id": "171f4c69fc8e9c67096c3ef3d3363d66", "fusion_lat": 0.0, "is_reserved": 0, "lon": -77.02366866666667}, {"type": "electric_scooter", "name": "236bba7c942fcb9faefba961e269ccef", "rental_uris": {"ios": "https://dc.lft.to/lastmile_qr_scan", "android": "https://dc.lft.to/lastmile_qr_scan"}, "fusion_lon": 0.0, "lat": 38.896784333333336, "is_disabled": 0, "bike_id": "236bba7c942fcb9faefba961e269ccef", "fusion_lat": 0.0, "is_reserved": 0, "lon": -77.00517616666667}, {"type": "electric_scooter", "name": "34050c8a4210d39b95468c0cb20fc81c", "rental_uris": {"ios": "https://dc.lft.to/lastmile_qr_scan", "android": "https://dc.lft.to/lastmile_qr_scan"}, "fusion_lon": 0.0, "lat": 38.9105555, "is_disabled": 0, "bike_id": "34050c8a4210d39b95468c0cb20fc81c", "fusion_lat": 0.0, "is_reserved": 0, "lon": -77.04080733333333}, {"type": "electric_scooter", "name": "f62a6869cffb9a86aeee249cb9c42f53", "rental_uris": {"ios": "https://dc.lft.to/lastmile_qr_scan", "android": "https://dc.lft.to/lastmile_qr_scan"}, "fusion_lon": 0.0, "lat": 38.885921, "is_disabled": 0, "bike_id": "f62a6869cffb9a86aeee249cb9c42f53", "fusion_lat": 0.0, "is_reserved": 0, "lon": -77.0171815}, {"type": "electric_scooter", "name": "91f200a7018e565cfce29f02747f1107", "rental_uris": {"ios": "https://dc.lft.to/lastmile_qr_scan", "android": "https://dc.lft.to/lastmile_qr_scan"}, "fusion_lon": 0.0, "lat": 38.923506833333334, "is_disabled": 0, "bike_id": "91f200a7018e565cfce29f02747f1107", "fusion_lat": 0.0, "is_reserved": 0, "lon": -77.0433925}, {"type": "electric_scooter", "name": "a653241c1e40070e4d8acc9146cf53ad", "rental_uris": {"ios": "https://dc.lft.to/lastmile_qr_scan", "android": "https://dc.lft.to/lastmile_qr_scan"}, "fusion_lon": 0.0, "lat": 38.898066666666665, "is_disabled": 0, "bike_id": "a653241c1e40070e4d8acc9146cf53ad", "fusion_lat": 0.0, "is_reserved": 0, "lon": -77.0282495}, {"type": "electric_scooter", "name": "df78ef220c297e3f7583640a4bf3fda3", "rental_uris": {"ios": "https://dc.lft.to/lastmile_qr_scan", "android": "https://dc.lft.to/lastmile_qr_scan"}, "fusion_lon": 0.0, "lat": 38.91731883333333, "is_disabled": 0, "bike_id": "df78ef220c297e3f7583640a4bf3fda3", "fusion_lat": 0.0, "is_reserved": 0, "lon": -77.025984}, {"type": "electric_scooter", "name": "08ffa0db17286fb93f2fbcfd99491782", "rental_uris": {"ios": "https://dc.lft.to/lastmile_qr_scan", "android": "https://dc.lft.to/lastmile_qr_scan"}, "fusion_lon": 0.0, "lat": 38.93405033333333, "is_disabled": 0, "bike_id": "08ffa0db17286fb93f2fbcfd99491782", "fusion_lat": 0.0, "is_reserved": 0, "lon": -77.05745616666667}, {"type": "electric_scooter", "name": "8257d2135b7a532830acf1378d1dbc56", "rental_uris": {"ios": "https://dc.lft.to/lastmile_qr_scan", "android": "https://dc.lft.to/lastmile_qr_scan"}, "fusion_lon": 0.0, "lat": 38.94332466666667, "is_disabled": 0, "bike_id": "8257d2135b7a532830acf1378d1dbc56", "fusion_lat": 0.0, "is_reserved": 0, "lon": -77.01312433333334}, {"type": "electric_scooter", "name": "89e909e3e3b561244cb31fa8fe3ab972", "rental_uris": {"ios": "https://dc.lft.to/lastmile_qr_scan", "android": "https://dc.lft.to/lastmile_qr_scan"}, "fusion_lon": 0.0, "lat": 38.89298083333333, "is_disabled": 0, "bike_id": "89e909e3e3b561244cb31fa8fe3ab972", "fusion_lat": 0.0, "is_reserved": 0, "lon": -76.9752515}, {"type": "electric_scooter", "name": "2d7a586449a65a0260d853666a4d76e9", "rental_uris": {"ios": "https://dc.lft.to/lastmile_qr_scan", "android": "https://dc.lft.to/lastmile_qr_scan"}, "fusion_lon": 0.0, "lat": 38.913008, "is_disabled": 0, "bike_id": "2d7a586449a65a0260d853666a4d76e9", "fusion_lat": 0.0, "is_reserved": 0, "lon": -77.04865216666667}, {"type": "electric_scooter", "name": "39a8e538cc43d75975d8b86456a9b56e", "rental_uris": {"ios": "https://dc.lft.to/lastmile_qr_scan", "android": "https://dc.lft.to/lastmile_qr_scan"}, "fusion_lon": 0.0, "lat": 38.901957333333335, "is_disabled": 0, "bike_id": "39a8e538cc43d75975d8b86456a9b56e", "fusion_lat": 0.0, "is_reserved": 0, "lon": -76.98183116666667}, {"type": "electric_scooter", "name": "299f34f2738278859b024dd18be2879a", "rental_uris": {"ios": "https://dc.lft.to/lastmile_qr_scan", "android": "https://dc.lft.to/lastmile_qr_scan"}, "fusion_lon": 0.0, "lat": 38.936884666666664, "is_disabled": 0, "bike_id": "299f34f2738278859b024dd18be2879a", "fusion_lat": 0.0, "is_reserved": 0, "lon": -77.0363025}, {"type": "electric_scooter", "name": "21dd80292cb4895d5b52836f973b9017", "rental_uris": {"ios": "https://dc.lft.to/lastmile_qr_scan", "android": "https://dc.lft.to/lastmile_qr_scan"}, "fusion_lon": 0.0, "lat": 38.90165733333333, "is_disabled": 0, "bike_id": "21dd80292cb4895d5b52836f973b9017", "fusion_lat": 0.0, "is_reserved": 0, "lon": -77.01327533333334}, {"type": "electric_scooter", "name": "395f16c89ea36d8c139a8ab0e9535626", "rental_uris": {"ios": "https://dc.lft.to/lastmile_qr_scan", "android": "https://dc.lft.to/lastmile_qr_scan"}, "fusion_lon": 0.0, "lat": 38.904783, "is_disabled": 0, "bike_id": "395f16c89ea36d8c139a8ab0e9535626", "fusion_lat": 0.0, "is_reserved": 0, "lon": -77.04483866666666}, {"type": "electric_scooter", "name": "0170c594daddd6be4c649b388649a4ac", "rental_uris": {"ios": "https://dc.lft.to/lastmile_qr_scan", "android": "https://dc.lft.to/lastmile_qr_scan"}, "fusion_lon": 0.0, "lat": 38.92074133333333, "is_disabled": 0, "bike_id": "0170c594daddd6be4c649b388649a4ac", "fusion_lat": 0.0, "is_reserved": 0, "lon": -77.04101416666667}, {"type": "electric_scooter", "name": "6ec62d28bce88531c73e33bf96c9dc80", "rental_uris": {"ios": "https://dc.lft.to/lastmile_qr_scan", "android": "https://dc.lft.to/lastmile_qr_scan"}, "fusion_lon": 0.0, "lat": 38.90032266666667, "is_disabled": 0, "bike_id": "6ec62d28bce88531c73e33bf96c9dc80", "fusion_lat": 0.0, "is_reserved": 0, "lon": -77.01180083333334}, {"type": "electric_scooter", "name": "70df46c39be73b65a63069039aa206a1", "rental_uris": {"ios": "https://dc.lft.to/lastmile_qr_scan", "android": "https://dc.lft.to/lastmile_qr_scan"}, "fusion_lon": 0.0, "lat": 38.892319, "is_disabled": 0, "bike_id": "70df46c39be73b65a63069039aa206a1", "fusion_lat": 0.0, "is_reserved": 0, "lon": -77.02825033333333}, {"type": "electric_scooter", "name": "2b760f172ab65daa603c4eb12f2c4cda", "rental_uris": {"ios": "https://dc.lft.to/lastmile_qr_scan", "android": "https://dc.lft.to/lastmile_qr_scan"}, "fusion_lon": 0.0, "lat": 38.89288066666667, "is_disabled": 0, "bike_id": "2b760f172ab65daa603c4eb12f2c4cda", "fusion_lat": 0.0, "is_reserved": 0, "lon": -76.98307366666667}, {"type": "electric_scooter", "name": "125ccb6b0df34db612638349ccd9e1c4", "rental_uris": {"ios": "https://dc.lft.to/lastmile_qr_scan", "android": "https://dc.lft.to/lastmile_qr_scan"}, "fusion_lon": 0.0, "lat": 38.861686, "is_disabled": 0, "bike_id": "125ccb6b0df34db612638349ccd9e1c4", "fusion_lat": 0.0, "is_reserved": 0, "lon": -76.98368316666667}, {"type": "electric_scooter", "name": "c627a82a91484a2e725e8ac0210b457a", "rental_uris": {"ios": "https://dc.lft.to/lastmile_qr_scan", "android": "https://dc.lft.to/lastmile_qr_scan"}, "fusion_lon": 0.0, "lat": 38.907225, "is_disabled": 0, "bike_id": "c627a82a91484a2e725e8ac0210b457a", "fusion_lat": 0.0, "is_reserved": 0, "lon": -77.02563183333334}, {"type": "electric_scooter", "name": "2ad67458f96c64450973e384bbb33a5a", "rental_uris": {"ios": "https://dc.lft.to/lastmile_qr_scan", "android": "https://dc.lft.to/lastmile_qr_scan"}, "fusion_lon": 0.0, "lat": 38.89846, "is_disabled": 0, "bike_id": "2ad67458f96c64450973e384bbb33a5a", "fusion_lat": 0.0, "is_reserved": 0, "lon": -77.03956883333333}, {"type": "electric_scooter", "name": "cea61f024c132e4479b2aed6a13ffbff", "rental_uris": {"ios": "https://dc.lft.to/lastmile_qr_scan", "android": "https://dc.lft.to/lastmile_qr_scan"}, "fusion_lon": 0.0, "lat": 38.89532916666667, "is_disabled": 0, "bike_id": "cea61f024c132e4479b2aed6a13ffbff", "fusion_lat": 0.0, "is_reserved": 0, "lon": -76.94887883333334}, {"type": "electric_scooter", "name": "9cdc957042ccc98d7af52c51c77e692d", "rental_uris": {"ios": "https://dc.lft.to/lastmile_qr_scan", "android": "https://dc.lft.to/lastmile_qr_scan"}, "fusion_lon": 0.0, "lat": 38.917174833333334, "is_disabled": 0, "bike_id": "9cdc957042ccc98d7af52c51c77e692d", "fusion_lat": 0.0, "is_reserved": 0, "lon": -77.02884716666667}, {"type": "electric_scooter", "name": "46d4c4ad87a52f827c55789d6ac34093", "rental_uris": {"ios": "https://dc.lft.to/lastmile_qr_scan", "android": "https://dc.lft.to/lastmile_qr_scan"}, "fusion_lon": 0.0, "lat": 38.88427433333333, "is_disabled": 0, "bike_id": "46d4c4ad87a52f827c55789d6ac34093", "fusion_lat": 0.0, "is_reserved": 0, "lon": -76.95753033333334}, {"type": "electric_scooter", "name": "6f9c5e97942f8fb5a786bf483121d027", "rental_uris": {"ios": "https://dc.lft.to/lastmile_qr_scan", "android": "https://dc.lft.to/lastmile_qr_scan"}, "fusion_lon": 0.0, "lat": 38.9321835, "is_disabled": 0, "bike_id": "6f9c5e97942f8fb5a786bf483121d027", "fusion_lat": 0.0, "is_reserved": 0, "lon": -77.03353}, {"type": "electric_scooter", "name": "68266508c872857b5de5eb62fd4c89df", "rental_uris": {"ios": "https://dc.lft.to/lastmile_qr_scan", "android": "https://dc.lft.to/lastmile_qr_scan"}, "fusion_lon": 0.0, "lat": 38.917143, "is_disabled": 0, "bike_id": "68266508c872857b5de5eb62fd4c89df", "fusion_lat": 0.0, "is_reserved": 0, "lon": -77.0318005}, {"type": "electric_scooter", "name": "e60f50e612c97cd08a991546d0e6bdac", "rental_uris": {"ios": "https://dc.lft.to/lastmile_qr_scan", "android": "https://dc.lft.to/lastmile_qr_scan"}, "fusion_lon": 0.0, "lat": 38.92069683333333, "is_disabled": 0, "bike_id": "e60f50e612c97cd08a991546d0e6bdac", "fusion_lat": 0.0, "is_reserved": 0, "lon": -77.042264}, {"type": "electric_bike", "name": "cb9050ebb2fa66dabfa367bbe9f80b06", "rental_uris": {"ios": "https://dc.lft.to/lastmile_qr_scan", "android": "https://dc.lft.to/lastmile_qr_scan"}, "fusion_lon": 0.0, "lat": 38.929349333333334, "is_disabled": 0, "bike_id": "cb9050ebb2fa66dabfa367bbe9f80b06", "fusion_lat": 0.0, "is_reserved": 0, "lon": -77.037666}, {"type": "electric_scooter", "name": "6faf53b1cc6677220f3f092f87fef915", "rental_uris": {"ios": "https://dc.lft.to/lastmile_qr_scan", "android": "https://dc.lft.to/lastmile_qr_scan"}, "fusion_lon": 0.0, "lat": 38.89845783333333, "is_disabled": 0, "bike_id": "6faf53b1cc6677220f3f092f87fef915", "fusion_lat": 0.0, "is_reserved": 0, "lon": -77.01338416666667}, {"type": "electric_scooter", "name": "feec49b23d844df8f2d05b73adbaf2b8", "rental_uris": {"ios": "https://dc.lft.to/lastmile_qr_scan", "android": "https://dc.lft.to/lastmile_qr_scan"}, "fusion_lon": 0.0, "lat": 38.92046333333333, "is_disabled": 0, "bike_id": "feec49b23d844df8f2d05b73adbaf2b8", "fusion_lat": 0.0, "is_reserved": 0, "lon": -77.01677133333334}, {"type": "electric_scooter", "name": "e551a7167d12ed1ba5330fc83c91eec9", "rental_uris": {"ios": "https://dc.lft.to/lastmile_qr_scan", "android": "https://dc.lft.to/lastmile_qr_scan"}, "fusion_lon": 0.0, "lat": 38.90266833333333, "is_disabled": 0, "bike_id": "e551a7167d12ed1ba5330fc83c91eec9", "fusion_lat": 0.0, "is_reserved": 0, "lon": -77.03971683333333}, {"type": "electric_scooter", "name": "69cc11e09a5a21897e1d97dfea2a35d6", "rental_uris": {"ios": "https://dc.lft.to/lastmile_qr_scan", "android": "https://dc.lft.to/lastmile_qr_scan"}, "fusion_lon": 0.0, "lat": 38.925155833333335, "is_disabled": 0, "bike_id": "69cc11e09a5a21897e1d97dfea2a35d6", "fusion_lat": 0.0, "is_reserved": 0, "lon": -77.0228665}, {"type": "electric_scooter", "name": "323b58eb1544171d893d134e761b3994", "rental_uris": {"ios": "https://dc.lft.to/lastmile_qr_scan", "android": "https://dc.lft.to/lastmile_qr_scan"}, "fusion_lon": 0.0, "lat": 38.90223016666667, "is_disabled": 0, "bike_id": "323b58eb1544171d893d134e761b3994", "fusion_lat": 0.0, "is_reserved": 0, "lon": -77.02737316666666}, {"type": "electric_scooter", "name": "b72d1b60cd1a3cf4e9a4c69a8e479e0e", "rental_uris": {"ios": "https://dc.lft.to/lastmile_qr_scan", "android": "https://dc.lft.to/lastmile_qr_scan"}, "fusion_lon": 0.0, "lat": 38.892473, "is_disabled": 0, "bike_id": "b72d1b60cd1a3cf4e9a4c69a8e479e0e", "fusion_lat": 0.0, "is_reserved": 0, "lon": -77.02614633333333}, {"type": "electric_scooter", "name": "1e7081d9cb46786c2466e5a5cd713f1b", "rental_uris": {"ios": "https://dc.lft.to/lastmile_qr_scan", "android": "https://dc.lft.to/lastmile_qr_scan"}, "fusion_lon": 0.0, "lat": 38.905666333333336, "is_disabled": 0, "bike_id": "1e7081d9cb46786c2466e5a5cd713f1b", "fusion_lat": 0.0, "is_reserved": 0, "lon": -77.04019366666667}, {"type": "electric_scooter", "name": "02157a84eedfbde6bad4d4bebd09eaec", "rental_uris": {"ios": "https://dc.lft.to/lastmile_qr_scan", "android": "https://dc.lft.to/lastmile_qr_scan"}, "fusion_lon": 0.0, "lat": 38.952206333333336, "is_disabled": 0, "bike_id": "02157a84eedfbde6bad4d4bebd09eaec", "fusion_lat": 0.0, "is_reserved": 0, "lon": -77.08214433333333}, {"type": "electric_scooter", "name": "eca31c5d43ba89842a0a4a96c65960ab", "rental_uris": {"ios": "https://dc.lft.to/lastmile_qr_scan", "android": "https://dc.lft.to/lastmile_qr_scan"}, "fusion_lon": 0.0, "lat": 38.929531833333336, "is_disabled": 0, "bike_id": "eca31c5d43ba89842a0a4a96c65960ab", "fusion_lat": 0.0, "is_reserved": 0, "lon": -77.05509266666667}, {"type": "electric_bike", "name": "115e929f9670fe21a4d47802a9fb8845", "rental_uris": {"ios": "https://dc.lft.to/lastmile_qr_scan", "android": "https://dc.lft.to/lastmile_qr_scan"}, "fusion_lon": 0.0, "lat": 38.898996, "is_disabled": 0, "bike_id": "115e929f9670fe21a4d47802a9fb8845", "fusion_lat": 0.0, "is_reserved": 0, "lon": -77.09619933333333}, {"type": "electric_scooter", "name": "a557f984008e7fe232c474fede6809bc", "rental_uris": {"ios": "https://dc.lft.to/lastmile_qr_scan", "android": "https://dc.lft.to/lastmile_qr_scan"}, "fusion_lon": 0.0, "lat": 38.86682783333333, "is_disabled": 0, "bike_id": "a557f984008e7fe232c474fede6809bc", "fusion_lat": 0.0, "is_reserved": 0, "lon": -76.985698}, {"type": "electric_scooter", "name": "8555f5e93c84ffc7b87b5fe537f4a1eb", "rental_uris": {"ios": "https://dc.lft.to/lastmile_qr_scan", "android": "https://dc.lft.to/lastmile_qr_scan"}, "fusion_lon": 0.0, "lat": 38.908356833333336, "is_disabled": 0, "bike_id": "8555f5e93c84ffc7b87b5fe537f4a1eb", "fusion_lat": 0.0, "is_reserved": 0, "lon": -77.03549233333334}, {"type": "electric_scooter", "name": "efb2049e7d9c0de8b2416e2d10bd69b8", "rental_uris": {"ios": "https://dc.lft.to/lastmile_qr_scan", "android": "https://dc.lft.to/lastmile_qr_scan"}, "fusion_lon": 0.0, "lat": 38.90483366666667, "is_disabled": 0, "bike_id": "efb2049e7d9c0de8b2416e2d10bd69b8", "fusion_lat": 0.0, "is_reserved": 0, "lon": -77.002102}, {"type": "electric_scooter", "name": "d3fda2867e3bdea60633864c6aa56378", "rental_uris": {"ios": "https://dc.lft.to/lastmile_qr_scan", "android": "https://dc.lft.to/lastmile_qr_scan"}, "fusion_lon": 0.0, "lat": 38.908552, "is_disabled": 0, "bike_id": "d3fda2867e3bdea60633864c6aa56378", "fusion_lat": 0.0, "is_reserved": 0, "lon": -76.9979755}, {"type": "electric_scooter", "name": "3b1613c91fbb2de7a9a1167a8dfba0da", "rental_uris": {"ios": "https://dc.lft.to/lastmile_qr_scan", "android": "https://dc.lft.to/lastmile_qr_scan"}, "fusion_lon": 0.0, "lat": 38.877132, "is_disabled": 0, "bike_id": "3b1613c91fbb2de7a9a1167a8dfba0da", "fusion_lat": 0.0, "is_reserved": 0, "lon": -77.0041595}, {"type": "electric_scooter", "name": "597f14bc0a075979ac0530bc303ec387", "rental_uris": {"ios": "https://dc.lft.to/lastmile_qr_scan", "android": "https://dc.lft.to/lastmile_qr_scan"}, "fusion_lon": 0.0, "lat": 38.89326583333333, "is_disabled": 0, "bike_id": "597f14bc0a075979ac0530bc303ec387", "fusion_lat": 0.0, "is_reserved": 0, "lon": -77.0222795}, {"type": "electric_scooter", "name": "87314dee28f0b806b7cfdf760a21f645", "rental_uris": {"ios": "https://dc.lft.to/lastmile_qr_scan", "android": "https://dc.lft.to/lastmile_qr_scan"}, "fusion_lon": 0.0, "lat": 38.924788, "is_disabled": 0, "bike_id": "87314dee28f0b806b7cfdf760a21f645", "fusion_lat": 0.0, "is_reserved": 0, "lon": -76.99034183333333}, {"type": "electric_bike", "name": "560b831e84535ef3c9897beb32eb03ea", "rental_uris": {"ios": "https://dc.lft.to/lastmile_qr_scan", "android": "https://dc.lft.to/lastmile_qr_scan"}, "fusion_lon": 0.0, "lat": 38.85767583333333, "is_disabled": 0, "bike_id": "560b831e84535ef3c9897beb32eb03ea", "fusion_lat": 0.0, "is_reserved": 0, "lon": -77.0865735}, {"type": "electric_scooter", "name": "67639ed79fffe27e7465095dc35d45e3", "rental_uris": {"ios": "https://dc.lft.to/lastmile_qr_scan", "android": "https://dc.lft.to/lastmile_qr_scan"}, "fusion_lon": 0.0, "lat": 38.926733666666664, "is_disabled": 0, "bike_id": "67639ed79fffe27e7465095dc35d45e3", "fusion_lat": 0.0, "is_reserved": 0, "lon": -77.01511383333333}, {"type": "electric_scooter", "name": "698f47b0ca11159f37f11da85834af86", "rental_uris": {"ios": "https://dc.lft.to/lastmile_qr_scan", "android": "https://dc.lft.to/lastmile_qr_scan"}, "fusion_lon": 0.0, "lat": 38.9009515, "is_disabled": 0, "bike_id": "698f47b0ca11159f37f11da85834af86", "fusion_lat": 0.0, "is_reserved": 0, "lon": -77.024521}, {"type": "electric_scooter", "name": "b019b94e96480e4850731f059ff0bec8", "rental_uris": {"ios": "https://dc.lft.to/lastmile_qr_scan", "android": "https://dc.lft.to/lastmile_qr_scan"}, "fusion_lon": 0.0, "lat": 38.92301783333333, "is_disabled": 0, "bike_id": "b019b94e96480e4850731f059ff0bec8", "fusion_lat": 0.0, "is_reserved": 0, "lon": -77.02442166666667}, {"type": "electric_bike", "name": "1a385249a37c2de7c721425d2fcebb71", "rental_uris": {"ios": "https://dc.lft.to/lastmile_qr_scan", "android": "https://dc.lft.to/lastmile_qr_scan"}, "fusion_lon": 0.0, "lat": 38.96199683333333, "is_disabled": 0, "bike_id": "1a385249a37c2de7c721425d2fcebb71", "fusion_lat": 0.0, "is_reserved": 0, "lon": -77.000823}, {"type": "electric_bike", "name": "6d8291db7f81fd3b5b9a9270018cc7cb", "rental_uris": {"ios": "https://dc.lft.to/lastmile_qr_scan", "android": "https://dc.lft.to/lastmile_qr_scan"}, "fusion_lon": 0.0, "lat": 38.990987833333335, "is_disabled": 0, "bike_id": "6d8291db7f81fd3b5b9a9270018cc7cb", "fusion_lat": 0.0, "is_reserved": 0, "lon": -76.99374466666667}, {"type": "electric_scooter", "name": "ac39d300e696b301b620693cd9e45d53", "rental_uris": {"ios": "https://dc.lft.to/lastmile_qr_scan", "android": "https://dc.lft.to/lastmile_qr_scan"}, "fusion_lon": 0.0, "lat": 38.92419833333334, "is_disabled": 0, "bike_id": "ac39d300e696b301b620693cd9e45d53", "fusion_lat": 0.0, "is_reserved": 0, "lon": -77.02007533333334}, {"type": "electric_scooter", "name": "dd8c40c4c696a550f806f8431053f627", "rental_uris": {"ios": "https://dc.lft.to/lastmile_qr_scan", "android": "https://dc.lft.to/lastmile_qr_scan"}, "fusion_lon": 0.0, "lat": 38.919123666666664, "is_disabled": 0, "bike_id": "dd8c40c4c696a550f806f8431053f627", "fusion_lat": 0.0, "is_reserved": 0, "lon": -77.03178733333333}, {"type": "electric_scooter", "name": "26fa601e8ca3a71d51800437f900c0e8", "rental_uris": {"ios": "https://dc.lft.to/lastmile_qr_scan", "android": "https://dc.lft.to/lastmile_qr_scan"}, "fusion_lon": 0.0, "lat": 38.883254666666666, "is_disabled": 0, "bike_id": "26fa601e8ca3a71d51800437f900c0e8", "fusion_lat": 0.0, "is_reserved": 0, "lon": -77.01769366666667}, {"type": "electric_scooter", "name": "19f7ffeb749b31423a9fbfe172e26def", "rental_uris": {"ios": "https://dc.lft.to/lastmile_qr_scan", "android": "https://dc.lft.to/lastmile_qr_scan"}, "fusion_lon": 0.0, "lat": 38.9072645, "is_disabled": 0, "bike_id": "19f7ffeb749b31423a9fbfe172e26def", "fusion_lat": 0.0, "is_reserved": 0, "lon": -77.03438966666667}, {"type": "electric_scooter", "name": "4bf48105a081d425ed140cd5ef279027", "rental_uris": {"ios": "https://dc.lft.to/lastmile_qr_scan", "android": "https://dc.lft.to/lastmile_qr_scan"}, "fusion_lon": 0.0, "lat": 38.8792205, "is_disabled": 0, "bike_id": "4bf48105a081d425ed140cd5ef279027", "fusion_lat": 0.0, "is_reserved": 0, "lon": -77.00383333333333}, {"type": "electric_scooter", "name": "c0d1f46fdf672c24782ad4d2656c08d1", "rental_uris": {"ios": "https://dc.lft.to/lastmile_qr_scan", "android": "https://dc.lft.to/lastmile_qr_scan"}, "fusion_lon": 0.0, "lat": 38.960867, "is_disabled": 0, "bike_id": "c0d1f46fdf672c24782ad4d2656c08d1", "fusion_lat": 0.0, "is_reserved": 0, "lon": -77.02882483333333}, {"type": "electric_bike", "name": "e561d4714b6b02f3cde090446c32c0ff", "rental_uris": {"ios": "https://dc.lft.to/lastmile_qr_scan", "android": "https://dc.lft.to/lastmile_qr_scan"}, "fusion_lon": 0.0, "lat": 38.821814333333336, "is_disabled": 0, "bike_id": "e561d4714b6b02f3cde090446c32c0ff", "fusion_lat": 0.0, "is_reserved": 0, "lon": -76.99508833333333}, {"type": "electric_scooter", "name": "85584501f843ac24d9b9cdc791cde038", "rental_uris": {"ios": "https://dc.lft.to/lastmile_qr_scan", "android": "https://dc.lft.to/lastmile_qr_scan"}, "fusion_lon": 0.0, "lat": 38.91050083333333, "is_disabled": 0, "bike_id": "85584501f843ac24d9b9cdc791cde038", "fusion_lat": 0.0, "is_reserved": 0, "lon": -76.99783383333333}, {"type": "electric_scooter", "name": "081e99fbe6a0348239fb384722c2f135", "rental_uris": {"ios": "https://dc.lft.to/lastmile_qr_scan", "android": "https://dc.lft.to/lastmile_qr_scan"}, "fusion_lon": 0.0, "lat": 38.918401, "is_disabled": 0, "bike_id": "081e99fbe6a0348239fb384722c2f135", "fusion_lat": 0.0, "is_reserved": 0, "lon": -77.04835083333333}, {"type": "electric_scooter", "name": "064f98f85f06c74c2f15c92dae1e84ad", "rental_uris": {"ios": "https://dc.lft.to/lastmile_qr_scan", "android": "https://dc.lft.to/lastmile_qr_scan"}, "fusion_lon": 0.0, "lat": 38.8874665, "is_disabled": 0, "bike_id": "064f98f85f06c74c2f15c92dae1e84ad", "fusion_lat": 0.0, "is_reserved": 0, "lon": -77.03161883333334}, {"type": "electric_bike", "name": "23f6866ad405df2c69ea56e97236b354", "rental_uris": {"ios": "https://dc.lft.to/lastmile_qr_scan", "android": "https://dc.lft.to/lastmile_qr_scan"}, "fusion_lon": 0.0, "lat": 38.92436583333333, "is_disabled": 0, "bike_id": "23f6866ad405df2c69ea56e97236b354", "fusion_lat": 0.0, "is_reserved": 0, "lon": -77.043334}, {"type": "electric_scooter", "name": "6a18bdc89e69d04c03080277233703ca", "rental_uris": {"ios": "https://dc.lft.to/lastmile_qr_scan", "android": "https://dc.lft.to/lastmile_qr_scan"}, "fusion_lon": 0.0, "lat": 38.88713416666667, "is_disabled": 0, "bike_id": "6a18bdc89e69d04c03080277233703ca", "fusion_lat": 0.0, "is_reserved": 0, "lon": -77.00245516666666}, {"type": "electric_scooter", "name": "670871e4332c45b97695596829118938", "rental_uris": {"ios": "https://dc.lft.to/lastmile_qr_scan", "android": "https://dc.lft.to/lastmile_qr_scan"}, "fusion_lon": 0.0, "lat": 38.89835466666667, "is_disabled": 0, "bike_id": "670871e4332c45b97695596829118938", "fusion_lat": 0.0, "is_reserved": 0, "lon": -76.946336}, {"type": "electric_scooter", "name": "1fcf9bda4237ba9bce5118f37b39fd56", "rental_uris": {"ios": "https://dc.lft.to/lastmile_qr_scan", "android": "https://dc.lft.to/lastmile_qr_scan"}, "fusion_lon": 0.0, "lat": 38.879630166666665, "is_disabled": 0, "bike_id": "1fcf9bda4237ba9bce5118f37b39fd56", "fusion_lat": 0.0, "is_reserved": 0, "lon": -76.99015866666667}, {"type": "electric_bike", "name": "47316679595de7f21969771a454737d5", "rental_uris": {"ios": "https://dc.lft.to/lastmile_qr_scan", "android": "https://dc.lft.to/lastmile_qr_scan"}, "fusion_lon": 0.0, "lat": 38.85253383333333, "is_disabled": 0, "bike_id": "47316679595de7f21969771a454737d5", "fusion_lat": 0.0, "is_reserved": 0, "lon": -77.10789133333333}, {"type": "electric_bike", "name": "c454e40c140c2aa64de3d471575e997d", "rental_uris": {"ios": "https://dc.lft.to/lastmile_qr_scan", "android": "https://dc.lft.to/lastmile_qr_scan"}, "fusion_lon": 0.0, "lat": 38.80453683333333, "is_disabled": 0, "bike_id": "c454e40c140c2aa64de3d471575e997d", "fusion_lat": 0.0, "is_reserved": 0, "lon": -77.05387383333333}, {"type": "electric_scooter", "name": "c8ef81f8bf86cb71d92d84ee4d4ff681", "rental_uris": {"ios": "https://dc.lft.to/lastmile_qr_scan", "android": "https://dc.lft.to/lastmile_qr_scan"}, "fusion_lon": 0.0, "lat": 38.89927333333333, "is_disabled": 0, "bike_id": "c8ef81f8bf86cb71d92d84ee4d4ff681", "fusion_lat": 0.0, "is_reserved": 0, "lon": -77.03301366666666}, {"type": "electric_scooter", "name": "fbd91043733fff67f87c09e60be331da", "rental_uris": {"ios": "https://dc.lft.to/lastmile_qr_scan", "android": "https://dc.lft.to/lastmile_qr_scan"}, "fusion_lon": 0.0, "lat": 38.90754183333333, "is_disabled": 0, "bike_id": "fbd91043733fff67f87c09e60be331da", "fusion_lat": 0.0, "is_reserved": 0, "lon": -77.0433995}, {"type": "electric_scooter", "name": "1781a22cff499146b89b769f15956a13", "rental_uris": {"ios": "https://dc.lft.to/lastmile_qr_scan", "android": "https://dc.lft.to/lastmile_qr_scan"}, "fusion_lon": 0.0, "lat": 38.9050705, "is_disabled": 0, "bike_id": "1781a22cff499146b89b769f15956a13", "fusion_lat": 0.0, "is_reserved": 0, "lon": -77.05818016666667}, {"type": "electric_scooter", "name": "a33a56010cb711fd02018ebb5db6b766", "rental_uris": {"ios": "https://dc.lft.to/lastmile_qr_scan", "android": "https://dc.lft.to/lastmile_qr_scan"}, "fusion_lon": 0.0, "lat": 38.92607116666667, "is_disabled": 0, "bike_id": "a33a56010cb711fd02018ebb5db6b766", "fusion_lat": 0.0, "is_reserved": 0, "lon": -77.0215435}, {"type": "electric_scooter", "name": "68be31bbbf780b7449c2cf3a9fa60e27", "rental_uris": {"ios": "https://dc.lft.to/lastmile_qr_scan", "android": "https://dc.lft.to/lastmile_qr_scan"}, "fusion_lon": 0.0, "lat": 38.90320416666667, "is_disabled": 0, "bike_id": "68be31bbbf780b7449c2cf3a9fa60e27", "fusion_lat": 0.0, "is_reserved": 0, "lon": -77.04354733333334}, {"type": "electric_scooter", "name": "9178173432c9f225032e758cae23b747", "rental_uris": {"ios": "https://dc.lft.to/lastmile_qr_scan", "android": "https://dc.lft.to/lastmile_qr_scan"}, "fusion_lon": 0.0, "lat": 38.90391266666666, "is_disabled": 0, "bike_id": "9178173432c9f225032e758cae23b747", "fusion_lat": 0.0, "is_reserved": 0, "lon": -77.0504635}, {"type": "electric_bike", "name": "4165cc21124b4f265575ffc224b01b09", "rental_uris": {"ios": "https://dc.lft.to/lastmile_qr_scan", "android": "https://dc.lft.to/lastmile_qr_scan"}, "fusion_lon": 0.0, "lat": 38.900198833333334, "is_disabled": 0, "bike_id": "4165cc21124b4f265575ffc224b01b09", "fusion_lat": 0.0, "is_reserved": 0, "lon": -76.986804}, {"type": "electric_scooter", "name": "5ead2d68be37cc7acae4978f1274c882", "rental_uris": {"ios": "https://dc.lft.to/lastmile_qr_scan", "android": "https://dc.lft.to/lastmile_qr_scan"}, "fusion_lon": 0.0, "lat": 38.912387833333334, "is_disabled": 0, "bike_id": "5ead2d68be37cc7acae4978f1274c882", "fusion_lat": 0.0, "is_reserved": 0, "lon": -77.03672016666667}, {"type": "electric_scooter", "name": "f471886f9f551ddedeebd679708b4376", "rental_uris": {"ios": "https://dc.lft.to/lastmile_qr_scan", "android": "https://dc.lft.to/lastmile_qr_scan"}, "fusion_lon": 0.0, "lat": 38.93457633333333, "is_disabled": 0, "bike_id": "f471886f9f551ddedeebd679708b4376", "fusion_lat": 0.0, "is_reserved": 0, "lon": -77.03074333333333}, {"type": "electric_scooter", "name": "491e101c50d8420384fe2ccf6e183d28", "rental_uris": {"ios": "https://dc.lft.to/lastmile_qr_scan", "android": "https://dc.lft.to/lastmile_qr_scan"}, "fusion_lon": 0.0, "lat": 38.913398, "is_disabled": 0, "bike_id": "491e101c50d8420384fe2ccf6e183d28", "fusion_lat": 0.0, "is_reserved": 0, "lon": -77.048663}, {"type": "electric_scooter", "name": "65f48d0596dc6f8a3265c703b9b9a133", "rental_uris": {"ios": "https://dc.lft.to/lastmile_qr_scan", "android": "https://dc.lft.to/lastmile_qr_scan"}, "fusion_lon": 0.0, "lat": 38.945270666666666, "is_disabled": 0, "bike_id": "65f48d0596dc6f8a3265c703b9b9a133", "fusion_lat": 0.0, "is_reserved": 0, "lon": -77.02270316666667}, {"type": "electric_scooter", "name": "20e3f94cc5a6cd5ad7e0ac3d7f833d23", "rental_uris": {"ios": "https://dc.lft.to/lastmile_qr_scan", "android": "https://dc.lft.to/lastmile_qr_scan"}, "fusion_lon": 0.0, "lat": 38.905018166666665, "is_disabled": 0, "bike_id": "20e3f94cc5a6cd5ad7e0ac3d7f833d23", "fusion_lat": 0.0, "is_reserved": 0, "lon": -76.9813385}, {"type": "electric_scooter", "name": "4e5c534b8961356fe8cff5f2a5e334dd", "rental_uris": {"ios": "https://dc.lft.to/lastmile_qr_scan", "android": "https://dc.lft.to/lastmile_qr_scan"}, "fusion_lon": 0.0, "lat": 38.92194766666667, "is_disabled": 0, "bike_id": "4e5c534b8961356fe8cff5f2a5e334dd", "fusion_lat": 0.0, "is_reserved": 0, "lon": -77.01838366666667}, {"type": "electric_scooter", "name": "30f9ce462e48d82ff62c0ae79915654e", "rental_uris": {"ios": "https://dc.lft.to/lastmile_qr_scan", "android": "https://dc.lft.to/lastmile_qr_scan"}, "fusion_lon": 0.0, "lat": 38.90025383333333, "is_disabled": 0, "bike_id": "30f9ce462e48d82ff62c0ae79915654e", "fusion_lat": 0.0, "is_reserved": 0, "lon": -76.97400866666666}, {"type": "electric_scooter", "name": "aaf5c70df2571171f0ec2caa2d8d097d", "rental_uris": {"ios": "https://dc.lft.to/lastmile_qr_scan", "android": "https://dc.lft.to/lastmile_qr_scan"}, "fusion_lon": 0.0, "lat": 38.884933833333335, "is_disabled": 0, "bike_id": "aaf5c70df2571171f0ec2caa2d8d097d", "fusion_lat": 0.0, "is_reserved": 0, "lon": -77.00710733333334}, {"type": "electric_scooter", "name": "0cdea0646c7fbf162ace06736e014035", "rental_uris": {"ios": "https://dc.lft.to/lastmile_qr_scan", "android": "https://dc.lft.to/lastmile_qr_scan"}, "fusion_lon": 0.0, "lat": 38.9108995, "is_disabled": 0, "bike_id": "0cdea0646c7fbf162ace06736e014035", "fusion_lat": 0.0, "is_reserved": 0, "lon": -77.0383815}, {"type": "electric_scooter", "name": "3bb82b6ea2e46935ce49d1513ce156c4", "rental_uris": {"ios": "https://dc.lft.to/lastmile_qr_scan", "android": "https://dc.lft.to/lastmile_qr_scan"}, "fusion_lon": 0.0, "lat": 38.942750833333335, "is_disabled": 0, "bike_id": "3bb82b6ea2e46935ce49d1513ce156c4", "fusion_lat": 0.0, "is_reserved": 0, "lon": -77.02948283333333}, {"type": "electric_scooter", "name": "71ddd76dfabffd2d7b34c470ace31df3", "rental_uris": {"ios": "https://dc.lft.to/lastmile_qr_scan", "android": "https://dc.lft.to/lastmile_qr_scan"}, "fusion_lon": 0.0, "lat": 38.94103166666667, "is_disabled": 0, "bike_id": "71ddd76dfabffd2d7b34c470ace31df3", "fusion_lat": 0.0, "is_reserved": 0, "lon": -77.00023133333333}, {"type": "electric_scooter", "name": "81892d193600815028af9e7998d4848f", "rental_uris": {"ios": "https://dc.lft.to/lastmile_qr_scan", "android": "https://dc.lft.to/lastmile_qr_scan"}, "fusion_lon": 0.0, "lat": 38.866814166666664, "is_disabled": 0, "bike_id": "81892d193600815028af9e7998d4848f", "fusion_lat": 0.0, "is_reserved": 0, "lon": -76.98563533333333}, {"type": "electric_scooter", "name": "527f5955699fa36e01e1591ebc068e3b", "rental_uris": {"ios": "https://dc.lft.to/lastmile_qr_scan", "android": "https://dc.lft.to/lastmile_qr_scan"}, "fusion_lon": 0.0, "lat": 38.902559333333336, "is_disabled": 0, "bike_id": "527f5955699fa36e01e1591ebc068e3b", "fusion_lat": 0.0, "is_reserved": 0, "lon": -77.03426833333333}, {"type": "electric_scooter", "name": "7b225a9994e7eb2f67b1e876ad327e4d", "rental_uris": {"ios": "https://dc.lft.to/lastmile_qr_scan", "android": "https://dc.lft.to/lastmile_qr_scan"}, "fusion_lon": 0.0, "lat": 38.90957433333333, "is_disabled": 0, "bike_id": "7b225a9994e7eb2f67b1e876ad327e4d", "fusion_lat": 0.0, "is_reserved": 0, "lon": -77.04862733333333}, {"type": "electric_scooter", "name": "06ba8f57fe8e9c06e45372b87abd719c", "rental_uris": {"ios": "https://dc.lft.to/lastmile_qr_scan", "android": "https://dc.lft.to/lastmile_qr_scan"}, "fusion_lon": 0.0, "lat": 38.89864716666666, "is_disabled": 0, "bike_id": "06ba8f57fe8e9c06e45372b87abd719c", "fusion_lat": 0.0, "is_reserved": 0, "lon": -76.94637566666667}, {"type": "electric_scooter", "name": "085b7219d28c4f3719ff2be2e9d76429", "rental_uris": {"ios": "https://dc.lft.to/lastmile_qr_scan", "android": "https://dc.lft.to/lastmile_qr_scan"}, "fusion_lon": 0.0, "lat": 38.91387733333333, "is_disabled": 0, "bike_id": "085b7219d28c4f3719ff2be2e9d76429", "fusion_lat": 0.0, "is_reserved": 0, "lon": -77.03215983333334}, {"type": "electric_scooter", "name": "7611dc7c12386452cb58c437caf09029", "rental_uris": {"ios": "https://dc.lft.to/lastmile_qr_scan", "android": "https://dc.lft.to/lastmile_qr_scan"}, "fusion_lon": 0.0, "lat": 38.9283975, "is_disabled": 0, "bike_id": "7611dc7c12386452cb58c437caf09029", "fusion_lat": 0.0, "is_reserved": 0, "lon": -77.03293766666667}, {"type": "electric_scooter", "name": "71c14d54b6cfb8f85aedc4bc1dfce221", "rental_uris": {"ios": "https://dc.lft.to/lastmile_qr_scan", "android": "https://dc.lft.to/lastmile_qr_scan"}, "fusion_lon": 0.0, "lat": 38.9107255, "is_disabled": 0, "bike_id": "71c14d54b6cfb8f85aedc4bc1dfce221", "fusion_lat": 0.0, "is_reserved": 0, "lon": -77.02704833333334}, {"type": "electric_scooter", "name": "2cbe0eb21debc2db5e8955ebcdf5a4d5", "rental_uris": {"ios": "https://dc.lft.to/lastmile_qr_scan", "android": "https://dc.lft.to/lastmile_qr_scan"}, "fusion_lon": 0.0, "lat": 38.903743666666664, "is_disabled": 0, "bike_id": "2cbe0eb21debc2db5e8955ebcdf5a4d5", "fusion_lat": 0.0, "is_reserved": 0, "lon": -77.01637483333333}, {"type": "electric_scooter", "name": "e715481e7fa138a3853a19f9b24528fc", "rental_uris": {"ios": "https://dc.lft.to/lastmile_qr_scan", "android": "https://dc.lft.to/lastmile_qr_scan"}, "fusion_lon": 0.0, "lat": 38.911264833333334, "is_disabled": 0, "bike_id": "e715481e7fa138a3853a19f9b24528fc", "fusion_lat": 0.0, "is_reserved": 0, "lon": -77.0445905}, {"type": "electric_bike", "name": "28960ed08ecebed5f4f801c5a83a77a9", "rental_uris": {"ios": "https://dc.lft.to/lastmile_qr_scan", "android": "https://dc.lft.to/lastmile_qr_scan"}, "fusion_lon": 0.0, "lat": 38.8428115, "is_disabled": 0, "bike_id": "28960ed08ecebed5f4f801c5a83a77a9", "fusion_lat": 0.0, "is_reserved": 0, "lon": -77.04496266666666}, {"type": "electric_scooter", "name": "607efdec16f96d3f39432dfd137f6ba8", "rental_uris": {"ios": "https://dc.lft.to/lastmile_qr_scan", "android": "https://dc.lft.to/lastmile_qr_scan"}, "fusion_lon": 0.0, "lat": 38.934661, "is_disabled": 0, "bike_id": "607efdec16f96d3f39432dfd137f6ba8", "fusion_lat": 0.0, "is_reserved": 0, "lon": -77.04123316666667}, {"type": "electric_scooter", "name": "6d9c25216fe36dd6a98e8f9304b5235e", "rental_uris": {"ios": "https://dc.lft.to/lastmile_qr_scan", "android": "https://dc.lft.to/lastmile_qr_scan"}, "fusion_lon": 0.0, "lat": 38.90634033333333, "is_disabled": 0, "bike_id": "6d9c25216fe36dd6a98e8f9304b5235e", "fusion_lat": 0.0, "is_reserved": 0, "lon": -77.01014866666667}, {"type": "electric_scooter", "name": "61f5e3ea5f839240aa77af6081749dfe", "rental_uris": {"ios": "https://dc.lft.to/lastmile_qr_scan", "android": "https://dc.lft.to/lastmile_qr_scan"}, "fusion_lon": 0.0, "lat": 38.91627316666667, "is_disabled": 0, "bike_id": "61f5e3ea5f839240aa77af6081749dfe", "fusion_lat": 0.0, "is_reserved": 0, "lon": -77.03145583333334}, {"type": "electric_scooter", "name": "a190af5f4906ebdf8cd7823dfd960026", "rental_uris": {"ios": "https://dc.lft.to/lastmile_qr_scan", "android": "https://dc.lft.to/lastmile_qr_scan"}, "fusion_lon": 0.0, "lat": 38.934369, "is_disabled": 0, "bike_id": "a190af5f4906ebdf8cd7823dfd960026", "fusion_lat": 0.0, "is_reserved": 0, "lon": -77.05587966666667}, {"type": "electric_scooter", "name": "3c8dcfafc56c11302e78e852e524d110", "rental_uris": {"ios": "https://dc.lft.to/lastmile_qr_scan", "android": "https://dc.lft.to/lastmile_qr_scan"}, "fusion_lon": 0.0, "lat": 38.90982666666667, "is_disabled": 0, "bike_id": "3c8dcfafc56c11302e78e852e524d110", "fusion_lat": 0.0, "is_reserved": 0, "lon": -77.03284166666667}, {"type": "electric_scooter", "name": "cfabb7e31f85bbbd5963621ed246d5b5", "rental_uris": {"ios": "https://dc.lft.to/lastmile_qr_scan", "android": "https://dc.lft.to/lastmile_qr_scan"}, "fusion_lon": 0.0, "lat": 38.8771895, "is_disabled": 0, "bike_id": "cfabb7e31f85bbbd5963621ed246d5b5", "fusion_lat": 0.0, "is_reserved": 0, "lon": -77.00445833333333}, {"type": "electric_bike", "name": "24243f40a790b934bee3e8d5db5d2ad7", "rental_uris": {"ios": "https://dc.lft.to/lastmile_qr_scan", "android": "https://dc.lft.to/lastmile_qr_scan"}, "fusion_lon": 0.0, "lat": 38.86454, "is_disabled": 0, "bike_id": "24243f40a790b934bee3e8d5db5d2ad7", "fusion_lat": 0.0, "is_reserved": 0, "lon": -77.1068325}, {"type": "electric_scooter", "name": "0b1d40093a63dc28e362e06dd0ebda66", "rental_uris": {"ios": "https://dc.lft.to/lastmile_qr_scan", "android": "https://dc.lft.to/lastmile_qr_scan"}, "fusion_lon": 0.0, "lat": 38.89533516666667, "is_disabled": 0, "bike_id": "0b1d40093a63dc28e362e06dd0ebda66", "fusion_lat": 0.0, "is_reserved": 0, "lon": -77.04844483333333}, {"type": "electric_scooter", "name": "bdc7fc0157e61e0354918cc750e0d20e", "rental_uris": {"ios": "https://dc.lft.to/lastmile_qr_scan", "android": "https://dc.lft.to/lastmile_qr_scan"}, "fusion_lon": 0.0, "lat": 38.92324133333334, "is_disabled": 0, "bike_id": "bdc7fc0157e61e0354918cc750e0d20e", "fusion_lat": 0.0, "is_reserved": 0, "lon": -77.042963}, {"type": "electric_scooter", "name": "066bff19c72fd19e61bc5ce5d4f1a2d6", "rental_uris": {"ios": "https://dc.lft.to/lastmile_qr_scan", "android": "https://dc.lft.to/lastmile_qr_scan"}, "fusion_lon": 0.0, "lat": 38.908786, "is_disabled": 0, "bike_id": "066bff19c72fd19e61bc5ce5d4f1a2d6", "fusion_lat": 0.0, "is_reserved": 0, "lon": -77.02687083333333}, {"type": "electric_scooter", "name": "b8808e8245ba5ae774c121e86c14a402", "rental_uris": {"ios": "https://dc.lft.to/lastmile_qr_scan", "android": "https://dc.lft.to/lastmile_qr_scan"}, "fusion_lon": 0.0, "lat": 38.902698666666666, "is_disabled": 0, "bike_id": "b8808e8245ba5ae774c121e86c14a402", "fusion_lat": 0.0, "is_reserved": 0, "lon": -77.04352383333334}, {"type": "electric_scooter", "name": "ff667e14ca2872e827eef25360d6a121", "rental_uris": {"ios": "https://dc.lft.to/lastmile_qr_scan", "android": "https://dc.lft.to/lastmile_qr_scan"}, "fusion_lon": 0.0, "lat": 38.8766225, "is_disabled": 0, "bike_id": "ff667e14ca2872e827eef25360d6a121", "fusion_lat": 0.0, "is_reserved": 0, "lon": -77.0162205}, {"type": "electric_scooter", "name": "f9fc18e5141a1d4e11d279a0d7984e77", "rental_uris": {"ios": "https://dc.lft.to/lastmile_qr_scan", "android": "https://dc.lft.to/lastmile_qr_scan"}, "fusion_lon": 0.0, "lat": 38.87717083333333, "is_disabled": 0, "bike_id": "f9fc18e5141a1d4e11d279a0d7984e77", "fusion_lat": 0.0, "is_reserved": 0, "lon": -77.00441616666667}, {"type": "electric_scooter", "name": "2857a865dbef2e3391d8177e3cee8de7", "rental_uris": {"ios": "https://dc.lft.to/lastmile_qr_scan", "android": "https://dc.lft.to/lastmile_qr_scan"}, "fusion_lon": 0.0, "lat": 38.9192815, "is_disabled": 0, "bike_id": "2857a865dbef2e3391d8177e3cee8de7", "fusion_lat": 0.0, "is_reserved": 0, "lon": -77.00978766666667}, {"type": "electric_scooter", "name": "1ed5e8e59b7d1a2653de2fe90b2cc7cc", "rental_uris": {"ios": "https://dc.lft.to/lastmile_qr_scan", "android": "https://dc.lft.to/lastmile_qr_scan"}, "fusion_lon": 0.0, "lat": 38.887479166666665, "is_disabled": 0, "bike_id": "1ed5e8e59b7d1a2653de2fe90b2cc7cc", "fusion_lat": 0.0, "is_reserved": 0, "lon": -77.02843883333334}, {"type": "electric_scooter", "name": "2fc44b1cb8a23ee895fc5e2eb105ce95", "rental_uris": {"ios": "https://dc.lft.to/lastmile_qr_scan", "android": "https://dc.lft.to/lastmile_qr_scan"}, "fusion_lon": 0.0, "lat": 38.941652166666664, "is_disabled": 0, "bike_id": "2fc44b1cb8a23ee895fc5e2eb105ce95", "fusion_lat": 0.0, "is_reserved": 0, "lon": -77.0926445}, {"type": "electric_scooter", "name": "e7108c0420a302547cc9049c7f9d90f8", "rental_uris": {"ios": "https://dc.lft.to/lastmile_qr_scan", "android": "https://dc.lft.to/lastmile_qr_scan"}, "fusion_lon": 0.0, "lat": 38.90977016666667, "is_disabled": 0, "bike_id": "e7108c0420a302547cc9049c7f9d90f8", "fusion_lat": 0.0, "is_reserved": 0, "lon": -77.0318435}, {"type": "electric_scooter", "name": "e9a2f5ff36dbea28cd97d9c295ddf1af", "rental_uris": {"ios": "https://dc.lft.to/lastmile_qr_scan", "android": "https://dc.lft.to/lastmile_qr_scan"}, "fusion_lon": 0.0, "lat": 38.920520833333335, "is_disabled": 0, "bike_id": "e9a2f5ff36dbea28cd97d9c295ddf1af", "fusion_lat": 0.0, "is_reserved": 0, "lon": -77.04185116666666}, {"type": "electric_scooter", "name": "e91b1a02c849f63ab7540e12b0366d0a", "rental_uris": {"ios": "https://dc.lft.to/lastmile_qr_scan", "android": "https://dc.lft.to/lastmile_qr_scan"}, "fusion_lon": 0.0, "lat": 38.92616616666667, "is_disabled": 0, "bike_id": "e91b1a02c849f63ab7540e12b0366d0a", "fusion_lat": 0.0, "is_reserved": 0, "lon": -77.0571035}, {"type": "electric_scooter", "name": "e91ed1836765316fa5b7cc39061d7536", "rental_uris": {"ios": "https://dc.lft.to/lastmile_qr_scan", "android": "https://dc.lft.to/lastmile_qr_scan"}, "fusion_lon": 0.0, "lat": 38.896581166666664, "is_disabled": 0, "bike_id": "e91ed1836765316fa5b7cc39061d7536", "fusion_lat": 0.0, "is_reserved": 0, "lon": -77.0261825}, {"type": "electric_scooter", "name": "99582473bf52991bcb51ccc5109bc163", "rental_uris": {"ios": "https://dc.lft.to/lastmile_qr_scan", "android": "https://dc.lft.to/lastmile_qr_scan"}, "fusion_lon": 0.0, "lat": 38.915612333333335, "is_disabled": 0, "bike_id": "99582473bf52991bcb51ccc5109bc163", "fusion_lat": 0.0, "is_reserved": 0, "lon": -77.03780933333333}, {"type": "electric_scooter", "name": "0a25b110c2f36ff7461a04551957b614", "rental_uris": {"ios": "https://dc.lft.to/lastmile_qr_scan", "android": "https://dc.lft.to/lastmile_qr_scan"}, "fusion_lon": 0.0, "lat": 38.923654166666665, "is_disabled": 0, "bike_id": "0a25b110c2f36ff7461a04551957b614", "fusion_lat": 0.0, "is_reserved": 0, "lon": -77.05031216666667}, {"type": "electric_scooter", "name": "7ad79e40235b8d355ff962f6db283c1b", "rental_uris": {"ios": "https://dc.lft.to/lastmile_qr_scan", "android": "https://dc.lft.to/lastmile_qr_scan"}, "fusion_lon": 0.0, "lat": 38.905981833333335, "is_disabled": 0, "bike_id": "7ad79e40235b8d355ff962f6db283c1b", "fusion_lat": 0.0, "is_reserved": 0, "lon": -77.04092616666667}, {"type": "electric_scooter", "name": "0cbfcafbdccb3a8145a9283d3f02b3fb", "rental_uris": {"ios": "https://dc.lft.to/lastmile_qr_scan", "android": "https://dc.lft.to/lastmile_qr_scan"}, "fusion_lon": 0.0, "lat": 38.900464, "is_disabled": 0, "bike_id": "0cbfcafbdccb3a8145a9283d3f02b3fb", "fusion_lat": 0.0, "is_reserved": 0, "lon": -76.98848833333334}, {"type": "electric_scooter", "name": "14a39e03b2b4b50cc6c61b86c68dc2c9", "rental_uris": {"ios": "https://dc.lft.to/lastmile_qr_scan", "android": "https://dc.lft.to/lastmile_qr_scan"}, "fusion_lon": 0.0, "lat": 38.912608, "is_disabled": 0, "bike_id": "14a39e03b2b4b50cc6c61b86c68dc2c9", "fusion_lat": 0.0, "is_reserved": 0, "lon": -76.98350483333333}, {"type": "electric_scooter", "name": "9a04be115c0dab80ceee86fb83ea2ec9", "rental_uris": {"ios": "https://dc.lft.to/lastmile_qr_scan", "android": "https://dc.lft.to/lastmile_qr_scan"}, "fusion_lon": 0.0, "lat": 38.91272416666666, "is_disabled": 0, "bike_id": "9a04be115c0dab80ceee86fb83ea2ec9", "fusion_lat": 0.0, "is_reserved": 0, "lon": -77.038286}, {"type": "electric_scooter", "name": "6ebefca25de2dd58f743e687e98352f5", "rental_uris": {"ios": "https://dc.lft.to/lastmile_qr_scan", "android": "https://dc.lft.to/lastmile_qr_scan"}, "fusion_lon": 0.0, "lat": 38.8862695, "is_disabled": 0, "bike_id": "6ebefca25de2dd58f743e687e98352f5", "fusion_lat": 0.0, "is_reserved": 0, "lon": -77.0155145}, {"type": "electric_scooter", "name": "51f8251a17bf7535fbe590e850339142", "rental_uris": {"ios": "https://dc.lft.to/lastmile_qr_scan", "android": "https://dc.lft.to/lastmile_qr_scan"}, "fusion_lon": 0.0, "lat": 38.916478, "is_disabled": 0, "bike_id": "51f8251a17bf7535fbe590e850339142", "fusion_lat": 0.0, "is_reserved": 0, "lon": -77.0413205}, {"type": "electric_scooter", "name": "d3bbf652cab2343115d1eec67ff93414", "rental_uris": {"ios": "https://dc.lft.to/lastmile_qr_scan", "android": "https://dc.lft.to/lastmile_qr_scan"}, "fusion_lon": 0.0, "lat": 38.89843066666667, "is_disabled": 0, "bike_id": "d3bbf652cab2343115d1eec67ff93414", "fusion_lat": 0.0, "is_reserved": 0, "lon": -77.039618}, {"type": "electric_scooter", "name": "30068cf6c54181e7574d77bfcb40842d", "rental_uris": {"ios": "https://dc.lft.to/lastmile_qr_scan", "android": "https://dc.lft.to/lastmile_qr_scan"}, "fusion_lon": 0.0, "lat": 38.876695833333336, "is_disabled": 0, "bike_id": "30068cf6c54181e7574d77bfcb40842d", "fusion_lat": 0.0, "is_reserved": 0, "lon": -77.00522333333333}, {"type": "electric_scooter", "name": "79681bc9b1adeb16c500e09576a559a1", "rental_uris": {"ios": "https://dc.lft.to/lastmile_qr_scan", "android": "https://dc.lft.to/lastmile_qr_scan"}, "fusion_lon": 0.0, "lat": 38.91271283333333, "is_disabled": 0, "bike_id": "79681bc9b1adeb16c500e09576a559a1", "fusion_lat": 0.0, "is_reserved": 0, "lon": -77.01439816666667}, {"type": "electric_scooter", "name": "d8847b5b0afbfeb4b3750e10dc2be675", "rental_uris": {"ios": "https://dc.lft.to/lastmile_qr_scan", "android": "https://dc.lft.to/lastmile_qr_scan"}, "fusion_lon": 0.0, "lat": 38.93682316666667, "is_disabled": 0, "bike_id": "d8847b5b0afbfeb4b3750e10dc2be675", "fusion_lat": 0.0, "is_reserved": 0, "lon": -77.08443066666666}, {"type": "electric_scooter", "name": "b508e91c0bb274f9ed71d08bba6bf26c", "rental_uris": {"ios": "https://dc.lft.to/lastmile_qr_scan", "android": "https://dc.lft.to/lastmile_qr_scan"}, "fusion_lon": 0.0, "lat": 38.857034666666664, "is_disabled": 0, "bike_id": "b508e91c0bb274f9ed71d08bba6bf26c", "fusion_lat": 0.0, "is_reserved": 0, "lon": -76.9959795}, {"type": "electric_scooter", "name": "b4a346860dcfa12405bc1b8d2c896bde", "rental_uris": {"ios": "https://dc.lft.to/lastmile_qr_scan", "android": "https://dc.lft.to/lastmile_qr_scan"}, "fusion_lon": 0.0, "lat": 38.887185333333335, "is_disabled": 0, "bike_id": "b4a346860dcfa12405bc1b8d2c896bde", "fusion_lat": 0.0, "is_reserved": 0, "lon": -77.02200316666666}, {"type": "electric_scooter", "name": "180e1c1bc1acf72f599d4921df40854e", "rental_uris": {"ios": "https://dc.lft.to/lastmile_qr_scan", "android": "https://dc.lft.to/lastmile_qr_scan"}, "fusion_lon": 0.0, "lat": 38.917200333333334, "is_disabled": 0, "bike_id": "180e1c1bc1acf72f599d4921df40854e", "fusion_lat": 0.0, "is_reserved": 0, "lon": -77.02883266666667}, {"type": "electric_scooter", "name": "2127b816f4208c6af56a956e2168b119", "rental_uris": {"ios": "https://dc.lft.to/lastmile_qr_scan", "android": "https://dc.lft.to/lastmile_qr_scan"}, "fusion_lon": 0.0, "lat": 38.92869316666667, "is_disabled": 0, "bike_id": "2127b816f4208c6af56a956e2168b119", "fusion_lat": 0.0, "is_reserved": 0, "lon": -77.03517733333334}, {"type": "electric_scooter", "name": "e7bd3c956701d9acab2e460357366d7f", "rental_uris": {"ios": "https://dc.lft.to/lastmile_qr_scan", "android": "https://dc.lft.to/lastmile_qr_scan"}, "fusion_lon": 0.0, "lat": 38.915357166666666, "is_disabled": 0, "bike_id": "e7bd3c956701d9acab2e460357366d7f", "fusion_lat": 0.0, "is_reserved": 0, "lon": -77.01220133333334}, {"type": "electric_scooter", "name": "d66c4a0016d3a14306fc953fd25457a9", "rental_uris": {"ios": "https://dc.lft.to/lastmile_qr_scan", "android": "https://dc.lft.to/lastmile_qr_scan"}, "fusion_lon": 0.0, "lat": 38.9199595, "is_disabled": 0, "bike_id": "d66c4a0016d3a14306fc953fd25457a9", "fusion_lat": 0.0, "is_reserved": 0, "lon": -77.0318315}, {"type": "electric_scooter", "name": "2e8ccf0edeccdfb2e9e6618c260f11e1", "rental_uris": {"ios": "https://dc.lft.to/lastmile_qr_scan", "android": "https://dc.lft.to/lastmile_qr_scan"}, "fusion_lon": 0.0, "lat": 38.9097635, "is_disabled": 0, "bike_id": "2e8ccf0edeccdfb2e9e6618c260f11e1", "fusion_lat": 0.0, "is_reserved": 0, "lon": -77.03215116666667}, {"type": "electric_scooter", "name": "d5819da5afcae5f64f70513ce3d9d2dc", "rental_uris": {"ios": "https://dc.lft.to/lastmile_qr_scan", "android": "https://dc.lft.to/lastmile_qr_scan"}, "fusion_lon": 0.0, "lat": 38.91592416666667, "is_disabled": 0, "bike_id": "d5819da5afcae5f64f70513ce3d9d2dc", "fusion_lat": 0.0, "is_reserved": 0, "lon": -76.97973766666667}, {"type": "electric_scooter", "name": "a21c4add5edceb924fc3e5c38afd4011", "rental_uris": {"ios": "https://dc.lft.to/lastmile_qr_scan", "android": "https://dc.lft.to/lastmile_qr_scan"}, "fusion_lon": 0.0, "lat": 38.883237, "is_disabled": 0, "bike_id": "a21c4add5edceb924fc3e5c38afd4011", "fusion_lat": 0.0, "is_reserved": 0, "lon": -77.01681083333334}, {"type": "electric_scooter", "name": "f0dd6ba4fe411cfc7e102b8bcd80b0c5", "rental_uris": {"ios": "https://dc.lft.to/lastmile_qr_scan", "android": "https://dc.lft.to/lastmile_qr_scan"}, "fusion_lon": 0.0, "lat": 38.923670333333334, "is_disabled": 0, "bike_id": "f0dd6ba4fe411cfc7e102b8bcd80b0c5", "fusion_lat": 0.0, "is_reserved": 0, "lon": -77.01904416666666}, {"type": "electric_bike", "name": "7c7efc74aa51b13418fd2968d8e7309f", "rental_uris": {"ios": "https://dc.lft.to/lastmile_qr_scan", "android": "https://dc.lft.to/lastmile_qr_scan"}, "fusion_lon": 0.0, "lat": 39.003812333333336, "is_disabled": 0, "bike_id": "7c7efc74aa51b13418fd2968d8e7309f", "fusion_lat": 0.0, "is_reserved": 0, "lon": -77.0129435}, {"type": "electric_scooter", "name": "89b33acc1a24ee018b7bf27adbea96e1", "rental_uris": {"ios": "https://dc.lft.to/lastmile_qr_scan", "android": "https://dc.lft.to/lastmile_qr_scan"}, "fusion_lon": 0.0, "lat": 38.92756883333333, "is_disabled": 0, "bike_id": "89b33acc1a24ee018b7bf27adbea96e1", "fusion_lat": 0.0, "is_reserved": 0, "lon": -77.03308866666667}, {"type": "electric_scooter", "name": "01f692947c4b0b9f7816a6c83ded2a29", "rental_uris": {"ios": "https://dc.lft.to/lastmile_qr_scan", "android": "https://dc.lft.to/lastmile_qr_scan"}, "fusion_lon": 0.0, "lat": 38.92370316666667, "is_disabled": 0, "bike_id": "01f692947c4b0b9f7816a6c83ded2a29", "fusion_lat": 0.0, "is_reserved": 0, "lon": -77.050311}, {"type": "electric_scooter", "name": "f16bfbbf5ac9a93745414aa8c8b25b53", "rental_uris": {"ios": "https://dc.lft.to/lastmile_qr_scan", "android": "https://dc.lft.to/lastmile_qr_scan"}, "fusion_lon": 0.0, "lat": 38.8849465, "is_disabled": 0, "bike_id": "f16bfbbf5ac9a93745414aa8c8b25b53", "fusion_lat": 0.0, "is_reserved": 0, "lon": -77.01083966666667}, {"type": "electric_scooter", "name": "13ead11a9bd78bc516a8c65febb7bcee", "rental_uris": {"ios": "https://dc.lft.to/lastmile_qr_scan", "android": "https://dc.lft.to/lastmile_qr_scan"}, "fusion_lon": 0.0, "lat": 38.91940566666667, "is_disabled": 0, "bike_id": "13ead11a9bd78bc516a8c65febb7bcee", "fusion_lat": 0.0, "is_reserved": 0, "lon": -77.02066433333333}, {"type": "electric_scooter", "name": "6e53ce0f81ed117db449029538306641", "rental_uris": {"ios": "https://dc.lft.to/lastmile_qr_scan", "android": "https://dc.lft.to/lastmile_qr_scan"}, "fusion_lon": 0.0, "lat": 38.90429233333333, "is_disabled": 0, "bike_id": "6e53ce0f81ed117db449029538306641", "fusion_lat": 0.0, "is_reserved": 0, "lon": -77.028825}, {"type": "electric_scooter", "name": "fa36366c9753b1d8ead6dee673d4e4f3", "rental_uris": {"ios": "https://dc.lft.to/lastmile_qr_scan", "android": "https://dc.lft.to/lastmile_qr_scan"}, "fusion_lon": 0.0, "lat": 38.90540016666667, "is_disabled": 0, "bike_id": "fa36366c9753b1d8ead6dee673d4e4f3", "fusion_lat": 0.0, "is_reserved": 0, "lon": -77.043682}, {"type": "electric_scooter", "name": "8455a6e1af43f8c06a8d061506a33688", "rental_uris": {"ios": "https://dc.lft.to/lastmile_qr_scan", "android": "https://dc.lft.to/lastmile_qr_scan"}, "fusion_lon": 0.0, "lat": 38.9564505, "is_disabled": 0, "bike_id": "8455a6e1af43f8c06a8d061506a33688", "fusion_lat": 0.0, "is_reserved": 0, "lon": -77.02292066666666}, {"type": "electric_bike", "name": "45c47851d199e5abd6ef639c337b1184", "rental_uris": {"ios": "https://dc.lft.to/lastmile_qr_scan", "android": "https://dc.lft.to/lastmile_qr_scan"}, "fusion_lon": 0.0, "lat": 39.012314833333335, "is_disabled": 0, "bike_id": "45c47851d199e5abd6ef639c337b1184", "fusion_lat": 0.0, "is_reserved": 0, "lon": -77.110819}, {"type": "electric_scooter", "name": "b1f8638e7fe1ab9cab015e5bc74de88b", "rental_uris": {"ios": "https://dc.lft.to/lastmile_qr_scan", "android": "https://dc.lft.to/lastmile_qr_scan"}, "fusion_lon": 0.0, "lat": 38.897229, "is_disabled": 0, "bike_id": "b1f8638e7fe1ab9cab015e5bc74de88b", "fusion_lat": 0.0, "is_reserved": 0, "lon": -77.0079285}, {"type": "electric_scooter", "name": "9204d26259fe842b9afc0277f6f54f1b", "rental_uris": {"ios": "https://dc.lft.to/lastmile_qr_scan", "android": "https://dc.lft.to/lastmile_qr_scan"}, "fusion_lon": 0.0, "lat": 38.90977266666667, "is_disabled": 0, "bike_id": "9204d26259fe842b9afc0277f6f54f1b", "fusion_lat": 0.0, "is_reserved": 0, "lon": -77.03435816666666}, {"type": "electric_scooter", "name": "b99c4526cc7c5524dc9e245c2af89fa4", "rental_uris": {"ios": "https://dc.lft.to/lastmile_qr_scan", "android": "https://dc.lft.to/lastmile_qr_scan"}, "fusion_lon": 0.0, "lat": 38.8847105, "is_disabled": 0, "bike_id": "b99c4526cc7c5524dc9e245c2af89fa4", "fusion_lat": 0.0, "is_reserved": 0, "lon": -77.01512216666667}, {"type": "electric_scooter", "name": "5683261b48e4f8b5c9452e0808819a35", "rental_uris": {"ios": "https://dc.lft.to/lastmile_qr_scan", "android": "https://dc.lft.to/lastmile_qr_scan"}, "fusion_lon": 0.0, "lat": 38.87723616666667, "is_disabled": 0, "bike_id": "5683261b48e4f8b5c9452e0808819a35", "fusion_lat": 0.0, "is_reserved": 0, "lon": -77.01761266666666}, {"type": "electric_scooter", "name": "06415d0f7084c24fc7587aa1d1d9b01c", "rental_uris": {"ios": "https://dc.lft.to/lastmile_qr_scan", "android": "https://dc.lft.to/lastmile_qr_scan"}, "fusion_lon": 0.0, "lat": 38.933578833333335, "is_disabled": 0, "bike_id": "06415d0f7084c24fc7587aa1d1d9b01c", "fusion_lat": 0.0, "is_reserved": 0, "lon": -77.07353316666666}, {"type": "electric_scooter", "name": "157aaa288a6642c85a81995d7c5ef1fe", "rental_uris": {"ios": "https://dc.lft.to/lastmile_qr_scan", "android": "https://dc.lft.to/lastmile_qr_scan"}, "fusion_lon": 0.0, "lat": 38.938469166666664, "is_disabled": 0, "bike_id": "157aaa288a6642c85a81995d7c5ef1fe", "fusion_lat": 0.0, "is_reserved": 0, "lon": -77.033883}, {"type": "electric_scooter", "name": "bf9e3595c051ffc930467e6e4b4fe0e1", "rental_uris": {"ios": "https://dc.lft.to/lastmile_qr_scan", "android": "https://dc.lft.to/lastmile_qr_scan"}, "fusion_lon": 0.0, "lat": 38.902038833333336, "is_disabled": 0, "bike_id": "bf9e3595c051ffc930467e6e4b4fe0e1", "fusion_lat": 0.0, "is_reserved": 0, "lon": -77.02370766666667}, {"type": "electric_scooter", "name": "dcffe4b913dabfd7cd6999bae255cd2f", "rental_uris": {"ios": "https://dc.lft.to/lastmile_qr_scan", "android": "https://dc.lft.to/lastmile_qr_scan"}, "fusion_lon": 0.0, "lat": 38.884869, "is_disabled": 0, "bike_id": "dcffe4b913dabfd7cd6999bae255cd2f", "fusion_lat": 0.0, "is_reserved": 0, "lon": -77.00711466666667}, {"type": "electric_scooter", "name": "8afbd624290d627ac2b5785680804990", "rental_uris": {"ios": "https://dc.lft.to/lastmile_qr_scan", "android": "https://dc.lft.to/lastmile_qr_scan"}, "fusion_lon": 0.0, "lat": 38.908975166666664, "is_disabled": 0, "bike_id": "8afbd624290d627ac2b5785680804990", "fusion_lat": 0.0, "is_reserved": 0, "lon": -77.03429733333333}, {"type": "electric_bike", "name": "30f85472f07357cb29e2988d3583d3ed", "rental_uris": {"ios": "https://dc.lft.to/lastmile_qr_scan", "android": "https://dc.lft.to/lastmile_qr_scan"}, "fusion_lon": 0.0, "lat": 38.9851205, "is_disabled": 0, "bike_id": "30f85472f07357cb29e2988d3583d3ed", "fusion_lat": 0.0, "is_reserved": 0, "lon": -76.981997}, {"type": "electric_scooter", "name": "8c29bc89f936c17c1dff5e4e6158bb29", "rental_uris": {"ios": "https://dc.lft.to/lastmile_qr_scan", "android": "https://dc.lft.to/lastmile_qr_scan"}, "fusion_lon": 0.0, "lat": 38.92867233333333, "is_disabled": 0, "bike_id": "8c29bc89f936c17c1dff5e4e6158bb29", "fusion_lat": 0.0, "is_reserved": 0, "lon": -77.03302}, {"type": "electric_scooter", "name": "707e924d910280ade5d9280f73bdfc44", "rental_uris": {"ios": "https://dc.lft.to/lastmile_qr_scan", "android": "https://dc.lft.to/lastmile_qr_scan"}, "fusion_lon": 0.0, "lat": 38.92427266666667, "is_disabled": 0, "bike_id": "707e924d910280ade5d9280f73bdfc44", "fusion_lat": 0.0, "is_reserved": 0, "lon": -77.0517805}, {"type": "electric_scooter", "name": "4ccde2c543941c7332ad72d478d3ddc4", "rental_uris": {"ios": "https://dc.lft.to/lastmile_qr_scan", "android": "https://dc.lft.to/lastmile_qr_scan"}, "fusion_lon": 0.0, "lat": 38.917158, "is_disabled": 0, "bike_id": "4ccde2c543941c7332ad72d478d3ddc4", "fusion_lat": 0.0, "is_reserved": 0, "lon": -77.04158516666666}, {"type": "electric_scooter", "name": "502f7c3e7ea23fa075eb13c604af9235", "rental_uris": {"ios": "https://dc.lft.to/lastmile_qr_scan", "android": "https://dc.lft.to/lastmile_qr_scan"}, "fusion_lon": 0.0, "lat": 38.90313783333333, "is_disabled": 0, "bike_id": "502f7c3e7ea23fa075eb13c604af9235", "fusion_lat": 0.0, "is_reserved": 0, "lon": -77.02440566666667}, {"type": "electric_scooter", "name": "97d573526441dcec50d7989f3ffd7b02", "rental_uris": {"ios": "https://dc.lft.to/lastmile_qr_scan", "android": "https://dc.lft.to/lastmile_qr_scan"}, "fusion_lon": 0.0, "lat": 38.92964033333333, "is_disabled": 0, "bike_id": "97d573526441dcec50d7989f3ffd7b02", "fusion_lat": 0.0, "is_reserved": 0, "lon": -77.01144666666667}, {"type": "electric_scooter", "name": "580fe81b42cd91b4d5eff5220511edc3", "rental_uris": {"ios": "https://dc.lft.to/lastmile_qr_scan", "android": "https://dc.lft.to/lastmile_qr_scan"}, "fusion_lon": 0.0, "lat": 38.895594, "is_disabled": 0, "bike_id": "580fe81b42cd91b4d5eff5220511edc3", "fusion_lat": 0.0, "is_reserved": 0, "lon": -76.99837583333333}, {"type": "electric_scooter", "name": "a5aa0e6fb3e453d452e19577b1a3da5f", "rental_uris": {"ios": "https://dc.lft.to/lastmile_qr_scan", "android": "https://dc.lft.to/lastmile_qr_scan"}, "fusion_lon": 0.0, "lat": 38.887476, "is_disabled": 0, "bike_id": "a5aa0e6fb3e453d452e19577b1a3da5f", "fusion_lat": 0.0, "is_reserved": 0, "lon": -76.983572}, {"type": "electric_scooter", "name": "a37a76af7e620ce11618b5bace06c915", "rental_uris": {"ios": "https://dc.lft.to/lastmile_qr_scan", "android": "https://dc.lft.to/lastmile_qr_scan"}, "fusion_lon": 0.0, "lat": 38.901437, "is_disabled": 0, "bike_id": "a37a76af7e620ce11618b5bace06c915", "fusion_lat": 0.0, "is_reserved": 0, "lon": -77.046307}, {"type": "electric_scooter", "name": "ad968742e9a81ced1552431397cf9127", "rental_uris": {"ios": "https://dc.lft.to/lastmile_qr_scan", "android": "https://dc.lft.to/lastmile_qr_scan"}, "fusion_lon": 0.0, "lat": 38.91434116666667, "is_disabled": 0, "bike_id": "ad968742e9a81ced1552431397cf9127", "fusion_lat": 0.0, "is_reserved": 0, "lon": -77.0642185}, {"type": "electric_scooter", "name": "888f17050bf85d88dbe35e24f1e62282", "rental_uris": {"ios": "https://dc.lft.to/lastmile_qr_scan", "android": "https://dc.lft.to/lastmile_qr_scan"}, "fusion_lon": 0.0, "lat": 38.88407433333333, "is_disabled": 0, "bike_id": "888f17050bf85d88dbe35e24f1e62282", "fusion_lat": 0.0, "is_reserved": 0, "lon": -76.98587583333334}, {"type": "electric_scooter", "name": "df668e38f268daf770d6cf27f0db26c7", "rental_uris": {"ios": "https://dc.lft.to/lastmile_qr_scan", "android": "https://dc.lft.to/lastmile_qr_scan"}, "fusion_lon": 0.0, "lat": 38.884980666666664, "is_disabled": 0, "bike_id": "df668e38f268daf770d6cf27f0db26c7", "fusion_lat": 0.0, "is_reserved": 0, "lon": -77.00726}, {"type": "electric_scooter", "name": "b195ed0e02094889c9da112fbcfc9888", "rental_uris": {"ios": "https://dc.lft.to/lastmile_qr_scan", "android": "https://dc.lft.to/lastmile_qr_scan"}, "fusion_lon": 0.0, "lat": 38.8746535, "is_disabled": 0, "bike_id": "b195ed0e02094889c9da112fbcfc9888", "fusion_lat": 0.0, "is_reserved": 0, "lon": -77.0096435}, {"type": "electric_scooter", "name": "c16a4ce19f99b5c254ca10a3c990dda1", "rental_uris": {"ios": "https://dc.lft.to/lastmile_qr_scan", "android": "https://dc.lft.to/lastmile_qr_scan"}, "fusion_lon": 0.0, "lat": 38.88748316666667, "is_disabled": 0, "bike_id": "c16a4ce19f99b5c254ca10a3c990dda1", "fusion_lat": 0.0, "is_reserved": 0, "lon": -77.01773666666666}, {"type": "electric_scooter", "name": "ab5f6996f8b26bfc10fd5c21c212ac91", "rental_uris": {"ios": "https://dc.lft.to/lastmile_qr_scan", "android": "https://dc.lft.to/lastmile_qr_scan"}, "fusion_lon": 0.0, "lat": 38.885273166666664, "is_disabled": 0, "bike_id": "ab5f6996f8b26bfc10fd5c21c212ac91", "fusion_lat": 0.0, "is_reserved": 0, "lon": -77.01509633333333}, {"type": "electric_scooter", "name": "3bd23f0020333de49b98b0c91ecbd1f0", "rental_uris": {"ios": "https://dc.lft.to/lastmile_qr_scan", "android": "https://dc.lft.to/lastmile_qr_scan"}, "fusion_lon": 0.0, "lat": 38.90743716666667, "is_disabled": 0, "bike_id": "3bd23f0020333de49b98b0c91ecbd1f0", "fusion_lat": 0.0, "is_reserved": 0, "lon": -77.01313216666667}, {"type": "electric_scooter", "name": "897c09f54af8e1f88efe512ca1726668", "rental_uris": {"ios": "https://dc.lft.to/lastmile_qr_scan", "android": "https://dc.lft.to/lastmile_qr_scan"}, "fusion_lon": 0.0, "lat": 38.8606515, "is_disabled": 0, "bike_id": "897c09f54af8e1f88efe512ca1726668", "fusion_lat": 0.0, "is_reserved": 0, "lon": -76.98499866666667}, {"type": "electric_scooter", "name": "b7a95a895aef7771420421a1c6d16733", "rental_uris": {"ios": "https://dc.lft.to/lastmile_qr_scan", "android": "https://dc.lft.to/lastmile_qr_scan"}, "fusion_lon": 0.0, "lat": 38.91121033333334, "is_disabled": 0, "bike_id": "b7a95a895aef7771420421a1c6d16733", "fusion_lat": 0.0, "is_reserved": 0, "lon": -77.0331505}, {"type": "electric_scooter", "name": "17e5fc7584c9dd0c87856380008ff233", "rental_uris": {"ios": "https://dc.lft.to/lastmile_qr_scan", "android": "https://dc.lft.to/lastmile_qr_scan"}, "fusion_lon": 0.0, "lat": 38.89852666666667, "is_disabled": 0, "bike_id": "17e5fc7584c9dd0c87856380008ff233", "fusion_lat": 0.0, "is_reserved": 0, "lon": -77.01889366666667}, {"type": "electric_scooter", "name": "23ddb1e1b20d45dd8125097caa2be5da", "rental_uris": {"ios": "https://dc.lft.to/lastmile_qr_scan", "android": "https://dc.lft.to/lastmile_qr_scan"}, "fusion_lon": 0.0, "lat": 38.935132833333334, "is_disabled": 0, "bike_id": "23ddb1e1b20d45dd8125097caa2be5da", "fusion_lat": 0.0, "is_reserved": 0, "lon": -77.058342}, {"type": "electric_scooter", "name": "f8e763093030ea6ccb61d061d2e9ea53", "rental_uris": {"ios": "https://dc.lft.to/lastmile_qr_scan", "android": "https://dc.lft.to/lastmile_qr_scan"}, "fusion_lon": 0.0, "lat": 38.933245166666666, "is_disabled": 0, "bike_id": "f8e763093030ea6ccb61d061d2e9ea53", "fusion_lat": 0.0, "is_reserved": 0, "lon": -77.0343365}, {"type": "electric_scooter", "name": "253c8e2f77c81ed726605694b9d73937", "rental_uris": {"ios": "https://dc.lft.to/lastmile_qr_scan", "android": "https://dc.lft.to/lastmile_qr_scan"}, "fusion_lon": 0.0, "lat": 38.89841966666667, "is_disabled": 0, "bike_id": "253c8e2f77c81ed726605694b9d73937", "fusion_lat": 0.0, "is_reserved": 0, "lon": -77.012697}, {"type": "electric_scooter", "name": "0597864a9398955968a061aa08615849", "rental_uris": {"ios": "https://dc.lft.to/lastmile_qr_scan", "android": "https://dc.lft.to/lastmile_qr_scan"}, "fusion_lon": 0.0, "lat": 38.87683633333333, "is_disabled": 0, "bike_id": "0597864a9398955968a061aa08615849", "fusion_lat": 0.0, "is_reserved": 0, "lon": -77.00771583333334}, {"type": "electric_scooter", "name": "6211e3bbbdf3fba7c0dd4dcb4544417f", "rental_uris": {"ios": "https://dc.lft.to/lastmile_qr_scan", "android": "https://dc.lft.to/lastmile_qr_scan"}, "fusion_lon": 0.0, "lat": 38.94474566666667, "is_disabled": 0, "bike_id": "6211e3bbbdf3fba7c0dd4dcb4544417f", "fusion_lat": 0.0, "is_reserved": 0, "lon": -77.02357633333334}, {"type": "electric_scooter", "name": "3f0d34216aaf00c60e05b94183efeb71", "rental_uris": {"ios": "https://dc.lft.to/lastmile_qr_scan", "android": "https://dc.lft.to/lastmile_qr_scan"}, "fusion_lon": 0.0, "lat": 38.932537833333335, "is_disabled": 0, "bike_id": "3f0d34216aaf00c60e05b94183efeb71", "fusion_lat": 0.0, "is_reserved": 0, "lon": -76.9959155}, {"type": "electric_scooter", "name": "94c16319a214785dd1b7346bd66f53c9", "rental_uris": {"ios": "https://dc.lft.to/lastmile_qr_scan", "android": "https://dc.lft.to/lastmile_qr_scan"}, "fusion_lon": 0.0, "lat": 38.916970166666665, "is_disabled": 0, "bike_id": "94c16319a214785dd1b7346bd66f53c9", "fusion_lat": 0.0, "is_reserved": 0, "lon": -77.0259835}, {"type": "electric_scooter", "name": "d0df98062186ebcf277f01030888ff56", "rental_uris": {"ios": "https://dc.lft.to/lastmile_qr_scan", "android": "https://dc.lft.to/lastmile_qr_scan"}, "fusion_lon": 0.0, "lat": 38.8922365, "is_disabled": 0, "bike_id": "d0df98062186ebcf277f01030888ff56", "fusion_lat": 0.0, "is_reserved": 0, "lon": -77.0222105}, {"type": "electric_bike", "name": "ea2f1ab53df5c6b657c72cb3977995f4", "rental_uris": {"ios": "https://dc.lft.to/lastmile_qr_scan", "android": "https://dc.lft.to/lastmile_qr_scan"}, "fusion_lon": 0.0, "lat": 38.948236333333334, "is_disabled": 0, "bike_id": "ea2f1ab53df5c6b657c72cb3977995f4", "fusion_lat": 0.0, "is_reserved": 0, "lon": -77.02946083333333}, {"type": "electric_scooter", "name": "6c7e21df013f8920ce182f574a168671", "rental_uris": {"ios": "https://dc.lft.to/lastmile_qr_scan", "android": "https://dc.lft.to/lastmile_qr_scan"}, "fusion_lon": 0.0, "lat": 38.9286845, "is_disabled": 0, "bike_id": "6c7e21df013f8920ce182f574a168671", "fusion_lat": 0.0, "is_reserved": 0, "lon": -77.0328495}, {"type": "electric_bike", "name": "86db3a9bd50be80118e74bcac5954121", "rental_uris": {"ios": "https://dc.lft.to/lastmile_qr_scan", "android": "https://dc.lft.to/lastmile_qr_scan"}, "fusion_lon": 0.0, "lat": 39.010795333333334, "is_disabled": 0, "bike_id": "86db3a9bd50be80118e74bcac5954121", "fusion_lat": 0.0, "is_reserved": 0, "lon": -76.91064783333333}, {"type": "electric_scooter", "name": "87626a180a67024436d78186bc0112c2", "rental_uris": {"ios": "https://dc.lft.to/lastmile_qr_scan", "android": "https://dc.lft.to/lastmile_qr_scan"}, "fusion_lon": 0.0, "lat": 38.92333766666667, "is_disabled": 0, "bike_id": "87626a180a67024436d78186bc0112c2", "fusion_lat": 0.0, "is_reserved": 0, "lon": -77.01954066666667}, {"type": "electric_scooter", "name": "48f1f12a4fc15dc2de90720a3b21e083", "rental_uris": {"ios": "https://dc.lft.to/lastmile_qr_scan", "android": "https://dc.lft.to/lastmile_qr_scan"}, "fusion_lon": 0.0, "lat": 38.909769, "is_disabled": 0, "bike_id": "48f1f12a4fc15dc2de90720a3b21e083", "fusion_lat": 0.0, "is_reserved": 0, "lon": -77.03446233333334}, {"type": "electric_scooter", "name": "322d97276717b4922e81b965551b656b", "rental_uris": {"ios": "https://dc.lft.to/lastmile_qr_scan", "android": "https://dc.lft.to/lastmile_qr_scan"}, "fusion_lon": 0.0, "lat": 38.89826983333333, "is_disabled": 0, "bike_id": "322d97276717b4922e81b965551b656b", "fusion_lat": 0.0, "is_reserved": 0, "lon": -77.0317095}, {"type": "electric_scooter", "name": "4c0eb575e48b3fd8790e74261d50e270", "rental_uris": {"ios": "https://dc.lft.to/lastmile_qr_scan", "android": "https://dc.lft.to/lastmile_qr_scan"}, "fusion_lon": 0.0, "lat": 38.913160500000004, "is_disabled": 0, "bike_id": "4c0eb575e48b3fd8790e74261d50e270", "fusion_lat": 0.0, "is_reserved": 0, "lon": -77.0150935}, {"type": "electric_scooter", "name": "504dbaf6a1e35d296f08bd0ef4a70b4e", "rental_uris": {"ios": "https://dc.lft.to/lastmile_qr_scan", "android": "https://dc.lft.to/lastmile_qr_scan"}, "fusion_lon": 0.0, "lat": 38.90861016666667, "is_disabled": 0, "bike_id": "504dbaf6a1e35d296f08bd0ef4a70b4e", "fusion_lat": 0.0, "is_reserved": 0, "lon": -76.9979575}, {"type": "electric_scooter", "name": "063a825423d418e524e3e5c5ee109170", "rental_uris": {"ios": "https://dc.lft.to/lastmile_qr_scan", "android": "https://dc.lft.to/lastmile_qr_scan"}, "fusion_lon": 0.0, "lat": 38.902630333333335, "is_disabled": 0, "bike_id": "063a825423d418e524e3e5c5ee109170", "fusion_lat": 0.0, "is_reserved": 0, "lon": -76.97451216666667}, {"type": "electric_scooter", "name": "7c26f8585aaefedf9c923d4d90e8df07", "rental_uris": {"ios": "https://dc.lft.to/lastmile_qr_scan", "android": "https://dc.lft.to/lastmile_qr_scan"}, "fusion_lon": 0.0, "lat": 38.904113, "is_disabled": 0, "bike_id": "7c26f8585aaefedf9c923d4d90e8df07", "fusion_lat": 0.0, "is_reserved": 0, "lon": -76.97330483333333}, {"type": "electric_scooter", "name": "f6b23a558f93190105f4eccc1aa631a9", "rental_uris": {"ios": "https://dc.lft.to/lastmile_qr_scan", "android": "https://dc.lft.to/lastmile_qr_scan"}, "fusion_lon": 0.0, "lat": 38.907915333333335, "is_disabled": 0, "bike_id": "f6b23a558f93190105f4eccc1aa631a9", "fusion_lat": 0.0, "is_reserved": 0, "lon": -77.039929}, {"type": "electric_scooter", "name": "9d63d40fc7c1ecc0d6db003b4a45427b", "rental_uris": {"ios": "https://dc.lft.to/lastmile_qr_scan", "android": "https://dc.lft.to/lastmile_qr_scan"}, "fusion_lon": 0.0, "lat": 38.917206666666665, "is_disabled": 0, "bike_id": "9d63d40fc7c1ecc0d6db003b4a45427b", "fusion_lat": 0.0, "is_reserved": 0, "lon": -77.03476166666667}, {"type": "electric_scooter", "name": "61c70bff46d9210e9f7de9bbafee78b8", "rental_uris": {"ios": "https://dc.lft.to/lastmile_qr_scan", "android": "https://dc.lft.to/lastmile_qr_scan"}, "fusion_lon": 0.0, "lat": 38.928824666666664, "is_disabled": 0, "bike_id": "61c70bff46d9210e9f7de9bbafee78b8", "fusion_lat": 0.0, "is_reserved": 0, "lon": -77.02709083333333}, {"type": "electric_scooter", "name": "f5c0bbc970dad7851ce32b4e2928b2f4", "rental_uris": {"ios": "https://dc.lft.to/lastmile_qr_scan", "android": "https://dc.lft.to/lastmile_qr_scan"}, "fusion_lon": 0.0, "lat": 38.908022, "is_disabled": 0, "bike_id": "f5c0bbc970dad7851ce32b4e2928b2f4", "fusion_lat": 0.0, "is_reserved": 0, "lon": -77.04368366666667}, {"type": "electric_scooter", "name": "a8220b1f223228800ae3c5d911515593", "rental_uris": {"ios": "https://dc.lft.to/lastmile_qr_scan", "android": "https://dc.lft.to/lastmile_qr_scan"}, "fusion_lon": 0.0, "lat": 38.91574283333333, "is_disabled": 0, "bike_id": "a8220b1f223228800ae3c5d911515593", "fusion_lat": 0.0, "is_reserved": 0, "lon": -77.03855966666667}, {"type": "electric_scooter", "name": "b41d0aed4cb658732e48050d65b62689", "rental_uris": {"ios": "https://dc.lft.to/lastmile_qr_scan", "android": "https://dc.lft.to/lastmile_qr_scan"}, "fusion_lon": 0.0, "lat": 38.901079, "is_disabled": 0, "bike_id": "b41d0aed4cb658732e48050d65b62689", "fusion_lat": 0.0, "is_reserved": 0, "lon": -77.02379433333333}, {"type": "electric_scooter", "name": "a44df8afc12fdadf6a2f60158234a5fb", "rental_uris": {"ios": "https://dc.lft.to/lastmile_qr_scan", "android": "https://dc.lft.to/lastmile_qr_scan"}, "fusion_lon": 0.0, "lat": 38.92464833333333, "is_disabled": 0, "bike_id": "a44df8afc12fdadf6a2f60158234a5fb", "fusion_lat": 0.0, "is_reserved": 0, "lon": -77.05233333333334}, {"type": "electric_bike", "name": "ebbf5a59aac6531de882a03180043a40", "rental_uris": {"ios": "https://dc.lft.to/lastmile_qr_scan", "android": "https://dc.lft.to/lastmile_qr_scan"}, "fusion_lon": 0.0, "lat": 38.85518483333333, "is_disabled": 0, "bike_id": "ebbf5a59aac6531de882a03180043a40", "fusion_lat": 0.0, "is_reserved": 0, "lon": -76.984344}, {"type": "electric_scooter", "name": "cc13824c7708cfa1ca8027d4f37e3634", "rental_uris": {"ios": "https://dc.lft.to/lastmile_qr_scan", "android": "https://dc.lft.to/lastmile_qr_scan"}, "fusion_lon": 0.0, "lat": 38.939988666666665, "is_disabled": 0, "bike_id": "cc13824c7708cfa1ca8027d4f37e3634", "fusion_lat": 0.0, "is_reserved": 0, "lon": -77.0326745}, {"type": "electric_scooter", "name": "6063994692ce6961b7fa36ce35af63df", "rental_uris": {"ios": "https://dc.lft.to/lastmile_qr_scan", "android": "https://dc.lft.to/lastmile_qr_scan"}, "fusion_lon": 0.0, "lat": 38.9159135, "is_disabled": 0, "bike_id": "6063994692ce6961b7fa36ce35af63df", "fusion_lat": 0.0, "is_reserved": 0, "lon": -77.045985}, {"type": "electric_scooter", "name": "2f9a2fe407fbae2a73ca0d10be59ec13", "rental_uris": {"ios": "https://dc.lft.to/lastmile_qr_scan", "android": "https://dc.lft.to/lastmile_qr_scan"}, "fusion_lon": 0.0, "lat": 38.9052735, "is_disabled": 0, "bike_id": "2f9a2fe407fbae2a73ca0d10be59ec13", "fusion_lat": 0.0, "is_reserved": 0, "lon": -77.04939216666666}, {"type": "electric_scooter", "name": "ab2bc908f8c87019edec003495d0f7b7", "rental_uris": {"ios": "https://dc.lft.to/lastmile_qr_scan", "android": "https://dc.lft.to/lastmile_qr_scan"}, "fusion_lon": 0.0, "lat": 38.906394666666664, "is_disabled": 0, "bike_id": "ab2bc908f8c87019edec003495d0f7b7", "fusion_lat": 0.0, "is_reserved": 0, "lon": -77.04141583333333}, {"type": "electric_scooter", "name": "98a98c863df5d99ef247557488d9e7ae", "rental_uris": {"ios": "https://dc.lft.to/lastmile_qr_scan", "android": "https://dc.lft.to/lastmile_qr_scan"}, "fusion_lon": 0.0, "lat": 38.8877525, "is_disabled": 0, "bike_id": "98a98c863df5d99ef247557488d9e7ae", "fusion_lat": 0.0, "is_reserved": 0, "lon": -76.977476}, {"type": "electric_scooter", "name": "db9fd62b12c699ca0138811a4822f226", "rental_uris": {"ios": "https://dc.lft.to/lastmile_qr_scan", "android": "https://dc.lft.to/lastmile_qr_scan"}, "fusion_lon": 0.0, "lat": 38.886551, "is_disabled": 0, "bike_id": "db9fd62b12c699ca0138811a4822f226", "fusion_lat": 0.0, "is_reserved": 0, "lon": -77.02819683333334}, {"type": "electric_scooter", "name": "9dcc34214542add964a6eac94a9045df", "rental_uris": {"ios": "https://dc.lft.to/lastmile_qr_scan", "android": "https://dc.lft.to/lastmile_qr_scan"}, "fusion_lon": 0.0, "lat": 38.898464833333335, "is_disabled": 0, "bike_id": "9dcc34214542add964a6eac94a9045df", "fusion_lat": 0.0, "is_reserved": 0, "lon": -76.94632416666667}, {"type": "electric_scooter", "name": "2832425faa4c96ff32758aed27f603e2", "rental_uris": {"ios": "https://dc.lft.to/lastmile_qr_scan", "android": "https://dc.lft.to/lastmile_qr_scan"}, "fusion_lon": 0.0, "lat": 38.89137433333333, "is_disabled": 0, "bike_id": "2832425faa4c96ff32758aed27f603e2", "fusion_lat": 0.0, "is_reserved": 0, "lon": -76.9909775}, {"type": "electric_bike", "name": "ced8156ae2a0c7490c436a2b83a65634", "rental_uris": {"ios": "https://dc.lft.to/lastmile_qr_scan", "android": "https://dc.lft.to/lastmile_qr_scan"}, "fusion_lon": 0.0, "lat": 38.98464216666667, "is_disabled": 0, "bike_id": "ced8156ae2a0c7490c436a2b83a65634", "fusion_lat": 0.0, "is_reserved": 0, "lon": -76.97054866666667}, {"type": "electric_scooter", "name": "20ccc76b7157128f07d4d3be4b1b9528", "rental_uris": {"ios": "https://dc.lft.to/lastmile_qr_scan", "android": "https://dc.lft.to/lastmile_qr_scan"}, "fusion_lon": 0.0, "lat": 38.904347666666666, "is_disabled": 0, "bike_id": "20ccc76b7157128f07d4d3be4b1b9528", "fusion_lat": 0.0, "is_reserved": 0, "lon": -77.04361333333334}, {"type": "electric_scooter", "name": "4a13d1117b31eefac97c7ee5b3f6161a", "rental_uris": {"ios": "https://dc.lft.to/lastmile_qr_scan", "android": "https://dc.lft.to/lastmile_qr_scan"}, "fusion_lon": 0.0, "lat": 38.91060566666667, "is_disabled": 0, "bike_id": "4a13d1117b31eefac97c7ee5b3f6161a", "fusion_lat": 0.0, "is_reserved": 0, "lon": -76.98517983333333}, {"type": "electric_scooter", "name": "d327399f9f880019a32cdf4644e7592f", "rental_uris": {"ios": "https://dc.lft.to/lastmile_qr_scan", "android": "https://dc.lft.to/lastmile_qr_scan"}, "fusion_lon": 0.0, "lat": 38.921164833333336, "is_disabled": 0, "bike_id": "d327399f9f880019a32cdf4644e7592f", "fusion_lat": 0.0, "is_reserved": 0, "lon": -77.00921583333333}, {"type": "electric_scooter", "name": "8aa2aae87639368cf32540be50d191f4", "rental_uris": {"ios": "https://dc.lft.to/lastmile_qr_scan", "android": "https://dc.lft.to/lastmile_qr_scan"}, "fusion_lon": 0.0, "lat": 38.89842, "is_disabled": 0, "bike_id": "8aa2aae87639368cf32540be50d191f4", "fusion_lat": 0.0, "is_reserved": 0, "lon": -77.03334883333333}, {"type": "electric_scooter", "name": "8b7349b81362617b63519315df8bc34d", "rental_uris": {"ios": "https://dc.lft.to/lastmile_qr_scan", "android": "https://dc.lft.to/lastmile_qr_scan"}, "fusion_lon": 0.0, "lat": 38.90428166666667, "is_disabled": 0, "bike_id": "8b7349b81362617b63519315df8bc34d", "fusion_lat": 0.0, "is_reserved": 0, "lon": -77.05344483333333}, {"type": "electric_scooter", "name": "eccdc928a30082cd54b75ac30b68b792", "rental_uris": {"ios": "https://dc.lft.to/lastmile_qr_scan", "android": "https://dc.lft.to/lastmile_qr_scan"}, "fusion_lon": 0.0, "lat": 38.92343266666666, "is_disabled": 0, "bike_id": "eccdc928a30082cd54b75ac30b68b792", "fusion_lat": 0.0, "is_reserved": 0, "lon": -77.05237616666666}, {"type": "electric_scooter", "name": "0156628ed179be6e3f28eabbc0df81e8", "rental_uris": {"ios": "https://dc.lft.to/lastmile_qr_scan", "android": "https://dc.lft.to/lastmile_qr_scan"}, "fusion_lon": 0.0, "lat": 38.90153183333334, "is_disabled": 0, "bike_id": "0156628ed179be6e3f28eabbc0df81e8", "fusion_lat": 0.0, "is_reserved": 0, "lon": -76.99021066666667}, {"type": "electric_scooter", "name": "8482cc020729339604d6f2f9f3d0d97e", "rental_uris": {"ios": "https://dc.lft.to/lastmile_qr_scan", "android": "https://dc.lft.to/lastmile_qr_scan"}, "fusion_lon": 0.0, "lat": 38.910560333333336, "is_disabled": 0, "bike_id": "8482cc020729339604d6f2f9f3d0d97e", "fusion_lat": 0.0, "is_reserved": 0, "lon": -77.04348416666667}, {"type": "electric_scooter", "name": "26b9c058045bd92fb57116f4b65ddb1b", "rental_uris": {"ios": "https://dc.lft.to/lastmile_qr_scan", "android": "https://dc.lft.to/lastmile_qr_scan"}, "fusion_lon": 0.0, "lat": 38.88068783333333, "is_disabled": 0, "bike_id": "26b9c058045bd92fb57116f4b65ddb1b", "fusion_lat": 0.0, "is_reserved": 0, "lon": -76.93225383333333}, {"type": "electric_scooter", "name": "408aaf7ee54e7162f4cad732d28b105d", "rental_uris": {"ios": "https://dc.lft.to/lastmile_qr_scan", "android": "https://dc.lft.to/lastmile_qr_scan"}, "fusion_lon": 0.0, "lat": 38.89836716666667, "is_disabled": 0, "bike_id": "408aaf7ee54e7162f4cad732d28b105d", "fusion_lat": 0.0, "is_reserved": 0, "lon": -77.00741483333333}, {"type": "electric_scooter", "name": "66eb40d533ddf582f8e05d9a47ca074e", "rental_uris": {"ios": "https://dc.lft.to/lastmile_qr_scan", "android": "https://dc.lft.to/lastmile_qr_scan"}, "fusion_lon": 0.0, "lat": 38.9176845, "is_disabled": 0, "bike_id": "66eb40d533ddf582f8e05d9a47ca074e", "fusion_lat": 0.0, "is_reserved": 0, "lon": -77.02314816666667}, {"type": "electric_scooter", "name": "426bdc9f2a5d4a9ed35f73d76b3558f8", "rental_uris": {"ios": "https://dc.lft.to/lastmile_qr_scan", "android": "https://dc.lft.to/lastmile_qr_scan"}, "fusion_lon": 0.0, "lat": 38.924277000000004, "is_disabled": 0, "bike_id": "426bdc9f2a5d4a9ed35f73d76b3558f8", "fusion_lat": 0.0, "is_reserved": 0, "lon": -77.019468}, {"type": "electric_scooter", "name": "ca6ba1fde6bdbe8d2d9656c8e8402ea5", "rental_uris": {"ios": "https://dc.lft.to/lastmile_qr_scan", "android": "https://dc.lft.to/lastmile_qr_scan"}, "fusion_lon": 0.0, "lat": 38.88523966666666, "is_disabled": 0, "bike_id": "ca6ba1fde6bdbe8d2d9656c8e8402ea5", "fusion_lat": 0.0, "is_reserved": 0, "lon": -76.97707133333333}, {"type": "electric_scooter", "name": "e44f27146d6dc4765a4c41572bc63f72", "rental_uris": {"ios": "https://dc.lft.to/lastmile_qr_scan", "android": "https://dc.lft.to/lastmile_qr_scan"}, "fusion_lon": 0.0, "lat": 38.934239166666664, "is_disabled": 0, "bike_id": "e44f27146d6dc4765a4c41572bc63f72", "fusion_lat": 0.0, "is_reserved": 0, "lon": -77.04410233333333}, {"type": "electric_scooter", "name": "daf6e9c289ba829085b31f38baf1aa1f", "rental_uris": {"ios": "https://dc.lft.to/lastmile_qr_scan", "android": "https://dc.lft.to/lastmile_qr_scan"}, "fusion_lon": 0.0, "lat": 38.890044, "is_disabled": 0, "bike_id": "daf6e9c289ba829085b31f38baf1aa1f", "fusion_lat": 0.0, "is_reserved": 0, "lon": -76.9374065}, {"type": "electric_scooter", "name": "28137b7d8ad4427e60984c433b03e735", "rental_uris": {"ios": "https://dc.lft.to/lastmile_qr_scan", "android": "https://dc.lft.to/lastmile_qr_scan"}, "fusion_lon": 0.0, "lat": 38.896769, "is_disabled": 0, "bike_id": "28137b7d8ad4427e60984c433b03e735", "fusion_lat": 0.0, "is_reserved": 0, "lon": -77.05463333333333}, {"type": "electric_bike", "name": "6962ca2085836185d61558d801268029", "rental_uris": {"ios": "https://dc.lft.to/lastmile_qr_scan", "android": "https://dc.lft.to/lastmile_qr_scan"}, "fusion_lon": 0.0, "lat": 38.90955866666667, "is_disabled": 0, "bike_id": "6962ca2085836185d61558d801268029", "fusion_lat": 0.0, "is_reserved": 0, "lon": -77.22889216666667}, {"type": "electric_scooter", "name": "5f06460e5d9f6c1d771d93f00b84b040", "rental_uris": {"ios": "https://dc.lft.to/lastmile_qr_scan", "android": "https://dc.lft.to/lastmile_qr_scan"}, "fusion_lon": 0.0, "lat": 38.90796783333333, "is_disabled": 0, "bike_id": "5f06460e5d9f6c1d771d93f00b84b040", "fusion_lat": 0.0, "is_reserved": 0, "lon": -76.9942685}, {"type": "electric_scooter", "name": "5fa747f1976c4c77d50cd02656ed2da2", "rental_uris": {"ios": "https://dc.lft.to/lastmile_qr_scan", "android": "https://dc.lft.to/lastmile_qr_scan"}, "fusion_lon": 0.0, "lat": 38.91740133333333, "is_disabled": 0, "bike_id": "5fa747f1976c4c77d50cd02656ed2da2", "fusion_lat": 0.0, "is_reserved": 0, "lon": -77.04597066666666}, {"type": "electric_bike", "name": "7e68eb155e7a71ec7f8b3d47ef0febf7", "rental_uris": {"ios": "https://dc.lft.to/lastmile_qr_scan", "android": "https://dc.lft.to/lastmile_qr_scan"}, "fusion_lon": 0.0, "lat": 38.904963333333335, "is_disabled": 0, "bike_id": "7e68eb155e7a71ec7f8b3d47ef0febf7", "fusion_lat": 0.0, "is_reserved": 0, "lon": -76.97582816666667}, {"type": "electric_scooter", "name": "9f6f0456fb531ee4921af4bab3ff22ab", "rental_uris": {"ios": "https://dc.lft.to/lastmile_qr_scan", "android": "https://dc.lft.to/lastmile_qr_scan"}, "fusion_lon": 0.0, "lat": 38.928033666666664, "is_disabled": 0, "bike_id": "9f6f0456fb531ee4921af4bab3ff22ab", "fusion_lat": 0.0, "is_reserved": 0, "lon": -77.02316283333333}, {"type": "electric_scooter", "name": "f1975266146eef1d0b12c1c16cb19701", "rental_uris": {"ios": "https://dc.lft.to/lastmile_qr_scan", "android": "https://dc.lft.to/lastmile_qr_scan"}, "fusion_lon": 0.0, "lat": 38.91124833333333, "is_disabled": 0, "bike_id": "f1975266146eef1d0b12c1c16cb19701", "fusion_lat": 0.0, "is_reserved": 0, "lon": -77.041539}, {"type": "electric_scooter", "name": "09b5c05a6731ff2c0b6d4bdaa0b2c048", "rental_uris": {"ios": "https://dc.lft.to/lastmile_qr_scan", "android": "https://dc.lft.to/lastmile_qr_scan"}, "fusion_lon": 0.0, "lat": 38.86510066666666, "is_disabled": 0, "bike_id": "09b5c05a6731ff2c0b6d4bdaa0b2c048", "fusion_lat": 0.0, "is_reserved": 0, "lon": -76.99002666666667}, {"type": "electric_scooter", "name": "1fb89f8aa8f4acdd5eeebf251361534d", "rental_uris": {"ios": "https://dc.lft.to/lastmile_qr_scan", "android": "https://dc.lft.to/lastmile_qr_scan"}, "fusion_lon": 0.0, "lat": 38.87726966666666, "is_disabled": 0, "bike_id": "1fb89f8aa8f4acdd5eeebf251361534d", "fusion_lat": 0.0, "is_reserved": 0, "lon": -77.01767966666667}, {"type": "electric_scooter", "name": "af3dc54b7de85a0e0f7997941be755d2", "rental_uris": {"ios": "https://dc.lft.to/lastmile_qr_scan", "android": "https://dc.lft.to/lastmile_qr_scan"}, "fusion_lon": 0.0, "lat": 38.91114366666667, "is_disabled": 0, "bike_id": "af3dc54b7de85a0e0f7997941be755d2", "fusion_lat": 0.0, "is_reserved": 0, "lon": -77.04229166666667}, {"type": "electric_scooter", "name": "7d3ac125e8ef071c7cfae619bec7487f", "rental_uris": {"ios": "https://dc.lft.to/lastmile_qr_scan", "android": "https://dc.lft.to/lastmile_qr_scan"}, "fusion_lon": 0.0, "lat": 38.908801833333335, "is_disabled": 0, "bike_id": "7d3ac125e8ef071c7cfae619bec7487f", "fusion_lat": 0.0, "is_reserved": 0, "lon": -77.02007733333333}, {"type": "electric_scooter", "name": "8bd6a9161bc4289a2c5ad8dac1400e8a", "rental_uris": {"ios": "https://dc.lft.to/lastmile_qr_scan", "android": "https://dc.lft.to/lastmile_qr_scan"}, "fusion_lon": 0.0, "lat": 38.8922935, "is_disabled": 0, "bike_id": "8bd6a9161bc4289a2c5ad8dac1400e8a", "fusion_lat": 0.0, "is_reserved": 0, "lon": -77.03136816666667}, {"type": "electric_scooter", "name": "72d25773b41b64d90e45e55387dc4453", "rental_uris": {"ios": "https://dc.lft.to/lastmile_qr_scan", "android": "https://dc.lft.to/lastmile_qr_scan"}, "fusion_lon": 0.0, "lat": 38.92235, "is_disabled": 0, "bike_id": "72d25773b41b64d90e45e55387dc4453", "fusion_lat": 0.0, "is_reserved": 0, "lon": -77.04640133333334}, {"type": "electric_scooter", "name": "dc42e018ef1f615dd55218f3f3e58478", "rental_uris": {"ios": "https://dc.lft.to/lastmile_qr_scan", "android": "https://dc.lft.to/lastmile_qr_scan"}, "fusion_lon": 0.0, "lat": 38.88900916666667, "is_disabled": 0, "bike_id": "dc42e018ef1f615dd55218f3f3e58478", "fusion_lat": 0.0, "is_reserved": 0, "lon": -76.992022}, {"type": "electric_scooter", "name": "a58917873d199a9353a3b048ebd56ef1", "rental_uris": {"ios": "https://dc.lft.to/lastmile_qr_scan", "android": "https://dc.lft.to/lastmile_qr_scan"}, "fusion_lon": 0.0, "lat": 38.903323666666665, "is_disabled": 0, "bike_id": "a58917873d199a9353a3b048ebd56ef1", "fusion_lat": 0.0, "is_reserved": 0, "lon": -77.05015316666666}, {"type": "electric_scooter", "name": "baf3f6744d97240ce8e785087f09f2a4", "rental_uris": {"ios": "https://dc.lft.to/lastmile_qr_scan", "android": "https://dc.lft.to/lastmile_qr_scan"}, "fusion_lon": 0.0, "lat": 38.90238866666667, "is_disabled": 0, "bike_id": "baf3f6744d97240ce8e785087f09f2a4", "fusion_lat": 0.0, "is_reserved": 0, "lon": -77.05341466666667}, {"type": "electric_scooter", "name": "eca8e83d37eb6a08d7986bb6222692ab", "rental_uris": {"ios": "https://dc.lft.to/lastmile_qr_scan", "android": "https://dc.lft.to/lastmile_qr_scan"}, "fusion_lon": 0.0, "lat": 38.981176833333336, "is_disabled": 0, "bike_id": "eca8e83d37eb6a08d7986bb6222692ab", "fusion_lat": 0.0, "is_reserved": 0, "lon": -77.02664116666666}, {"type": "electric_bike", "name": "b4ff91f279b4aa17a25c685d1a3ad5a1", "rental_uris": {"ios": "https://dc.lft.to/lastmile_qr_scan", "android": "https://dc.lft.to/lastmile_qr_scan"}, "fusion_lon": 0.0, "lat": 38.89186516666667, "is_disabled": 0, "bike_id": "b4ff91f279b4aa17a25c685d1a3ad5a1", "fusion_lat": 0.0, "is_reserved": 0, "lon": -76.93890666666667}, {"type": "electric_scooter", "name": "3fc0dd5b1f9f12c287f65b619fd5f5f9", "rental_uris": {"ios": "https://dc.lft.to/lastmile_qr_scan", "android": "https://dc.lft.to/lastmile_qr_scan"}, "fusion_lon": 0.0, "lat": 38.9214215, "is_disabled": 0, "bike_id": "3fc0dd5b1f9f12c287f65b619fd5f5f9", "fusion_lat": 0.0, "is_reserved": 0, "lon": -77.02077383333334}, {"type": "electric_bike", "name": "1da51242207944da8bddbf5a358d2a99", "rental_uris": {"ios": "https://dc.lft.to/lastmile_qr_scan", "android": "https://dc.lft.to/lastmile_qr_scan"}, "fusion_lon": 0.0, "lat": 38.89356166666666, "is_disabled": 0, "bike_id": "1da51242207944da8bddbf5a358d2a99", "fusion_lat": 0.0, "is_reserved": 0, "lon": -77.187449}, {"type": "electric_scooter", "name": "5ef9abf7c7ca3359b5b6cc7dbd019477", "rental_uris": {"ios": "https://dc.lft.to/lastmile_qr_scan", "android": "https://dc.lft.to/lastmile_qr_scan"}, "fusion_lon": 0.0, "lat": 38.89222683333333, "is_disabled": 0, "bike_id": "5ef9abf7c7ca3359b5b6cc7dbd019477", "fusion_lat": 0.0, "is_reserved": 0, "lon": -77.0222505}, {"type": "electric_scooter", "name": "7f148ec2350c7c4494ee331e02d380b0", "rental_uris": {"ios": "https://dc.lft.to/lastmile_qr_scan", "android": "https://dc.lft.to/lastmile_qr_scan"}, "fusion_lon": 0.0, "lat": 38.88369316666667, "is_disabled": 0, "bike_id": "7f148ec2350c7c4494ee331e02d380b0", "fusion_lat": 0.0, "is_reserved": 0, "lon": -76.99480933333334}, {"type": "electric_scooter", "name": "873b1a4dbf65d3ed1eaa8d9f3af53340", "rental_uris": {"ios": "https://dc.lft.to/lastmile_qr_scan", "android": "https://dc.lft.to/lastmile_qr_scan"}, "fusion_lon": 0.0, "lat": 38.89490983333334, "is_disabled": 0, "bike_id": "873b1a4dbf65d3ed1eaa8d9f3af53340", "fusion_lat": 0.0, "is_reserved": 0, "lon": -77.0097805}, {"type": "electric_scooter", "name": "c3b8675a9208b938e4452db141b82bc3", "rental_uris": {"ios": "https://dc.lft.to/lastmile_qr_scan", "android": "https://dc.lft.to/lastmile_qr_scan"}, "fusion_lon": 0.0, "lat": 38.91567333333333, "is_disabled": 0, "bike_id": "c3b8675a9208b938e4452db141b82bc3", "fusion_lat": 0.0, "is_reserved": 0, "lon": -77.02632266666667}, {"type": "electric_scooter", "name": "a3300209f49579d4194741434c710e66", "rental_uris": {"ios": "https://dc.lft.to/lastmile_qr_scan", "android": "https://dc.lft.to/lastmile_qr_scan"}, "fusion_lon": 0.0, "lat": 38.89432033333333, "is_disabled": 0, "bike_id": "a3300209f49579d4194741434c710e66", "fusion_lat": 0.0, "is_reserved": 0, "lon": -77.0010355}, {"type": "electric_bike", "name": "048a570ffa00444c718b55ba2d9712c2", "rental_uris": {"ios": "https://dc.lft.to/lastmile_qr_scan", "android": "https://dc.lft.to/lastmile_qr_scan"}, "fusion_lon": 0.0, "lat": 38.819432, "is_disabled": 0, "bike_id": "048a570ffa00444c718b55ba2d9712c2", "fusion_lat": 0.0, "is_reserved": 0, "lon": -77.00204116666667}, {"type": "electric_scooter", "name": "d692d7d24125eaf6b561467d09b9f14b", "rental_uris": {"ios": "https://dc.lft.to/lastmile_qr_scan", "android": "https://dc.lft.to/lastmile_qr_scan"}, "fusion_lon": 0.0, "lat": 38.931364333333335, "is_disabled": 0, "bike_id": "d692d7d24125eaf6b561467d09b9f14b", "fusion_lat": 0.0, "is_reserved": 0, "lon": -77.07842033333333}, {"type": "electric_scooter", "name": "661e22ea2d48ef30673925eb55112247", "rental_uris": {"ios": "https://dc.lft.to/lastmile_qr_scan", "android": "https://dc.lft.to/lastmile_qr_scan"}, "fusion_lon": 0.0, "lat": 38.8850065, "is_disabled": 0, "bike_id": "661e22ea2d48ef30673925eb55112247", "fusion_lat": 0.0, "is_reserved": 0, "lon": -77.020858}, {"type": "electric_scooter", "name": "2fd1f2026215afc220e9c18e8be7a909", "rental_uris": {"ios": "https://dc.lft.to/lastmile_qr_scan", "android": "https://dc.lft.to/lastmile_qr_scan"}, "fusion_lon": 0.0, "lat": 38.907201, "is_disabled": 0, "bike_id": "2fd1f2026215afc220e9c18e8be7a909", "fusion_lat": 0.0, "is_reserved": 0, "lon": -77.02502383333334}, {"type": "electric_scooter", "name": "3cc407ab133a41c00a4243f2d6e5c056", "rental_uris": {"ios": "https://dc.lft.to/lastmile_qr_scan", "android": "https://dc.lft.to/lastmile_qr_scan"}, "fusion_lon": 0.0, "lat": 38.944505166666666, "is_disabled": 0, "bike_id": "3cc407ab133a41c00a4243f2d6e5c056", "fusion_lat": 0.0, "is_reserved": 0, "lon": -77.0233945}, {"type": "electric_scooter", "name": "4408c72de8070c2e2961d71067562527", "rental_uris": {"ios": "https://dc.lft.to/lastmile_qr_scan", "android": "https://dc.lft.to/lastmile_qr_scan"}, "fusion_lon": 0.0, "lat": 38.89224316666667, "is_disabled": 0, "bike_id": "4408c72de8070c2e2961d71067562527", "fusion_lat": 0.0, "is_reserved": 0, "lon": -77.04690133333334}, {"type": "electric_scooter", "name": "b445e5198f94e3b9232fa08e96a3e4de", "rental_uris": {"ios": "https://dc.lft.to/lastmile_qr_scan", "android": "https://dc.lft.to/lastmile_qr_scan"}, "fusion_lon": 0.0, "lat": 38.887398166666664, "is_disabled": 0, "bike_id": "b445e5198f94e3b9232fa08e96a3e4de", "fusion_lat": 0.0, "is_reserved": 0, "lon": -77.0318065}, {"type": "electric_scooter", "name": "cbb2591dd5f770c337e92bf11c2c175b", "rental_uris": {"ios": "https://dc.lft.to/lastmile_qr_scan", "android": "https://dc.lft.to/lastmile_qr_scan"}, "fusion_lon": 0.0, "lat": 38.866341166666665, "is_disabled": 0, "bike_id": "cbb2591dd5f770c337e92bf11c2c175b", "fusion_lat": 0.0, "is_reserved": 0, "lon": -76.98717283333333}, {"type": "electric_scooter", "name": "e34d5c3bcc6831f2b30bef8c7d85c8e2", "rental_uris": {"ios": "https://dc.lft.to/lastmile_qr_scan", "android": "https://dc.lft.to/lastmile_qr_scan"}, "fusion_lon": 0.0, "lat": 38.92590716666667, "is_disabled": 0, "bike_id": "e34d5c3bcc6831f2b30bef8c7d85c8e2", "fusion_lat": 0.0, "is_reserved": 0, "lon": -77.0296325}, {"type": "electric_scooter", "name": "b85cefe56f4a803532438bfd7239667a", "rental_uris": {"ios": "https://dc.lft.to/lastmile_qr_scan", "android": "https://dc.lft.to/lastmile_qr_scan"}, "fusion_lon": 0.0, "lat": 38.908127666666665, "is_disabled": 0, "bike_id": "b85cefe56f4a803532438bfd7239667a", "fusion_lat": 0.0, "is_reserved": 0, "lon": -77.03446716666667}, {"type": "electric_scooter", "name": "a4dc42e6bea04fd872b4be42b98feb58", "rental_uris": {"ios": "https://dc.lft.to/lastmile_qr_scan", "android": "https://dc.lft.to/lastmile_qr_scan"}, "fusion_lon": 0.0, "lat": 38.9318415, "is_disabled": 0, "bike_id": "a4dc42e6bea04fd872b4be42b98feb58", "fusion_lat": 0.0, "is_reserved": 0, "lon": -77.0385015}, {"type": "electric_scooter", "name": "e51515777438467c0eb988e8c7e84c2b", "rental_uris": {"ios": "https://dc.lft.to/lastmile_qr_scan", "android": "https://dc.lft.to/lastmile_qr_scan"}, "fusion_lon": 0.0, "lat": 38.896078833333334, "is_disabled": 0, "bike_id": "e51515777438467c0eb988e8c7e84c2b", "fusion_lat": 0.0, "is_reserved": 0, "lon": -77.0265955}, {"type": "electric_scooter", "name": "7a48e842a68a92b4dd8f67ef81870138", "rental_uris": {"ios": "https://dc.lft.to/lastmile_qr_scan", "android": "https://dc.lft.to/lastmile_qr_scan"}, "fusion_lon": 0.0, "lat": 38.90257916666667, "is_disabled": 0, "bike_id": "7a48e842a68a92b4dd8f67ef81870138", "fusion_lat": 0.0, "is_reserved": 0, "lon": -77.0175315}, {"type": "electric_scooter", "name": "d1fb306f47668022c788e965c0345a96", "rental_uris": {"ios": "https://dc.lft.to/lastmile_qr_scan", "android": "https://dc.lft.to/lastmile_qr_scan"}, "fusion_lon": 0.0, "lat": 38.88330583333333, "is_disabled": 0, "bike_id": "d1fb306f47668022c788e965c0345a96", "fusion_lat": 0.0, "is_reserved": 0, "lon": -77.01750116666666}, {"type": "electric_scooter", "name": "2ab1ae2c3b2586595584413f04feea56", "rental_uris": {"ios": "https://dc.lft.to/lastmile_qr_scan", "android": "https://dc.lft.to/lastmile_qr_scan"}, "fusion_lon": 0.0, "lat": 38.8962875, "is_disabled": 0, "bike_id": "2ab1ae2c3b2586595584413f04feea56", "fusion_lat": 0.0, "is_reserved": 0, "lon": -77.02839716666666}, {"type": "electric_scooter", "name": "d7d02a5a0957344095bdab51d0fc294e", "rental_uris": {"ios": "https://dc.lft.to/lastmile_qr_scan", "android": "https://dc.lft.to/lastmile_qr_scan"}, "fusion_lon": 0.0, "lat": 38.905272333333336, "is_disabled": 0, "bike_id": "d7d02a5a0957344095bdab51d0fc294e", "fusion_lat": 0.0, "is_reserved": 0, "lon": -77.063854}, {"type": "electric_bike", "name": "f6b178561c4929515fd5521f3bcad847", "rental_uris": {"ios": "https://dc.lft.to/lastmile_qr_scan", "android": "https://dc.lft.to/lastmile_qr_scan"}, "fusion_lon": 0.0, "lat": 38.884096, "is_disabled": 0, "bike_id": "f6b178561c4929515fd5521f3bcad847", "fusion_lat": 0.0, "is_reserved": 0, "lon": -76.960535}, {"type": "electric_scooter", "name": "76572e012f1f5b6fdcff92771d105d9c", "rental_uris": {"ios": "https://dc.lft.to/lastmile_qr_scan", "android": "https://dc.lft.to/lastmile_qr_scan"}, "fusion_lon": 0.0, "lat": 38.896214666666665, "is_disabled": 0, "bike_id": "76572e012f1f5b6fdcff92771d105d9c", "fusion_lat": 0.0, "is_reserved": 0, "lon": -76.98567800000001}, {"type": "electric_scooter", "name": "f5b23663e728a0145dce9b33a82dcd1f", "rental_uris": {"ios": "https://dc.lft.to/lastmile_qr_scan", "android": "https://dc.lft.to/lastmile_qr_scan"}, "fusion_lon": 0.0, "lat": 38.96732933333333, "is_disabled": 0, "bike_id": "f5b23663e728a0145dce9b33a82dcd1f", "fusion_lat": 0.0, "is_reserved": 0, "lon": -77.0091785}, {"type": "electric_scooter", "name": "148a4c00a924222c741bfc4d47ffba1c", "rental_uris": {"ios": "https://dc.lft.to/lastmile_qr_scan", "android": "https://dc.lft.to/lastmile_qr_scan"}, "fusion_lon": 0.0, "lat": 38.91569233333333, "is_disabled": 0, "bike_id": "148a4c00a924222c741bfc4d47ffba1c", "fusion_lat": 0.0, "is_reserved": 0, "lon": -77.03137616666666}, {"type": "electric_scooter", "name": "bf52773d1db32799d7b67949a2e400cc", "rental_uris": {"ios": "https://dc.lft.to/lastmile_qr_scan", "android": "https://dc.lft.to/lastmile_qr_scan"}, "fusion_lon": 0.0, "lat": 38.9524955, "is_disabled": 0, "bike_id": "bf52773d1db32799d7b67949a2e400cc", "fusion_lat": 0.0, "is_reserved": 0, "lon": -77.023781},