{"data": {"bikes": [{"fusion_lat": 0.0, "name": "b8ed2efa5346bab27ed0f717b65519a5", "is_disabled": 0, "rental_uris": {"android": "https://dc.lft.to/lastmile_qr_scan", "ios": "https://dc.lft.to/lastmile_qr_scan"}, "fusion_lon": 0.0, "lat": 38.950886833333335, "bike_id": "b8ed2efa5346bab27ed0f717b65519a5", "type": "electric_scooter", "is_reserved": 0, "lon": -77.028205}, {"fusion_lat": 0.0, "name": "90f4eaf012df3b4b6d4f3a47509ae7fb", "is_disabled": 0, "rental_uris": {"android": "https://dc.lft.to/lastmile_qr_scan", "ios": "https://dc.lft.to/lastmile_qr_scan"}, "fusion_lon": 0.0, "lat": 38.892273, "bike_id": "90f4eaf012df3b4b6d4f3a47509ae7fb", "type": "electric_scooter", "is_reserved": 0, "lon": -77.0321745}, {"fusion_lat": 0.0, "name": "8658565f5c017683b2a65ea6f503c574", "is_disabled": 0, "rental_uris": {"android": "https://dc.lft.to/lastmile_qr_scan", "ios": "https://dc.lft.to/lastmile_qr_scan"}, "fusion_lon": 0.0, "lat": 38.89833133333333, "bike_id": "8658565f5c017683b2a65ea6f503c574", "type": "electric_scooter", "is_reserved": 0, "lon": -76.931785}, {"fusion_lat": 0.0, "name": "2534fa6cda78cfa7efe6132490accafa", "is_disabled": 0, "rental_uris": {"android": "https://dc.lft.to/lastmile_qr_scan", "ios": "https://dc.lft.to/lastmile_qr_scan"}, "fusion_lon": 0.0, "lat": 38.84052466666667, "bike_id": "2534fa6cda78cfa7efe6132490accafa", "type": "electric_scooter", "is_reserved": 0, "lon": -76.97666}, {"fusion_lat": 0.0, "name": "232d6c4a427a1321c425c26bfe8b948d", "is_disabled": 0, "rental_uris": {"android": "https://dc.lft.to/lastmile_qr_scan", "ios": "https://dc.lft.to/lastmile_qr_scan"}, "fusion_lon": 0.0, "lat": 38.898269, "bike_id": "232d6c4a427a1321c425c26bfe8b948d", "type": "electric_scooter", "is_reserved": 0, "lon": -76.94653783333334}, {"fusion_lat": 0.0, "name": "da8a39e45ace31e8b29fb4d5550abd5a", "is_disabled": 0, "rental_uris": {"android": "https://dc.lft.to/lastmile_qr_scan", "ios": "https://dc.lft.to/lastmile_qr_scan"}, "fusion_lon": 0.0, "lat": 38.9045035, "bike_id": "da8a39e45ace31e8b29fb4d5550abd5a", "type": "electric_bike", "is_reserved": 0, "lon": -76.974153}, {"fusion_lat": 0.0, "name": "a526e9f1769d4fff38767553b4dc3e53", "is_disabled": 0, "rental_uris": {"android": "https://dc.lft.to/lastmile_qr_scan", "ios": "https://dc.lft.to/lastmile_qr_scan"}, "fusion_lon": 0.0, "lat": 38.953049166666666, "bike_id": "a526e9f1769d4fff38767553b4dc3e53", "type": "electric_scooter", "is_reserved": 0, "lon": -77.06863116666666}, {"fusion_lat": 0.0, "name": "3202b4039c0b8a7256a1473e0a23fd15", "is_disabled": 0, "rental_uris": {"android": "https://dc.lft.to/lastmile_qr_scan", "ios": "https://dc.lft.to/lastmile_qr_scan"}, "fusion_lon": 0.0, "lat": 38.928951, "bike_id": "3202b4039c0b8a7256a1473e0a23fd15", "type": "electric_bike", "is_reserved": 0, "lon": -77.2317625}, {"fusion_lat": 0.0, "name": "48e22a5d484e2e107bd1a2236497f546", "is_disabled": 0, "rental_uris": {"android": "https://dc.lft.to/lastmile_qr_scan", "ios": "https://dc.lft.to/lastmile_qr_scan"}, "fusion_lon": 0.0, "lat": 38.897499, "bike_id": "48e22a5d484e2e107bd1a2236497f546", "type": "electric_scooter", "is_reserved": 0, "lon": -77.04921333333333}, {"fusion_lat": 0.0, "name": "bf011bc8f18614f05b945004f01c3be1", "is_disabled": 0, "rental_uris": {"android": "https://dc.lft.to/lastmile_qr_scan", "ios": "https://dc.lft.to/lastmile_qr_scan"}, "fusion_lon": 0.0, "lat": 38.913425833333335, "bike_id": "bf011bc8f18614f05b945004f01c3be1", "type": "electric_scooter", "is_reserved": 0, "lon": -77.04273016666667}, {"fusion_lat": 0.0, "name": "842701ab8458d0dd7c0d7568a3c0902b", "is_disabled": 0, "rental_uris": {"android": "https://dc.lft.to/lastmile_qr_scan", "ios": "https://dc.lft.to/lastmile_qr_scan"}, "fusion_lon": 0.0, "lat": 38.892299, "bike_id": "842701ab8458d0dd7c0d7568a3c0902b", "type": "electric_scooter", "is_reserved": 0, "lon": -77.02110633333334}, {"fusion_lat": 0.0, "name": "521e91b38bf6e1127269eb49d6d97a64", "is_disabled": 0, "rental_uris": {"android": "https://dc.lft.to/lastmile_qr_scan", "ios": "https://dc.lft.to/lastmile_qr_scan"}, "fusion_lon": 0.0, "lat": 38.9128035, "bike_id": "521e91b38bf6e1127269eb49d6d97a64", "type": "electric_scooter", "is_reserved": 0, "lon": -77.022941}, {"fusion_lat": 0.0, "name": "74493bbac3d7201e59d5ececfecdb7fb", "is_disabled": 0, "rental_uris": {"android": "https://dc.lft.to/lastmile_qr_scan", "ios": "https://dc.lft.to/lastmile_qr_scan"}, "fusion_lon": 0.0, "lat": 38.897945166666666, "bike_id": "74493bbac3d7201e59d5ececfecdb7fb", "type": "electric_scooter", "is_reserved": 0, "lon": -77.01195616666666}, {"fusion_lat": 0.0, "name": "85292db3f59e65d63de9580fad13e46b", "is_disabled": 0, "rental_uris": {"android": "https://dc.lft.to/lastmile_qr_scan", "ios": "https://dc.lft.to/lastmile_qr_scan"}, "fusion_lon": 0.0, "lat": 38.903340166666666, "bike_id": "85292db3f59e65d63de9580fad13e46b", "type": "electric_scooter", "is_reserved": 0, "lon": -77.04460066666667}, {"fusion_lat": 0.0, "name": "70ad3511f01fcb5cdf124c2d226a606a", "is_disabled": 0, "rental_uris": {"android": "https://dc.lft.to/lastmile_qr_scan", "ios": "https://dc.lft.to/lastmile_qr_scan"}, "fusion_lon": 0.0, "lat": 38.860577166666666, "bike_id": "70ad3511f01fcb5cdf124c2d226a606a", "type": "electric_scooter", "is_reserved": 0, "lon": -76.97126}, {"fusion_lat": 0.0, "name": "bed8354c4ca20b4543eb172b550dd11c", "is_disabled": 0, "rental_uris": {"android": "https://dc.lft.to/lastmile_qr_scan", "ios": "https://dc.lft.to/lastmile_qr_scan"}, "fusion_lon": 0.0, "lat": 38.91417166666667, "bike_id": "bed8354c4ca20b4543eb172b550dd11c", "type": "electric_scooter", "is_reserved": 0, "lon": -77.022092}, {"fusion_lat": 0.0, "name": "9db619089059044173096919fd67e546", "is_disabled": 0, "rental_uris": {"android": "https://dc.lft.to/lastmile_qr_scan", "ios": "https://dc.lft.to/lastmile_qr_scan"}, "fusion_lon": 0.0, "lat": 38.899204, "bike_id": "9db619089059044173096919fd67e546", "type": "electric_scooter", "is_reserved": 0, "lon": -76.98531733333333}, {"fusion_lat": 0.0, "name": "798be6eb41ec0e6747ed8c4716ad3872", "is_disabled": 0, "rental_uris": {"android": "https://dc.lft.to/lastmile_qr_scan", "ios": "https://dc.lft.to/lastmile_qr_scan"}, "fusion_lon": 0.0, "lat": 38.90427866666667, "bike_id": "798be6eb41ec0e6747ed8c4716ad3872", "type": "electric_scooter", "is_reserved": 0, "lon": -76.94974616666667}, {"fusion_lat": 0.0, "name": "a32ca45c23f7abb566b335c183111898", "is_disabled": 0, "rental_uris": {"android": "https://dc.lft.to/lastmile_qr_scan", "ios": "https://dc.lft.to/lastmile_qr_scan"}, "fusion_lon": 0.0, "lat": 38.9239665, "bike_id": "a32ca45c23f7abb566b335c183111898", "type": "electric_scooter", "is_reserved": 0, "lon": -77.04294533333334}, {"fusion_lat": 0.0, "name": "14964d500bb249167f2cf9393ed78a87", "is_disabled": 0, "rental_uris": {"android": "https://dc.lft.to/lastmile_qr_scan", "ios": "https://dc.lft.to/lastmile_qr_scan"}, "fusion_lon": 0.0, "lat": 38.897118, "bike_id": "14964d500bb249167f2cf9393ed78a87", "type": "electric_scooter", "is_reserved": 0, "lon": -77.013218}, {"fusion_lat": 0.0, "name": "e8e5537a622bef5316994dc58d51fcd0", "is_disabled": 0, "rental_uris": {"android": "https://dc.lft.to/lastmile_qr_scan", "ios": "https://dc.lft.to/lastmile_qr_scan"}, "fusion_lon": 0.0, "lat": 38.885267999999996, "bike_id": "e8e5537a622bef5316994dc58d51fcd0", "type": "electric_scooter", "is_reserved": 0, "lon": -77.01507433333333}, {"fusion_lat": 0.0, "name": "3cb591c5d6358ef82da0847f7bc59b72", "is_disabled": 0, "rental_uris": {"android": "https://dc.lft.to/lastmile_qr_scan", "ios": "https://dc.lft.to/lastmile_qr_scan"}, "fusion_lon": 0.0, "lat": 38.9064625, "bike_id": "3cb591c5d6358ef82da0847f7bc59b72", "type": "electric_scooter", "is_reserved": 0, "lon": -77.01137733333333}, {"fusion_lat": 0.0, "name": "f9b08b1f0b0060788d25b024c1d8c6e4", "is_disabled": 0, "rental_uris": {"android": "https://dc.lft.to/lastmile_qr_scan", "ios": "https://dc.lft.to/lastmile_qr_scan"}, "fusion_lon": 0.0, "lat": 38.89220916666667, "bike_id": "f9b08b1f0b0060788d25b024c1d8c6e4", "type": "electric_scooter", "is_reserved": 0, "lon": -77.03217083333334}, {"fusion_lat": 0.0, "name": "56eec097e5a58fc936478062eceb62b8", "is_disabled": 0, "rental_uris": {"android": "https://dc.lft.to/lastmile_qr_scan", "ios": "https://dc.lft.to/lastmile_qr_scan"}, "fusion_lon": 0.0, "lat": 38.9229455, "bike_id": "56eec097e5a58fc936478062eceb62b8", "type": "electric_scooter", "is_reserved": 0, "lon": -77.02954416666667}, {"fusion_lat": 0.0, "name": "756e50e0c5c4538ae24e9cf966d4964f", "is_disabled": 0, "rental_uris": {"android": "https://dc.lft.to/lastmile_qr_scan", "ios": "https://dc.lft.to/lastmile_qr_scan"}, "fusion_lon": 0.0, "lat": 38.934611833333335, "bike_id": "756e50e0c5c4538ae24e9cf966d4964f", "type": "electric_scooter", "is_reserved": 0, "lon": -77.07261366666667}, {"fusion_lat": 0.0, "name": "8e322d72b2c33f132a5825c8b045e0f5", "is_disabled": 0, "rental_uris": {"android": "https://dc.lft.to/lastmile_qr_scan", "ios": "https://dc.lft.to/lastmile_qr_scan"}, "fusion_lon": 0.0, "lat": 38.91616366666667, "bike_id": "8e322d72b2c33f132a5825c8b045e0f5", "type": "electric_scooter", "is_reserved": 0, "lon": -77.02947433333334}, {"fusion_lat": 0.0, "name": "2bf56be76868afcd20a5c6f3a13b60f8", "is_disabled": 0, "rental_uris": {"android": "https://dc.lft.to/lastmile_qr_scan", "ios": "https://dc.lft.to/lastmile_qr_scan"}, "fusion_lon": 0.0, "lat": 38.92860616666667, "bike_id": "2bf56be76868afcd20a5c6f3a13b60f8", "type": "electric_scooter", "is_reserved": 0, "lon": -77.03521066666667}, {"fusion_lat": 0.0, "name": "2cc2b3f1de3644df15824282076de71f", "is_disabled": 0, "rental_uris": {"android": "https://dc.lft.to/lastmile_qr_scan", "ios": "https://dc.lft.to/lastmile_qr_scan"}, "fusion_lon": 0.0, "lat": 38.89989083333333, "bike_id": "2cc2b3f1de3644df15824282076de71f", "type": "electric_scooter", "is_reserved": 0, "lon": -77.006315}, {"fusion_lat": 0.0, "name": "9c785a09f610d5bb01d0a35374bcf8d9", "is_disabled": 0, "rental_uris": {"android": "https://dc.lft.to/lastmile_qr_scan", "ios": "https://dc.lft.to/lastmile_qr_scan"}, "fusion_lon": 0.0, "lat": 38.907082833333334, "bike_id": "9c785a09f610d5bb01d0a35374bcf8d9", "type": "electric_scooter", "is_reserved": 0, "lon": -77.023771}, {"fusion_lat": 0.0, "name": "435268eccaf442e8aadff692fcc11631", "is_disabled": 0, "rental_uris": {"android": "https://dc.lft.to/lastmile_qr_scan", "ios": "https://dc.lft.to/lastmile_qr_scan"}, "fusion_lon": 0.0, "lat": 38.9877025, "bike_id": "435268eccaf442e8aadff692fcc11631", "type": "electric_bike", "is_reserved": 0, "lon": -77.14052183333334}, {"fusion_lat": 0.0, "name": "29df3405dfe8c0650ec582791364e8a9", "is_disabled": 0, "rental_uris": {"android": "https://dc.lft.to/lastmile_qr_scan", "ios": "https://dc.lft.to/lastmile_qr_scan"}, "fusion_lon": 0.0, "lat": 38.9170955, "bike_id": "29df3405dfe8c0650ec582791364e8a9", "type": "electric_scooter", "is_reserved": 0, "lon": -77.03583866666666}, {"fusion_lat": 0.0, "name": "70020e5748829337d229da4e7d1c8c78", "is_disabled": 0, "rental_uris": {"android": "https://dc.lft.to/lastmile_qr_scan", "ios": "https://dc.lft.to/lastmile_qr_scan"}, "fusion_lon": 0.0, "lat": 38.89734033333333, "bike_id": "70020e5748829337d229da4e7d1c8c78", "type": "electric_scooter", "is_reserved": 0, "lon": -77.04404983333333}, {"fusion_lat": 0.0, "name": "5510cb7ac61ad6f9432e2700015430da", "is_disabled": 0, "rental_uris": {"android": "https://dc.lft.to/lastmile_qr_scan", "ios": "https://dc.lft.to/lastmile_qr_scan"}, "fusion_lon": 0.0, "lat": 38.904119, "bike_id": "5510cb7ac61ad6f9432e2700015430da", "type": "electric_scooter", "is_reserved": 0, "lon": -76.973283}, {"fusion_lat": 0.0, "name": "005ec61dd7037e8962c3c04fb6ed3ae3", "is_disabled": 0, "rental_uris": {"android": "https://dc.lft.to/lastmile_qr_scan", "ios": "https://dc.lft.to/lastmile_qr_scan"}, "fusion_lon": 0.0, "lat": 38.910459, "bike_id": "005ec61dd7037e8962c3c04fb6ed3ae3", "type": "electric_scooter", "is_reserved": 0, "lon": -77.06420516666667}, {"fusion_lat": 0.0, "name": "e548a63e4278c12f54c9005ce52ab0c4", "is_disabled": 0, "rental_uris": {"android": "https://dc.lft.to/lastmile_qr_scan", "ios": "https://dc.lft.to/lastmile_qr_scan"}, "fusion_lon": 0.0, "lat": 38.87241133333333, "bike_id": "e548a63e4278c12f54c9005ce52ab0c4", "type": "electric_scooter", "is_reserved": 0, "lon": -76.9771855}, {"fusion_lat": 0.0, "name": "94da2b57bd76fc8c007c11cdc6947206", "is_disabled": 0, "rental_uris": {"android": "https://dc.lft.to/lastmile_qr_scan", "ios": "https://dc.lft.to/lastmile_qr_scan"}, "fusion_lon": 0.0, "lat": 38.914138666666666, "bike_id": "94da2b57bd76fc8c007c11cdc6947206", "type": "electric_scooter", "is_reserved": 0, "lon": -77.022126}, {"fusion_lat": 0.0, "name": "ebd0122fac497718792ed5e34768bcf6", "is_disabled": 0, "rental_uris": {"android": "https://dc.lft.to/lastmile_qr_scan", "ios": "https://dc.lft.to/lastmile_qr_scan"}, "fusion_lon": 0.0, "lat": 38.95603416666667, "bike_id": "ebd0122fac497718792ed5e34768bcf6", "type": "electric_bike", "is_reserved": 0, "lon": -77.01009733333333}, {"fusion_lat": 0.0, "name": "4472c8b5e4cb624d78859714c002bbfb", "is_disabled": 0, "rental_uris": {"android": "https://dc.lft.to/lastmile_qr_scan", "ios": "https://dc.lft.to/lastmile_qr_scan"}, "fusion_lon": 0.0, "lat": 38.892017833333334, "bike_id": "4472c8b5e4cb624d78859714c002bbfb", "type": "electric_scooter", "is_reserved": 0, "lon": -77.01651716666667}, {"fusion_lat": 0.0, "name": "cb3d36800e99924305dc44d1d4fee4f9", "is_disabled": 0, "rental_uris": {"android": "https://dc.lft.to/lastmile_qr_scan", "ios": "https://dc.lft.to/lastmile_qr_scan"}, "fusion_lon": 0.0, "lat": 38.90568283333333, "bike_id": "cb3d36800e99924305dc44d1d4fee4f9", "type": "electric_scooter", "is_reserved": 0, "lon": -77.0343765}, {"fusion_lat": 0.0, "name": "f66eb63411491fd5aaeb494bba726230", "is_disabled": 0, "rental_uris": {"android": "https://dc.lft.to/lastmile_qr_scan", "ios": "https://dc.lft.to/lastmile_qr_scan"}, "fusion_lon": 0.0, "lat": 38.867615, "bike_id": "f66eb63411491fd5aaeb494bba726230", "type": "electric_scooter", "is_reserved": 0, "lon": -76.98271616666666}, {"fusion_lat": 0.0, "name": "fa468e41eec485e1b65b2323ebea8b95", "is_disabled": 0, "rental_uris": {"android": "https://dc.lft.to/lastmile_qr_scan", "ios": "https://dc.lft.to/lastmile_qr_scan"}, "fusion_lon": 0.0, "lat": 38.905133666666664, "bike_id": "fa468e41eec485e1b65b2323ebea8b95", "type": "electric_scooter", "is_reserved": 0, "lon": -77.0293885}, {"fusion_lat": 0.0, "name": "db29b5af4bbf3568fa29d97cd3054109", "is_disabled": 0, "rental_uris": {"android": "https://dc.lft.to/lastmile_qr_scan", "ios": "https://dc.lft.to/lastmile_qr_scan"}, "fusion_lon": 0.0, "lat": 38.91628716666666, "bike_id": "db29b5af4bbf3568fa29d97cd3054109", "type": "electric_scooter", "is_reserved": 0, "lon": -77.045513}, {"fusion_lat": 0.0, "name": "a1789751eeed6bc8a2290c6f7a83c5f2", "is_disabled": 0, "rental_uris": {"android": "https://dc.lft.to/lastmile_qr_scan", "ios": "https://dc.lft.to/lastmile_qr_scan"}, "fusion_lon": 0.0, "lat": 38.9127705, "bike_id": "a1789751eeed6bc8a2290c6f7a83c5f2", "type": "electric_scooter", "is_reserved": 0, "lon": -77.03866666666667}, {"fusion_lat": 0.0, "name": "93c8def8bd15edfd684541da42b316dc", "is_disabled": 0, "rental_uris": {"android": "https://dc.lft.to/lastmile_qr_scan", "ios": "https://dc.lft.to/lastmile_qr_scan"}, "fusion_lon": 0.0, "lat": 38.9280215, "bike_id": "93c8def8bd15edfd684541da42b316dc", "type": "electric_scooter", "is_reserved": 0, "lon": -77.0238985}, {"fusion_lat": 0.0, "name": "8a6416b81b122ed3e7bf4f09ec904f01", "is_disabled": 0, "rental_uris": {"android": "https://dc.lft.to/lastmile_qr_scan", "ios": "https://dc.lft.to/lastmile_qr_scan"}, "fusion_lon": 0.0, "lat": 38.88901833333333, "bike_id": "8a6416b81b122ed3e7bf4f09ec904f01", "type": "electric_scooter", "is_reserved": 0, "lon": -76.97732266666667}, {"fusion_lat": 0.0, "name": "758252d5272289228a630f9fbe737e6c", "is_disabled": 0, "rental_uris": {"android": "https://dc.lft.to/lastmile_qr_scan", "ios": "https://dc.lft.to/lastmile_qr_scan"}, "fusion_lon": 0.0, "lat": 38.873804666666665, "bike_id": "758252d5272289228a630f9fbe737e6c", "type": "electric_scooter", "is_reserved": 0, "lon": -77.00049316666667}, {"fusion_lat": 0.0, "name": "f27693c9ac839e6f6cf3f466a9475366", "is_disabled": 0, "rental_uris": {"android": "https://dc.lft.to/lastmile_qr_scan", "ios": "https://dc.lft.to/lastmile_qr_scan"}, "fusion_lon": 0.0, "lat": 38.91770566666667, "bike_id": "f27693c9ac839e6f6cf3f466a9475366", "type": "electric_scooter", "is_reserved": 0, "lon": -77.01495833333334}, {"fusion_lat": 0.0, "name": "97d41e50b8cc9790b6ff67c3fb0762a4", "is_disabled": 0, "rental_uris": {"android": "https://dc.lft.to/lastmile_qr_scan", "ios": "https://dc.lft.to/lastmile_qr_scan"}, "fusion_lon": 0.0, "lat": 38.902653666666666, "bike_id": "97d41e50b8cc9790b6ff67c3fb0762a4", "type": "electric_scooter", "is_reserved": 0, "lon": -77.01786683333333}, {"fusion_lat": 0.0, "name": "ecd585af3bff4a6e43853de33a397f6b", "is_disabled": 0, "rental_uris": {"android": "https://dc.lft.to/lastmile_qr_scan", "ios": "https://dc.lft.to/lastmile_qr_scan"}, "fusion_lon": 0.0, "lat": 38.944098333333336, "bike_id": "ecd585af3bff4a6e43853de33a397f6b", "type": "electric_scooter", "is_reserved": 0, "lon": -77.032053}, {"fusion_lat": 0.0, "name": "1485a1eb1c51f7800cd16f4c5f82a8f4", "is_disabled": 0, "rental_uris": {"android": "https://dc.lft.to/lastmile_qr_scan", "ios": "https://dc.lft.to/lastmile_qr_scan"}, "fusion_lon": 0.0, "lat": 38.929706, "bike_id": "1485a1eb1c51f7800cd16f4c5f82a8f4", "type": "electric_scooter", "is_reserved": 0, "lon": -77.0309985}, {"fusion_lat": 0.0, "name": "587154fbeac0485e6d2da0f0fa04a9f4", "is_disabled": 0, "rental_uris": {"android": "https://dc.lft.to/lastmile_qr_scan", "ios": "https://dc.lft.to/lastmile_qr_scan"}, "fusion_lon": 0.0, "lat": 38.9206535, "bike_id": "587154fbeac0485e6d2da0f0fa04a9f4", "type": "electric_scooter", "is_reserved": 0, "lon": -77.02384566666667}, {"fusion_lat": 0.0, "name": "8fa7d1110e0777bb2b34c2c23e47eb70", "is_disabled": 0, "rental_uris": {"android": "https://dc.lft.to/lastmile_qr_scan", "ios": "https://dc.lft.to/lastmile_qr_scan"}, "fusion_lon": 0.0, "lat": 38.89828216666667, "bike_id": "8fa7d1110e0777bb2b34c2c23e47eb70", "type": "electric_scooter", "is_reserved": 0, "lon": -76.94652116666667}, {"fusion_lat": 0.0, "name": "38a0ec48560d9411ca40faa6df3146f9", "is_disabled": 0, "rental_uris": {"android": "https://dc.lft.to/lastmile_qr_scan", "ios": "https://dc.lft.to/lastmile_qr_scan"}, "fusion_lon": 0.0, "lat": 38.90693233333333, "bike_id": "38a0ec48560d9411ca40faa6df3146f9", "type": "electric_scooter", "is_reserved": 0, "lon": -77.0472945}, {"fusion_lat": 0.0, "name": "7fcc216a772fdd21958c44bc1cf4b35a", "is_disabled": 0, "rental_uris": {"android": "https://dc.lft.to/lastmile_qr_scan", "ios": "https://dc.lft.to/lastmile_qr_scan"}, "fusion_lon": 0.0, "lat": 38.87900366666667, "bike_id": "7fcc216a772fdd21958c44bc1cf4b35a", "type": "electric_scooter", "is_reserved": 0, "lon": -77.01358633333334}, {"fusion_lat": 0.0, "name": "d506a9df9cf5ef4204f44c540b99b46b", "is_disabled": 0, "rental_uris": {"android": "https://dc.lft.to/lastmile_qr_scan", "ios": "https://dc.lft.to/lastmile_qr_scan"}, "fusion_lon": 0.0, "lat": 38.90493033333333, "bike_id": "d506a9df9cf5ef4204f44c540b99b46b", "type": "electric_scooter", "is_reserved": 0, "lon": -77.01023416666666}, {"fusion_lat": 0.0, "name": "2de1ecd257fee8a63fccebf53727aea0", "is_disabled": 0, "rental_uris": {"android": "https://dc.lft.to/lastmile_qr_scan", "ios": "https://dc.lft.to/lastmile_qr_scan"}, "fusion_lon": 0.0, "lat": 38.91695566666667, "bike_id": "2de1ecd257fee8a63fccebf53727aea0", "type": "electric_scooter", "is_reserved": 0, "lon": -77.04212316666667}, {"fusion_lat": 0.0, "name": "e65bb232365bb350be0121d28ba67e04", "is_disabled": 0, "rental_uris": {"android": "https://dc.lft.to/lastmile_qr_scan", "ios": "https://dc.lft.to/lastmile_qr_scan"}, "fusion_lon": 0.0, "lat": 38.887662, "bike_id": "e65bb232365bb350be0121d28ba67e04", "type": "electric_scooter", "is_reserved": 0, "lon": -76.97753933333334}, {"fusion_lat": 0.0, "name": "63200fd19d7e0cca205fc2e04e223ff3", "is_disabled": 0, "rental_uris": {"android": "https://dc.lft.to/lastmile_qr_scan", "ios": "https://dc.lft.to/lastmile_qr_scan"}, "fusion_lon": 0.0, "lat": 38.916131166666666, "bike_id": "63200fd19d7e0cca205fc2e04e223ff3", "type": "electric_scooter", "is_reserved": 0, "lon": -77.02132616666667}, {"fusion_lat": 0.0, "name": "b1687ba14ff73b3444ef8c23b45d7444", "is_disabled": 0, "rental_uris": {"android": "https://dc.lft.to/lastmile_qr_scan", "ios": "https://dc.lft.to/lastmile_qr_scan"}, "fusion_lon": 0.0, "lat": 38.909472666666666, "bike_id": "b1687ba14ff73b3444ef8c23b45d7444", "type": "electric_scooter", "is_reserved": 0, "lon": -76.98534166666667}, {"fusion_lat": 0.0, "name": "5aaee297147ede99d3c81dcc04f1b097", "is_disabled": 0, "rental_uris": {"android": "https://dc.lft.to/lastmile_qr_scan", "ios": "https://dc.lft.to/lastmile_qr_scan"}, "fusion_lon": 0.0, "lat": 38.9001015, "bike_id": "5aaee297147ede99d3c81dcc04f1b097", "type": "electric_scooter", "is_reserved": 0, "lon": -77.00668566666667}, {"fusion_lat": 0.0, "name": "e408e26f4827c53e05b96afe5d64fb7d", "is_disabled": 0, "rental_uris": {"android": "https://dc.lft.to/lastmile_qr_scan", "ios": "https://dc.lft.to/lastmile_qr_scan"}, "fusion_lon": 0.0, "lat": 38.92135416666667, "bike_id": "e408e26f4827c53e05b96afe5d64fb7d", "type": "electric_bike", "is_reserved": 0, "lon": -77.0107495}, {"fusion_lat": 0.0, "name": "14b0f571e7d14176c8ed68a7dc8de814", "is_disabled": 0, "rental_uris": {"android": "https://dc.lft.to/lastmile_qr_scan", "ios": "https://dc.lft.to/lastmile_qr_scan"}, "fusion_lon": 0.0, "lat": 38.897394166666665, "bike_id": "14b0f571e7d14176c8ed68a7dc8de814", "type": "electric_scooter", "is_reserved": 0, "lon": -77.04615883333334}, {"fusion_lat": 0.0, "name": "475c64326e417a03fe02f991d8a9b5fa", "is_disabled": 0, "rental_uris": {"android": "https://dc.lft.to/lastmile_qr_scan", "ios": "https://dc.lft.to/lastmile_qr_scan"}, "fusion_lon": 0.0, "lat": 38.9135895, "bike_id": "475c64326e417a03fe02f991d8a9b5fa", "type": "electric_scooter", "is_reserved": 0, "lon": -77.0456235}, {"fusion_lat": 0.0, "name": "3d580c96530e3efffcb1de675ff2f711", "is_disabled": 0, "rental_uris": {"android": "https://dc.lft.to/lastmile_qr_scan", "ios": "https://dc.lft.to/lastmile_qr_scan"}, "fusion_lon": 0.0, "lat": 38.91183216666667, "bike_id": "3d580c96530e3efffcb1de675ff2f711", "type": "electric_scooter", "is_reserved": 0, "lon": -77.0424755}, {"fusion_lat": 0.0, "name": "e5937bd79c61d84b72694f1932effcda", "is_disabled": 0, "rental_uris": {"android": "https://dc.lft.to/lastmile_qr_scan", "ios": "https://dc.lft.to/lastmile_qr_scan"}, "fusion_lon": 0.0, "lat": 38.89360666666666, "bike_id": "e5937bd79c61d84b72694f1932effcda", "type": "electric_scooter", "is_reserved": 0, "lon": -76.92588833333333}, {"fusion_lat": 0.0, "name": "1520267c77a1290adb351e679fd3e883", "is_disabled": 0, "rental_uris": {"android": "https://dc.lft.to/lastmile_qr_scan", "ios": "https://dc.lft.to/lastmile_qr_scan"}, "fusion_lon": 0.0, "lat": 38.82457483333334, "bike_id": "1520267c77a1290adb351e679fd3e883", "type": "electric_bike", "is_reserved": 0, "lon": -77.00793116666667}, {"fusion_lat": 0.0, "name": "29f95ec630c64821f004a76b29d95633", "is_disabled": 0, "rental_uris": {"android": "https://dc.lft.to/lastmile_qr_scan", "ios": "https://dc.lft.to/lastmile_qr_scan"}, "fusion_lon": 0.0, "lat": 38.876753666666666, "bike_id": "29f95ec630c64821f004a76b29d95633", "type": "electric_scooter", "is_reserved": 0, "lon": -77.00729683333333}, {"fusion_lat": 0.0, "name": "6fa789ce0c9f058f0eaf373a12809ccb", "is_disabled": 0, "rental_uris": {"android": "https://dc.lft.to/lastmile_qr_scan", "ios": "https://dc.lft.to/lastmile_qr_scan"}, "fusion_lon": 0.0, "lat": 38.908566666666665, "bike_id": "6fa789ce0c9f058f0eaf373a12809ccb", "type": "electric_scooter", "is_reserved": 0, "lon": -77.08590866666667}, {"fusion_lat": 0.0, "name": "6661f2b8212ff5747ba4de27aa178719", "is_disabled": 0, "rental_uris": {"android": "https://dc.lft.to/lastmile_qr_scan", "ios": "https://dc.lft.to/lastmile_qr_scan"}, "fusion_lon": 0.0, "lat": 38.912971, "bike_id": "6661f2b8212ff5747ba4de27aa178719", "type": "electric_scooter", "is_reserved": 0, "lon": -76.98464533333333}, {"fusion_lat": 0.0, "name": "01df6c23457e8a969f250c9b5e5306f1", "is_disabled": 0, "rental_uris": {"android": "https://dc.lft.to/lastmile_qr_scan", "ios": "https://dc.lft.to/lastmile_qr_scan"}, "fusion_lon": 0.0, "lat": 38.925504833333335, "bike_id": "01df6c23457e8a969f250c9b5e5306f1", "type": "electric_scooter", "is_reserved": 0, "lon": -77.03474766666666}, {"fusion_lat": 0.0, "name": "1392400ee0e2084a339e6364ac6df8ac", "is_disabled": 0, "rental_uris": {"android": "https://dc.lft.to/lastmile_qr_scan", "ios": "https://dc.lft.to/lastmile_qr_scan"}, "fusion_lon": 0.0, "lat": 38.896131, "bike_id": "1392400ee0e2084a339e6364ac6df8ac", "type": "electric_scooter", "is_reserved": 0, "lon": -76.94813583333334}, {"fusion_lat": 0.0, "name": "87d9dc938125ee90a0cd391b2c1ce631", "is_disabled": 0, "rental_uris": {"android": "https://dc.lft.to/lastmile_qr_scan", "ios": "https://dc.lft.to/lastmile_qr_scan"}, "fusion_lon": 0.0, "lat": 38.858717666666664, "bike_id": "87d9dc938125ee90a0cd391b2c1ce631", "type": "electric_bike", "is_reserved": 0, "lon": -77.09555866666666}, {"fusion_lat": 0.0, "name": "75ceea411027c2a62d00904a772184d5", "is_disabled": 0, "rental_uris": {"android": "https://dc.lft.to/lastmile_qr_scan", "ios": "https://dc.lft.to/lastmile_qr_scan"}, "fusion_lon": 0.0, "lat": 38.89757766666666, "bike_id": "75ceea411027c2a62d00904a772184d5", "type": "electric_scooter", "is_reserved": 0, "lon": -77.033435}, {"fusion_lat": 0.0, "name": "9c11caa8a0f318844245b1bf14e1ad4b", "is_disabled": 0, "rental_uris": {"android": "https://dc.lft.to/lastmile_qr_scan", "ios": "https://dc.lft.to/lastmile_qr_scan"}, "fusion_lon": 0.0, "lat": 38.96164916666667, "bike_id": "9c11caa8a0f318844245b1bf14e1ad4b", "type": "electric_scooter", "is_reserved": 0, "lon": -77.07329966666667}, {"fusion_lat": 0.0, "name": "e01b4d6ed796f758949f1df0c8521e93", "is_disabled": 0, "rental_uris": {"android": "https://dc.lft.to/lastmile_qr_scan", "ios": "https://dc.lft.to/lastmile_qr_scan"}, "fusion_lon": 0.0, "lat": 38.923149, "bike_id": "e01b4d6ed796f758949f1df0c8521e93", "type": "electric_scooter", "is_reserved": 0, "lon": -77.0410695}, {"fusion_lat": 0.0, "name": "9ad1f93e12f90ae5ad9c99cec4c51c48", "is_disabled": 0, "rental_uris": {"android": "https://dc.lft.to/lastmile_qr_scan", "ios": "https://dc.lft.to/lastmile_qr_scan"}, "fusion_lon": 0.0, "lat": 38.92390616666667, "bike_id": "9ad1f93e12f90ae5ad9c99cec4c51c48", "type": "electric_scooter", "is_reserved": 0, "lon": -77.03662033333333}, {"fusion_lat": 0.0, "name": "efa4e854c3f521072bc38518dbb00def", "is_disabled": 0, "rental_uris": {"android": "https://dc.lft.to/lastmile_qr_scan", "ios": "https://dc.lft.to/lastmile_qr_scan"}, "fusion_lon": 0.0, "lat": 38.9042205, "bike_id": "efa4e854c3f521072bc38518dbb00def", "type": "electric_scooter", "is_reserved": 0, "lon": -77.00127533333334}, {"fusion_lat": 0.0, "name": "8210f37bf5573b8e908ca87b81a1499b", "is_disabled": 0, "rental_uris": {"android": "https://dc.lft.to/lastmile_qr_scan", "ios": "https://dc.lft.to/lastmile_qr_scan"}, "fusion_lon": 0.0, "lat": 38.927072, "bike_id": "8210f37bf5573b8e908ca87b81a1499b", "type": "electric_scooter", "is_reserved": 0, "lon": -77.02318983333333}, {"fusion_lat": 0.0, "name": "c1c78686aeb92cc73a672093c8dbdf27", "is_disabled": 0, "rental_uris": {"android": "https://dc.lft.to/lastmile_qr_scan", "ios": "https://dc.lft.to/lastmile_qr_scan"}, "fusion_lon": 0.0, "lat": 38.92496633333333, "bike_id": "c1c78686aeb92cc73a672093c8dbdf27", "type": "electric_scooter", "is_reserved": 0, "lon": -77.02168}, {"fusion_lat": 0.0, "name": "7115e08699947884e3eafe63895a0f00", "is_disabled": 0, "rental_uris": {"android": "https://dc.lft.to/lastmile_qr_scan", "ios": "https://dc.lft.to/lastmile_qr_scan"}, "fusion_lon": 0.0, "lat": 38.900723166666666, "bike_id": "7115e08699947884e3eafe63895a0f00", "type": "electric_scooter", "is_reserved": 0, "lon": -77.05014583333333}, {"fusion_lat": 0.0, "name": "b2ffc8b4bb2e9708677ccd67c73beb8d", "is_disabled": 0, "rental_uris": {"android": "https://dc.lft.to/lastmile_qr_scan", "ios": "https://dc.lft.to/lastmile_qr_scan"}, "fusion_lon": 0.0, "lat": 38.93281, "bike_id": "b2ffc8b4bb2e9708677ccd67c73beb8d", "type": "electric_scooter", "is_reserved": 0, "lon": -77.027432}, {"fusion_lat": 0.0, "name": "cee396d6b0fcaf132be8f34486323d66", "is_disabled": 0, "rental_uris": {"android": "https://dc.lft.to/lastmile_qr_scan", "ios": "https://dc.lft.to/lastmile_qr_scan"}, "fusion_lon": 0.0, "lat": 38.9563345, "bike_id": "cee396d6b0fcaf132be8f34486323d66", "type": "electric_scooter", "is_reserved": 0, "lon": -77.03301816666666}, {"fusion_lat": 0.0, "name": "937dd057a2f90b200ffa86ff1b600003", "is_disabled": 0, "rental_uris": {"android": "https://dc.lft.to/lastmile_qr_scan", "ios": "https://dc.lft.to/lastmile_qr_scan"}, "fusion_lon": 0.0, "lat": 38.9413645, "bike_id": "937dd057a2f90b200ffa86ff1b600003", "type": "electric_scooter", "is_reserved": 0, "lon": -77.01541}, {"fusion_lat": 0.0, "name": "c3b0f3934262b3477f25938631324d2d", "is_disabled": 0, "rental_uris": {"android": "https://dc.lft.to/lastmile_qr_scan", "ios": "https://dc.lft.to/lastmile_qr_scan"}, "fusion_lon": 0.0, "lat": 38.910205, "bike_id": "c3b0f3934262b3477f25938631324d2d", "type": "electric_scooter", "is_reserved": 0, "lon": -77.03859966666667}, {"fusion_lat": 0.0, "name": "51b5b5b6bb0a8d718099f95aaa804cb3", "is_disabled": 0, "rental_uris": {"android": "https://dc.lft.to/lastmile_qr_scan", "ios": "https://dc.lft.to/lastmile_qr_scan"}, "fusion_lon": 0.0, "lat": 38.95018683333333, "bike_id": "51b5b5b6bb0a8d718099f95aaa804cb3", "type": "electric_scooter", "is_reserved": 0, "lon": -77.03346616666667}, {"fusion_lat": 0.0, "name": "144274bb04582730f74b94ca33e5373b", "is_disabled": 0, "rental_uris": {"android": "https://dc.lft.to/lastmile_qr_scan", "ios": "https://dc.lft.to/lastmile_qr_scan"}, "fusion_lon": 0.0, "lat": 38.940866666666665, "bike_id": "144274bb04582730f74b94ca33e5373b", "type": "electric_scooter", "is_reserved": 0, "lon": -77.02321166666667}, {"fusion_lat": 0.0, "name": "871836bb10db470979584837ed587b69", "is_disabled": 0, "rental_uris": {"android": "https://dc.lft.to/lastmile_qr_scan", "ios": "https://dc.lft.to/lastmile_qr_scan"}, "fusion_lon": 0.0, "lat": 38.93907183333334, "bike_id": "871836bb10db470979584837ed587b69", "type": "electric_scooter", "is_reserved": 0, "lon": -77.03316683333334}, {"fusion_lat": 0.0, "name": "750188c7cf6f66808eb8eed19889f601", "is_disabled": 0, "rental_uris": {"android": "https://dc.lft.to/lastmile_qr_scan", "ios": "https://dc.lft.to/lastmile_qr_scan"}, "fusion_lon": 0.0, "lat": 38.88295466666667, "bike_id": "750188c7cf6f66808eb8eed19889f601", "type": "electric_bike", "is_reserved": 0, "lon": -77.03020383333333}, {"fusion_lat": 0.0, "name": "43f44f65df851bfdb49909201d30ab97", "is_disabled": 0, "rental_uris": {"android": "https://dc.lft.to/lastmile_qr_scan", "ios": "https://dc.lft.to/lastmile_qr_scan"}, "fusion_lon": 0.0, "lat": 38.900848833333335, "bike_id": "43f44f65df851bfdb49909201d30ab97", "type": "electric_scooter", "is_reserved": 0, "lon": -76.98336016666667}, {"fusion_lat": 0.0, "name": "dd80dc00dea059d26c79b8e1b02b7b58", "is_disabled": 0, "rental_uris": {"android": "https://dc.lft.to/lastmile_qr_scan", "ios": "https://dc.lft.to/lastmile_qr_scan"}, "fusion_lon": 0.0, "lat": 38.95231833333333, "bike_id": "dd80dc00dea059d26c79b8e1b02b7b58", "type": "electric_scooter", "is_reserved": 0, "lon": -76.99002366666667}, {"fusion_lat": 0.0, "name": "d168bb541152dd6daf63b822b47a9a4d", "is_disabled": 0, "rental_uris": {"android": "https://dc.lft.to/lastmile_qr_scan", "ios": "https://dc.lft.to/lastmile_qr_scan"}, "fusion_lon": 0.0, "lat": 38.95633216666667, "bike_id": "d168bb541152dd6daf63b822b47a9a4d", "type": "electric_scooter", "is_reserved": 0, "lon": -77.02314016666666}, {"fusion_lat": 0.0, "name": "12f4c3af91f7c0ce7bce7b9f6199cbe5", "is_disabled": 0, "rental_uris": {"android": "https://dc.lft.to/lastmile_qr_scan", "ios": "https://dc.lft.to/lastmile_qr_scan"}, "fusion_lon": 0.0, "lat": 38.89233, "bike_id": "12f4c3af91f7c0ce7bce7b9f6199cbe5", "type": "electric_scooter", "is_reserved": 0, "lon": -77.0317075}, {"fusion_lat": 0.0, "name": "9a705dde7f882c497f05917dbe61c33b", "is_disabled": 0, "rental_uris": {"android": "https://dc.lft.to/lastmile_qr_scan", "ios": "https://dc.lft.to/lastmile_qr_scan"}, "fusion_lon": 0.0, "lat": 38.909819, "bike_id": "9a705dde7f882c497f05917dbe61c33b", "type": "electric_scooter", "is_reserved": 0, "lon": -77.02176933333334}, {"fusion_lat": 0.0, "name": "e85b1e366788f1ff10f388ecd74af704", "is_disabled": 0, "rental_uris": {"android": "https://dc.lft.to/lastmile_qr_scan", "ios": "https://dc.lft.to/lastmile_qr_scan"}, "fusion_lon": 0.0, "lat": 38.887737, "bike_id": "e85b1e366788f1ff10f388ecd74af704", "type": "electric_scooter", "is_reserved": 0, "lon": -77.002586}, {"fusion_lat": 0.0, "name": "f0348559ce3345fc25631d3f73416c24", "is_disabled": 0, "rental_uris": {"android": "https://dc.lft.to/lastmile_qr_scan", "ios": "https://dc.lft.to/lastmile_qr_scan"}, "fusion_lon": 0.0, "lat": 38.906734666666665, "bike_id": "f0348559ce3345fc25631d3f73416c24", "type": "electric_scooter", "is_reserved": 0, "lon": -77.02710466666667}, {"fusion_lat": 0.0, "name": "f3317dd187f87db54b8ddf1348584088", "is_disabled": 0, "rental_uris": {"android": "https://dc.lft.to/lastmile_qr_scan", "ios": "https://dc.lft.to/lastmile_qr_scan"}, "fusion_lon": 0.0, "lat": 38.93079266666667, "bike_id": "f3317dd187f87db54b8ddf1348584088", "type": "electric_scooter", "is_reserved": 0, "lon": -77.077598}, {"fusion_lat": 0.0, "name": "e6b927e5cd93dce2a2660a3a81066290", "is_disabled": 0, "rental_uris": {"android": "https://dc.lft.to/lastmile_qr_scan", "ios": "https://dc.lft.to/lastmile_qr_scan"}, "fusion_lon": 0.0, "lat": 38.90413783333333, "bike_id": "e6b927e5cd93dce2a2660a3a81066290", "type": "electric_scooter", "is_reserved": 0, "lon": -76.97333633333334}, {"fusion_lat": 0.0, "name": "b0c2fdb422b3d686d5d9f89a89af85ee", "is_disabled": 0, "rental_uris": {"android": "https://dc.lft.to/lastmile_qr_scan", "ios": "https://dc.lft.to/lastmile_qr_scan"}, "fusion_lon": 0.0, "lat": 38.90147316666667, "bike_id": "b0c2fdb422b3d686d5d9f89a89af85ee", "type": "electric_scooter", "is_reserved": 0, "lon": -77.03333583333334}, {"fusion_lat": 0.0, "name": "a0796ce57b27fd8703175b9812dfee3a", "is_disabled": 0, "rental_uris": {"android": "https://dc.lft.to/lastmile_qr_scan", "ios": "https://dc.lft.to/lastmile_qr_scan"}, "fusion_lon": 0.0, "lat": 38.880658, "bike_id": "a0796ce57b27fd8703175b9812dfee3a", "type": "electric_scooter", "is_reserved": 0, "lon": -77.02548983333334}, {"fusion_lat": 0.0, "name": "f1b92451bc4a07a379cbb6b95ea3923e", "is_disabled": 0, "rental_uris": {"android": "https://dc.lft.to/lastmile_qr_scan", "ios": "https://dc.lft.to/lastmile_qr_scan"}, "fusion_lon": 0.0, "lat": 38.902692333333334, "bike_id": "f1b92451bc4a07a379cbb6b95ea3923e", "type": "electric_scooter", "is_reserved": 0, "lon": -76.97452833333334}, {"fusion_lat": 0.0, "name": "17d60d340c0d6deffa47fc4c9a6fa9d4", "is_disabled": 0, "rental_uris": {"android": "https://dc.lft.to/lastmile_qr_scan", "ios": "https://dc.lft.to/lastmile_qr_scan"}, "fusion_lon": 0.0, "lat": 38.8601965, "bike_id": "17d60d340c0d6deffa47fc4c9a6fa9d4", "type": "electric_bike", "is_reserved": 0, "lon": -77.1280385}, {"fusion_lat": 0.0, "name": "7cab707c789846434985d4e20e7ef015", "is_disabled": 0, "rental_uris": {"android": "https://dc.lft.to/lastmile_qr_scan", "ios": "https://dc.lft.to/lastmile_qr_scan"}, "fusion_lon": 0.0, "lat": 38.879865, "bike_id": "7cab707c789846434985d4e20e7ef015", "type": "electric_scooter", "is_reserved": 0, "lon": -77.024105}, {"fusion_lat": 0.0, "name": "05df32b45272311e286ef07eb50af627", "is_disabled": 0, "rental_uris": {"android": "https://dc.lft.to/lastmile_qr_scan", "ios": "https://dc.lft.to/lastmile_qr_scan"}, "fusion_lon": 0.0, "lat": 38.92064966666667, "bike_id": "05df32b45272311e286ef07eb50af627", "type": "electric_scooter", "is_reserved": 0, "lon": -77.02377233333333}, {"fusion_lat": 0.0, "name": "dffd748bc2e67270baa4c93442c42a4c", "is_disabled": 0, "rental_uris": {"android": "https://dc.lft.to/lastmile_qr_scan", "ios": "https://dc.lft.to/lastmile_qr_scan"}, "fusion_lon": 0.0, "lat": 38.89094683333333, "bike_id": "dffd748bc2e67270baa4c93442c42a4c", "type": "electric_scooter", "is_reserved": 0, "lon": -76.91929866666666}, {"fusion_lat": 0.0, "name": "95d5f06d3d76f8bdb1ba4b6fbd792a98", "is_disabled": 0, "rental_uris": {"android": "https://dc.lft.to/lastmile_qr_scan", "ios": "https://dc.lft.to/lastmile_qr_scan"}, "fusion_lon": 0.0, "lat": 38.92476666666666, "bike_id": "95d5f06d3d76f8bdb1ba4b6fbd792a98", "type": "electric_scooter", "is_reserved": 0, "lon": -77.038483}, {"fusion_lat": 0.0, "name": "aa54740bbba3df629aceb24c91e9cdb6", "is_disabled": 0, "rental_uris": {"android": "https://dc.lft.to/lastmile_qr_scan", "ios": "https://dc.lft.to/lastmile_qr_scan"}, "fusion_lon": 0.0, "lat": 38.944313, "bike_id": "aa54740bbba3df629aceb24c91e9cdb6", "type": "electric_bike", "is_reserved": 0, "lon": -77.025983}, {"fusion_lat": 0.0, "name": "3eda4b8a1ce281adf2fb94133a7c18a2", "is_disabled": 0, "rental_uris": {"android": "https://dc.lft.to/lastmile_qr_scan", "ios": "https://dc.lft.to/lastmile_qr_scan"}, "fusion_lon": 0.0, "lat": 38.91709016666667, "bike_id": "3eda4b8a1ce281adf2fb94133a7c18a2", "type": "electric_scooter", "is_reserved": 0, "lon": -77.0415085}, {"fusion_lat": 0.0, "name": "c508ad2e7639e5f927a4777b308be207", "is_disabled": 0, "rental_uris": {"android": "https://dc.lft.to/lastmile_qr_scan", "ios": "https://dc.lft.to/lastmile_qr_scan"}, "fusion_lon": 0.0, "lat": 38.93249266666667, "bike_id": "c508ad2e7639e5f927a4777b308be207", "type": "electric_scooter", "is_reserved": 0, "lon": -77.03423316666667}, {"fusion_lat": 0.0, "name": "45a9514d29a80b3e6ccb1f1076196923", "is_disabled": 0, "rental_uris": {"android": "https://dc.lft.to/lastmile_qr_scan", "ios": "https://dc.lft.to/lastmile_qr_scan"}, "fusion_lon": 0.0, "lat": 38.798582, "bike_id": "45a9514d29a80b3e6ccb1f1076196923", "type": "electric_bike", "is_reserved": 0, "lon": -77.0630325}, {"fusion_lat": 0.0, "name": "6bcfeff952b301b2928550539ac88f56", "is_disabled": 0, "rental_uris": {"android": "https://dc.lft.to/lastmile_qr_scan", "ios": "https://dc.lft.to/lastmile_qr_scan"}, "fusion_lon": 0.0, "lat": 38.947527, "bike_id": "6bcfeff952b301b2928550539ac88f56", "type": "electric_scooter", "is_reserved": 0, "lon": -77.00718383333333}, {"fusion_lat": 0.0, "name": "4a294dd131b7d3756cf2ba4ef139cefd", "is_disabled": 0, "rental_uris": {"android": "https://dc.lft.to/lastmile_qr_scan", "ios": "https://dc.lft.to/lastmile_qr_scan"}, "fusion_lon": 0.0, "lat": 38.89855816666667, "bike_id": "4a294dd131b7d3756cf2ba4ef139cefd", "type": "electric_scooter", "is_reserved": 0, "lon": -76.97661066666667}, {"fusion_lat": 0.0, "name": "e0385af8151df0c3a31427e8384f086a", "is_disabled": 0, "rental_uris": {"android": "https://dc.lft.to/lastmile_qr_scan", "ios": "https://dc.lft.to/lastmile_qr_scan"}, "fusion_lon": 0.0, "lat": 38.8818705, "bike_id": "e0385af8151df0c3a31427e8384f086a", "type": "electric_scooter", "is_reserved": 0, "lon": -77.0284535}, {"fusion_lat": 0.0, "name": "2370f3ae1f12f86e3f2cc4d28922bad5", "is_disabled": 0, "rental_uris": {"android": "https://dc.lft.to/lastmile_qr_scan", "ios": "https://dc.lft.to/lastmile_qr_scan"}, "fusion_lon": 0.0, "lat": 38.897459833333336, "bike_id": "2370f3ae1f12f86e3f2cc4d28922bad5", "type": "electric_scooter", "is_reserved": 0, "lon": -77.04953966666666}, {"fusion_lat": 0.0, "name": "f149862b00ecc9a8cc1f2c447e34d1e7", "is_disabled": 0, "rental_uris": {"android": "https://dc.lft.to/lastmile_qr_scan", "ios": "https://dc.lft.to/lastmile_qr_scan"}, "fusion_lon": 0.0, "lat": 38.91417783333333, "bike_id": "f149862b00ecc9a8cc1f2c447e34d1e7", "type": "electric_scooter", "is_reserved": 0, "lon": -77.04417933333333}, {"fusion_lat": 0.0, "name": "b44b3d60fd689327c87e02737e16e758", "is_disabled": 0, "rental_uris": {"android": "https://dc.lft.to/lastmile_qr_scan", "ios": "https://dc.lft.to/lastmile_qr_scan"}, "fusion_lon": 0.0, "lat": 38.95875616666667, "bike_id": "b44b3d60fd689327c87e02737e16e758", "type": "electric_bike", "is_reserved": 0, "lon": -76.9705395}, {"fusion_lat": 0.0, "name": "f95d3315480920151b03375ce6dc7907", "is_disabled": 0, "rental_uris": {"android": "https://dc.lft.to/lastmile_qr_scan", "ios": "https://dc.lft.to/lastmile_qr_scan"}, "fusion_lon": 0.0, "lat": 38.9266815, "bike_id": "f95d3315480920151b03375ce6dc7907", "type": "electric_bike", "is_reserved": 0, "lon": -77.09847533333334}, {"fusion_lat": 0.0, "name": "a6d6e841bb5e6e945a2b39d7ffcfeabf", "is_disabled": 0, "rental_uris": {"android": "https://dc.lft.to/lastmile_qr_scan", "ios": "https://dc.lft.to/lastmile_qr_scan"}, "fusion_lon": 0.0, "lat": 38.920898, "bike_id": "a6d6e841bb5e6e945a2b39d7ffcfeabf", "type": "electric_scooter", "is_reserved": 0, "lon": -77.07368833333334}, {"fusion_lat": 0.0, "name": "1b61da1ff6b303bfe31b68b93ae540a0", "is_disabled": 0, "rental_uris": {"android": "https://dc.lft.to/lastmile_qr_scan", "ios": "https://dc.lft.to/lastmile_qr_scan"}, "fusion_lon": 0.0, "lat": 38.917838333333336, "bike_id": "1b61da1ff6b303bfe31b68b93ae540a0", "type": "electric_scooter", "is_reserved": 0, "lon": -77.02694866666667}, {"fusion_lat": 0.0, "name": "8ad5f25d90f425bec344100feacf86d6", "is_disabled": 0, "rental_uris": {"android": "https://dc.lft.to/lastmile_qr_scan", "ios": "https://dc.lft.to/lastmile_qr_scan"}, "fusion_lon": 0.0, "lat": 38.909768, "bike_id": "8ad5f25d90f425bec344100feacf86d6", "type": "electric_scooter", "is_reserved": 0, "lon": -77.02180566666667}, {"fusion_lat": 0.0, "name": "270ba8b5f43e8af4b9079b21e3b90fe8", "is_disabled": 0, "rental_uris": {"android": "https://dc.lft.to/lastmile_qr_scan", "ios": "https://dc.lft.to/lastmile_qr_scan"}, "fusion_lon": 0.0, "lat": 38.957459, "bike_id": "270ba8b5f43e8af4b9079b21e3b90fe8", "type": "electric_bike", "is_reserved": 0, "lon": -76.97251766666666}, {"fusion_lat": 0.0, "name": "c18b2e3313f1ae54b2ae054f40968d14", "is_disabled": 0, "rental_uris": {"android": "https://dc.lft.to/lastmile_qr_scan", "ios": "https://dc.lft.to/lastmile_qr_scan"}, "fusion_lon": 0.0, "lat": 38.9052265, "bike_id": "c18b2e3313f1ae54b2ae054f40968d14", "type": "electric_scooter", "is_reserved": 0, "lon": -77.02954583333333}, {"fusion_lat": 0.0, "name": "89750c5891e5efb9d1ff296606d8ac66", "is_disabled": 0, "rental_uris": {"android": "https://dc.lft.to/lastmile_qr_scan", "ios": "https://dc.lft.to/lastmile_qr_scan"}, "fusion_lon": 0.0, "lat": 38.913263, "bike_id": "89750c5891e5efb9d1ff296606d8ac66", "type": "electric_scooter", "is_reserved": 0, "lon": -77.0295195}, {"fusion_lat": 0.0, "name": "217f9c7f295bb4b80fd7bc39d6b8066b", "is_disabled": 0, "rental_uris": {"android": "https://dc.lft.to/lastmile_qr_scan", "ios": "https://dc.lft.to/lastmile_qr_scan"}, "fusion_lon": 0.0, "lat": 38.91111266666667, "bike_id": "217f9c7f295bb4b80fd7bc39d6b8066b", "type": "electric_scooter", "is_reserved": 0, "lon": -77.01146633333333}, {"fusion_lat": 0.0, "name": "5aecc21373ea8cede79b667abf12d9a3", "is_disabled": 0, "rental_uris": {"android": "https://dc.lft.to/lastmile_qr_scan", "ios": "https://dc.lft.to/lastmile_qr_scan"}, "fusion_lon": 0.0, "lat": 38.950701333333335, "bike_id": "5aecc21373ea8cede79b667abf12d9a3", "type": "electric_bike", "is_reserved": 0, "lon": -77.07223533333334}, {"fusion_lat": 0.0, "name": "32f8183800c337eb650b22ad1cb800b9", "is_disabled": 0, "rental_uris": {"android": "https://dc.lft.to/lastmile_qr_scan", "ios": "https://dc.lft.to/lastmile_qr_scan"}, "fusion_lon": 0.0, "lat": 38.956328666666664, "bike_id": "32f8183800c337eb650b22ad1cb800b9", "type": "electric_scooter", "is_reserved": 0, "lon": -77.03304516666667}, {"fusion_lat": 0.0, "name": "d8b82c0995c01f78666d351e0efe068e", "is_disabled": 0, "rental_uris": {"android": "https://dc.lft.to/lastmile_qr_scan", "ios": "https://dc.lft.to/lastmile_qr_scan"}, "fusion_lon": 0.0, "lat": 38.92221216666667, "bike_id": "d8b82c0995c01f78666d351e0efe068e", "type": "electric_scooter", "is_reserved": 0, "lon": -76.9934865}, {"fusion_lat": 0.0, "name": "6cd1f9b6baeeb26c9be3d6c23e0fcedd", "is_disabled": 0, "rental_uris": {"android": "https://dc.lft.to/lastmile_qr_scan", "ios": "https://dc.lft.to/lastmile_qr_scan"}, "fusion_lon": 0.0, "lat": 38.929195, "bike_id": "6cd1f9b6baeeb26c9be3d6c23e0fcedd", "type": "electric_scooter", "is_reserved": 0, "lon": -77.0373625}, {"fusion_lat": 0.0, "name": "76b30aa4e6142dc2cc3b92393df0e5b1", "is_disabled": 0, "rental_uris": {"android": "https://dc.lft.to/lastmile_qr_scan", "ios": "https://dc.lft.to/lastmile_qr_scan"}, "fusion_lon": 0.0, "lat": 38.937759666666665, "bike_id": "76b30aa4e6142dc2cc3b92393df0e5b1", "type": "electric_bike", "is_reserved": 0, "lon": -77.01909016666667}, {"fusion_lat": 0.0, "name": "e76afccabc96ef0612033618ab227717", "is_disabled": 0, "rental_uris": {"android": "https://dc.lft.to/lastmile_qr_scan", "ios": "https://dc.lft.to/lastmile_qr_scan"}, "fusion_lon": 0.0, "lat": 38.93393416666667, "bike_id": "e76afccabc96ef0612033618ab227717", "type": "electric_scooter", "is_reserved": 0, "lon": -77.02853683333333}, {"fusion_lat": 0.0, "name": "23f77ec334ac9edb7c0f94b570286684", "is_disabled": 0, "rental_uris": {"android": "https://dc.lft.to/lastmile_qr_scan", "ios": "https://dc.lft.to/lastmile_qr_scan"}, "fusion_lon": 0.0, "lat": 38.883938666666666, "bike_id": "23f77ec334ac9edb7c0f94b570286684", "type": "electric_scooter", "is_reserved": 0, "lon": -76.93042666666666}, {"fusion_lat": 0.0, "name": "b8659eadc12f22ed1b43e8b385985bd3", "is_disabled": 0, "rental_uris": {"android": "https://dc.lft.to/lastmile_qr_scan", "ios": "https://dc.lft.to/lastmile_qr_scan"}, "fusion_lon": 0.0, "lat": 38.857731666666666, "bike_id": "b8659eadc12f22ed1b43e8b385985bd3", "type": "electric_bike", "is_reserved": 0, "lon": -76.9876795}, {"fusion_lat": 0.0, "name": "a22584195f4307af7740f3e72d490f54", "is_disabled": 0, "rental_uris": {"android": "https://dc.lft.to/lastmile_qr_scan", "ios": "https://dc.lft.to/lastmile_qr_scan"}, "fusion_lon": 0.0, "lat": 38.9023195, "bike_id": "a22584195f4307af7740f3e72d490f54", "type": "electric_scooter", "is_reserved": 0, "lon": -77.0269}, {"fusion_lat": 0.0, "name": "5e5937abb6de78dfdf5c60f1a8b2d035", "is_disabled": 0, "rental_uris": {"android": "https://dc.lft.to/lastmile_qr_scan", "ios": "https://dc.lft.to/lastmile_qr_scan"}, "fusion_lon": 0.0, "lat": 38.91402716666666, "bike_id": "5e5937abb6de78dfdf5c60f1a8b2d035", "type": "electric_scooter", "is_reserved": 0, "lon": -77.03317533333333}, {"fusion_lat": 0.0, "name": "c96e5cd2b011e3c760d0c735d804b5cd", "is_disabled": 0, "rental_uris": {"android": "https://dc.lft.to/lastmile_qr_scan", "ios": "https://dc.lft.to/lastmile_qr_scan"}, "fusion_lon": 0.0, "lat": 38.916605833333335, "bike_id": "c96e5cd2b011e3c760d0c735d804b5cd", "type": "electric_scooter", "is_reserved": 0, "lon": -77.02813583333334}, {"fusion_lat": 0.0, "name": "9e83f78616428b436c335d6e0980bd1e", "is_disabled": 0, "rental_uris": {"android": "https://dc.lft.to/lastmile_qr_scan", "ios": "https://dc.lft.to/lastmile_qr_scan"}, "fusion_lon": 0.0, "lat": 38.93036083333333, "bike_id": "9e83f78616428b436c335d6e0980bd1e", "type": "electric_bike", "is_reserved": 0, "lon": -77.02022383333333}, {"fusion_lat": 0.0, "name": "6936241dc344bd184c5309e39a9d2b58", "is_disabled": 0, "rental_uris": {"android": "https://dc.lft.to/lastmile_qr_scan", "ios": "https://dc.lft.to/lastmile_qr_scan"}, "fusion_lon": 0.0, "lat": 38.9157815, "bike_id": "6936241dc344bd184c5309e39a9d2b58", "type": "electric_scooter", "is_reserved": 0, "lon": -77.03223266666667}, {"fusion_lat": 0.0, "name": "1bbf79013f85730c316dd77daea2631c", "is_disabled": 0, "rental_uris": {"android": "https://dc.lft.to/lastmile_qr_scan", "ios": "https://dc.lft.to/lastmile_qr_scan"}, "fusion_lon": 0.0, "lat": 38.940929, "bike_id": "1bbf79013f85730c316dd77daea2631c", "type": "electric_scooter", "is_reserved": 0, "lon": -77.06183733333333}, {"fusion_lat": 0.0, "name": "179663e56c7f3092ebff74b2566d2993", "is_disabled": 0, "rental_uris": {"android": "https://dc.lft.to/lastmile_qr_scan", "ios": "https://dc.lft.to/lastmile_qr_scan"}, "fusion_lon": 0.0, "lat": 38.882324833333335, "bike_id": "179663e56c7f3092ebff74b2566d2993", "type": "electric_scooter", "is_reserved": 0, "lon": -77.0261655}, {"fusion_lat": 0.0, "name": "e4c9d662619ba3d5a2e67e94ab9b27a7", "is_disabled": 0, "rental_uris": {"android": "https://dc.lft.to/lastmile_qr_scan", "ios": "https://dc.lft.to/lastmile_qr_scan"}, "fusion_lon": 0.0, "lat": 38.885357, "bike_id": "e4c9d662619ba3d5a2e67e94ab9b27a7", "type": "electric_scooter", "is_reserved": 0, "lon": -77.01518833333333}, {"fusion_lat": 0.0, "name": "b9f45c9b549e533e8dfebb37fabff8fa", "is_disabled": 0, "rental_uris": {"android": "https://dc.lft.to/lastmile_qr_scan", "ios": "https://dc.lft.to/lastmile_qr_scan"}, "fusion_lon": 0.0, "lat": 38.8606135, "bike_id": "b9f45c9b549e533e8dfebb37fabff8fa", "type": "electric_scooter", "is_reserved": 0, "lon": -76.9849785}, {"fusion_lat": 0.0, "name": "fae469cc58477b9dc07ba53d755e0b61", "is_disabled": 0, "rental_uris": {"android": "https://dc.lft.to/lastmile_qr_scan", "ios": "https://dc.lft.to/lastmile_qr_scan"}, "fusion_lon": 0.0, "lat": 38.985020666666664, "bike_id": "fae469cc58477b9dc07ba53d755e0b61", "type": "electric_bike", "is_reserved": 0, "lon": -76.98195866666667}, {"fusion_lat": 0.0, "name": "2108dc2b6668bac3644e77b67ac61bde", "is_disabled": 0, "rental_uris": {"android": "https://dc.lft.to/lastmile_qr_scan", "ios": "https://dc.lft.to/lastmile_qr_scan"}, "fusion_lon": 0.0, "lat": 38.9142835, "bike_id": "2108dc2b6668bac3644e77b67ac61bde", "type": "electric_scooter", "is_reserved": 0, "lon": -77.06410033333333}, {"fusion_lat": 0.0, "name": "8453cf30a2e0604e25e7f9ef45610021", "is_disabled": 0, "rental_uris": {"android": "https://dc.lft.to/lastmile_qr_scan", "ios": "https://dc.lft.to/lastmile_qr_scan"}, "fusion_lon": 0.0, "lat": 38.896439, "bike_id": "8453cf30a2e0604e25e7f9ef45610021", "type": "electric_scooter", "is_reserved": 0, "lon": -76.99944283333333}, {"fusion_lat": 0.0, "name": "38dd9444e9b4a0f6b7b7f9d177404c9f", "is_disabled": 0, "rental_uris": {"android": "https://dc.lft.to/lastmile_qr_scan", "ios": "https://dc.lft.to/lastmile_qr_scan"}, "fusion_lon": 0.0, "lat": 38.9037955, "bike_id": "38dd9444e9b4a0f6b7b7f9d177404c9f", "type": "electric_scooter", "is_reserved": 0, "lon": -77.00190766666667}, {"fusion_lat": 0.0, "name": "6152469c36e9a1ac32426c0652fb5bbb", "is_disabled": 0, "rental_uris": {"android": "https://dc.lft.to/lastmile_qr_scan", "ios": "https://dc.lft.to/lastmile_qr_scan"}, "fusion_lon": 0.0, "lat": 38.9207825, "bike_id": "6152469c36e9a1ac32426c0652fb5bbb", "type": "electric_bike", "is_reserved": 0, "lon": -76.9894295}, {"fusion_lat": 0.0, "name": "faeddd0f06d7666a3fb9313af95d7ac0", "is_disabled": 0, "rental_uris": {"android": "https://dc.lft.to/lastmile_qr_scan", "ios": "https://dc.lft.to/lastmile_qr_scan"}, "fusion_lon": 0.0, "lat": 38.88401866666667, "bike_id": "faeddd0f06d7666a3fb9313af95d7ac0", "type": "electric_scooter", "is_reserved": 0, "lon": -76.985809}, {"fusion_lat": 0.0, "name": "60318fab66cc839dc5e060b6b99b88be", "is_disabled": 0, "rental_uris": {"android": "https://dc.lft.to/lastmile_qr_scan", "ios": "https://dc.lft.to/lastmile_qr_scan"}, "fusion_lon": 0.0, "lat": 38.8746275, "bike_id": "60318fab66cc839dc5e060b6b99b88be", "type": "electric_scooter", "is_reserved": 0, "lon": -77.0096525}, {"fusion_lat": 0.0, "name": "f5e3e7c9f8f3f0178f73975182178f93", "is_disabled": 0, "rental_uris": {"android": "https://dc.lft.to/lastmile_qr_scan", "ios": "https://dc.lft.to/lastmile_qr_scan"}, "fusion_lon": 0.0, "lat": 38.89736966666667, "bike_id": "f5e3e7c9f8f3f0178f73975182178f93", "type": "electric_scooter", "is_reserved": 0, "lon": -77.031791}, {"fusion_lat": 0.0, "name": "5d4fabf7b57dc338cf20eeb9ead4deab", "is_disabled": 0, "rental_uris": {"android": "https://dc.lft.to/lastmile_qr_scan", "ios": "https://dc.lft.to/lastmile_qr_scan"}, "fusion_lon": 0.0, "lat": 38.92652733333333, "bike_id": "5d4fabf7b57dc338cf20eeb9ead4deab", "type": "electric_scooter", "is_reserved": 0, "lon": -77.0372835}, {"fusion_lat": 0.0, "name": "da7ffc01390abc06e42b5664c01c7a31", "is_disabled": 0, "rental_uris": {"android": "https://dc.lft.to/lastmile_qr_scan", "ios": "https://dc.lft.to/lastmile_qr_scan"}, "fusion_lon": 0.0, "lat": 38.898753166666665, "bike_id": "da7ffc01390abc06e42b5664c01c7a31", "type": "electric_scooter", "is_reserved": 0, "lon": -76.9318435}, {"fusion_lat": 0.0, "name": "869fbc78bd57038806e16f4a4b7053e3", "is_disabled": 0, "rental_uris": {"android": "https://dc.lft.to/lastmile_qr_scan", "ios": "https://dc.lft.to/lastmile_qr_scan"}, "fusion_lon": 0.0, "lat": 38.87858833333333, "bike_id": "869fbc78bd57038806e16f4a4b7053e3", "type": "electric_scooter", "is_reserved": 0, "lon": -77.01308966666667}, {"fusion_lat": 0.0, "name": "392d01dc04ba2a448807d4f289e705f2", "is_disabled": 0, "rental_uris": {"android": "https://dc.lft.to/lastmile_qr_scan", "ios": "https://dc.lft.to/lastmile_qr_scan"}, "fusion_lon": 0.0, "lat": 38.880821833333336, "bike_id": "392d01dc04ba2a448807d4f289e705f2", "type": "electric_scooter", "is_reserved": 0, "lon": -76.9852965}, {"fusion_lat": 0.0, "name": "815ef4c69455f26f516b1021412b01ce", "is_disabled": 0, "rental_uris": {"android": "https://dc.lft.to/lastmile_qr_scan", "ios": "https://dc.lft.to/lastmile_qr_scan"}, "fusion_lon": 0.0, "lat": 38.891384, "bike_id": "815ef4c69455f26f516b1021412b01ce", "type": "electric_scooter", "is_reserved": 0, "lon": -76.98366533333333}, {"fusion_lat": 0.0, "name": "725fcc54626dc1abe30a745189633280", "is_disabled": 0, "rental_uris": {"android": "https://dc.lft.to/lastmile_qr_scan", "ios": "https://dc.lft.to/lastmile_qr_scan"}, "fusion_lon": 0.0, "lat": 38.936180666666665, "bike_id": "725fcc54626dc1abe30a745189633280", "type": "electric_scooter", "is_reserved": 0, "lon": -77.037269}, {"fusion_lat": 0.0, "name": "f06c03a0c920e9b49e78cee5f9c70ea6", "is_disabled": 0, "rental_uris": {"android": "https://dc.lft.to/lastmile_qr_scan", "ios": "https://dc.lft.to/lastmile_qr_scan"}, "fusion_lon": 0.0, "lat": 38.8845645, "bike_id": "f06c03a0c920e9b49e78cee5f9c70ea6", "type": "electric_scooter", "is_reserved": 0, "lon": -76.998237}, {"fusion_lat": 0.0, "name": "b77b827d2855b77184d096dc7d9920af", "is_disabled": 0, "rental_uris": {"android": "https://dc.lft.to/lastmile_qr_scan", "ios": "https://dc.lft.to/lastmile_qr_scan"}, "fusion_lon": 0.0, "lat": 38.91119616666667, "bike_id": "b77b827d2855b77184d096dc7d9920af", "type": "electric_scooter", "is_reserved": 0, "lon": -77.020869}, {"fusion_lat": 0.0, "name": "e7d68d13828d21f4f5302972dad239cb", "is_disabled": 0, "rental_uris": {"android": "https://dc.lft.to/lastmile_qr_scan", "ios": "https://dc.lft.to/lastmile_qr_scan"}, "fusion_lon": 0.0, "lat": 38.937769, "bike_id": "e7d68d13828d21f4f5302972dad239cb", "type": "electric_scooter", "is_reserved": 0, "lon": -77.02460716666667}, {"fusion_lat": 0.0, "name": "ae273d62b606dc2f51c94b08bee40e77", "is_disabled": 0, "rental_uris": {"android": "https://dc.lft.to/lastmile_qr_scan", "ios": "https://dc.lft.to/lastmile_qr_scan"}, "fusion_lon": 0.0, "lat": 38.91916583333333, "bike_id": "ae273d62b606dc2f51c94b08bee40e77", "type": "electric_scooter", "is_reserved": 0, "lon": -77.03315733333334}, {"fusion_lat": 0.0, "name": "b45a5d302dcda7abc7c1632ce4bb834e", "is_disabled": 0, "rental_uris": {"android": "https://dc.lft.to/lastmile_qr_scan", "ios": "https://dc.lft.to/lastmile_qr_scan"}, "fusion_lon": 0.0, "lat": 38.9330515, "bike_id": "b45a5d302dcda7abc7c1632ce4bb834e", "type": "electric_scooter", "is_reserved": 0, "lon": -77.024657}, {"fusion_lat": 0.0, "name": "f5a118402b81b0f1d6999e361c676465", "is_disabled": 0, "rental_uris": {"android": "https://dc.lft.to/lastmile_qr_scan", "ios": "https://dc.lft.to/lastmile_qr_scan"}, "fusion_lon": 0.0, "lat": 38.931897666666664, "bike_id": "f5a118402b81b0f1d6999e361c676465", "type": "electric_scooter", "is_reserved": 0, "lon": -77.0429405}, {"fusion_lat": 0.0, "name": "2c34d5ceebc0a7ccfd3173dd548bcc63", "is_disabled": 0, "rental_uris": {"android": "https://dc.lft.to/lastmile_qr_scan", "ios": "https://dc.lft.to/lastmile_qr_scan"}, "fusion_lon": 0.0, "lat": 38.92085083333333, "bike_id": "2c34d5ceebc0a7ccfd3173dd548bcc63", "type": "electric_scooter", "is_reserved": 0, "lon": -77.0046245}, {"fusion_lat": 0.0, "name": "6aa5e4e96a577a5b5339560b50b510ae", "is_disabled": 0, "rental_uris": {"android": "https://dc.lft.to/lastmile_qr_scan", "ios": "https://dc.lft.to/lastmile_qr_scan"}, "fusion_lon": 0.0, "lat": 38.917249, "bike_id": "6aa5e4e96a577a5b5339560b50b510ae", "type": "electric_scooter", "is_reserved": 0, "lon": -77.01209933333334}, {"fusion_lat": 0.0, "name": "8930d9a9e5609eda5f480e26d4c61712", "is_disabled": 0, "rental_uris": {"android": "https://dc.lft.to/lastmile_qr_scan", "ios": "https://dc.lft.to/lastmile_qr_scan"}, "fusion_lon": 0.0, "lat": 38.908292, "bike_id": "8930d9a9e5609eda5f480e26d4c61712", "type": "electric_scooter", "is_reserved": 0, "lon": -77.05489933333334}, {"fusion_lat": 0.0, "name": "71603b7bd8198a0bd1b5792ee9e1f66e", "is_disabled": 0, "rental_uris": {"android": "https://dc.lft.to/lastmile_qr_scan", "ios": "https://dc.lft.to/lastmile_qr_scan"}, "fusion_lon": 0.0, "lat": 38.96121433333333, "bike_id": "71603b7bd8198a0bd1b5792ee9e1f66e", "type": "electric_scooter", "is_reserved": 0, "lon": -77.02861983333334}, {"fusion_lat": 0.0, "name": "1bcb018b6a3d512c9500c96175bc4c13", "is_disabled": 0, "rental_uris": {"android": "https://dc.lft.to/lastmile_qr_scan", "ios": "https://dc.lft.to/lastmile_qr_scan"}, "fusion_lon": 0.0, "lat": 38.918063, "bike_id": "1bcb018b6a3d512c9500c96175bc4c13", "type": "electric_scooter", "is_reserved": 0, "lon": -76.999791}, {"fusion_lat": 0.0, "name": "7d9032bdc01ee4e3e2e71b48013c654d", "is_disabled": 0, "rental_uris": {"android": "https://dc.lft.to/lastmile_qr_scan", "ios": "https://dc.lft.to/lastmile_qr_scan"}, "fusion_lon": 0.0, "lat": 38.951193333333336, "bike_id": "7d9032bdc01ee4e3e2e71b48013c654d", "type": "electric_scooter", "is_reserved": 0, "lon": -77.013594}, {"fusion_lat": 0.0, "name": "d3bac4af8ad35eebe54a1a1dbfd26e05", "is_disabled": 0, "rental_uris": {"android": "https://dc.lft.to/lastmile_qr_scan", "ios": "https://dc.lft.to/lastmile_qr_scan"}, "fusion_lon": 0.0, "lat": 38.93672866666667, "bike_id": "d3bac4af8ad35eebe54a1a1dbfd26e05", "type": "electric_scooter", "is_reserved": 0, "lon": -77.0358925}, {"fusion_lat": 0.0, "name": "303aacd590004d558f68d9b4ca98f403", "is_disabled": 0, "rental_uris": {"android": "https://dc.lft.to/lastmile_qr_scan", "ios": "https://dc.lft.to/lastmile_qr_scan"}, "fusion_lon": 0.0, "lat": 38.975005333333335, "bike_id": "303aacd590004d558f68d9b4ca98f403", "type": "electric_scooter", "is_reserved": 0, "lon": -77.01685516666667}, {"fusion_lat": 0.0, "name": "8a5152ba03cf9ac86f47710fb30acf1d", "is_disabled": 0, "rental_uris": {"android": "https://dc.lft.to/lastmile_qr_scan", "ios": "https://dc.lft.to/lastmile_qr_scan"}, "fusion_lon": 0.0, "lat": 38.91774083333333, "bike_id": "8a5152ba03cf9ac86f47710fb30acf1d", "type": "electric_scooter", "is_reserved": 0, "lon": -77.01920216666667}, {"fusion_lat": 0.0, "name": "bac5a40592fa592f8d21d3168330c432", "is_disabled": 0, "rental_uris": {"android": "https://dc.lft.to/lastmile_qr_scan", "ios": "https://dc.lft.to/lastmile_qr_scan"}, "fusion_lon": 0.0, "lat": 38.947019833333336, "bike_id": "bac5a40592fa592f8d21d3168330c432", "type": "electric_scooter", "is_reserved": 0, "lon": -77.0194295}, {"fusion_lat": 0.0, "name": "44309ad2e7e2e69d5a83fb902657b6f9", "is_disabled": 0, "rental_uris": {"android": "https://dc.lft.to/lastmile_qr_scan", "ios": "https://dc.lft.to/lastmile_qr_scan"}, "fusion_lon": 0.0, "lat": 38.94646766666666, "bike_id": "44309ad2e7e2e69d5a83fb902657b6f9", "type": "electric_bike", "is_reserved": 0, "lon": -77.030517}, {"fusion_lat": 0.0, "name": "7348cdb339c0df1acf36ab844c02e31a", "is_disabled": 0, "rental_uris": {"android": "https://dc.lft.to/lastmile_qr_scan", "ios": "https://dc.lft.to/lastmile_qr_scan"}, "fusion_lon": 0.0, "lat": 38.88509533333333, "bike_id": "7348cdb339c0df1acf36ab844c02e31a", "type": "electric_scooter", "is_reserved": 0, "lon": -76.92945266666666}, {"fusion_lat": 0.0, "name": "a2ae00a018f2d4c6ddbce6df9eecb0f3", "is_disabled": 0, "rental_uris": {"android": "https://dc.lft.to/lastmile_qr_scan", "ios": "https://dc.lft.to/lastmile_qr_scan"}, "fusion_lon": 0.0, "lat": 38.9182205, "bike_id": "a2ae00a018f2d4c6ddbce6df9eecb0f3", "type": "electric_scooter", "is_reserved": 0, "lon": -77.02473566666667}, {"fusion_lat": 0.0, "name": "99869a2cc183746f90084bdd2dbdbad7", "is_disabled": 0, "rental_uris": {"android": "https://dc.lft.to/lastmile_qr_scan", "ios": "https://dc.lft.to/lastmile_qr_scan"}, "fusion_lon": 0.0, "lat": 38.952969, "bike_id": "99869a2cc183746f90084bdd2dbdbad7", "type": "electric_scooter", "is_reserved": 0, "lon": -76.9990945}, {"fusion_lat": 0.0, "name": "c911394f23609d719e50fa8141ccb134", "is_disabled": 0, "rental_uris": {"android": "https://dc.lft.to/lastmile_qr_scan", "ios": "https://dc.lft.to/lastmile_qr_scan"}, "fusion_lon": 0.0, "lat": 38.92445333333333, "bike_id": "c911394f23609d719e50fa8141ccb134", "type": "electric_scooter", "is_reserved": 0, "lon": -77.08031583333333}, {"fusion_lat": 0.0, "name": "3e4366924565b637ec1306162c83482c", "is_disabled": 0, "rental_uris": {"android": "https://dc.lft.to/lastmile_qr_scan", "ios": "https://dc.lft.to/lastmile_qr_scan"}, "fusion_lon": 0.0, "lat": 38.921657333333336, "bike_id": "3e4366924565b637ec1306162c83482c", "type": "electric_scooter", "is_reserved": 0, "lon": -77.0364835}, {"fusion_lat": 0.0, "name": "450beda339992aa1a24b42843d8f3a9a", "is_disabled": 0, "rental_uris": {"android": "https://dc.lft.to/lastmile_qr_scan", "ios": "https://dc.lft.to/lastmile_qr_scan"}, "fusion_lon": 0.0, "lat": 38.958283333333334, "bike_id": "450beda339992aa1a24b42843d8f3a9a", "type": "electric_bike", "is_reserved": 0, "lon": -77.01510566666667}, {"fusion_lat": 0.0, "name": "25fdf422b497956d1091e8508c8a0d06", "is_disabled": 0, "rental_uris": {"android": "https://dc.lft.to/lastmile_qr_scan", "ios": "https://dc.lft.to/lastmile_qr_scan"}, "fusion_lon": 0.0, "lat": 38.92323183333333, "bike_id": "25fdf422b497956d1091e8508c8a0d06", "type": "electric_scooter", "is_reserved": 0, "lon": -77.02959766666666}, {"fusion_lat": 0.0, "name": "b29ad08d3804bc72ad16c9b11b8f8a85", "is_disabled": 0, "rental_uris": {"android": "https://dc.lft.to/lastmile_qr_scan", "ios": "https://dc.lft.to/lastmile_qr_scan"}, "fusion_lon": 0.0, "lat": 38.9847355, "bike_id": "b29ad08d3804bc72ad16c9b11b8f8a85", "type": "electric_scooter", "is_reserved": 0, "lon": -77.02645016666666}, {"fusion_lat": 0.0, "name": "af34eff49d929fd98ab44da95ab051c0", "is_disabled": 0, "rental_uris": {"android": "https://dc.lft.to/lastmile_qr_scan", "ios": "https://dc.lft.to/lastmile_qr_scan"}, "fusion_lon": 0.0, "lat": 38.915669, "bike_id": "af34eff49d929fd98ab44da95ab051c0", "type": "electric_scooter", "is_reserved": 0, "lon": -77.03227516666666}, {"fusion_lat": 0.0, "name": "19b9301a1652abb6edd8c541219698d0", "is_disabled": 0, "rental_uris": {"android": "https://dc.lft.to/lastmile_qr_scan", "ios": "https://dc.lft.to/lastmile_qr_scan"}, "fusion_lon": 0.0, "lat": 38.91664016666667, "bike_id": "19b9301a1652abb6edd8c541219698d0", "type": "electric_scooter", "is_reserved": 0, "lon": -77.0281355}, {"fusion_lat": 0.0, "name": "72e4d5532b01228696bab5a4a2b9f500", "is_disabled": 0, "rental_uris": {"android": "https://dc.lft.to/lastmile_qr_scan", "ios": "https://dc.lft.to/lastmile_qr_scan"}, "fusion_lon": 0.0, "lat": 38.9181775, "bike_id": "72e4d5532b01228696bab5a4a2b9f500", "type": "electric_scooter", "is_reserved": 0, "lon": -77.00254583333333}, {"fusion_lat": 0.0, "name": "88073376d9d5ed1b386fcfd7409c099c", "is_disabled": 0, "rental_uris": {"android": "https://dc.lft.to/lastmile_qr_scan", "ios": "https://dc.lft.to/lastmile_qr_scan"}, "fusion_lon": 0.0, "lat": 38.9069035, "bike_id": "88073376d9d5ed1b386fcfd7409c099c", "type": "electric_scooter", "is_reserved": 0, "lon": -77.04862366666667}, {"fusion_lat": 0.0, "name": "29707ba74f60285b96178e9cbaa2ef85", "is_disabled": 0, "rental_uris": {"android": "https://dc.lft.to/lastmile_qr_scan", "ios": "https://dc.lft.to/lastmile_qr_scan"}, "fusion_lon": 0.0, "lat": 38.92596, "bike_id": "29707ba74f60285b96178e9cbaa2ef85", "type": "electric_scooter", "is_reserved": 0, "lon": -77.025877}, {"fusion_lat": 0.0, "name": "0f3fbb6ddebba2589f00f92be0c1d418", "is_disabled": 0, "rental_uris": {"android": "https://dc.lft.to/lastmile_qr_scan", "ios": "https://dc.lft.to/lastmile_qr_scan"}, "fusion_lon": 0.0, "lat": 38.88756866666667, "bike_id": "0f3fbb6ddebba2589f00f92be0c1d418", "type": "electric_scooter", "is_reserved": 0, "lon": -76.99470633333334}, {"fusion_lat": 0.0, "name": "41880e48c6d1b38090e8a288df74ccec", "is_disabled": 0, "rental_uris": {"android": "https://dc.lft.to/lastmile_qr_scan", "ios": "https://dc.lft.to/lastmile_qr_scan"}, "fusion_lon": 0.0, "lat": 38.8001685, "bike_id": "41880e48c6d1b38090e8a288df74ccec", "type": "electric_bike", "is_reserved": 0, "lon": -77.05480616666667}, {"fusion_lat": 0.0, "name": "26455ee52a3f526c64c49ea075940ad1", "is_disabled": 0, "rental_uris": {"android": "https://dc.lft.to/lastmile_qr_scan", "ios": "https://dc.lft.to/lastmile_qr_scan"}, "fusion_lon": 0.0, "lat": 38.9287195, "bike_id": "26455ee52a3f526c64c49ea075940ad1", "type": "electric_scooter", "is_reserved": 0, "lon": -77.0374835}, {"fusion_lat": 0.0, "name": "9cfa775629732e9aa0634a66b696f12c", "is_disabled": 0, "rental_uris": {"android": "https://dc.lft.to/lastmile_qr_scan", "ios": "https://dc.lft.to/lastmile_qr_scan"}, "fusion_lon": 0.0, "lat": 38.873328, "bike_id": "9cfa775629732e9aa0634a66b696f12c", "type": "electric_bike", "is_reserved": 0, "lon": -77.082144}, {"fusion_lat": 0.0, "name": "c1fded82a7cc81a6a4b8df2558186c4c", "is_disabled": 0, "rental_uris": {"android": "https://dc.lft.to/lastmile_qr_scan", "ios": "https://dc.lft.to/lastmile_qr_scan"}, "fusion_lon": 0.0, "lat": 38.906375833333335, "bike_id": "c1fded82a7cc81a6a4b8df2558186c4c", "type": "electric_scooter", "is_reserved": 0, "lon": -77.0342375}, {"fusion_lat": 0.0, "name": "f1cf586e97061008825fdd1889c9850f", "is_disabled": 0, "rental_uris": {"android": "https://dc.lft.to/lastmile_qr_scan", "ios": "https://dc.lft.to/lastmile_qr_scan"}, "fusion_lon": 0.0, "lat": 38.892188833333336, "bike_id": "f1cf586e97061008825fdd1889c9850f", "type": "electric_scooter", "is_reserved": 0, "lon": -77.026634}, {"fusion_lat": 0.0, "name": "892350f2c6b99a5e3897b400f9efff28", "is_disabled": 0, "rental_uris": {"android": "https://dc.lft.to/lastmile_qr_scan", "ios": "https://dc.lft.to/lastmile_qr_scan"}, "fusion_lon": 0.0, "lat": 38.93196016666667, "bike_id": "892350f2c6b99a5e3897b400f9efff28", "type": "electric_scooter", "is_reserved": 0, "lon": -77.037482}, {"fusion_lat": 0.0, "name": "b0bf1383d30dfcf8ab4b1b5038258b08", "is_disabled": 0, "rental_uris": {"android": "https://dc.lft.to/lastmile_qr_scan", "ios": "https://dc.lft.to/lastmile_qr_scan"}, "fusion_lon": 0.0, "lat": 38.9136755, "bike_id": "b0bf1383d30dfcf8ab4b1b5038258b08", "type": "electric_scooter", "is_reserved": 0, "lon": -77.01995566666666}, {"fusion_lat": 0.0, "name": "e6ff53c539807b03786b6537a092c2c1", "is_disabled": 0, "rental_uris": {"android": "https://dc.lft.to/lastmile_qr_scan", "ios": "https://dc.lft.to/lastmile_qr_scan"}, "fusion_lon": 0.0, "lat": 38.8472895, "bike_id": "e6ff53c539807b03786b6537a092c2c1", "type": "electric_scooter", "is_reserved": 0, "lon": -76.98245316666667}, {"fusion_lat": 0.0, "name": "10f1d7306675ed012ea77dcd54b4ba6a", "is_disabled": 0, "rental_uris": {"android": "https://dc.lft.to/lastmile_qr_scan", "ios": "https://dc.lft.to/lastmile_qr_scan"}, "fusion_lon": 0.0, "lat": 38.90470783333333, "bike_id": "10f1d7306675ed012ea77dcd54b4ba6a", "type": "electric_scooter", "is_reserved": 0, "lon": -77.043503}, {"fusion_lat": 0.0, "name": "51bcd7ff2d235ee4ada1411fe1525cb5", "is_disabled": 0, "rental_uris": {"android": "https://dc.lft.to/lastmile_qr_scan", "ios": "https://dc.lft.to/lastmile_qr_scan"}, "fusion_lon": 0.0, "lat": 38.91950516666667, "bike_id": "51bcd7ff2d235ee4ada1411fe1525cb5", "type": "electric_scooter", "is_reserved": 0, "lon": -77.07099416666667}, {"fusion_lat": 0.0, "name": "6172d6680aef9fc6b61aa903c8201a06", "is_disabled": 0, "rental_uris": {"android": "https://dc.lft.to/lastmile_qr_scan", "ios": "https://dc.lft.to/lastmile_qr_scan"}, "fusion_lon": 0.0, "lat": 38.874253833333334, "bike_id": "6172d6680aef9fc6b61aa903c8201a06", "type": "electric_scooter", "is_reserved": 0, "lon": -77.01858616666667}, {"fusion_lat": 0.0, "name": "5066b33e90fe62409b34251353dc0b34", "is_disabled": 0, "rental_uris": {"android": "https://dc.lft.to/lastmile_qr_scan", "ios": "https://dc.lft.to/lastmile_qr_scan"}, "fusion_lon": 0.0, "lat": 38.917658333333335, "bike_id": "5066b33e90fe62409b34251353dc0b34", "type": "electric_scooter", "is_reserved": 0, "lon": -77.04770783333333}, {"fusion_lat": 0.0, "name": "12ba06ad99811603bc2c5e7b0295c0b7", "is_disabled": 0, "rental_uris": {"android": "https://dc.lft.to/lastmile_qr_scan", "ios": "https://dc.lft.to/lastmile_qr_scan"}, "fusion_lon": 0.0, "lat": 38.89225233333333, "bike_id": "12ba06ad99811603bc2c5e7b0295c0b7", "type": "electric_scooter", "is_reserved": 0, "lon": -77.03982316666666}, {"fusion_lat": 0.0, "name": "69dd3219570556f63072e15ae7171444", "is_disabled": 0, "rental_uris": {"android": "https://dc.lft.to/lastmile_qr_scan", "ios": "https://dc.lft.to/lastmile_qr_scan"}, "fusion_lon": 0.0, "lat": 38.90135, "bike_id": "69dd3219570556f63072e15ae7171444", "type": "electric_scooter", "is_reserved": 0, "lon": -76.98647216666667}, {"fusion_lat": 0.0, "name": "0f3afb2fabad0f1fbdc1a9991ec7b996", "is_disabled": 0, "rental_uris": {"android": "https://dc.lft.to/lastmile_qr_scan", "ios": "https://dc.lft.to/lastmile_qr_scan"}, "fusion_lon": 0.0, "lat": 38.89899833333333, "bike_id": "0f3afb2fabad0f1fbdc1a9991ec7b996", "type": "electric_scooter", "is_reserved": 0, "lon": -77.0035735}, {"fusion_lat": 0.0, "name": "687608446fd96b694ef1e1ac3864113d", "is_disabled": 0, "rental_uris": {"android": "https://dc.lft.to/lastmile_qr_scan", "ios": "https://dc.lft.to/lastmile_qr_scan"}, "fusion_lon": 0.0, "lat": 38.83236316666667, "bike_id": "687608446fd96b694ef1e1ac3864113d", "type": "electric_bike", "is_reserved": 0, "lon": -76.9461815}, {"fusion_lat": 0.0, "name": "e3bb73037216063b649b94dc3be0b655", "is_disabled": 0, "rental_uris": {"android": "https://dc.lft.to/lastmile_qr_scan", "ios": "https://dc.lft.to/lastmile_qr_scan"}, "fusion_lon": 0.0, "lat": 38.8873435, "bike_id": "e3bb73037216063b649b94dc3be0b655", "type": "electric_scooter", "is_reserved": 0, "lon": -77.01533066666667}, {"fusion_lat": 0.0, "name": "f22882f8c76fa841d99d3a1aac9f38d4", "is_disabled": 0, "rental_uris": {"android": "https://dc.lft.to/lastmile_qr_scan", "ios": "https://dc.lft.to/lastmile_qr_scan"}, "fusion_lon": 0.0, "lat": 38.91403916666667, "bike_id": "f22882f8c76fa841d99d3a1aac9f38d4", "type": "electric_scooter", "is_reserved": 0, "lon": -77.04474633333334}, {"fusion_lat": 0.0, "name": "192f485f49caa22cb0c4e5c488ead961", "is_disabled": 0, "rental_uris": {"android": "https://dc.lft.to/lastmile_qr_scan", "ios": "https://dc.lft.to/lastmile_qr_scan"}, "fusion_lon": 0.0, "lat": 38.904493333333335, "bike_id": "192f485f49caa22cb0c4e5c488ead961", "type": "electric_scooter", "is_reserved": 0, "lon": -77.028828}, {"fusion_lat": 0.0, "name": "5dafc200f8758b15207303636f1d070d", "is_disabled": 0, "rental_uris": {"android": "https://dc.lft.to/lastmile_qr_scan", "ios": "https://dc.lft.to/lastmile_qr_scan"}, "fusion_lon": 0.0, "lat": 38.92164416666667, "bike_id": "5dafc200f8758b15207303636f1d070d", "type": "electric_scooter", "is_reserved": 0, "lon": -77.0344455}, {"fusion_lat": 0.0, "name": "c567db831ea611343b610b917febc19e", "is_disabled": 0, "rental_uris": {"android": "https://dc.lft.to/lastmile_qr_scan", "ios": "https://dc.lft.to/lastmile_qr_scan"}, "fusion_lon": 0.0, "lat": 38.932623, "bike_id": "c567db831ea611343b610b917febc19e", "type": "electric_scooter", "is_reserved": 0, "lon": -77.03261283333333}, {"fusion_lat": 0.0, "name": "6c784ebc62e0632591dbb08ba57389b0", "is_disabled": 0, "rental_uris": {"android": "https://dc.lft.to/lastmile_qr_scan", "ios": "https://dc.lft.to/lastmile_qr_scan"}, "fusion_lon": 0.0, "lat": 38.887469333333335, "bike_id": "6c784ebc62e0632591dbb08ba57389b0", "type": "electric_scooter", "is_reserved": 0, "lon": -77.02572533333333}, {"fusion_lat": 0.0, "name": "c2e55a35d408ec730605c55e1481b207", "is_disabled": 0, "rental_uris": {"android": "https://dc.lft.to/lastmile_qr_scan", "ios": "https://dc.lft.to/lastmile_qr_scan"}, "fusion_lon": 0.0, "lat": 38.839363, "bike_id": "c2e55a35d408ec730605c55e1481b207", "type": "electric_bike", "is_reserved": 0, "lon": -77.07901166666667}, {"fusion_lat": 0.0, "name": "83735b44c6dc3104232a59f74cec41eb", "is_disabled": 0, "rental_uris": {"android": "https://dc.lft.to/lastmile_qr_scan", "ios": "https://dc.lft.to/lastmile_qr_scan"}, "fusion_lon": 0.0, "lat": 38.8737255, "bike_id": "83735b44c6dc3104232a59f74cec41eb", "type": "electric_scooter", "is_reserved": 0, "lon": -77.00054383333334}, {"fusion_lat": 0.0, "name": "cb87ee33c03e6a859ca44ce8d5714196", "is_disabled": 0, "rental_uris": {"android": "https://dc.lft.to/lastmile_qr_scan", "ios": "https://dc.lft.to/lastmile_qr_scan"}, "fusion_lon": 0.0, "lat": 38.88611, "bike_id": "cb87ee33c03e6a859ca44ce8d5714196", "type": "electric_scooter", "is_reserved": 0, "lon": -77.019681}, {"fusion_lat": 0.0, "name": "ac514eaa39f20c652b060408c694a4de", "is_disabled": 0, "rental_uris": {"android": "https://dc.lft.to/lastmile_qr_scan", "ios": "https://dc.lft.to/lastmile_qr_scan"}, "fusion_lon": 0.0, "lat": 38.873776, "bike_id": "ac514eaa39f20c652b060408c694a4de", "type": "electric_scooter", "is_reserved": 0, "lon": -77.00049816666667}, {"fusion_lat": 0.0, "name": "1750c1bebaa53ab14b56b8e8b2ed0258", "is_disabled": 0, "rental_uris": {"android": "https://dc.lft.to/lastmile_qr_scan", "ios": "https://dc.lft.to/lastmile_qr_scan"}, "fusion_lon": 0.0, "lat": 38.918819166666665, "bike_id": "1750c1bebaa53ab14b56b8e8b2ed0258", "type": "electric_scooter", "is_reserved": 0, "lon": -77.04462466666666}, {"fusion_lat": 0.0, "name": "bb0e975f4a476fe3926a69ea56a6e6a2", "is_disabled": 0, "rental_uris": {"android": "https://dc.lft.to/lastmile_qr_scan", "ios": "https://dc.lft.to/lastmile_qr_scan"}, "fusion_lon": 0.0, "lat": 38.9314775, "bike_id": "bb0e975f4a476fe3926a69ea56a6e6a2", "type": "electric_scooter", "is_reserved": 0, "lon": -77.02989416666667}, {"fusion_lat": 0.0, "name": "ecff78d1081ea9b5ac2ed132dd8da950", "is_disabled": 0, "rental_uris": {"android": "https://dc.lft.to/lastmile_qr_scan", "ios": "https://dc.lft.to/lastmile_qr_scan"}, "fusion_lon": 0.0, "lat": 38.978845, "bike_id": "ecff78d1081ea9b5ac2ed132dd8da950", "type": "electric_bike", "is_reserved": 0, "lon": -77.06028833333333}, {"fusion_lat": 0.0, "name": "882a8d0e93e7406724e7370b04cb7655", "is_disabled": 0, "rental_uris": {"android": "https://dc.lft.to/lastmile_qr_scan", "ios": "https://dc.lft.to/lastmile_qr_scan"}, "fusion_lon": 0.0, "lat": 38.866829, "bike_id": "882a8d0e93e7406724e7370b04cb7655", "type": "electric_scooter", "is_reserved": 0, "lon": -76.985674}, {"fusion_lat": 0.0, "name": "d5e54cb6caa0c7470816538115a0ad65", "is_disabled": 0, "rental_uris": {"android": "https://dc.lft.to/lastmile_qr_scan", "ios": "https://dc.lft.to/lastmile_qr_scan"}, "fusion_lon": 0.0, "lat": 38.910452, "bike_id": "d5e54cb6caa0c7470816538115a0ad65", "type": "electric_scooter", "is_reserved": 0, "lon": -77.03438516666667}, {"fusion_lat": 0.0, "name": "4fad5c21978102b11656a2e82b5ff8b5", "is_disabled": 0, "rental_uris": {"android": "https://dc.lft.to/lastmile_qr_scan", "ios": "https://dc.lft.to/lastmile_qr_scan"}, "fusion_lon": 0.0, "lat": 38.884894, "bike_id": "4fad5c21978102b11656a2e82b5ff8b5", "type": "electric_scooter", "is_reserved": 0, "lon": -77.00704133333333}, {"fusion_lat": 0.0, "name": "ac2abcdc5257f94f57793d84116eb2ee", "is_disabled": 0, "rental_uris": {"android": "https://dc.lft.to/lastmile_qr_scan", "ios": "https://dc.lft.to/lastmile_qr_scan"}, "fusion_lon": 0.0, "lat": 38.92253066666667, "bike_id": "ac2abcdc5257f94f57793d84116eb2ee", "type": "electric_scooter", "is_reserved": 0, "lon": -77.042037}, {"fusion_lat": 0.0, "name": "dcc4ecba5104742e89fb18fe8b6ba831", "is_disabled": 0, "rental_uris": {"android": "https://dc.lft.to/lastmile_qr_scan", "ios": "https://dc.lft.to/lastmile_qr_scan"}, "fusion_lon": 0.0, "lat": 38.89998116666666, "bike_id": "dcc4ecba5104742e89fb18fe8b6ba831", "type": "electric_scooter", "is_reserved": 0, "lon": -77.0065055}, {"fusion_lat": 0.0, "name": "b482466f700507d403852ed1ff419a48", "is_disabled": 0, "rental_uris": {"android": "https://dc.lft.to/lastmile_qr_scan", "ios": "https://dc.lft.to/lastmile_qr_scan"}, "fusion_lon": 0.0, "lat": 38.842820333333336, "bike_id": "b482466f700507d403852ed1ff419a48", "type": "electric_bike", "is_reserved": 0, "lon": -77.04502633333334}, {"fusion_lat": 0.0, "name": "69d23deb2037f751043d45c81b22ebb7", "is_disabled": 0, "rental_uris": {"android": "https://dc.lft.to/lastmile_qr_scan", "ios": "https://dc.lft.to/lastmile_qr_scan"}, "fusion_lon": 0.0, "lat": 38.897358, "bike_id": "69d23deb2037f751043d45c81b22ebb7", "type": "electric_scooter", "is_reserved": 0, "lon": -77.04348433333334}, {"fusion_lat": 0.0, "name": "38d9915c60ba4117443f50b558573fac", "is_disabled": 0, "rental_uris": {"android": "https://dc.lft.to/lastmile_qr_scan", "ios": "https://dc.lft.to/lastmile_qr_scan"}, "fusion_lon": 0.0, "lat": 38.93529433333333, "bike_id": "38d9915c60ba4117443f50b558573fac", "type": "electric_scooter", "is_reserved": 0, "lon": -77.03648533333333}, {"fusion_lat": 0.0, "name": "1c940bffb64117eec42c98a7bdb08d30", "is_disabled": 0, "rental_uris": {"android": "https://dc.lft.to/lastmile_qr_scan", "ios": "https://dc.lft.to/lastmile_qr_scan"}, "fusion_lon": 0.0, "lat": 38.928327833333334, "bike_id": "1c940bffb64117eec42c98a7bdb08d30", "type": "electric_scooter", "is_reserved": 0, "lon": -77.03285266666667}, {"fusion_lat": 0.0, "name": "c332e783f91a861c9d7eb5450aa2cbf2", "is_disabled": 0, "rental_uris": {"android": "https://dc.lft.to/lastmile_qr_scan", "ios": "https://dc.lft.to/lastmile_qr_scan"}, "fusion_lon": 0.0, "lat": 38.93461383333333, "bike_id": "c332e783f91a861c9d7eb5450aa2cbf2", "type": "electric_scooter", "is_reserved": 0, "lon": -77.04119466666667}, {"fusion_lat": 0.0, "name": "d3ee406b4e86db677d94cfbb7ddad9c8", "is_disabled": 0, "rental_uris": {"android": "https://dc.lft.to/lastmile_qr_scan", "ios": "https://dc.lft.to/lastmile_qr_scan"}, "fusion_lon": 0.0, "lat": 38.90002716666667, "bike_id": "d3ee406b4e86db677d94cfbb7ddad9c8", "type": "electric_scooter", "is_reserved": 0, "lon": -76.9315295}, {"fusion_lat": 0.0, "name": "cfb027f40c0cd6fcb271ecf37231479f", "is_disabled": 0, "rental_uris": {"android": "https://dc.lft.to/lastmile_qr_scan", "ios": "https://dc.lft.to/lastmile_qr_scan"}, "fusion_lon": 0.0, "lat": 38.90096883333333, "bike_id": "cfb027f40c0cd6fcb271ecf37231479f", "type": "electric_bike", "is_reserved": 0, "lon": -76.97681216666666}, {"fusion_lat": 0.0, "name": "f74af356f9b36b69d060366daf953e26", "is_disabled": 0, "rental_uris": {"android": "https://dc.lft.to/lastmile_qr_scan", "ios": "https://dc.lft.to/lastmile_qr_scan"}, "fusion_lon": 0.0, "lat": 38.8995635, "bike_id": "f74af356f9b36b69d060366daf953e26", "type": "electric_scooter", "is_reserved": 0, "lon": -77.0162395}, {"fusion_lat": 0.0, "name": "f554b8cdc2ec02ef50a7b49934b6c76b", "is_disabled": 0, "rental_uris": {"android": "https://dc.lft.to/lastmile_qr_scan", "ios": "https://dc.lft.to/lastmile_qr_scan"}, "fusion_lon": 0.0, "lat": 38.91694366666667, "bike_id": "f554b8cdc2ec02ef50a7b49934b6c76b", "type": "electric_scooter", "is_reserved": 0, "lon": -77.04146483333334}, {"fusion_lat": 0.0, "name": "6267a1e727a2f9b2d4d3ce261e072f24", "is_disabled": 0, "rental_uris": {"android": "https://dc.lft.to/lastmile_qr_scan", "ios": "https://dc.lft.to/lastmile_qr_scan"}, "fusion_lon": 0.0, "lat": 38.89993533333333, "bike_id": "6267a1e727a2f9b2d4d3ce261e072f24", "type": "electric_scooter", "is_reserved": 0, "lon": -76.9843555}, {"fusion_lat": 0.0, "name": "ca4cde608156938627ccab6ce1f540b0", "is_disabled": 0, "rental_uris": {"android": "https://dc.lft.to/lastmile_qr_scan", "ios": "https://dc.lft.to/lastmile_qr_scan"}, "fusion_lon": 0.0, "lat": 38.92844083333333, "bike_id": "ca4cde608156938627ccab6ce1f540b0", "type": "electric_scooter", "is_reserved": 0, "lon": -77.05970833333333}, {"fusion_lat": 0.0, "name": "d14d0a94589658bdf5fee40a9001fabd", "is_disabled": 0, "rental_uris": {"android": "https://dc.lft.to/lastmile_qr_scan", "ios": "https://dc.lft.to/lastmile_qr_scan"}, "fusion_lon": 0.0, "lat": 39.036055166666664, "bike_id": "d14d0a94589658bdf5fee40a9001fabd", "type": "electric_bike", "is_reserved": 0, "lon": -77.0554015}, {"fusion_lat": 0.0, "name": "c7a8dc6f7964186e350c3c11a0166255", "is_disabled": 0, "rental_uris": {"android": "https://dc.lft.to/lastmile_qr_scan", "ios": "https://dc.lft.to/lastmile_qr_scan"}, "fusion_lon": 0.0, "lat": 38.92417483333333, "bike_id": "c7a8dc6f7964186e350c3c11a0166255", "type": "electric_scooter", "is_reserved": 0, "lon": -77.03634166666667}, {"fusion_lat": 0.0, "name": "1491adddedcfad7db2e956946db32109", "is_disabled": 0, "rental_uris": {"android": "https://dc.lft.to/lastmile_qr_scan", "ios": "https://dc.lft.to/lastmile_qr_scan"}, "fusion_lon": 0.0, "lat": 38.9182015, "bike_id": "1491adddedcfad7db2e956946db32109", "type": "electric_scooter", "is_reserved": 0, "lon": -77.02477883333333}, {"fusion_lat": 0.0, "name": "6433b49170a3941d0f08752f724bb3c2", "is_disabled": 0, "rental_uris": {"android": "https://dc.lft.to/lastmile_qr_scan", "ios": "https://dc.lft.to/lastmile_qr_scan"}, "fusion_lon": 0.0, "lat": 38.92362116666666, "bike_id": "6433b49170a3941d0f08752f724bb3c2", "type": "electric_scooter", "is_reserved": 0, "lon": -77.04326666666667}, {"fusion_lat": 0.0, "name": "a5dab786a4a2ae11aee1b1ff5b94f479", "is_disabled": 0, "rental_uris": {"android": "https://dc.lft.to/lastmile_qr_scan", "ios": "https://dc.lft.to/lastmile_qr_scan"}, "fusion_lon": 0.0, "lat": 38.918197666666664, "bike_id": "a5dab786a4a2ae11aee1b1ff5b94f479", "type": "electric_scooter", "is_reserved": 0, "lon": -77.02654233333334}, {"fusion_lat": 0.0, "name": "01dfedc6202d73db6374e4668d5471bd", "is_disabled": 0, "rental_uris": {"android": "https://dc.lft.to/lastmile_qr_scan", "ios": "https://dc.lft.to/lastmile_qr_scan"}, "fusion_lon": 0.0, "lat": 38.91694733333333, "bike_id": "01dfedc6202d73db6374e4668d5471bd", "type": "electric_scooter", "is_reserved": 0, "lon": -77.0410775}, {"fusion_lat": 0.0, "name": "40bebb4bfec3e23aefc8d0c71cdcbab3", "is_disabled": 0, "rental_uris": {"android": "https://dc.lft.to/lastmile_qr_scan", "ios": "https://dc.lft.to/lastmile_qr_scan"}, "fusion_lon": 0.0, "lat": 38.906137333333334, "bike_id": "40bebb4bfec3e23aefc8d0c71cdcbab3", "type": "electric_scooter", "is_reserved": 0, "lon": -77.05897266666666}, {"fusion_lat": 0.0, "name": "f500fff8c96a0064bcc83053fcf8bb4a", "is_disabled": 0, "rental_uris": {"android": "https://dc.lft.to/lastmile_qr_scan", "ios": "https://dc.lft.to/lastmile_qr_scan"}, "fusion_lon": 0.0, "lat": 38.87631366666667, "bike_id": "f500fff8c96a0064bcc83053fcf8bb4a", "type": "electric_scooter", "is_reserved": 0, "lon": -77.0012375}, {"fusion_lat": 0.0, "name": "19c13d98e6b37d55530481af8e8b9b1b", "is_disabled": 0, "rental_uris": {"android": "https://dc.lft.to/lastmile_qr_scan", "ios": "https://dc.lft.to/lastmile_qr_scan"}, "fusion_lon": 0.0, "lat": 38.909400833333336, "bike_id": "19c13d98e6b37d55530481af8e8b9b1b", "type": "electric_scooter", "is_reserved": 0, "lon": -77.02814083333334}, {"fusion_lat": 0.0, "name": "50497a853de64ce83e98ed8e44fb5a09", "is_disabled": 0, "rental_uris": {"android": "https://dc.lft.to/lastmile_qr_scan", "ios": "https://dc.lft.to/lastmile_qr_scan"}, "fusion_lon": 0.0, "lat": 38.906254, "bike_id": "50497a853de64ce83e98ed8e44fb5a09", "type": "electric_scooter", "is_reserved": 0, "lon": -77.0503565}, {"fusion_lat": 0.0, "name": "a399b8f0d24308acb715f65df1b0c69d", "is_disabled": 0, "rental_uris": {"android": "https://dc.lft.to/lastmile_qr_scan", "ios": "https://dc.lft.to/lastmile_qr_scan"}, "fusion_lon": 0.0, "lat": 38.922210166666666, "bike_id": "a399b8f0d24308acb715f65df1b0c69d", "type": "electric_scooter", "is_reserved": 0, "lon": -76.98376016666667}, {"fusion_lat": 0.0, "name": "2a26f2ea6bd8879a1f0dd994227175db", "is_disabled": 0, "rental_uris": {"android": "https://dc.lft.to/lastmile_qr_scan", "ios": "https://dc.lft.to/lastmile_qr_scan"}, "fusion_lon": 0.0, "lat": 38.93966316666667, "bike_id": "2a26f2ea6bd8879a1f0dd994227175db", "type": "electric_scooter", "is_reserved": 0, "lon": -77.032514}, {"fusion_lat": 0.0, "name": "310ebc218614aae2efe6f40f08b543d8", "is_disabled": 0, "rental_uris": {"android": "https://dc.lft.to/lastmile_qr_scan", "ios": "https://dc.lft.to/lastmile_qr_scan"}, "fusion_lon": 0.0, "lat": 38.9064625, "bike_id": "310ebc218614aae2efe6f40f08b543d8", "type": "electric_scooter", "is_reserved": 0, "lon": -77.01412066666667}, {"fusion_lat": 0.0, "name": "53b7445ca9b5eef64c7a4687f1478da8", "is_disabled": 0, "rental_uris": {"android": "https://dc.lft.to/lastmile_qr_scan", "ios": "https://dc.lft.to/lastmile_qr_scan"}, "fusion_lon": 0.0, "lat": 38.9234525, "bike_id": "53b7445ca9b5eef64c7a4687f1478da8", "type": "electric_scooter", "is_reserved": 0, "lon": -77.02013883333333}, {"fusion_lat": 0.0, "name": "36023e7f5ceb26942cb860d66331947b", "is_disabled": 0, "rental_uris": {"android": "https://dc.lft.to/lastmile_qr_scan", "ios": "https://dc.lft.to/lastmile_qr_scan"}, "fusion_lon": 0.0, "lat": 38.9332265, "bike_id": "36023e7f5ceb26942cb860d66331947b", "type": "electric_scooter", "is_reserved": 0, "lon": -77.0341955}, {"fusion_lat": 0.0, "name": "3f2d85b7da8221c2f4c1951cbc62037b", "is_disabled": 0, "rental_uris": {"android": "https://dc.lft.to/lastmile_qr_scan", "ios": "https://dc.lft.to/lastmile_qr_scan"}, "fusion_lon": 0.0, "lat": 38.897330333333336, "bike_id": "3f2d85b7da8221c2f4c1951cbc62037b", "type": "electric_scooter", "is_reserved": 0, "lon": -77.0219125}, {"fusion_lat": 0.0, "name": "006418cd87fdc8c915544295481efdcf", "is_disabled": 0, "rental_uris": {"android": "https://dc.lft.to/lastmile_qr_scan", "ios": "https://dc.lft.to/lastmile_qr_scan"}, "fusion_lon": 0.0, "lat": 38.92355233333333, "bike_id": "006418cd87fdc8c915544295481efdcf", "type": "electric_scooter", "is_reserved": 0, "lon": -77.019519}, {"fusion_lat": 0.0, "name": "33dcce2b6857a437417d84bc52d88131", "is_disabled": 0, "rental_uris": {"android": "https://dc.lft.to/lastmile_qr_scan", "ios": "https://dc.lft.to/lastmile_qr_scan"}, "fusion_lon": 0.0, "lat": 38.91343633333334, "bike_id": "33dcce2b6857a437417d84bc52d88131", "type": "electric_scooter", "is_reserved": 0, "lon": -77.04229783333334}, {"fusion_lat": 0.0, "name": "69b8249d317f8c781d94bea939300ff7", "is_disabled": 0, "rental_uris": {"android": "https://dc.lft.to/lastmile_qr_scan", "ios": "https://dc.lft.to/lastmile_qr_scan"}, "fusion_lon": 0.0, "lat": 38.873106666666665, "bike_id": "69b8249d317f8c781d94bea939300ff7", "type": "electric_bike", "is_reserved": 0, "lon": -77.01098216666666}, {"fusion_lat": 0.0, "name": "3c0e9f4e1326831d229e68509be0a5ff", "is_disabled": 0, "rental_uris": {"android": "https://dc.lft.to/lastmile_qr_scan", "ios": "https://dc.lft.to/lastmile_qr_scan"}, "fusion_lon": 0.0, "lat": 38.922255166666666, "bike_id": "3c0e9f4e1326831d229e68509be0a5ff", "type": "electric_scooter", "is_reserved": 0, "lon": -77.0412625}, {"fusion_lat": 0.0, "name": "0c9f8831c248fafed960ed431528d8b0", "is_disabled": 0, "rental_uris": {"android": "https://dc.lft.to/lastmile_qr_scan", "ios": "https://dc.lft.to/lastmile_qr_scan"}, "fusion_lon": 0.0, "lat": 38.9353005, "bike_id": "0c9f8831c248fafed960ed431528d8b0", "type": "electric_scooter", "is_reserved": 0, "lon": -77.02417433333333}, {"fusion_lat": 0.0, "name": "53d22edff7347a7930e71aa48712bb09", "is_disabled": 0, "rental_uris": {"android": "https://dc.lft.to/lastmile_qr_scan", "ios": "https://dc.lft.to/lastmile_qr_scan"}, "fusion_lon": 0.0, "lat": 38.9285255, "bike_id": "53d22edff7347a7930e71aa48712bb09", "type": "electric_scooter", "is_reserved": 0, "lon": -76.99767083333333}, {"fusion_lat": 0.0, "name": "74165f8da0421ad8f0153dbcd1ec4936", "is_disabled": 0, "rental_uris": {"android": "https://dc.lft.to/lastmile_qr_scan", "ios": "https://dc.lft.to/lastmile_qr_scan"}, "fusion_lon": 0.0, "lat": 38.904373166666666, "bike_id": "74165f8da0421ad8f0153dbcd1ec4936", "type": "electric_scooter", "is_reserved": 0, "lon": -77.03453866666666}, {"fusion_lat": 0.0, "name": "86edf6dd7fab1e2547d39ff1f1937ba7", "is_disabled": 0, "rental_uris": {"android": "https://dc.lft.to/lastmile_qr_scan", "ios": "https://dc.lft.to/lastmile_qr_scan"}, "fusion_lon": 0.0, "lat": 38.948361166666665, "bike_id": "86edf6dd7fab1e2547d39ff1f1937ba7", "type": "electric_scooter", "is_reserved": 0, "lon": -77.02568216666667}, {"fusion_lat": 0.0, "name": "20c20f086900bbc2f47123ae310fee7b", "is_disabled": 0, "rental_uris": {"android": "https://dc.lft.to/lastmile_qr_scan", "ios": "https://dc.lft.to/lastmile_qr_scan"}, "fusion_lon": 0.0, "lat": 39.002952, "bike_id": "20c20f086900bbc2f47123ae310fee7b", "type": "electric_bike", "is_reserved": 0, "lon": -76.90291683333334}, {"fusion_lat": 0.0, "name": "b0516300b1d47bd86be0c864ce52dac7", "is_disabled": 0, "rental_uris": {"android": "https://dc.lft.to/lastmile_qr_scan", "ios": "https://dc.lft.to/lastmile_qr_scan"}, "fusion_lon": 0.0, "lat": 38.92021583333333, "bike_id": "b0516300b1d47bd86be0c864ce52dac7", "type": "electric_scooter", "is_reserved": 0, "lon": -77.02801983333333}, {"fusion_lat": 0.0, "name": "c41bdb6fbaa710492be9ddbd32cdc726", "is_disabled": 0, "rental_uris": {"android": "https://dc.lft.to/lastmile_qr_scan", "ios": "https://dc.lft.to/lastmile_qr_scan"}, "fusion_lon": 0.0, "lat": 38.9210045, "bike_id": "c41bdb6fbaa710492be9ddbd32cdc726", "type": "electric_scooter", "is_reserved": 0, "lon": -77.04680083333334}, {"fusion_lat": 0.0, "name": "11512528c20ac6deb94c331c95d22d0f", "is_disabled": 0, "rental_uris": {"android": "https://dc.lft.to/lastmile_qr_scan", "ios": "https://dc.lft.to/lastmile_qr_scan"}, "fusion_lon": 0.0, "lat": 38.938036333333336, "bike_id": "11512528c20ac6deb94c331c95d22d0f", "type": "electric_scooter", "is_reserved": 0, "lon": -77.06857166666667}, {"fusion_lat": 0.0, "name": "ac29b02c1cb18097daa007d1a1539f71", "is_disabled": 0, "rental_uris": {"android": "https://dc.lft.to/lastmile_qr_scan", "ios": "https://dc.lft.to/lastmile_qr_scan"}, "fusion_lon": 0.0, "lat": 38.947615, "bike_id": "ac29b02c1cb18097daa007d1a1539f71", "type": "electric_bike", "is_reserved": 0, "lon": -77.03281766666667}, {"fusion_lat": 0.0, "name": "c83c3951a268bf1316b52ef632ac9105", "is_disabled": 0, "rental_uris": {"android": "https://dc.lft.to/lastmile_qr_scan", "ios": "https://dc.lft.to/lastmile_qr_scan"}, "fusion_lon": 0.0, "lat": 38.944745166666664, "bike_id": "c83c3951a268bf1316b52ef632ac9105", "type": "electric_scooter", "is_reserved": 0, "lon": -77.02356183333333}, {"fusion_lat": 0.0, "name": "5e4e7b5153a93cf5e0640e3f4524be84", "is_disabled": 0, "rental_uris": {"android": "https://dc.lft.to/lastmile_qr_scan", "ios": "https://dc.lft.to/lastmile_qr_scan"}, "fusion_lon": 0.0, "lat": 38.91551483333333, "bike_id": "5e4e7b5153a93cf5e0640e3f4524be84", "type": "electric_scooter", "is_reserved": 0, "lon": -77.04150316666667}, {"fusion_lat": 0.0, "name": "b30591da5ac1fbfb2e94468de8303453", "is_disabled": 0, "rental_uris": {"android": "https://dc.lft.to/lastmile_qr_scan", "ios": "https://dc.lft.to/lastmile_qr_scan"}, "fusion_lon": 0.0, "lat": 38.88099, "bike_id": "b30591da5ac1fbfb2e94468de8303453", "type": "electric_scooter", "is_reserved": 0, "lon": -76.986671}, {"fusion_lat": 0.0, "name": "ec601c9b36fdc541f9d5c2900b859ca9", "is_disabled": 0, "rental_uris": {"android": "https://dc.lft.to/lastmile_qr_scan", "ios": "https://dc.lft.to/lastmile_qr_scan"}, "fusion_lon": 0.0, "lat": 38.83542216666667, "bike_id": "ec601c9b36fdc541f9d5c2900b859ca9", "type": "electric_bike", "is_reserved": 0, "lon": -76.987281}, {"fusion_lat": 0.0, "name": "f1f5b4ed2d1f47c2e29207c3d7e9ef02", "is_disabled": 0, "rental_uris": {"android": "https://dc.lft.to/lastmile_qr_scan", "ios": "https://dc.lft.to/lastmile_qr_scan"}, "fusion_lon": 0.0, "lat": 38.886116, "bike_id": "f1f5b4ed2d1f47c2e29207c3d7e9ef02", "type": "electric_scooter", "is_reserved": 0, "lon": -77.01553033333333}, {"fusion_lat": 0.0, "name": "4cd6ee0485b7a8dbc4dfba046627d810", "is_disabled": 0, "rental_uris": {"android": "https://dc.lft.to/lastmile_qr_scan", "ios": "https://dc.lft.to/lastmile_qr_scan"}, "fusion_lon": 0.0, "lat": 38.932590833333336, "bike_id": "4cd6ee0485b7a8dbc4dfba046627d810", "type": "electric_scooter", "is_reserved": 0, "lon": -77.034533}, {"fusion_lat": 0.0, "name": "bd6ad2637435d6b1adfdfca00a5abe24", "is_disabled": 0, "rental_uris": {"android": "https://dc.lft.to/lastmile_qr_scan", "ios": "https://dc.lft.to/lastmile_qr_scan"}, "fusion_lon": 0.0, "lat": 38.934301166666664, "bike_id": "bd6ad2637435d6b1adfdfca00a5abe24", "type": "electric_scooter", "is_reserved": 0, "lon": -77.039948}, {"fusion_lat": 0.0, "name": "ef2a1053ca4596063826cdd809471da8", "is_disabled": 0, "rental_uris": {"android": "https://dc.lft.to/lastmile_qr_scan", "ios": "https://dc.lft.to/lastmile_qr_scan"}, "fusion_lon": 0.0, "lat": 38.923916166666665, "bike_id": "ef2a1053ca4596063826cdd809471da8", "type": "electric_scooter", "is_reserved": 0, "lon": -77.0365675}, {"fusion_lat": 0.0, "name": "35e024deb21561bba36bba548b25f46a", "is_disabled": 0, "rental_uris": {"android": "https://dc.lft.to/lastmile_qr_scan", "ios": "https://dc.lft.to/lastmile_qr_scan"}, "fusion_lon": 0.0, "lat": 38.89239883333333, "bike_id": "35e024deb21561bba36bba548b25f46a", "type": "electric_scooter", "is_reserved": 0, "lon": -77.03348366666667}, {"fusion_lat": 0.0, "name": "420c2b1436e33e77b079abcd907ad4e2", "is_disabled": 0, "rental_uris": {"android": "https://dc.lft.to/lastmile_qr_scan", "ios": "https://dc.lft.to/lastmile_qr_scan"}, "fusion_lon": 0.0, "lat": 38.9006785, "bike_id": "420c2b1436e33e77b079abcd907ad4e2", "type": "electric_scooter", "is_reserved": 0, "lon": -76.9339275}, {"fusion_lat": 0.0, "name": "677559ab48eacb3683889a3d388c32b5", "is_disabled": 0, "rental_uris": {"android": "https://dc.lft.to/lastmile_qr_scan", "ios": "https://dc.lft.to/lastmile_qr_scan"}, "fusion_lon": 0.0, "lat": 38.92238666666667, "bike_id": "677559ab48eacb3683889a3d388c32b5", "type": "electric_scooter", "is_reserved": 0, "lon": -77.04241216666667}, {"fusion_lat": 0.0, "name": "cd7156352004f7e80748cca2a130feaa", "is_disabled": 0, "rental_uris": {"android": "https://dc.lft.to/lastmile_qr_scan", "ios": "https://dc.lft.to/lastmile_qr_scan"}, "fusion_lon": 0.0, "lat": 38.9482635, "bike_id": "cd7156352004f7e80748cca2a130feaa", "type": "electric_scooter", "is_reserved": 0, "lon": -77.02617233333334}, {"fusion_lat": 0.0, "name": "7a98dfeffb9d9793b3642211d87ca90c", "is_disabled": 0, "rental_uris": {"android": "https://dc.lft.to/lastmile_qr_scan", "ios": "https://dc.lft.to/lastmile_qr_scan"}, "fusion_lon": 0.0, "lat": 38.90567933333333, "bike_id": "7a98dfeffb9d9793b3642211d87ca90c", "type": "electric_scooter", "is_reserved": 0, "lon": -77.00589333333333}, {"fusion_lat": 0.0, "name": "a017b8ccf4d78a294dc1dea58d06e929", "is_disabled": 0, "rental_uris": {"android": "https://dc.lft.to/lastmile_qr_scan", "ios": "https://dc.lft.to/lastmile_qr_scan"}, "fusion_lon": 0.0, "lat": 38.9157415, "bike_id": "a017b8ccf4d78a294dc1dea58d06e929", "type": "electric_scooter", "is_reserved": 0, "lon": -77.03219333333334}, {"fusion_lat": 0.0, "name": "fc630c0bbfce9f0a5e3e462e83370381", "is_disabled": 0, "rental_uris": {"android": "https://dc.lft.to/lastmile_qr_scan", "ios": "https://dc.lft.to/lastmile_qr_scan"}, "fusion_lon": 0.0, "lat": 38.879162, "bike_id": "fc630c0bbfce9f0a5e3e462e83370381", "type": "electric_scooter", "is_reserved": 0, "lon": -77.00902433333333}, {"fusion_lat": 0.0, "name": "94a33a0d5904e7aa94d719aadea714b0", "is_disabled": 0, "rental_uris": {"android": "https://dc.lft.to/lastmile_qr_scan", "ios": "https://dc.lft.to/lastmile_qr_scan"}, "fusion_lon": 0.0, "lat": 38.9248175, "bike_id": "94a33a0d5904e7aa94d719aadea714b0", "type": "electric_scooter", "is_reserved": 0, "lon": -77.02649933333333}, {"fusion_lat": 0.0, "name": "7a8999f883212931786b66733dc316a3", "is_disabled": 0, "rental_uris": {"android": "https://dc.lft.to/lastmile_qr_scan", "ios": "https://dc.lft.to/lastmile_qr_scan"}, "fusion_lon": 0.0, "lat": 38.9326125, "bike_id": "7a8999f883212931786b66733dc316a3", "type": "electric_scooter", "is_reserved": 0, "lon": -77.03267566666666}, {"fusion_lat": 0.0, "name": "edefc63ea94d24ca8471027eb4e4eabb", "is_disabled": 0, "rental_uris": {"android": "https://dc.lft.to/lastmile_qr_scan", "ios": "https://dc.lft.to/lastmile_qr_scan"}, "fusion_lon": 0.0, "lat": 38.95883583333333, "bike_id": "edefc63ea94d24ca8471027eb4e4eabb", "type": "electric_scooter", "is_reserved": 0, "lon": -77.01161533333334}, {"fusion_lat": 0.0, "name": "3e6400d3d42bba0ae2a807fdad30df43", "is_disabled": 0, "rental_uris": {"android": "https://dc.lft.to/lastmile_qr_scan", "ios": "https://dc.lft.to/lastmile_qr_scan"}, "fusion_lon": 0.0, "lat": 38.9189, "bike_id": "3e6400d3d42bba0ae2a807fdad30df43", "type": "electric_scooter", "is_reserved": 0, "lon": -77.02348966666666}, {"fusion_lat": 0.0, "name": "8a3b0b0a881d989d3211e4b25299f407", "is_disabled": 0, "rental_uris": {"android": "https://dc.lft.to/lastmile_qr_scan", "ios": "https://dc.lft.to/lastmile_qr_scan"}, "fusion_lon": 0.0, "lat": 38.876605833333336, "bike_id": "8a3b0b0a881d989d3211e4b25299f407", "type": "electric_scooter", "is_reserved": 0, "lon": -77.00916466666666}, {"fusion_lat": 0.0, "name": "7a0fa3660f91da0eb8d074bcd2a47532", "is_disabled": 0, "rental_uris": {"android": "https://dc.lft.to/lastmile_qr_scan", "ios": "https://dc.lft.to/lastmile_qr_scan"}, "fusion_lon": 0.0, "lat": 38.9098165, "bike_id": "7a0fa3660f91da0eb8d074bcd2a47532", "type": "electric_scooter", "is_reserved": 0, "lon": -77.0229165}, {"fusion_lat": 0.0, "name": "6531b3509304494a719c6f0eeca979c3", "is_disabled": 0, "rental_uris": {"android": "https://dc.lft.to/lastmile_qr_scan", "ios": "https://dc.lft.to/lastmile_qr_scan"}, "fusion_lon": 0.0, "lat": 38.91555666666667, "bike_id": "6531b3509304494a719c6f0eeca979c3", "type": "electric_scooter", "is_reserved": 0, "lon": -77.03220783333333}, {"fusion_lat": 0.0, "name": "a1a50313411aa7dd3166ba899e6632c3", "is_disabled": 0, "rental_uris": {"android": "https://dc.lft.to/lastmile_qr_scan", "ios": "https://dc.lft.to/lastmile_qr_scan"}, "fusion_lon": 0.0, "lat": 38.9248785, "bike_id": "a1a50313411aa7dd3166ba899e6632c3", "type": "electric_scooter", "is_reserved": 0, "lon": -77.0254665}, {"fusion_lat": 0.0, "name": "a69d865dbb1ac7e01f4ec5ea1a0bd5e4", "is_disabled": 0, "rental_uris": {"android": "https://dc.lft.to/lastmile_qr_scan", "ios": "https://dc.lft.to/lastmile_qr_scan"}, "fusion_lon": 0.0, "lat": 38.88230016666667, "bike_id": "a69d865dbb1ac7e01f4ec5ea1a0bd5e4", "type": "electric_scooter", "is_reserved": 0, "lon": -77.02614033333333},