{"data": {"bikes": [{"is_disabled": 0, "fusion_lon": 0.0, "fusion_lat": 0.0, "lat": 38.864630166666664, "type": "electric_scooter", "lon": -76.99613816666667, "bike_id": "542ca4281b4874dae5217449b0749f4c", "rental_uris": {"android": "https://dc.lft.to/lastmile_qr_scan", "ios": "https://dc.lft.to/lastmile_qr_scan"}, "name": "542ca4281b4874dae5217449b0749f4c", "is_reserved": 0}, {"is_disabled": 0, "fusion_lon": 0.0, "fusion_lat": 0.0, "lat": 38.904689166666664, "type": "electric_scooter", "lon": -77.0060355, "bike_id": "93ff5bde276c06b7c8764ae4b402432d", "rental_uris": {"android": "https://dc.lft.to/lastmile_qr_scan", "ios": "https://dc.lft.to/lastmile_qr_scan"}, "name": "93ff5bde276c06b7c8764ae4b402432d", "is_reserved": 0}, {"is_disabled": 0, "fusion_lon": 0.0, "fusion_lat": 0.0, "lat": 38.918070166666666, "type": "electric_scooter", "lon": -77.03567583333333, "bike_id": "3b34576cb38e44485108e962d6d2c460", "rental_uris": {"android": "https://dc.lft.to/lastmile_qr_scan", "ios": "https://dc.lft.to/lastmile_qr_scan"}, "name": "3b34576cb38e44485108e962d6d2c460", "is_reserved": 0}, {"is_disabled": 0, "fusion_lon": 0.0, "fusion_lat": 0.0, "lat": 38.9111685, "type": "electric_scooter", "lon": -77.0386995, "bike_id": "c7019d989098b47770799be68df34fae", "rental_uris": {"android": "https://dc.lft.to/lastmile_qr_scan", "ios": "https://dc.lft.to/lastmile_qr_scan"}, "name": "c7019d989098b47770799be68df34fae", "is_reserved": 0}, {"is_disabled": 0, "fusion_lon": 0.0, "fusion_lat": 0.0, "lat": 38.92486433333333, "type": "electric_scooter", "lon": -77.03935216666666, "bike_id": "1f69252be321d20967489f9c57d0a5c2", "rental_uris": {"android": "https://dc.lft.to/lastmile_qr_scan", "ios": "https://dc.lft.to/lastmile_qr_scan"}, "name": "1f69252be321d20967489f9c57d0a5c2", "is_reserved": 0}, {"is_disabled": 0, "fusion_lon": 0.0, "fusion_lat": 0.0, "lat": 38.90834516666666, "type": "electric_scooter", "lon": -77.03474633333333, "bike_id": "de01f4be3b3e607a6248c82569706612", "rental_uris": {"android": "https://dc.lft.to/lastmile_qr_scan", "ios": "https://dc.lft.to/lastmile_qr_scan"}, "name": "de01f4be3b3e607a6248c82569706612", "is_reserved": 0}, {"is_disabled": 0, "fusion_lon": 0.0, "fusion_lat": 0.0, "lat": 38.885829333333334, "type": "electric_scooter", "lon": -77.01225916666667, "bike_id": "387d0bd22827ee1f5e22838fc1d1ae31", "rental_uris": {"android": "https://dc.lft.to/lastmile_qr_scan", "ios": "https://dc.lft.to/lastmile_qr_scan"}, "name": "387d0bd22827ee1f5e22838fc1d1ae31", "is_reserved": 0}, {"is_disabled": 0, "fusion_lon": 0.0, "fusion_lat": 0.0, "lat": 38.8982185, "type": "electric_scooter", "lon": -77.0316635, "bike_id": "50993ffc40114744b49a0a9c2f86167f", "rental_uris": {"android": "https://dc.lft.to/lastmile_qr_scan", "ios": "https://dc.lft.to/lastmile_qr_scan"}, "name": "50993ffc40114744b49a0a9c2f86167f", "is_reserved": 0}, {"is_disabled": 0, "fusion_lon": 0.0, "fusion_lat": 0.0, "lat": 38.90949966666667, "type": "electric_scooter", "lon": -77.02716566666666, "bike_id": "b1864db65a28aa03eaee58d9d1b5291a", "rental_uris": {"android": "https://dc.lft.to/lastmile_qr_scan", "ios": "https://dc.lft.to/lastmile_qr_scan"}, "name": "b1864db65a28aa03eaee58d9d1b5291a", "is_reserved": 0}, {"is_disabled": 0, "fusion_lon": 0.0, "fusion_lat": 0.0, "lat": 38.88493116666667, "type": "electric_scooter", "lon": -77.020828, "bike_id": "30b3a5c54523749ee2a54f1d551d3060", "rental_uris": {"android": "https://dc.lft.to/lastmile_qr_scan", "ios": "https://dc.lft.to/lastmile_qr_scan"}, "name": "30b3a5c54523749ee2a54f1d551d3060", "is_reserved": 0}, {"is_disabled": 0, "fusion_lon": 0.0, "fusion_lat": 0.0, "lat": 38.93665033333333, "type": "electric_scooter", "lon": -77.05930333333333, "bike_id": "1648431e868148a86924f96c84fb3d6e", "rental_uris": {"android": "https://dc.lft.to/lastmile_qr_scan", "ios": "https://dc.lft.to/lastmile_qr_scan"}, "name": "1648431e868148a86924f96c84fb3d6e", "is_reserved": 0}, {"is_disabled": 0, "fusion_lon": 0.0, "fusion_lat": 0.0, "lat": 38.896157333333335, "type": "electric_scooter", "lon": -77.02669233333333, "bike_id": "c9c74e942fb5374b3bb420f072dc8d3c", "rental_uris": {"android": "https://dc.lft.to/lastmile_qr_scan", "ios": "https://dc.lft.to/lastmile_qr_scan"}, "name": "c9c74e942fb5374b3bb420f072dc8d3c", "is_reserved": 0}, {"is_disabled": 0, "fusion_lon": 0.0, "fusion_lat": 0.0, "lat": 38.8898785, "type": "electric_scooter", "lon": -77.00338533333333, "bike_id": "460ee079bb52752b784cdd8e78be8791", "rental_uris": {"android": "https://dc.lft.to/lastmile_qr_scan", "ios": "https://dc.lft.to/lastmile_qr_scan"}, "name": "460ee079bb52752b784cdd8e78be8791", "is_reserved": 0}, {"is_disabled": 0, "fusion_lon": 0.0, "fusion_lat": 0.0, "lat": 38.93961016666667, "type": "electric_bike", "lon": -77.36089983333333, "bike_id": "f915795da4f8538a5d99d92abd5c06f9", "rental_uris": {"android": "https://dc.lft.to/lastmile_qr_scan", "ios": "https://dc.lft.to/lastmile_qr_scan"}, "name": "f915795da4f8538a5d99d92abd5c06f9", "is_reserved": 0}, {"is_disabled": 0, "fusion_lon": 0.0, "fusion_lat": 0.0, "lat": 38.929703, "type": "electric_scooter", "lon": -77.02800033333334, "bike_id": "f320af81653a232dab77e5ddc5775174", "rental_uris": {"android": "https://dc.lft.to/lastmile_qr_scan", "ios": "https://dc.lft.to/lastmile_qr_scan"}, "name": "f320af81653a232dab77e5ddc5775174", "is_reserved": 0}, {"is_disabled": 0, "fusion_lon": 0.0, "fusion_lat": 0.0, "lat": 38.924617833333336, "type": "electric_scooter", "lon": -77.07864216666667, "bike_id": "3eb4d3faf06800b96645900d0df5bc63", "rental_uris": {"android": "https://dc.lft.to/lastmile_qr_scan", "ios": "https://dc.lft.to/lastmile_qr_scan"}, "name": "3eb4d3faf06800b96645900d0df5bc63", "is_reserved": 0}, {"is_disabled": 0, "fusion_lon": 0.0, "fusion_lat": 0.0, "lat": 38.9265355, "type": "electric_scooter", "lon": -77.03711533333333, "bike_id": "c85bee00070e3fcbf247820a02f61808", "rental_uris": {"android": "https://dc.lft.to/lastmile_qr_scan", "ios": "https://dc.lft.to/lastmile_qr_scan"}, "name": "c85bee00070e3fcbf247820a02f61808", "is_reserved": 0}, {"is_disabled": 0, "fusion_lon": 0.0, "fusion_lat": 0.0, "lat": 38.87717083333333, "type": "electric_scooter", "lon": -77.01753383333333, "bike_id": "f651e813c838c01c8e72dd9193d31b05", "rental_uris": {"android": "https://dc.lft.to/lastmile_qr_scan", "ios": "https://dc.lft.to/lastmile_qr_scan"}, "name": "f651e813c838c01c8e72dd9193d31b05", "is_reserved": 0}, {"is_disabled": 0, "fusion_lon": 0.0, "fusion_lat": 0.0, "lat": 38.90592866666667, "type": "electric_scooter", "lon": -77.02383466666667, "bike_id": "d523a26743ad11ffbbfab48efb56c569", "rental_uris": {"android": "https://dc.lft.to/lastmile_qr_scan", "ios": "https://dc.lft.to/lastmile_qr_scan"}, "name": "d523a26743ad11ffbbfab48efb56c569", "is_reserved": 0}, {"is_disabled": 0, "fusion_lon": 0.0, "fusion_lat": 0.0, "lat": 38.87751733333333, "type": "electric_bike", "lon": -76.97994066666666, "bike_id": "78cbc96fc60169a2aa793d381ab5d6ba", "rental_uris": {"android": "https://dc.lft.to/lastmile_qr_scan", "ios": "https://dc.lft.to/lastmile_qr_scan"}, "name": "78cbc96fc60169a2aa793d381ab5d6ba", "is_reserved": 0}, {"is_disabled": 0, "fusion_lon": 0.0, "fusion_lat": 0.0, "lat": 38.92289533333334, "type": "electric_scooter", "lon": -77.02965116666667, "bike_id": "f92b0bca58a7930f88f804a071bb7e0b", "rental_uris": {"android": "https://dc.lft.to/lastmile_qr_scan", "ios": "https://dc.lft.to/lastmile_qr_scan"}, "name": "f92b0bca58a7930f88f804a071bb7e0b", "is_reserved": 0}, {"is_disabled": 0, "fusion_lon": 0.0, "fusion_lat": 0.0, "lat": 38.925869, "type": "electric_scooter", "lon": -77.02522883333333, "bike_id": "ccddf70fd2901f93fa96b5557d08a7fd", "rental_uris": {"android": "https://dc.lft.to/lastmile_qr_scan", "ios": "https://dc.lft.to/lastmile_qr_scan"}, "name": "ccddf70fd2901f93fa96b5557d08a7fd", "is_reserved": 0}, {"is_disabled": 0, "fusion_lon": 0.0, "fusion_lat": 0.0, "lat": 38.91467133333333, "type": "electric_scooter", "lon": -76.984465, "bike_id": "930483e13208837638273e07687166e2", "rental_uris": {"android": "https://dc.lft.to/lastmile_qr_scan", "ios": "https://dc.lft.to/lastmile_qr_scan"}, "name": "930483e13208837638273e07687166e2", "is_reserved": 0}, {"is_disabled": 0, "fusion_lon": 0.0, "fusion_lat": 0.0, "lat": 38.9257435, "type": "electric_scooter", "lon": -77.08057416666666, "bike_id": "0b6edfa919f03ad0abfb7313aacb17a1", "rental_uris": {"android": "https://dc.lft.to/lastmile_qr_scan", "ios": "https://dc.lft.to/lastmile_qr_scan"}, "name": "0b6edfa919f03ad0abfb7313aacb17a1", "is_reserved": 0}, {"is_disabled": 0, "fusion_lon": 0.0, "fusion_lat": 0.0, "lat": 38.912064666666666, "type": "electric_scooter", "lon": -77.03841083333333, "bike_id": "e85e7c0c4a64fccc7da3ba4d9bbdb312", "rental_uris": {"android": "https://dc.lft.to/lastmile_qr_scan", "ios": "https://dc.lft.to/lastmile_qr_scan"}, "name": "e85e7c0c4a64fccc7da3ba4d9bbdb312", "is_reserved": 0}, {"is_disabled": 0, "fusion_lon": 0.0, "fusion_lat": 0.0, "lat": 38.87917916666667, "type": "electric_scooter", "lon": -77.0072075, "bike_id": "2e30d3494eae5f23e5dd82edb26a3b61", "rental_uris": {"android": "https://dc.lft.to/lastmile_qr_scan", "ios": "https://dc.lft.to/lastmile_qr_scan"}, "name": "2e30d3494eae5f23e5dd82edb26a3b61", "is_reserved": 0}, {"is_disabled": 0, "fusion_lon": 0.0, "fusion_lat": 0.0, "lat": 38.887329666666666, "type": "electric_scooter", "lon": -77.01532833333333, "bike_id": "e302b198423cea2ee1f740bd1b3d0d64", "rental_uris": {"android": "https://dc.lft.to/lastmile_qr_scan", "ios": "https://dc.lft.to/lastmile_qr_scan"}, "name": "e302b198423cea2ee1f740bd1b3d0d64", "is_reserved": 0}, {"is_disabled": 0, "fusion_lon": 0.0, "fusion_lat": 0.0, "lat": 38.910641166666665, "type": "electric_scooter", "lon": -76.98512066666666, "bike_id": "1c707f4696b87a60253a1ed36070fc74", "rental_uris": {"android": "https://dc.lft.to/lastmile_qr_scan", "ios": "https://dc.lft.to/lastmile_qr_scan"}, "name": "1c707f4696b87a60253a1ed36070fc74", "is_reserved": 0}, {"is_disabled": 0, "fusion_lon": 0.0, "fusion_lat": 0.0, "lat": 38.883949666666666, "type": "electric_bike", "lon": -77.03081833333333, "bike_id": "617fd03fc7c1c769d011dc618ba6e80e", "rental_uris": {"android": "https://dc.lft.to/lastmile_qr_scan", "ios": "https://dc.lft.to/lastmile_qr_scan"}, "name": "617fd03fc7c1c769d011dc618ba6e80e", "is_reserved": 0}, {"is_disabled": 0, "fusion_lon": 0.0, "fusion_lat": 0.0, "lat": 38.8460535, "type": "electric_bike", "lon": -76.96881866666666, "bike_id": "72dfe89f1c5cce38d309d92d82430aea", "rental_uris": {"android": "https://dc.lft.to/lastmile_qr_scan", "ios": "https://dc.lft.to/lastmile_qr_scan"}, "name": "72dfe89f1c5cce38d309d92d82430aea", "is_reserved": 0}, {"is_disabled": 0, "fusion_lon": 0.0, "fusion_lat": 0.0, "lat": 38.93251633333333, "type": "electric_scooter", "lon": -77.0327835, "bike_id": "802efb5a4d26e43153c94c733cf58952", "rental_uris": {"android": "https://dc.lft.to/lastmile_qr_scan", "ios": "https://dc.lft.to/lastmile_qr_scan"}, "name": "802efb5a4d26e43153c94c733cf58952", "is_reserved": 0}, {"is_disabled": 0, "fusion_lon": 0.0, "fusion_lat": 0.0, "lat": 38.95631483333333, "type": "electric_scooter", "lon": -77.02980783333334, "bike_id": "aae849d5de8e95e5090da70cac5864fe", "rental_uris": {"android": "https://dc.lft.to/lastmile_qr_scan", "ios": "https://dc.lft.to/lastmile_qr_scan"}, "name": "aae849d5de8e95e5090da70cac5864fe", "is_reserved": 0}, {"is_disabled": 0, "fusion_lon": 0.0, "fusion_lat": 0.0, "lat": 38.913558333333334, "type": "electric_scooter", "lon": -77.039545, "bike_id": "8d11ae073c02fe0971130d9e0c1a464c", "rental_uris": {"android": "https://dc.lft.to/lastmile_qr_scan", "ios": "https://dc.lft.to/lastmile_qr_scan"}, "name": "8d11ae073c02fe0971130d9e0c1a464c", "is_reserved": 0}, {"is_disabled": 0, "fusion_lon": 0.0, "fusion_lat": 0.0, "lat": 38.91748283333333, "type": "electric_scooter", "lon": -77.02490366666666, "bike_id": "34467745d8ca640375eb339cb4988eb1", "rental_uris": {"android": "https://dc.lft.to/lastmile_qr_scan", "ios": "https://dc.lft.to/lastmile_qr_scan"}, "name": "34467745d8ca640375eb339cb4988eb1", "is_reserved": 0}, {"is_disabled": 0, "fusion_lon": 0.0, "fusion_lat": 0.0, "lat": 38.868593833333335, "type": "electric_bike", "lon": -76.91659466666667, "bike_id": "c5f24c895f51bde9b2b0958d3f020631", "rental_uris": {"android": "https://dc.lft.to/lastmile_qr_scan", "ios": "https://dc.lft.to/lastmile_qr_scan"}, "name": "c5f24c895f51bde9b2b0958d3f020631", "is_reserved": 0}, {"is_disabled": 0, "fusion_lon": 0.0, "fusion_lat": 0.0, "lat": 38.931872, "type": "electric_bike", "lon": -77.22941183333333, "bike_id": "3df6c09b366c3426e72c025d8f9fc263", "rental_uris": {"android": "https://dc.lft.to/lastmile_qr_scan", "ios": "https://dc.lft.to/lastmile_qr_scan"}, "name": "3df6c09b366c3426e72c025d8f9fc263", "is_reserved": 0}, {"is_disabled": 0, "fusion_lon": 0.0, "fusion_lat": 0.0, "lat": 38.90969466666667, "type": "electric_scooter", "lon": -77.02179266666667, "bike_id": "a02a495e3e377a619a8bcb3369d44f6d", "rental_uris": {"android": "https://dc.lft.to/lastmile_qr_scan", "ios": "https://dc.lft.to/lastmile_qr_scan"}, "name": "a02a495e3e377a619a8bcb3369d44f6d", "is_reserved": 0}, {"is_disabled": 0, "fusion_lon": 0.0, "fusion_lat": 0.0, "lat": 38.9528185, "type": "electric_bike", "lon": -77.069748, "bike_id": "2aea98f9abef8b3da39554b8281d9158", "rental_uris": {"android": "https://dc.lft.to/lastmile_qr_scan", "ios": "https://dc.lft.to/lastmile_qr_scan"}, "name": "2aea98f9abef8b3da39554b8281d9158", "is_reserved": 0}, {"is_disabled": 0, "fusion_lon": 0.0, "fusion_lat": 0.0, "lat": 38.950780333333334, "type": "electric_scooter", "lon": -77.02875066666667, "bike_id": "b6b9d090fa885df540e158c69f291324", "rental_uris": {"android": "https://dc.lft.to/lastmile_qr_scan", "ios": "https://dc.lft.to/lastmile_qr_scan"}, "name": "b6b9d090fa885df540e158c69f291324", "is_reserved": 0}, {"is_disabled": 0, "fusion_lon": 0.0, "fusion_lat": 0.0, "lat": 38.914154, "type": "electric_scooter", "lon": -77.039102, "bike_id": "4f95b284edb76a264d171a1b206f7958", "rental_uris": {"android": "https://dc.lft.to/lastmile_qr_scan", "ios": "https://dc.lft.to/lastmile_qr_scan"}, "name": "4f95b284edb76a264d171a1b206f7958", "is_reserved": 0}, {"is_disabled": 0, "fusion_lon": 0.0, "fusion_lat": 0.0, "lat": 38.992517166666666, "type": "electric_bike", "lon": -77.05001816666666, "bike_id": "7a0e14fbf873c0252d30bf52a8e3cd72", "rental_uris": {"android": "https://dc.lft.to/lastmile_qr_scan", "ios": "https://dc.lft.to/lastmile_qr_scan"}, "name": "7a0e14fbf873c0252d30bf52a8e3cd72", "is_reserved": 0}, {"is_disabled": 0, "fusion_lon": 0.0, "fusion_lat": 0.0, "lat": 38.91806366666667, "type": "electric_scooter", "lon": -77.03565033333334, "bike_id": "7b17cf9690ef4ae92d92824fd75d717b", "rental_uris": {"android": "https://dc.lft.to/lastmile_qr_scan", "ios": "https://dc.lft.to/lastmile_qr_scan"}, "name": "7b17cf9690ef4ae92d92824fd75d717b", "is_reserved": 0}, {"is_disabled": 0, "fusion_lon": 0.0, "fusion_lat": 0.0, "lat": 38.9247985, "type": "electric_scooter", "lon": -77.030013, "bike_id": "de5af96910ecd65f250825da9164bc99", "rental_uris": {"android": "https://dc.lft.to/lastmile_qr_scan", "ios": "https://dc.lft.to/lastmile_qr_scan"}, "name": "de5af96910ecd65f250825da9164bc99", "is_reserved": 0}, {"is_disabled": 0, "fusion_lon": 0.0, "fusion_lat": 0.0, "lat": 38.9073165, "type": "electric_scooter", "lon": -77.02362866666667, "bike_id": "fddd8d5b858e560b8943eedca122db6c", "rental_uris": {"android": "https://dc.lft.to/lastmile_qr_scan", "ios": "https://dc.lft.to/lastmile_qr_scan"}, "name": "fddd8d5b858e560b8943eedca122db6c", "is_reserved": 0}, {"is_disabled": 0, "fusion_lon": 0.0, "fusion_lat": 0.0, "lat": 38.93485666666667, "type": "electric_scooter", "lon": -77.02408316666667, "bike_id": "dc5bc51ace120889cdae24bc59f0a3a5", "rental_uris": {"android": "https://dc.lft.to/lastmile_qr_scan", "ios": "https://dc.lft.to/lastmile_qr_scan"}, "name": "dc5bc51ace120889cdae24bc59f0a3a5", "is_reserved": 0}, {"is_disabled": 0, "fusion_lon": 0.0, "fusion_lat": 0.0, "lat": 38.913142, "type": "electric_scooter", "lon": -77.03658533333333, "bike_id": "9cf1db282b27eaf52ce3f5f8bf33a80d", "rental_uris": {"android": "https://dc.lft.to/lastmile_qr_scan", "ios": "https://dc.lft.to/lastmile_qr_scan"}, "name": "9cf1db282b27eaf52ce3f5f8bf33a80d", "is_reserved": 0}, {"is_disabled": 0, "fusion_lon": 0.0, "fusion_lat": 0.0, "lat": 38.92033283333333, "type": "electric_scooter", "lon": -77.01906333333334, "bike_id": "94a4009494109e8f69fae5891a3707ee", "rental_uris": {"android": "https://dc.lft.to/lastmile_qr_scan", "ios": "https://dc.lft.to/lastmile_qr_scan"}, "name": "94a4009494109e8f69fae5891a3707ee", "is_reserved": 0}, {"is_disabled": 0, "fusion_lon": 0.0, "fusion_lat": 0.0, "lat": 38.802980833333336, "type": "electric_bike", "lon": -77.03986533333334, "bike_id": "1be19fc7ba30d906a61dc3f0baacc978", "rental_uris": {"android": "https://dc.lft.to/lastmile_qr_scan", "ios": "https://dc.lft.to/lastmile_qr_scan"}, "name": "1be19fc7ba30d906a61dc3f0baacc978", "is_reserved": 0}, {"is_disabled": 0, "fusion_lon": 0.0, "fusion_lat": 0.0, "lat": 38.88739366666667, "type": "electric_scooter", "lon": -77.015332, "bike_id": "f602afcad45223d40f8b87ad640f6eb6", "rental_uris": {"android": "https://dc.lft.to/lastmile_qr_scan", "ios": "https://dc.lft.to/lastmile_qr_scan"}, "name": "f602afcad45223d40f8b87ad640f6eb6", "is_reserved": 0}, {"is_disabled": 0, "fusion_lon": 0.0, "fusion_lat": 0.0, "lat": 38.91949183333333, "type": "electric_scooter", "lon": -77.01398733333333, "bike_id": "b2f3ad2f7b41a75ab49cf91edd32e345", "rental_uris": {"android": "https://dc.lft.to/lastmile_qr_scan", "ios": "https://dc.lft.to/lastmile_qr_scan"}, "name": "b2f3ad2f7b41a75ab49cf91edd32e345", "is_reserved": 0}, {"is_disabled": 0, "fusion_lon": 0.0, "fusion_lat": 0.0, "lat": 38.92258116666667, "type": "electric_scooter", "lon": -77.03302283333333, "bike_id": "490e6e8de329444fc0234facd930057d", "rental_uris": {"android": "https://dc.lft.to/lastmile_qr_scan", "ios": "https://dc.lft.to/lastmile_qr_scan"}, "name": "490e6e8de329444fc0234facd930057d", "is_reserved": 0}, {"is_disabled": 0, "fusion_lon": 0.0, "fusion_lat": 0.0, "lat": 38.917066166666665, "type": "electric_scooter", "lon": -77.02875766666666, "bike_id": "80ff0a1579e16ded3e15e5e505da839a", "rental_uris": {"android": "https://dc.lft.to/lastmile_qr_scan", "ios": "https://dc.lft.to/lastmile_qr_scan"}, "name": "80ff0a1579e16ded3e15e5e505da839a", "is_reserved": 0}, {"is_disabled": 0, "fusion_lon": 0.0, "fusion_lat": 0.0, "lat": 38.907801666666664, "type": "electric_scooter", "lon": -77.0408155, "bike_id": "d2b3252f45c5bf2afa25cdd10961f006", "rental_uris": {"android": "https://dc.lft.to/lastmile_qr_scan", "ios": "https://dc.lft.to/lastmile_qr_scan"}, "name": "d2b3252f45c5bf2afa25cdd10961f006", "is_reserved": 0}, {"is_disabled": 0, "fusion_lon": 0.0, "fusion_lat": 0.0, "lat": 38.9126935, "type": "electric_scooter", "lon": -77.02228466666666, "bike_id": "e46eb28a36e3586d2d0e21dcdb8e52fd", "rental_uris": {"android": "https://dc.lft.to/lastmile_qr_scan", "ios": "https://dc.lft.to/lastmile_qr_scan"}, "name": "e46eb28a36e3586d2d0e21dcdb8e52fd", "is_reserved": 0}, {"is_disabled": 0, "fusion_lon": 0.0, "fusion_lat": 0.0, "lat": 38.8762675, "type": "electric_scooter", "lon": -76.96530033333333, "bike_id": "f48122d012dc5166803a0da3a68bbb05", "rental_uris": {"android": "https://dc.lft.to/lastmile_qr_scan", "ios": "https://dc.lft.to/lastmile_qr_scan"}, "name": "f48122d012dc5166803a0da3a68bbb05", "is_reserved": 0}, {"is_disabled": 0, "fusion_lon": 0.0, "fusion_lat": 0.0, "lat": 38.907317666666664, "type": "electric_scooter", "lon": -77.02372883333334, "bike_id": "ba776b307f2e7ffd187502685708895e", "rental_uris": {"android": "https://dc.lft.to/lastmile_qr_scan", "ios": "https://dc.lft.to/lastmile_qr_scan"}, "name": "ba776b307f2e7ffd187502685708895e", "is_reserved": 0}, {"is_disabled": 0, "fusion_lon": 0.0, "fusion_lat": 0.0, "lat": 38.898247, "type": "electric_scooter", "lon": -77.02970383333333, "bike_id": "a91b7b93d3e4c431d39572e38f79fb0e", "rental_uris": {"android": "https://dc.lft.to/lastmile_qr_scan", "ios": "https://dc.lft.to/lastmile_qr_scan"}, "name": "a91b7b93d3e4c431d39572e38f79fb0e", "is_reserved": 0}, {"is_disabled": 0, "fusion_lon": 0.0, "fusion_lat": 0.0, "lat": 38.95085566666667, "type": "electric_bike", "lon": -76.96559083333334, "bike_id": "a2d2de6527a879421005226d2a040eb5", "rental_uris": {"android": "https://dc.lft.to/lastmile_qr_scan", "ios": "https://dc.lft.to/lastmile_qr_scan"}, "name": "a2d2de6527a879421005226d2a040eb5", "is_reserved": 0}, {"is_disabled": 0, "fusion_lon": 0.0, "fusion_lat": 0.0, "lat": 38.92206083333333, "type": "electric_bike", "lon": -77.03665333333333, "bike_id": "fe21574b502303a109e581c722f59244", "rental_uris": {"android": "https://dc.lft.to/lastmile_qr_scan", "ios": "https://dc.lft.to/lastmile_qr_scan"}, "name": "fe21574b502303a109e581c722f59244", "is_reserved": 0}, {"is_disabled": 0, "fusion_lon": 0.0, "fusion_lat": 0.0, "lat": 38.8793445, "type": "electric_scooter", "lon": -77.00997483333333, "bike_id": "0f4157ee4bcf76278c0cac4fa639bf70", "rental_uris": {"android": "https://dc.lft.to/lastmile_qr_scan", "ios": "https://dc.lft.to/lastmile_qr_scan"}, "name": "0f4157ee4bcf76278c0cac4fa639bf70", "is_reserved": 0}, {"is_disabled": 0, "fusion_lon": 0.0, "fusion_lat": 0.0, "lat": 38.92127116666666, "type": "electric_scooter", "lon": -77.025258, "bike_id": "109c14f3ecce27fc03253136c5c27cb8", "rental_uris": {"android": "https://dc.lft.to/lastmile_qr_scan", "ios": "https://dc.lft.to/lastmile_qr_scan"}, "name": "109c14f3ecce27fc03253136c5c27cb8", "is_reserved": 0}, {"is_disabled": 0, "fusion_lon": 0.0, "fusion_lat": 0.0, "lat": 38.956111, "type": "electric_scooter", "lon": -77.0276335, "bike_id": "13f5821754d1b54964cf9d39dc08ee98", "rental_uris": {"android": "https://dc.lft.to/lastmile_qr_scan", "ios": "https://dc.lft.to/lastmile_qr_scan"}, "name": "13f5821754d1b54964cf9d39dc08ee98", "is_reserved": 0}, {"is_disabled": 0, "fusion_lon": 0.0, "fusion_lat": 0.0, "lat": 38.866573333333335, "type": "electric_scooter", "lon": -76.98886116666667, "bike_id": "e9969c1677faed96d8e1d57972a8191e", "rental_uris": {"android": "https://dc.lft.to/lastmile_qr_scan", "ios": "https://dc.lft.to/lastmile_qr_scan"}, "name": "e9969c1677faed96d8e1d57972a8191e", "is_reserved": 0}, {"is_disabled": 0, "fusion_lon": 0.0, "fusion_lat": 0.0, "lat": 38.96216666666667, "type": "electric_scooter", "lon": -77.02809383333333, "bike_id": "23b447637f6e805e0c6fb5940a90fe10", "rental_uris": {"android": "https://dc.lft.to/lastmile_qr_scan", "ios": "https://dc.lft.to/lastmile_qr_scan"}, "name": "23b447637f6e805e0c6fb5940a90fe10", "is_reserved": 0}, {"is_disabled": 0, "fusion_lon": 0.0, "fusion_lat": 0.0, "lat": 38.8933725, "type": "electric_scooter", "lon": -77.02117316666667, "bike_id": "c066e8ed1dff83c35489c529f20eefd7", "rental_uris": {"android": "https://dc.lft.to/lastmile_qr_scan", "ios": "https://dc.lft.to/lastmile_qr_scan"}, "name": "c066e8ed1dff83c35489c529f20eefd7", "is_reserved": 0}, {"is_disabled": 0, "fusion_lon": 0.0, "fusion_lat": 0.0, "lat": 38.894794833333336, "type": "electric_scooter", "lon": -76.99530566666667, "bike_id": "2c0ae5d11271b8ac058a59fb3942b5ac", "rental_uris": {"android": "https://dc.lft.to/lastmile_qr_scan", "ios": "https://dc.lft.to/lastmile_qr_scan"}, "name": "2c0ae5d11271b8ac058a59fb3942b5ac", "is_reserved": 0}, {"is_disabled": 0, "fusion_lon": 0.0, "fusion_lat": 0.0, "lat": 38.93755783333334, "type": "electric_scooter", "lon": -77.02474833333333, "bike_id": "4a4e93d8369de3e3110d13cfe717720a", "rental_uris": {"android": "https://dc.lft.to/lastmile_qr_scan", "ios": "https://dc.lft.to/lastmile_qr_scan"}, "name": "4a4e93d8369de3e3110d13cfe717720a", "is_reserved": 0}, {"is_disabled": 0, "fusion_lon": 0.0, "fusion_lat": 0.0, "lat": 38.942259666666665, "type": "electric_scooter", "lon": -77.021597, "bike_id": "5ad7529e4b025a72b591cd363faa0766", "rental_uris": {"android": "https://dc.lft.to/lastmile_qr_scan", "ios": "https://dc.lft.to/lastmile_qr_scan"}, "name": "5ad7529e4b025a72b591cd363faa0766", "is_reserved": 0}, {"is_disabled": 0, "fusion_lon": 0.0, "fusion_lat": 0.0, "lat": 38.9057595, "type": "electric_scooter", "lon": -77.0220475, "bike_id": "10ef54a1cc0d9d69adff79fe21ad18fd", "rental_uris": {"android": "https://dc.lft.to/lastmile_qr_scan", "ios": "https://dc.lft.to/lastmile_qr_scan"}, "name": "10ef54a1cc0d9d69adff79fe21ad18fd", "is_reserved": 0}, {"is_disabled": 0, "fusion_lon": 0.0, "fusion_lat": 0.0, "lat": 38.90504, "type": "electric_scooter", "lon": -77.0294765, "bike_id": "b4d0821f2f95fc972d975d6b5eea5b29", "rental_uris": {"android": "https://dc.lft.to/lastmile_qr_scan", "ios": "https://dc.lft.to/lastmile_qr_scan"}, "name": "b4d0821f2f95fc972d975d6b5eea5b29", "is_reserved": 0}, {"is_disabled": 0, "fusion_lon": 0.0, "fusion_lat": 0.0, "lat": 38.94281933333333, "type": "electric_scooter", "lon": -77.03634433333333, "bike_id": "b9e4e360f62467bdca6294ff378b07f0", "rental_uris": {"android": "https://dc.lft.to/lastmile_qr_scan", "ios": "https://dc.lft.to/lastmile_qr_scan"}, "name": "b9e4e360f62467bdca6294ff378b07f0", "is_reserved": 0}, {"is_disabled": 0, "fusion_lon": 0.0, "fusion_lat": 0.0, "lat": 38.94986083333333, "type": "electric_scooter", "lon": -77.02704, "bike_id": "e98fa3b3d1dfd23d170b5dccbe640bc1", "rental_uris": {"android": "https://dc.lft.to/lastmile_qr_scan", "ios": "https://dc.lft.to/lastmile_qr_scan"}, "name": "e98fa3b3d1dfd23d170b5dccbe640bc1", "is_reserved": 0}, {"is_disabled": 0, "fusion_lon": 0.0, "fusion_lat": 0.0, "lat": 38.909521, "type": "electric_scooter", "lon": -77.023835, "bike_id": "6329ac81eca4944d8af3dfebd502265d", "rental_uris": {"android": "https://dc.lft.to/lastmile_qr_scan", "ios": "https://dc.lft.to/lastmile_qr_scan"}, "name": "6329ac81eca4944d8af3dfebd502265d", "is_reserved": 0}, {"is_disabled": 0, "fusion_lon": 0.0, "fusion_lat": 0.0, "lat": 38.858104833333336, "type": "electric_scooter", "lon": -76.98964216666667, "bike_id": "9448352fb888411e33f6673ae2fd8a2c", "rental_uris": {"android": "https://dc.lft.to/lastmile_qr_scan", "ios": "https://dc.lft.to/lastmile_qr_scan"}, "name": "9448352fb888411e33f6673ae2fd8a2c", "is_reserved": 0}, {"is_disabled": 0, "fusion_lon": 0.0, "fusion_lat": 0.0, "lat": 38.9002575, "type": "electric_scooter", "lon": -76.9963035, "bike_id": "e0e4d15c4a3c8c8e517d1c52b365238d", "rental_uris": {"android": "https://dc.lft.to/lastmile_qr_scan", "ios": "https://dc.lft.to/lastmile_qr_scan"}, "name": "e0e4d15c4a3c8c8e517d1c52b365238d", "is_reserved": 0}, {"is_disabled": 0, "fusion_lon": 0.0, "fusion_lat": 0.0, "lat": 38.9024285, "type": "electric_scooter", "lon": -77.00211783333333, "bike_id": "2fa28ce11ef4385373affdb71e7ee9b3", "rental_uris": {"android": "https://dc.lft.to/lastmile_qr_scan", "ios": "https://dc.lft.to/lastmile_qr_scan"}, "name": "2fa28ce11ef4385373affdb71e7ee9b3", "is_reserved": 0}, {"is_disabled": 0, "fusion_lon": 0.0, "fusion_lat": 0.0, "lat": 38.8967605, "type": "electric_scooter", "lon": -76.9353845, "bike_id": "84d7cd1973dbcd65a0f918ec5d2e0496", "rental_uris": {"android": "https://dc.lft.to/lastmile_qr_scan", "ios": "https://dc.lft.to/lastmile_qr_scan"}, "name": "84d7cd1973dbcd65a0f918ec5d2e0496", "is_reserved": 0}, {"is_disabled": 0, "fusion_lon": 0.0, "fusion_lat": 0.0, "lat": 38.89732566666667, "type": "electric_scooter", "lon": -77.04674216666666, "bike_id": "042256656f6e08e186a00e3b37922002", "rental_uris": {"android": "https://dc.lft.to/lastmile_qr_scan", "ios": "https://dc.lft.to/lastmile_qr_scan"}, "name": "042256656f6e08e186a00e3b37922002", "is_reserved": 0}, {"is_disabled": 0, "fusion_lon": 0.0, "fusion_lat": 0.0, "lat": 38.872901, "type": "electric_scooter", "lon": -77.009923, "bike_id": "5ca830316df060b6f5b00f05c2ad141c", "rental_uris": {"android": "https://dc.lft.to/lastmile_qr_scan", "ios": "https://dc.lft.to/lastmile_qr_scan"}, "name": "5ca830316df060b6f5b00f05c2ad141c", "is_reserved": 0}, {"is_disabled": 0, "fusion_lon": 0.0, "fusion_lat": 0.0, "lat": 38.905627, "type": "electric_scooter", "lon": -77.00585716666667, "bike_id": "45cd9b4803a002eda98d98b25b3fe489", "rental_uris": {"android": "https://dc.lft.to/lastmile_qr_scan", "ios": "https://dc.lft.to/lastmile_qr_scan"}, "name": "45cd9b4803a002eda98d98b25b3fe489", "is_reserved": 0}, {"is_disabled": 0, "fusion_lon": 0.0, "fusion_lat": 0.0, "lat": 38.91566816666667, "type": "electric_scooter", "lon": -77.04174433333333, "bike_id": "b6a4f7623edcee185a3372c7010704af", "rental_uris": {"android": "https://dc.lft.to/lastmile_qr_scan", "ios": "https://dc.lft.to/lastmile_qr_scan"}, "name": "b6a4f7623edcee185a3372c7010704af", "is_reserved": 0}, {"is_disabled": 0, "fusion_lon": 0.0, "fusion_lat": 0.0, "lat": 38.91739, "type": "electric_scooter", "lon": -77.03641016666667, "bike_id": "13d85fa5aa17d7aceacd695b954e29f5", "rental_uris": {"android": "https://dc.lft.to/lastmile_qr_scan", "ios": "https://dc.lft.to/lastmile_qr_scan"}, "name": "13d85fa5aa17d7aceacd695b954e29f5", "is_reserved": 0}, {"is_disabled": 0, "fusion_lon": 0.0, "fusion_lat": 0.0, "lat": 38.92423483333334, "type": "electric_scooter", "lon": -77.02006866666666, "bike_id": "54661c309572fddb71ae5711bad6be52", "rental_uris": {"android": "https://dc.lft.to/lastmile_qr_scan", "ios": "https://dc.lft.to/lastmile_qr_scan"}, "name": "54661c309572fddb71ae5711bad6be52", "is_reserved": 0}, {"is_disabled": 0, "fusion_lon": 0.0, "fusion_lat": 0.0, "lat": 38.897796666666665, "type": "electric_scooter", "lon": -77.05011366666666, "bike_id": "058d73890be5637b953b4ca9c2080860", "rental_uris": {"android": "https://dc.lft.to/lastmile_qr_scan", "ios": "https://dc.lft.to/lastmile_qr_scan"}, "name": "058d73890be5637b953b4ca9c2080860", "is_reserved": 0}, {"is_disabled": 0, "fusion_lon": 0.0, "fusion_lat": 0.0, "lat": 38.900302, "type": "electric_scooter", "lon": -77.033689, "bike_id": "53a0ef2679252707b33c661eeb784429", "rental_uris": {"android": "https://dc.lft.to/lastmile_qr_scan", "ios": "https://dc.lft.to/lastmile_qr_scan"}, "name": "53a0ef2679252707b33c661eeb784429", "is_reserved": 0}, {"is_disabled": 0, "fusion_lon": 0.0, "fusion_lat": 0.0, "lat": 38.91706033333333, "type": "electric_scooter", "lon": -77.03215733333333, "bike_id": "d7cb289f44e7712aa0f357b7cc1ad41e", "rental_uris": {"android": "https://dc.lft.to/lastmile_qr_scan", "ios": "https://dc.lft.to/lastmile_qr_scan"}, "name": "d7cb289f44e7712aa0f357b7cc1ad41e", "is_reserved": 0}, {"is_disabled": 0, "fusion_lon": 0.0, "fusion_lat": 0.0, "lat": 38.90037066666667, "type": "electric_scooter", "lon": -77.0019535, "bike_id": "f64587f4368065c74e1868fa325a9985", "rental_uris": {"android": "https://dc.lft.to/lastmile_qr_scan", "ios": "https://dc.lft.to/lastmile_qr_scan"}, "name": "f64587f4368065c74e1868fa325a9985", "is_reserved": 0}, {"is_disabled": 0, "fusion_lon": 0.0, "fusion_lat": 0.0, "lat": 38.9237625, "type": "electric_scooter", "lon": -77.03133383333333, "bike_id": "6a69ae775fd007a87c0d161727732aca", "rental_uris": {"android": "https://dc.lft.to/lastmile_qr_scan", "ios": "https://dc.lft.to/lastmile_qr_scan"}, "name": "6a69ae775fd007a87c0d161727732aca", "is_reserved": 0}, {"is_disabled": 0, "fusion_lon": 0.0, "fusion_lat": 0.0, "lat": 38.9093885, "type": "electric_scooter", "lon": -77.03205583333333, "bike_id": "b9f665fffa05f34537b4b063311e226f", "rental_uris": {"android": "https://dc.lft.to/lastmile_qr_scan", "ios": "https://dc.lft.to/lastmile_qr_scan"}, "name": "b9f665fffa05f34537b4b063311e226f", "is_reserved": 0}, {"is_disabled": 0, "fusion_lon": 0.0, "fusion_lat": 0.0, "lat": 38.92558066666667, "type": "electric_scooter", "lon": -77.03296333333333, "bike_id": "d88c41358352875258ee158ee7f55e5a", "rental_uris": {"android": "https://dc.lft.to/lastmile_qr_scan", "ios": "https://dc.lft.to/lastmile_qr_scan"}, "name": "d88c41358352875258ee158ee7f55e5a", "is_reserved": 0}, {"is_disabled": 0, "fusion_lon": 0.0, "fusion_lat": 0.0, "lat": 38.893719, "type": "electric_scooter", "lon": -76.94994833333334, "bike_id": "72a29fde026b50ab7e3e8dfdf5e07a41", "rental_uris": {"android": "https://dc.lft.to/lastmile_qr_scan", "ios": "https://dc.lft.to/lastmile_qr_scan"}, "name": "72a29fde026b50ab7e3e8dfdf5e07a41", "is_reserved": 0}, {"is_disabled": 0, "fusion_lon": 0.0, "fusion_lat": 0.0, "lat": 38.8875665, "type": "electric_bike", "lon": -76.90083083333333, "bike_id": "6825cc5914aa30833b9c29ce7797c348", "rental_uris": {"android": "https://dc.lft.to/lastmile_qr_scan", "ios": "https://dc.lft.to/lastmile_qr_scan"}, "name": "6825cc5914aa30833b9c29ce7797c348", "is_reserved": 0}, {"is_disabled": 0, "fusion_lon": 0.0, "fusion_lat": 0.0, "lat": 38.936345833333334, "type": "electric_scooter", "lon": -77.03260783333333, "bike_id": "01077fec314ef186e221fd661f9c5990", "rental_uris": {"android": "https://dc.lft.to/lastmile_qr_scan", "ios": "https://dc.lft.to/lastmile_qr_scan"}, "name": "01077fec314ef186e221fd661f9c5990", "is_reserved": 0}, {"is_disabled": 0, "fusion_lon": 0.0, "fusion_lat": 0.0, "lat": 38.924422166666666, "type": "electric_scooter", "lon": -77.04030433333334, "bike_id": "852b70ca3eadd34a8b2fb869644fab26", "rental_uris": {"android": "https://dc.lft.to/lastmile_qr_scan", "ios": "https://dc.lft.to/lastmile_qr_scan"}, "name": "852b70ca3eadd34a8b2fb869644fab26", "is_reserved": 0}, {"is_disabled": 0, "fusion_lon": 0.0, "fusion_lat": 0.0, "lat": 39.1056485, "type": "electric_bike", "lon": -77.1526855, "bike_id": "9a35b6936e1478f01d9ef60a1017d129", "rental_uris": {"android": "https://dc.lft.to/lastmile_qr_scan", "ios": "https://dc.lft.to/lastmile_qr_scan"}, "name": "9a35b6936e1478f01d9ef60a1017d129", "is_reserved": 0}, {"is_disabled": 0, "fusion_lon": 0.0, "fusion_lat": 0.0, "lat": 38.904140166666664, "type": "electric_scooter", "lon": -77.025905, "bike_id": "f88328e11db4e21d66d320490b4b4385", "rental_uris": {"android": "https://dc.lft.to/lastmile_qr_scan", "ios": "https://dc.lft.to/lastmile_qr_scan"}, "name": "f88328e11db4e21d66d320490b4b4385", "is_reserved": 0}, {"is_disabled": 0, "fusion_lon": 0.0, "fusion_lat": 0.0, "lat": 38.92447216666667, "type": "electric_bike", "lon": -76.96833866666667, "bike_id": "b5a756febfc2ae91f88c1bc21cd9869c", "rental_uris": {"android": "https://dc.lft.to/lastmile_qr_scan", "ios": "https://dc.lft.to/lastmile_qr_scan"}, "name": "b5a756febfc2ae91f88c1bc21cd9869c", "is_reserved": 0}, {"is_disabled": 0, "fusion_lon": 0.0, "fusion_lat": 0.0, "lat": 38.86504866666667, "type": "electric_scooter", "lon": -76.99003266666666, "bike_id": "4b998d28410509c6fab0c4dbeb803795", "rental_uris": {"android": "https://dc.lft.to/lastmile_qr_scan", "ios": "https://dc.lft.to/lastmile_qr_scan"}, "name": "4b998d28410509c6fab0c4dbeb803795", "is_reserved": 0}, {"is_disabled": 0, "fusion_lon": 0.0, "fusion_lat": 0.0, "lat": 38.892204666666665, "type": "electric_scooter", "lon": -77.01557816666667, "bike_id": "f3bdc43f31e395ac45cd9f2fc1000990", "rental_uris": {"android": "https://dc.lft.to/lastmile_qr_scan", "ios": "https://dc.lft.to/lastmile_qr_scan"}, "name": "f3bdc43f31e395ac45cd9f2fc1000990", "is_reserved": 0}, {"is_disabled": 0, "fusion_lon": 0.0, "fusion_lat": 0.0, "lat": 38.918766, "type": "electric_scooter", "lon": -77.04187066666667, "bike_id": "92495611e20ced53d1e7394f8f647bf9", "rental_uris": {"android": "https://dc.lft.to/lastmile_qr_scan", "ios": "https://dc.lft.to/lastmile_qr_scan"}, "name": "92495611e20ced53d1e7394f8f647bf9", "is_reserved": 0}, {"is_disabled": 0, "fusion_lon": 0.0, "fusion_lat": 0.0, "lat": 38.87626183333333, "type": "electric_scooter", "lon": -76.9653005, "bike_id": "cc777096fb5214b41ba08c9102a95cf3", "rental_uris": {"android": "https://dc.lft.to/lastmile_qr_scan", "ios": "https://dc.lft.to/lastmile_qr_scan"}, "name": "cc777096fb5214b41ba08c9102a95cf3", "is_reserved": 0}, {"is_disabled": 0, "fusion_lon": 0.0, "fusion_lat": 0.0, "lat": 38.90944066666667, "type": "electric_scooter", "lon": -77.01531833333334, "bike_id": "96d6bc4c784f1dcc9b8891602fd95b6b", "rental_uris": {"android": "https://dc.lft.to/lastmile_qr_scan", "ios": "https://dc.lft.to/lastmile_qr_scan"}, "name": "96d6bc4c784f1dcc9b8891602fd95b6b", "is_reserved": 0}, {"is_disabled": 0, "fusion_lon": 0.0, "fusion_lat": 0.0, "lat": 38.93721033333333, "type": "electric_scooter", "lon": -77.03261783333333, "bike_id": "df0a3009f0da03de1f705eb388cf506f", "rental_uris": {"android": "https://dc.lft.to/lastmile_qr_scan", "ios": "https://dc.lft.to/lastmile_qr_scan"}, "name": "df0a3009f0da03de1f705eb388cf506f", "is_reserved": 0}, {"is_disabled": 0, "fusion_lon": 0.0, "fusion_lat": 0.0, "lat": 38.892598, "type": "electric_scooter", "lon": -76.941566, "bike_id": "ac9a8303207f14dd9ca99153475cdc0c", "rental_uris": {"android": "https://dc.lft.to/lastmile_qr_scan", "ios": "https://dc.lft.to/lastmile_qr_scan"}, "name": "ac9a8303207f14dd9ca99153475cdc0c", "is_reserved": 0}, {"is_disabled": 0, "fusion_lon": 0.0, "fusion_lat": 0.0, "lat": 38.88638916666667, "type": "electric_scooter", "lon": -77.0225045, "bike_id": "3b2742371e85c181c0291abb55a70115", "rental_uris": {"android": "https://dc.lft.to/lastmile_qr_scan", "ios": "https://dc.lft.to/lastmile_qr_scan"}, "name": "3b2742371e85c181c0291abb55a70115", "is_reserved": 0}, {"is_disabled": 0, "fusion_lon": 0.0, "fusion_lat": 0.0, "lat": 38.917436333333335, "type": "electric_scooter", "lon": -77.03660316666667, "bike_id": "a15926457d054173939e0b46d9fd8e5b", "rental_uris": {"android": "https://dc.lft.to/lastmile_qr_scan", "ios": "https://dc.lft.to/lastmile_qr_scan"}, "name": "a15926457d054173939e0b46d9fd8e5b", "is_reserved": 0}, {"is_disabled": 0, "fusion_lon": 0.0, "fusion_lat": 0.0, "lat": 38.909729, "type": "electric_scooter", "lon": -77.0362295, "bike_id": "f576fbfc82869789ba83e1779b5861fd", "rental_uris": {"android": "https://dc.lft.to/lastmile_qr_scan", "ios": "https://dc.lft.to/lastmile_qr_scan"}, "name": "f576fbfc82869789ba83e1779b5861fd", "is_reserved": 0}, {"is_disabled": 0, "fusion_lon": 0.0, "fusion_lat": 0.0, "lat": 38.948072333333336, "type": "electric_bike", "lon": -76.97213816666667, "bike_id": "734d6e34be43f6661911bb683eb0d316", "rental_uris": {"android": "https://dc.lft.to/lastmile_qr_scan", "ios": "https://dc.lft.to/lastmile_qr_scan"}, "name": "734d6e34be43f6661911bb683eb0d316", "is_reserved": 0}, {"is_disabled": 0, "fusion_lon": 0.0, "fusion_lat": 0.0, "lat": 38.970594, "type": "electric_bike", "lon": -76.960711, "bike_id": "bb45899565dde91f5f572745139d2f77", "rental_uris": {"android": "https://dc.lft.to/lastmile_qr_scan", "ios": "https://dc.lft.to/lastmile_qr_scan"}, "name": "bb45899565dde91f5f572745139d2f77", "is_reserved": 0}, {"is_disabled": 0, "fusion_lon": 0.0, "fusion_lat": 0.0, "lat": 38.87206783333333, "type": "electric_bike", "lon": -76.95484266666666, "bike_id": "4a2d390b159d53caa3ba28b00499d32d", "rental_uris": {"android": "https://dc.lft.to/lastmile_qr_scan", "ios": "https://dc.lft.to/lastmile_qr_scan"}, "name": "4a2d390b159d53caa3ba28b00499d32d", "is_reserved": 0}, {"is_disabled": 0, "fusion_lon": 0.0, "fusion_lat": 0.0, "lat": 38.91577383333333, "type": "electric_scooter", "lon": -77.02002466666667, "bike_id": "b11535c84abdf79cfbfebc46d9c398c6", "rental_uris": {"android": "https://dc.lft.to/lastmile_qr_scan", "ios": "https://dc.lft.to/lastmile_qr_scan"}, "name": "b11535c84abdf79cfbfebc46d9c398c6", "is_reserved": 0}, {"is_disabled": 0, "fusion_lon": 0.0, "fusion_lat": 0.0, "lat": 38.91203083333333, "type": "electric_scooter", "lon": -76.9848175, "bike_id": "12712b7c400c560ee8af572dfa398112", "rental_uris": {"android": "https://dc.lft.to/lastmile_qr_scan", "ios": "https://dc.lft.to/lastmile_qr_scan"}, "name": "12712b7c400c560ee8af572dfa398112", "is_reserved": 0}, {"is_disabled": 0, "fusion_lon": 0.0, "fusion_lat": 0.0, "lat": 38.921660833333334, "type": "electric_scooter", "lon": -77.043435, "bike_id": "1f9439d14eee51239b3f71634b332c86", "rental_uris": {"android": "https://dc.lft.to/lastmile_qr_scan", "ios": "https://dc.lft.to/lastmile_qr_scan"}, "name": "1f9439d14eee51239b3f71634b332c86", "is_reserved": 0}, {"is_disabled": 0, "fusion_lon": 0.0, "fusion_lat": 0.0, "lat": 38.89221716666667, "type": "electric_scooter", "lon": -77.0221875, "bike_id": "0c3df0b029999d10486b1b90617567a5", "rental_uris": {"android": "https://dc.lft.to/lastmile_qr_scan", "ios": "https://dc.lft.to/lastmile_qr_scan"}, "name": "0c3df0b029999d10486b1b90617567a5", "is_reserved": 0}, {"is_disabled": 0, "fusion_lon": 0.0, "fusion_lat": 0.0, "lat": 38.907287, "type": "electric_scooter", "lon": -77.02374016666667, "bike_id": "79cc729e5e3c75023a601212a38296cf", "rental_uris": {"android": "https://dc.lft.to/lastmile_qr_scan", "ios": "https://dc.lft.to/lastmile_qr_scan"}, "name": "79cc729e5e3c75023a601212a38296cf", "is_reserved": 0}, {"is_disabled": 0, "fusion_lon": 0.0, "fusion_lat": 0.0, "lat": 38.88568033333333, "type": "electric_scooter", "lon": -77.00071716666666, "bike_id": "58ee7b15928a503579af7c5c8424748b", "rental_uris": {"android": "https://dc.lft.to/lastmile_qr_scan", "ios": "https://dc.lft.to/lastmile_qr_scan"}, "name": "58ee7b15928a503579af7c5c8424748b", "is_reserved": 0}, {"is_disabled": 0, "fusion_lon": 0.0, "fusion_lat": 0.0, "lat": 38.948314333333336, "type": "electric_scooter", "lon": -77.02824416666667, "bike_id": "42bdf6907af48f27e73ad5936a88f04f", "rental_uris": {"android": "https://dc.lft.to/lastmile_qr_scan", "ios": "https://dc.lft.to/lastmile_qr_scan"}, "name": "42bdf6907af48f27e73ad5936a88f04f", "is_reserved": 0}, {"is_disabled": 0, "fusion_lon": 0.0, "fusion_lat": 0.0, "lat": 38.91729816666667, "type": "electric_scooter", "lon": -76.991792, "bike_id": "d757429b9da135aadcd1d4a6acb92258", "rental_uris": {"android": "https://dc.lft.to/lastmile_qr_scan", "ios": "https://dc.lft.to/lastmile_qr_scan"}, "name": "d757429b9da135aadcd1d4a6acb92258", "is_reserved": 0}, {"is_disabled": 0, "fusion_lon": 0.0, "fusion_lat": 0.0, "lat": 38.901671, "type": "electric_scooter", "lon": -76.99379983333333, "bike_id": "b0aa75b6bec6ffeeead3266fa12288f7", "rental_uris": {"android": "https://dc.lft.to/lastmile_qr_scan", "ios": "https://dc.lft.to/lastmile_qr_scan"}, "name": "b0aa75b6bec6ffeeead3266fa12288f7", "is_reserved": 0}, {"is_disabled": 0, "fusion_lon": 0.0, "fusion_lat": 0.0, "lat": 38.915738833333336, "type": "electric_scooter", "lon": -77.0466855, "bike_id": "b2f0adbc7d81a77fc2c53e3893349ff6", "rental_uris": {"android": "https://dc.lft.to/lastmile_qr_scan", "ios": "https://dc.lft.to/lastmile_qr_scan"}, "name": "b2f0adbc7d81a77fc2c53e3893349ff6", "is_reserved": 0}, {"is_disabled": 0, "fusion_lon": 0.0, "fusion_lat": 0.0, "lat": 38.917993333333335, "type": "electric_scooter", "lon": -77.03464333333334, "bike_id": "d1f484a5431a976e0c24cec39c13e056", "rental_uris": {"android": "https://dc.lft.to/lastmile_qr_scan", "ios": "https://dc.lft.to/lastmile_qr_scan"}, "name": "d1f484a5431a976e0c24cec39c13e056", "is_reserved": 0}, {"is_disabled": 0, "fusion_lon": 0.0, "fusion_lat": 0.0, "lat": 38.90855, "type": "electric_scooter", "lon": -76.99799, "bike_id": "537afef94bbf826134e0c4e228822bc5", "rental_uris": {"android": "https://dc.lft.to/lastmile_qr_scan", "ios": "https://dc.lft.to/lastmile_qr_scan"}, "name": "537afef94bbf826134e0c4e228822bc5", "is_reserved": 0}, {"is_disabled": 0, "fusion_lon": 0.0, "fusion_lat": 0.0, "lat": 38.87091433333333, "type": "electric_bike", "lon": -77.01213266666667, "bike_id": "37d185a9de91410146dbd4646d88a67f", "rental_uris": {"android": "https://dc.lft.to/lastmile_qr_scan", "ios": "https://dc.lft.to/lastmile_qr_scan"}, "name": "37d185a9de91410146dbd4646d88a67f", "is_reserved": 0}, {"is_disabled": 0, "fusion_lon": 0.0, "fusion_lat": 0.0, "lat": 38.91706216666667, "type": "electric_scooter", "lon": -77.029848, "bike_id": "277d98ce8a71867f8ba38046d2779568", "rental_uris": {"android": "https://dc.lft.to/lastmile_qr_scan", "ios": "https://dc.lft.to/lastmile_qr_scan"}, "name": "277d98ce8a71867f8ba38046d2779568", "is_reserved": 0}, {"is_disabled": 0, "fusion_lon": 0.0, "fusion_lat": 0.0, "lat": 38.915890166666664, "type": "electric_bike", "lon": -76.97152383333334, "bike_id": "a022940dfcc19a71ba187995d0bab9c4", "rental_uris": {"android": "https://dc.lft.to/lastmile_qr_scan", "ios": "https://dc.lft.to/lastmile_qr_scan"}, "name": "a022940dfcc19a71ba187995d0bab9c4", "is_reserved": 0}, {"is_disabled": 0, "fusion_lon": 0.0, "fusion_lat": 0.0, "lat": 38.91154066666667, "type": "electric_scooter", "lon": -77.023808, "bike_id": "c205c522b7af2ce4ea20e2c6a765597a", "rental_uris": {"android": "https://dc.lft.to/lastmile_qr_scan", "ios": "https://dc.lft.to/lastmile_qr_scan"}, "name": "c205c522b7af2ce4ea20e2c6a765597a", "is_reserved": 0}, {"is_disabled": 0, "fusion_lon": 0.0, "fusion_lat": 0.0, "lat": 38.9356025, "type": "electric_bike", "lon": -77.08196716666667, "bike_id": "c0a43350515dbc45ae3e16baec06f28e", "rental_uris": {"android": "https://dc.lft.to/lastmile_qr_scan", "ios": "https://dc.lft.to/lastmile_qr_scan"}, "name": "c0a43350515dbc45ae3e16baec06f28e", "is_reserved": 0}, {"is_disabled": 0, "fusion_lon": 0.0, "fusion_lat": 0.0, "lat": 38.86909933333333, "type": "electric_bike", "lon": -77.13179266666667, "bike_id": "caa5fe48937dd6162b69f73f3082c0e4", "rental_uris": {"android": "https://dc.lft.to/lastmile_qr_scan", "ios": "https://dc.lft.to/lastmile_qr_scan"}, "name": "caa5fe48937dd6162b69f73f3082c0e4", "is_reserved": 0}, {"is_disabled": 0, "fusion_lon": 0.0, "fusion_lat": 0.0, "lat": 38.904983, "type": "electric_scooter", "lon": -77.02948666666667, "bike_id": "ed133a8d7fef9ee3ac0e012e040d5bbb", "rental_uris": {"android": "https://dc.lft.to/lastmile_qr_scan", "ios": "https://dc.lft.to/lastmile_qr_scan"}, "name": "ed133a8d7fef9ee3ac0e012e040d5bbb", "is_reserved": 0}, {"is_disabled": 0, "fusion_lon": 0.0, "fusion_lat": 0.0, "lat": 38.9198615, "type": "electric_bike", "lon": -76.97318666666666, "bike_id": "8844fee845eb0f2e25b471552a7f2a77", "rental_uris": {"android": "https://dc.lft.to/lastmile_qr_scan", "ios": "https://dc.lft.to/lastmile_qr_scan"}, "name": "8844fee845eb0f2e25b471552a7f2a77", "is_reserved": 0}, {"is_disabled": 0, "fusion_lon": 0.0, "fusion_lat": 0.0, "lat": 38.88494633333333, "type": "electric_scooter", "lon": -77.02080033333333, "bike_id": "532a678ab0500e2b9daa047b80bfccc6", "rental_uris": {"android": "https://dc.lft.to/lastmile_qr_scan", "ios": "https://dc.lft.to/lastmile_qr_scan"}, "name": "532a678ab0500e2b9daa047b80bfccc6", "is_reserved": 0}, {"is_disabled": 0, "fusion_lon": 0.0, "fusion_lat": 0.0, "lat": 38.89939316666667, "type": "electric_scooter", "lon": -77.02947833333333, "bike_id": "3e72a6da04fb3f1c748420e302bbba1c", "rental_uris": {"android": "https://dc.lft.to/lastmile_qr_scan", "ios": "https://dc.lft.to/lastmile_qr_scan"}, "name": "3e72a6da04fb3f1c748420e302bbba1c", "is_reserved": 0}, {"is_disabled": 0, "fusion_lon": 0.0, "fusion_lat": 0.0, "lat": 38.88992183333333, "type": "electric_scooter", "lon": -77.04892066666666, "bike_id": "4ccbb63e6035e7c83237e17129ad1990", "rental_uris": {"android": "https://dc.lft.to/lastmile_qr_scan", "ios": "https://dc.lft.to/lastmile_qr_scan"}, "name": "4ccbb63e6035e7c83237e17129ad1990", "is_reserved": 0}, {"is_disabled": 0, "fusion_lon": 0.0, "fusion_lat": 0.0, "lat": 38.90953433333333, "type": "electric_scooter", "lon": -77.02717183333333, "bike_id": "94fd911abedbe758199d0ab61375d387", "rental_uris": {"android": "https://dc.lft.to/lastmile_qr_scan", "ios": "https://dc.lft.to/lastmile_qr_scan"}, "name": "94fd911abedbe758199d0ab61375d387", "is_reserved": 0}, {"is_disabled": 0, "fusion_lon": 0.0, "fusion_lat": 0.0, "lat": 38.94920483333333, "type": "electric_bike", "lon": -77.0079565, "bike_id": "bad392b9296fd1f9d7c27135ff9d48e5", "rental_uris": {"android": "https://dc.lft.to/lastmile_qr_scan", "ios": "https://dc.lft.to/lastmile_qr_scan"}, "name": "bad392b9296fd1f9d7c27135ff9d48e5", "is_reserved": 0}, {"is_disabled": 0, "fusion_lon": 0.0, "fusion_lat": 0.0, "lat": 38.908310666666665, "type": "electric_scooter", "lon": -76.99705366666667, "bike_id": "aa4c998e9e0c5d49aae7a60aac8380e0", "rental_uris": {"android": "https://dc.lft.to/lastmile_qr_scan", "ios": "https://dc.lft.to/lastmile_qr_scan"}, "name": "aa4c998e9e0c5d49aae7a60aac8380e0", "is_reserved": 0}, {"is_disabled": 0, "fusion_lon": 0.0, "fusion_lat": 0.0, "lat": 38.908906, "type": "electric_scooter", "lon": -77.0339955, "bike_id": "ca6f0f113ba39a2463d765eaad290986", "rental_uris": {"android": "https://dc.lft.to/lastmile_qr_scan", "ios": "https://dc.lft.to/lastmile_qr_scan"}, "name": "ca6f0f113ba39a2463d765eaad290986", "is_reserved": 0}, {"is_disabled": 0, "fusion_lon": 0.0, "fusion_lat": 0.0, "lat": 38.90398233333333, "type": "electric_scooter", "lon": -77.02800566666667, "bike_id": "59cced850df4c751a1c4e9ba74681563", "rental_uris": {"android": "https://dc.lft.to/lastmile_qr_scan", "ios": "https://dc.lft.to/lastmile_qr_scan"}, "name": "59cced850df4c751a1c4e9ba74681563", "is_reserved": 0}, {"is_disabled": 0, "fusion_lon": 0.0, "fusion_lat": 0.0, "lat": 38.895818, "type": "electric_scooter", "lon": -77.02310216666666, "bike_id": "fc46738c2b8ce8c1e7f988b9c86e4c19", "rental_uris": {"android": "https://dc.lft.to/lastmile_qr_scan", "ios": "https://dc.lft.to/lastmile_qr_scan"}, "name": "fc46738c2b8ce8c1e7f988b9c86e4c19", "is_reserved": 0}, {"is_disabled": 0, "fusion_lon": 0.0, "fusion_lat": 0.0, "lat": 38.916047666666664, "type": "electric_scooter", "lon": -77.04016316666667, "bike_id": "dad89c0b804ac4de0a66c8079c503abb", "rental_uris": {"android": "https://dc.lft.to/lastmile_qr_scan", "ios": "https://dc.lft.to/lastmile_qr_scan"}, "name": "dad89c0b804ac4de0a66c8079c503abb", "is_reserved": 0}, {"is_disabled": 0, "fusion_lon": 0.0, "fusion_lat": 0.0, "lat": 38.97537633333334, "type": "electric_bike", "lon": -76.99532216666667, "bike_id": "53657498de6879fefbcbc8ac49bbda86", "rental_uris": {"android": "https://dc.lft.to/lastmile_qr_scan", "ios": "https://dc.lft.to/lastmile_qr_scan"}, "name": "53657498de6879fefbcbc8ac49bbda86", "is_reserved": 0}, {"is_disabled": 0, "fusion_lon": 0.0, "fusion_lat": 0.0, "lat": 38.89834416666667, "type": "electric_scooter", "lon": -76.9463115, "bike_id": "06c046737c84945562ad28dd400c39ba", "rental_uris": {"android": "https://dc.lft.to/lastmile_qr_scan", "ios": "https://dc.lft.to/lastmile_qr_scan"}, "name": "06c046737c84945562ad28dd400c39ba", "is_reserved": 0}, {"is_disabled": 0, "fusion_lon": 0.0, "fusion_lat": 0.0, "lat": 38.933066833333335, "type": "electric_scooter", "lon": -77.03252833333333, "bike_id": "f844a2624584a4232211b6847e31c7cd", "rental_uris": {"android": "https://dc.lft.to/lastmile_qr_scan", "ios": "https://dc.lft.to/lastmile_qr_scan"}, "name": "f844a2624584a4232211b6847e31c7cd", "is_reserved": 0}, {"is_disabled": 0, "fusion_lon": 0.0, "fusion_lat": 0.0, "lat": 38.93000633333333, "type": "electric_scooter", "lon": -77.02207016666667, "bike_id": "c6edbfa0e77911a45103bfc2486f2e71", "rental_uris": {"android": "https://dc.lft.to/lastmile_qr_scan", "ios": "https://dc.lft.to/lastmile_qr_scan"}, "name": "c6edbfa0e77911a45103bfc2486f2e71", "is_reserved": 0}, {"is_disabled": 0, "fusion_lon": 0.0, "fusion_lat": 0.0, "lat": 38.90848233333333, "type": "electric_scooter", "lon": -77.009829, "bike_id": "5969b774b4ef9ecd891bb11b4179ea8f", "rental_uris": {"android": "https://dc.lft.to/lastmile_qr_scan", "ios": "https://dc.lft.to/lastmile_qr_scan"}, "name": "5969b774b4ef9ecd891bb11b4179ea8f", "is_reserved": 0}, {"is_disabled": 0, "fusion_lon": 0.0, "fusion_lat": 0.0, "lat": 38.9233335, "type": "electric_scooter", "lon": -77.0430835, "bike_id": "17881f84b3f00f9edc279acc844caaae", "rental_uris": {"android": "https://dc.lft.to/lastmile_qr_scan", "ios": "https://dc.lft.to/lastmile_qr_scan"}, "name": "17881f84b3f00f9edc279acc844caaae", "is_reserved": 0}, {"is_disabled": 0, "fusion_lon": 0.0, "fusion_lat": 0.0, "lat": 38.93501666666667, "type": "electric_bike", "lon": -76.94958933333334, "bike_id": "56ee651f4bfa1c150c4f977e802ae45d", "rental_uris": {"android": "https://dc.lft.to/lastmile_qr_scan", "ios": "https://dc.lft.to/lastmile_qr_scan"}, "name": "56ee651f4bfa1c150c4f977e802ae45d", "is_reserved": 0}, {"is_disabled": 0, "fusion_lon": 0.0, "fusion_lat": 0.0, "lat": 38.916777, "type": "electric_scooter", "lon": -77.029767, "bike_id": "f0fd7454ba7469e781f940f14b7393bd", "rental_uris": {"android": "https://dc.lft.to/lastmile_qr_scan", "ios": "https://dc.lft.to/lastmile_qr_scan"}, "name": "f0fd7454ba7469e781f940f14b7393bd", "is_reserved": 0}, {"is_disabled": 0, "fusion_lon": 0.0, "fusion_lat": 0.0, "lat": 38.90242416666667, "type": "electric_scooter", "lon": -76.9896735, "bike_id": "a6ff64e90aea2ff2791f5092993d19ef", "rental_uris": {"android": "https://dc.lft.to/lastmile_qr_scan", "ios": "https://dc.lft.to/lastmile_qr_scan"}, "name": "a6ff64e90aea2ff2791f5092993d19ef", "is_reserved": 0}, {"is_disabled": 0, "fusion_lon": 0.0, "fusion_lat": 0.0, "lat": 38.886159, "type": "electric_scooter", "lon": -76.9950395, "bike_id": "cbc7a25f8f1f1582fff4f53246c7d7c5", "rental_uris": {"android": "https://dc.lft.to/lastmile_qr_scan", "ios": "https://dc.lft.to/lastmile_qr_scan"}, "name": "cbc7a25f8f1f1582fff4f53246c7d7c5", "is_reserved": 0}, {"is_disabled": 0, "fusion_lon": 0.0, "fusion_lat": 0.0, "lat": 38.842880666666666, "type": "electric_scooter", "lon": -76.99960216666666, "bike_id": "437589f83c8a74c48a9f21aa6994d72d", "rental_uris": {"android": "https://dc.lft.to/lastmile_qr_scan", "ios": "https://dc.lft.to/lastmile_qr_scan"}, "name": "437589f83c8a74c48a9f21aa6994d72d", "is_reserved": 0}, {"is_disabled": 0, "fusion_lon": 0.0, "fusion_lat": 0.0, "lat": 38.91715, "type": "electric_scooter", "lon": -77.03858516666666, "bike_id": "34baff1446b27948d65cabe443a1761e", "rental_uris": {"android": "https://dc.lft.to/lastmile_qr_scan", "ios": "https://dc.lft.to/lastmile_qr_scan"}, "name": "34baff1446b27948d65cabe443a1761e", "is_reserved": 0}, {"is_disabled": 0, "fusion_lon": 0.0, "fusion_lat": 0.0, "lat": 39.099990166666664, "type": "electric_bike", "lon": -77.186532, "bike_id": "ff64b00d8c57e226f3960dee08dc3e47", "rental_uris": {"android": "https://dc.lft.to/lastmile_qr_scan", "ios": "https://dc.lft.to/lastmile_qr_scan"}, "name": "ff64b00d8c57e226f3960dee08dc3e47", "is_reserved": 0}, {"is_disabled": 0, "fusion_lon": 0.0, "fusion_lat": 0.0, "lat": 38.915674833333334, "type": "electric_scooter", "lon": -77.04175983333333, "bike_id": "f0d1dded7e6e5f594516256250188c50", "rental_uris": {"android": "https://dc.lft.to/lastmile_qr_scan", "ios": "https://dc.lft.to/lastmile_qr_scan"}, "name": "f0d1dded7e6e5f594516256250188c50", "is_reserved": 0}, {"is_disabled": 0, "fusion_lon": 0.0, "fusion_lat": 0.0, "lat": 38.905761166666665, "type": "electric_scooter", "lon": -77.02605316666667, "bike_id": "bbee8aa53aaf553cf5629483d06d51fe", "rental_uris": {"android": "https://dc.lft.to/lastmile_qr_scan", "ios": "https://dc.lft.to/lastmile_qr_scan"}, "name": "bbee8aa53aaf553cf5629483d06d51fe", "is_reserved": 0}, {"is_disabled": 0, "fusion_lon": 0.0, "fusion_lat": 0.0, "lat": 38.916593, "type": "electric_scooter", "lon": -77.022908, "bike_id": "2808fa047bbc6c2dfde2adce3671430d", "rental_uris": {"android": "https://dc.lft.to/lastmile_qr_scan", "ios": "https://dc.lft.to/lastmile_qr_scan"}, "name": "2808fa047bbc6c2dfde2adce3671430d", "is_reserved": 0}, {"is_disabled": 0, "fusion_lon": 0.0, "fusion_lat": 0.0, "lat": 38.838107, "type": "electric_scooter", "lon": -77.004349, "bike_id": "d29f852d5a3600131ab9fcf21a29bea4", "rental_uris": {"android": "https://dc.lft.to/lastmile_qr_scan", "ios": "https://dc.lft.to/lastmile_qr_scan"}, "name": "d29f852d5a3600131ab9fcf21a29bea4", "is_reserved": 0}, {"is_disabled": 0, "fusion_lon": 0.0, "fusion_lat": 0.0, "lat": 38.901205833333336, "type": "electric_scooter", "lon": -77.041618, "bike_id": "50e31593123259d5f544396e1871ffa2", "rental_uris": {"android": "https://dc.lft.to/lastmile_qr_scan", "ios": "https://dc.lft.to/lastmile_qr_scan"}, "name": "50e31593123259d5f544396e1871ffa2", "is_reserved": 0}, {"is_disabled": 0, "fusion_lon": 0.0, "fusion_lat": 0.0, "lat": 38.93494033333333, "type": "electric_scooter", "lon": -77.02421683333333, "bike_id": "03fe0f8b333cda5d1d8d896c24339602", "rental_uris": {"android": "https://dc.lft.to/lastmile_qr_scan", "ios": "https://dc.lft.to/lastmile_qr_scan"}, "name": "03fe0f8b333cda5d1d8d896c24339602", "is_reserved": 0}, {"is_disabled": 0, "fusion_lon": 0.0, "fusion_lat": 0.0, "lat": 38.91335133333333, "type": "electric_scooter", "lon": -77.03255383333334, "bike_id": "7c9cf7e3814443cebe269526abbb6f41", "rental_uris": {"android": "https://dc.lft.to/lastmile_qr_scan", "ios": "https://dc.lft.to/lastmile_qr_scan"}, "name": "7c9cf7e3814443cebe269526abbb6f41", "is_reserved": 0}, {"is_disabled": 0, "fusion_lon": 0.0, "fusion_lat": 0.0, "lat": 38.9019955, "type": "electric_scooter", "lon": -77.06123416666667, "bike_id": "51e77bd1c5a6debae2699e6b47b7e202", "rental_uris": {"android": "https://dc.lft.to/lastmile_qr_scan", "ios": "https://dc.lft.to/lastmile_qr_scan"}, "name": "51e77bd1c5a6debae2699e6b47b7e202", "is_reserved": 0}, {"is_disabled": 0, "fusion_lon": 0.0, "fusion_lat": 0.0, "lat": 38.891908, "type": "electric_scooter", "lon": -76.9883095, "bike_id": "b9fe2ee9867c102cc24e764c65199ff2", "rental_uris": {"android": "https://dc.lft.to/lastmile_qr_scan", "ios": "https://dc.lft.to/lastmile_qr_scan"}, "name": "b9fe2ee9867c102cc24e764c65199ff2", "is_reserved": 0}, {"is_disabled": 0, "fusion_lon": 0.0, "fusion_lat": 0.0, "lat": 38.93640083333333, "type": "electric_bike", "lon": -77.03683666666667, "bike_id": "afe434c22313c55494905207185535dd", "rental_uris": {"android": "https://dc.lft.to/lastmile_qr_scan", "ios": "https://dc.lft.to/lastmile_qr_scan"}, "name": "afe434c22313c55494905207185535dd", "is_reserved": 0}, {"is_disabled": 0, "fusion_lon": 0.0, "fusion_lat": 0.0, "lat": 38.908365833333335, "type": "electric_scooter", "lon": -77.0346295, "bike_id": "2fbe3806c2672c168fff70be74afb4fc", "rental_uris": {"android": "https://dc.lft.to/lastmile_qr_scan", "ios": "https://dc.lft.to/lastmile_qr_scan"}, "name": "2fbe3806c2672c168fff70be74afb4fc", "is_reserved": 0}, {"is_disabled": 0, "fusion_lon": 0.0, "fusion_lat": 0.0, "lat": 38.857859, "type": "electric_bike", "lon": -77.0996505, "bike_id": "cab681a65a6854ab856a503681409c98", "rental_uris": {"android": "https://dc.lft.to/lastmile_qr_scan", "ios": "https://dc.lft.to/lastmile_qr_scan"}, "name": "cab681a65a6854ab856a503681409c98", "is_reserved": 0}, {"is_disabled": 0, "fusion_lon": 0.0, "fusion_lat": 0.0, "lat": 38.896116, "type": "electric_scooter", "lon": -77.01087083333333, "bike_id": "4f572dc1340d42035690b34abb0217f5", "rental_uris": {"android": "https://dc.lft.to/lastmile_qr_scan", "ios": "https://dc.lft.to/lastmile_qr_scan"}, "name": "4f572dc1340d42035690b34abb0217f5", "is_reserved": 0}, {"is_disabled": 0, "fusion_lon": 0.0, "fusion_lat": 0.0, "lat": 38.905455333333336, "type": "electric_scooter", "lon": -77.029693, "bike_id": "a193438e178fcbf198afa3b1fa9f3a6c", "rental_uris": {"android": "https://dc.lft.to/lastmile_qr_scan", "ios": "https://dc.lft.to/lastmile_qr_scan"}, "name": "a193438e178fcbf198afa3b1fa9f3a6c", "is_reserved": 0}, {"is_disabled": 0, "fusion_lon": 0.0, "fusion_lat": 0.0, "lat": 38.9187925, "type": "electric_scooter", "lon": -77.04726183333334, "bike_id": "23dffe13ab68c2bbda4e31b1c286c4bf", "rental_uris": {"android": "https://dc.lft.to/lastmile_qr_scan", "ios": "https://dc.lft.to/lastmile_qr_scan"}, "name": "23dffe13ab68c2bbda4e31b1c286c4bf", "is_reserved": 0}, {"is_disabled": 0, "fusion_lon": 0.0, "fusion_lat": 0.0, "lat": 38.861114666666666, "type": "electric_scooter", "lon": -76.98371033333333, "bike_id": "7fefbbafad0cb5311ff791cc268a5a21", "rental_uris": {"android": "https://dc.lft.to/lastmile_qr_scan", "ios": "https://dc.lft.to/lastmile_qr_scan"}, "name": "7fefbbafad0cb5311ff791cc268a5a21", "is_reserved": 0}, {"is_disabled": 0, "fusion_lon": 0.0, "fusion_lat": 0.0, "lat": 38.9121645, "type": "electric_scooter", "lon": -77.0271635, "bike_id": "3d4b7e913b7401f842bc3b04a2dd9289", "rental_uris": {"android": "https://dc.lft.to/lastmile_qr_scan", "ios": "https://dc.lft.to/lastmile_qr_scan"}, "name": "3d4b7e913b7401f842bc3b04a2dd9289", "is_reserved": 0}, {"is_disabled": 0, "fusion_lon": 0.0, "fusion_lat": 0.0, "lat": 38.896176833333335, "type": "electric_scooter", "lon": -76.9963435, "bike_id": "360cf4c25e4bbd065acca12ebb790917", "rental_uris": {"android": "https://dc.lft.to/lastmile_qr_scan", "ios": "https://dc.lft.to/lastmile_qr_scan"}, "name": "360cf4c25e4bbd065acca12ebb790917", "is_reserved": 0}, {"is_disabled": 0, "fusion_lon": 0.0, "fusion_lat": 0.0, "lat": 38.89962283333333, "type": "electric_scooter", "lon": -77.04614116666667, "bike_id": "0eb69fef4b5bca5440576a1f5130c494", "rental_uris": {"android": "https://dc.lft.to/lastmile_qr_scan", "ios": "https://dc.lft.to/lastmile_qr_scan"}, "name": "0eb69fef4b5bca5440576a1f5130c494", "is_reserved": 0}, {"is_disabled": 0, "fusion_lon": 0.0, "fusion_lat": 0.0, "lat": 38.93253933333333, "type": "electric_scooter", "lon": -77.032907, "bike_id": "265babdeaef2bd2b90961eda9bb7d6e3", "rental_uris": {"android": "https://dc.lft.to/lastmile_qr_scan", "ios": "https://dc.lft.to/lastmile_qr_scan"}, "name": "265babdeaef2bd2b90961eda9bb7d6e3", "is_reserved": 0}, {"is_disabled": 0, "fusion_lon": 0.0, "fusion_lat": 0.0, "lat": 38.92247483333333, "type": "electric_scooter", "lon": -77.0308285, "bike_id": "099a04bd9feea260f398ad4ce661b3e4", "rental_uris": {"android": "https://dc.lft.to/lastmile_qr_scan", "ios": "https://dc.lft.to/lastmile_qr_scan"}, "name": "099a04bd9feea260f398ad4ce661b3e4", "is_reserved": 0}, {"is_disabled": 0, "fusion_lon": 0.0, "fusion_lat": 0.0, "lat": 38.90182083333333, "type": "electric_scooter", "lon": -76.92824233333333, "bike_id": "8d506ffa0adc80b011b427248e7860e2", "rental_uris": {"android": "https://dc.lft.to/lastmile_qr_scan", "ios": "https://dc.lft.to/lastmile_qr_scan"}, "name": "8d506ffa0adc80b011b427248e7860e2", "is_reserved": 0}, {"is_disabled": 0, "fusion_lon": 0.0, "fusion_lat": 0.0, "lat": 38.90539583333333, "type": "electric_scooter", "lon": -77.02963616666666, "bike_id": "50bc7204a341d5a59e3e1a4419b03fd4", "rental_uris": {"android": "https://dc.lft.to/lastmile_qr_scan", "ios": "https://dc.lft.to/lastmile_qr_scan"}, "name": "50bc7204a341d5a59e3e1a4419b03fd4", "is_reserved": 0}, {"is_disabled": 0, "fusion_lon": 0.0, "fusion_lat": 0.0, "lat": 38.91256166666667, "type": "electric_scooter", "lon": -77.03271183333334, "bike_id": "95b0530f2cc47082b6a421bbef7655b8", "rental_uris": {"android": "https://dc.lft.to/lastmile_qr_scan", "ios": "https://dc.lft.to/lastmile_qr_scan"}, "name": "95b0530f2cc47082b6a421bbef7655b8", "is_reserved": 0}, {"is_disabled": 0, "fusion_lon": 0.0, "fusion_lat": 0.0, "lat": 38.89544383333333, "type": "electric_scooter", "lon": -77.01093516666667, "bike_id": "89ac652aa624e7d9a4342f6904d42228", "rental_uris": {"android": "https://dc.lft.to/lastmile_qr_scan", "ios": "https://dc.lft.to/lastmile_qr_scan"}, "name": "89ac652aa624e7d9a4342f6904d42228", "is_reserved": 0}, {"is_disabled": 0, "fusion_lon": 0.0, "fusion_lat": 0.0, "lat": 38.915658, "type": "electric_scooter", "lon": -77.0327215, "bike_id": "36014e9eef5f5c6461d71446dc4499fc", "rental_uris": {"android": "https://dc.lft.to/lastmile_qr_scan", "ios": "https://dc.lft.to/lastmile_qr_scan"}, "name": "36014e9eef5f5c6461d71446dc4499fc", "is_reserved": 0}, {"is_disabled": 0, "fusion_lon": 0.0, "fusion_lat": 0.0, "lat": 38.9178635, "type": "electric_scooter", "lon": -77.0229955, "bike_id": "e026de94caa41b2129f9a64bdeb16525", "rental_uris": {"android": "https://dc.lft.to/lastmile_qr_scan", "ios": "https://dc.lft.to/lastmile_qr_scan"}, "name": "e026de94caa41b2129f9a64bdeb16525", "is_reserved": 0}, {"is_disabled": 0, "fusion_lon": 0.0, "fusion_lat": 0.0, "lat": 38.9187165, "type": "electric_bike", "lon": -76.96125466666666, "bike_id": "b1941318c8d0e221fb2ad535d4dcb642", "rental_uris": {"android": "https://dc.lft.to/lastmile_qr_scan", "ios": "https://dc.lft.to/lastmile_qr_scan"}, "name": "b1941318c8d0e221fb2ad535d4dcb642", "is_reserved": 0}, {"is_disabled": 0, "fusion_lon": 0.0, "fusion_lat": 0.0, "lat": 38.83812783333333, "type": "electric_scooter", "lon": -77.00431466666667, "bike_id": "1d87fd0fa99f17e441cd7bd6d2ade29c", "rental_uris": {"android": "https://dc.lft.to/lastmile_qr_scan", "ios": "https://dc.lft.to/lastmile_qr_scan"}, "name": "1d87fd0fa99f17e441cd7bd6d2ade29c", "is_reserved": 0}, {"is_disabled": 0, "fusion_lon": 0.0, "fusion_lat": 0.0, "lat": 38.894237833333335, "type": "electric_scooter", "lon": -76.912185, "bike_id": "cf7b1ed7e0d8202714f050396dfb1ba0", "rental_uris": {"android": "https://dc.lft.to/lastmile_qr_scan", "ios": "https://dc.lft.to/lastmile_qr_scan"}, "name": "cf7b1ed7e0d8202714f050396dfb1ba0", "is_reserved": 0}, {"is_disabled": 0, "fusion_lon": 0.0, "fusion_lat": 0.0, "lat": 38.937019666666664, "type": "electric_scooter", "lon": -77.0610315, "bike_id": "1b537de562db10f8533eed757d38dfe4", "rental_uris": {"android": "https://dc.lft.to/lastmile_qr_scan", "ios": "https://dc.lft.to/lastmile_qr_scan"}, "name": "1b537de562db10f8533eed757d38dfe4", "is_reserved": 0}, {"is_disabled": 0, "fusion_lon": 0.0, "fusion_lat": 0.0, "lat": 38.920773833333335, "type": "electric_scooter", "lon": -77.02392266666666, "bike_id": "78eae4c8be72969aedbf9374c6325637", "rental_uris": {"android": "https://dc.lft.to/lastmile_qr_scan", "ios": "https://dc.lft.to/lastmile_qr_scan"}, "name": "78eae4c8be72969aedbf9374c6325637", "is_reserved": 0}, {"is_disabled": 0, "fusion_lon": 0.0, "fusion_lat": 0.0, "lat": 38.920718666666666, "type": "electric_scooter", "lon": -77.02414216666666, "bike_id": "b2eb3c82909879e95dd32e086224831a", "rental_uris": {"android": "https://dc.lft.to/lastmile_qr_scan", "ios": "https://dc.lft.to/lastmile_qr_scan"}, "name": "b2eb3c82909879e95dd32e086224831a", "is_reserved": 0}, {"is_disabled": 0, "fusion_lon": 0.0, "fusion_lat": 0.0, "lat": 38.8955355, "type": "electric_scooter", "lon": -77.01109866666667, "bike_id": "3004cffb8d2afd3a73f17544c7f41690", "rental_uris": {"android": "https://dc.lft.to/lastmile_qr_scan", "ios": "https://dc.lft.to/lastmile_qr_scan"}, "name": "3004cffb8d2afd3a73f17544c7f41690", "is_reserved": 0}, {"is_disabled": 0, "fusion_lon": 0.0, "fusion_lat": 0.0, "lat": 38.93710216666667, "type": "electric_scooter", "lon": -77.02391866666666, "bike_id": "3955a694b356ddc85bf96aae3df13902", "rental_uris": {"android": "https://dc.lft.to/lastmile_qr_scan", "ios": "https://dc.lft.to/lastmile_qr_scan"}, "name": "3955a694b356ddc85bf96aae3df13902", "is_reserved": 0}, {"is_disabled": 0, "fusion_lon": 0.0, "fusion_lat": 0.0, "lat": 38.8921725, "type": "electric_scooter", "lon": -77.04354166666667, "bike_id": "f2e61f205d908a7624bc1b740ae8d323", "rental_uris": {"android": "https://dc.lft.to/lastmile_qr_scan", "ios": "https://dc.lft.to/lastmile_qr_scan"}, "name": "f2e61f205d908a7624bc1b740ae8d323", "is_reserved": 0}, {"is_disabled": 0, "fusion_lon": 0.0, "fusion_lat": 0.0, "lat": 38.90503833333333, "type": "electric_scooter", "lon": -77.0294745, "bike_id": "05443db62bcac3f218334463f744d026", "rental_uris": {"android": "https://dc.lft.to/lastmile_qr_scan", "ios": "https://dc.lft.to/lastmile_qr_scan"}, "name": "05443db62bcac3f218334463f744d026", "is_reserved": 0}, {"is_disabled": 0, "fusion_lon": 0.0, "fusion_lat": 0.0, "lat": 38.91193166666667, "type": "electric_scooter", "lon": -77.04173266666666, "bike_id": "69158aac46477dea0b337edb4334ca54", "rental_uris": {"android": "https://dc.lft.to/lastmile_qr_scan", "ios": "https://dc.lft.to/lastmile_qr_scan"}, "name": "69158aac46477dea0b337edb4334ca54", "is_reserved": 0}, {"is_disabled": 0, "fusion_lon": 0.0, "fusion_lat": 0.0, "lat": 38.9177015, "type": "electric_scooter", "lon": -77.03180583333334, "bike_id": "9a30b1758471e8340ef05e622566b333", "rental_uris": {"android": "https://dc.lft.to/lastmile_qr_scan", "ios": "https://dc.lft.to/lastmile_qr_scan"}, "name": "9a30b1758471e8340ef05e622566b333", "is_reserved": 0}, {"is_disabled": 0, "fusion_lon": 0.0, "fusion_lat": 0.0, "lat": 38.865943, "type": "electric_bike", "lon": -76.93231883333333, "bike_id": "bc6b83654315a76d62245afad1f79d10", "rental_uris": {"android": "https://dc.lft.to/lastmile_qr_scan", "ios": "https://dc.lft.to/lastmile_qr_scan"}, "name": "bc6b83654315a76d62245afad1f79d10", "is_reserved": 0}, {"is_disabled": 0, "fusion_lon": 0.0, "fusion_lat": 0.0, "lat": 38.915296, "type": "electric_scooter", "lon": -77.021867, "bike_id": "feee2d6bcef4866d1d03f74f5978e0b5", "rental_uris": {"android": "https://dc.lft.to/lastmile_qr_scan", "ios": "https://dc.lft.to/lastmile_qr_scan"}, "name": "feee2d6bcef4866d1d03f74f5978e0b5", "is_reserved": 0}, {"is_disabled": 0, "fusion_lon": 0.0, "fusion_lat": 0.0, "lat": 38.91565966666667, "type": "electric_scooter", "lon": -77.031542, "bike_id": "168a6712f358bb30196955a062400084", "rental_uris": {"android": "https://dc.lft.to/lastmile_qr_scan", "ios": "https://dc.lft.to/lastmile_qr_scan"}, "name": "168a6712f358bb30196955a062400084", "is_reserved": 0}, {"is_disabled": 0, "fusion_lon": 0.0, "fusion_lat": 0.0, "lat": 38.91807683333333, "type": "electric_scooter", "lon": -77.035685, "bike_id": "4a683a1ed0e2128f7852a79f1291c3f5", "rental_uris": {"android": "https://dc.lft.to/lastmile_qr_scan", "ios": "https://dc.lft.to/lastmile_qr_scan"}, "name": "4a683a1ed0e2128f7852a79f1291c3f5", "is_reserved": 0}, {"is_disabled": 0, "fusion_lon": 0.0, "fusion_lat": 0.0, "lat": 38.892508, "type": "electric_scooter", "lon": -76.9985375, "bike_id": "88e6ed88c42b944d78be9ec2ae87632f", "rental_uris": {"android": "https://dc.lft.to/lastmile_qr_scan", "ios": "https://dc.lft.to/lastmile_qr_scan"}, "name": "88e6ed88c42b944d78be9ec2ae87632f", "is_reserved": 0}, {"is_disabled": 0, "fusion_lon": 0.0, "fusion_lat": 0.0, "lat": 38.8521065, "type": "electric_bike", "lon": -77.12756666666667, "bike_id": "00cbb8d92dd4d03276e3111b4a958e2f", "rental_uris": {"android": "https://dc.lft.to/lastmile_qr_scan", "ios": "https://dc.lft.to/lastmile_qr_scan"}, "name": "00cbb8d92dd4d03276e3111b4a958e2f", "is_reserved": 0}, {"is_disabled": 0, "fusion_lon": 0.0, "fusion_lat": 0.0, "lat": 38.90864966666667, "type": "electric_scooter", "lon": -77.04351333333334, "bike_id": "eeca4df594f405fe43207ede57b70579", "rental_uris": {"android": "https://dc.lft.to/lastmile_qr_scan", "ios": "https://dc.lft.to/lastmile_qr_scan"}, "name": "eeca4df594f405fe43207ede57b70579", "is_reserved": 0}, {"is_disabled": 0, "fusion_lon": 0.0, "fusion_lat": 0.0, "lat": 38.919286166666666, "type": "electric_scooter", "lon": -77.03425883333334, "bike_id": "0523ee58b2fffce9d3f540b0af98be66", "rental_uris": {"android": "https://dc.lft.to/lastmile_qr_scan", "ios": "https://dc.lft.to/lastmile_qr_scan"}, "name": "0523ee58b2fffce9d3f540b0af98be66", "is_reserved": 0}, {"is_disabled": 0, "fusion_lon": 0.0, "fusion_lat": 0.0, "lat": 38.944918333333334, "type": "electric_bike", "lon": -77.0068275, "bike_id": "60430dbcf6768b5577af2c276513f5d8", "rental_uris": {"android": "https://dc.lft.to/lastmile_qr_scan", "ios": "https://dc.lft.to/lastmile_qr_scan"}, "name": "60430dbcf6768b5577af2c276513f5d8", "is_reserved": 0}, {"is_disabled": 0, "fusion_lon": 0.0, "fusion_lat": 0.0, "lat": 38.89732033333333, "type": "electric_scooter", "lon": -77.04726966666666, "bike_id": "81704b2d117c492dbb7ca56751179ef0", "rental_uris": {"android": "https://dc.lft.to/lastmile_qr_scan", "ios": "https://dc.lft.to/lastmile_qr_scan"}, "name": "81704b2d117c492dbb7ca56751179ef0", "is_reserved": 0}, {"is_disabled": 0, "fusion_lon": 0.0, "fusion_lat": 0.0, "lat": 38.9199185, "type": "electric_scooter", "lon": -76.98398483333334, "bike_id": "8004938a3aaf2b63dab220efec91431d", "rental_uris": {"android": "https://dc.lft.to/lastmile_qr_scan", "ios": "https://dc.lft.to/lastmile_qr_scan"}, "name": "8004938a3aaf2b63dab220efec91431d", "is_reserved": 0}, {"is_disabled": 0, "fusion_lon": 0.0, "fusion_lat": 0.0, "lat": 38.915509666666665, "type": "electric_scooter", "lon": -77.02370733333333, "bike_id": "4fe23bc6a5f2e5b64120f0b85cdcd54f", "rental_uris": {"android": "https://dc.lft.to/lastmile_qr_scan", "ios": "https://dc.lft.to/lastmile_qr_scan"}, "name": "4fe23bc6a5f2e5b64120f0b85cdcd54f", "is_reserved": 0}, {"is_disabled": 0, "fusion_lon": 0.0, "fusion_lat": 0.0, "lat": 38.933104, "type": "electric_scooter", "lon": -77.03263016666666, "bike_id": "dfb613ccd36f24af9f77bc72b90cd335", "rental_uris": {"android": "https://dc.lft.to/lastmile_qr_scan", "ios": "https://dc.lft.to/lastmile_qr_scan"}, "name": "dfb613ccd36f24af9f77bc72b90cd335", "is_reserved": 0}, {"is_disabled": 0, "fusion_lon": 0.0, "fusion_lat": 0.0, "lat": 38.9224515, "type": "electric_scooter", "lon": -77.0366335, "bike_id": "767099ef682e4d13ae8c6d6a755719d2", "rental_uris": {"android": "https://dc.lft.to/lastmile_qr_scan", "ios": "https://dc.lft.to/lastmile_qr_scan"}, "name": "767099ef682e4d13ae8c6d6a755719d2", "is_reserved": 0}, {"is_disabled": 0, "fusion_lon": 0.0, "fusion_lat": 0.0, "lat": 38.91561083333333, "type": "electric_scooter", "lon": -77.03872833333334, "bike_id": "29ab4cf4fabb3fb1da4a7847b56c1087", "rental_uris": {"android": "https://dc.lft.to/lastmile_qr_scan", "ios": "https://dc.lft.to/lastmile_qr_scan"}, "name": "29ab4cf4fabb3fb1da4a7847b56c1087", "is_reserved": 0}, {"is_disabled": 0, "fusion_lon": 0.0, "fusion_lat": 0.0, "lat": 38.897476166666664, "type": "electric_scooter", "lon": -77.05158733333333, "bike_id": "1c27392c26b3529198b8a2ddfb30a22c", "rental_uris": {"android": "https://dc.lft.to/lastmile_qr_scan", "ios": "https://dc.lft.to/lastmile_qr_scan"}, "name": "1c27392c26b3529198b8a2ddfb30a22c", "is_reserved": 0}, {"is_disabled": 0, "fusion_lon": 0.0, "fusion_lat": 0.0, "lat": 38.89873133333333, "type": "electric_scooter", "lon": -76.9318375, "bike_id": "7ceec487f25dea9e56c56190895aa621", "rental_uris": {"android": "https://dc.lft.to/lastmile_qr_scan", "ios": "https://dc.lft.to/lastmile_qr_scan"}, "name": "7ceec487f25dea9e56c56190895aa621", "is_reserved": 0}, {"is_disabled": 0, "fusion_lon": 0.0, "fusion_lat": 0.0, "lat": 38.98025583333333, "type": "electric_bike", "lon": -76.9292035, "bike_id": "67a2fbd758812853ce300cd9d0dff523", "rental_uris": {"android": "https://dc.lft.to/lastmile_qr_scan", "ios": "https://dc.lft.to/lastmile_qr_scan"}, "name": "67a2fbd758812853ce300cd9d0dff523", "is_reserved": 0}, {"is_disabled": 0, "fusion_lon": 0.0, "fusion_lat": 0.0, "lat": 38.898410166666665, "type": "electric_scooter", "lon": -76.94636433333334, "bike_id": "bc4470f7867a5dbe78ac7657a42bd239", "rental_uris": {"android": "https://dc.lft.to/lastmile_qr_scan", "ios": "https://dc.lft.to/lastmile_qr_scan"}, "name": "bc4470f7867a5dbe78ac7657a42bd239", "is_reserved": 0}, {"is_disabled": 0, "fusion_lon": 0.0, "fusion_lat": 0.0, "lat": 38.9126805, "type": "electric_scooter", "lon": -77.041578, "bike_id": "5117680c5224364f69e7c6434f2c67dc", "rental_uris": {"android": "https://dc.lft.to/lastmile_qr_scan", "ios": "https://dc.lft.to/lastmile_qr_scan"}, "name": "5117680c5224364f69e7c6434f2c67dc", "is_reserved": 0}, {"is_disabled": 0, "fusion_lon": 0.0, "fusion_lat": 0.0, "lat": 38.9171635, "type": "electric_scooter", "lon": -77.0385895, "bike_id": "7302b5673c0baf662e9774052eb35836", "rental_uris": {"android": "https://dc.lft.to/lastmile_qr_scan", "ios": "https://dc.lft.to/lastmile_qr_scan"}, "name": "7302b5673c0baf662e9774052eb35836", "is_reserved": 0}, {"is_disabled": 0, "fusion_lon": 0.0, "fusion_lat": 0.0, "lat": 38.9210935, "type": "electric_scooter", "lon": -77.04223216666666, "bike_id": "002fdfc4906bc1e8352a5fc917e5776d", "rental_uris": {"android": "https://dc.lft.to/lastmile_qr_scan", "ios": "https://dc.lft.to/lastmile_qr_scan"}, "name": "002fdfc4906bc1e8352a5fc917e5776d", "is_reserved": 0}, {"is_disabled": 0, "fusion_lon": 0.0, "fusion_lat": 0.0, "lat": 38.91581166666667, "type": "electric_scooter", "lon": -77.02002316666666, "bike_id": "b7ae7f8afe15a84ef335dc9339d20860", "rental_uris": {"android": "https://dc.lft.to/lastmile_qr_scan", "ios": "https://dc.lft.to/lastmile_qr_scan"}, "name": "b7ae7f8afe15a84ef335dc9339d20860", "is_reserved": 0}, {"is_disabled": 0, "fusion_lon": 0.0, "fusion_lat": 0.0, "lat": 38.910644, "type": "electric_scooter", "lon": -76.986613, "bike_id": "51b6fbadf751cfe6bb47a0b2a52a7694", "rental_uris": {"android": "https://dc.lft.to/lastmile_qr_scan", "ios": "https://dc.lft.to/lastmile_qr_scan"}, "name": "51b6fbadf751cfe6bb47a0b2a52a7694", "is_reserved": 0}, {"is_disabled": 0, "fusion_lon": 0.0, "fusion_lat": 0.0, "lat": 38.918723666666665, "type": "electric_scooter", "lon": -77.04491, "bike_id": "335d09b3303c63bbefbd39184ca315e2", "rental_uris": {"android": "https://dc.lft.to/lastmile_qr_scan", "ios": "https://dc.lft.to/lastmile_qr_scan"}, "name": "335d09b3303c63bbefbd39184ca315e2", "is_reserved": 0}, {"is_disabled": 0, "fusion_lon": 0.0, "fusion_lat": 0.0, "lat": 38.92022716666666, "type": "electric_scooter", "lon": -77.0319565, "bike_id": "d68833afed5662ea486b845788ced344", "rental_uris": {"android": "https://dc.lft.to/lastmile_qr_scan", "ios": "https://dc.lft.to/lastmile_qr_scan"}, "name": "d68833afed5662ea486b845788ced344", "is_reserved": 0}, {"is_disabled": 0, "fusion_lon": 0.0, "fusion_lat": 0.0, "lat": 38.90957066666667, "type": "electric_scooter", "lon": -77.04532983333333, "bike_id": "000560d881d3f5df7c0cfc32fa592756", "rental_uris": {"android": "https://dc.lft.to/lastmile_qr_scan", "ios": "https://dc.lft.to/lastmile_qr_scan"}, "name": "000560d881d3f5df7c0cfc32fa592756", "is_reserved": 0}, {"is_disabled": 0, "fusion_lon": 0.0, "fusion_lat": 0.0, "lat": 38.917806666666664, "type": "electric_scooter", "lon": -77.02307483333334, "bike_id": "7f4cf976ff5e42d4e0c95e2fa450e863", "rental_uris": {"android": "https://dc.lft.to/lastmile_qr_scan", "ios": "https://dc.lft.to/lastmile_qr_scan"}, "name": "7f4cf976ff5e42d4e0c95e2fa450e863", "is_reserved": 0}, {"is_disabled": 0, "fusion_lon": 0.0, "fusion_lat": 0.0, "lat": 38.90283816666667, "type": "electric_scooter", "lon": -77.024239, "bike_id": "c735a9fdfd10329a7c2a1ba16a7a8cac", "rental_uris": {"android": "https://dc.lft.to/lastmile_qr_scan", "ios": "https://dc.lft.to/lastmile_qr_scan"}, "name": "c735a9fdfd10329a7c2a1ba16a7a8cac", "is_reserved": 0}, {"is_disabled": 0, "fusion_lon": 0.0, "fusion_lat": 0.0, "lat": 38.87731183333333, "type": "electric_scooter", "lon": -77.000689, "bike_id": "df16827527660a979305b744d67a71ea", "rental_uris": {"android": "https://dc.lft.to/lastmile_qr_scan", "ios": "https://dc.lft.to/lastmile_qr_scan"}, "name": "df16827527660a979305b744d67a71ea", "is_reserved": 0}, {"is_disabled": 0, "fusion_lon": 0.0, "fusion_lat": 0.0, "lat": 38.90529316666667, "type": "electric_scooter", "lon": -77.0508695, "bike_id": "6e0a7c8f0064f5ee842a16b254f184e0", "rental_uris": {"android": "https://dc.lft.to/lastmile_qr_scan", "ios": "https://dc.lft.to/lastmile_qr_scan"}, "name": "6e0a7c8f0064f5ee842a16b254f184e0", "is_reserved": 0}, {"is_disabled": 0, "fusion_lon": 0.0, "fusion_lat": 0.0, "lat": 38.91780633333333, "type": "electric_scooter", "lon": -76.97278433333334, "bike_id": "032f11236fd184490029b96111716e3f", "rental_uris": {"android": "https://dc.lft.to/lastmile_qr_scan", "ios": "https://dc.lft.to/lastmile_qr_scan"}, "name": "032f11236fd184490029b96111716e3f", "is_reserved": 0}, {"is_disabled": 0, "fusion_lon": 0.0, "fusion_lat": 0.0, "lat": 38.895566333333335, "type": "electric_scooter", "lon": -77.00409416666666, "bike_id": "4752dd969824e82e8398900f44e7a0ad", "rental_uris": {"android": "https://dc.lft.to/lastmile_qr_scan", "ios": "https://dc.lft.to/lastmile_qr_scan"}, "name": "4752dd969824e82e8398900f44e7a0ad", "is_reserved": 0}, {"is_disabled": 0, "fusion_lon": 0.0, "fusion_lat": 0.0, "lat": 38.926707666666665, "type": "electric_scooter", "lon": -77.0321555, "bike_id": "5ee27f047e38c77ef22e8d288f4d5699", "rental_uris": {"android": "https://dc.lft.to/lastmile_qr_scan", "ios": "https://dc.lft.to/lastmile_qr_scan"}, "name": "5ee27f047e38c77ef22e8d288f4d5699", "is_reserved": 0}, {"is_disabled": 0, "fusion_lon": 0.0, "fusion_lat": 0.0, "lat": 38.905596, "type": "electric_scooter", "lon": -77.00590433333333, "bike_id": "3ee242de1b6c5c3f0fd8cb5ae8f1b79b", "rental_uris": {"android": "https://dc.lft.to/lastmile_qr_scan", "ios": "https://dc.lft.to/lastmile_qr_scan"}, "name": "3ee242de1b6c5c3f0fd8cb5ae8f1b79b", "is_reserved": 0}, {"is_disabled": 0, "fusion_lon": 0.0, "fusion_lat": 0.0, "lat": 38.92075283333333, "type": "electric_scooter", "lon": -77.023882, "bike_id": "c1b8caff58260d714caa726322d16e88", "rental_uris": {"android": "https://dc.lft.to/lastmile_qr_scan", "ios": "https://dc.lft.to/lastmile_qr_scan"}, "name": "c1b8caff58260d714caa726322d16e88", "is_reserved": 0}, {"is_disabled": 0, "fusion_lon": 0.0, "fusion_lat": 0.0, "lat": 38.865509333333335, "type": "electric_bike", "lon": -76.97318666666666, "bike_id": "01cbc4835df463c385d8124c89f17c1e", "rental_uris": {"android": "https://dc.lft.to/lastmile_qr_scan", "ios": "https://dc.lft.to/lastmile_qr_scan"}, "name": "01cbc4835df463c385d8124c89f17c1e", "is_reserved": 0}, {"is_disabled": 0, "fusion_lon": 0.0, "fusion_lat": 0.0, "lat": 38.9082375, "type": "electric_scooter", "lon": -77.03387333333333, "bike_id": "fa9869038aeea249d9b6f7cc483f8392", "rental_uris": {"android": "https://dc.lft.to/lastmile_qr_scan", "ios": "https://dc.lft.to/lastmile_qr_scan"}, "name": "fa9869038aeea249d9b6f7cc483f8392", "is_reserved": 0}, {"is_disabled": 0, "fusion_lon": 0.0, "fusion_lat": 0.0, "lat": 38.9300215, "type": "electric_scooter", "lon": -77.0784545, "bike_id": "c3a7a122e6bb99399ae9e2374edc72bd", "rental_uris": {"android": "https://dc.lft.to/lastmile_qr_scan", "ios": "https://dc.lft.to/lastmile_qr_scan"}, "name": "c3a7a122e6bb99399ae9e2374edc72bd", "is_reserved": 0}, {"is_disabled": 0, "fusion_lon": 0.0, "fusion_lat": 0.0, "lat": 38.93717733333333, "type": "electric_scooter", "lon": -77.03264316666667, "bike_id": "d8043473636801e8c1b2ac5f425c4041", "rental_uris": {"android": "https://dc.lft.to/lastmile_qr_scan", "ios": "https://dc.lft.to/lastmile_qr_scan"}, "name": "d8043473636801e8c1b2ac5f425c4041", "is_reserved": 0}, {"is_disabled": 0, "fusion_lon": 0.0, "fusion_lat": 0.0, "lat": 38.920291166666665, "type": "electric_scooter", "lon": -77.011388, "bike_id": "342c1ccd13ab88c2c0cda760a567b243", "rental_uris": {"android": "https://dc.lft.to/lastmile_qr_scan", "ios": "https://dc.lft.to/lastmile_qr_scan"}, "name": "342c1ccd13ab88c2c0cda760a567b243", "is_reserved": 0}, {"is_disabled": 0, "fusion_lon": 0.0, "fusion_lat": 0.0, "lat": 38.863536333333336, "type": "electric_scooter", "lon": -76.99057566666667, "bike_id": "fd97196d5a06ecd7c41b5bf8734f805a", "rental_uris": {"android": "https://dc.lft.to/lastmile_qr_scan", "ios": "https://dc.lft.to/lastmile_qr_scan"}, "name": "fd97196d5a06ecd7c41b5bf8734f805a", "is_reserved": 0}, {"is_disabled": 0, "fusion_lon": 0.0, "fusion_lat": 0.0, "lat": 38.90488766666667, "type": "electric_scooter", "lon": -77.02945683333333, "bike_id": "5ccc0f62ff11aa9674ba4982a30d2b73", "rental_uris": {"android": "https://dc.lft.to/lastmile_qr_scan", "ios": "https://dc.lft.to/lastmile_qr_scan"}, "name": "5ccc0f62ff11aa9674ba4982a30d2b73", "is_reserved": 0}, {"is_disabled": 0, "fusion_lon": 0.0, "fusion_lat": 0.0, "lat": 38.89388116666667, "type": "electric_scooter", "lon": -76.95000716666667, "bike_id": "38b128999241a89cd491a1ab3c165f4a", "rental_uris": {"android": "https://dc.lft.to/lastmile_qr_scan", "ios": "https://dc.lft.to/lastmile_qr_scan"}, "name": "38b128999241a89cd491a1ab3c165f4a", "is_reserved": 0}, {"is_disabled": 0, "fusion_lon": 0.0, "fusion_lat": 0.0, "lat": 38.93018333333333, "type": "electric_scooter", "lon": -77.03801166666666, "bike_id": "80c030ed65ff6d4b229c2a25f3d64975", "rental_uris": {"android": "https://dc.lft.to/lastmile_qr_scan", "ios": "https://dc.lft.to/lastmile_qr_scan"}, "name": "80c030ed65ff6d4b229c2a25f3d64975", "is_reserved": 0}, {"is_disabled": 0, "fusion_lon": 0.0, "fusion_lat": 0.0, "lat": 38.89016633333333, "type": "electric_scooter", "lon": -76.93744383333333, "bike_id": "f3225015ae9173dac8943d74ad947472", "rental_uris": {"android": "https://dc.lft.to/lastmile_qr_scan", "ios": "https://dc.lft.to/lastmile_qr_scan"}, "name": "f3225015ae9173dac8943d74ad947472", "is_reserved": 0}, {"is_disabled": 0, "fusion_lon": 0.0, "fusion_lat": 0.0, "lat": 38.861322, "type": "electric_scooter", "lon": -76.98565883333333, "bike_id": "110d311afcefa102c673188d1574a914", "rental_uris": {"android": "https://dc.lft.to/lastmile_qr_scan", "ios": "https://dc.lft.to/lastmile_qr_scan"}, "name": "110d311afcefa102c673188d1574a914", "is_reserved": 0}, {"is_disabled": 0, "fusion_lon": 0.0, "fusion_lat": 0.0, "lat": 38.927291333333336, "type": "electric_scooter", "lon": -77.02244033333334, "bike_id": "d2ae10172e0692acddea20a3886c7fa4", "rental_uris": {"android": "https://dc.lft.to/lastmile_qr_scan", "ios": "https://dc.lft.to/lastmile_qr_scan"}, "name": "d2ae10172e0692acddea20a3886c7fa4", "is_reserved": 0}, {"is_disabled": 0, "fusion_lon": 0.0, "fusion_lat": 0.0, "lat": 38.9330775, "type": "electric_scooter", "lon": -77.03260966666667, "bike_id": "12b36f562359d47e652ffc7f4e00ffb1", "rental_uris": {"android": "https://dc.lft.to/lastmile_qr_scan", "ios": "https://dc.lft.to/lastmile_qr_scan"}, "name": "12b36f562359d47e652ffc7f4e00ffb1", "is_reserved": 0}, {"is_disabled": 0, "fusion_lon": 0.0, "fusion_lat": 0.0, "lat": 38.905677833333336, "type": "electric_scooter", "lon": -77.024907, "bike_id": "15f8c2b74b1e2941d1dd8387f8b3081d", "rental_uris": {"android": "https://dc.lft.to/lastmile_qr_scan", "ios": "https://dc.lft.to/lastmile_qr_scan"}, "name": "15f8c2b74b1e2941d1dd8387f8b3081d", "is_reserved": 0}, {"is_disabled": 0, "fusion_lon": 0.0, "fusion_lat": 0.0, "lat": 38.918436166666666, "type": "electric_scooter", "lon": -77.02531966666666, "bike_id": "49a982384cd1faa8514c944a8df79cb0", "rental_uris": {"android": "https://dc.lft.to/lastmile_qr_scan", "ios": "https://dc.lft.to/lastmile_qr_scan"}, "name": "49a982384cd1faa8514c944a8df79cb0", "is_reserved": 0}, {"is_disabled": 0, "fusion_lon": 0.0, "fusion_lat": 0.0, "lat": 38.85425, "type": "electric_bike", "lon": -76.909488, "bike_id": "f146424d4c419aa1f2077b4f6be88f1d", "rental_uris": {"android": "https://dc.lft.to/lastmile_qr_scan", "ios": "https://dc.lft.to/lastmile_qr_scan"}, "name": "f146424d4c419aa1f2077b4f6be88f1d", "is_reserved": 0}, {"is_disabled": 0, "fusion_lon": 0.0, "fusion_lat": 0.0, "lat": 38.928364, "type": "electric_scooter", "lon": -77.0141955, "bike_id": "41a6d198bc32ed5c416ff5a7804f8fd4", "rental_uris": {"android": "https://dc.lft.to/lastmile_qr_scan", "ios": "https://dc.lft.to/lastmile_qr_scan"}, "name": "41a6d198bc32ed5c416ff5a7804f8fd4", "is_reserved": 0}, {"is_disabled": 0, "fusion_lon": 0.0, "fusion_lat": 0.0, "lat": 38.917999333333334, "type": "electric_scooter", "lon": -77.04034866666667, "bike_id": "07db7229f9c757ef44f440144bb8af26", "rental_uris": {"android": "https://dc.lft.to/lastmile_qr_scan", "ios": "https://dc.lft.to/lastmile_qr_scan"}, "name": "07db7229f9c757ef44f440144bb8af26", "is_reserved": 0}, {"is_disabled": 0, "fusion_lon": 0.0, "fusion_lat": 0.0, "lat": 38.9024345, "type": "electric_scooter", "lon": -77.01941366666667, "bike_id": "9ac70abe6be4890d5e41753582ff5b02", "rental_uris": {"android": "https://dc.lft.to/lastmile_qr_scan", "ios": "https://dc.lft.to/lastmile_qr_scan"}, "name": "9ac70abe6be4890d5e41753582ff5b02", "is_reserved": 0}, {"is_disabled": 0, "fusion_lon": 0.0, "fusion_lat": 0.0, "lat": 38.88206266666667, "type": "electric_bike", "lon": -77.107692, "bike_id": "81928d4afdcfb62c37d8c84b8ec224d2", "rental_uris": {"android": "https://dc.lft.to/lastmile_qr_scan", "ios": "https://dc.lft.to/lastmile_qr_scan"}, "name": "81928d4afdcfb62c37d8c84b8ec224d2", "is_reserved": 0}, {"is_disabled": 0, "fusion_lon": 0.0, "fusion_lat": 0.0, "lat": 38.883409, "type": "electric_scooter", "lon": -76.9417575, "bike_id": "7ca546ed70c70b00b74690f49f5bf08a", "rental_uris": {"android": "https://dc.lft.to/lastmile_qr_scan", "ios": "https://dc.lft.to/lastmile_qr_scan"}, "name": "7ca546ed70c70b00b74690f49f5bf08a", "is_reserved": 0}, {"is_disabled": 0, "fusion_lon": 0.0, "fusion_lat": 0.0, "lat": 38.899948, "type": "electric_scooter", "lon": -76.92228883333334, "bike_id": "3941a8a6161a8549834eaab7cf3385d9", "rental_uris": {"android": "https://dc.lft.to/lastmile_qr_scan", "ios": "https://dc.lft.to/lastmile_qr_scan"}, "name": "3941a8a6161a8549834eaab7cf3385d9", "is_reserved": 0}, {"is_disabled": 0, "fusion_lon": 0.0, "fusion_lat": 0.0, "lat": 38.918063333333336, "type": "electric_scooter", "lon": -77.0101895, "bike_id": "cbd1252c41665b386c1024b9a0b8c5e0", "rental_uris": {"android": "https://dc.lft.to/lastmile_qr_scan", "ios": "https://dc.lft.to/lastmile_qr_scan"}, "name": "cbd1252c41665b386c1024b9a0b8c5e0", "is_reserved": 0}, {"is_disabled": 0, "fusion_lon": 0.0, "fusion_lat": 0.0, "lat": 38.852025, "type": "electric_bike", "lon": -77.10131666666666, "bike_id": "3886b244a92b495d2fe6564f54b3de1c", "rental_uris": {"android": "https://dc.lft.to/lastmile_qr_scan", "ios": "https://dc.lft.to/lastmile_qr_scan"}, "name": "3886b244a92b495d2fe6564f54b3de1c", "is_reserved": 0}, {"is_disabled": 0, "fusion_lon": 0.0, "fusion_lat": 0.0, "lat": 38.91048466666667, "type": "electric_scooter", "lon": -77.04345216666667, "bike_id": "8d0c3b058a8d41eb3fe1ff151d776379", "rental_uris": {"android": "https://dc.lft.to/lastmile_qr_scan", "ios": "https://dc.lft.to/lastmile_qr_scan"}, "name": "8d0c3b058a8d41eb3fe1ff151d776379", "is_reserved": 0}, {"is_disabled": 0, "fusion_lon": 0.0, "fusion_lat": 0.0, "lat": 38.92577133333333, "type": "electric_scooter", "lon": -76.99487333333333, "bike_id": "909458011483a0313334ea07d5cad482", "rental_uris": {"android": "https://dc.lft.to/lastmile_qr_scan", "ios": "https://dc.lft.to/lastmile_qr_scan"}, "name": "909458011483a0313334ea07d5cad482", "is_reserved": 0}, {"is_disabled": 0, "fusion_lon": 0.0, "fusion_lat": 0.0, "lat": 38.930989, "type": "electric_scooter", "lon": -77.026682, "bike_id": "424d57c5a5e9b12dd904acc90264895f", "rental_uris": {"android": "https://dc.lft.to/lastmile_qr_scan", "ios": "https://dc.lft.to/lastmile_qr_scan"}, "name": "424d57c5a5e9b12dd904acc90264895f", "is_reserved": 0}, {"is_disabled": 0, "fusion_lon": 0.0, "fusion_lat": 0.0, "lat": 38.903888333333335, "type": "electric_scooter", "lon": -77.03018216666666, "bike_id": "2b98e771ea3caea17fbb8aaced62f5a3", "rental_uris": {"android": "https://dc.lft.to/lastmile_qr_scan", "ios": "https://dc.lft.to/lastmile_qr_scan"}, "name": "2b98e771ea3caea17fbb8aaced62f5a3", "is_reserved": 0}, {"is_disabled": 0, "fusion_lon": 0.0, "fusion_lat": 0.0, "lat": 38.920090333333334, "type": "electric_scooter", "lon": -77.031466, "bike_id": "621cade05fbc5aafae13b42c1caecf52", "rental_uris": {"android": "https://dc.lft.to/lastmile_qr_scan", "ios": "https://dc.lft.to/lastmile_qr_scan"}, "name": "621cade05fbc5aafae13b42c1caecf52", "is_reserved": 0}, {"is_disabled": 0, "fusion_lon": 0.0, "fusion_lat": 0.0, "lat": 38.869088, "type": "electric_scooter", "lon": -77.01374183333333, "bike_id": "3e0f4b22003e40ec36a9c5f98a483e8e", "rental_uris": {"android": "https://dc.lft.to/lastmile_qr_scan", "ios": "https://dc.lft.to/lastmile_qr_scan"}, "name": "3e0f4b22003e40ec36a9c5f98a483e8e", "is_reserved": 0}, {"is_disabled": 0, "fusion_lon": 0.0, "fusion_lat": 0.0, "lat": 38.931897666666664, "type": "electric_scooter", "lon": -77.02833966666667, "bike_id": "db36a768bcc58ed147503aa77528da49", "rental_uris": {"android": "https://dc.lft.to/lastmile_qr_scan", "ios": "https://dc.lft.to/lastmile_qr_scan"}, "name": "db36a768bcc58ed147503aa77528da49", "is_reserved": 0}, {"is_disabled": 0, "fusion_lon": 0.0, "fusion_lat": 0.0, "lat": 38.929630333333336, "type": "electric_scooter", "lon": -77.04201616666667, "bike_id": "58fc2ac87a8bb987dc7d896af980658a", "rental_uris": {"android": "https://dc.lft.to/lastmile_qr_scan", "ios": "https://dc.lft.to/lastmile_qr_scan"}, "name": "58fc2ac87a8bb987dc7d896af980658a", "is_reserved": 0}, {"is_disabled": 0, "fusion_lon": 0.0, "fusion_lat": 0.0, "lat": 38.916394333333336, "type": "electric_scooter", "lon": -77.0314495, "bike_id": "781fe3da31fbbd3ddb2663b6e680dc95", "rental_uris": {"android": "https://dc.lft.to/lastmile_qr_scan", "ios": "https://dc.lft.to/lastmile_qr_scan"}, "name": "781fe3da31fbbd3ddb2663b6e680dc95", "is_reserved": 0}, {"is_disabled": 0, "fusion_lon": 0.0, "fusion_lat": 0.0, "lat": 38.93338116666666, "type": "electric_bike", "lon": -77.04208766666666, "bike_id": "bbaee04a121f6fcfe114612d2b3a5a86", "rental_uris": {"android": "https://dc.lft.to/lastmile_qr_scan", "ios": "https://dc.lft.to/lastmile_qr_scan"}, "name": "bbaee04a121f6fcfe114612d2b3a5a86", "is_reserved": 0}, {"is_disabled": 0, "fusion_lon": 0.0, "fusion_lat": 0.0, "lat": 38.866964333333335, "type": "electric_scooter", "lon": -76.98708716666667, "bike_id": "2808fdadedc7df362591435421a8aea8", "rental_uris": {"android": "https://dc.lft.to/lastmile_qr_scan", "ios": "https://dc.lft.to/lastmile_qr_scan"}, "name": "2808fdadedc7df362591435421a8aea8", "is_reserved": 0}, {"is_disabled": 0, "fusion_lon": 0.0, "fusion_lat": 0.0, "lat": 38.94613183333333, "type": "electric_scooter", "lon": -77.03626166666666, "bike_id": "7dab792784a6b6e1d71bcd0abb48be48", "rental_uris": {"android": "https://dc.lft.to/lastmile_qr_scan", "ios": "https://dc.lft.to/lastmile_qr_scan"}, "name": "7dab792784a6b6e1d71bcd0abb48be48", "is_reserved": 0}, {"is_disabled": 0, "fusion_lon": 0.0, "fusion_lat": 0.0, "lat": 38.9126675, "type": "electric_scooter", "lon": -77.04154416666667, "bike_id": "ddea1995112554dfb320c32da9b1793f", "rental_uris": {"android": "https://dc.lft.to/lastmile_qr_scan", "ios": "https://dc.lft.to/lastmile_qr_scan"}, "name": "ddea1995112554dfb320c32da9b1793f", "is_reserved": 0}, {"is_disabled": 0, "fusion_lon": 0.0, "fusion_lat": 0.0, "lat": 38.91913616666667, "type": "electric_scooter", "lon": -77.02510516666666, "bike_id": "4d9e64a0e592f4bc455f79e2d0b1012a", "rental_uris": {"android": "https://dc.lft.to/lastmile_qr_scan", "ios": "https://dc.lft.to/lastmile_qr_scan"}, "name": "4d9e64a0e592f4bc455f79e2d0b1012a", "is_reserved": 0}, {"is_disabled": 0, "fusion_lon": 0.0, "fusion_lat": 0.0, "lat": 38.90109133333333, "type": "electric_scooter", "lon": -77.02733966666666, "bike_id": "db9f92d3f50a0902163d80f40e6bde26", "rental_uris": {"android": "https://dc.lft.to/lastmile_qr_scan", "ios": "https://dc.lft.to/lastmile_qr_scan"}, "name": "db9f92d3f50a0902163d80f40e6bde26", "is_reserved": 0}, {"is_disabled": 0, "fusion_lon": 0.0, "fusion_lat": 0.0, "lat": 38.89568, "type": "electric_scooter", "lon": -77.02298583333334, "bike_id": "cc332e2d1a9c4d10e1a6145b9d262fe0", "rental_uris": {"android": "https://dc.lft.to/lastmile_qr_scan", "ios": "https://dc.lft.to/lastmile_qr_scan"}, "name": "cc332e2d1a9c4d10e1a6145b9d262fe0", "is_reserved": 0}, {"is_disabled": 0, "fusion_lon": 0.0, "fusion_lat": 0.0, "lat": 38.894817333333336, "type": "electric_scooter", "lon": -77.022846, "bike_id": "fa90f58cc7c1f49c42f445e5eb381052", "rental_uris": {"android": "https://dc.lft.to/lastmile_qr_scan", "ios": "https://dc.lft.to/lastmile_qr_scan"}, "name": "fa90f58cc7c1f49c42f445e5eb381052", "is_reserved": 0}, {"is_disabled": 0, "fusion_lon": 0.0, "fusion_lat": 0.0, "lat": 38.87653866666667, "type": "electric_scooter", "lon": -77.00400516666667, "bike_id": "98edfb82970628995cd873361967090e", "rental_uris": {"android": "https://dc.lft.to/lastmile_qr_scan", "ios": "https://dc.lft.to/lastmile_qr_scan"}, "name": "98edfb82970628995cd873361967090e", "is_reserved": 0}, {"is_disabled": 0, "fusion_lon": 0.0, "fusion_lat": 0.0, "lat": 38.9167705, "type": "electric_scooter", "lon": -77.029722, "bike_id": "6ba24b7af8dbd7ca31b16185225e0fb1", "rental_uris": {"android": "https://dc.lft.to/lastmile_qr_scan", "ios": "https://dc.lft.to/lastmile_qr_scan"}, "name": "6ba24b7af8dbd7ca31b16185225e0fb1", "is_reserved": 0}, {"is_disabled": 0, "fusion_lon": 0.0, "fusion_lat": 0.0, "lat": 38.92422583333333, "type": "electric_scooter", "lon": -77.04483066666667, "bike_id": "c1f69cefdcd838d484095cbdbd31a493", "rental_uris": {"android": "https://dc.lft.to/lastmile_qr_scan", "ios": "https://dc.lft.to/lastmile_qr_scan"}, "name": "c1f69cefdcd838d484095cbdbd31a493", "is_reserved": 0}, {"is_disabled": 0, "fusion_lon": 0.0, "fusion_lat": 0.0, "lat": 38.94492983333333, "type": "electric_bike", "lon": -76.986627, "bike_id": "999eac1455660ecdb92f5f8d5b481701", "rental_uris": {"android": "https://dc.lft.to/lastmile_qr_scan", "ios": "https://dc.lft.to/lastmile_qr_scan"}, "name": "999eac1455660ecdb92f5f8d5b481701", "is_reserved": 0}, {"is_disabled": 0, "fusion_lon": 0.0, "fusion_lat": 0.0, "lat": 38.93545316666667, "type": "electric_scooter", "lon": -77.058106, "bike_id": "f878cbb0636d23dd59d14be2ddd8dd0c", "rental_uris": {"android": "https://dc.lft.to/lastmile_qr_scan", "ios": "https://dc.lft.to/lastmile_qr_scan"}, "name": "f878cbb0636d23dd59d14be2ddd8dd0c", "is_reserved": 0}, {"is_disabled": 0, "fusion_lon": 0.0, "fusion_lat": 0.0, "lat": 38.911774, "type": "electric_scooter", "lon": -77.027031, "bike_id": "44c085991e5ef634d02e356f65a7cbc4", "rental_uris": {"android": "https://dc.lft.to/lastmile_qr_scan", "ios": "https://dc.lft.to/lastmile_qr_scan"}, "name": "44c085991e5ef634d02e356f65a7cbc4", "is_reserved": 0}, {"is_disabled": 0, "fusion_lon": 0.0, "fusion_lat": 0.0, "lat": 38.91794733333333, "type": "electric_scooter", "lon": -77.031624, "bike_id": "ee32d09567d03da97900a84948ce3dc5", "rental_uris": {"android": "https://dc.lft.to/lastmile_qr_scan", "ios": "https://dc.lft.to/lastmile_qr_scan"}, "name": "ee32d09567d03da97900a84948ce3dc5", "is_reserved": 0}, {"is_disabled": 0, "fusion_lon": 0.0, "fusion_lat": 0.0, "lat": 38.92439, "type": "electric_bike", "lon": -76.90761066666667, "bike_id": "1299fe05465539d9f212fe616f368908", "rental_uris": {"android": "https://dc.lft.to/lastmile_qr_scan", "ios": "https://dc.lft.to/lastmile_qr_scan"}, "name": "1299fe05465539d9f212fe616f368908", "is_reserved": 0}, {"is_disabled": 0, "fusion_lon": 0.0, "fusion_lat": 0.0, "lat": 38.915819, "type": "electric_scooter", "lon": -77.04682366666667, "bike_id": "dbe25577e0a87566760aa071527b16f6", "rental_uris": {"android": "https://dc.lft.to/lastmile_qr_scan", "ios": "https://dc.lft.to/lastmile_qr_scan"}, "name": "dbe25577e0a87566760aa071527b16f6", "is_reserved": 0}, {"is_disabled": 0, "fusion_lon": 0.0, "fusion_lat": 0.0, "lat": 38.91545266666667, "type": "electric_scooter", "lon": -77.03857316666667, "bike_id": "aa5d98c7b551994df27613261c8730a9", "rental_uris": {"android": "https://dc.lft.to/lastmile_qr_scan", "ios": "https://dc.lft.to/lastmile_qr_scan"}, "name": "aa5d98c7b551994df27613261c8730a9", "is_reserved": 0}, {"is_disabled": 0, "fusion_lon": 0.0, "fusion_lat": 0.0, "lat": 38.919656833333335, "type": "electric_scooter", "lon": -77.0415405, "bike_id": "95b1fc86415922e8853501eff30b2bdd", "rental_uris": {"android": "https://dc.lft.to/lastmile_qr_scan", "ios": "https://dc.lft.to/lastmile_qr_scan"}, "name": "95b1fc86415922e8853501eff30b2bdd", "is_reserved": 0}, {"is_disabled": 0, "fusion_lon": 0.0, "fusion_lat": 0.0, "lat": 38.9144115, "type": "electric_scooter", "lon": -77.00896316666666, "bike_id": "9be6a12621689116e342345ce8abfdf6", "rental_uris": {"android": "https://dc.lft.to/lastmile_qr_scan", "ios": "https://dc.lft.to/lastmile_qr_scan"}, "name": "9be6a12621689116e342345ce8abfdf6", "is_reserved": 0}, {"is_disabled": 0, "fusion_lon": 0.0, "fusion_lat": 0.0, "lat": 38.898389333333334, "type": "electric_scooter", "lon": -77.02188666666666, "bike_id": "5a24c616ee5867694aa8b201ceac8112", "rental_uris": {"android": "https://dc.lft.to/lastmile_qr_scan", "ios": "https://dc.lft.to/lastmile_qr_scan"}, "name": "5a24c616ee5867694aa8b201ceac8112", "is_reserved": 0},