{"data": {"bikes": [{"rental_uris": {"android": "https://dc.lft.to/lastmile_qr_scan", "ios": "https://dc.lft.to/lastmile_qr_scan"}, "type": "electric_scooter", "lon": -77.0430265, "name": "55ba8fa365a1e75b3b2e2a8eb0eeb8d3", "bike_id": "55ba8fa365a1e75b3b2e2a8eb0eeb8d3", "fusion_lat": 0.0, "is_reserved": 0, "lat": 38.92256483333333, "fusion_lon": 0.0, "is_disabled": 0}, {"rental_uris": {"android": "https://dc.lft.to/lastmile_qr_scan", "ios": "https://dc.lft.to/lastmile_qr_scan"}, "type": "electric_scooter", "lon": -77.05139233333334, "name": "8e1753001711f5d02f04c0aa6a698606", "bike_id": "8e1753001711f5d02f04c0aa6a698606", "fusion_lat": 0.0, "is_reserved": 0, "lat": 38.90672516666667, "fusion_lon": 0.0, "is_disabled": 0}, {"rental_uris": {"android": "https://dc.lft.to/lastmile_qr_scan", "ios": "https://dc.lft.to/lastmile_qr_scan"}, "type": "electric_scooter", "lon": -77.02185816666666, "name": "9ff140fce9d7af82164431f428325ffa", "bike_id": "9ff140fce9d7af82164431f428325ffa", "fusion_lat": 0.0, "is_reserved": 0, "lat": 38.88508683333333, "fusion_lon": 0.0, "is_disabled": 0}, {"rental_uris": {"android": "https://dc.lft.to/lastmile_qr_scan", "ios": "https://dc.lft.to/lastmile_qr_scan"}, "type": "electric_scooter", "lon": -76.9463445, "name": "cfc4828a766fa37781b57bcb5e07f507", "bike_id": "cfc4828a766fa37781b57bcb5e07f507", "fusion_lat": 0.0, "is_reserved": 0, "lat": 38.8983975, "fusion_lon": 0.0, "is_disabled": 0}, {"rental_uris": {"android": "https://dc.lft.to/lastmile_qr_scan", "ios": "https://dc.lft.to/lastmile_qr_scan"}, "type": "electric_scooter", "lon": -77.05735116666666, "name": "d1a5ea552e113abf2a3643bfd7627380", "bike_id": "d1a5ea552e113abf2a3643bfd7627380", "fusion_lat": 0.0, "is_reserved": 0, "lat": 38.9336215, "fusion_lon": 0.0, "is_disabled": 0}, {"rental_uris": {"android": "https://dc.lft.to/lastmile_qr_scan", "ios": "https://dc.lft.to/lastmile_qr_scan"}, "type": "electric_scooter", "lon": -77.023514, "name": "f7ae2ac917ce9a150c0b2af48052eee0", "bike_id": "f7ae2ac917ce9a150c0b2af48052eee0", "fusion_lat": 0.0, "is_reserved": 0, "lat": 38.8922255, "fusion_lon": 0.0, "is_disabled": 0}, {"rental_uris": {"android": "https://dc.lft.to/lastmile_qr_scan", "ios": "https://dc.lft.to/lastmile_qr_scan"}, "type": "electric_scooter", "lon": -77.04168983333334, "name": "04432b97bc5d53ebba3851f5c069c36e", "bike_id": "04432b97bc5d53ebba3851f5c069c36e", "fusion_lat": 0.0, "is_reserved": 0, "lat": 38.913375, "fusion_lon": 0.0, "is_disabled": 0}, {"rental_uris": {"android": "https://dc.lft.to/lastmile_qr_scan", "ios": "https://dc.lft.to/lastmile_qr_scan"}, "type": "electric_scooter", "lon": -77.02542083333333, "name": "f1f44cbb675322b790e7b4d5e87125e4", "bike_id": "f1f44cbb675322b790e7b4d5e87125e4", "fusion_lat": 0.0, "is_reserved": 0, "lat": 38.90200466666667, "fusion_lon": 0.0, "is_disabled": 0}, {"rental_uris": {"android": "https://dc.lft.to/lastmile_qr_scan", "ios": "https://dc.lft.to/lastmile_qr_scan"}, "type": "electric_scooter", "lon": -77.01930616666667, "name": "7346930a75a595f661048110b065d7de", "bike_id": "7346930a75a595f661048110b065d7de", "fusion_lat": 0.0, "is_reserved": 0, "lat": 38.93577, "fusion_lon": 0.0, "is_disabled": 0}, {"rental_uris": {"android": "https://dc.lft.to/lastmile_qr_scan", "ios": "https://dc.lft.to/lastmile_qr_scan"}, "type": "electric_scooter", "lon": -77.0075595, "name": "ce9bb7306302f6110e51a84906012a8d", "bike_id": "ce9bb7306302f6110e51a84906012a8d", "fusion_lat": 0.0, "is_reserved": 0, "lat": 38.92683483333333, "fusion_lon": 0.0, "is_disabled": 0}, {"rental_uris": {"android": "https://dc.lft.to/lastmile_qr_scan", "ios": "https://dc.lft.to/lastmile_qr_scan"}, "type": "electric_scooter", "lon": -76.9641195, "name": "7da6426d38ef3a91234f472450fb52c1", "bike_id": "7da6426d38ef3a91234f472450fb52c1", "fusion_lat": 0.0, "is_reserved": 0, "lat": 38.934515166666664, "fusion_lon": 0.0, "is_disabled": 0}, {"rental_uris": {"android": "https://dc.lft.to/lastmile_qr_scan", "ios": "https://dc.lft.to/lastmile_qr_scan"}, "type": "electric_bike", "lon": -77.109886, "name": "22132b221cc919e7184b87025a8ab3a5", "bike_id": "22132b221cc919e7184b87025a8ab3a5", "fusion_lat": 0.0, "is_reserved": 0, "lat": 38.87048566666667, "fusion_lon": 0.0, "is_disabled": 0}, {"rental_uris": {"android": "https://dc.lft.to/lastmile_qr_scan", "ios": "https://dc.lft.to/lastmile_qr_scan"}, "type": "electric_scooter", "lon": -77.03457416666667, "name": "f7c0c81899ae6f939aa4129c2466b9de", "bike_id": "f7c0c81899ae6f939aa4129c2466b9de", "fusion_lat": 0.0, "is_reserved": 0, "lat": 38.90340533333333, "fusion_lon": 0.0, "is_disabled": 0}, {"rental_uris": {"android": "https://dc.lft.to/lastmile_qr_scan", "ios": "https://dc.lft.to/lastmile_qr_scan"}, "type": "electric_scooter", "lon": -77.03793133333333, "name": "9a518041f5603487246fa34a3aa15d48", "bike_id": "9a518041f5603487246fa34a3aa15d48", "fusion_lat": 0.0, "is_reserved": 0, "lat": 38.93099766666667, "fusion_lon": 0.0, "is_disabled": 0}, {"rental_uris": {"android": "https://dc.lft.to/lastmile_qr_scan", "ios": "https://dc.lft.to/lastmile_qr_scan"}, "type": "electric_scooter", "lon": -77.02336866666667, "name": "ac071090bc975aedfb265c27ed507297", "bike_id": "ac071090bc975aedfb265c27ed507297", "fusion_lat": 0.0, "is_reserved": 0, "lat": 38.962077, "fusion_lon": 0.0, "is_disabled": 0}, {"rental_uris": {"android": "https://dc.lft.to/lastmile_qr_scan", "ios": "https://dc.lft.to/lastmile_qr_scan"}, "type": "electric_scooter", "lon": -76.99481566666667, "name": "3e521f57005d4596fd115d87558ce981", "bike_id": "3e521f57005d4596fd115d87558ce981", "fusion_lat": 0.0, "is_reserved": 0, "lat": 38.877355, "fusion_lon": 0.0, "is_disabled": 0}, {"rental_uris": {"android": "https://dc.lft.to/lastmile_qr_scan", "ios": "https://dc.lft.to/lastmile_qr_scan"}, "type": "electric_scooter", "lon": -76.99625316666666, "name": "bb9210726942ad2bb5dba300dcd51239", "bike_id": "bb9210726942ad2bb5dba300dcd51239", "fusion_lat": 0.0, "is_reserved": 0, "lat": 38.900388, "fusion_lon": 0.0, "is_disabled": 0}, {"rental_uris": {"android": "https://dc.lft.to/lastmile_qr_scan", "ios": "https://dc.lft.to/lastmile_qr_scan"}, "type": "electric_scooter", "lon": -77.04500916666667, "name": "e651c35b60be868d40d041cb95e1c8b5", "bike_id": "e651c35b60be868d40d041cb95e1c8b5", "fusion_lat": 0.0, "is_reserved": 0, "lat": 38.91193083333334, "fusion_lon": 0.0, "is_disabled": 0}, {"rental_uris": {"android": "https://dc.lft.to/lastmile_qr_scan", "ios": "https://dc.lft.to/lastmile_qr_scan"}, "type": "electric_scooter", "lon": -76.98988016666667, "name": "b0a2d7deb7f8986cc0f5ce488b3dac6d", "bike_id": "b0a2d7deb7f8986cc0f5ce488b3dac6d", "fusion_lat": 0.0, "is_reserved": 0, "lat": 38.864475, "fusion_lon": 0.0, "is_disabled": 0}, {"rental_uris": {"android": "https://dc.lft.to/lastmile_qr_scan", "ios": "https://dc.lft.to/lastmile_qr_scan"}, "type": "electric_scooter", "lon": -77.0033845, "name": "65c62ed3208cdd98451835659728522a", "bike_id": "65c62ed3208cdd98451835659728522a", "fusion_lat": 0.0, "is_reserved": 0, "lat": 38.91340266666667, "fusion_lon": 0.0, "is_disabled": 0}, {"rental_uris": {"android": "https://dc.lft.to/lastmile_qr_scan", "ios": "https://dc.lft.to/lastmile_qr_scan"}, "type": "electric_scooter", "lon": -77.0280725, "name": "c4b01cc1ed56d6bb2d892fc5a79e8218", "bike_id": "c4b01cc1ed56d6bb2d892fc5a79e8218", "fusion_lat": 0.0, "is_reserved": 0, "lat": 38.94457883333333, "fusion_lon": 0.0, "is_disabled": 0}, {"rental_uris": {"android": "https://dc.lft.to/lastmile_qr_scan", "ios": "https://dc.lft.to/lastmile_qr_scan"}, "type": "electric_scooter", "lon": -76.99214783333333, "name": "04c2a5fb83fe739ee2c50e901b1fd2f6", "bike_id": "04c2a5fb83fe739ee2c50e901b1fd2f6", "fusion_lat": 0.0, "is_reserved": 0, "lat": 38.904772666666666, "fusion_lon": 0.0, "is_disabled": 0}, {"rental_uris": {"android": "https://dc.lft.to/lastmile_qr_scan", "ios": "https://dc.lft.to/lastmile_qr_scan"}, "type": "electric_scooter", "lon": -76.94842516666667, "name": "849ddfc3fe5015198e3e2721e78ef290", "bike_id": "849ddfc3fe5015198e3e2721e78ef290", "fusion_lat": 0.0, "is_reserved": 0, "lat": 38.89485883333333, "fusion_lon": 0.0, "is_disabled": 0}, {"rental_uris": {"android": "https://dc.lft.to/lastmile_qr_scan", "ios": "https://dc.lft.to/lastmile_qr_scan"}, "type": "electric_scooter", "lon": -77.02318283333334, "name": "9d203c59f8c866f829a79e7ca127ef39", "bike_id": "9d203c59f8c866f829a79e7ca127ef39", "fusion_lat": 0.0, "is_reserved": 0, "lat": 38.9178905, "fusion_lon": 0.0, "is_disabled": 0}, {"rental_uris": {"android": "https://dc.lft.to/lastmile_qr_scan", "ios": "https://dc.lft.to/lastmile_qr_scan"}, "type": "electric_scooter", "lon": -77.08206233333334, "name": "ab737360b2a70f43959a327bca7c2d7e", "bike_id": "ab737360b2a70f43959a327bca7c2d7e", "fusion_lat": 0.0, "is_reserved": 0, "lat": 38.93558733333333, "fusion_lon": 0.0, "is_disabled": 0}, {"rental_uris": {"android": "https://dc.lft.to/lastmile_qr_scan", "ios": "https://dc.lft.to/lastmile_qr_scan"}, "type": "electric_scooter", "lon": -76.9841445, "name": "bd65b21bbec74c8ef95374031c9a58a0", "bike_id": "bd65b21bbec74c8ef95374031c9a58a0", "fusion_lat": 0.0, "is_reserved": 0, "lat": 38.9139345, "fusion_lon": 0.0, "is_disabled": 0}, {"rental_uris": {"android": "https://dc.lft.to/lastmile_qr_scan", "ios": "https://dc.lft.to/lastmile_qr_scan"}, "type": "electric_scooter", "lon": -77.00918183333333, "name": "e84cf5effedf6d7cb2f92606a608ec35", "bike_id": "e84cf5effedf6d7cb2f92606a608ec35", "fusion_lat": 0.0, "is_reserved": 0, "lat": 38.910529, "fusion_lon": 0.0, "is_disabled": 0}, {"rental_uris": {"android": "https://dc.lft.to/lastmile_qr_scan", "ios": "https://dc.lft.to/lastmile_qr_scan"}, "type": "electric_scooter", "lon": -76.93837083333334, "name": "c7fe0004a6f7663413a7e05f72611e9c", "bike_id": "c7fe0004a6f7663413a7e05f72611e9c", "fusion_lat": 0.0, "is_reserved": 0, "lat": 38.897611833333336, "fusion_lon": 0.0, "is_disabled": 0}, {"rental_uris": {"android": "https://dc.lft.to/lastmile_qr_scan", "ios": "https://dc.lft.to/lastmile_qr_scan"}, "type": "electric_scooter", "lon": -77.0305875, "name": "b3838ddef847cf050394f675e47fcf42", "bike_id": "b3838ddef847cf050394f675e47fcf42", "fusion_lat": 0.0, "is_reserved": 0, "lat": 38.919366, "fusion_lon": 0.0, "is_disabled": 0}, {"rental_uris": {"android": "https://dc.lft.to/lastmile_qr_scan", "ios": "https://dc.lft.to/lastmile_qr_scan"}, "type": "electric_scooter", "lon": -77.03678383333333, "name": "1829425f834921b183e3e5fdb9ba8f98", "bike_id": "1829425f834921b183e3e5fdb9ba8f98", "fusion_lat": 0.0, "is_reserved": 0, "lat": 38.90276933333333, "fusion_lon": 0.0, "is_disabled": 0}, {"rental_uris": {"android": "https://dc.lft.to/lastmile_qr_scan", "ios": "https://dc.lft.to/lastmile_qr_scan"}, "type": "electric_scooter", "lon": -77.01409733333334, "name": "5c3721320bd5c287a869e5bba04e0775", "bike_id": "5c3721320bd5c287a869e5bba04e0775", "fusion_lat": 0.0, "is_reserved": 0, "lat": 38.92798583333333, "fusion_lon": 0.0, "is_disabled": 0}, {"rental_uris": {"android": "https://dc.lft.to/lastmile_qr_scan", "ios": "https://dc.lft.to/lastmile_qr_scan"}, "type": "electric_scooter", "lon": -77.06129383333334, "name": "a19160dd5ee5683bce9887b24a3bda4e", "bike_id": "a19160dd5ee5683bce9887b24a3bda4e", "fusion_lat": 0.0, "is_reserved": 0, "lat": 38.94363633333333, "fusion_lon": 0.0, "is_disabled": 0}, {"rental_uris": {"android": "https://dc.lft.to/lastmile_qr_scan", "ios": "https://dc.lft.to/lastmile_qr_scan"}, "type": "electric_scooter", "lon": -77.0202355, "name": "5dc0063d0d6176b777684ab83bda10cf", "bike_id": "5dc0063d0d6176b777684ab83bda10cf", "fusion_lat": 0.0, "is_reserved": 0, "lat": 38.924392833333336, "fusion_lon": 0.0, "is_disabled": 0}, {"rental_uris": {"android": "https://dc.lft.to/lastmile_qr_scan", "ios": "https://dc.lft.to/lastmile_qr_scan"}, "type": "electric_scooter", "lon": -76.9902495, "name": "3fae6a4948e931e50ccda96b7e533ff4", "bike_id": "3fae6a4948e931e50ccda96b7e533ff4", "fusion_lat": 0.0, "is_reserved": 0, "lat": 38.8640805, "fusion_lon": 0.0, "is_disabled": 0}, {"rental_uris": {"android": "https://dc.lft.to/lastmile_qr_scan", "ios": "https://dc.lft.to/lastmile_qr_scan"}, "type": "electric_scooter", "lon": -76.997253, "name": "07785b67b0def2b19b8750cfbfb0dbe9", "bike_id": "07785b67b0def2b19b8750cfbfb0dbe9", "fusion_lat": 0.0, "is_reserved": 0, "lat": 38.898923333333336, "fusion_lon": 0.0, "is_disabled": 0}, {"rental_uris": {"android": "https://dc.lft.to/lastmile_qr_scan", "ios": "https://dc.lft.to/lastmile_qr_scan"}, "type": "electric_scooter", "lon": -77.03050283333333, "name": "8a236aa355dfb504e31f404d414e1503", "bike_id": "8a236aa355dfb504e31f404d414e1503", "fusion_lat": 0.0, "is_reserved": 0, "lat": 38.884085166666665, "fusion_lon": 0.0, "is_disabled": 0}, {"rental_uris": {"android": "https://dc.lft.to/lastmile_qr_scan", "ios": "https://dc.lft.to/lastmile_qr_scan"}, "type": "electric_scooter", "lon": -77.06768733333334, "name": "1289bfd4d77555fec14d46cf3f4609ba", "bike_id": "1289bfd4d77555fec14d46cf3f4609ba", "fusion_lat": 0.0, "is_reserved": 0, "lat": 38.90364116666667, "fusion_lon": 0.0, "is_disabled": 0}, {"rental_uris": {"android": "https://dc.lft.to/lastmile_qr_scan", "ios": "https://dc.lft.to/lastmile_qr_scan"}, "type": "electric_scooter", "lon": -77.0399245, "name": "44a6164d8b6458aebde82ec615436554", "bike_id": "44a6164d8b6458aebde82ec615436554", "fusion_lat": 0.0, "is_reserved": 0, "lat": 38.903393666666666, "fusion_lon": 0.0, "is_disabled": 0}, {"rental_uris": {"android": "https://dc.lft.to/lastmile_qr_scan", "ios": "https://dc.lft.to/lastmile_qr_scan"}, "type": "electric_scooter", "lon": -77.005964, "name": "c82804da58a76dd1bd1bf57997f638eb", "bike_id": "c82804da58a76dd1bd1bf57997f638eb", "fusion_lat": 0.0, "is_reserved": 0, "lat": 38.90822983333333, "fusion_lon": 0.0, "is_disabled": 0}, {"rental_uris": {"android": "https://dc.lft.to/lastmile_qr_scan", "ios": "https://dc.lft.to/lastmile_qr_scan"}, "type": "electric_scooter", "lon": -77.05225216666666, "name": "e8d5d02a9032bb28f71b65e101a83d86", "bike_id": "e8d5d02a9032bb28f71b65e101a83d86", "fusion_lat": 0.0, "is_reserved": 0, "lat": 38.92450383333333, "fusion_lon": 0.0, "is_disabled": 0}, {"rental_uris": {"android": "https://dc.lft.to/lastmile_qr_scan", "ios": "https://dc.lft.to/lastmile_qr_scan"}, "type": "electric_scooter", "lon": -77.04877833333333, "name": "4974e038735b930253c737c54881739d", "bike_id": "4974e038735b930253c737c54881739d", "fusion_lat": 0.0, "is_reserved": 0, "lat": 38.900983833333335, "fusion_lon": 0.0, "is_disabled": 0}, {"rental_uris": {"android": "https://dc.lft.to/lastmile_qr_scan", "ios": "https://dc.lft.to/lastmile_qr_scan"}, "type": "electric_scooter", "lon": -76.99510583333333, "name": "6348dde1332215b441b94138be6bfd82", "bike_id": "6348dde1332215b441b94138be6bfd82", "fusion_lat": 0.0, "is_reserved": 0, "lat": 38.89486566666667, "fusion_lon": 0.0, "is_disabled": 0}, {"rental_uris": {"android": "https://dc.lft.to/lastmile_qr_scan", "ios": "https://dc.lft.to/lastmile_qr_scan"}, "type": "electric_scooter", "lon": -77.04323083333334, "name": "78b486fc544550c0275dc0d9515a9cee", "bike_id": "78b486fc544550c0275dc0d9515a9cee", "fusion_lat": 0.0, "is_reserved": 0, "lat": 38.911117, "fusion_lon": 0.0, "is_disabled": 0}, {"rental_uris": {"android": "https://dc.lft.to/lastmile_qr_scan", "ios": "https://dc.lft.to/lastmile_qr_scan"}, "type": "electric_scooter", "lon": -77.0314965, "name": "211376d7ca91c5d978b789eb5b769869", "bike_id": "211376d7ca91c5d978b789eb5b769869", "fusion_lat": 0.0, "is_reserved": 0, "lat": 38.88753716666667, "fusion_lon": 0.0, "is_disabled": 0}, {"rental_uris": {"android": "https://dc.lft.to/lastmile_qr_scan", "ios": "https://dc.lft.to/lastmile_qr_scan"}, "type": "electric_scooter", "lon": -77.05296416666667, "name": "88112a9e9656974cf2ae43bd946a07b2", "bike_id": "88112a9e9656974cf2ae43bd946a07b2", "fusion_lat": 0.0, "is_reserved": 0, "lat": 38.926231333333334, "fusion_lon": 0.0, "is_disabled": 0}, {"rental_uris": {"android": "https://dc.lft.to/lastmile_qr_scan", "ios": "https://dc.lft.to/lastmile_qr_scan"}, "type": "electric_scooter", "lon": -77.02376583333333, "name": "29dd0b52b3c47a0fb62e1e3d7484f695", "bike_id": "29dd0b52b3c47a0fb62e1e3d7484f695", "fusion_lat": 0.0, "is_reserved": 0, "lat": 38.89367466666667, "fusion_lon": 0.0, "is_disabled": 0}, {"rental_uris": {"android": "https://dc.lft.to/lastmile_qr_scan", "ios": "https://dc.lft.to/lastmile_qr_scan"}, "type": "electric_scooter", "lon": -76.94841383333333, "name": "71e67a68d997b51ba02d8b68862b6ba8", "bike_id": "71e67a68d997b51ba02d8b68862b6ba8", "fusion_lat": 0.0, "is_reserved": 0, "lat": 38.8948765, "fusion_lon": 0.0, "is_disabled": 0}, {"rental_uris": {"android": "https://dc.lft.to/lastmile_qr_scan", "ios": "https://dc.lft.to/lastmile_qr_scan"}, "type": "electric_scooter", "lon": -77.0300535, "name": "5979d10e2b74b58445b12983d3a7d181", "bike_id": "5979d10e2b74b58445b12983d3a7d181", "fusion_lat": 0.0, "is_reserved": 0, "lat": 38.9311405, "fusion_lon": 0.0, "is_disabled": 0}, {"rental_uris": {"android": "https://dc.lft.to/lastmile_qr_scan", "ios": "https://dc.lft.to/lastmile_qr_scan"}, "type": "electric_scooter", "lon": -77.03476766666667, "name": "383b69dd67d81b725201a8377f2e1886", "bike_id": "383b69dd67d81b725201a8377f2e1886", "fusion_lat": 0.0, "is_reserved": 0, "lat": 38.90256433333333, "fusion_lon": 0.0, "is_disabled": 0}, {"rental_uris": {"android": "https://dc.lft.to/lastmile_qr_scan", "ios": "https://dc.lft.to/lastmile_qr_scan"}, "type": "electric_bike", "lon": -76.99393366666666, "name": "a999fa08cd9b221f2936a7cccec53382", "bike_id": "a999fa08cd9b221f2936a7cccec53382", "fusion_lat": 0.0, "is_reserved": 0, "lat": 38.92273566666667, "fusion_lon": 0.0, "is_disabled": 0}, {"rental_uris": {"android": "https://dc.lft.to/lastmile_qr_scan", "ios": "https://dc.lft.to/lastmile_qr_scan"}, "type": "electric_bike", "lon": -76.990589, "name": "e8c93203bf9e47650182b515b7ce9054", "bike_id": "e8c93203bf9e47650182b515b7ce9054", "fusion_lat": 0.0, "is_reserved": 0, "lat": 38.93693, "fusion_lon": 0.0, "is_disabled": 0}, {"rental_uris": {"android": "https://dc.lft.to/lastmile_qr_scan", "ios": "https://dc.lft.to/lastmile_qr_scan"}, "type": "electric_scooter", "lon": -77.05516483333334, "name": "8375dbd73c8b0c6bffbd7bd26ecaa212", "bike_id": "8375dbd73c8b0c6bffbd7bd26ecaa212", "fusion_lat": 0.0, "is_reserved": 0, "lat": 38.944142666666664, "fusion_lon": 0.0, "is_disabled": 0}, {"rental_uris": {"android": "https://dc.lft.to/lastmile_qr_scan", "ios": "https://dc.lft.to/lastmile_qr_scan"}, "type": "electric_scooter", "lon": -77.00107766666666, "name": "4fade856fd1d2f7d96e55773e93523d3", "bike_id": "4fade856fd1d2f7d96e55773e93523d3", "fusion_lat": 0.0, "is_reserved": 0, "lat": 38.916337, "fusion_lon": 0.0, "is_disabled": 0}, {"rental_uris": {"android": "https://dc.lft.to/lastmile_qr_scan", "ios": "https://dc.lft.to/lastmile_qr_scan"}, "type": "electric_scooter", "lon": -77.04571833333334, "name": "6fbdc488b16e0c418fe6ff1e00822d50", "bike_id": "6fbdc488b16e0c418fe6ff1e00822d50", "fusion_lat": 0.0, "is_reserved": 0, "lat": 38.92127033333333, "fusion_lon": 0.0, "is_disabled": 0}, {"rental_uris": {"android": "https://dc.lft.to/lastmile_qr_scan", "ios": "https://dc.lft.to/lastmile_qr_scan"}, "type": "electric_scooter", "lon": -76.986044, "name": "1ab4556c6a3f82c02a5c9b7ab0674191", "bike_id": "1ab4556c6a3f82c02a5c9b7ab0674191", "fusion_lat": 0.0, "is_reserved": 0, "lat": 38.85442166666667, "fusion_lon": 0.0, "is_disabled": 0}, {"rental_uris": {"android": "https://dc.lft.to/lastmile_qr_scan", "ios": "https://dc.lft.to/lastmile_qr_scan"}, "type": "electric_scooter", "lon": -76.948514, "name": "59a60480de544956f74b53cf2a1102e7", "bike_id": "59a60480de544956f74b53cf2a1102e7", "fusion_lat": 0.0, "is_reserved": 0, "lat": 38.88299583333333, "fusion_lon": 0.0, "is_disabled": 0}, {"rental_uris": {"android": "https://dc.lft.to/lastmile_qr_scan", "ios": "https://dc.lft.to/lastmile_qr_scan"}, "type": "electric_scooter", "lon": -77.0448215, "name": "fa49c39faa01de77912d1c3b282e8e77", "bike_id": "fa49c39faa01de77912d1c3b282e8e77", "fusion_lat": 0.0, "is_reserved": 0, "lat": 38.90117383333333, "fusion_lon": 0.0, "is_disabled": 0}, {"rental_uris": {"android": "https://dc.lft.to/lastmile_qr_scan", "ios": "https://dc.lft.to/lastmile_qr_scan"}, "type": "electric_scooter", "lon": -76.933818, "name": "6bdc14ea255e5f39d04790b985c026db", "bike_id": "6bdc14ea255e5f39d04790b985c026db", "fusion_lat": 0.0, "is_reserved": 0, "lat": 38.899207, "fusion_lon": 0.0, "is_disabled": 0}, {"rental_uris": {"android": "https://dc.lft.to/lastmile_qr_scan", "ios": "https://dc.lft.to/lastmile_qr_scan"}, "type": "electric_scooter", "lon": -77.042109, "name": "64edcf53679cceb8cfcbc05b0d330cdb", "bike_id": "64edcf53679cceb8cfcbc05b0d330cdb", "fusion_lat": 0.0, "is_reserved": 0, "lat": 38.9213135, "fusion_lon": 0.0, "is_disabled": 0}, {"rental_uris": {"android": "https://dc.lft.to/lastmile_qr_scan", "ios": "https://dc.lft.to/lastmile_qr_scan"}, "type": "electric_scooter", "lon": -76.98851066666667, "name": "665a5751f5be5d94339a8e6795f93675", "bike_id": "665a5751f5be5d94339a8e6795f93675", "fusion_lat": 0.0, "is_reserved": 0, "lat": 38.900283333333334, "fusion_lon": 0.0, "is_disabled": 0}, {"rental_uris": {"android": "https://dc.lft.to/lastmile_qr_scan", "ios": "https://dc.lft.to/lastmile_qr_scan"}, "type": "electric_bike", "lon": -77.09523183333333, "name": "c16b224ec417fa0913dfd8f528f2c897", "bike_id": "c16b224ec417fa0913dfd8f528f2c897", "fusion_lat": 0.0, "is_reserved": 0, "lat": 38.838121666666666, "fusion_lon": 0.0, "is_disabled": 0}, {"rental_uris": {"android": "https://dc.lft.to/lastmile_qr_scan", "ios": "https://dc.lft.to/lastmile_qr_scan"}, "type": "electric_bike", "lon": -77.043215, "name": "943698928560f65435eef07ce835cedc", "bike_id": "943698928560f65435eef07ce835cedc", "fusion_lat": 0.0, "is_reserved": 0, "lat": 38.906348, "fusion_lon": 0.0, "is_disabled": 0}, {"rental_uris": {"android": "https://dc.lft.to/lastmile_qr_scan", "ios": "https://dc.lft.to/lastmile_qr_scan"}, "type": "electric_scooter", "lon": -77.04583733333334, "name": "cccb49d80903bfe669559865adf6ba06", "bike_id": "cccb49d80903bfe669559865adf6ba06", "fusion_lat": 0.0, "is_reserved": 0, "lat": 38.9214805, "fusion_lon": 0.0, "is_disabled": 0}, {"rental_uris": {"android": "https://dc.lft.to/lastmile_qr_scan", "ios": "https://dc.lft.to/lastmile_qr_scan"}, "type": "electric_scooter", "lon": -77.05447383333333, "name": "cdcd2422b6535fbb9e85831875150f33", "bike_id": "cdcd2422b6535fbb9e85831875150f33", "fusion_lat": 0.0, "is_reserved": 0, "lat": 38.928583, "fusion_lon": 0.0, "is_disabled": 0}, {"rental_uris": {"android": "https://dc.lft.to/lastmile_qr_scan", "ios": "https://dc.lft.to/lastmile_qr_scan"}, "type": "electric_scooter", "lon": -77.021787, "name": "899dc304cfbfb6109dd57216e04df09a", "bike_id": "899dc304cfbfb6109dd57216e04df09a", "fusion_lat": 0.0, "is_reserved": 0, "lat": 38.943105333333335, "fusion_lon": 0.0, "is_disabled": 0}, {"rental_uris": {"android": "https://dc.lft.to/lastmile_qr_scan", "ios": "https://dc.lft.to/lastmile_qr_scan"}, "type": "electric_scooter", "lon": -77.05423783333333, "name": "972d15318262eccd1481302e904a8790", "bike_id": "972d15318262eccd1481302e904a8790", "fusion_lat": 0.0, "is_reserved": 0, "lat": 38.92855133333333, "fusion_lon": 0.0, "is_disabled": 0}, {"rental_uris": {"android": "https://dc.lft.to/lastmile_qr_scan", "ios": "https://dc.lft.to/lastmile_qr_scan"}, "type": "electric_scooter", "lon": -77.05708883333334, "name": "6c48ccf8bbe1fee80f882bc83e05028b", "bike_id": "6c48ccf8bbe1fee80f882bc83e05028b", "fusion_lat": 0.0, "is_reserved": 0, "lat": 38.9110535, "fusion_lon": 0.0, "is_disabled": 0}, {"rental_uris": {"android": "https://dc.lft.to/lastmile_qr_scan", "ios": "https://dc.lft.to/lastmile_qr_scan"}, "type": "electric_scooter", "lon": -76.99549466666667, "name": "5772ba6d978dde0938ed76821ba4b878", "bike_id": "5772ba6d978dde0938ed76821ba4b878", "fusion_lat": 0.0, "is_reserved": 0, "lat": 38.884271166666664, "fusion_lon": 0.0, "is_disabled": 0}, {"rental_uris": {"android": "https://dc.lft.to/lastmile_qr_scan", "ios": "https://dc.lft.to/lastmile_qr_scan"}, "type": "electric_scooter", "lon": -77.02710766666667, "name": "169edcc06a1abfb79f237458ab5c4b0f", "bike_id": "169edcc06a1abfb79f237458ab5c4b0f", "fusion_lat": 0.0, "is_reserved": 0, "lat": 38.89772333333333, "fusion_lon": 0.0, "is_disabled": 0}, {"rental_uris": {"android": "https://dc.lft.to/lastmile_qr_scan", "ios": "https://dc.lft.to/lastmile_qr_scan"}, "type": "electric_bike", "lon": -76.98784883333333, "name": "342a33802b13cfe328f12f9e44ea109a", "bike_id": "342a33802b13cfe328f12f9e44ea109a", "fusion_lat": 0.0, "is_reserved": 0, "lat": 38.84541816666667, "fusion_lon": 0.0, "is_disabled": 0}, {"rental_uris": {"android": "https://dc.lft.to/lastmile_qr_scan", "ios": "https://dc.lft.to/lastmile_qr_scan"}, "type": "electric_scooter", "lon": -77.06237383333334, "name": "28cc43587b3a9ef3e6342ec715d0a928", "bike_id": "28cc43587b3a9ef3e6342ec715d0a928", "fusion_lat": 0.0, "is_reserved": 0, "lat": 38.905301, "fusion_lon": 0.0, "is_disabled": 0}, {"rental_uris": {"android": "https://dc.lft.to/lastmile_qr_scan", "ios": "https://dc.lft.to/lastmile_qr_scan"}, "type": "electric_scooter", "lon": -76.99459616666667, "name": "72b35d909ad0c0f5fa1c8766a9653e61", "bike_id": "72b35d909ad0c0f5fa1c8766a9653e61", "fusion_lat": 0.0, "is_reserved": 0, "lat": 38.862238166666664, "fusion_lon": 0.0, "is_disabled": 0}, {"rental_uris": {"android": "https://dc.lft.to/lastmile_qr_scan", "ios": "https://dc.lft.to/lastmile_qr_scan"}, "type": "electric_scooter", "lon": -77.04815466666666, "name": "f5b2adfbc3d751ff8de7ebde12f58255", "bike_id": "f5b2adfbc3d751ff8de7ebde12f58255", "fusion_lat": 0.0, "is_reserved": 0, "lat": 38.913317166666666, "fusion_lon": 0.0, "is_disabled": 0}, {"rental_uris": {"android": "https://dc.lft.to/lastmile_qr_scan", "ios": "https://dc.lft.to/lastmile_qr_scan"}, "type": "electric_scooter", "lon": -77.05726666666666, "name": "b42464f541f2588172faefa72f85831a", "bike_id": "b42464f541f2588172faefa72f85831a", "fusion_lat": 0.0, "is_reserved": 0, "lat": 38.93373283333333, "fusion_lon": 0.0, "is_disabled": 0}, {"rental_uris": {"android": "https://dc.lft.to/lastmile_qr_scan", "ios": "https://dc.lft.to/lastmile_qr_scan"}, "type": "electric_bike", "lon": -76.90815483333333, "name": "26c8ab3ec6f099a242f2bd4e78021430", "bike_id": "26c8ab3ec6f099a242f2bd4e78021430", "fusion_lat": 0.0, "is_reserved": 0, "lat": 38.994528833333334, "fusion_lon": 0.0, "is_disabled": 0}, {"rental_uris": {"android": "https://dc.lft.to/lastmile_qr_scan", "ios": "https://dc.lft.to/lastmile_qr_scan"}, "type": "electric_scooter", "lon": -77.10174516666666, "name": "11df36904ff45259c28b04ef6e0d7300", "bike_id": "11df36904ff45259c28b04ef6e0d7300", "fusion_lat": 0.0, "is_reserved": 0, "lat": 38.9254515, "fusion_lon": 0.0, "is_disabled": 0}, {"rental_uris": {"android": "https://dc.lft.to/lastmile_qr_scan", "ios": "https://dc.lft.to/lastmile_qr_scan"}, "type": "electric_scooter", "lon": -76.98715283333334, "name": "85ff4ca1684f96270f93919937d2c92c", "bike_id": "85ff4ca1684f96270f93919937d2c92c", "fusion_lat": 0.0, "is_reserved": 0, "lat": 38.899319, "fusion_lon": 0.0, "is_disabled": 0}, {"rental_uris": {"android": "https://dc.lft.to/lastmile_qr_scan", "ios": "https://dc.lft.to/lastmile_qr_scan"}, "type": "electric_scooter", "lon": -77.0199345, "name": "8b59f945fabcc34ee15febc1e41c8143", "bike_id": "8b59f945fabcc34ee15febc1e41c8143", "fusion_lat": 0.0, "is_reserved": 0, "lat": 38.90155016666667, "fusion_lon": 0.0, "is_disabled": 0}, {"rental_uris": {"android": "https://dc.lft.to/lastmile_qr_scan", "ios": "https://dc.lft.to/lastmile_qr_scan"}, "type": "electric_scooter", "lon": -77.06532566666667, "name": "d4e9ad55a39b8c8387f58c8bdc2608b3", "bike_id": "d4e9ad55a39b8c8387f58c8bdc2608b3", "fusion_lat": 0.0, "is_reserved": 0, "lat": 38.93481583333333, "fusion_lon": 0.0, "is_disabled": 0}, {"rental_uris": {"android": "https://dc.lft.to/lastmile_qr_scan", "ios": "https://dc.lft.to/lastmile_qr_scan"}, "type": "electric_scooter", "lon": -77.03201916666667, "name": "3a8bad6532b603f956370dd8b9e4d67e", "bike_id": "3a8bad6532b603f956370dd8b9e4d67e", "fusion_lat": 0.0, "is_reserved": 0, "lat": 38.929921, "fusion_lon": 0.0, "is_disabled": 0}, {"rental_uris": {"android": "https://dc.lft.to/lastmile_qr_scan", "ios": "https://dc.lft.to/lastmile_qr_scan"}, "type": "electric_bike", "lon": -76.91594133333334, "name": "ec3f995460b13ea0e1bcdda49a2c42be", "bike_id": "ec3f995460b13ea0e1bcdda49a2c42be", "fusion_lat": 0.0, "is_reserved": 0, "lat": 38.88011516666667, "fusion_lon": 0.0, "is_disabled": 0}, {"rental_uris": {"android": "https://dc.lft.to/lastmile_qr_scan", "ios": "https://dc.lft.to/lastmile_qr_scan"}, "type": "electric_scooter", "lon": -77.00291233333333, "name": "fd4e6e000737285523c0d097f66712bf", "bike_id": "fd4e6e000737285523c0d097f66712bf", "fusion_lat": 0.0, "is_reserved": 0, "lat": 38.9149205, "fusion_lon": 0.0, "is_disabled": 0}, {"rental_uris": {"android": "https://dc.lft.to/lastmile_qr_scan", "ios": "https://dc.lft.to/lastmile_qr_scan"}, "type": "electric_scooter", "lon": -77.025483, "name": "583f641963a225e305cd6b946362028b", "bike_id": "583f641963a225e305cd6b946362028b", "fusion_lat": 0.0, "is_reserved": 0, "lat": 38.892159, "fusion_lon": 0.0, "is_disabled": 0}, {"rental_uris": {"android": "https://dc.lft.to/lastmile_qr_scan", "ios": "https://dc.lft.to/lastmile_qr_scan"}, "type": "electric_scooter", "lon": -77.03176216666667, "name": "476dc4004d32caa5b5ad38a23413774d", "bike_id": "476dc4004d32caa5b5ad38a23413774d", "fusion_lat": 0.0, "is_reserved": 0, "lat": 38.901091666666666, "fusion_lon": 0.0, "is_disabled": 0}, {"rental_uris": {"android": "https://dc.lft.to/lastmile_qr_scan", "ios": "https://dc.lft.to/lastmile_qr_scan"}, "type": "electric_scooter", "lon": -76.9849605, "name": "bba37c39930df14356e9ed1152d9b094", "bike_id": "bba37c39930df14356e9ed1152d9b094", "fusion_lat": 0.0, "is_reserved": 0, "lat": 38.8604815, "fusion_lon": 0.0, "is_disabled": 0}, {"rental_uris": {"android": "https://dc.lft.to/lastmile_qr_scan", "ios": "https://dc.lft.to/lastmile_qr_scan"}, "type": "electric_scooter", "lon": -77.04318083333334, "name": "57e0053c5f850cd686dad882bddac707", "bike_id": "57e0053c5f850cd686dad882bddac707", "fusion_lat": 0.0, "is_reserved": 0, "lat": 38.90342316666667, "fusion_lon": 0.0, "is_disabled": 0}, {"rental_uris": {"android": "https://dc.lft.to/lastmile_qr_scan", "ios": "https://dc.lft.to/lastmile_qr_scan"}, "type": "electric_bike", "lon": -77.18292483333333, "name": "7a60321461f09503b7ed2f47d04736c0", "bike_id": "7a60321461f09503b7ed2f47d04736c0", "fusion_lat": 0.0, "is_reserved": 0, "lat": 38.883431, "fusion_lon": 0.0, "is_disabled": 0}, {"rental_uris": {"android": "https://dc.lft.to/lastmile_qr_scan", "ios": "https://dc.lft.to/lastmile_qr_scan"}, "type": "electric_scooter", "lon": -76.99019983333334, "name": "debdd00fe34b4dfd578651859478492b", "bike_id": "debdd00fe34b4dfd578651859478492b", "fusion_lat": 0.0, "is_reserved": 0, "lat": 38.858678833333336, "fusion_lon": 0.0, "is_disabled": 0}, {"rental_uris": {"android": "https://dc.lft.to/lastmile_qr_scan", "ios": "https://dc.lft.to/lastmile_qr_scan"}, "type": "electric_scooter", "lon": -77.04713316666667, "name": "3208d22ad75713fc1b5e0ea52f9576ef", "bike_id": "3208d22ad75713fc1b5e0ea52f9576ef", "fusion_lat": 0.0, "is_reserved": 0, "lat": 38.902421833333335, "fusion_lon": 0.0, "is_disabled": 0}, {"rental_uris": {"android": "https://dc.lft.to/lastmile_qr_scan", "ios": "https://dc.lft.to/lastmile_qr_scan"}, "type": "electric_scooter", "lon": -77.06102916666667, "name": "400a90ca35f3864939a3dfb857493652", "bike_id": "400a90ca35f3864939a3dfb857493652", "fusion_lat": 0.0, "is_reserved": 0, "lat": 38.94314633333333, "fusion_lon": 0.0, "is_disabled": 0}, {"rental_uris": {"android": "https://dc.lft.to/lastmile_qr_scan", "ios": "https://dc.lft.to/lastmile_qr_scan"}, "type": "electric_scooter", "lon": -76.9375375, "name": "eafe1beae84ee5cdc61b043f1d7c77f7", "bike_id": "eafe1beae84ee5cdc61b043f1d7c77f7", "fusion_lat": 0.0, "is_reserved": 0, "lat": 38.890535666666665, "fusion_lon": 0.0, "is_disabled": 0}, {"rental_uris": {"android": "https://dc.lft.to/lastmile_qr_scan", "ios": "https://dc.lft.to/lastmile_qr_scan"}, "type": "electric_scooter", "lon": -76.99772333333334, "name": "9f21690a8400e4a093e83f9dbd3cda64", "bike_id": "9f21690a8400e4a093e83f9dbd3cda64", "fusion_lat": 0.0, "is_reserved": 0, "lat": 38.9217495, "fusion_lon": 0.0, "is_disabled": 0}, {"rental_uris": {"android": "https://dc.lft.to/lastmile_qr_scan", "ios": "https://dc.lft.to/lastmile_qr_scan"}, "type": "electric_scooter", "lon": -77.03201883333334, "name": "dfc7d6c3ffbc87b0eb3de6de6c01ba09", "bike_id": "dfc7d6c3ffbc87b0eb3de6de6c01ba09", "fusion_lat": 0.0, "is_reserved": 0, "lat": 38.90790116666667, "fusion_lon": 0.0, "is_disabled": 0}, {"rental_uris": {"android": "https://dc.lft.to/lastmile_qr_scan", "ios": "https://dc.lft.to/lastmile_qr_scan"}, "type": "electric_scooter", "lon": -77.02479166666667, "name": "60245aa7c7d897b8908dcf792a2d8d29", "bike_id": "60245aa7c7d897b8908dcf792a2d8d29", "fusion_lat": 0.0, "is_reserved": 0, "lat": 38.939268166666665, "fusion_lon": 0.0, "is_disabled": 0}, {"rental_uris": {"android": "https://dc.lft.to/lastmile_qr_scan", "ios": "https://dc.lft.to/lastmile_qr_scan"}, "type": "electric_scooter", "lon": -77.03181216666667, "name": "5a48610977ff1c00670e1a1f9e8702ae", "bike_id": "5a48610977ff1c00670e1a1f9e8702ae", "fusion_lat": 0.0, "is_reserved": 0, "lat": 38.90751083333333, "fusion_lon": 0.0, "is_disabled": 0}, {"rental_uris": {"android": "https://dc.lft.to/lastmile_qr_scan", "ios": "https://dc.lft.to/lastmile_qr_scan"}, "type": "electric_scooter", "lon": -77.02702633333334, "name": "b5ff2b25f1df06aba132f8a3e476686d", "bike_id": "b5ff2b25f1df06aba132f8a3e476686d", "fusion_lat": 0.0, "is_reserved": 0, "lat": 38.949979666666664, "fusion_lon": 0.0, "is_disabled": 0}, {"rental_uris": {"android": "https://dc.lft.to/lastmile_qr_scan", "ios": "https://dc.lft.to/lastmile_qr_scan"}, "type": "electric_bike", "lon": -76.9319445, "name": "beea3affe86d25d3a46a15b89b17763c", "bike_id": "beea3affe86d25d3a46a15b89b17763c", "fusion_lat": 0.0, "is_reserved": 0, "lat": 38.87233166666667, "fusion_lon": 0.0, "is_disabled": 0}, {"rental_uris": {"android": "https://dc.lft.to/lastmile_qr_scan", "ios": "https://dc.lft.to/lastmile_qr_scan"}, "type": "electric_bike", "lon": -77.04069633333333, "name": "a10578300a5077a52f2e7d109e51276a", "bike_id": "a10578300a5077a52f2e7d109e51276a", "fusion_lat": 0.0, "is_reserved": 0, "lat": 38.81236366666667, "fusion_lon": 0.0, "is_disabled": 0}, {"rental_uris": {"android": "https://dc.lft.to/lastmile_qr_scan", "ios": "https://dc.lft.to/lastmile_qr_scan"}, "type": "electric_bike", "lon": -77.09962, "name": "df933099249e6a128b9438fad7655a83", "bike_id": "df933099249e6a128b9438fad7655a83", "fusion_lat": 0.0, "is_reserved": 0, "lat": 38.857913333333336, "fusion_lon": 0.0, "is_disabled": 0}, {"rental_uris": {"android": "https://dc.lft.to/lastmile_qr_scan", "ios": "https://dc.lft.to/lastmile_qr_scan"}, "type": "electric_scooter", "lon": -77.033212, "name": "b1e65bc364fdf25d01d0895561f83829", "bike_id": "b1e65bc364fdf25d01d0895561f83829", "fusion_lat": 0.0, "is_reserved": 0, "lat": 38.9287215, "fusion_lon": 0.0, "is_disabled": 0}, {"rental_uris": {"android": "https://dc.lft.to/lastmile_qr_scan", "ios": "https://dc.lft.to/lastmile_qr_scan"}, "type": "electric_scooter", "lon": -77.023846, "name": "ec463497135a6dea09ce8cd7b598a100", "bike_id": "ec463497135a6dea09ce8cd7b598a100", "fusion_lat": 0.0, "is_reserved": 0, "lat": 38.91678683333333, "fusion_lon": 0.0, "is_disabled": 0}, {"rental_uris": {"android": "https://dc.lft.to/lastmile_qr_scan", "ios": "https://dc.lft.to/lastmile_qr_scan"}, "type": "electric_scooter", "lon": -77.0298365, "name": "af203c70e60c93e4649db60b8e01f447", "bike_id": "af203c70e60c93e4649db60b8e01f447", "fusion_lat": 0.0, "is_reserved": 0, "lat": 38.9562515, "fusion_lon": 0.0, "is_disabled": 0}, {"rental_uris": {"android": "https://dc.lft.to/lastmile_qr_scan", "ios": "https://dc.lft.to/lastmile_qr_scan"}, "type": "electric_scooter", "lon": -76.95217483333333, "name": "026e5377dd431cdb33f28a75d78e73c9", "bike_id": "026e5377dd431cdb33f28a75d78e73c9", "fusion_lat": 0.0, "is_reserved": 0, "lat": 38.886809666666664, "fusion_lon": 0.0, "is_disabled": 0}, {"rental_uris": {"android": "https://dc.lft.to/lastmile_qr_scan", "ios": "https://dc.lft.to/lastmile_qr_scan"}, "type": "electric_scooter", "lon": -77.02202966666667, "name": "c34fe193477dd651882fa949fd864ba2", "bike_id": "c34fe193477dd651882fa949fd864ba2", "fusion_lat": 0.0, "is_reserved": 0, "lat": 38.92110983333333, "fusion_lon": 0.0, "is_disabled": 0}, {"rental_uris": {"android": "https://dc.lft.to/lastmile_qr_scan", "ios": "https://dc.lft.to/lastmile_qr_scan"}, "type": "electric_scooter", "lon": -77.0461435, "name": "76ea04b78b060fd2c939c15b3efa3822", "bike_id": "76ea04b78b060fd2c939c15b3efa3822", "fusion_lat": 0.0, "is_reserved": 0, "lat": 38.91518216666667, "fusion_lon": 0.0, "is_disabled": 0}, {"rental_uris": {"android": "https://dc.lft.to/lastmile_qr_scan", "ios": "https://dc.lft.to/lastmile_qr_scan"}, "type": "electric_scooter", "lon": -77.03283616666667, "name": "6766fcb2a6932bd4f3098bc86e8a542e", "bike_id": "6766fcb2a6932bd4f3098bc86e8a542e", "fusion_lat": 0.0, "is_reserved": 0, "lat": 38.95650283333333, "fusion_lon": 0.0, "is_disabled": 0}, {"rental_uris": {"android": "https://dc.lft.to/lastmile_qr_scan", "ios": "https://dc.lft.to/lastmile_qr_scan"}, "type": "electric_scooter", "lon": -77.03289683333334, "name": "83498abb2e1fb5e27aff0f98195d199d", "bike_id": "83498abb2e1fb5e27aff0f98195d199d", "fusion_lat": 0.0, "is_reserved": 0, "lat": 38.9369505, "fusion_lon": 0.0, "is_disabled": 0}, {"rental_uris": {"android": "https://dc.lft.to/lastmile_qr_scan", "ios": "https://dc.lft.to/lastmile_qr_scan"}, "type": "electric_scooter", "lon": -76.9985515, "name": "4838c90297e0412bb571c47ccf061a91", "bike_id": "4838c90297e0412bb571c47ccf061a91", "fusion_lat": 0.0, "is_reserved": 0, "lat": 38.90040666666667, "fusion_lon": 0.0, "is_disabled": 0}, {"rental_uris": {"android": "https://dc.lft.to/lastmile_qr_scan", "ios": "https://dc.lft.to/lastmile_qr_scan"}, "type": "electric_scooter", "lon": -77.04327816666667, "name": "9a8d71249523e298b95cc03b7c8fbfc4", "bike_id": "9a8d71249523e298b95cc03b7c8fbfc4", "fusion_lat": 0.0, "is_reserved": 0, "lat": 38.90495283333333, "fusion_lon": 0.0, "is_disabled": 0}, {"rental_uris": {"android": "https://dc.lft.to/lastmile_qr_scan", "ios": "https://dc.lft.to/lastmile_qr_scan"}, "type": "electric_scooter", "lon": -77.0350625, "name": "7d5a8d07e46515195dcd7b5ac9fc7caf", "bike_id": "7d5a8d07e46515195dcd7b5ac9fc7caf", "fusion_lat": 0.0, "is_reserved": 0, "lat": 38.91879816666667, "fusion_lon": 0.0, "is_disabled": 0}, {"rental_uris": {"android": "https://dc.lft.to/lastmile_qr_scan", "ios": "https://dc.lft.to/lastmile_qr_scan"}, "type": "electric_scooter", "lon": -77.0218265, "name": "3bed17c00dbb4951c2bf754a2638f996", "bike_id": "3bed17c00dbb4951c2bf754a2638f996", "fusion_lat": 0.0, "is_reserved": 0, "lat": 38.8951505, "fusion_lon": 0.0, "is_disabled": 0}, {"rental_uris": {"android": "https://dc.lft.to/lastmile_qr_scan", "ios": "https://dc.lft.to/lastmile_qr_scan"}, "type": "electric_scooter", "lon": -77.02624533333334, "name": "f7a590d53f51d6b323a5dd50bc1c6a47", "bike_id": "f7a590d53f51d6b323a5dd50bc1c6a47", "fusion_lat": 0.0, "is_reserved": 0, "lat": 38.887425666666665, "fusion_lon": 0.0, "is_disabled": 0}, {"rental_uris": {"android": "https://dc.lft.to/lastmile_qr_scan", "ios": "https://dc.lft.to/lastmile_qr_scan"}, "type": "electric_scooter", "lon": -77.02597333333334, "name": "e24c747d57d8a2005eb1f03fa930d950", "bike_id": "e24c747d57d8a2005eb1f03fa930d950", "fusion_lat": 0.0, "is_reserved": 0, "lat": 38.9162035, "fusion_lon": 0.0, "is_disabled": 0}, {"rental_uris": {"android": "https://dc.lft.to/lastmile_qr_scan", "ios": "https://dc.lft.to/lastmile_qr_scan"}, "type": "electric_scooter", "lon": -77.026727, "name": "621a154fb78986322a7d4dd889183a60", "bike_id": "621a154fb78986322a7d4dd889183a60", "fusion_lat": 0.0, "is_reserved": 0, "lat": 38.89839933333333, "fusion_lon": 0.0, "is_disabled": 0}, {"rental_uris": {"android": "https://dc.lft.to/lastmile_qr_scan", "ios": "https://dc.lft.to/lastmile_qr_scan"}, "type": "electric_scooter", "lon": -77.034494, "name": "952d300d4f9d03a4e3a4148637a0a4e3", "bike_id": "952d300d4f9d03a4e3a4148637a0a4e3", "fusion_lat": 0.0, "is_reserved": 0, "lat": 38.92058166666666, "fusion_lon": 0.0, "is_disabled": 0}, {"rental_uris": {"android": "https://dc.lft.to/lastmile_qr_scan", "ios": "https://dc.lft.to/lastmile_qr_scan"}, "type": "electric_bike", "lon": -77.1240615, "name": "136142146fad822425cb7f7e5e184e62", "bike_id": "136142146fad822425cb7f7e5e184e62", "fusion_lat": 0.0, "is_reserved": 0, "lat": 38.893327666666664, "fusion_lon": 0.0, "is_disabled": 0}, {"rental_uris": {"android": "https://dc.lft.to/lastmile_qr_scan", "ios": "https://dc.lft.to/lastmile_qr_scan"}, "type": "electric_scooter", "lon": -77.0442085, "name": "e4616f77d089659ff791cc86f3e4e4ad", "bike_id": "e4616f77d089659ff791cc86f3e4e4ad", "fusion_lat": 0.0, "is_reserved": 0, "lat": 38.905774666666666, "fusion_lon": 0.0, "is_disabled": 0}, {"rental_uris": {"android": "https://dc.lft.to/lastmile_qr_scan", "ios": "https://dc.lft.to/lastmile_qr_scan"}, "type": "electric_scooter", "lon": -77.02113016666667, "name": "a34e074fffc22bd9866222affd11669a", "bike_id": "a34e074fffc22bd9866222affd11669a", "fusion_lat": 0.0, "is_reserved": 0, "lat": 38.917362, "fusion_lon": 0.0, "is_disabled": 0}, {"rental_uris": {"android": "https://dc.lft.to/lastmile_qr_scan", "ios": "https://dc.lft.to/lastmile_qr_scan"}, "type": "electric_scooter", "lon": -77.00053216666667, "name": "ef04c0d4dc37477db17789f11a208a65", "bike_id": "ef04c0d4dc37477db17789f11a208a65", "fusion_lat": 0.0, "is_reserved": 0, "lat": 38.8973915, "fusion_lon": 0.0, "is_disabled": 0}, {"rental_uris": {"android": "https://dc.lft.to/lastmile_qr_scan", "ios": "https://dc.lft.to/lastmile_qr_scan"}, "type": "electric_bike", "lon": -77.02057883333333, "name": "a97e02ad145baac17f481164e7a28db2", "bike_id": "a97e02ad145baac17f481164e7a28db2", "fusion_lat": 0.0, "is_reserved": 0, "lat": 38.92845, "fusion_lon": 0.0, "is_disabled": 0}, {"rental_uris": {"android": "https://dc.lft.to/lastmile_qr_scan", "ios": "https://dc.lft.to/lastmile_qr_scan"}, "type": "electric_scooter", "lon": -76.93675016666667, "name": "9c921a9aec5eea56c71c216818f7140d", "bike_id": "9c921a9aec5eea56c71c216818f7140d", "fusion_lat": 0.0, "is_reserved": 0, "lat": 38.88755033333333, "fusion_lon": 0.0, "is_disabled": 0}, {"rental_uris": {"android": "https://dc.lft.to/lastmile_qr_scan", "ios": "https://dc.lft.to/lastmile_qr_scan"}, "type": "electric_scooter", "lon": -77.05881566666666, "name": "eb2831c99bce2f71715f5360156883cb", "bike_id": "eb2831c99bce2f71715f5360156883cb", "fusion_lat": 0.0, "is_reserved": 0, "lat": 38.93639566666667, "fusion_lon": 0.0, "is_disabled": 0}, {"rental_uris": {"android": "https://dc.lft.to/lastmile_qr_scan", "ios": "https://dc.lft.to/lastmile_qr_scan"}, "type": "electric_scooter", "lon": -77.04989783333333, "name": "38d6339712f80acbc5eabda27b9a5068", "bike_id": "38d6339712f80acbc5eabda27b9a5068", "fusion_lat": 0.0, "is_reserved": 0, "lat": 38.90537583333333, "fusion_lon": 0.0, "is_disabled": 0}, {"rental_uris": {"android": "https://dc.lft.to/lastmile_qr_scan", "ios": "https://dc.lft.to/lastmile_qr_scan"}, "type": "electric_scooter", "lon": -76.965069, "name": "6c92f7125d075b2b8561fda5a14c8839", "bike_id": "6c92f7125d075b2b8561fda5a14c8839", "fusion_lat": 0.0, "is_reserved": 0, "lat": 38.8764925, "fusion_lon": 0.0, "is_disabled": 0}, {"rental_uris": {"android": "https://dc.lft.to/lastmile_qr_scan", "ios": "https://dc.lft.to/lastmile_qr_scan"}, "type": "electric_scooter", "lon": -77.0497375, "name": "6b2937ccb65b14829ce6ec85238899e2", "bike_id": "6b2937ccb65b14829ce6ec85238899e2", "fusion_lat": 0.0, "is_reserved": 0, "lat": 38.90097933333333, "fusion_lon": 0.0, "is_disabled": 0}, {"rental_uris": {"android": "https://dc.lft.to/lastmile_qr_scan", "ios": "https://dc.lft.to/lastmile_qr_scan"}, "type": "electric_scooter", "lon": -77.03212616666667, "name": "c957f8a870d9dfd8a7d890cb36785ae2", "bike_id": "c957f8a870d9dfd8a7d890cb36785ae2", "fusion_lat": 0.0, "is_reserved": 0, "lat": 38.90785366666667, "fusion_lon": 0.0, "is_disabled": 0}, {"rental_uris": {"android": "https://dc.lft.to/lastmile_qr_scan", "ios": "https://dc.lft.to/lastmile_qr_scan"}, "type": "electric_scooter", "lon": -76.99632283333334, "name": "7d4690a166444e9c64bf1e9114df9e31", "bike_id": "7d4690a166444e9c64bf1e9114df9e31", "fusion_lat": 0.0, "is_reserved": 0, "lat": 38.8462395, "fusion_lon": 0.0, "is_disabled": 0}, {"rental_uris": {"android": "https://dc.lft.to/lastmile_qr_scan", "ios": "https://dc.lft.to/lastmile_qr_scan"}, "type": "electric_scooter", "lon": -77.06888916666666, "name": "fa32c8c305395eb3d819db885a743606", "bike_id": "fa32c8c305395eb3d819db885a743606", "fusion_lat": 0.0, "is_reserved": 0, "lat": 38.9051925, "fusion_lon": 0.0, "is_disabled": 0}, {"rental_uris": {"android": "https://dc.lft.to/lastmile_qr_scan", "ios": "https://dc.lft.to/lastmile_qr_scan"}, "type": "electric_scooter", "lon": -77.02390966666667, "name": "1bdefe4d2a4c693e6852e1d5d1565674", "bike_id": "1bdefe4d2a4c693e6852e1d5d1565674", "fusion_lat": 0.0, "is_reserved": 0, "lat": 38.907165666666664, "fusion_lon": 0.0, "is_disabled": 0}, {"rental_uris": {"android": "https://dc.lft.to/lastmile_qr_scan", "ios": "https://dc.lft.to/lastmile_qr_scan"}, "type": "electric_bike", "lon": -77.00504816666667, "name": "a9fa5be8be5c0820b8ef971604723eb7", "bike_id": "a9fa5be8be5c0820b8ef971604723eb7", "fusion_lat": 0.0, "is_reserved": 0, "lat": 38.875331833333334, "fusion_lon": 0.0, "is_disabled": 0}, {"rental_uris": {"android": "https://dc.lft.to/lastmile_qr_scan", "ios": "https://dc.lft.to/lastmile_qr_scan"}, "type": "electric_scooter", "lon": -77.03778266666667, "name": "1c41577128af472e3961a3246f7ab592", "bike_id": "1c41577128af472e3961a3246f7ab592", "fusion_lat": 0.0, "is_reserved": 0, "lat": 38.90688083333333, "fusion_lon": 0.0, "is_disabled": 0}, {"rental_uris": {"android": "https://dc.lft.to/lastmile_qr_scan", "ios": "https://dc.lft.to/lastmile_qr_scan"}, "type": "electric_scooter", "lon": -77.0432265, "name": "ed5616e4a8bc54a89a04d44a45707338", "bike_id": "ed5616e4a8bc54a89a04d44a45707338", "fusion_lat": 0.0, "is_reserved": 0, "lat": 38.892246166666666, "fusion_lon": 0.0, "is_disabled": 0}, {"rental_uris": {"android": "https://dc.lft.to/lastmile_qr_scan", "ios": "https://dc.lft.to/lastmile_qr_scan"}, "type": "electric_scooter", "lon": -77.01841233333333, "name": "10b7cf2ee4aeb9d225f59884d2fb1d5c", "bike_id": "10b7cf2ee4aeb9d225f59884d2fb1d5c", "fusion_lat": 0.0, "is_reserved": 0, "lat": 38.909634833333335, "fusion_lon": 0.0, "is_disabled": 0}, {"rental_uris": {"android": "https://dc.lft.to/lastmile_qr_scan", "ios": "https://dc.lft.to/lastmile_qr_scan"}, "type": "electric_scooter", "lon": -76.9961135, "name": "2821f27af0c7235f1e578f85437e41ed", "bike_id": "2821f27af0c7235f1e578f85437e41ed", "fusion_lat": 0.0, "is_reserved": 0, "lat": 38.897635666666666, "fusion_lon": 0.0, "is_disabled": 0}, {"rental_uris": {"android": "https://dc.lft.to/lastmile_qr_scan", "ios": "https://dc.lft.to/lastmile_qr_scan"}, "type": "electric_scooter", "lon": -77.02178383333333, "name": "13d3c2ec71d99a5095be9b0ac24c543b", "bike_id": "13d3c2ec71d99a5095be9b0ac24c543b", "fusion_lat": 0.0, "is_reserved": 0, "lat": 38.8963975, "fusion_lon": 0.0, "is_disabled": 0}, {"rental_uris": {"android": "https://dc.lft.to/lastmile_qr_scan", "ios": "https://dc.lft.to/lastmile_qr_scan"}, "type": "electric_scooter", "lon": -77.03850283333334, "name": "8da7f7dd7e5da973319b70448e24f288", "bike_id": "8da7f7dd7e5da973319b70448e24f288", "fusion_lat": 0.0, "is_reserved": 0, "lat": 38.91548316666667, "fusion_lon": 0.0, "is_disabled": 0}, {"rental_uris": {"android": "https://dc.lft.to/lastmile_qr_scan", "ios": "https://dc.lft.to/lastmile_qr_scan"}, "type": "electric_scooter", "lon": -77.0217225, "name": "64cb963260ec2c1415624e52fd53c8c4", "bike_id": "64cb963260ec2c1415624e52fd53c8c4", "fusion_lat": 0.0, "is_reserved": 0, "lat": 38.88755233333333, "fusion_lon": 0.0, "is_disabled": 0}, {"rental_uris": {"android": "https://dc.lft.to/lastmile_qr_scan", "ios": "https://dc.lft.to/lastmile_qr_scan"}, "type": "electric_scooter", "lon": -77.03082533333334, "name": "3ac71a4c8946e8fc231a3e12545314d2", "bike_id": "3ac71a4c8946e8fc231a3e12545314d2", "fusion_lat": 0.0, "is_reserved": 0, "lat": 38.927245666666664, "fusion_lon": 0.0, "is_disabled": 0}, {"rental_uris": {"android": "https://dc.lft.to/lastmile_qr_scan", "ios": "https://dc.lft.to/lastmile_qr_scan"}, "type": "electric_scooter", "lon": -76.996872, "name": "227d1af3af0f3bb5c08ad5db963f977b", "bike_id": "227d1af3af0f3bb5c08ad5db963f977b", "fusion_lat": 0.0, "is_reserved": 0, "lat": 38.88700433333333, "fusion_lon": 0.0, "is_disabled": 0}, {"rental_uris": {"android": "https://dc.lft.to/lastmile_qr_scan", "ios": "https://dc.lft.to/lastmile_qr_scan"}, "type": "electric_scooter", "lon": -77.036548, "name": "c727d5bf6e745d0899338a3294760d1d", "bike_id": "c727d5bf6e745d0899338a3294760d1d", "fusion_lat": 0.0, "is_reserved": 0, "lat": 38.921103, "fusion_lon": 0.0, "is_disabled": 0}, {"rental_uris": {"android": "https://dc.lft.to/lastmile_qr_scan", "ios": "https://dc.lft.to/lastmile_qr_scan"}, "type": "electric_scooter", "lon": -77.041263, "name": "ffd9270dfdb865250dfd0f45e62a1ba4", "bike_id": "ffd9270dfdb865250dfd0f45e62a1ba4", "fusion_lat": 0.0, "is_reserved": 0, "lat": 38.905296, "fusion_lon": 0.0, "is_disabled": 0}, {"rental_uris": {"android": "https://dc.lft.to/lastmile_qr_scan", "ios": "https://dc.lft.to/lastmile_qr_scan"}, "type": "electric_scooter", "lon": -77.01203433333333, "name": "e583bfb43991410256a58e31d8072692", "bike_id": "e583bfb43991410256a58e31d8072692", "fusion_lat": 0.0, "is_reserved": 0, "lat": 38.89331816666667, "fusion_lon": 0.0, "is_disabled": 0}, {"rental_uris": {"android": "https://dc.lft.to/lastmile_qr_scan", "ios": "https://dc.lft.to/lastmile_qr_scan"}, "type": "electric_scooter", "lon": -77.04622933333333, "name": "5e3b2ece80148cd598063f259972742f", "bike_id": "5e3b2ece80148cd598063f259972742f", "fusion_lat": 0.0, "is_reserved": 0, "lat": 38.9156665, "fusion_lon": 0.0, "is_disabled": 0}, {"rental_uris": {"android": "https://dc.lft.to/lastmile_qr_scan", "ios": "https://dc.lft.to/lastmile_qr_scan"}, "type": "electric_scooter", "lon": -77.03066866666667, "name": "9eefc929576558f497ebcc72e0024760", "bike_id": "9eefc929576558f497ebcc72e0024760", "fusion_lat": 0.0, "is_reserved": 0, "lat": 38.88047133333333, "fusion_lon": 0.0, "is_disabled": 0}, {"rental_uris": {"android": "https://dc.lft.to/lastmile_qr_scan", "ios": "https://dc.lft.to/lastmile_qr_scan"}, "type": "electric_scooter", "lon": -77.0257745, "name": "af26ec126d04dc22f117d107affaf58a", "bike_id": "af26ec126d04dc22f117d107affaf58a", "fusion_lat": 0.0, "is_reserved": 0, "lat": 38.89708366666667, "fusion_lon": 0.0, "is_disabled": 0}, {"rental_uris": {"android": "https://dc.lft.to/lastmile_qr_scan", "ios": "https://dc.lft.to/lastmile_qr_scan"}, "type": "electric_scooter", "lon": -77.03482316666667, "name": "f35923651ea72ea6aefb439cc9a22aad", "bike_id": "f35923651ea72ea6aefb439cc9a22aad", "fusion_lat": 0.0, "is_reserved": 0, "lat": 38.90234616666667, "fusion_lon": 0.0, "is_disabled": 0}, {"rental_uris": {"android": "https://dc.lft.to/lastmile_qr_scan", "ios": "https://dc.lft.to/lastmile_qr_scan"}, "type": "electric_scooter", "lon": -77.03177916666667, "name": "21482249e77b0d13063e0d68a2d6e7b4", "bike_id": "21482249e77b0d13063e0d68a2d6e7b4", "fusion_lat": 0.0, "is_reserved": 0, "lat": 38.91418066666667, "fusion_lon": 0.0, "is_disabled": 0}, {"rental_uris": {"android": "https://dc.lft.to/lastmile_qr_scan", "ios": "https://dc.lft.to/lastmile_qr_scan"}, "type": "electric_scooter", "lon": -77.01201333333333, "name": "4dd5c8f8f3b901ee35196f442583435f", "bike_id": "4dd5c8f8f3b901ee35196f442583435f", "fusion_lat": 0.0, "is_reserved": 0, "lat": 38.871560833333334, "fusion_lon": 0.0, "is_disabled": 0}, {"rental_uris": {"android": "https://dc.lft.to/lastmile_qr_scan", "ios": "https://dc.lft.to/lastmile_qr_scan"}, "type": "electric_scooter", "lon": -77.0038445, "name": "858f80116da79d79fe377dbd8be86915", "bike_id": "858f80116da79d79fe377dbd8be86915", "fusion_lat": 0.0, "is_reserved": 0, "lat": 38.897468, "fusion_lon": 0.0, "is_disabled": 0}, {"rental_uris": {"android": "https://dc.lft.to/lastmile_qr_scan", "ios": "https://dc.lft.to/lastmile_qr_scan"}, "type": "electric_bike", "lon": -77.13176033333333, "name": "600f9eb80cd8caf29c17688a947a5c67", "bike_id": "600f9eb80cd8caf29c17688a947a5c67", "fusion_lat": 0.0, "is_reserved": 0, "lat": 38.8690505, "fusion_lon": 0.0, "is_disabled": 0}, {"rental_uris": {"android": "https://dc.lft.to/lastmile_qr_scan", "ios": "https://dc.lft.to/lastmile_qr_scan"}, "type": "electric_scooter", "lon": -76.99136383333334, "name": "d75939725706f0d0a6688e09608a7d80", "bike_id": "d75939725706f0d0a6688e09608a7d80", "fusion_lat": 0.0, "is_reserved": 0, "lat": 38.87910733333333, "fusion_lon": 0.0, "is_disabled": 0}, {"rental_uris": {"android": "https://dc.lft.to/lastmile_qr_scan", "ios": "https://dc.lft.to/lastmile_qr_scan"}, "type": "electric_bike", "lon": -76.9976145, "name": "714d721a455568ae83c76d19c245abe8", "bike_id": "714d721a455568ae83c76d19c245abe8", "fusion_lat": 0.0, "is_reserved": 0, "lat": 39.00593666666666, "fusion_lon": 0.0, "is_disabled": 0}, {"rental_uris": {"android": "https://dc.lft.to/lastmile_qr_scan", "ios": "https://dc.lft.to/lastmile_qr_scan"}, "type": "electric_scooter", "lon": -76.92956216666667, "name": "816baf237f2d424120960d15bbcffd2a", "bike_id": "816baf237f2d424120960d15bbcffd2a", "fusion_lat": 0.0, "is_reserved": 0, "lat": 38.89877216666667, "fusion_lon": 0.0, "is_disabled": 0}, {"rental_uris": {"android": "https://dc.lft.to/lastmile_qr_scan", "ios": "https://dc.lft.to/lastmile_qr_scan"}, "type": "electric_scooter", "lon": -77.04990316666667, "name": "4cfbe3ecf083fb24ce6737fef0a93ec5", "bike_id": "4cfbe3ecf083fb24ce6737fef0a93ec5", "fusion_lat": 0.0, "is_reserved": 0, "lat": 38.9007605, "fusion_lon": 0.0, "is_disabled": 0}, {"rental_uris": {"android": "https://dc.lft.to/lastmile_qr_scan", "ios": "https://dc.lft.to/lastmile_qr_scan"}, "type": "electric_scooter", "lon": -76.99907666666667, "name": "a9e25ba79a6c62adaff003eb2967e07e", "bike_id": "a9e25ba79a6c62adaff003eb2967e07e", "fusion_lat": 0.0, "is_reserved": 0, "lat": 38.90023333333333, "fusion_lon": 0.0, "is_disabled": 0}, {"rental_uris": {"android": "https://dc.lft.to/lastmile_qr_scan", "ios": "https://dc.lft.to/lastmile_qr_scan"}, "type": "electric_scooter", "lon": -77.03414966666666, "name": "76581f7c74a1772e4c642b8a5aee84e0", "bike_id": "76581f7c74a1772e4c642b8a5aee84e0", "fusion_lat": 0.0, "is_reserved": 0, "lat": 38.929387, "fusion_lon": 0.0, "is_disabled": 0}, {"rental_uris": {"android": "https://dc.lft.to/lastmile_qr_scan", "ios": "https://dc.lft.to/lastmile_qr_scan"}, "type": "electric_scooter", "lon": -77.01131833333334, "name": "3c920bc394ee43443119cf379373646a", "bike_id": "3c920bc394ee43443119cf379373646a", "fusion_lat": 0.0, "is_reserved": 0, "lat": 38.9073, "fusion_lon": 0.0, "is_disabled": 0}, {"rental_uris": {"android": "https://dc.lft.to/lastmile_qr_scan", "ios": "https://dc.lft.to/lastmile_qr_scan"}, "type": "electric_scooter", "lon": -77.00203133333333, "name": "7935c10fe489ad68b24b70eb896e154f", "bike_id": "7935c10fe489ad68b24b70eb896e154f", "fusion_lat": 0.0, "is_reserved": 0, "lat": 38.902392666666664, "fusion_lon": 0.0, "is_disabled": 0}, {"rental_uris": {"android": "https://dc.lft.to/lastmile_qr_scan", "ios": "https://dc.lft.to/lastmile_qr_scan"}, "type": "electric_scooter", "lon": -77.05143366666667, "name": "fe77e9d6df826a436f3c0d8d7ac36c95", "bike_id": "fe77e9d6df826a436f3c0d8d7ac36c95", "fusion_lat": 0.0, "is_reserved": 0, "lat": 38.90802433333333, "fusion_lon": 0.0, "is_disabled": 0}, {"rental_uris": {"android": "https://dc.lft.to/lastmile_qr_scan", "ios": "https://dc.lft.to/lastmile_qr_scan"}, "type": "electric_scooter", "lon": -77.02320433333334, "name": "cd31803915a8cf683a8fc62dc33613dc", "bike_id": "cd31803915a8cf683a8fc62dc33613dc", "fusion_lat": 0.0, "is_reserved": 0, "lat": 38.91790183333333, "fusion_lon": 0.0, "is_disabled": 0}, {"rental_uris": {"android": "https://dc.lft.to/lastmile_qr_scan", "ios": "https://dc.lft.to/lastmile_qr_scan"}, "type": "electric_scooter", "lon": -77.03259483333333, "name": "b1a54f7aabc1dad068950a1e2d8df2a0", "bike_id": "b1a54f7aabc1dad068950a1e2d8df2a0", "fusion_lat": 0.0, "is_reserved": 0, "lat": 38.93663883333333, "fusion_lon": 0.0, "is_disabled": 0}, {"rental_uris": {"android": "https://dc.lft.to/lastmile_qr_scan", "ios": "https://dc.lft.to/lastmile_qr_scan"}, "type": "electric_bike", "lon": -76.994909, "name": "ef1e30f7f5eba437e6a445816fe6dc52", "bike_id": "ef1e30f7f5eba437e6a445816fe6dc52", "fusion_lat": 0.0, "is_reserved": 0, "lat": 38.92572833333333, "fusion_lon": 0.0, "is_disabled": 0}, {"rental_uris": {"android": "https://dc.lft.to/lastmile_qr_scan", "ios": "https://dc.lft.to/lastmile_qr_scan"}, "type": "electric_scooter", "lon": -77.02852366666667, "name": "196bf8b0368b5fdd0a472da7f4983dc2", "bike_id": "196bf8b0368b5fdd0a472da7f4983dc2", "fusion_lat": 0.0, "is_reserved": 0, "lat": 38.9222365, "fusion_lon": 0.0, "is_disabled": 0}, {"rental_uris": {"android": "https://dc.lft.to/lastmile_qr_scan", "ios": "https://dc.lft.to/lastmile_qr_scan"}, "type": "electric_scooter", "lon": -77.0389105, "name": "c1a0f1f844f6986cb40ee55cddc13663", "bike_id": "c1a0f1f844f6986cb40ee55cddc13663", "fusion_lat": 0.0, "is_reserved": 0, "lat": 38.92227583333333, "fusion_lon": 0.0, "is_disabled": 0}, {"rental_uris": {"android": "https://dc.lft.to/lastmile_qr_scan", "ios": "https://dc.lft.to/lastmile_qr_scan"}, "type": "electric_scooter", "lon": -76.986176, "name": "c3b825a34b377222335a791cdf447abb", "bike_id": "c3b825a34b377222335a791cdf447abb", "fusion_lat": 0.0, "is_reserved": 0, "lat": 38.938297166666665, "fusion_lon": 0.0, "is_disabled": 0}, {"rental_uris": {"android": "https://dc.lft.to/lastmile_qr_scan", "ios": "https://dc.lft.to/lastmile_qr_scan"}, "type": "electric_scooter", "lon": -76.93435566666666, "name": "34fe2fdfe720502efaa9db5dbdf596b3", "bike_id": "34fe2fdfe720502efaa9db5dbdf596b3", "fusion_lat": 0.0, "is_reserved": 0, "lat": 38.89966483333333, "fusion_lon": 0.0, "is_disabled": 0}, {"rental_uris": {"android": "https://dc.lft.to/lastmile_qr_scan", "ios": "https://dc.lft.to/lastmile_qr_scan"}, "type": "electric_bike", "lon": -76.9981175, "name": "9294b2ab9d44ea5d10bb9cf4235c7d83", "bike_id": "9294b2ab9d44ea5d10bb9cf4235c7d83", "fusion_lat": 0.0, "is_reserved": 0, "lat": 38.934879333333335, "fusion_lon": 0.0, "is_disabled": 0}, {"rental_uris": {"android": "https://dc.lft.to/lastmile_qr_scan", "ios": "https://dc.lft.to/lastmile_qr_scan"}, "type": "electric_scooter", "lon": -76.948123, "name": "7e01eeecb56bcc2adfd29569fbd392a5", "bike_id": "7e01eeecb56bcc2adfd29569fbd392a5", "fusion_lat": 0.0, "is_reserved": 0, "lat": 38.893429166666664, "fusion_lon": 0.0, "is_disabled": 0}, {"rental_uris": {"android": "https://dc.lft.to/lastmile_qr_scan", "ios": "https://dc.lft.to/lastmile_qr_scan"}, "type": "electric_scooter", "lon": -77.0176575, "name": "e4fef71367f4774f00ded9dfd00cccd8", "bike_id": "e4fef71367f4774f00ded9dfd00cccd8", "fusion_lat": 0.0, "is_reserved": 0, "lat": 38.87293666666667, "fusion_lon": 0.0, "is_disabled": 0}, {"rental_uris": {"android": "https://dc.lft.to/lastmile_qr_scan", "ios": "https://dc.lft.to/lastmile_qr_scan"}, "type": "electric_scooter", "lon": -76.99000183333334, "name": "0aef8aa48b8937a33bf937365b77dcdc", "bike_id": "0aef8aa48b8937a33bf937365b77dcdc", "fusion_lat": 0.0, "is_reserved": 0, "lat": 38.865081833333335, "fusion_lon": 0.0, "is_disabled": 0}, {"rental_uris": {"android": "https://dc.lft.to/lastmile_qr_scan", "ios": "https://dc.lft.to/lastmile_qr_scan"}, "type": "electric_scooter", "lon": -77.05032666666666, "name": "986ac3a5061a364369d6e871246b5771", "bike_id": "986ac3a5061a364369d6e871246b5771", "fusion_lat": 0.0, "is_reserved": 0, "lat": 38.923667333333334, "fusion_lon": 0.0, "is_disabled": 0}, {"rental_uris": {"android": "https://dc.lft.to/lastmile_qr_scan", "ios": "https://dc.lft.to/lastmile_qr_scan"}, "type": "electric_scooter", "lon": -76.987708, "name": "d2a550ec6bd6984669b5fb75ffbb73cb", "bike_id": "d2a550ec6bd6984669b5fb75ffbb73cb", "fusion_lat": 0.0, "is_reserved": 0, "lat": 38.88314166666667, "fusion_lon": 0.0, "is_disabled": 0}, {"rental_uris": {"android": "https://dc.lft.to/lastmile_qr_scan", "ios": "https://dc.lft.to/lastmile_qr_scan"}, "type": "electric_scooter", "lon": -77.03229166666667, "name": "8ad64d509c7a28c1fe028f3bfaa06316", "bike_id": "8ad64d509c7a28c1fe028f3bfaa06316", "fusion_lat": 0.0, "is_reserved": 0, "lat": 38.92838116666667, "fusion_lon": 0.0, "is_disabled": 0}, {"rental_uris": {"android": "https://dc.lft.to/lastmile_qr_scan", "ios": "https://dc.lft.to/lastmile_qr_scan"}, "type": "electric_scooter", "lon": -77.04337066666666, "name": "002a03b853c8460f345117ed77a036ea", "bike_id": "002a03b853c8460f345117ed77a036ea", "fusion_lat": 0.0, "is_reserved": 0, "lat": 38.90728983333333, "fusion_lon": 0.0, "is_disabled": 0}, {"rental_uris": {"android": "https://dc.lft.to/lastmile_qr_scan", "ios": "https://dc.lft.to/lastmile_qr_scan"}, "type": "electric_scooter", "lon": -77.048688, "name": "cf5a3cca263458a1f82629ce043a1baf", "bike_id": "cf5a3cca263458a1f82629ce043a1baf", "fusion_lat": 0.0, "is_reserved": 0, "lat": 38.9029425, "fusion_lon": 0.0, "is_disabled": 0}, {"rental_uris": {"android": "https://dc.lft.to/lastmile_qr_scan", "ios": "https://dc.lft.to/lastmile_qr_scan"}, "type": "electric_scooter", "lon": -77.01396216666667, "name": "b18252f1fa741c1580bdf18e5c598d06", "bike_id": "b18252f1fa741c1580bdf18e5c598d06", "fusion_lat": 0.0, "is_reserved": 0, "lat": 38.928550666666666, "fusion_lon": 0.0, "is_disabled": 0}, {"rental_uris": {"android": "https://dc.lft.to/lastmile_qr_scan", "ios": "https://dc.lft.to/lastmile_qr_scan"}, "type": "electric_scooter", "lon": -77.027246, "name": "60324f56123e399c458ccd643808232d", "bike_id": "60324f56123e399c458ccd643808232d", "fusion_lat": 0.0, "is_reserved": 0, "lat": 38.951367833333336, "fusion_lon": 0.0, "is_disabled": 0}, {"rental_uris": {"android": "https://dc.lft.to/lastmile_qr_scan", "ios": "https://dc.lft.to/lastmile_qr_scan"}, "type": "electric_scooter", "lon": -77.0468045, "name": "5505f3fd2e21a418de1d3867100f6ec6", "bike_id": "5505f3fd2e21a418de1d3867100f6ec6", "fusion_lat": 0.0, "is_reserved": 0, "lat": 38.895116, "fusion_lon": 0.0, "is_disabled": 0}, {"rental_uris": {"android": "https://dc.lft.to/lastmile_qr_scan", "ios": "https://dc.lft.to/lastmile_qr_scan"}, "type": "electric_scooter", "lon": -77.03792233333333, "name": "ba90c2429d238181bf3a9aa7b78f10fd", "bike_id": "ba90c2429d238181bf3a9aa7b78f10fd", "fusion_lat": 0.0, "is_reserved": 0, "lat": 38.933220166666665, "fusion_lon": 0.0, "is_disabled": 0}, {"rental_uris": {"android": "https://dc.lft.to/lastmile_qr_scan", "ios": "https://dc.lft.to/lastmile_qr_scan"}, "type": "electric_bike", "lon": -76.9462225, "name": "666c1707ff55a9ac6a2c146d952b1a98", "bike_id": "666c1707ff55a9ac6a2c146d952b1a98", "fusion_lat": 0.0, "is_reserved": 0, "lat": 38.83249816666667, "fusion_lon": 0.0, "is_disabled": 0}, {"rental_uris": {"android": "https://dc.lft.to/lastmile_qr_scan", "ios": "https://dc.lft.to/lastmile_qr_scan"}, "type": "electric_scooter", "lon": -77.02576366666666, "name": "38e979f4a3b8ec39cfe88504a22da607", "bike_id": "38e979f4a3b8ec39cfe88504a22da607", "fusion_lat": 0.0, "is_reserved": 0, "lat": 38.9250695, "fusion_lon": 0.0, "is_disabled": 0}, {"rental_uris": {"android": "https://dc.lft.to/lastmile_qr_scan", "ios": "https://dc.lft.to/lastmile_qr_scan"}, "type": "electric_scooter", "lon": -77.0270375, "name": "b110e47aabc06c8bfc410f8bfd13e3ad", "bike_id": "b110e47aabc06c8bfc410f8bfd13e3ad", "fusion_lat": 0.0, "is_reserved": 0, "lat": 38.9181665, "fusion_lon": 0.0, "is_disabled": 0}, {"rental_uris": {"android": "https://dc.lft.to/lastmile_qr_scan", "ios": "https://dc.lft.to/lastmile_qr_scan"}, "type": "electric_bike", "lon": -77.12269416666666, "name": "236fed6bb0d32dde91d1a56c168c1ee7", "bike_id": "236fed6bb0d32dde91d1a56c168c1ee7", "fusion_lat": 0.0, "is_reserved": 0, "lat": 38.897336, "fusion_lon": 0.0, "is_disabled": 0}, {"rental_uris": {"android": "https://dc.lft.to/lastmile_qr_scan", "ios": "https://dc.lft.to/lastmile_qr_scan"}, "type": "electric_scooter", "lon": -77.02577283333333, "name": "fd87312272e3332c97c86cddead3921a", "bike_id": "fd87312272e3332c97c86cddead3921a", "fusion_lat": 0.0, "is_reserved": 0, "lat": 38.92506766666666, "fusion_lon": 0.0, "is_disabled": 0}, {"rental_uris": {"android": "https://dc.lft.to/lastmile_qr_scan", "ios": "https://dc.lft.to/lastmile_qr_scan"}, "type": "electric_scooter", "lon": -77.0400965, "name": "a11eee3a76f5e70713dd34d8d132b948", "bike_id": "a11eee3a76f5e70713dd34d8d132b948", "fusion_lat": 0.0, "is_reserved": 0, "lat": 38.91312083333333, "fusion_lon": 0.0, "is_disabled": 0}, {"rental_uris": {"android": "https://dc.lft.to/lastmile_qr_scan", "ios": "https://dc.lft.to/lastmile_qr_scan"}, "type": "electric_scooter", "lon": -77.0438915, "name": "e807d35acd0bf0955ba6300b52dc40b7", "bike_id": "e807d35acd0bf0955ba6300b52dc40b7", "fusion_lat": 0.0, "is_reserved": 0, "lat": 38.906598833333334, "fusion_lon": 0.0, "is_disabled": 0}, {"rental_uris": {"android": "https://dc.lft.to/lastmile_qr_scan", "ios": "https://dc.lft.to/lastmile_qr_scan"}, "type": "electric_scooter", "lon": -77.07340516666666, "name": "ee394df8418207bfe9ccca97de464b07", "bike_id": "ee394df8418207bfe9ccca97de464b07", "fusion_lat": 0.0, "is_reserved": 0, "lat": 38.910908166666665, "fusion_lon": 0.0, "is_disabled": 0}, {"rental_uris": {"android": "https://dc.lft.to/lastmile_qr_scan", "ios": "https://dc.lft.to/lastmile_qr_scan"}, "type": "electric_bike", "lon": -77.23302966666667, "name": "eb9dc12df2f8fddd4e934a5b41a9a54a", "bike_id": "eb9dc12df2f8fddd4e934a5b41a9a54a", "fusion_lat": 0.0, "is_reserved": 0, "lat": 38.925212333333334, "fusion_lon": 0.0, "is_disabled": 0}, {"rental_uris": {"android": "https://dc.lft.to/lastmile_qr_scan", "ios": "https://dc.lft.to/lastmile_qr_scan"}, "type": "electric_scooter", "lon": -77.04806416666666, "name": "45ae384b56a6082279977232de9f5f43", "bike_id": "45ae384b56a6082279977232de9f5f43", "fusion_lat": 0.0, "is_reserved": 0, "lat": 38.91101483333333, "fusion_lon": 0.0, "is_disabled": 0}, {"rental_uris": {"android": "https://dc.lft.to/lastmile_qr_scan", "ios": "https://dc.lft.to/lastmile_qr_scan"}, "type": "electric_bike", "lon": -76.91656883333333, "name": "bdc25150e3a2e7b4584c68b6d8098cdc", "bike_id": "bdc25150e3a2e7b4584c68b6d8098cdc", "fusion_lat": 0.0, "is_reserved": 0, "lat": 38.86861583333334, "fusion_lon": 0.0, "is_disabled": 0}, {"rental_uris": {"android": "https://dc.lft.to/lastmile_qr_scan", "ios": "https://dc.lft.to/lastmile_qr_scan"}, "type": "electric_scooter", "lon": -77.02704583333333, "name": "bed36c96c3b26ef2e8ca627aa3a913b4", "bike_id": "bed36c96c3b26ef2e8ca627aa3a913b4", "fusion_lat": 0.0, "is_reserved": 0, "lat": 38.92777933333333, "fusion_lon": 0.0, "is_disabled": 0}, {"rental_uris": {"android": "https://dc.lft.to/lastmile_qr_scan", "ios": "https://dc.lft.to/lastmile_qr_scan"}, "type": "electric_scooter", "lon": -77.026366, "name": "ea085c929f05810e906944a293fc386d", "bike_id": "ea085c929f05810e906944a293fc386d", "fusion_lat": 0.0, "is_reserved": 0, "lat": 38.881231, "fusion_lon": 0.0, "is_disabled": 0}, {"rental_uris": {"android": "https://dc.lft.to/lastmile_qr_scan", "ios": "https://dc.lft.to/lastmile_qr_scan"}, "type": "electric_scooter", "lon": -77.00586466666667, "name": "2e5ed96acfc91b4277372ab793804eb1", "bike_id": "2e5ed96acfc91b4277372ab793804eb1", "fusion_lat": 0.0, "is_reserved": 0, "lat": 38.90558083333333, "fusion_lon": 0.0, "is_disabled": 0}, {"rental_uris": {"android": "https://dc.lft.to/lastmile_qr_scan", "ios": "https://dc.lft.to/lastmile_qr_scan"}, "type": "electric_scooter", "lon": -77.034631, "name": "a933f83672eae9ce212814fcfeb0d6ab", "bike_id": "a933f83672eae9ce212814fcfeb0d6ab", "fusion_lat": 0.0, "is_reserved": 0, "lat": 38.90285816666667, "fusion_lon": 0.0, "is_disabled": 0}, {"rental_uris": {"android": "https://dc.lft.to/lastmile_qr_scan", "ios": "https://dc.lft.to/lastmile_qr_scan"}, "type": "electric_scooter", "lon": -76.97457066666666, "name": "ec759ad5943466651fc5a0f2f8eb1788", "bike_id": "ec759ad5943466651fc5a0f2f8eb1788", "fusion_lat": 0.0, "is_reserved": 0, "lat": 38.86373916666667, "fusion_lon": 0.0, "is_disabled": 0}, {"rental_uris": {"android": "https://dc.lft.to/lastmile_qr_scan", "ios": "https://dc.lft.to/lastmile_qr_scan"}, "type": "electric_scooter", "lon": -77.03654666666667, "name": "01bdc023cba9e4193527218a6f0ae049", "bike_id": "01bdc023cba9e4193527218a6f0ae049", "fusion_lat": 0.0, "is_reserved": 0, "lat": 38.918639666666664, "fusion_lon": 0.0, "is_disabled": 0}, {"rental_uris": {"android": "https://dc.lft.to/lastmile_qr_scan", "ios": "https://dc.lft.to/lastmile_qr_scan"}, "type": "electric_scooter", "lon": -77.04180416666667, "name": "da77f7f159e0045015271d1bd840b18d", "bike_id": "da77f7f159e0045015271d1bd840b18d", "fusion_lat": 0.0, "is_reserved": 0, "lat": 38.920585333333335, "fusion_lon": 0.0, "is_disabled": 0}, {"rental_uris": {"android": "https://dc.lft.to/lastmile_qr_scan", "ios": "https://dc.lft.to/lastmile_qr_scan"}, "type": "electric_scooter", "lon": -77.04867066666667, "name": "3abd21fcc2b9dfaa764c4efdc913bef6", "bike_id": "3abd21fcc2b9dfaa764c4efdc913bef6", "fusion_lat": 0.0, "is_reserved": 0, "lat": 38.912355, "fusion_lon": 0.0, "is_disabled": 0}, {"rental_uris": {"android": "https://dc.lft.to/lastmile_qr_scan", "ios": "https://dc.lft.to/lastmile_qr_scan"}, "type": "electric_scooter", "lon": -77.0422265, "name": "f12139700e58e0f2d3a372c86f50848b", "bike_id": "f12139700e58e0f2d3a372c86f50848b", "fusion_lat": 0.0, "is_reserved": 0, "lat": 38.91108333333333, "fusion_lon": 0.0, "is_disabled": 0}, {"rental_uris": {"android": "https://dc.lft.to/lastmile_qr_scan", "ios": "https://dc.lft.to/lastmile_qr_scan"}, "type": "electric_scooter", "lon": -77.02229966666667, "name": "d2f99dbe5e9ba289685406a504148ca4", "bike_id": "d2f99dbe5e9ba289685406a504148ca4", "fusion_lat": 0.0, "is_reserved": 0, "lat": 38.89775783333333, "fusion_lon": 0.0, "is_disabled": 0}, {"rental_uris": {"android": "https://dc.lft.to/lastmile_qr_scan", "ios": "https://dc.lft.to/lastmile_qr_scan"}, "type": "electric_scooter", "lon": -77.04199433333334, "name": "f34790f5a3fe1f3b7fa9cf896ef48b2a", "bike_id": "f34790f5a3fe1f3b7fa9cf896ef48b2a", "fusion_lat": 0.0, "is_reserved": 0, "lat": 38.892238, "fusion_lon": 0.0, "is_disabled": 0}, {"rental_uris": {"android": "https://dc.lft.to/lastmile_qr_scan", "ios": "https://dc.lft.to/lastmile_qr_scan"}, "type": "electric_bike", "lon": -77.079012, "name": "c66092d221a94d99cfcf688cf899be28", "bike_id": "c66092d221a94d99cfcf688cf899be28", "fusion_lat": 0.0, "is_reserved": 0, "lat": 38.83930316666667, "fusion_lon": 0.0, "is_disabled": 0}, {"rental_uris": {"android": "https://dc.lft.to/lastmile_qr_scan", "ios": "https://dc.lft.to/lastmile_qr_scan"}, "type": "electric_bike", "lon": -76.94469866666667, "name": "055967a8fcf180f1ffb778f9cdbbed4b", "bike_id": "055967a8fcf180f1ffb778f9cdbbed4b", "fusion_lat": 0.0, "is_reserved": 0, "lat": 38.94558716666667, "fusion_lon": 0.0, "is_disabled": 0}, {"rental_uris": {"android": "https://dc.lft.to/lastmile_qr_scan", "ios": "https://dc.lft.to/lastmile_qr_scan"}, "type": "electric_scooter", "lon": -77.0282365, "name": "b690f5154dbfc504f30d4e491a73e7c5", "bike_id": "b690f5154dbfc504f30d4e491a73e7c5", "fusion_lat": 0.0, "is_reserved": 0, "lat": 38.915522833333334, "fusion_lon": 0.0, "is_disabled": 0}, {"rental_uris": {"android": "https://dc.lft.to/lastmile_qr_scan", "ios": "https://dc.lft.to/lastmile_qr_scan"}, "type": "electric_scooter", "lon": -76.98360733333334, "name": "d30e3066bd21d9459e2acf308d51deaf", "bike_id": "d30e3066bd21d9459e2acf308d51deaf", "fusion_lat": 0.0, "is_reserved": 0, "lat": 38.8610315, "fusion_lon": 0.0, "is_disabled": 0}, {"rental_uris": {"android": "https://dc.lft.to/lastmile_qr_scan", "ios": "https://dc.lft.to/lastmile_qr_scan"}, "type": "electric_scooter", "lon": -77.02352983333333, "name": "0ef9fd35a251452bc6a6b36b7b1c18ae", "bike_id": "0ef9fd35a251452bc6a6b36b7b1c18ae", "fusion_lat": 0.0, "is_reserved": 0, "lat": 38.89221083333333, "fusion_lon": 0.0, "is_disabled": 0}, {"rental_uris": {"android": "https://dc.lft.to/lastmile_qr_scan", "ios": "https://dc.lft.to/lastmile_qr_scan"}, "type": "electric_bike", "lon": -77.05085316666667, "name": "02e945eb540cdc26201e38a8a9b60fec", "bike_id": "02e945eb540cdc26201e38a8a9b60fec", "fusion_lat": 0.0, "is_reserved": 0, "lat": 38.81324983333333, "fusion_lon": 0.0, "is_disabled": 0}, {"rental_uris": {"android": "https://dc.lft.to/lastmile_qr_scan", "ios": "https://dc.lft.to/lastmile_qr_scan"}, "type": "electric_scooter", "lon": -77.027715, "name": "e369d5ad1721d585a2a2e66321672310", "bike_id": "e369d5ad1721d585a2a2e66321672310", "fusion_lat": 0.0, "is_reserved": 0, "lat": 38.9267215, "fusion_lon": 0.0, "is_disabled": 0}, {"rental_uris": {"android": "https://dc.lft.to/lastmile_qr_scan", "ios": "https://dc.lft.to/lastmile_qr_scan"}, "type": "electric_scooter", "lon": -77.03286033333333, "name": "62dc4dac5bb5afe61b9eb7fd92af68e5", "bike_id": "62dc4dac5bb5afe61b9eb7fd92af68e5", "fusion_lat": 0.0, "is_reserved": 0, "lat": 38.910451, "fusion_lon": 0.0, "is_disabled": 0}, {"rental_uris": {"android": "https://dc.lft.to/lastmile_qr_scan", "ios": "https://dc.lft.to/lastmile_qr_scan"}, "type": "electric_scooter", "lon": -76.98682033333333, "name": "ed4d18f8ec05df386f7bd31249a2fcca", "bike_id": "ed4d18f8ec05df386f7bd31249a2fcca", "fusion_lat": 0.0, "is_reserved": 0, "lat": 38.88209966666667, "fusion_lon": 0.0, "is_disabled": 0}, {"rental_uris": {"android": "https://dc.lft.to/lastmile_qr_scan", "ios": "https://dc.lft.to/lastmile_qr_scan"}, "type": "electric_scooter", "lon": -77.04821433333333, "name": "58a588df16f38a9ac67f86858954cda3", "bike_id": "58a588df16f38a9ac67f86858954cda3", "fusion_lat": 0.0, "is_reserved": 0, "lat": 38.9148925, "fusion_lon": 0.0, "is_disabled": 0}, {"rental_uris": {"android": "https://dc.lft.to/lastmile_qr_scan", "ios": "https://dc.lft.to/lastmile_qr_scan"}, "type": "electric_scooter", "lon": -77.0067755, "name": "72b2e37e69c5933b9c0759ef3579cb12", "bike_id": "72b2e37e69c5933b9c0759ef3579cb12", "fusion_lat": 0.0, "is_reserved": 0, "lat": 38.94987283333333, "fusion_lon": 0.0, "is_disabled": 0}, {"rental_uris": {"android": "https://dc.lft.to/lastmile_qr_scan", "ios": "https://dc.lft.to/lastmile_qr_scan"}, "type": "electric_scooter", "lon": -77.029595, "name": "b76b9551f8035086cce0eae5f907b26e", "bike_id": "b76b9551f8035086cce0eae5f907b26e", "fusion_lat": 0.0, "is_reserved": 0, "lat": 38.921480333333335, "fusion_lon": 0.0, "is_disabled": 0}, {"rental_uris": {"android": "https://dc.lft.to/lastmile_qr_scan", "ios": "https://dc.lft.to/lastmile_qr_scan"}, "type": "electric_scooter", "lon": -77.03283116666667, "name": "175edec68377acf249c83bf234e2838f", "bike_id": "175edec68377acf249c83bf234e2838f", "fusion_lat": 0.0, "is_reserved": 0, "lat": 38.93979816666667, "fusion_lon": 0.0, "is_disabled": 0}, {"rental_uris": {"android": "https://dc.lft.to/lastmile_qr_scan", "ios": "https://dc.lft.to/lastmile_qr_scan"}, "type": "electric_scooter", "lon": -77.02795166666667, "name": "8ed91ec231edc2358ab193bfc80853ce", "bike_id": "8ed91ec231edc2358ab193bfc80853ce", "fusion_lat": 0.0, "is_reserved": 0, "lat": 38.9614495, "fusion_lon": 0.0, "is_disabled": 0}, {"rental_uris": {"android": "https://dc.lft.to/lastmile_qr_scan", "ios": "https://dc.lft.to/lastmile_qr_scan"}, "type": "electric_scooter", "lon": -76.99008316666666, "name": "b7bbab6edb97be6f02aab9e19d97953f", "bike_id": "b7bbab6edb97be6f02aab9e19d97953f", "fusion_lat": 0.0, "is_reserved": 0, "lat": 38.904011, "fusion_lon": 0.0, "is_disabled": 0}, {"rental_uris": {"android": "https://dc.lft.to/lastmile_qr_scan", "ios": "https://dc.lft.to/lastmile_qr_scan"}, "type": "electric_bike", "lon": -77.02318083333333, "name": "5c543ce4ed9828ae59cefc5dbdc046f4", "bike_id": "5c543ce4ed9828ae59cefc5dbdc046f4", "fusion_lat": 0.0, "is_reserved": 0, "lat": 38.902125166666664, "fusion_lon": 0.0, "is_disabled": 0}, {"rental_uris": {"android": "https://dc.lft.to/lastmile_qr_scan", "ios": "https://dc.lft.to/lastmile_qr_scan"}, "type": "electric_scooter", "lon": -77.01217116666666, "name": "9f0694d230cace163f2cccc2cdf4f713", "bike_id": "9f0694d230cace163f2cccc2cdf4f713", "fusion_lat": 0.0, "is_reserved": 0, "lat": 38.91310333333333, "fusion_lon": 0.0, "is_disabled": 0}, {"rental_uris": {"android": "https://dc.lft.to/lastmile_qr_scan", "ios": "https://dc.lft.to/lastmile_qr_scan"}, "type": "electric_scooter", "lon": -76.94664816666666, "name": "67721676a15c76f924fb2f6c4bab7eb6", "bike_id": "67721676a15c76f924fb2f6c4bab7eb6", "fusion_lat": 0.0, "is_reserved": 0, "lat": 38.898712, "fusion_lon": 0.0, "is_disabled": 0}, {"rental_uris": {"android": "https://dc.lft.to/lastmile_qr_scan", "ios": "https://dc.lft.to/lastmile_qr_scan"}, "type": "electric_scooter", "lon": -76.983208, "name": "05bca96109f7cc6940e9936e8d273825", "bike_id": "05bca96109f7cc6940e9936e8d273825", "fusion_lat": 0.0, "is_reserved": 0, "lat": 38.907412666666666, "fusion_lon": 0.0, "is_disabled": 0}, {"rental_uris": {"android": "https://dc.lft.to/lastmile_qr_scan", "ios": "https://dc.lft.to/lastmile_qr_scan"}, "type": "electric_scooter", "lon": -77.01193683333334, "name": "e74fbce31bbc6fb81ca959226eaded64", "bike_id": "e74fbce31bbc6fb81ca959226eaded64", "fusion_lat": 0.0, "is_reserved": 0, "lat": 38.90004533333333, "fusion_lon": 0.0, "is_disabled": 0}, {"rental_uris": {"android": "https://dc.lft.to/lastmile_qr_scan", "ios": "https://dc.lft.to/lastmile_qr_scan"}, "type": "electric_scooter", "lon": -77.011636, "name": "db600c107ec10d09a768e81eed8d82cf", "bike_id": "db600c107ec10d09a768e81eed8d82cf", "fusion_lat": 0.0, "is_reserved": 0, "lat": 38.896245666666665, "fusion_lon": 0.0, "is_disabled": 0}, {"rental_uris": {"android": "https://dc.lft.to/lastmile_qr_scan", "ios": "https://dc.lft.to/lastmile_qr_scan"}, "type": "electric_bike", "lon": -77.08954833333334, "name": "cfd02048ae60a43d615fa82688c21e95", "bike_id": "cfd02048ae60a43d615fa82688c21e95", "fusion_lat": 0.0, "is_reserved": 0, "lat": 38.93453816666667, "fusion_lon": 0.0, "is_disabled": 0}, {"rental_uris": {"android": "https://dc.lft.to/lastmile_qr_scan", "ios": "https://dc.lft.to/lastmile_qr_scan"}, "type": "electric_scooter", "lon": -77.00198466666667, "name": "10b858feaea16c62fdf86ff00c85e571", "bike_id": "10b858feaea16c62fdf86ff00c85e571", "fusion_lat": 0.0, "is_reserved": 0, "lat": 38.914356, "fusion_lon": 0.0, "is_disabled": 0}, {"rental_uris": {"android": "https://dc.lft.to/lastmile_qr_scan", "ios": "https://dc.lft.to/lastmile_qr_scan"}, "type": "electric_scooter", "lon": -77.0317315, "name": "d2d9e9cc54d3fd1d46fbd1fa509bda2d", "bike_id": "d2d9e9cc54d3fd1d46fbd1fa509bda2d", "fusion_lat": 0.0, "is_reserved": 0, "lat": 38.9000735, "fusion_lon": 0.0, "is_disabled": 0}, {"rental_uris": {"android": "https://dc.lft.to/lastmile_qr_scan", "ios": "https://dc.lft.to/lastmile_qr_scan"}, "type": "electric_scooter", "lon": -77.04474216666667, "name": "2c2b98e4ea49c24ba9d14dc7af13fdf3", "bike_id": "2c2b98e4ea49c24ba9d14dc7af13fdf3", "fusion_lat": 0.0, "is_reserved": 0, "lat": 38.9140875, "fusion_lon": 0.0, "is_disabled": 0}, {"rental_uris": {"android": "https://dc.lft.to/lastmile_qr_scan", "ios": "https://dc.lft.to/lastmile_qr_scan"}, "type": "electric_scooter", "lon": -77.0318395, "name": "75cf2d6b085fadd3e1ab0587d19f3c72", "bike_id": "75cf2d6b085fadd3e1ab0587d19f3c72", "fusion_lat": 0.0, "is_reserved": 0, "lat": 38.90044983333333, "fusion_lon": 0.0, "is_disabled": 0}, {"rental_uris": {"android": "https://dc.lft.to/lastmile_qr_scan", "ios": "https://dc.lft.to/lastmile_qr_scan"}, "type": "electric_scooter", "lon": -77.047267, "name": "fa46357bb0edfe7d41dbb4975516a850", "bike_id": "fa46357bb0edfe7d41dbb4975516a850", "fusion_lat": 0.0, "is_reserved": 0, "lat": 38.899677833333335, "fusion_lon": 0.0, "is_disabled": 0}, {"rental_uris": {"android": "https://dc.lft.to/lastmile_qr_scan", "ios": "https://dc.lft.to/lastmile_qr_scan"}, "type": "electric_scooter", "lon": -77.07267616666667, "name": "0aa4776012d905ad9e3113edcdc56eb2", "bike_id": "0aa4776012d905ad9e3113edcdc56eb2", "fusion_lat": 0.0, "is_reserved": 0, "lat": 38.93481533333333, "fusion_lon": 0.0, "is_disabled": 0}, {"rental_uris": {"android": "https://dc.lft.to/lastmile_qr_scan", "ios": "https://dc.lft.to/lastmile_qr_scan"}, "type": "electric_bike", "lon": -76.96838766666667, "name": "1ec2e0cbf08654dfa22f4423f116a232", "bike_id": "1ec2e0cbf08654dfa22f4423f116a232", "fusion_lat": 0.0, "is_reserved": 0, "lat": 38.9244565, "fusion_lon": 0.0, "is_disabled": 0}, {"rental_uris": {"android": "https://dc.lft.to/lastmile_qr_scan", "ios": "https://dc.lft.to/lastmile_qr_scan"}, "type": "electric_bike", "lon": -76.92998266666666, "name": "48195dfcafe6fb551c5305137d82ba68", "bike_id": "48195dfcafe6fb551c5305137d82ba68", "fusion_lat": 0.0, "is_reserved": 0, "lat": 38.8880615, "fusion_lon": 0.0, "is_disabled": 0}, {"rental_uris": {"android": "https://dc.lft.to/lastmile_qr_scan", "ios": "https://dc.lft.to/lastmile_qr_scan"}, "type": "electric_scooter", "lon": -77.03793383333333, "name": "dfa749f4e0be4b8ed40a178672bf0e77", "bike_id": "dfa749f4e0be4b8ed40a178672bf0e77", "fusion_lat": 0.0, "is_reserved": 0, "lat": 38.930123333333334, "fusion_lon": 0.0, "is_disabled": 0}, {"rental_uris": {"android": "https://dc.lft.to/lastmile_qr_scan", "ios": "https://dc.lft.to/lastmile_qr_scan"}, "type": "electric_bike", "lon": -77.15269283333333, "name": "2203a872ddb4b786c67ae7a57a58e53a", "bike_id": "2203a872ddb4b786c67ae7a57a58e53a", "fusion_lat": 0.0, "is_reserved": 0, "lat": 39.10566883333333, "fusion_lon": 0.0, "is_disabled": 0}, {"rental_uris": {"android": "https://dc.lft.to/lastmile_qr_scan", "ios": "https://dc.lft.to/lastmile_qr_scan"}, "type": "electric_scooter", "lon": -76.98323383333333, "name": "15f4bc291fade7a305ba61ce0556de15", "bike_id": "15f4bc291fade7a305ba61ce0556de15", "fusion_lat": 0.0, "is_reserved": 0, "lat": 38.861653833333335, "fusion_lon": 0.0, "is_disabled": 0}, {"rental_uris": {"android": "https://dc.lft.to/lastmile_qr_scan", "ios": "https://dc.lft.to/lastmile_qr_scan"}, "type": "electric_scooter", "lon": -76.96505166666667, "name": "44f52a84d18e0459649d4cd25ff1384a", "bike_id": "44f52a84d18e0459649d4cd25ff1384a", "fusion_lat": 0.0, "is_reserved": 0, "lat": 38.876485333333335, "fusion_lon": 0.0, "is_disabled": 0}, {"rental_uris": {"android": "https://dc.lft.to/lastmile_qr_scan", "ios": "https://dc.lft.to/lastmile_qr_scan"}, "type": "electric_scooter", "lon": -77.02726766666666, "name": "401c38593222e3d632b06dfac12bdf75", "bike_id": "401c38593222e3d632b06dfac12bdf75", "fusion_lat": 0.0, "is_reserved": 0, "lat": 38.95136683333333, "fusion_lon": 0.0, "is_disabled": 0}, {"rental_uris": {"android": "https://dc.lft.to/lastmile_qr_scan", "ios": "https://dc.lft.to/lastmile_qr_scan"}, "type": "electric_bike", "lon": -77.0199955, "name": "c9c4c98a630c8a3f740b6333eabf3f33", "bike_id": "c9c4c98a630c8a3f740b6333eabf3f33", "fusion_lat": 0.0, "is_reserved": 0, "lat": 38.960239333333334, "fusion_lon": 0.0, "is_disabled": 0}, {"rental_uris": {"android": "https://dc.lft.to/lastmile_qr_scan", "ios": "https://dc.lft.to/lastmile_qr_scan"}, "type": "electric_scooter", "lon": -77.00925433333333, "name": "178127a74d14bca11e7fe581a5b3a418", "bike_id": "178127a74d14bca11e7fe581a5b3a418", "fusion_lat": 0.0, "is_reserved": 0, "lat": 38.896096, "fusion_lon": 0.0, "is_disabled": 0}, {"rental_uris": {"android": "https://dc.lft.to/lastmile_qr_scan", "ios": "https://dc.lft.to/lastmile_qr_scan"}, "type": "electric_scooter", "lon": -77.03888583333334, "name": "842b66be473ef20373bb11f9b02f04e0", "bike_id": "842b66be473ef20373bb11f9b02f04e0", "fusion_lat": 0.0, "is_reserved": 0, "lat": 38.922106666666664, "fusion_lon": 0.0, "is_disabled": 0}, {"rental_uris": {"android": "https://dc.lft.to/lastmile_qr_scan", "ios": "https://dc.lft.to/lastmile_qr_scan"}, "type": "electric_scooter", "lon": -77.05433616666667, "name": "ea2c577627db0c94c524ea4d7bc550f3", "bike_id": "ea2c577627db0c94c524ea4d7bc550f3", "fusion_lat": 0.0, "is_reserved": 0, "lat": 38.92310033333333, "fusion_lon": 0.0, "is_disabled": 0}, {"rental_uris": {"android": "https://dc.lft.to/lastmile_qr_scan", "ios": "https://dc.lft.to/lastmile_qr_scan"}, "type": "electric_scooter", "lon": -77.03000966666667, "name": "80b04eaa029cc40473bb14dd96c42213", "bike_id": "80b04eaa029cc40473bb14dd96c42213", "fusion_lat": 0.0, "is_reserved": 0, "lat": 38.92799316666667, "fusion_lon": 0.0, "is_disabled": 0}, {"rental_uris": {"android": "https://dc.lft.to/lastmile_qr_scan", "ios": "https://dc.lft.to/lastmile_qr_scan"}, "type": "electric_bike", "lon": -77.35313466666666, "name": "95d4f57a2ff412db1879b9ce14169508", "bike_id": "95d4f57a2ff412db1879b9ce14169508", "fusion_lat": 0.0, "is_reserved": 0, "lat": 38.9500865, "fusion_lon": 0.0, "is_disabled": 0}, {"rental_uris": {"android": "https://dc.lft.to/lastmile_qr_scan", "ios": "https://dc.lft.to/lastmile_qr_scan"}, "type": "electric_scooter", "lon": -77.03280816666667, "name": "bebc980c545042cba7bcc4a4c82ed986", "bike_id": "bebc980c545042cba7bcc4a4c82ed986", "fusion_lat": 0.0, "is_reserved": 0, "lat": 38.939894, "fusion_lon": 0.0, "is_disabled": 0}, {"rental_uris": {"android": "https://dc.lft.to/lastmile_qr_scan", "ios": "https://dc.lft.to/lastmile_qr_scan"}, "type": "electric_scooter", "lon": -77.0090275, "name": "03cc66305c654304a0fe99a1a0f17f75", "bike_id": "03cc66305c654304a0fe99a1a0f17f75", "fusion_lat": 0.0, "is_reserved": 0, "lat": 38.895542, "fusion_lon": 0.0, "is_disabled": 0}, {"rental_uris": {"android": "https://dc.lft.to/lastmile_qr_scan", "ios": "https://dc.lft.to/lastmile_qr_scan"}, "type": "electric_scooter", "lon": -77.03990633333333, "name": "ac4166e36c214dac1b008632ea121a08", "bike_id": "ac4166e36c214dac1b008632ea121a08", "fusion_lat": 0.0, "is_reserved": 0, "lat": 38.925831, "fusion_lon": 0.0, "is_disabled": 0}, {"rental_uris": {"android": "https://dc.lft.to/lastmile_qr_scan", "ios": "https://dc.lft.to/lastmile_qr_scan"}, "type": "electric_scooter", "lon": -77.02239066666667, "name": "b71b007577effc16700e63d5335c4ede", "bike_id": "b71b007577effc16700e63d5335c4ede", "fusion_lat": 0.0, "is_reserved": 0, "lat": 38.91357716666667, "fusion_lon": 0.0, "is_disabled": 0}, {"rental_uris": {"android": "https://dc.lft.to/lastmile_qr_scan", "ios": "https://dc.lft.to/lastmile_qr_scan"}, "type": "electric_scooter", "lon": -77.02731883333334, "name": "109faf41b0001c9df59372034d83ef59", "bike_id": "109faf41b0001c9df59372034d83ef59", "fusion_lat": 0.0, "is_reserved": 0, "lat": 38.934011166666664, "fusion_lon": 0.0, "is_disabled": 0}, {"rental_uris": {"android": "https://dc.lft.to/lastmile_qr_scan", "ios": "https://dc.lft.to/lastmile_qr_scan"}, "type": "electric_scooter", "lon": -77.03205483333333, "name": "aacb20c0c7f77504f8bd8aa45b854445", "bike_id": "aacb20c0c7f77504f8bd8aa45b854445", "fusion_lat": 0.0, "is_reserved": 0, "lat": 38.909252333333335, "fusion_lon": 0.0, "is_disabled": 0}, {"rental_uris": {"android": "https://dc.lft.to/lastmile_qr_scan", "ios": "https://dc.lft.to/lastmile_qr_scan"}, "type": "electric_scooter", "lon": -77.05604083333333, "name": "54511602d042b8d3067825a71ab59e1f", "bike_id": "54511602d042b8d3067825a71ab59e1f", "fusion_lat": 0.0, "is_reserved": 0, "lat": 38.924109, "fusion_lon": 0.0, "is_disabled": 0}, {"rental_uris": {"android": "https://dc.lft.to/lastmile_qr_scan", "ios": "https://dc.lft.to/lastmile_qr_scan"}, "type": "electric_scooter", "lon": -77.092075, "name": "e2a6677864f237037d5572f6b0576eb8", "bike_id": "e2a6677864f237037d5572f6b0576eb8", "fusion_lat": 0.0, "is_reserved": 0, "lat": 38.916968, "fusion_lon": 0.0, "is_disabled": 0}, {"rental_uris": {"android": "https://dc.lft.to/lastmile_qr_scan", "ios": "https://dc.lft.to/lastmile_qr_scan"}, "type": "electric_scooter", "lon": -77.02760883333333, "name": "72b0acddc8c3c930c492c257a14e5b87", "bike_id": "72b0acddc8c3c930c492c257a14e5b87", "fusion_lat": 0.0, "is_reserved": 0, "lat": 38.923876166666666, "fusion_lon": 0.0, "is_disabled": 0}, {"rental_uris": {"android": "https://dc.lft.to/lastmile_qr_scan", "ios": "https://dc.lft.to/lastmile_qr_scan"}, "type": "electric_scooter", "lon": -77.04982016666666, "name": "70dca39f25be4832e3e9014dca1acf8e", "bike_id": "70dca39f25be4832e3e9014dca1acf8e", "fusion_lat": 0.0, "is_reserved": 0, "lat": 38.90071233333333, "fusion_lon": 0.0, "is_disabled": 0}, {"rental_uris": {"android": "https://dc.lft.to/lastmile_qr_scan", "ios": "https://dc.lft.to/lastmile_qr_scan"}, "type": "electric_scooter", "lon": -77.00449066666667, "name": "1e69e3c8a42729577f11e403206fe240", "bike_id": "1e69e3c8a42729577f11e403206fe240", "fusion_lat": 0.0, "is_reserved": 0, "lat": 38.9290035, "fusion_lon": 0.0, "is_disabled": 0}, {"rental_uris": {"android": "https://dc.lft.to/lastmile_qr_scan", "ios": "https://dc.lft.to/lastmile_qr_scan"}, "type": "electric_scooter", "lon": -77.04705316666667, "name": "b304af34656978a5de240c77b4ddd5eb", "bike_id": "b304af34656978a5de240c77b4ddd5eb", "fusion_lat": 0.0, "is_reserved": 0, "lat": 38.91254766666667, "fusion_lon": 0.0, "is_disabled": 0}, {"rental_uris": {"android": "https://dc.lft.to/lastmile_qr_scan", "ios": "https://dc.lft.to/lastmile_qr_scan"}, "type": "electric_scooter", "lon": -77.02782016666667, "name": "e310333447d228e671316ef82e65e686", "bike_id": "e310333447d228e671316ef82e65e686", "fusion_lat": 0.0, "is_reserved": 0, "lat": 38.961555, "fusion_lon": 0.0, "is_disabled": 0}, {"rental_uris": {"android": "https://dc.lft.to/lastmile_qr_scan", "ios": "https://dc.lft.to/lastmile_qr_scan"}, "type": "electric_scooter", "lon": -77.0394435, "name": "558e01ca372d523fa2267856993553b1", "bike_id": "558e01ca372d523fa2267856993553b1", "fusion_lat": 0.0, "is_reserved": 0, "lat": 38.9043935, "fusion_lon": 0.0, "is_disabled": 0}, {"rental_uris": {"android": "https://dc.lft.to/lastmile_qr_scan", "ios": "https://dc.lft.to/lastmile_qr_scan"}, "type": "electric_scooter", "lon": -77.04641183333334, "name": "5a5ce2e353680930ddcd288988a21891", "bike_id": "5a5ce2e353680930ddcd288988a21891", "fusion_lat": 0.0, "is_reserved": 0, "lat": 38.90500333333333, "fusion_lon": 0.0, "is_disabled": 0}, {"rental_uris": {"android": "https://dc.lft.to/lastmile_qr_scan", "ios": "https://dc.lft.to/lastmile_qr_scan"}, "type": "electric_scooter", "lon": -77.0342375, "name": "0086e21f8f7c524e796d4fd47e04b72e", "bike_id": "0086e21f8f7c524e796d4fd47e04b72e", "fusion_lat": 0.0, "is_reserved": 0, "lat": 38.903135, "fusion_lon": 0.0, "is_disabled": 0}, {"rental_uris": {"android": "https://dc.lft.to/lastmile_qr_scan", "ios": "https://dc.lft.to/lastmile_qr_scan"}, "type": "electric_scooter", "lon": -77.03213, "name": "5ac4931a70abf8c6af79733b4088062a", "bike_id": "5ac4931a70abf8c6af79733b4088062a", "fusion_lat": 0.0, "is_reserved": 0, "lat": 38.922592333333334, "fusion_lon": 0.0, "is_disabled": 0}, {"rental_uris": {"android": "https://dc.lft.to/lastmile_qr_scan", "ios": "https://dc.lft.to/lastmile_qr_scan"}, "type": "electric_scooter", "lon": -77.00195616666667, "name": "0d78a160b69c2c3cefb6d5f7d5e5a70b", "bike_id": "0d78a160b69c2c3cefb6d5f7d5e5a70b", "fusion_lat": 0.0, "is_reserved": 0, "lat": 38.90239016666666, "fusion_lon": 0.0, "is_disabled": 0}, {"rental_uris": {"android": "https://dc.lft.to/lastmile_qr_scan", "ios": "https://dc.lft.to/lastmile_qr_scan"}, "type": "electric_scooter", "lon": -77.02320066666667, "name": "92e4fcbc1fbd8008ff5be891160e2fbb", "bike_id": "92e4fcbc1fbd8008ff5be891160e2fbb", "fusion_lat": 0.0, "is_reserved": 0, "lat": 38.91783233333334, "fusion_lon": 0.0, "is_disabled": 0}, {"rental_uris": {"android": "https://dc.lft.to/lastmile_qr_scan", "ios": "https://dc.lft.to/lastmile_qr_scan"}, "type": "electric_bike", "lon": -77.07636383333333, "name": "989be5c0e12e56485e48275f9d49e34f", "bike_id": "989be5c0e12e56485e48275f9d49e34f", "fusion_lat": 0.0, "is_reserved": 0, "lat": 38.906036666666665, "fusion_lon": 0.0, "is_disabled": 0}, {"rental_uris": {"android": "https://dc.lft.to/lastmile_qr_scan", "ios": "https://dc.lft.to/lastmile_qr_scan"}, "type": "electric_scooter", "lon": -77.00749566666667, "name": "72b938188fa0fe39e7a426847223f89f", "bike_id": "72b938188fa0fe39e7a426847223f89f", "fusion_lat": 0.0, "is_reserved": 0, "lat": 38.902434166666666, "fusion_lon": 0.0, "is_disabled": 0}, {"rental_uris": {"android": "https://dc.lft.to/lastmile_qr_scan", "ios": "https://dc.lft.to/lastmile_qr_scan"}, "type": "electric_scooter", "lon": -77.03476083333334, "name": "b29d6df59acac94b2a69d5473be97558", "bike_id": "b29d6df59acac94b2a69d5473be97558", "fusion_lat": 0.0, "is_reserved": 0, "lat": 38.90239833333333, "fusion_lon": 0.0, "is_disabled": 0}, {"rental_uris": {"android": "https://dc.lft.to/lastmile_qr_scan", "ios": "https://dc.lft.to/lastmile_qr_scan"}, "type": "electric_scooter", "lon": -77.0125775, "name": "60c0c6ce09a9932ff7834c4d8b9bb4df", "bike_id": "60c0c6ce09a9932ff7834c4d8b9bb4df", "fusion_lat": 0.0, "is_reserved": 0, "lat": 38.9085005, "fusion_lon": 0.0, "is_disabled": 0}, {"rental_uris": {"android": "https://dc.lft.to/lastmile_qr_scan", "ios": "https://dc.lft.to/lastmile_qr_scan"}, "type": "electric_scooter", "lon": -77.01884216666667, "name": "44ea6577c8544d84018198cd474f6888", "bike_id": "44ea6577c8544d84018198cd474f6888", "fusion_lat": 0.0, "is_reserved": 0, "lat": 38.9293995, "fusion_lon": 0.0, "is_disabled": 0}, {"rental_uris": {"android": "https://dc.lft.to/lastmile_qr_scan", "ios": "https://dc.lft.to/lastmile_qr_scan"}, "type": "electric_bike", "lon": -76.9983355, "name": "014c9c50c604b7ce6c2147299bf3a083", "bike_id": "014c9c50c604b7ce6c2147299bf3a083", "fusion_lat": 0.0, "is_reserved": 0, "lat": 38.839196, "fusion_lon": 0.0, "is_disabled": 0}, {"rental_uris": {"android": "https://dc.lft.to/lastmile_qr_scan", "ios": "https://dc.lft.to/lastmile_qr_scan"}, "type": "electric_scooter", "lon": -76.99504666666667, "name": "8abbd51fd35d4766cba91cbca9481b7a", "bike_id": "8abbd51fd35d4766cba91cbca9481b7a", "fusion_lat": 0.0, "is_reserved": 0, "lat": 38.8625065, "fusion_lon": 0.0, "is_disabled": 0}, {"rental_uris": {"android": "https://dc.lft.to/lastmile_qr_scan", "ios": "https://dc.lft.to/lastmile_qr_scan"}, "type": "electric_scooter", "lon": -76.99526266666666, "name": "40e93989a26d17f0133766372edea0f7", "bike_id": "40e93989a26d17f0133766372edea0f7", "fusion_lat": 0.0, "is_reserved": 0, "lat": 38.884078333333335, "fusion_lon": 0.0, "is_disabled": 0}, {"rental_uris": {"android": "https://dc.lft.to/lastmile_qr_scan", "ios": "https://dc.lft.to/lastmile_qr_scan"}, "type": "electric_bike", "lon": -77.01078216666667, "name": "3b78e8a9e15e0b19f1e3dd22f7ec265c", "bike_id": "3b78e8a9e15e0b19f1e3dd22f7ec265c", "fusion_lat": 0.0, "is_reserved": 0, "lat": 38.9626415, "fusion_lon": 0.0, "is_disabled": 0}, {"rental_uris": {"android": "https://dc.lft.to/lastmile_qr_scan", "ios": "https://dc.lft.to/lastmile_qr_scan"}, "type": "electric_scooter", "lon": -77.009564, "name": "b0ed3ee902b985af8e4595997e99156f", "bike_id": "b0ed3ee902b985af8e4595997e99156f", "fusion_lat": 0.0, "is_reserved": 0, "lat": 38.921356833333334, "fusion_lon": 0.0, "is_disabled": 0}, {"rental_uris": {"android": "https://dc.lft.to/lastmile_qr_scan", "ios": "https://dc.lft.to/lastmile_qr_scan"}, "type": "electric_scooter", "lon": -77.00068766666666, "name": "a3a4c3273baaf6723665c5af55420329", "bike_id": "a3a4c3273baaf6723665c5af55420329", "fusion_lat": 0.0, "is_reserved": 0, "lat": 38.89743033333333, "fusion_lon": 0.0, "is_disabled": 0}, {"rental_uris": {"android": "https://dc.lft.to/lastmile_qr_scan", "ios": "https://dc.lft.to/lastmile_qr_scan"}, "type": "electric_scooter", "lon": -77.01951, "name": "45f8f31760c6df58214a520c00348b8d", "bike_id": "45f8f31760c6df58214a520c00348b8d", "fusion_lat": 0.0, "is_reserved": 0, "lat": 38.90213133333334, "fusion_lon": 0.0, "is_disabled": 0}, {"rental_uris": {"android": "https://dc.lft.to/lastmile_qr_scan", "ios": "https://dc.lft.to/lastmile_qr_scan"}, "type": "electric_bike", "lon": -76.874957, "name": "f2fa0306f8c211477fdc520e1118d0d2", "bike_id": "f2fa0306f8c211477fdc520e1118d0d2", "fusion_lat": 0.0, "is_reserved": 0, "lat": 38.9909125, "fusion_lon": 0.0, "is_disabled": 0}, {"rental_uris": {"android": "https://dc.lft.to/lastmile_qr_scan", "ios": "https://dc.lft.to/lastmile_qr_scan"}, "type": "electric_scooter", "lon": -77.06807283333333, "name": "8bfbd49ead39a2f28342725950e40b12", "bike_id": "8bfbd49ead39a2f28342725950e40b12", "fusion_lat": 0.0, "is_reserved": 0, "lat": 38.9050495, "fusion_lon": 0.0, "is_disabled": 0}, {"rental_uris": {"android": "https://dc.lft.to/lastmile_qr_scan", "ios": "https://dc.lft.to/lastmile_qr_scan"}, "type": "electric_bike", "lon": -77.11217966666666, "name": "c199746d54fbb6c66fabfdff9e6e569b", "bike_id": "c199746d54fbb6c66fabfdff9e6e569b", "fusion_lat": 0.0, "is_reserved": 0, "lat": 38.828729333333335, "fusion_lon": 0.0, "is_disabled": 0}, {"rental_uris": {"android": "https://dc.lft.to/lastmile_qr_scan", "ios": "https://dc.lft.to/lastmile_qr_scan"}, "type": "electric_scooter", "lon": -76.931564, "name": "7f706b78755e3fcbad3944e1ea17f65a", "bike_id": "7f706b78755e3fcbad3944e1ea17f65a", "fusion_lat": 0.0, "is_reserved": 0, "lat": 38.898834, "fusion_lon": 0.0, "is_disabled": 0}, {"rental_uris": {"android": "https://dc.lft.to/lastmile_qr_scan", "ios": "https://dc.lft.to/lastmile_qr_scan"}, "type": "electric_scooter", "lon": -77.01610233333334, "name": "eeb1f79133d67aede9b0a8867b96d96c", "bike_id": "eeb1f79133d67aede9b0a8867b96d96c", "fusion_lat": 0.0, "is_reserved": 0, "lat": 38.87633116666667, "fusion_lon": 0.0, "is_disabled": 0}, {"rental_uris": {"android": "https://dc.lft.to/lastmile_qr_scan", "ios": "https://dc.lft.to/lastmile_qr_scan"}, "type": "electric_scooter", "lon": -77.0385575, "name": "34c91f2efefebd7f704bf91edbacdba6", "bike_id": "34c91f2efefebd7f704bf91edbacdba6", "fusion_lat": 0.0, "is_reserved": 0, "lat": 38.912096, "fusion_lon": 0.0, "is_disabled": 0}, {"rental_uris": {"android": "https://dc.lft.to/lastmile_qr_scan", "ios": "https://dc.lft.to/lastmile_qr_scan"}, "type": "electric_scooter", "lon": -76.94216483333334, "name": "620847e81e18a944933d5519a82b229e", "bike_id": "620847e81e18a944933d5519a82b229e", "fusion_lat": 0.0, "is_reserved": 0, "lat": 38.896794666666665, "fusion_lon": 0.0, "is_disabled": 0}, {"rental_uris": {"android": "https://dc.lft.to/lastmile_qr_scan", "ios": "https://dc.lft.to/lastmile_qr_scan"}, "type": "electric_scooter", "lon": -77.03206516666667, "name": "2d9bdf4d7e7a526fe3e9dfb48a095670", "bike_id": "2d9bdf4d7e7a526fe3e9dfb48a095670", "fusion_lat": 0.0, "is_reserved": 0, "lat": 38.907830833333335, "fusion_lon": 0.0, "is_disabled": 0}, {"rental_uris": {"android": "https://dc.lft.to/lastmile_qr_scan", "ios": "https://dc.lft.to/lastmile_qr_scan"}, "type": "electric_bike", "lon": -76.94960383333333, "name": "8404562939ed9b488b551037c643fdc8", "bike_id": "8404562939ed9b488b551037c643fdc8", "fusion_lat": 0.0, "is_reserved": 0, "lat": 38.935034333333334, "fusion_lon": 0.0, "is_disabled": 0}, {"rental_uris": {"android": "https://dc.lft.to/lastmile_qr_scan", "ios": "https://dc.lft.to/lastmile_qr_scan"},