{"data": {"bikes": [{"lon": -77.01352766666666, "lat": 38.914936833333336, "name": "1b75ad32950946b2081aa5735babd828", "fusion_lat": 0.0, "fusion_lon": 0.0, "rental_uris": {"android": "https://dc.lft.to/lastmile_qr_scan", "ios": "https://dc.lft.to/lastmile_qr_scan"}, "is_reserved": 0, "is_disabled": 0, "type": "electric_scooter", "bike_id": "1b75ad32950946b2081aa5735babd828"}, {"lon": -77.00087383333333, "lat": 38.87375016666667, "name": "538919ebc545deca1ec33ced9d18e8f2", "fusion_lat": 0.0, "fusion_lon": 0.0, "rental_uris": {"android": "https://dc.lft.to/lastmile_qr_scan", "ios": "https://dc.lft.to/lastmile_qr_scan"}, "is_reserved": 0, "is_disabled": 0, "type": "electric_scooter", "bike_id": "538919ebc545deca1ec33ced9d18e8f2"}, {"lon": -77.015376, "lat": 38.887343666666666, "name": "44b5f54c4ac0874c56849796bcd3e594", "fusion_lat": 0.0, "fusion_lon": 0.0, "rental_uris": {"android": "https://dc.lft.to/lastmile_qr_scan", "ios": "https://dc.lft.to/lastmile_qr_scan"}, "is_reserved": 0, "is_disabled": 0, "type": "electric_scooter", "bike_id": "44b5f54c4ac0874c56849796bcd3e594"}, {"lon": -77.02532933333333, "lat": 38.921451833333336, "name": "a12d29bdf2cc4be0cc034225c2fb88eb", "fusion_lat": 0.0, "fusion_lon": 0.0, "rental_uris": {"android": "https://dc.lft.to/lastmile_qr_scan", "ios": "https://dc.lft.to/lastmile_qr_scan"}, "is_reserved": 0, "is_disabled": 0, "type": "electric_scooter", "bike_id": "a12d29bdf2cc4be0cc034225c2fb88eb"}, {"lon": -77.02195983333333, "lat": 38.90912183333333, "name": "54d3aa94f4025e76a393224d15c37d46", "fusion_lat": 0.0, "fusion_lon": 0.0, "rental_uris": {"android": "https://dc.lft.to/lastmile_qr_scan", "ios": "https://dc.lft.to/lastmile_qr_scan"}, "is_reserved": 0, "is_disabled": 0, "type": "electric_scooter", "bike_id": "54d3aa94f4025e76a393224d15c37d46"}, {"lon": -77.114243, "lat": 38.84304083333333, "name": "1438911ab585c2df5b2fcdb2463091ba", "fusion_lat": 0.0, "fusion_lon": 0.0, "rental_uris": {"android": "https://dc.lft.to/lastmile_qr_scan", "ios": "https://dc.lft.to/lastmile_qr_scan"}, "is_reserved": 0, "is_disabled": 0, "type": "electric_bike", "bike_id": "1438911ab585c2df5b2fcdb2463091ba"}, {"lon": -77.0218785, "lat": 38.918889, "name": "84f99631fb1dd57ded2b23687ffa6a2f", "fusion_lat": 0.0, "fusion_lon": 0.0, "rental_uris": {"android": "https://dc.lft.to/lastmile_qr_scan", "ios": "https://dc.lft.to/lastmile_qr_scan"}, "is_reserved": 0, "is_disabled": 0, "type": "electric_scooter", "bike_id": "84f99631fb1dd57ded2b23687ffa6a2f"}, {"lon": -77.05083083333334, "lat": 38.813327666666666, "name": "e5d3649ebafa64ed4db2dee2d335ff95", "fusion_lat": 0.0, "fusion_lon": 0.0, "rental_uris": {"android": "https://dc.lft.to/lastmile_qr_scan", "ios": "https://dc.lft.to/lastmile_qr_scan"}, "is_reserved": 0, "is_disabled": 0, "type": "electric_bike", "bike_id": "e5d3649ebafa64ed4db2dee2d335ff95"}, {"lon": -77.0085985, "lat": 38.86948183333333, "name": "6e35cc6c5e9075d6efd022be20da994c", "fusion_lat": 0.0, "fusion_lon": 0.0, "rental_uris": {"android": "https://dc.lft.to/lastmile_qr_scan", "ios": "https://dc.lft.to/lastmile_qr_scan"}, "is_reserved": 0, "is_disabled": 0, "type": "electric_scooter", "bike_id": "6e35cc6c5e9075d6efd022be20da994c"}, {"lon": -77.07900833333333, "lat": 38.8394015, "name": "7cec2a2e973b3ef709f99251a8a780c3", "fusion_lat": 0.0, "fusion_lon": 0.0, "rental_uris": {"android": "https://dc.lft.to/lastmile_qr_scan", "ios": "https://dc.lft.to/lastmile_qr_scan"}, "is_reserved": 0, "is_disabled": 0, "type": "electric_bike", "bike_id": "7cec2a2e973b3ef709f99251a8a780c3"}, {"lon": -77.0370445, "lat": 38.9166375, "name": "f5b4d067913d7cf3762d0999689b4ce2", "fusion_lat": 0.0, "fusion_lon": 0.0, "rental_uris": {"android": "https://dc.lft.to/lastmile_qr_scan", "ios": "https://dc.lft.to/lastmile_qr_scan"}, "is_reserved": 0, "is_disabled": 0, "type": "electric_scooter", "bike_id": "f5b4d067913d7cf3762d0999689b4ce2"}, {"lon": -77.05002516666667, "lat": 38.901201666666665, "name": "e3ae187fdee8a915fb49975ca45ad86e", "fusion_lat": 0.0, "fusion_lon": 0.0, "rental_uris": {"android": "https://dc.lft.to/lastmile_qr_scan", "ios": "https://dc.lft.to/lastmile_qr_scan"}, "is_reserved": 0, "is_disabled": 0, "type": "electric_scooter", "bike_id": "e3ae187fdee8a915fb49975ca45ad86e"}, {"lon": -77.02885516666667, "lat": 38.884529666666666, "name": "7e500ae461af05e5106f21151808a588", "fusion_lat": 0.0, "fusion_lon": 0.0, "rental_uris": {"android": "https://dc.lft.to/lastmile_qr_scan", "ios": "https://dc.lft.to/lastmile_qr_scan"}, "is_reserved": 0, "is_disabled": 0, "type": "electric_scooter", "bike_id": "7e500ae461af05e5106f21151808a588"}, {"lon": -77.00668183333333, "lat": 38.87691616666667, "name": "6854b96cff8a07f9239e89f464b44ed1", "fusion_lat": 0.0, "fusion_lon": 0.0, "rental_uris": {"android": "https://dc.lft.to/lastmile_qr_scan", "ios": "https://dc.lft.to/lastmile_qr_scan"}, "is_reserved": 0, "is_disabled": 0, "type": "electric_scooter", "bike_id": "6854b96cff8a07f9239e89f464b44ed1"}, {"lon": -77.03408366666666, "lat": 38.91924366666667, "name": "3fa194bc23ff04b32d43f85f52fc1988", "fusion_lat": 0.0, "fusion_lon": 0.0, "rental_uris": {"android": "https://dc.lft.to/lastmile_qr_scan", "ios": "https://dc.lft.to/lastmile_qr_scan"}, "is_reserved": 0, "is_disabled": 0, "type": "electric_scooter", "bike_id": "3fa194bc23ff04b32d43f85f52fc1988"}, {"lon": -77.03827466666667, "lat": 38.93130166666667, "name": "383a5c832f2cc9fd3730c5acf5e09405", "fusion_lat": 0.0, "fusion_lon": 0.0, "rental_uris": {"android": "https://dc.lft.to/lastmile_qr_scan", "ios": "https://dc.lft.to/lastmile_qr_scan"}, "is_reserved": 0, "is_disabled": 0, "type": "electric_scooter", "bike_id": "383a5c832f2cc9fd3730c5acf5e09405"}, {"lon": -76.999068, "lat": 38.909490166666664, "name": "e86f645c8562a560ac98f0f97e1bfbfd", "fusion_lat": 0.0, "fusion_lon": 0.0, "rental_uris": {"android": "https://dc.lft.to/lastmile_qr_scan", "ios": "https://dc.lft.to/lastmile_qr_scan"}, "is_reserved": 0, "is_disabled": 0, "type": "electric_scooter", "bike_id": "e86f645c8562a560ac98f0f97e1bfbfd"}, {"lon": -77.0385585, "lat": 38.932454166666666, "name": "6c7f6e6e67c557bcc56e1873e52e614f", "fusion_lat": 0.0, "fusion_lon": 0.0, "rental_uris": {"android": "https://dc.lft.to/lastmile_qr_scan", "ios": "https://dc.lft.to/lastmile_qr_scan"}, "is_reserved": 0, "is_disabled": 0, "type": "electric_scooter", "bike_id": "6c7f6e6e67c557bcc56e1873e52e614f"}, {"lon": -76.994863, "lat": 38.862481, "name": "27ad9f81364b8b9ceaa8aa2d9e6310b9", "fusion_lat": 0.0, "fusion_lon": 0.0, "rental_uris": {"android": "https://dc.lft.to/lastmile_qr_scan", "ios": "https://dc.lft.to/lastmile_qr_scan"}, "is_reserved": 0, "is_disabled": 0, "type": "electric_scooter", "bike_id": "27ad9f81364b8b9ceaa8aa2d9e6310b9"}, {"lon": -77.13094583333333, "lat": 38.861645, "name": "94a7043d5a9cfb66b86b51579f56f8c5", "fusion_lat": 0.0, "fusion_lon": 0.0, "rental_uris": {"android": "https://dc.lft.to/lastmile_qr_scan", "ios": "https://dc.lft.to/lastmile_qr_scan"}, "is_reserved": 0, "is_disabled": 0, "type": "electric_bike", "bike_id": "94a7043d5a9cfb66b86b51579f56f8c5"}, {"lon": -77.0230935, "lat": 38.9184605, "name": "014dcbff97297eb12f9fc65d4a7aeb90", "fusion_lat": 0.0, "fusion_lon": 0.0, "rental_uris": {"android": "https://dc.lft.to/lastmile_qr_scan", "ios": "https://dc.lft.to/lastmile_qr_scan"}, "is_reserved": 0, "is_disabled": 0, "type": "electric_scooter", "bike_id": "014dcbff97297eb12f9fc65d4a7aeb90"}, {"lon": -77.0247635, "lat": 38.9385255, "name": "1276d2fb79d4084fa1f8770d122dec4e", "fusion_lat": 0.0, "fusion_lon": 0.0, "rental_uris": {"android": "https://dc.lft.to/lastmile_qr_scan", "ios": "https://dc.lft.to/lastmile_qr_scan"}, "is_reserved": 0, "is_disabled": 0, "type": "electric_scooter", "bike_id": "1276d2fb79d4084fa1f8770d122dec4e"}, {"lon": -77.028387, "lat": 38.887682833333336, "name": "4a41d3edf487c0c44b34595c18252ef5", "fusion_lat": 0.0, "fusion_lon": 0.0, "rental_uris": {"android": "https://dc.lft.to/lastmile_qr_scan", "ios": "https://dc.lft.to/lastmile_qr_scan"}, "is_reserved": 0, "is_disabled": 0, "type": "electric_scooter", "bike_id": "4a41d3edf487c0c44b34595c18252ef5"}, {"lon": -77.03842283333333, "lat": 38.91476883333333, "name": "2f304859ff7a0943b4fb656a9f0a886c", "fusion_lat": 0.0, "fusion_lon": 0.0, "rental_uris": {"android": "https://dc.lft.to/lastmile_qr_scan", "ios": "https://dc.lft.to/lastmile_qr_scan"}, "is_reserved": 0, "is_disabled": 0, "type": "electric_scooter", "bike_id": "2f304859ff7a0943b4fb656a9f0a886c"}, {"lon": -77.0311355, "lat": 38.897464166666666, "name": "e0edd5e4079dd396583ba4447b8fd291", "fusion_lat": 0.0, "fusion_lon": 0.0, "rental_uris": {"android": "https://dc.lft.to/lastmile_qr_scan", "ios": "https://dc.lft.to/lastmile_qr_scan"}, "is_reserved": 0, "is_disabled": 0, "type": "electric_scooter", "bike_id": "e0edd5e4079dd396583ba4447b8fd291"}, {"lon": -77.06265233333333, "lat": 38.90590483333333, "name": "fa5aa2e770b12a9289e1ba8c95c635cd", "fusion_lat": 0.0, "fusion_lon": 0.0, "rental_uris": {"android": "https://dc.lft.to/lastmile_qr_scan", "ios": "https://dc.lft.to/lastmile_qr_scan"}, "is_reserved": 0, "is_disabled": 0, "type": "electric_scooter", "bike_id": "fa5aa2e770b12a9289e1ba8c95c635cd"}, {"lon": -77.0415205, "lat": 38.923408, "name": "8122ad1c8cadd9dcfb69d9cce084e800", "fusion_lat": 0.0, "fusion_lon": 0.0, "rental_uris": {"android": "https://dc.lft.to/lastmile_qr_scan", "ios": "https://dc.lft.to/lastmile_qr_scan"}, "is_reserved": 0, "is_disabled": 0, "type": "electric_scooter", "bike_id": "8122ad1c8cadd9dcfb69d9cce084e800"}, {"lon": -76.928744, "lat": 38.88444633333334, "name": "8dbfaf8aabd07501092b5798d2c9e816", "fusion_lat": 0.0, "fusion_lon": 0.0, "rental_uris": {"android": "https://dc.lft.to/lastmile_qr_scan", "ios": "https://dc.lft.to/lastmile_qr_scan"}, "is_reserved": 0, "is_disabled": 0, "type": "electric_scooter", "bike_id": "8dbfaf8aabd07501092b5798d2c9e816"}, {"lon": -76.995168, "lat": 38.90029766666667, "name": "4bb81f86509554470008af68916b86f3", "fusion_lat": 0.0, "fusion_lon": 0.0, "rental_uris": {"android": "https://dc.lft.to/lastmile_qr_scan", "ios": "https://dc.lft.to/lastmile_qr_scan"}, "is_reserved": 0, "is_disabled": 0, "type": "electric_scooter", "bike_id": "4bb81f86509554470008af68916b86f3"}, {"lon": -77.02149183333333, "lat": 38.91624233333334, "name": "12ba52f081ee6fcca76f325468ef4045", "fusion_lat": 0.0, "fusion_lon": 0.0, "rental_uris": {"android": "https://dc.lft.to/lastmile_qr_scan", "ios": "https://dc.lft.to/lastmile_qr_scan"}, "is_reserved": 0, "is_disabled": 0, "type": "electric_scooter", "bike_id": "12ba52f081ee6fcca76f325468ef4045"}, {"lon": -77.0111295, "lat": 38.8709055, "name": "9642c09b9f005be73fc5a584d0726dc9", "fusion_lat": 0.0, "fusion_lon": 0.0, "rental_uris": {"android": "https://dc.lft.to/lastmile_qr_scan", "ios": "https://dc.lft.to/lastmile_qr_scan"}, "is_reserved": 0, "is_disabled": 0, "type": "electric_scooter", "bike_id": "9642c09b9f005be73fc5a584d0726dc9"}, {"lon": -76.99458483333333, "lat": 38.8516465, "name": "11812f7243ccc44cdc88915cb2afb51e", "fusion_lat": 0.0, "fusion_lon": 0.0, "rental_uris": {"android": "https://dc.lft.to/lastmile_qr_scan", "ios": "https://dc.lft.to/lastmile_qr_scan"}, "is_reserved": 0, "is_disabled": 0, "type": "electric_scooter", "bike_id": "11812f7243ccc44cdc88915cb2afb51e"}, {"lon": -77.04566066666666, "lat": 38.902568, "name": "ade8194be298079538c60331c827258f", "fusion_lat": 0.0, "fusion_lon": 0.0, "rental_uris": {"android": "https://dc.lft.to/lastmile_qr_scan", "ios": "https://dc.lft.to/lastmile_qr_scan"}, "is_reserved": 0, "is_disabled": 0, "type": "electric_scooter", "bike_id": "ade8194be298079538c60331c827258f"}, {"lon": -76.95114733333334, "lat": 38.8878905, "name": "c2be5f42d2be305be4b295593da0a04e", "fusion_lat": 0.0, "fusion_lon": 0.0, "rental_uris": {"android": "https://dc.lft.to/lastmile_qr_scan", "ios": "https://dc.lft.to/lastmile_qr_scan"}, "is_reserved": 0, "is_disabled": 0, "type": "electric_scooter", "bike_id": "c2be5f42d2be305be4b295593da0a04e"}, {"lon": -77.02150666666667, "lat": 38.89222766666666, "name": "085cbd2427fb748290134b64e6fda5d4", "fusion_lat": 0.0, "fusion_lon": 0.0, "rental_uris": {"android": "https://dc.lft.to/lastmile_qr_scan", "ios": "https://dc.lft.to/lastmile_qr_scan"}, "is_reserved": 0, "is_disabled": 0, "type": "electric_scooter", "bike_id": "085cbd2427fb748290134b64e6fda5d4"}, {"lon": -77.0804845, "lat": 38.848464666666665, "name": "19eb7a7b85b6a10f5cdf4f9913f3d6ab", "fusion_lat": 0.0, "fusion_lon": 0.0, "rental_uris": {"android": "https://dc.lft.to/lastmile_qr_scan", "ios": "https://dc.lft.to/lastmile_qr_scan"}, "is_reserved": 0, "is_disabled": 0, "type": "electric_bike", "bike_id": "19eb7a7b85b6a10f5cdf4f9913f3d6ab"}, {"lon": -77.00225233333333, "lat": 38.89449316666666, "name": "f750babea036f04ddae699844c0e3412", "fusion_lat": 0.0, "fusion_lon": 0.0, "rental_uris": {"android": "https://dc.lft.to/lastmile_qr_scan", "ios": "https://dc.lft.to/lastmile_qr_scan"}, "is_reserved": 0, "is_disabled": 0, "type": "electric_scooter", "bike_id": "f750babea036f04ddae699844c0e3412"}, {"lon": -77.042785, "lat": 38.90738433333333, "name": "1191bf9907bb009bdeec1a58f83bbdbb", "fusion_lat": 0.0, "fusion_lon": 0.0, "rental_uris": {"android": "https://dc.lft.to/lastmile_qr_scan", "ios": "https://dc.lft.to/lastmile_qr_scan"}, "is_reserved": 0, "is_disabled": 0, "type": "electric_scooter", "bike_id": "1191bf9907bb009bdeec1a58f83bbdbb"}, {"lon": -77.02171733333333, "lat": 38.9143895, "name": "a88a9273b6fdf7203f974cd8617579a9", "fusion_lat": 0.0, "fusion_lon": 0.0, "rental_uris": {"android": "https://dc.lft.to/lastmile_qr_scan", "ios": "https://dc.lft.to/lastmile_qr_scan"}, "is_reserved": 0, "is_disabled": 0, "type": "electric_scooter", "bike_id": "a88a9273b6fdf7203f974cd8617579a9"}, {"lon": -76.956764, "lat": 38.9473005, "name": "93dbb31129ae06a2f05cc1ba7e0ef719", "fusion_lat": 0.0, "fusion_lon": 0.0, "rental_uris": {"android": "https://dc.lft.to/lastmile_qr_scan", "ios": "https://dc.lft.to/lastmile_qr_scan"}, "is_reserved": 0, "is_disabled": 0, "type": "electric_bike", "bike_id": "93dbb31129ae06a2f05cc1ba7e0ef719"}, {"lon": -77.03346716666667, "lat": 38.9031785, "name": "2edb23669995bd937099720fb152d240", "fusion_lat": 0.0, "fusion_lon": 0.0, "rental_uris": {"android": "https://dc.lft.to/lastmile_qr_scan", "ios": "https://dc.lft.to/lastmile_qr_scan"}, "is_reserved": 0, "is_disabled": 0, "type": "electric_scooter", "bike_id": "2edb23669995bd937099720fb152d240"}, {"lon": -77.03174083333333, "lat": 38.89348416666667, "name": "980637f81dd92133a226d9c96e924c1c", "fusion_lat": 0.0, "fusion_lon": 0.0, "rental_uris": {"android": "https://dc.lft.to/lastmile_qr_scan", "ios": "https://dc.lft.to/lastmile_qr_scan"}, "is_reserved": 0, "is_disabled": 0, "type": "electric_scooter", "bike_id": "980637f81dd92133a226d9c96e924c1c"}, {"lon": -77.03254333333334, "lat": 38.91824583333333, "name": "285f0817c26b2ba8bdba2e0dc644a749", "fusion_lat": 0.0, "fusion_lon": 0.0, "rental_uris": {"android": "https://dc.lft.to/lastmile_qr_scan", "ios": "https://dc.lft.to/lastmile_qr_scan"}, "is_reserved": 0, "is_disabled": 0, "type": "electric_scooter", "bike_id": "285f0817c26b2ba8bdba2e0dc644a749"}, {"lon": -77.0399885, "lat": 38.91815966666667, "name": "ee67de7ecea94fd731267cae52574720", "fusion_lat": 0.0, "fusion_lon": 0.0, "rental_uris": {"android": "https://dc.lft.to/lastmile_qr_scan", "ios": "https://dc.lft.to/lastmile_qr_scan"}, "is_reserved": 0, "is_disabled": 0, "type": "electric_scooter", "bike_id": "ee67de7ecea94fd731267cae52574720"}, {"lon": -77.06101666666666, "lat": 38.90505683333333, "name": "c3e3fb54ffc65263818f4fad161d4a37", "fusion_lat": 0.0, "fusion_lon": 0.0, "rental_uris": {"android": "https://dc.lft.to/lastmile_qr_scan", "ios": "https://dc.lft.to/lastmile_qr_scan"}, "is_reserved": 0, "is_disabled": 0, "type": "electric_scooter", "bike_id": "c3e3fb54ffc65263818f4fad161d4a37"}, {"lon": -77.03447733333333, "lat": 38.90323766666667, "name": "7e1998c5985d1062bb5ecc49bcdb39c7", "fusion_lat": 0.0, "fusion_lon": 0.0, "rental_uris": {"android": "https://dc.lft.to/lastmile_qr_scan", "ios": "https://dc.lft.to/lastmile_qr_scan"}, "is_reserved": 0, "is_disabled": 0, "type": "electric_scooter", "bike_id": "7e1998c5985d1062bb5ecc49bcdb39c7"}, {"lon": -77.03505466666667, "lat": 38.921451833333336, "name": "253f93272ced4a7637da0d4247b26152", "fusion_lat": 0.0, "fusion_lon": 0.0, "rental_uris": {"android": "https://dc.lft.to/lastmile_qr_scan", "ios": "https://dc.lft.to/lastmile_qr_scan"}, "is_reserved": 0, "is_disabled": 0, "type": "electric_scooter", "bike_id": "253f93272ced4a7637da0d4247b26152"}, {"lon": -77.042943, "lat": 38.923024833333336, "name": "7416fdfda99191b4211050107e206f42", "fusion_lat": 0.0, "fusion_lon": 0.0, "rental_uris": {"android": "https://dc.lft.to/lastmile_qr_scan", "ios": "https://dc.lft.to/lastmile_qr_scan"}, "is_reserved": 0, "is_disabled": 0, "type": "electric_scooter", "bike_id": "7416fdfda99191b4211050107e206f42"}, {"lon": -77.092031, "lat": 38.91715633333333, "name": "b9141c29a351a21bc667adfaae2d8d68", "fusion_lat": 0.0, "fusion_lon": 0.0, "rental_uris": {"android": "https://dc.lft.to/lastmile_qr_scan", "ios": "https://dc.lft.to/lastmile_qr_scan"}, "is_reserved": 0, "is_disabled": 0, "type": "electric_scooter", "bike_id": "b9141c29a351a21bc667adfaae2d8d68"}, {"lon": -77.032622, "lat": 38.93824266666667, "name": "b581ca9347fd5e92db53f7287f6274c6", "fusion_lat": 0.0, "fusion_lon": 0.0, "rental_uris": {"android": "https://dc.lft.to/lastmile_qr_scan", "ios": "https://dc.lft.to/lastmile_qr_scan"}, "is_reserved": 0, "is_disabled": 0, "type": "electric_scooter", "bike_id": "b581ca9347fd5e92db53f7287f6274c6"}, {"lon": -77.02692516666667, "lat": 38.912729, "name": "79fbb9d79474927654482f2c738fbaea", "fusion_lat": 0.0, "fusion_lon": 0.0, "rental_uris": {"android": "https://dc.lft.to/lastmile_qr_scan", "ios": "https://dc.lft.to/lastmile_qr_scan"}, "is_reserved": 0, "is_disabled": 0, "type": "electric_scooter", "bike_id": "79fbb9d79474927654482f2c738fbaea"}, {"lon": -77.03247016666667, "lat": 38.959368166666664, "name": "7fa8b91ff577e78d525f550504dcd277", "fusion_lat": 0.0, "fusion_lon": 0.0, "rental_uris": {"android": "https://dc.lft.to/lastmile_qr_scan", "ios": "https://dc.lft.to/lastmile_qr_scan"}, "is_reserved": 0, "is_disabled": 0, "type": "electric_scooter", "bike_id": "7fa8b91ff577e78d525f550504dcd277"}, {"lon": -77.032994, "lat": 38.95641633333334, "name": "d2060557eeb5f21a496198ad022bfded", "fusion_lat": 0.0, "fusion_lon": 0.0, "rental_uris": {"android": "https://dc.lft.to/lastmile_qr_scan", "ios": "https://dc.lft.to/lastmile_qr_scan"}, "is_reserved": 0, "is_disabled": 0, "type": "electric_scooter", "bike_id": "d2060557eeb5f21a496198ad022bfded"}, {"lon": -77.022354, "lat": 38.9111925, "name": "8e00643b4aa8b492c45eacbaaca0e772", "fusion_lat": 0.0, "fusion_lon": 0.0, "rental_uris": {"android": "https://dc.lft.to/lastmile_qr_scan", "ios": "https://dc.lft.to/lastmile_qr_scan"}, "is_reserved": 0, "is_disabled": 0, "type": "electric_scooter", "bike_id": "8e00643b4aa8b492c45eacbaaca0e772"}, {"lon": -77.026516, "lat": 38.89736216666667, "name": "3a3801235f7b7c6f9182b3b6357aef64", "fusion_lat": 0.0, "fusion_lon": 0.0, "rental_uris": {"android": "https://dc.lft.to/lastmile_qr_scan", "ios": "https://dc.lft.to/lastmile_qr_scan"}, "is_reserved": 0, "is_disabled": 0, "type": "electric_scooter", "bike_id": "3a3801235f7b7c6f9182b3b6357aef64"}, {"lon": -77.04262983333334, "lat": 38.91705066666667, "name": "4ba52c1a5a70f8683d9468714c7bcd19", "fusion_lat": 0.0, "fusion_lon": 0.0, "rental_uris": {"android": "https://dc.lft.to/lastmile_qr_scan", "ios": "https://dc.lft.to/lastmile_qr_scan"}, "is_reserved": 0, "is_disabled": 0, "type": "electric_scooter", "bike_id": "4ba52c1a5a70f8683d9468714c7bcd19"}, {"lon": -77.02829233333334, "lat": 38.8876895, "name": "025a87b6268d3571e312fb1cf4a25184", "fusion_lat": 0.0, "fusion_lon": 0.0, "rental_uris": {"android": "https://dc.lft.to/lastmile_qr_scan", "ios": "https://dc.lft.to/lastmile_qr_scan"}, "is_reserved": 0, "is_disabled": 0, "type": "electric_scooter", "bike_id": "025a87b6268d3571e312fb1cf4a25184"}, {"lon": -77.05620116666667, "lat": 38.9241995, "name": "bd8279562458472999a848184a03daaa", "fusion_lat": 0.0, "fusion_lon": 0.0, "rental_uris": {"android": "https://dc.lft.to/lastmile_qr_scan", "ios": "https://dc.lft.to/lastmile_qr_scan"}, "is_reserved": 0, "is_disabled": 0, "type": "electric_scooter", "bike_id": "bd8279562458472999a848184a03daaa"}, {"lon": -77.0393475, "lat": 38.903740666666664, "name": "8fd46a8dcd6b76295ac63660025423a3", "fusion_lat": 0.0, "fusion_lon": 0.0, "rental_uris": {"android": "https://dc.lft.to/lastmile_qr_scan", "ios": "https://dc.lft.to/lastmile_qr_scan"}, "is_reserved": 0, "is_disabled": 0, "type": "electric_scooter", "bike_id": "8fd46a8dcd6b76295ac63660025423a3"}, {"lon": -76.99947466666667, "lat": 38.842957, "name": "95e6d7d3203b496c745c2884509190d6", "fusion_lat": 0.0, "fusion_lon": 0.0, "rental_uris": {"android": "https://dc.lft.to/lastmile_qr_scan", "ios": "https://dc.lft.to/lastmile_qr_scan"}, "is_reserved": 0, "is_disabled": 0, "type": "electric_scooter", "bike_id": "95e6d7d3203b496c745c2884509190d6"}, {"lon": -77.033256, "lat": 38.90041316666667, "name": "2f7a1eec43c2e14c688c219b0231cd04", "fusion_lat": 0.0, "fusion_lon": 0.0, "rental_uris": {"android": "https://dc.lft.to/lastmile_qr_scan", "ios": "https://dc.lft.to/lastmile_qr_scan"}, "is_reserved": 0, "is_disabled": 0, "type": "electric_scooter", "bike_id": "2f7a1eec43c2e14c688c219b0231cd04"}, {"lon": -77.04319566666666, "lat": 38.90743233333333, "name": "6d366f4658321d171aa7dea2cf344dc3", "fusion_lat": 0.0, "fusion_lon": 0.0, "rental_uris": {"android": "https://dc.lft.to/lastmile_qr_scan", "ios": "https://dc.lft.to/lastmile_qr_scan"}, "is_reserved": 0, "is_disabled": 0, "type": "electric_scooter", "bike_id": "6d366f4658321d171aa7dea2cf344dc3"}, {"lon": -77.0231535, "lat": 38.91845683333333, "name": "7b02f7ef873e0a19cfba6918d0a55fd9", "fusion_lat": 0.0, "fusion_lon": 0.0, "rental_uris": {"android": "https://dc.lft.to/lastmile_qr_scan", "ios": "https://dc.lft.to/lastmile_qr_scan"}, "is_reserved": 0, "is_disabled": 0, "type": "electric_scooter", "bike_id": "7b02f7ef873e0a19cfba6918d0a55fd9"}, {"lon": -77.02974883333333, "lat": 38.904674666666665, "name": "5c73605be81081ad9d299ed1a7a47a16", "fusion_lat": 0.0, "fusion_lon": 0.0, "rental_uris": {"android": "https://dc.lft.to/lastmile_qr_scan", "ios": "https://dc.lft.to/lastmile_qr_scan"}, "is_reserved": 0, "is_disabled": 0, "type": "electric_scooter", "bike_id": "5c73605be81081ad9d299ed1a7a47a16"}, {"lon": -76.94728366666666, "lat": 38.89680466666667, "name": "23b4495fe2f486d543308dcb1a3fcbb2", "fusion_lat": 0.0, "fusion_lon": 0.0, "rental_uris": {"android": "https://dc.lft.to/lastmile_qr_scan", "ios": "https://dc.lft.to/lastmile_qr_scan"}, "is_reserved": 0, "is_disabled": 0, "type": "electric_scooter", "bike_id": "23b4495fe2f486d543308dcb1a3fcbb2"}, {"lon": -77.04714866666667, "lat": 38.89965383333333, "name": "ded322c899bde2de0b3fbc1604b7366e", "fusion_lat": 0.0, "fusion_lon": 0.0, "rental_uris": {"android": "https://dc.lft.to/lastmile_qr_scan", "ios": "https://dc.lft.to/lastmile_qr_scan"}, "is_reserved": 0, "is_disabled": 0, "type": "electric_scooter", "bike_id": "ded322c899bde2de0b3fbc1604b7366e"}, {"lon": -77.0342075, "lat": 38.919308666666666, "name": "2349796f63642d9ae49d3a37f5df1b34", "fusion_lat": 0.0, "fusion_lon": 0.0, "rental_uris": {"android": "https://dc.lft.to/lastmile_qr_scan", "ios": "https://dc.lft.to/lastmile_qr_scan"}, "is_reserved": 0, "is_disabled": 0, "type": "electric_scooter", "bike_id": "2349796f63642d9ae49d3a37f5df1b34"}, {"lon": -76.98137366666667, "lat": 38.904974833333334, "name": "8fc3e80fa224b9195d82b5c2ad80206d", "fusion_lat": 0.0, "fusion_lon": 0.0, "rental_uris": {"android": "https://dc.lft.to/lastmile_qr_scan", "ios": "https://dc.lft.to/lastmile_qr_scan"}, "is_reserved": 0, "is_disabled": 0, "type": "electric_scooter", "bike_id": "8fc3e80fa224b9195d82b5c2ad80206d"}, {"lon": -77.01092183333333, "lat": 38.8952115, "name": "f5f270f7aa38cbfa739961a32b2e0306", "fusion_lat": 0.0, "fusion_lon": 0.0, "rental_uris": {"android": "https://dc.lft.to/lastmile_qr_scan", "ios": "https://dc.lft.to/lastmile_qr_scan"}, "is_reserved": 0, "is_disabled": 0, "type": "electric_scooter", "bike_id": "f5f270f7aa38cbfa739961a32b2e0306"}, {"lon": -77.04643316666667, "lat": 38.8521315, "name": "b1ee338677e5b56d60ef3c2ea30e2795", "fusion_lat": 0.0, "fusion_lon": 0.0, "rental_uris": {"android": "https://dc.lft.to/lastmile_qr_scan", "ios": "https://dc.lft.to/lastmile_qr_scan"}, "is_reserved": 0, "is_disabled": 0, "type": "electric_bike", "bike_id": "b1ee338677e5b56d60ef3c2ea30e2795"}, {"lon": -77.03170416666667, "lat": 38.9445755, "name": "9568f25e1788337a2fa6181d91d53b19", "fusion_lat": 0.0, "fusion_lon": 0.0, "rental_uris": {"android": "https://dc.lft.to/lastmile_qr_scan", "ios": "https://dc.lft.to/lastmile_qr_scan"}, "is_reserved": 0, "is_disabled": 0, "type": "electric_bike", "bike_id": "9568f25e1788337a2fa6181d91d53b19"}, {"lon": -77.02151766666667, "lat": 38.92340333333333, "name": "71a86aef9fb5e9ef4c6050675134cefd", "fusion_lat": 0.0, "fusion_lon": 0.0, "rental_uris": {"android": "https://dc.lft.to/lastmile_qr_scan", "ios": "https://dc.lft.to/lastmile_qr_scan"}, "is_reserved": 0, "is_disabled": 0, "type": "electric_scooter", "bike_id": "71a86aef9fb5e9ef4c6050675134cefd"}, {"lon": -77.0271645, "lat": 38.89223666666667, "name": "142665071b797349d934919b5a486f4b", "fusion_lat": 0.0, "fusion_lon": 0.0, "rental_uris": {"android": "https://dc.lft.to/lastmile_qr_scan", "ios": "https://dc.lft.to/lastmile_qr_scan"}, "is_reserved": 0, "is_disabled": 0, "type": "electric_scooter", "bike_id": "142665071b797349d934919b5a486f4b"}, {"lon": -77.038431, "lat": 38.911336666666664, "name": "9527d9667c07cf2861fcb5c43e8abda1", "fusion_lat": 0.0, "fusion_lon": 0.0, "rental_uris": {"android": "https://dc.lft.to/lastmile_qr_scan", "ios": "https://dc.lft.to/lastmile_qr_scan"}, "is_reserved": 0, "is_disabled": 0, "type": "electric_scooter", "bike_id": "9527d9667c07cf2861fcb5c43e8abda1"}, {"lon": -77.0728595, "lat": 38.93171816666667, "name": "59bb2f62738ff67199c90ef9500e9a53", "fusion_lat": 0.0, "fusion_lon": 0.0, "rental_uris": {"android": "https://dc.lft.to/lastmile_qr_scan", "ios": "https://dc.lft.to/lastmile_qr_scan"}, "is_reserved": 0, "is_disabled": 0, "type": "electric_scooter", "bike_id": "59bb2f62738ff67199c90ef9500e9a53"}, {"lon": -77.03438033333333, "lat": 38.918065, "name": "a9c1d772f5ef5fc8b842cc5350503f67", "fusion_lat": 0.0, "fusion_lon": 0.0, "rental_uris": {"android": "https://dc.lft.to/lastmile_qr_scan", "ios": "https://dc.lft.to/lastmile_qr_scan"}, "is_reserved": 0, "is_disabled": 0, "type": "electric_scooter", "bike_id": "a9c1d772f5ef5fc8b842cc5350503f67"}, {"lon": -76.93825483333333, "lat": 38.897702833333334, "name": "79231447e75e92973bd4b6352fb3a215", "fusion_lat": 0.0, "fusion_lon": 0.0, "rental_uris": {"android": "https://dc.lft.to/lastmile_qr_scan", "ios": "https://dc.lft.to/lastmile_qr_scan"}, "is_reserved": 0, "is_disabled": 0, "type": "electric_scooter", "bike_id": "79231447e75e92973bd4b6352fb3a215"}, {"lon": -77.040237, "lat": 38.914174333333335, "name": "63833ab56a26626aa387bf3541712c70", "fusion_lat": 0.0, "fusion_lon": 0.0, "rental_uris": {"android": "https://dc.lft.to/lastmile_qr_scan", "ios": "https://dc.lft.to/lastmile_qr_scan"}, "is_reserved": 0, "is_disabled": 0, "type": "electric_scooter", "bike_id": "63833ab56a26626aa387bf3541712c70"}, {"lon": -77.017644, "lat": 38.902600166666666, "name": "2ea9482cee7909389889fa18edfab7c1", "fusion_lat": 0.0, "fusion_lon": 0.0, "rental_uris": {"android": "https://dc.lft.to/lastmile_qr_scan", "ios": "https://dc.lft.to/lastmile_qr_scan"}, "is_reserved": 0, "is_disabled": 0, "type": "electric_scooter", "bike_id": "2ea9482cee7909389889fa18edfab7c1"}, {"lon": -77.001118, "lat": 38.89441933333333, "name": "dd67875d7c549a68729127fda18c3ffa", "fusion_lat": 0.0, "fusion_lon": 0.0, "rental_uris": {"android": "https://dc.lft.to/lastmile_qr_scan", "ios": "https://dc.lft.to/lastmile_qr_scan"}, "is_reserved": 0, "is_disabled": 0, "type": "electric_scooter", "bike_id": "dd67875d7c549a68729127fda18c3ffa"}, {"lon": -77.03256583333334, "lat": 38.93526766666667, "name": "b60cc52e45d6f4da8126db26cb9e2600", "fusion_lat": 0.0, "fusion_lon": 0.0, "rental_uris": {"android": "https://dc.lft.to/lastmile_qr_scan", "ios": "https://dc.lft.to/lastmile_qr_scan"}, "is_reserved": 0, "is_disabled": 0, "type": "electric_scooter", "bike_id": "b60cc52e45d6f4da8126db26cb9e2600"}, {"lon": -76.99268633333334, "lat": 38.896922333333336, "name": "242fdfecdb1cc8b7dfc72d2cdfa6e668", "fusion_lat": 0.0, "fusion_lon": 0.0, "rental_uris": {"android": "https://dc.lft.to/lastmile_qr_scan", "ios": "https://dc.lft.to/lastmile_qr_scan"}, "is_reserved": 0, "is_disabled": 0, "type": "electric_scooter", "bike_id": "242fdfecdb1cc8b7dfc72d2cdfa6e668"}, {"lon": -77.041608, "lat": 38.907439833333335, "name": "dc3c3218fc9792b5b07f4687ec5ab03b", "fusion_lat": 0.0, "fusion_lon": 0.0, "rental_uris": {"android": "https://dc.lft.to/lastmile_qr_scan", "ios": "https://dc.lft.to/lastmile_qr_scan"}, "is_reserved": 0, "is_disabled": 0, "type": "electric_scooter", "bike_id": "dc3c3218fc9792b5b07f4687ec5ab03b"}, {"lon": -76.94835766666667, "lat": 38.894918833333335, "name": "514b4c64fe67b5c506b97edfcc89e3f9", "fusion_lat": 0.0, "fusion_lon": 0.0, "rental_uris": {"android": "https://dc.lft.to/lastmile_qr_scan", "ios": "https://dc.lft.to/lastmile_qr_scan"}, "is_reserved": 0, "is_disabled": 0, "type": "electric_scooter", "bike_id": "514b4c64fe67b5c506b97edfcc89e3f9"}, {"lon": -76.99474366666666, "lat": 38.8621155, "name": "1b36e2d6bbeb9505b6d23c036d9535f2", "fusion_lat": 0.0, "fusion_lon": 0.0, "rental_uris": {"android": "https://dc.lft.to/lastmile_qr_scan", "ios": "https://dc.lft.to/lastmile_qr_scan"}, "is_reserved": 0, "is_disabled": 0, "type": "electric_scooter", "bike_id": "1b36e2d6bbeb9505b6d23c036d9535f2"}, {"lon": -76.99514416666666, "lat": 38.89480116666667, "name": "e8250f0be6fce15d7811daa9f3da9dad", "fusion_lat": 0.0, "fusion_lon": 0.0, "rental_uris": {"android": "https://dc.lft.to/lastmile_qr_scan", "ios": "https://dc.lft.to/lastmile_qr_scan"}, "is_reserved": 0, "is_disabled": 0, "type": "electric_scooter", "bike_id": "e8250f0be6fce15d7811daa9f3da9dad"}, {"lon": -77.0652925, "lat": 38.911294833333336, "name": "129c6fb99d5ab0574897715c996b516a", "fusion_lat": 0.0, "fusion_lon": 0.0, "rental_uris": {"android": "https://dc.lft.to/lastmile_qr_scan", "ios": "https://dc.lft.to/lastmile_qr_scan"}, "is_reserved": 0, "is_disabled": 0, "type": "electric_scooter", "bike_id": "129c6fb99d5ab0574897715c996b516a"}, {"lon": -77.0327875, "lat": 38.938816333333335, "name": "2e3fb146dfbbbbe879e9155b24e4d2b4", "fusion_lat": 0.0, "fusion_lon": 0.0, "rental_uris": {"android": "https://dc.lft.to/lastmile_qr_scan", "ios": "https://dc.lft.to/lastmile_qr_scan"}, "is_reserved": 0, "is_disabled": 0, "type": "electric_scooter", "bike_id": "2e3fb146dfbbbbe879e9155b24e4d2b4"}, {"lon": -76.94852466666667, "lat": 38.8830435, "name": "2b62d9bfdd29c4171802ae7d1e2f161b", "fusion_lat": 0.0, "fusion_lon": 0.0, "rental_uris": {"android": "https://dc.lft.to/lastmile_qr_scan", "ios": "https://dc.lft.to/lastmile_qr_scan"}, "is_reserved": 0, "is_disabled": 0, "type": "electric_scooter", "bike_id": "2b62d9bfdd29c4171802ae7d1e2f161b"}, {"lon": -77.03424216666667, "lat": 38.91035316666667, "name": "bd7366c266c4c043527e4d306fe6abbe", "fusion_lat": 0.0, "fusion_lon": 0.0, "rental_uris": {"android": "https://dc.lft.to/lastmile_qr_scan", "ios": "https://dc.lft.to/lastmile_qr_scan"}, "is_reserved": 0, "is_disabled": 0, "type": "electric_scooter", "bike_id": "bd7366c266c4c043527e4d306fe6abbe"}, {"lon": -77.0529695, "lat": 38.92612966666667, "name": "a2929aec02bb35226d3f9fd8aab1fb37", "fusion_lat": 0.0, "fusion_lon": 0.0, "rental_uris": {"android": "https://dc.lft.to/lastmile_qr_scan", "ios": "https://dc.lft.to/lastmile_qr_scan"}, "is_reserved": 0, "is_disabled": 0, "type": "electric_scooter", "bike_id": "a2929aec02bb35226d3f9fd8aab1fb37"}, {"lon": -77.03354333333333, "lat": 38.88510566666667, "name": "1f09c00f98b49966299066daaeb536d1", "fusion_lat": 0.0, "fusion_lon": 0.0, "rental_uris": {"android": "https://dc.lft.to/lastmile_qr_scan", "ios": "https://dc.lft.to/lastmile_qr_scan"}, "is_reserved": 0, "is_disabled": 0, "type": "electric_scooter", "bike_id": "1f09c00f98b49966299066daaeb536d1"}, {"lon": -76.93176183333334, "lat": 38.89884766666667, "name": "af0bee53312118a7559e3de1978585e3", "fusion_lat": 0.0, "fusion_lon": 0.0, "rental_uris": {"android": "https://dc.lft.to/lastmile_qr_scan", "ios": "https://dc.lft.to/lastmile_qr_scan"}, "is_reserved": 0, "is_disabled": 0, "type": "electric_scooter", "bike_id": "af0bee53312118a7559e3de1978585e3"}, {"lon": -76.99351933333334, "lat": 38.84511216666667, "name": "d4d18bb69bb4b884935bc71495f9bccd", "fusion_lat": 0.0, "fusion_lon": 0.0, "rental_uris": {"android": "https://dc.lft.to/lastmile_qr_scan", "ios": "https://dc.lft.to/lastmile_qr_scan"}, "is_reserved": 0, "is_disabled": 0, "type": "electric_bike", "bike_id": "d4d18bb69bb4b884935bc71495f9bccd"}, {"lon": -77.01450116666666, "lat": 38.91779366666667, "name": "1c6557c5ffbcda3a2a67012c35180c95", "fusion_lat": 0.0, "fusion_lon": 0.0, "rental_uris": {"android": "https://dc.lft.to/lastmile_qr_scan", "ios": "https://dc.lft.to/lastmile_qr_scan"}, "is_reserved": 0, "is_disabled": 0, "type": "electric_scooter", "bike_id": "1c6557c5ffbcda3a2a67012c35180c95"}, {"lon": -76.93757316666667, "lat": 38.8904645, "name": "245af88bd28df279f1c449eb64b6de8a", "fusion_lat": 0.0, "fusion_lon": 0.0, "rental_uris": {"android": "https://dc.lft.to/lastmile_qr_scan", "ios": "https://dc.lft.to/lastmile_qr_scan"}, "is_reserved": 0, "is_disabled": 0, "type": "electric_scooter", "bike_id": "245af88bd28df279f1c449eb64b6de8a"}, {"lon": -77.00665233333334, "lat": 38.87486033333333, "name": "571b145c84b3f99eee756edf38b0435b", "fusion_lat": 0.0, "fusion_lon": 0.0, "rental_uris": {"android": "https://dc.lft.to/lastmile_qr_scan", "ios": "https://dc.lft.to/lastmile_qr_scan"}, "is_reserved": 0, "is_disabled": 0, "type": "electric_scooter", "bike_id": "571b145c84b3f99eee756edf38b0435b"}, {"lon": -77.04809133333333, "lat": 38.900679333333336, "name": "b780e740c49fea2bcb5704e00639803d", "fusion_lat": 0.0, "fusion_lon": 0.0, "rental_uris": {"android": "https://dc.lft.to/lastmile_qr_scan", "ios": "https://dc.lft.to/lastmile_qr_scan"}, "is_reserved": 0, "is_disabled": 0, "type": "electric_scooter", "bike_id": "b780e740c49fea2bcb5704e00639803d"}, {"lon": -77.02767133333333, "lat": 38.892101333333336, "name": "fc729bd548fc9dd8c6dad13d12d7500e", "fusion_lat": 0.0, "fusion_lon": 0.0, "rental_uris": {"android": "https://dc.lft.to/lastmile_qr_scan", "ios": "https://dc.lft.to/lastmile_qr_scan"}, "is_reserved": 0, "is_disabled": 0, "type": "electric_scooter", "bike_id": "fc729bd548fc9dd8c6dad13d12d7500e"}, {"lon": -77.0499245, "lat": 38.901219, "name": "23c292e405f73bcd8b9648beb7c6cc3a", "fusion_lat": 0.0, "fusion_lon": 0.0, "rental_uris": {"android": "https://dc.lft.to/lastmile_qr_scan", "ios": "https://dc.lft.to/lastmile_qr_scan"}, "is_reserved": 0, "is_disabled": 0, "type": "electric_scooter", "bike_id": "23c292e405f73bcd8b9648beb7c6cc3a"}, {"lon": -77.00048266666667, "lat": 38.873861833333336, "name": "fe626a70bb7511ffad492185a26296c5", "fusion_lat": 0.0, "fusion_lon": 0.0, "rental_uris": {"android": "https://dc.lft.to/lastmile_qr_scan", "ios": "https://dc.lft.to/lastmile_qr_scan"}, "is_reserved": 0, "is_disabled": 0, "type": "electric_scooter", "bike_id": "fe626a70bb7511ffad492185a26296c5"}, {"lon": -77.14120966666667, "lat": 38.8160595, "name": "d10a0666af6b5134b6c9804f5127d5b7", "fusion_lat": 0.0, "fusion_lon": 0.0, "rental_uris": {"android": "https://dc.lft.to/lastmile_qr_scan", "ios": "https://dc.lft.to/lastmile_qr_scan"}, "is_reserved": 0, "is_disabled": 0, "type": "electric_bike", "bike_id": "d10a0666af6b5134b6c9804f5127d5b7"}, {"lon": -77.023487, "lat": 38.93323516666667, "name": "31fe6f7f8c25eaf756002105c3852c8c", "fusion_lat": 0.0, "fusion_lon": 0.0, "rental_uris": {"android": "https://dc.lft.to/lastmile_qr_scan", "ios": "https://dc.lft.to/lastmile_qr_scan"}, "is_reserved": 0, "is_disabled": 0, "type": "electric_scooter", "bike_id": "31fe6f7f8c25eaf756002105c3852c8c"}, {"lon": -77.0228845, "lat": 38.9241405, "name": "64076e252c9868fc126bc5d7677a5841", "fusion_lat": 0.0, "fusion_lon": 0.0, "rental_uris": {"android": "https://dc.lft.to/lastmile_qr_scan", "ios": "https://dc.lft.to/lastmile_qr_scan"}, "is_reserved": 0, "is_disabled": 0, "type": "electric_scooter", "bike_id": "64076e252c9868fc126bc5d7677a5841"}, {"lon": -77.0218145, "lat": 38.899082, "name": "97e04285e4ba0cbc2706d29b90f04d04", "fusion_lat": 0.0, "fusion_lon": 0.0, "rental_uris": {"android": "https://dc.lft.to/lastmile_qr_scan", "ios": "https://dc.lft.to/lastmile_qr_scan"}, "is_reserved": 0, "is_disabled": 0, "type": "electric_scooter", "bike_id": "97e04285e4ba0cbc2706d29b90f04d04"}, {"lon": -77.0217555, "lat": 38.91131516666667, "name": "d35bc58e2ea835433d8b1758135fcc3e", "fusion_lat": 0.0, "fusion_lon": 0.0, "rental_uris": {"android": "https://dc.lft.to/lastmile_qr_scan", "ios": "https://dc.lft.to/lastmile_qr_scan"}, "is_reserved": 0, "is_disabled": 0, "type": "electric_scooter", "bike_id": "d35bc58e2ea835433d8b1758135fcc3e"}, {"lon": -77.0016345, "lat": 38.90778233333333, "name": "253e81dd595883240d79355fee7994a9", "fusion_lat": 0.0, "fusion_lon": 0.0, "rental_uris": {"android": "https://dc.lft.to/lastmile_qr_scan", "ios": "https://dc.lft.to/lastmile_qr_scan"}, "is_reserved": 0, "is_disabled": 0, "type": "electric_scooter", "bike_id": "253e81dd595883240d79355fee7994a9"}, {"lon": -77.002268, "lat": 38.900433, "name": "5a1826284a8697b3ad8796b1ef8d92fe", "fusion_lat": 0.0, "fusion_lon": 0.0, "rental_uris": {"android": "https://dc.lft.to/lastmile_qr_scan", "ios": "https://dc.lft.to/lastmile_qr_scan"}, "is_reserved": 0, "is_disabled": 0, "type": "electric_scooter", "bike_id": "5a1826284a8697b3ad8796b1ef8d92fe"}, {"lon": -77.03293166666667, "lat": 38.89892866666667, "name": "aaef66b53d78c31653cf91f35dfa6e2f", "fusion_lat": 0.0, "fusion_lon": 0.0, "rental_uris": {"android": "https://dc.lft.to/lastmile_qr_scan", "ios": "https://dc.lft.to/lastmile_qr_scan"}, "is_reserved": 0, "is_disabled": 0, "type": "electric_scooter", "bike_id": "aaef66b53d78c31653cf91f35dfa6e2f"}, {"lon": -76.99824633333333, "lat": 38.844234666666665, "name": "7dfd18d454a78716a9c65a0124f0ec5a", "fusion_lat": 0.0, "fusion_lon": 0.0, "rental_uris": {"android": "https://dc.lft.to/lastmile_qr_scan", "ios": "https://dc.lft.to/lastmile_qr_scan"}, "is_reserved": 0, "is_disabled": 0, "type": "electric_scooter", "bike_id": "7dfd18d454a78716a9c65a0124f0ec5a"}, {"lon": -77.02953983333333, "lat": 38.8922995, "name": "171ce7e51385122a25bddd0b483e38a6", "fusion_lat": 0.0, "fusion_lon": 0.0, "rental_uris": {"android": "https://dc.lft.to/lastmile_qr_scan", "ios": "https://dc.lft.to/lastmile_qr_scan"}, "is_reserved": 0, "is_disabled": 0, "type": "electric_scooter", "bike_id": "171ce7e51385122a25bddd0b483e38a6"}, {"lon": -77.03162616666667, "lat": 38.91643033333333, "name": "00a7dc828438868d23ce7418b234ba97", "fusion_lat": 0.0, "fusion_lon": 0.0, "rental_uris": {"android": "https://dc.lft.to/lastmile_qr_scan", "ios": "https://dc.lft.to/lastmile_qr_scan"}, "is_reserved": 0, "is_disabled": 0, "type": "electric_scooter", "bike_id": "00a7dc828438868d23ce7418b234ba97"}, {"lon": -77.02278433333333, "lat": 38.902251166666666, "name": "c32e573a1786469d7ac4160f9ecca823", "fusion_lat": 0.0, "fusion_lon": 0.0, "rental_uris": {"android": "https://dc.lft.to/lastmile_qr_scan", "ios": "https://dc.lft.to/lastmile_qr_scan"}, "is_reserved": 0, "is_disabled": 0, "type": "electric_scooter", "bike_id": "c32e573a1786469d7ac4160f9ecca823"}, {"lon": -77.0313895, "lat": 38.9103505, "name": "f53ec0f591c0cc3e286f106cdd0efabc", "fusion_lat": 0.0, "fusion_lon": 0.0, "rental_uris": {"android": "https://dc.lft.to/lastmile_qr_scan", "ios": "https://dc.lft.to/lastmile_qr_scan"}, "is_reserved": 0, "is_disabled": 0, "type": "electric_scooter", "bike_id": "f53ec0f591c0cc3e286f106cdd0efabc"}, {"lon": -77.04352666666666, "lat": 38.90359483333334, "name": "05f6046939b130dca68da96c49792f32", "fusion_lat": 0.0, "fusion_lon": 0.0, "rental_uris": {"android": "https://dc.lft.to/lastmile_qr_scan", "ios": "https://dc.lft.to/lastmile_qr_scan"}, "is_reserved": 0, "is_disabled": 0, "type": "electric_scooter", "bike_id": "05f6046939b130dca68da96c49792f32"}, {"lon": -76.987426, "lat": 38.85793183333333, "name": "cc2d7520d28945a7d70849c5a346c76e", "fusion_lat": 0.0, "fusion_lon": 0.0, "rental_uris": {"android": "https://dc.lft.to/lastmile_qr_scan", "ios": "https://dc.lft.to/lastmile_qr_scan"}, "is_reserved": 0, "is_disabled": 0, "type": "electric_bike", "bike_id": "cc2d7520d28945a7d70849c5a346c76e"}, {"lon": -77.05327583333333, "lat": 38.90512183333333, "name": "4cc4a05c462af822e4663b6df6513498", "fusion_lat": 0.0, "fusion_lon": 0.0, "rental_uris": {"android": "https://dc.lft.to/lastmile_qr_scan", "ios": "https://dc.lft.to/lastmile_qr_scan"}, "is_reserved": 0, "is_disabled": 0, "type": "electric_scooter", "bike_id": "4cc4a05c462af822e4663b6df6513498"}, {"lon": -77.03175416666667, "lat": 38.919370666666666, "name": "f10fc6334275ac421520de5369228ff3", "fusion_lat": 0.0, "fusion_lon": 0.0, "rental_uris": {"android": "https://dc.lft.to/lastmile_qr_scan", "ios": "https://dc.lft.to/lastmile_qr_scan"}, "is_reserved": 0, "is_disabled": 0, "type": "electric_scooter", "bike_id": "f10fc6334275ac421520de5369228ff3"}, {"lon": -76.98398416666667, "lat": 38.92198366666667, "name": "827618d2274b1fe6a6e26d7cc8d3fa4a", "fusion_lat": 0.0, "fusion_lon": 0.0, "rental_uris": {"android": "https://dc.lft.to/lastmile_qr_scan", "ios": "https://dc.lft.to/lastmile_qr_scan"}, "is_reserved": 0, "is_disabled": 0, "type": "electric_bike", "bike_id": "827618d2274b1fe6a6e26d7cc8d3fa4a"}, {"lon": -77.03220516666667, "lat": 38.89227133333333, "name": "686fb91f731715a9cfc0f970d0e3b2fc", "fusion_lat": 0.0, "fusion_lon": 0.0, "rental_uris": {"android": "https://dc.lft.to/lastmile_qr_scan", "ios": "https://dc.lft.to/lastmile_qr_scan"}, "is_reserved": 0, "is_disabled": 0, "type": "electric_scooter", "bike_id": "686fb91f731715a9cfc0f970d0e3b2fc"}, {"lon": -77.12627133333334, "lat": 39.0581545, "name": "132f560d9d095f994a3548d5ea2271d4", "fusion_lat": 0.0, "fusion_lon": 0.0, "rental_uris": {"android": "https://dc.lft.to/lastmile_qr_scan", "ios": "https://dc.lft.to/lastmile_qr_scan"}, "is_reserved": 0, "is_disabled": 0, "type": "electric_bike", "bike_id": "132f560d9d095f994a3548d5ea2271d4"}, {"lon": -77.0218785, "lat": 38.910987, "name": "590c438217e85029bd6ee6a016f1a73b", "fusion_lat": 0.0, "fusion_lon": 0.0, "rental_uris": {"android": "https://dc.lft.to/lastmile_qr_scan", "ios": "https://dc.lft.to/lastmile_qr_scan"}, "is_reserved": 0, "is_disabled": 0, "type": "electric_scooter", "bike_id": "590c438217e85029bd6ee6a016f1a73b"}, {"lon": -77.02299583333334, "lat": 38.9178915, "name": "756c5773ebaa8be54d67c85920578009", "fusion_lat": 0.0, "fusion_lon": 0.0, "rental_uris": {"android": "https://dc.lft.to/lastmile_qr_scan", "ios": "https://dc.lft.to/lastmile_qr_scan"}, "is_reserved": 0, "is_disabled": 0, "type": "electric_scooter", "bike_id": "756c5773ebaa8be54d67c85920578009"}, {"lon": -76.90964866666667, "lat": 38.854292666666666, "name": "144a5ce7c290ba2a0d75ae6c66a5fe4f", "fusion_lat": 0.0, "fusion_lon": 0.0, "rental_uris": {"android": "https://dc.lft.to/lastmile_qr_scan", "ios": "https://dc.lft.to/lastmile_qr_scan"}, "is_reserved": 0, "is_disabled": 0, "type": "electric_bike", "bike_id": "144a5ce7c290ba2a0d75ae6c66a5fe4f"}, {"lon": -77.04373316666667, "lat": 38.892201166666666, "name": "3eae057c2565911ae1f930317663e2dc", "fusion_lat": 0.0, "fusion_lon": 0.0, "rental_uris": {"android": "https://dc.lft.to/lastmile_qr_scan", "ios": "https://dc.lft.to/lastmile_qr_scan"}, "is_reserved": 0, "is_disabled": 0, "type": "electric_scooter", "bike_id": "3eae057c2565911ae1f930317663e2dc"}, {"lon": -77.018709, "lat": 38.887505833333336, "name": "455d17f8cc9dbe105af97940954c67e1", "fusion_lat": 0.0, "fusion_lon": 0.0, "rental_uris": {"android": "https://dc.lft.to/lastmile_qr_scan", "ios": "https://dc.lft.to/lastmile_qr_scan"}, "is_reserved": 0, "is_disabled": 0, "type": "electric_scooter", "bike_id": "455d17f8cc9dbe105af97940954c67e1"}, {"lon": -77.02613216666667, "lat": 38.904905666666664, "name": "0ad1ee25e3d88797d84707a4c1af896b", "fusion_lat": 0.0, "fusion_lon": 0.0, "rental_uris": {"android": "https://dc.lft.to/lastmile_qr_scan", "ios": "https://dc.lft.to/lastmile_qr_scan"}, "is_reserved": 0, "is_disabled": 0, "type": "electric_scooter", "bike_id": "0ad1ee25e3d88797d84707a4c1af896b"}, {"lon": -76.99343383333333, "lat": 38.881270666666666, "name": "8aefda283e68f47cacf55453e7f8535c", "fusion_lat": 0.0, "fusion_lon": 0.0, "rental_uris": {"android": "https://dc.lft.to/lastmile_qr_scan", "ios": "https://dc.lft.to/lastmile_qr_scan"}, "is_reserved": 0, "is_disabled": 0, "type": "electric_scooter", "bike_id": "8aefda283e68f47cacf55453e7f8535c"}, {"lon": -77.045744, "lat": 38.91649133333333, "name": "582e580efdc237687b51d1038070888b", "fusion_lat": 0.0, "fusion_lon": 0.0, "rental_uris": {"android": "https://dc.lft.to/lastmile_qr_scan", "ios": "https://dc.lft.to/lastmile_qr_scan"}, "is_reserved": 0, "is_disabled": 0, "type": "electric_bike", "bike_id": "582e580efdc237687b51d1038070888b"}, {"lon": -77.0327675, "lat": 38.93749916666667, "name": "10229b7b762c26204c03caba7c520ed8", "fusion_lat": 0.0, "fusion_lon": 0.0, "rental_uris": {"android": "https://dc.lft.to/lastmile_qr_scan", "ios": "https://dc.lft.to/lastmile_qr_scan"}, "is_reserved": 0, "is_disabled": 0, "type": "electric_scooter", "bike_id": "10229b7b762c26204c03caba7c520ed8"}, {"lon": -77.01988083333333, "lat": 38.9026375, "name": "1885ebcf7f757934431a6455cb1de33a", "fusion_lat": 0.0, "fusion_lon": 0.0, "rental_uris": {"android": "https://dc.lft.to/lastmile_qr_scan", "ios": "https://dc.lft.to/lastmile_qr_scan"}, "is_reserved": 0, "is_disabled": 0, "type": "electric_scooter", "bike_id": "1885ebcf7f757934431a6455cb1de33a"}, {"lon": -77.0325745, "lat": 38.9288895, "name": "ac1a9232b371ab43d4c8f06da53ef798", "fusion_lat": 0.0, "fusion_lon": 0.0, "rental_uris": {"android": "https://dc.lft.to/lastmile_qr_scan", "ios": "https://dc.lft.to/lastmile_qr_scan"}, "is_reserved": 0, "is_disabled": 0, "type": "electric_scooter", "bike_id": "ac1a9232b371ab43d4c8f06da53ef798"}, {"lon": -77.02230883333333, "lat": 38.8788855, "name": "5fd5a37dbfe5b60eed687e2bbddf707a", "fusion_lat": 0.0, "fusion_lon": 0.0, "rental_uris": {"android": "https://dc.lft.to/lastmile_qr_scan", "ios": "https://dc.lft.to/lastmile_qr_scan"}, "is_reserved": 0, "is_disabled": 0, "type": "electric_scooter", "bike_id": "5fd5a37dbfe5b60eed687e2bbddf707a"}, {"lon": -77.02209883333333, "lat": 38.88717, "name": "648c9f8ee2dfee03caa293deb62bfae1", "fusion_lat": 0.0, "fusion_lon": 0.0, "rental_uris": {"android": "https://dc.lft.to/lastmile_qr_scan", "ios": "https://dc.lft.to/lastmile_qr_scan"}, "is_reserved": 0, "is_disabled": 0, "type": "electric_scooter", "bike_id": "648c9f8ee2dfee03caa293deb62bfae1"}, {"lon": -77.02770416666667, "lat": 38.8920275, "name": "f48b6fd38d7baf222d52952b48ed0b47", "fusion_lat": 0.0, "fusion_lon": 0.0, "rental_uris": {"android": "https://dc.lft.to/lastmile_qr_scan", "ios": "https://dc.lft.to/lastmile_qr_scan"}, "is_reserved": 0, "is_disabled": 0, "type": "electric_scooter", "bike_id": "f48b6fd38d7baf222d52952b48ed0b47"}, {"lon": -77.023112, "lat": 38.90866583333333, "name": "9929a6a7e8db14222f40cb319d27ad13", "fusion_lat": 0.0, "fusion_lon": 0.0, "rental_uris": {"android": "https://dc.lft.to/lastmile_qr_scan", "ios": "https://dc.lft.to/lastmile_qr_scan"}, "is_reserved": 0, "is_disabled": 0, "type": "electric_scooter", "bike_id": "9929a6a7e8db14222f40cb319d27ad13"}, {"lon": -76.9812045, "lat": 38.896709, "name": "6a979590dbc3139ffb8f7e1cd4d96bf9", "fusion_lat": 0.0, "fusion_lon": 0.0, "rental_uris": {"android": "https://dc.lft.to/lastmile_qr_scan", "ios": "https://dc.lft.to/lastmile_qr_scan"}, "is_reserved": 0, "is_disabled": 0, "type": "electric_bike", "bike_id": "6a979590dbc3139ffb8f7e1cd4d96bf9"}, {"lon": -77.029775, "lat": 38.92256116666667, "name": "81e97976db6bcb6f4d8241098679a8e0", "fusion_lat": 0.0, "fusion_lon": 0.0, "rental_uris": {"android": "https://dc.lft.to/lastmile_qr_scan", "ios": "https://dc.lft.to/lastmile_qr_scan"}, "is_reserved": 0, "is_disabled": 0, "type": "electric_scooter", "bike_id": "81e97976db6bcb6f4d8241098679a8e0"}, {"lon": -77.013303, "lat": 38.880397333333335, "name": "658807610dce7d3008dfa936be8b0584", "fusion_lat": 0.0, "fusion_lon": 0.0, "rental_uris": {"android": "https://dc.lft.to/lastmile_qr_scan", "ios": "https://dc.lft.to/lastmile_qr_scan"}, "is_reserved": 0, "is_disabled": 0, "type": "electric_scooter", "bike_id": "658807610dce7d3008dfa936be8b0584"}, {"lon": -77.03140916666666, "lat": 38.91263566666667, "name": "d186ff2ea4d4e837aa93350c0d79de50", "fusion_lat": 0.0, "fusion_lon": 0.0, "rental_uris": {"android": "https://dc.lft.to/lastmile_qr_scan", "ios": "https://dc.lft.to/lastmile_qr_scan"}, "is_reserved": 0, "is_disabled": 0, "type": "electric_scooter", "bike_id": "d186ff2ea4d4e837aa93350c0d79de50"}, {"lon": -76.949297, "lat": 38.894869, "name": "c8f7f3ed07d0b5acb4b5b51c3a14951a", "fusion_lat": 0.0, "fusion_lon": 0.0, "rental_uris": {"android": "https://dc.lft.to/lastmile_qr_scan", "ios": "https://dc.lft.to/lastmile_qr_scan"}, "is_reserved": 0, "is_disabled": 0, "type": "electric_scooter", "bike_id": "c8f7f3ed07d0b5acb4b5b51c3a14951a"}, {"lon": -77.00697583333333, "lat": 38.905692333333334, "name": "f5d53678bab1c337ab6ca11928808a4c", "fusion_lat": 0.0, "fusion_lon": 0.0, "rental_uris": {"android": "https://dc.lft.to/lastmile_qr_scan", "ios": "https://dc.lft.to/lastmile_qr_scan"}, "is_reserved": 0, "is_disabled": 0, "type": "electric_scooter", "bike_id": "f5d53678bab1c337ab6ca11928808a4c"}, {"lon": -77.01701033333333, "lat": 38.9138465, "name": "ec670a29415602d500a47a0bc9714663", "fusion_lat": 0.0, "fusion_lon": 0.0, "rental_uris": {"android": "https://dc.lft.to/lastmile_qr_scan", "ios": "https://dc.lft.to/lastmile_qr_scan"}, "is_reserved": 0, "is_disabled": 0, "type": "electric_scooter", "bike_id": "ec670a29415602d500a47a0bc9714663"}, {"lon": -76.95251316666666, "lat": 38.906964, "name": "9b4a42bbc31c6d7195d3c332304ace3c", "fusion_lat": 0.0, "fusion_lon": 0.0, "rental_uris": {"android": "https://dc.lft.to/lastmile_qr_scan", "ios": "https://dc.lft.to/lastmile_qr_scan"}, "is_reserved": 0, "is_disabled": 0, "type": "electric_bike", "bike_id": "9b4a42bbc31c6d7195d3c332304ace3c"}, {"lon": -77.112399, "lat": 38.81230033333333, "name": "ef128005a15a6f1f98184cfb74a62d2a", "fusion_lat": 0.0, "fusion_lon": 0.0, "rental_uris": {"android": "https://dc.lft.to/lastmile_qr_scan", "ios": "https://dc.lft.to/lastmile_qr_scan"}, "is_reserved": 0, "is_disabled": 0, "type": "electric_bike", "bike_id": "ef128005a15a6f1f98184cfb74a62d2a"}, {"lon": -77.00210283333334, "lat": 38.902268166666666, "name": "affd0117f27f0b481c95a7ef0ddaf02e", "fusion_lat": 0.0, "fusion_lon": 0.0, "rental_uris": {"android": "https://dc.lft.to/lastmile_qr_scan", "ios": "https://dc.lft.to/lastmile_qr_scan"}, "is_reserved": 0, "is_disabled": 0, "type": "electric_scooter", "bike_id": "affd0117f27f0b481c95a7ef0ddaf02e"}, {"lon": -77.0057545, "lat": 38.872168, "name": "c5d64842aa7d92f0f64cde40df4a24b5", "fusion_lat": 0.0, "fusion_lon": 0.0, "rental_uris": {"android": "https://dc.lft.to/lastmile_qr_scan", "ios": "https://dc.lft.to/lastmile_qr_scan"}, "is_reserved": 0, "is_disabled": 0, "type": "electric_scooter", "bike_id": "c5d64842aa7d92f0f64cde40df4a24b5"}, {"lon": -77.03332033333334, "lat": 38.899064, "name": "9bf0d5b11a08777aabfea5d0c19e07e7", "fusion_lat": 0.0, "fusion_lon": 0.0, "rental_uris": {"android": "https://dc.lft.to/lastmile_qr_scan", "ios": "https://dc.lft.to/lastmile_qr_scan"}, "is_reserved": 0, "is_disabled": 0, "type": "electric_scooter", "bike_id": "9bf0d5b11a08777aabfea5d0c19e07e7"}, {"lon": -77.03150516666666, "lat": 38.88636733333333, "name": "ca7ccc64d0a65846b1a12a0dfd0841ad", "fusion_lat": 0.0, "fusion_lon": 0.0, "rental_uris": {"android": "https://dc.lft.to/lastmile_qr_scan", "ios": "https://dc.lft.to/lastmile_qr_scan"}, "is_reserved": 0, "is_disabled": 0, "type": "electric_scooter", "bike_id": "ca7ccc64d0a65846b1a12a0dfd0841ad"}, {"lon": -77.0326215, "lat": 38.93412633333333, "name": "9f3f3718ca8dba8171844ca23876f9c2", "fusion_lat": 0.0, "fusion_lon": 0.0, "rental_uris": {"android": "https://dc.lft.to/lastmile_qr_scan", "ios": "https://dc.lft.to/lastmile_qr_scan"}, "is_reserved": 0, "is_disabled": 0, "type": "electric_scooter", "bike_id": "9f3f3718ca8dba8171844ca23876f9c2"}, {"lon": -77.01913383333333, "lat": 38.90247, "name": "a647e953115a7dae3a2018540f8a00ed", "fusion_lat": 0.0, "fusion_lon": 0.0, "rental_uris": {"android": "https://dc.lft.to/lastmile_qr_scan", "ios": "https://dc.lft.to/lastmile_qr_scan"}, "is_reserved": 0, "is_disabled": 0, "type": "electric_scooter", "bike_id": "a647e953115a7dae3a2018540f8a00ed"}, {"lon": -76.99026916666666, "lat": 38.868674666666664, "name": "df7277778653a232570fab5f74466998", "fusion_lat": 0.0, "fusion_lon": 0.0, "rental_uris": {"android": "https://dc.lft.to/lastmile_qr_scan", "ios": "https://dc.lft.to/lastmile_qr_scan"}, "is_reserved": 0, "is_disabled": 0, "type": "electric_scooter", "bike_id": "df7277778653a232570fab5f74466998"}, {"lon": -77.04651566666666, "lat": 38.893358166666665, "name": "dd8a480ea24e2a373c227e19737f08c4", "fusion_lat": 0.0, "fusion_lon": 0.0, "rental_uris": {"android": "https://dc.lft.to/lastmile_qr_scan", "ios": "https://dc.lft.to/lastmile_qr_scan"}, "is_reserved": 0, "is_disabled": 0, "type": "electric_scooter", "bike_id": "dd8a480ea24e2a373c227e19737f08c4"}, {"lon": -77.03272916666667, "lat": 38.90390933333333, "name": "ee7b35a1731ed530cd375be879f54b92", "fusion_lat": 0.0, "fusion_lon": 0.0, "rental_uris": {"android": "https://dc.lft.to/lastmile_qr_scan", "ios": "https://dc.lft.to/lastmile_qr_scan"}, "is_reserved": 0, "is_disabled": 0, "type": "electric_scooter", "bike_id": "ee7b35a1731ed530cd375be879f54b92"}, {"lon": -77.061144, "lat": 38.902014666666666, "name": "20e688db4d97ca0c3266c5c6203e852b", "fusion_lat": 0.0, "fusion_lon": 0.0, "rental_uris": {"android": "https://dc.lft.to/lastmile_qr_scan", "ios": "https://dc.lft.to/lastmile_qr_scan"}, "is_reserved": 0, "is_disabled": 0, "type": "electric_scooter", "bike_id": "20e688db4d97ca0c3266c5c6203e852b"}, {"lon": -76.931754, "lat": 38.898908666666664, "name": "0f9f2bfd921f8ab10650e597b75e7653", "fusion_lat": 0.0, "fusion_lon": 0.0, "rental_uris": {"android": "https://dc.lft.to/lastmile_qr_scan", "ios": "https://dc.lft.to/lastmile_qr_scan"}, "is_reserved": 0, "is_disabled": 0, "type": "electric_scooter", "bike_id": "0f9f2bfd921f8ab10650e597b75e7653"}, {"lon": -77.032354, "lat": 38.914857166666664, "name": "974b009899f272e3d4223f660994fa75", "fusion_lat": 0.0, "fusion_lon": 0.0, "rental_uris": {"android": "https://dc.lft.to/lastmile_qr_scan", "ios": "https://dc.lft.to/lastmile_qr_scan"}, "is_reserved": 0, "is_disabled": 0, "type": "electric_scooter", "bike_id": "974b009899f272e3d4223f660994fa75"}, {"lon": -76.98558883333334, "lat": 38.8838565, "name": "d7f907ee1e38a3f30e4c74d6af2ff204", "fusion_lat": 0.0, "fusion_lon": 0.0, "rental_uris": {"android": "https://dc.lft.to/lastmile_qr_scan", "ios": "https://dc.lft.to/lastmile_qr_scan"}, "is_reserved": 0, "is_disabled": 0, "type": "electric_scooter", "bike_id": "d7f907ee1e38a3f30e4c74d6af2ff204"}, {"lon": -77.13231616666667, "lat": 38.869758, "name": "2067b59d38d70b02a08264161d1bd0cd", "fusion_lat": 0.0, "fusion_lon": 0.0, "rental_uris": {"android": "https://dc.lft.to/lastmile_qr_scan", "ios": "https://dc.lft.to/lastmile_qr_scan"}, "is_reserved": 0, "is_disabled": 0, "type": "electric_bike", "bike_id": "2067b59d38d70b02a08264161d1bd0cd"}, {"lon": -77.0027325, "lat": 38.90561666666667, "name": "e0ef053145f33ffad0616df12224b397", "fusion_lat": 0.0, "fusion_lon": 0.0, "rental_uris": {"android": "https://dc.lft.to/lastmile_qr_scan", "ios": "https://dc.lft.to/lastmile_qr_scan"}, "is_reserved": 0, "is_disabled": 0, "type": "electric_scooter", "bike_id": "e0ef053145f33ffad0616df12224b397"}, {"lon": -77.036583, "lat": 38.92282733333333, "name": "68e6c8f18390eb8b64349938ace72c49", "fusion_lat": 0.0, "fusion_lon": 0.0, "rental_uris": {"android": "https://dc.lft.to/lastmile_qr_scan", "ios": "https://dc.lft.to/lastmile_qr_scan"}, "is_reserved": 0, "is_disabled": 0, "type": "electric_scooter", "bike_id": "68e6c8f18390eb8b64349938ace72c49"}, {"lon": -77.018782, "lat": 38.9119845, "name": "278999d9849db77da91409c3ce49a7a9", "fusion_lat": 0.0, "fusion_lon": 0.0, "rental_uris": {"android": "https://dc.lft.to/lastmile_qr_scan", "ios": "https://dc.lft.to/lastmile_qr_scan"}, "is_reserved": 0, "is_disabled": 0, "type": "electric_scooter", "bike_id": "278999d9849db77da91409c3ce49a7a9"}, {"lon": -77.03799, "lat": 38.93030016666667, "name": "20b3cf4ab276b1a8e85a80b464d89927", "fusion_lat": 0.0, "fusion_lon": 0.0, "rental_uris": {"android": "https://dc.lft.to/lastmile_qr_scan", "ios": "https://dc.lft.to/lastmile_qr_scan"}, "is_reserved": 0, "is_disabled": 0, "type": "electric_scooter", "bike_id": "20b3cf4ab276b1a8e85a80b464d89927"}, {"lon": -77.027372, "lat": 38.9285545, "name": "12f6a1393efd6797a2467f9479895fa1", "fusion_lat": 0.0, "fusion_lon": 0.0, "rental_uris": {"android": "https://dc.lft.to/lastmile_qr_scan", "ios": "https://dc.lft.to/lastmile_qr_scan"}, "is_reserved": 0, "is_disabled": 0, "type": "electric_scooter", "bike_id": "12f6a1393efd6797a2467f9479895fa1"}, {"lon": -76.99950783333334, "lat": 38.90864166666667, "name": "bf89d95a9675cdb81b4bbf00c4f7fbf2", "fusion_lat": 0.0, "fusion_lon": 0.0, "rental_uris": {"android": "https://dc.lft.to/lastmile_qr_scan", "ios": "https://dc.lft.to/lastmile_qr_scan"}, "is_reserved": 0, "is_disabled": 0, "type": "electric_scooter", "bike_id": "bf89d95a9675cdb81b4bbf00c4f7fbf2"}, {"lon": -77.0434725, "lat": 38.89647816666667, "name": "1abdeed159502ecfe94a1c3c6532b0ac", "fusion_lat": 0.0, "fusion_lon": 0.0, "rental_uris": {"android": "https://dc.lft.to/lastmile_qr_scan", "ios": "https://dc.lft.to/lastmile_qr_scan"}, "is_reserved": 0, "is_disabled": 0, "type": "electric_scooter", "bike_id": "1abdeed159502ecfe94a1c3c6532b0ac"}, {"lon": -77.05179966666667, "lat": 38.924261, "name": "5a361d52d83eb80e02010d192c9e1040", "fusion_lat": 0.0, "fusion_lon": 0.0, "rental_uris": {"android": "https://dc.lft.to/lastmile_qr_scan", "ios": "https://dc.lft.to/lastmile_qr_scan"}, "is_reserved": 0, "is_disabled": 0, "type": "electric_scooter", "bike_id": "5a361d52d83eb80e02010d192c9e1040"}, {"lon": -77.038329, "lat": 38.911957, "name": "05a2bb19ad54e475eb26d3f7539366df", "fusion_lat": 0.0, "fusion_lon": 0.0, "rental_uris": {"android": "https://dc.lft.to/lastmile_qr_scan", "ios": "https://dc.lft.to/lastmile_qr_scan"}, "is_reserved": 0, "is_disabled": 0, "type": "electric_scooter", "bike_id": "05a2bb19ad54e475eb26d3f7539366df"}, {"lon": -77.033029, "lat": 38.896465666666664, "name": "822a6e9e70d498d0e56bf0c612f2d2c9", "fusion_lat": 0.0, "fusion_lon": 0.0, "rental_uris": {"android": "https://dc.lft.to/lastmile_qr_scan", "ios": "https://dc.lft.to/lastmile_qr_scan"}, "is_reserved": 0, "is_disabled": 0, "type": "electric_scooter", "bike_id": "822a6e9e70d498d0e56bf0c612f2d2c9"}, {"lon": -77.0240115, "lat": 38.9348395, "name": "1fa8c83ed7f89a909c076e4e4dd65673", "fusion_lat": 0.0, "fusion_lon": 0.0, "rental_uris": {"android": "https://dc.lft.to/lastmile_qr_scan", "ios": "https://dc.lft.to/lastmile_qr_scan"}, "is_reserved": 0, "is_disabled": 0, "type": "electric_scooter", "bike_id": "1fa8c83ed7f89a909c076e4e4dd65673"}, {"lon": -76.9342625, "lat": 38.899674, "name": "e2872b5e95aef4bbca961d4b8dfbb969", "fusion_lat": 0.0, "fusion_lon": 0.0, "rental_uris": {"android": "https://dc.lft.to/lastmile_qr_scan", "ios": "https://dc.lft.to/lastmile_qr_scan"}, "is_reserved": 0, "is_disabled": 0, "type": "electric_scooter", "bike_id": "e2872b5e95aef4bbca961d4b8dfbb969"}, {"lon": -77.0033775, "lat": 38.89362416666667, "name": "9bb3716ec853ff7cf7ef0798d993cb64", "fusion_lat": 0.0, "fusion_lon": 0.0, "rental_uris": {"android": "https://dc.lft.to/lastmile_qr_scan", "ios": "https://dc.lft.to/lastmile_qr_scan"}, "is_reserved": 0, "is_disabled": 0, "type": "electric_scooter", "bike_id": "9bb3716ec853ff7cf7ef0798d993cb64"}, {"lon": -77.01214433333334, "lat": 38.91251366666667, "name": "063fc7861db313556f6054eef980b8b1", "fusion_lat": 0.0, "fusion_lon": 0.0, "rental_uris": {"android": "https://dc.lft.to/lastmile_qr_scan", "ios": "https://dc.lft.to/lastmile_qr_scan"}, "is_reserved": 0, "is_disabled": 0, "type": "electric_scooter", "bike_id": "063fc7861db313556f6054eef980b8b1"}, {"lon": -76.992749, "lat": 38.899817166666665, "name": "0524c64870785e264fa0709c1c17c64a", "fusion_lat": 0.0, "fusion_lon": 0.0, "rental_uris": {"android": "https://dc.lft.to/lastmile_qr_scan", "ios": "https://dc.lft.to/lastmile_qr_scan"}, "is_reserved": 0, "is_disabled": 0, "type": "electric_scooter", "bike_id": "0524c64870785e264fa0709c1c17c64a"}, {"lon": -76.990016, "lat": 38.865071666666665, "name": "8ddf7b4eff3ad77ddec8ed2459040f7f", "fusion_lat": 0.0, "fusion_lon": 0.0, "rental_uris": {"android": "https://dc.lft.to/lastmile_qr_scan", "ios": "https://dc.lft.to/lastmile_qr_scan"}, "is_reserved": 0, "is_disabled": 0, "type": "electric_scooter", "bike_id": "8ddf7b4eff3ad77ddec8ed2459040f7f"}, {"lon": -77.05142466666666, "lat": 38.90820383333333, "name": "f64ce4eee9af4967b9698683e9005c10", "fusion_lat": 0.0, "fusion_lon": 0.0, "rental_uris": {"android": "https://dc.lft.to/lastmile_qr_scan", "ios": "https://dc.lft.to/lastmile_qr_scan"}, "is_reserved": 0, "is_disabled": 0, "type": "electric_scooter", "bike_id": "f64ce4eee9af4967b9698683e9005c10"}, {"lon": -76.99413266666667, "lat": 38.901339166666666, "name": "7ece79283e69e536ead802102119c5a6", "fusion_lat": 0.0, "fusion_lon": 0.0, "rental_uris": {"android": "https://dc.lft.to/lastmile_qr_scan", "ios": "https://dc.lft.to/lastmile_qr_scan"}, "is_reserved": 0, "is_disabled": 0, "type": "electric_scooter", "bike_id": "7ece79283e69e536ead802102119c5a6"}, {"lon": -77.0050835, "lat": 38.875361833333336, "name": "27e3bd46e92a19af41e85d49a0417d47", "fusion_lat": 0.0, "fusion_lon": 0.0, "rental_uris": {"android": "https://dc.lft.to/lastmile_qr_scan", "ios": "https://dc.lft.to/lastmile_qr_scan"}, "is_reserved": 0, "is_disabled": 0, "type": "electric_scooter", "bike_id": "27e3bd46e92a19af41e85d49a0417d47"}, {"lon": -76.9837415, "lat": 38.91496633333333, "name": "5b95402e7b99a7dd0a43c3e566cc2f17", "fusion_lat": 0.0, "fusion_lon": 0.0, "rental_uris": {"android": "https://dc.lft.to/lastmile_qr_scan", "ios": "https://dc.lft.to/lastmile_qr_scan"}, "is_reserved": 0, "is_disabled": 0, "type": "electric_scooter", "bike_id": "5b95402e7b99a7dd0a43c3e566cc2f17"}, {"lon": -77.05157233333334, "lat": 38.92391583333333, "name": "9dd6936ef1b1d37e6e03475962065ccc", "fusion_lat": 0.0, "fusion_lon": 0.0, "rental_uris": {"android": "https://dc.lft.to/lastmile_qr_scan", "ios": "https://dc.lft.to/lastmile_qr_scan"}, "is_reserved": 0, "is_disabled": 0, "type": "electric_scooter", "bike_id": "9dd6936ef1b1d37e6e03475962065ccc"}, {"lon": -77.00046916666666, "lat": 38.906792833333334, "name": "1bcd787f62d3e4cb4bc7b842d960eee6", "fusion_lat": 0.0, "fusion_lon": 0.0, "rental_uris": {"android": "https://dc.lft.to/lastmile_qr_scan", "ios": "https://dc.lft.to/lastmile_qr_scan"}, "is_reserved": 0, "is_disabled": 0, "type": "electric_scooter", "bike_id": "1bcd787f62d3e4cb4bc7b842d960eee6"}, {"lon": -77.0405895, "lat": 38.9177105, "name": "3dd618f97023ca2f37ca94d130b10c2d", "fusion_lat": 0.0, "fusion_lon": 0.0, "rental_uris": {"android": "https://dc.lft.to/lastmile_qr_scan", "ios": "https://dc.lft.to/lastmile_qr_scan"}, "is_reserved": 0, "is_disabled": 0, "type": "electric_scooter", "bike_id": "3dd618f97023ca2f37ca94d130b10c2d"}, {"lon": -76.98613183333333, "lat": 38.85461333333333, "name": "8949d76613ab99f8437d7ac74530ff70", "fusion_lat": 0.0, "fusion_lon": 0.0, "rental_uris": {"android": "https://dc.lft.to/lastmile_qr_scan", "ios": "https://dc.lft.to/lastmile_qr_scan"}, "is_reserved": 0, "is_disabled": 0, "type": "electric_scooter", "bike_id": "8949d76613ab99f8437d7ac74530ff70"}, {"lon": -77.04348016666667, "lat": 38.92837016666667, "name": "5e800cd7a058791d8ebef2466e03b999", "fusion_lat": 0.0, "fusion_lon": 0.0, "rental_uris": {"android": "https://dc.lft.to/lastmile_qr_scan", "ios": "https://dc.lft.to/lastmile_qr_scan"}, "is_reserved": 0, "is_disabled": 0, "type": "electric_scooter", "bike_id": "5e800cd7a058791d8ebef2466e03b999"}, {"lon": -77.038718, "lat": 38.90141583333333, "name": "06abd5f5715ded6ff7a0eedca3927b8d", "fusion_lat": 0.0, "fusion_lon": 0.0, "rental_uris": {"android": "https://dc.lft.to/lastmile_qr_scan", "ios": "https://dc.lft.to/lastmile_qr_scan"}, "is_reserved": 0, "is_disabled": 0, "type": "electric_bike", "bike_id": "06abd5f5715ded6ff7a0eedca3927b8d"}, {"lon": -77.009216, "lat": 38.91047983333333, "name": "6dcf11ee8a53e4cb01582cacd3ca1d3b", "fusion_lat": 0.0, "fusion_lon": 0.0, "rental_uris": {"android": "https://dc.lft.to/lastmile_qr_scan", "ios": "https://dc.lft.to/lastmile_qr_scan"}, "is_reserved": 0, "is_disabled": 0, "type": "electric_scooter", "bike_id": "6dcf11ee8a53e4cb01582cacd3ca1d3b"}, {"lon": -77.03725, "lat": 38.933609833333335, "name": "d3e8563b194d06624f8bc46f50a5fa7a", "fusion_lat": 0.0, "fusion_lon": 0.0, "rental_uris": {"android": "https://dc.lft.to/lastmile_qr_scan", "ios": "https://dc.lft.to/lastmile_qr_scan"}, "is_reserved": 0, "is_disabled": 0, "type": "electric_scooter", "bike_id": "d3e8563b194d06624f8bc46f50a5fa7a"}, {"lon": -76.998351, "lat": 38.83917533333333, "name": "7ce95daa5fdbf19e297923faa44c8e0a", "fusion_lat": 0.0, "fusion_lon": 0.0, "rental_uris": {"android": "https://dc.lft.to/lastmile_qr_scan", "ios": "https://dc.lft.to/lastmile_qr_scan"}, "is_reserved": 0, "is_disabled": 0, "type": "electric_bike", "bike_id": "7ce95daa5fdbf19e297923faa44c8e0a"}, {"lon": -77.028258, "lat": 38.91420933333333, "name": "f3ccad0c7319876b818c8e6b131b2f5b", "fusion_lat": 0.0, "fusion_lon": 0.0, "rental_uris": {"android": "https://dc.lft.to/lastmile_qr_scan", "ios": "https://dc.lft.to/lastmile_qr_scan"}, "is_reserved": 0, "is_disabled": 0, "type": "electric_scooter", "bike_id": "f3ccad0c7319876b818c8e6b131b2f5b"}, {"lon": -76.9356845, "lat": 38.8853335, "name": "a3fbe167eac5cae81e6ca4bcc52ae56e", "fusion_lat": 0.0, "fusion_lon": 0.0, "rental_uris": {"android": "https://dc.lft.to/lastmile_qr_scan", "ios": "https://dc.lft.to/lastmile_qr_scan"}, "is_reserved": 0, "is_disabled": 0, "type": "electric_bike", "bike_id": "a3fbe167eac5cae81e6ca4bcc52ae56e"}, {"lon": -77.017105, "lat": 38.89237583333333, "name": "663f88726215701afe9858d02805cafe", "fusion_lat": 0.0, "fusion_lon": 0.0, "rental_uris": {"android": "https://dc.lft.to/lastmile_qr_scan", "ios": "https://dc.lft.to/lastmile_qr_scan"}, "is_reserved": 0, "is_disabled": 0, "type": "electric_scooter", "bike_id": "663f88726215701afe9858d02805cafe"}, {"lon": -77.03470533333333, "lat": 38.917127666666666, "name": "6e286468a2cdd2280766a1835f2c3cc6", "fusion_lat": 0.0, "fusion_lon": 0.0, "rental_uris": {"android": "https://dc.lft.to/lastmile_qr_scan", "ios": "https://dc.lft.to/lastmile_qr_scan"}, "is_reserved": 0, "is_disabled": 0, "type": "electric_scooter", "bike_id": "6e286468a2cdd2280766a1835f2c3cc6"}, {"lon": -77.02572266666667, "lat": 38.8874575, "name": "be9d836988d34f85c4f4bdf7e5f12ad4", "fusion_lat": 0.0, "fusion_lon": 0.0, "rental_uris": {"android": "https://dc.lft.to/lastmile_qr_scan", "ios": "https://dc.lft.to/lastmile_qr_scan"}, "is_reserved": 0, "is_disabled": 0, "type": "electric_scooter", "bike_id": "be9d836988d34f85c4f4bdf7e5f12ad4"}, {"lon": -76.980216, "lat": 38.9038005, "name": "795fc1ac912b685f3d80a8380df878dc", "fusion_lat": 0.0, "fusion_lon": 0.0, "rental_uris": {"android": "https://dc.lft.to/lastmile_qr_scan", "ios": "https://dc.lft.to/lastmile_qr_scan"}, "is_reserved": 0, "is_disabled": 0, "type": "electric_scooter", "bike_id": "795fc1ac912b685f3d80a8380df878dc"}, {"lon": -77.041083, "lat": 38.9054565, "name": "b8cad766174a3b1ca870b08853d9708a", "fusion_lat": 0.0, "fusion_lon": 0.0, "rental_uris": {"android": "https://dc.lft.to/lastmile_qr_scan", "ios": "https://dc.lft.to/lastmile_qr_scan"}, "is_reserved": 0, "is_disabled": 0, "type": "electric_scooter", "bike_id": "b8cad766174a3b1ca870b08853d9708a"}, {"lon": -77.0050695, "lat": 38.87535666666667, "name": "641047c4608566270b7f61e2eddd9b0b", "fusion_lat": 0.0, "fusion_lon": 0.0, "rental_uris": {"android": "https://dc.lft.to/lastmile_qr_scan", "ios": "https://dc.lft.to/lastmile_qr_scan"}, "is_reserved": 0, "is_disabled": 0, "type": "electric_scooter", "bike_id": "641047c4608566270b7f61e2eddd9b0b"}, {"lon": -77.010741, "lat": 38.96263733333333, "name": "d8cafe206412f401bf8a53049a5c05c0", "fusion_lat": 0.0, "fusion_lon": 0.0, "rental_uris": {"android": "https://dc.lft.to/lastmile_qr_scan", "ios": "https://dc.lft.to/lastmile_qr_scan"}, "is_reserved": 0, "is_disabled": 0, "type": "electric_bike", "bike_id": "d8cafe206412f401bf8a53049a5c05c0"}, {"lon": -76.93159833333333, "lat": 38.8987835, "name": "02d51b56ace09acd672b04b086ba77c9", "fusion_lat": 0.0, "fusion_lon": 0.0, "rental_uris": {"android": "https://dc.lft.to/lastmile_qr_scan", "ios": "https://dc.lft.to/lastmile_qr_scan"}, "is_reserved": 0, "is_disabled": 0, "type": "electric_scooter", "bike_id": "02d51b56ace09acd672b04b086ba77c9"}, {"lon": -77.03125083333333, "lat": 38.915623333333336, "name": "479cca33e7538a5fc6cabd8f345315b9", "fusion_lat": 0.0, "fusion_lon": 0.0, "rental_uris": {"android": "https://dc.lft.to/lastmile_qr_scan", "ios": "https://dc.lft.to/lastmile_qr_scan"}, "is_reserved": 0, "is_disabled": 0, "type": "electric_scooter", "bike_id": "479cca33e7538a5fc6cabd8f345315b9"}, {"lon": -77.02583283333334, "lat": 38.89697683333333, "name": "b512ad3d13fa7f05e04917195053cc7e", "fusion_lat": 0.0, "fusion_lon": 0.0, "rental_uris": {"android": "https://dc.lft.to/lastmile_qr_scan", "ios": "https://dc.lft.to/lastmile_qr_scan"}, "is_reserved": 0, "is_disabled": 0, "type": "electric_scooter", "bike_id": "b512ad3d13fa7f05e04917195053cc7e"}, {"lon": -76.8749475, "lat": 38.99092683333333, "name": "96da06e5a1214ac80957b1bcaad438c0", "fusion_lat": 0.0, "fusion_lon": 0.0, "rental_uris": {"android": "https://dc.lft.to/lastmile_qr_scan", "ios": "https://dc.lft.to/lastmile_qr_scan"}, "is_reserved": 0, "is_disabled": 0, "type": "electric_bike", "bike_id": "96da06e5a1214ac80957b1bcaad438c0"}, {"lon": -77.0296235, "lat": 38.916742166666666, "name": "596bf29bf43ffad900520e336bb0bad8", "fusion_lat": 0.0, "fusion_lon": 0.0, "rental_uris": {"android": "https://dc.lft.to/lastmile_qr_scan", "ios": "https://dc.lft.to/lastmile_qr_scan"}, "is_reserved": 0, "is_disabled": 0, "type": "electric_scooter", "bike_id": "596bf29bf43ffad900520e336bb0bad8"}, {"lon": -77.03220516666667, "lat": 38.907638, "name": "ad2df36c136a064efc30bd16885eecd4", "fusion_lat": 0.0, "fusion_lon": 0.0, "rental_uris": {"android": "https://dc.lft.to/lastmile_qr_scan", "ios": "https://dc.lft.to/lastmile_qr_scan"}, "is_reserved": 0, "is_disabled": 0, "type": "electric_scooter", "bike_id": "ad2df36c136a064efc30bd16885eecd4"}, {"lon": -77.00200183333334, "lat": 38.900284, "name": "f5819a9f8e7bed96112613206177dcba", "fusion_lat": 0.0, "fusion_lon": 0.0, "rental_uris": {"android": "https://dc.lft.to/lastmile_qr_scan", "ios": "https://dc.lft.to/lastmile_qr_scan"}, "is_reserved": 0, "is_disabled": 0, "type": "electric_scooter", "bike_id": "f5819a9f8e7bed96112613206177dcba"}, {"lon": -77.11220333333333, "lat": 38.82876616666667, "name": "7a82966c042cd3cb8e9a23fc0c7800ac", "fusion_lat": 0.0, "fusion_lon": 0.0, "rental_uris": {"android": "https://dc.lft.to/lastmile_qr_scan", "ios": "https://dc.lft.to/lastmile_qr_scan"}, "is_reserved": 0, "is_disabled": 0, "type": "electric_bike", "bike_id": "7a82966c042cd3cb8e9a23fc0c7800ac"}, {"lon": -77.02151866666667, "lat": 38.89229483333333, "name": "bf7ffc6b1795a5aff8c5dc99dc0a61f2", "fusion_lat": 0.0, "fusion_lon": 0.0, "rental_uris": {"android": "https://dc.lft.to/lastmile_qr_scan", "ios": "https://dc.lft.to/lastmile_qr_scan"}, "is_reserved": 0, "is_disabled": 0, "type": "electric_scooter", "bike_id": "bf7ffc6b1795a5aff8c5dc99dc0a61f2"}, {"lon": -77.00204483333333, "lat": 38.90072833333333, "name": "b806503654e33416f8c9e31dea2c46a7", "fusion_lat": 0.0, "fusion_lon": 0.0, "rental_uris": {"android": "https://dc.lft.to/lastmile_qr_scan", "ios": "https://dc.lft.to/lastmile_qr_scan"}, "is_reserved": 0, "is_disabled": 0, "type": "electric_scooter", "bike_id": "b806503654e33416f8c9e31dea2c46a7"}, {"lon": -77.01884733333333, "lat": 38.902406166666665, "name": "64e66061f6f409fc4b2f782af9742de4", "fusion_lat": 0.0, "fusion_lon": 0.0, "rental_uris": {"android": "https://dc.lft.to/lastmile_qr_scan", "ios": "https://dc.lft.to/lastmile_qr_scan"}, "is_reserved": 0, "is_disabled": 0, "type": "electric_scooter", "bike_id": "64e66061f6f409fc4b2f782af9742de4"}, {"lon": -77.02705116666667, "lat": 38.94999266666667, "name": "5340bdad5a2f8af1d7fcefb06ffc23a8", "fusion_lat": 0.0, "fusion_lon": 0.0, "rental_uris": {"android": "https://dc.lft.to/lastmile_qr_scan", "ios": "https://dc.lft.to/lastmile_qr_scan"}, "is_reserved": 0, "is_disabled": 0, "type": "electric_scooter", "bike_id": "5340bdad5a2f8af1d7fcefb06ffc23a8"}, {"lon": -77.08212633333333, "lat": 38.935553166666665, "name": "22deca628b66a624631a52fbfa96c704", "fusion_lat": 0.0, "fusion_lon": 0.0, "rental_uris": {"android": "https://dc.lft.to/lastmile_qr_scan", "ios": "https://dc.lft.to/lastmile_qr_scan"}, "is_reserved": 0, "is_disabled": 0, "type": "electric_scooter", "bike_id": "22deca628b66a624631a52fbfa96c704"}, {"lon": -77.0430545, "lat": 39.054530666666665, "name": "49922e9ab07b7b48547464fce0a78dbc", "fusion_lat": 0.0, "fusion_lon": 0.0, "rental_uris": {"android": "https://dc.lft.to/lastmile_qr_scan", "ios": "https://dc.lft.to/lastmile_qr_scan"}, "is_reserved": 0, "is_disabled": 0, "type": "electric_bike", "bike_id": "49922e9ab07b7b48547464fce0a78dbc"}, {"lon": -77.04400316666667, "lat": 38.92243766666667, "name": "922871713bbdf7f9db3581bd94a430df", "fusion_lat": 0.0, "fusion_lon": 0.0, "rental_uris": {"android": "https://dc.lft.to/lastmile_qr_scan", "ios": "https://dc.lft.to/lastmile_qr_scan"}, "is_reserved": 0, "is_disabled": 0, "type": "electric_scooter", "bike_id": "922871713bbdf7f9db3581bd94a430df"}, {"lon": -77.17837816666666, "lat": 39.088559333333336, "name": "12991cad1b58cd6c549629fe7e5110ea", "fusion_lat": 0.0, "fusion_lon": 0.0, "rental_uris": {"android": "https://dc.lft.to/lastmile_qr_scan", "ios": "https://dc.lft.to/lastmile_qr_scan"}, "is_reserved": 0, "is_disabled": 0, "type": "electric_bike", "bike_id": "12991cad1b58cd6c549629fe7e5110ea"}, {"lon": -76.98899533333334, "lat": 38.8669985, "name": "3bf89952dc187eb5af49cec811eb7260", "fusion_lat": 0.0, "fusion_lon": 0.0, "rental_uris": {"android": "https://dc.lft.to/lastmile_qr_scan", "ios": "https://dc.lft.to/lastmile_qr_scan"}, "is_reserved": 0, "is_disabled": 0, "type": "electric_scooter", "bike_id": "3bf89952dc187eb5af49cec811eb7260"}, {"lon": -77.0223175, "lat": 38.91413633333333, "name": "676899772859c376739a388deb349c17", "fusion_lat": 0.0, "fusion_lon": 0.0, "rental_uris": {"android": "https://dc.lft.to/lastmile_qr_scan", "ios": "https://dc.lft.to/lastmile_qr_scan"}, "is_reserved": 0, "is_disabled": 0, "type": "electric_scooter", "bike_id": "676899772859c376739a388deb349c17"}, {"lon": -77.04266916666667, "lat": 38.910378333333334, "name": "6bc3133fcae5d39d87983025f6e549f4", "fusion_lat": 0.0, "fusion_lon": 0.0, "rental_uris": {"android": "https://dc.lft.to/lastmile_qr_scan", "ios": "https://dc.lft.to/lastmile_qr_scan"}, "is_reserved": 0, "is_disabled": 0, "type": "electric_scooter", "bike_id": "6bc3133fcae5d39d87983025f6e549f4"}, {"lon": -77.01097783333333, "lat": 38.90577533333333, "name": "f20431928b59ff664558fe367ff9089e", "fusion_lat": 0.0, "fusion_lon": 0.0, "rental_uris": {"android": "https://dc.lft.to/lastmile_qr_scan", "ios": "https://dc.lft.to/lastmile_qr_scan"}, "is_reserved": 0, "is_disabled": 0, "type": "electric_scooter", "bike_id": "f20431928b59ff664558fe367ff9089e"}, {"lon": -77.05562783333333, "lat": 38.89980933333333, "name": "109b8669ecbcee0f2cf1b4e477e0a796", "fusion_lat": 0.0, "fusion_lon": 0.0, "rental_uris": {"android": "https://dc.lft.to/lastmile_qr_scan", "ios": "https://dc.lft.to/lastmile_qr_scan"}, "is_reserved": 0, "is_disabled": 0, "type": "electric_scooter", "bike_id": "109b8669ecbcee0f2cf1b4e477e0a796"}, {"lon": -77.04593183333333, "lat": 38.90267983333333, "name": "d6732504731497a34b3c183d80481560", "fusion_lat": 0.0, "fusion_lon": 0.0, "rental_uris": {"android": "https://dc.lft.to/lastmile_qr_scan", "ios": "https://dc.lft.to/lastmile_qr_scan"}, "is_reserved": 0, "is_disabled": 0, "type": "electric_scooter", "bike_id": "d6732504731497a34b3c183d80481560"}, {"lon": -76.9816155, "lat": 38.95957633333333, "name": "e5902c8970de17637bd36eccc68c02dc", "fusion_lat": 0.0, "fusion_lon": 0.0, "rental_uris": {"android": "https://dc.lft.to/lastmile_qr_scan", "ios": "https://dc.lft.to/lastmile_qr_scan"}, "is_reserved": 0, "is_disabled": 0, "type": "electric_bike", "bike_id": "e5902c8970de17637bd36eccc68c02dc"}, {"lon": -76.965213, "lat": 38.87627366666667, "name": "1e7c43e39ea106253e4c1a665129b416", "fusion_lat": 0.0, "fusion_lon": 0.0, "rental_uris": {"android": "https://dc.lft.to/lastmile_qr_scan", "ios": "https://dc.lft.to/lastmile_qr_scan"}, "is_reserved": 0, "is_disabled": 0, "type": "electric_scooter", "bike_id": "1e7c43e39ea106253e4c1a665129b416"}, {"lon": -77.01864666666667, "lat": 38.94895433333333, "name": "c40fa6dae9a7e8707c3114a4590ee077", "fusion_lat": 0.0, "fusion_lon": 0.0, "rental_uris": {"android": "https://dc.lft.to/lastmile_qr_scan", "ios": "https://dc.lft.to/lastmile_qr_scan"}, "is_reserved": 0, "is_disabled": 0, "type": "electric_scooter", "bike_id": "c40fa6dae9a7e8707c3114a4590ee077"}, {"lon": -77.02930233333333, "lat": 38.88220316666666, "name": "fee570ed1d56e1c6aeff57f81e9e3d74", "fusion_lat": 0.0, "fusion_lon": 0.0, "rental_uris": {"android": "https://dc.lft.to/lastmile_qr_scan", "ios": "https://dc.lft.to/lastmile_qr_scan"}, "is_reserved": 0, "is_disabled": 0, "type": "electric_scooter", "bike_id": "fee570ed1d56e1c6aeff57f81e9e3d74"}, {"lon": -77.04739, "lat": 38.91252683333333, "name": "5c1afc248b4b9624f47cc1d905a3e439", "fusion_lat": 0.0, "fusion_lon": 0.0, "rental_uris": {"android": "https://dc.lft.to/lastmile_qr_scan", "ios": "https://dc.lft.to/lastmile_qr_scan"}, "is_reserved": 0, "is_disabled": 0, "type": "electric_scooter", "bike_id": "5c1afc248b4b9624f47cc1d905a3e439"}, {"lon": -77.00021933333333, "lat": 38.8764255, "name": "c9faefc92123fabf6f500515bba63790", "fusion_lat": 0.0, "fusion_lon": 0.0, "rental_uris": {"android": "https://dc.lft.to/lastmile_qr_scan", "ios": "https://dc.lft.to/lastmile_qr_scan"}, "is_reserved": 0, "is_disabled": 0, "type": "electric_scooter", "bike_id": "c9faefc92123fabf6f500515bba63790"}, {"lon": -77.03927966666667, "lat": 38.908176833333336, "name": "9d51d6a7d7a144313c0c5cef29a222eb", "fusion_lat": 0.0, "fusion_lon": 0.0, "rental_uris": {"android": "https://dc.lft.to/lastmile_qr_scan", "ios": "https://dc.lft.to/lastmile_qr_scan"}, "is_reserved": 0, "is_disabled": 0, "type": "electric_scooter", "bike_id": "9d51d6a7d7a144313c0c5cef29a222eb"}, {"lon": -77.0240965, "lat": 38.934328, "name": "92e8f378ff8697d35fa5b2ca3cb9e95a", "fusion_lat": 0.0, "fusion_lon": 0.0, "rental_uris": {"android": "https://dc.lft.to/lastmile_qr_scan", "ios": "https://dc.lft.to/lastmile_qr_scan"}, "is_reserved": 0, "is_disabled": 0, "type": "electric_scooter", "bike_id": "92e8f378ff8697d35fa5b2ca3cb9e95a"}, {"lon": -77.04686716666667, "lat": 38.92133416666667, "name": "87030e48ace5b3a57014cf102bc24cf0", "fusion_lat": 0.0, "fusion_lon": 0.0, "rental_uris": {"android": "https://dc.lft.to/lastmile_qr_scan", "ios": "https://dc.lft.to/lastmile_qr_scan"}, "is_reserved": 0, "is_disabled": 0, "type": "electric_scooter", "bike_id": "87030e48ace5b3a57014cf102bc24cf0"}, {"lon": -76.94659683333333, "lat": 38.898716, "name": "f71e3affa1381e232a2bbc24c45abcd7", "fusion_lat": 0.0, "fusion_lon": 0.0, "rental_uris": {"android": "https://dc.lft.to/lastmile_qr_scan", "ios": "https://dc.lft.to/lastmile_qr_scan"}, "is_reserved": 0, "is_disabled": 0, "type": "electric_scooter", "bike_id": "f71e3affa1381e232a2bbc24c45abcd7"}, {"lon": -77.0263105, "lat": 38.896585, "name": "7e6af0f7d79636a9ba74b508a9de0c10", "fusion_lat": 0.0, "fusion_lon": 0.0, "rental_uris": {"android": "https://dc.lft.to/lastmile_qr_scan", "ios": "https://dc.lft.to/lastmile_qr_scan"}, "is_reserved": 0, "is_disabled": 0, "type": "electric_scooter", "bike_id": "7e6af0f7d79636a9ba74b508a9de0c10"}, {"lon": -77.00337333333333, "lat": 38.89363133333333, "name": "01c451a8e6d1ddf7eab529e39c424380", "fusion_lat": 0.0, "fusion_lon": 0.0, "rental_uris": {"android": "https://dc.lft.to/lastmile_qr_scan", "ios": "https://dc.lft.to/lastmile_qr_scan"}, "is_reserved": 0, "is_disabled": 0, "type": "electric_scooter", "bike_id": "01c451a8e6d1ddf7eab529e39c424380"}, {"lon": -77.0490225, "lat": 38.90535216666667, "name": "eb2f95307cefad542f8144a0d03531c1", "fusion_lat": 0.0, "fusion_lon": 0.0, "rental_uris": {"android": "https://dc.lft.to/lastmile_qr_scan", "ios": "https://dc.lft.to/lastmile_qr_scan"}, "is_reserved": 0, "is_disabled": 0, "type": "electric_scooter", "bike_id": "eb2f95307cefad542f8144a0d03531c1"}, {"lon": -77.04656883333334, "lat": 38.89341966666667, "name": "e077c73e1adbf87bdd13bfc4b20195ff", "fusion_lat": 0.0, "fusion_lon": 0.0, "rental_uris": {"android": "https://dc.lft.to/lastmile_qr_scan", "ios": "https://dc.lft.to/lastmile_qr_scan"}, "is_reserved": 0, "is_disabled": 0, "type": "electric_scooter", "bike_id": "e077c73e1adbf87bdd13bfc4b20195ff"}, {"lon": -77.03301366666666, "lat": 38.900359, "name": "01918907c98393f3a45a661fd288c007", "fusion_lat": 0.0, "fusion_lon": 0.0, "rental_uris": {"android": "https://dc.lft.to/lastmile_qr_scan", "ios": "https://dc.lft.to/lastmile_qr_scan"}, "is_reserved": 0, "is_disabled": 0, "type": "electric_scooter", "bike_id": "01918907c98393f3a45a661fd288c007"}, {"lon": -77.04153516666666, "lat": 38.90627666666666, "name": "91a830d87ecb0107ccac5cd606948d0c", "fusion_lat": 0.0, "fusion_lon": 0.0, "rental_uris": {"android": "https://dc.lft.to/lastmile_qr_scan", "ios": "https://dc.lft.to/lastmile_qr_scan"}, "is_reserved": 0, "is_disabled": 0, "type": "electric_scooter", "bike_id": "91a830d87ecb0107ccac5cd606948d0c"}, {"lon": -76.991306, "lat": 38.900310166666664, "name": "853768f8a5d5d7dbbf35322f6b45334f", "fusion_lat": 0.0, "fusion_lon": 0.0, "rental_uris": {"android": "https://dc.lft.to/lastmile_qr_scan", "ios": "https://dc.lft.to/lastmile_qr_scan"}, "is_reserved": 0, "is_disabled": 0, "type": "electric_scooter", "bike_id": "853768f8a5d5d7dbbf35322f6b45334f"}, {"lon": -77.03805483333333, "lat": 38.905606666666664, "name": "05b1eb85a03604e89fef52871ea2178a", "fusion_lat": 0.0, "fusion_lon": 0.0, "rental_uris": {"android": "https://dc.lft.to/lastmile_qr_scan", "ios": "https://dc.lft.to/lastmile_qr_scan"}, "is_reserved": 0, "is_disabled": 0, "type": "electric_scooter", "bike_id": "05b1eb85a03604e89fef52871ea2178a"}, {"lon": -77.0102685, "lat": 38.9212495, "name": "5a23345a2a7998f2ad3b8b1bd379cec6", "fusion_lat": 0.0, "fusion_lon": 0.0, "rental_uris": {"android": "https://dc.lft.to/lastmile_qr_scan", "ios": "https://dc.lft.to/lastmile_qr_scan"}, "is_reserved": 0, "is_disabled": 0, "type": "electric_scooter", "bike_id": "5a23345a2a7998f2ad3b8b1bd379cec6"}, {"lon": -77.00335666666666, "lat": 38.8918625, "name": "0d38d10ed1b3135732ecee5749aa4406", "fusion_lat": 0.0, "fusion_lon": 0.0, "rental_uris": {"android": "https://dc.lft.to/lastmile_qr_scan", "ios": "https://dc.lft.to/lastmile_qr_scan"}, "is_reserved": 0, "is_disabled": 0, "type": "electric_scooter", "bike_id": "0d38d10ed1b3135732ecee5749aa4406"}, {"lon": -77.106864, "lat": 38.93587183333333, "name": "350dc3d6826ca5be2d6005cd91eb45fd", "fusion_lat": 0.0, "fusion_lon": 0.0, "rental_uris": {"android": "https://dc.lft.to/lastmile_qr_scan", "ios": "https://dc.lft.to/lastmile_qr_scan"}, "is_reserved": 0, "is_disabled": 0, "type": "electric_bike", "bike_id": "350dc3d6826ca5be2d6005cd91eb45fd"}, {"lon": -77.02362116666667, "lat": 38.89226, "name": "680873c1e6900bbccc4acbcea66c1903", "fusion_lat": 0.0, "fusion_lon": 0.0, "rental_uris": {"android": "https://dc.lft.to/lastmile_qr_scan", "ios": "https://dc.lft.to/lastmile_qr_scan"}, "is_reserved": 0, "is_disabled": 0, "type": "electric_scooter", "bike_id": "680873c1e6900bbccc4acbcea66c1903"}, {"lon": -77.0241275, "lat": 38.904083, "name": "9e0d83896e3b99f27030ba01339b0f63", "fusion_lat": 0.0, "fusion_lon": 0.0, "rental_uris": {"android": "https://dc.lft.to/lastmile_qr_scan", "ios": "https://dc.lft.to/lastmile_qr_scan"}, "is_reserved": 0, "is_disabled": 0, "type": "electric_scooter", "bike_id": "9e0d83896e3b99f27030ba01339b0f63"}, {"lon": -77.0109405, "lat": 38.905592, "name": "e4a185f4cc5e6a74baf6e9f4ec9b90fc", "fusion_lat": 0.0, "fusion_lon": 0.0, "rental_uris": {"android": "https://dc.lft.to/lastmile_qr_scan", "ios": "https://dc.lft.to/lastmile_qr_scan"}, "is_reserved": 0, "is_disabled": 0, "type": "electric_scooter", "bike_id": "e4a185f4cc5e6a74baf6e9f4ec9b90fc"}, {"lon": -77.03347416666666, "lat": 38.89779433333333, "name": "16f2eb1a25cf3f3bc2473e1681e7498d", "fusion_lat": 0.0, "fusion_lon": 0.0, "rental_uris": {"android": "https://dc.lft.to/lastmile_qr_scan", "ios": "https://dc.lft.to/lastmile_qr_scan"}, "is_reserved": 0, "is_disabled": 0, "type": "electric_scooter", "bike_id": "16f2eb1a25cf3f3bc2473e1681e7498d"}, {"lon": -77.00573583333333, "lat": 38.87691683333333, "name": "82a89f61c504e3f0c14333f436bc6314", "fusion_lat": 0.0, "fusion_lon": 0.0, "rental_uris": {"android": "https://dc.lft.to/lastmile_qr_scan", "ios": "https://dc.lft.to/lastmile_qr_scan"}, "is_reserved": 0, "is_disabled": 0, "type": "electric_scooter", "bike_id": "82a89f61c504e3f0c14333f436bc6314"}, {"lon": -77.036303, "lat": 38.956007, "name": "ce3e4f0655bd0f552d35cb61f7c0ddf8", "fusion_lat": 0.0, "fusion_lon": 0.0, "rental_uris": {"android": "https://dc.lft.to/lastmile_qr_scan", "ios": "https://dc.lft.to/lastmile_qr_scan"}, "is_reserved": 0, "is_disabled": 0, "type": "electric_scooter", "bike_id": "ce3e4f0655bd0f552d35cb61f7c0ddf8"}, {"lon": -77.023773, "lat": 38.90183833333333, "name": "292d0cb6791c1aba8bbfab441fa482f7", "fusion_lat": 0.0, "fusion_lon": 0.0, "rental_uris": {"android": "https://dc.lft.to/lastmile_qr_scan", "ios": "https://dc.lft.to/lastmile_qr_scan"}, "is_reserved": 0, "is_disabled": 0, "type": "electric_scooter", "bike_id": "292d0cb6791c1aba8bbfab441fa482f7"}, {"lon": -77.00132833333333, "lat": 38.90038416666667, "name": "8364e20942ea72d8570340dc76050a72", "fusion_lat": 0.0, "fusion_lon": 0.0, "rental_uris": {"android": "https://dc.lft.to/lastmile_qr_scan", "ios": "https://dc.lft.to/lastmile_qr_scan"}, "is_reserved": 0, "is_disabled": 0, "type": "electric_scooter", "bike_id": "8364e20942ea72d8570340dc76050a72"}, {"lon": -77.04772416666667, "lat": 38.9023995, "name": "b9388dc88b804af7a49a4232e17fa716", "fusion_lat": 0.0, "fusion_lon": 0.0, "rental_uris": {"android": "https://dc.lft.to/lastmile_qr_scan", "ios": "https://dc.lft.to/lastmile_qr_scan"}, "is_reserved": 0, "is_disabled": 0, "type": "electric_scooter", "bike_id": "b9388dc88b804af7a49a4232e17fa716"}, {"lon": -77.0639795, "lat": 38.944783, "name": "2501faa8b0dec58e69648484886a9667", "fusion_lat": 0.0, "fusion_lon": 0.0, "rental_uris": {"android": "https://dc.lft.to/lastmile_qr_scan", "ios": "https://dc.lft.to/lastmile_qr_scan"}, "is_reserved": 0, "is_disabled": 0, "type": "electric_scooter", "bike_id": "2501faa8b0dec58e69648484886a9667"}, {"lon": -77.0561775, "lat": 38.924188666666666, "name": "ae9c3350868dd456a63c80c783d8e935", "fusion_lat": 0.0, "fusion_lon": 0.0, "rental_uris": {"android": "https://dc.lft.to/lastmile_qr_scan", "ios": "https://dc.lft.to/lastmile_qr_scan"}, "is_reserved": 0, "is_disabled": 0, "type": "electric_scooter", "bike_id": "ae9c3350868dd456a63c80c783d8e935"}, {"lon": -77.12255133333333, "lat": 38.89190683333333, "name": "d831e1da53ce5c232635d2d95e0d299a", "fusion_lat": 0.0, "fusion_lon": 0.0, "rental_uris": {"android": "https://dc.lft.to/lastmile_qr_scan", "ios": "https://dc.lft.to/lastmile_qr_scan"}, "is_reserved": 0, "is_disabled": 0, "type": "electric_bike", "bike_id": "d831e1da53ce5c232635d2d95e0d299a"}, {"lon": -77.04882566666667, "lat": 38.9010895, "name": "8f0700a04bd0bc29f07d14d66d874506", "fusion_lat": 0.0, "fusion_lon": 0.0, "rental_uris": {"android": "https://dc.lft.to/lastmile_qr_scan", "ios": "https://dc.lft.to/lastmile_qr_scan"}, "is_reserved": 0, "is_disabled": 0, "type": "electric_scooter", "bike_id": "8f0700a04bd0bc29f07d14d66d874506"}, {"lon": -77.03085716666666, "lat": 38.920239, "name": "e6cf6a363204eb53ee636b90e46ec5da", "fusion_lat": 0.0, "fusion_lon": 0.0, "rental_uris": {"android": "https://dc.lft.to/lastmile_qr_scan", "ios": "https://dc.lft.to/lastmile_qr_scan"}, "is_reserved": 0, "is_disabled": 0, "type": "electric_scooter", "bike_id": "e6cf6a363204eb53ee636b90e46ec5da"}, {"lon": -77.0735505, "lat": 38.933538166666665, "name": "33b1daf1d9c6037180748d94a7b71c94", "fusion_lat": 0.0, "fusion_lon": 0.0, "rental_uris": {"android": "https://dc.lft.to/lastmile_qr_scan", "ios": "https://dc.lft.to/lastmile_qr_scan"}, "is_reserved": 0, "is_disabled": 0, "type": "electric_scooter", "bike_id": "33b1daf1d9c6037180748d94a7b71c94"}, {"lon": -77.11225516666667, "lat": 38.8287525, "name": "277f6d6bdb8a0f1f5cb85a603f1a2340", "fusion_lat": 0.0, "fusion_lon": 0.0, "rental_uris": {"android": "https://dc.lft.to/lastmile_qr_scan", "ios": "https://dc.lft.to/lastmile_qr_scan"}, "is_reserved": 0, "is_disabled": 0, "type": "electric_bike", "bike_id": "277f6d6bdb8a0f1f5cb85a603f1a2340"}, {"lon": -77.0356905, "lat": 38.95723266666667, "name": "5d9cf4c344aacc95365817553bde9826", "fusion_lat": 0.0, "fusion_lon": 0.0, "rental_uris": {"android": "https://dc.lft.to/lastmile_qr_scan", "ios": "https://dc.lft.to/lastmile_qr_scan"}, "is_reserved": 0, "is_disabled": 0, "type": "electric_scooter", "bike_id": "5d9cf4c344aacc95365817553bde9826"}, {"lon": -77.07685733333334, "lat": 38.83199, "name": "db0930e7a9b08735f23fed1645c3c54a", "fusion_lat": 0.0, "fusion_lon": 0.0, "rental_uris": {"android": "https://dc.lft.to/lastmile_qr_scan", "ios": "https://dc.lft.to/lastmile_qr_scan"}, "is_reserved": 0, "is_disabled": 0, "type": "electric_bike", "bike_id": "db0930e7a9b08735f23fed1645c3c54a"}, {"lon": -77.01212533333333, "lat": 38.91890816666667, "name": "2dbd6ff1b33b196935e0f59143fedb3c", "fusion_lat": 0.0, "fusion_lon": 0.0, "rental_uris": {"android": "https://dc.lft.to/lastmile_qr_scan", "ios": "https://dc.lft.to/lastmile_qr_scan"}, "is_reserved": 0, "is_disabled": 0, "type": "electric_scooter", "bike_id": "2dbd6ff1b33b196935e0f59143fedb3c"}, {"lon": -76.93535366666667, "lat": 38.955414166666664, "name": "6b3c8ad9e605dcbfd37340ab76f8ad8d", "fusion_lat": 0.0, "fusion_lon": 0.0, "rental_uris": {"android": "https://dc.lft.to/lastmile_qr_scan", "ios": "https://dc.lft.to/lastmile_qr_scan"}, "is_reserved": 0, "is_disabled": 0, "type": "electric_bike", "bike_id": "6b3c8ad9e605dcbfd37340ab76f8ad8d"}, {"lon": -76.98735216666667, "lat": 38.9443055, "name": "f02de6c0c9afe6b4b46e3a2e3452ba5f", "fusion_lat": 0.0, "fusion_lon": 0.0, "rental_uris": {"android": "https://dc.lft.to/lastmile_qr_scan", "ios": "https://dc.lft.to/lastmile_qr_scan"}, "is_reserved": 0, "is_disabled": 0, "type": "electric_bike", "bike_id": "f02de6c0c9afe6b4b46e3a2e3452ba5f"}, {"lon": -77.0473075, "lat": 38.90250233333333, "name": "314542bfb792af6d4ce3361991688d2a", "fusion_lat": 0.0, "fusion_lon": 0.0, "rental_uris": {"android": "https://dc.lft.to/lastmile_qr_scan", "ios": "https://dc.lft.to/lastmile_qr_scan"}, "is_reserved": 0, "is_disabled": 0, "type": "electric_scooter", "bike_id": "314542bfb792af6d4ce3361991688d2a"}, {"lon": -77.0434545, "lat": 38.8967995, "name": "e0eaaf416f4b0055c0a42e81f03d10bb", "fusion_lat": 0.0, "fusion_lon": 0.0, "rental_uris": {"android": "https://dc.lft.to/lastmile_qr_scan", "ios": "https://dc.lft.to/lastmile_qr_scan"}, "is_reserved": 0, "is_disabled": 0, "type": "electric_scooter", "bike_id": "e0eaaf416f4b0055c0a42e81f03d10bb"}, {"lon": -76.9165285, "lat": 38.8685955, "name": "a4f2ec00e6f0903937af5bcdecbee684", "fusion_lat": 0.0, "fusion_lon": 0.0, "rental_uris": {"android": "https://dc.lft.to/lastmile_qr_scan", "ios": "https://dc.lft.to/lastmile_qr_scan"}, "is_reserved": 0, "is_disabled": 0, "type": "electric_bike", "bike_id": "a4f2ec00e6f0903937af5bcdecbee684"}, {"lon": -77.10762483333333, "lat": 38.892308166666666, "name": "a9cc7fd4917e16e48a37c424cc09f3a5", "fusion_lat": 0.0, "fusion_lon": 0.0, "rental_uris": {"android": "https://dc.lft.to/lastmile_qr_scan", "ios": "https://dc.lft.to/lastmile_qr_scan"}, "is_reserved": 0, "is_disabled": 0, "type": "electric_bike", "bike_id": "a9cc7fd4917e16e48a37c424cc09f3a5"}, {"lon": -77.029788, "lat": 38.922563, "name": "6c16fefeefe485e40b3b19c947728633", "fusion_lat": 0.0, "fusion_lon": 0.0, "rental_uris": {"android": "https://dc.lft.to/lastmile_qr_scan", "ios": "https://dc.lft.to/lastmile_qr_scan"}, "is_reserved": 0, "is_disabled": 0, "type": "electric_scooter", "bike_id": "6c16fefeefe485e40b3b19c947728633"}, {"lon": -77.0436875, "lat": 38.903972333333336, "name": "7ec82c443e0a9c9b11ac70801c954fb2", "fusion_lat": 0.0, "fusion_lon": 0.0, "rental_uris": {"android": "https://dc.lft.to/lastmile_qr_scan", "ios": "https://dc.lft.to/lastmile_qr_scan"}, "is_reserved": 0, "is_disabled": 0, "type": "electric_scooter", "bike_id": "7ec82c443e0a9c9b11ac70801c954fb2"}, {"lon": -77.01738716666667, "lat": 38.902596833333334, "name": "cbf1ac6d331825f2e82125632a8a5c57", "fusion_lat": 0.0, "fusion_lon": 0.0, "rental_uris": {"android": "https://dc.lft.to/lastmile_qr_scan", "ios": "https://dc.lft.to/lastmile_qr_scan"}, "is_reserved": 0, "is_disabled": 0, "type": "electric_scooter", "bike_id": "cbf1ac6d331825f2e82125632a8a5c57"}, {"lon": -77.002103, "lat": 38.90220333333333, "name": "da70d7b8552b4a7e7a1e5ba2193ec294", "fusion_lat": 0.0, "fusion_lon": 0.0, "rental_uris": {"android": "https://dc.lft.to/lastmile_qr_scan", "ios": "https://dc.lft.to/lastmile_qr_scan"}, "is_reserved": 0, "is_disabled": 0, "type": "electric_scooter", "bike_id": "da70d7b8552b4a7e7a1e5ba2193ec294"}, {"lon": -77.02696666666667, "lat": 38.915246333333336, "name": "7970783dd7859fdc5822d4d9182b9d50", "fusion_lat": 0.0, "fusion_lon": 0.0, "rental_uris": {"android": "https://dc.lft.to/lastmile_qr_scan", "ios": "https://dc.lft.to/lastmile_qr_scan"}, "is_reserved": 0, "is_disabled": 0, "type": "electric_scooter", "bike_id": "7970783dd7859fdc5822d4d9182b9d50"}, {"lon": -77.02907133333333, "lat": 38.9036805, "name": "b0afb6faaac393cf4c802c8cb46f626d", "fusion_lat": 0.0, "fusion_lon": 0.0, "rental_uris": {"android": "https://dc.lft.to/lastmile_qr_scan", "ios": "https://dc.lft.to/lastmile_qr_scan"}, "is_reserved": 0, "is_disabled": 0, "type": "electric_scooter", "bike_id": "b0afb6faaac393cf4c802c8cb46f626d"}, {"lon": -76.95408233333333, "lat": 38.8916075, "name": "ec523dddece873cfb967648e768e1c9d", "fusion_lat": 0.0, "fusion_lon": 0.0, "rental_uris": {"android": "https://dc.lft.to/lastmile_qr_scan", "ios": "https://dc.lft.to/lastmile_qr_scan"}, "is_reserved": 0, "is_disabled": 0, "type": "electric_scooter", "bike_id": "ec523dddece873cfb967648e768e1c9d"}, {"lon": -77.029724, "lat": 38.916807166666665, "name": "3a4ed85fa5f77cf4ab831da3eb4a160d", "fusion_lat": 0.0, "fusion_lon": 0.0, "rental_uris": {"android": "https://dc.lft.to/lastmile_qr_scan", "ios": "https://dc.lft.to/lastmile_qr_scan"}, "is_reserved": 0, "is_disabled": 0, "type": "electric_scooter", "bike_id": "3a4ed85fa5f77cf4ab831da3eb4a160d"}, {"lon": -77.0466025, "lat": 38.904362, "name": "e0166caadcf4b6afaca2db1ad6b4f4d7", "fusion_lat": 0.0, "fusion_lon": 0.0, "rental_uris": {"android": "https://dc.lft.to/lastmile_qr_scan", "ios": "https://dc.lft.to/lastmile_qr_scan"}, "is_reserved": 0, "is_disabled": 0, "type": "electric_bike", "bike_id": "e0166caadcf4b6afaca2db1ad6b4f4d7"}, {"lon": -77.02281683333334, "lat": 38.92551616666667, "name": "a0b950661fdb8b6595226723d8f341e4", "fusion_lat": 0.0, "fusion_lon": 0.0, "rental_uris": {"android": "https://dc.lft.to/lastmile_qr_scan", "ios": "https://dc.lft.to/lastmile_qr_scan"}, "is_reserved": 0, "is_disabled": 0, "type": "electric_scooter", "bike_id": "a0b950661fdb8b6595226723d8f341e4"}, {"lon": -77.03256583333334, "lat": 38.9324475, "name": "cb8f6cf5e5509423644411c3a2f614c0", "fusion_lat": 0.0, "fusion_lon": 0.0, "rental_uris": {"android": "https://dc.lft.to/lastmile_qr_scan", "ios": "https://dc.lft.to/lastmile_qr_scan"}, "is_reserved": 0, "is_disabled": 0, "type": "electric_scooter", "bike_id": "cb8f6cf5e5509423644411c3a2f614c0"}, {"lon": -76.9457055, "lat": 38.8662525, "name": "fdf1a66399d8eadfe543ca88cebc9b78", "fusion_lat": 0.0, "fusion_lon": 0.0, "rental_uris": {"android": "https://dc.lft.to/lastmile_qr_scan", "ios": "https://dc.lft.to/lastmile_qr_scan"}, "is_reserved": 0, "is_disabled": 0, "type": "electric_bike", "bike_id": "fdf1a66399d8eadfe543ca88cebc9b78"}, {"lon": -77.032228, "lat": 38.892227166666665, "name": "5273f66042e8c406b74c35cce39ae8aa", "fusion_lat": 0.0, "fusion_lon": 0.0, "rental_uris": {"android": "https://dc.lft.to/lastmile_qr_scan", "ios": "https://dc.lft.to/lastmile_qr_scan"}, "is_reserved": 0, "is_disabled": 0, "type": "electric_scooter", "bike_id": "5273f66042e8c406b74c35cce39ae8aa"}, {"lon": -77.02486866666666, "lat": 38.938653, "name": "f09311b3c54079dccaa357c43762a959", "fusion_lat": 0.0, "fusion_lon": 0.0, "rental_uris": {"android": "https://dc.lft.to/lastmile_qr_scan", "ios": "https://dc.lft.to/lastmile_qr_scan"}, "is_reserved": 0, "is_disabled": 0, "type": "electric_scooter", "bike_id": "f09311b3c54079dccaa357c43762a959"}, {"lon": -77.0154985, "lat": 38.892044, "name": "9a82de42af9e1b747fc86f65dc4f7e3e", "fusion_lat": 0.0, "fusion_lon": 0.0, "rental_uris": {"android": "https://dc.lft.to/lastmile_qr_scan", "ios": "https://dc.lft.to/lastmile_qr_scan"}, "is_reserved": 0, "is_disabled": 0, "type": "electric_scooter", "bike_id": "9a82de42af9e1b747fc86f65dc4f7e3e"}, {"lon": -77.07719, "lat": 38.94709916666667, "name": "fe338a6f37328c5446e7ffa2181f1ff9", "fusion_lat": 0.0, "fusion_lon": 0.0, "rental_uris": {"android": "https://dc.lft.to/lastmile_qr_scan", "ios": "https://dc.lft.to/lastmile_qr_scan"}, "is_reserved": 0, "is_disabled": 0, "type": "electric_scooter", "bike_id": "fe338a6f37328c5446e7ffa2181f1ff9"}, {"lon": -77.033636, "lat": 38.932249666666664, "name": "f4ddabf858af8dd4eb469926df9f5767", "fusion_lat": 0.0, "fusion_lon": 0.0, "rental_uris": {"android": "https://dc.lft.to/lastmile_qr_scan", "ios": "https://dc.lft.to/lastmile_qr_scan"}, "is_reserved": 0, "is_disabled": 0, "type": "electric_scooter", "bike_id": "f4ddabf858af8dd4eb469926df9f5767"}, {"lon": -76.97304866666667, "lat": 38.91994433333333, "name": "7487d5edf54d2d66f95cb8c408d46a37", "fusion_lat": 0.0, "fusion_lon": 0.0, "rental_uris": {"android": "https://dc.lft.to/lastmile_qr_scan", "ios": "https://dc.lft.to/lastmile_qr_scan"}, "is_reserved": 0, "is_disabled": 0, "type": "electric_scooter", "bike_id": "7487d5edf54d2d66f95cb8c408d46a37"},