{"data": {"bikes": [{"lat": 38.922431833333334, "is_disabled": 0, "type": "electric_scooter", "lon": -77.04566183333333, "bike_id": "d8a4d6d805526779be0a9550567566e8", "fusion_lat": 0.0, "name": "d8a4d6d805526779be0a9550567566e8", "is_reserved": 0, "rental_uris": {"android": "https://dc.lft.to/lastmile_qr_scan", "ios": "https://dc.lft.to/lastmile_qr_scan"}, "fusion_lon": 0.0}, {"lat": 38.91611666666667, "is_disabled": 0, "type": "electric_scooter", "lon": -77.0385265, "bike_id": "8252e30abf7f21f764a724e3af8e8627", "fusion_lat": 0.0, "name": "8252e30abf7f21f764a724e3af8e8627", "is_reserved": 0, "rental_uris": {"android": "https://dc.lft.to/lastmile_qr_scan", "ios": "https://dc.lft.to/lastmile_qr_scan"}, "fusion_lon": 0.0}, {"lat": 38.886577333333335, "is_disabled": 0, "type": "electric_scooter", "lon": -77.033882, "bike_id": "eeb4037a18c097fd91a58f5436b2cdad", "fusion_lat": 0.0, "name": "eeb4037a18c097fd91a58f5436b2cdad", "is_reserved": 0, "rental_uris": {"android": "https://dc.lft.to/lastmile_qr_scan", "ios": "https://dc.lft.to/lastmile_qr_scan"}, "fusion_lon": 0.0}, {"lat": 38.9186495, "is_disabled": 0, "type": "electric_scooter", "lon": -77.04600216666667, "bike_id": "215e8adc7820290cb222554e7eda647f", "fusion_lat": 0.0, "name": "215e8adc7820290cb222554e7eda647f", "is_reserved": 0, "rental_uris": {"android": "https://dc.lft.to/lastmile_qr_scan", "ios": "https://dc.lft.to/lastmile_qr_scan"}, "fusion_lon": 0.0}, {"lat": 38.93868483333333, "is_disabled": 0, "type": "electric_scooter", "lon": -77.02567483333333, "bike_id": "dc623ddf577c788d8fdbbe61193823f4", "fusion_lat": 0.0, "name": "dc623ddf577c788d8fdbbe61193823f4", "is_reserved": 0, "rental_uris": {"android": "https://dc.lft.to/lastmile_qr_scan", "ios": "https://dc.lft.to/lastmile_qr_scan"}, "fusion_lon": 0.0}, {"lat": 38.919249, "is_disabled": 0, "type": "electric_scooter", "lon": -77.03387433333333, "bike_id": "dc636d0ebf21f9ba4b070404b924c7ad", "fusion_lat": 0.0, "name": "dc636d0ebf21f9ba4b070404b924c7ad", "is_reserved": 0, "rental_uris": {"android": "https://dc.lft.to/lastmile_qr_scan", "ios": "https://dc.lft.to/lastmile_qr_scan"}, "fusion_lon": 0.0}, {"lat": 38.919566333333336, "is_disabled": 0, "type": "electric_scooter", "lon": -76.98079783333333, "bike_id": "1ede3145dff2a382ce824041f3d63919", "fusion_lat": 0.0, "name": "1ede3145dff2a382ce824041f3d63919", "is_reserved": 0, "rental_uris": {"android": "https://dc.lft.to/lastmile_qr_scan", "ios": "https://dc.lft.to/lastmile_qr_scan"}, "fusion_lon": 0.0}, {"lat": 38.97234, "is_disabled": 0, "type": "electric_bike", "lon": -76.99342633333333, "bike_id": "1255c99429cf75d470ac7d63dbd1a3b8", "fusion_lat": 0.0, "name": "1255c99429cf75d470ac7d63dbd1a3b8", "is_reserved": 0, "rental_uris": {"android": "https://dc.lft.to/lastmile_qr_scan", "ios": "https://dc.lft.to/lastmile_qr_scan"}, "fusion_lon": 0.0}, {"lat": 38.90326533333333, "is_disabled": 0, "type": "electric_scooter", "lon": -77.03759383333333, "bike_id": "dbac87b37bcd64f43aec67da26c52fd6", "fusion_lat": 0.0, "name": "dbac87b37bcd64f43aec67da26c52fd6", "is_reserved": 0, "rental_uris": {"android": "https://dc.lft.to/lastmile_qr_scan", "ios": "https://dc.lft.to/lastmile_qr_scan"}, "fusion_lon": 0.0}, {"lat": 38.90935, "is_disabled": 0, "type": "electric_scooter", "lon": -77.06400933333333, "bike_id": "335384a472dcfa001c241cc6d4e52a91", "fusion_lat": 0.0, "name": "335384a472dcfa001c241cc6d4e52a91", "is_reserved": 0, "rental_uris": {"android": "https://dc.lft.to/lastmile_qr_scan", "ios": "https://dc.lft.to/lastmile_qr_scan"}, "fusion_lon": 0.0}, {"lat": 38.86064483333333, "is_disabled": 0, "type": "electric_scooter", "lon": -77.057702, "bike_id": "a7061c8f89cd84a0f6c0e9a421b5a433", "fusion_lat": 0.0, "name": "a7061c8f89cd84a0f6c0e9a421b5a433", "is_reserved": 0, "rental_uris": {"android": "https://dc.lft.to/lastmile_qr_scan", "ios": "https://dc.lft.to/lastmile_qr_scan"}, "fusion_lon": 0.0}, {"lat": 38.91625466666667, "is_disabled": 0, "type": "electric_scooter", "lon": -77.0486275, "bike_id": "9dd62638dd279e6923a7e9abe16ce631", "fusion_lat": 0.0, "name": "9dd62638dd279e6923a7e9abe16ce631", "is_reserved": 0, "rental_uris": {"android": "https://dc.lft.to/lastmile_qr_scan", "ios": "https://dc.lft.to/lastmile_qr_scan"}, "fusion_lon": 0.0}, {"lat": 38.912206, "is_disabled": 0, "type": "electric_scooter", "lon": -77.04156516666667, "bike_id": "49621e590511a4f33f27a81e229ca8bf", "fusion_lat": 0.0, "name": "49621e590511a4f33f27a81e229ca8bf", "is_reserved": 0, "rental_uris": {"android": "https://dc.lft.to/lastmile_qr_scan", "ios": "https://dc.lft.to/lastmile_qr_scan"}, "fusion_lon": 0.0}, {"lat": 38.925836833333335, "is_disabled": 0, "type": "electric_scooter", "lon": -77.0575835, "bike_id": "f812297bf9d44bcb69962c8c9bb824ea", "fusion_lat": 0.0, "name": "f812297bf9d44bcb69962c8c9bb824ea", "is_reserved": 0, "rental_uris": {"android": "https://dc.lft.to/lastmile_qr_scan", "ios": "https://dc.lft.to/lastmile_qr_scan"}, "fusion_lon": 0.0}, {"lat": 38.92905833333333, "is_disabled": 0, "type": "electric_scooter", "lon": -77.07451566666667, "bike_id": "7e6a581ddeff53971accf6a23211e193", "fusion_lat": 0.0, "name": "7e6a581ddeff53971accf6a23211e193", "is_reserved": 0, "rental_uris": {"android": "https://dc.lft.to/lastmile_qr_scan", "ios": "https://dc.lft.to/lastmile_qr_scan"}, "fusion_lon": 0.0}, {"lat": 38.9235035, "is_disabled": 0, "type": "electric_scooter", "lon": -77.04129016666667, "bike_id": "3c634eb8a31243728ff0b67680a5ce70", "fusion_lat": 0.0, "name": "3c634eb8a31243728ff0b67680a5ce70", "is_reserved": 0, "rental_uris": {"android": "https://dc.lft.to/lastmile_qr_scan", "ios": "https://dc.lft.to/lastmile_qr_scan"}, "fusion_lon": 0.0}, {"lat": 38.924694833333334, "is_disabled": 0, "type": "electric_scooter", "lon": -77.0397145, "bike_id": "022f84242cd9194a4223059f6f90a184", "fusion_lat": 0.0, "name": "022f84242cd9194a4223059f6f90a184", "is_reserved": 0, "rental_uris": {"android": "https://dc.lft.to/lastmile_qr_scan", "ios": "https://dc.lft.to/lastmile_qr_scan"}, "fusion_lon": 0.0}, {"lat": 38.921264, "is_disabled": 0, "type": "electric_scooter", "lon": -77.03661966666667, "bike_id": "efd4c91fe1e45d44677e9ac0a7c0f7ea", "fusion_lat": 0.0, "name": "efd4c91fe1e45d44677e9ac0a7c0f7ea", "is_reserved": 0, "rental_uris": {"android": "https://dc.lft.to/lastmile_qr_scan", "ios": "https://dc.lft.to/lastmile_qr_scan"}, "fusion_lon": 0.0}, {"lat": 38.884434166666665, "is_disabled": 0, "type": "electric_scooter", "lon": -77.03034466666666, "bike_id": "1893c615e61a0953bbecb21a4ea3de0a", "fusion_lat": 0.0, "name": "1893c615e61a0953bbecb21a4ea3de0a", "is_reserved": 0, "rental_uris": {"android": "https://dc.lft.to/lastmile_qr_scan", "ios": "https://dc.lft.to/lastmile_qr_scan"}, "fusion_lon": 0.0}, {"lat": 38.903054166666664, "is_disabled": 0, "type": "electric_scooter", "lon": -77.02071416666666, "bike_id": "4ee25b99b7e7ac09fba2368d8db1a7b1", "fusion_lat": 0.0, "name": "4ee25b99b7e7ac09fba2368d8db1a7b1", "is_reserved": 0, "rental_uris": {"android": "https://dc.lft.to/lastmile_qr_scan", "ios": "https://dc.lft.to/lastmile_qr_scan"}, "fusion_lon": 0.0}, {"lat": 38.85524816666667, "is_disabled": 0, "type": "electric_bike", "lon": -76.984425, "bike_id": "fc5d6a7d24fbdfd698fa340397481b58", "fusion_lat": 0.0, "name": "fc5d6a7d24fbdfd698fa340397481b58", "is_reserved": 0, "rental_uris": {"android": "https://dc.lft.to/lastmile_qr_scan", "ios": "https://dc.lft.to/lastmile_qr_scan"}, "fusion_lon": 0.0}, {"lat": 38.9383945, "is_disabled": 0, "type": "electric_scooter", "lon": -77.025858, "bike_id": "5d4302ace25b6fd74467953a43ff00b9", "fusion_lat": 0.0, "name": "5d4302ace25b6fd74467953a43ff00b9", "is_reserved": 0, "rental_uris": {"android": "https://dc.lft.to/lastmile_qr_scan", "ios": "https://dc.lft.to/lastmile_qr_scan"}, "fusion_lon": 0.0}, {"lat": 38.938248333333334, "is_disabled": 0, "type": "electric_bike", "lon": -77.02647216666666, "bike_id": "b9b29d942a04b942085ef81a957f4187", "fusion_lat": 0.0, "name": "b9b29d942a04b942085ef81a957f4187", "is_reserved": 0, "rental_uris": {"android": "https://dc.lft.to/lastmile_qr_scan", "ios": "https://dc.lft.to/lastmile_qr_scan"}, "fusion_lon": 0.0}, {"lat": 38.85693416666667, "is_disabled": 0, "type": "electric_scooter", "lon": -76.981696, "bike_id": "d4f8a36f11bf061990cf343a985c3427", "fusion_lat": 0.0, "name": "d4f8a36f11bf061990cf343a985c3427", "is_reserved": 0, "rental_uris": {"android": "https://dc.lft.to/lastmile_qr_scan", "ios": "https://dc.lft.to/lastmile_qr_scan"}, "fusion_lon": 0.0}, {"lat": 38.88998633333333, "is_disabled": 0, "type": "electric_scooter", "lon": -76.95564983333334, "bike_id": "a38370313cc35c1014c45a884c26b363", "fusion_lat": 0.0, "name": "a38370313cc35c1014c45a884c26b363", "is_reserved": 0, "rental_uris": {"android": "https://dc.lft.to/lastmile_qr_scan", "ios": "https://dc.lft.to/lastmile_qr_scan"}, "fusion_lon": 0.0}, {"lat": 38.899042333333334, "is_disabled": 0, "type": "electric_scooter", "lon": -76.98203133333334, "bike_id": "0a64c23604a57f7b31059dc9ddfe8f03", "fusion_lat": 0.0, "name": "0a64c23604a57f7b31059dc9ddfe8f03", "is_reserved": 0, "rental_uris": {"android": "https://dc.lft.to/lastmile_qr_scan", "ios": "https://dc.lft.to/lastmile_qr_scan"}, "fusion_lon": 0.0}, {"lat": 38.93421683333333, "is_disabled": 0, "type": "electric_scooter", "lon": -77.04137316666667, "bike_id": "600f5195eb4eb62b246c6412baecb477", "fusion_lat": 0.0, "name": "600f5195eb4eb62b246c6412baecb477", "is_reserved": 0, "rental_uris": {"android": "https://dc.lft.to/lastmile_qr_scan", "ios": "https://dc.lft.to/lastmile_qr_scan"}, "fusion_lon": 0.0}, {"lat": 38.905672, "is_disabled": 0, "type": "electric_scooter", "lon": -77.062674, "bike_id": "6f7eddb16e9b65f5c4bce183c4d0a58c", "fusion_lat": 0.0, "name": "6f7eddb16e9b65f5c4bce183c4d0a58c", "is_reserved": 0, "rental_uris": {"android": "https://dc.lft.to/lastmile_qr_scan", "ios": "https://dc.lft.to/lastmile_qr_scan"}, "fusion_lon": 0.0}, {"lat": 38.837329, "is_disabled": 0, "type": "electric_bike", "lon": -76.9975105, "bike_id": "a74cf80d247e254a538cdec79729585c", "fusion_lat": 0.0, "name": "a74cf80d247e254a538cdec79729585c", "is_reserved": 0, "rental_uris": {"android": "https://dc.lft.to/lastmile_qr_scan", "ios": "https://dc.lft.to/lastmile_qr_scan"}, "fusion_lon": 0.0}, {"lat": 38.897367833333334, "is_disabled": 0, "type": "electric_scooter", "lon": -77.00749483333334, "bike_id": "1fc0248faf229407fae08b5a336ede65", "fusion_lat": 0.0, "name": "1fc0248faf229407fae08b5a336ede65", "is_reserved": 0, "rental_uris": {"android": "https://dc.lft.to/lastmile_qr_scan", "ios": "https://dc.lft.to/lastmile_qr_scan"}, "fusion_lon": 0.0}, {"lat": 38.906812333333335, "is_disabled": 0, "type": "electric_scooter", "lon": -77.07185466666667, "bike_id": "531927a6d8dfccf06603e55be42a63b1", "fusion_lat": 0.0, "name": "531927a6d8dfccf06603e55be42a63b1", "is_reserved": 0, "rental_uris": {"android": "https://dc.lft.to/lastmile_qr_scan", "ios": "https://dc.lft.to/lastmile_qr_scan"}, "fusion_lon": 0.0}, {"lat": 38.90258266666667, "is_disabled": 0, "type": "electric_scooter", "lon": -77.0436975, "bike_id": "654c3bef37dcf6b504d633b20e5b5ced", "fusion_lat": 0.0, "name": "654c3bef37dcf6b504d633b20e5b5ced", "is_reserved": 0, "rental_uris": {"android": "https://dc.lft.to/lastmile_qr_scan", "ios": "https://dc.lft.to/lastmile_qr_scan"}, "fusion_lon": 0.0}, {"lat": 38.906550333333335, "is_disabled": 0, "type": "electric_scooter", "lon": -77.029652, "bike_id": "e0c54da5a29326c862140d7b32974cdf", "fusion_lat": 0.0, "name": "e0c54da5a29326c862140d7b32974cdf", "is_reserved": 0, "rental_uris": {"android": "https://dc.lft.to/lastmile_qr_scan", "ios": "https://dc.lft.to/lastmile_qr_scan"}, "fusion_lon": 0.0}, {"lat": 38.918638333333334, "is_disabled": 0, "type": "electric_scooter", "lon": -77.03212716666667, "bike_id": "5756e58e8d0ec04bf01c27e02ef60242", "fusion_lat": 0.0, "name": "5756e58e8d0ec04bf01c27e02ef60242", "is_reserved": 0, "rental_uris": {"android": "https://dc.lft.to/lastmile_qr_scan", "ios": "https://dc.lft.to/lastmile_qr_scan"}, "fusion_lon": 0.0}, {"lat": 38.873841666666664, "is_disabled": 0, "type": "electric_bike", "lon": -76.93654433333333, "bike_id": "13f5bab021dc8c8d7523568422417b1d", "fusion_lat": 0.0, "name": "13f5bab021dc8c8d7523568422417b1d", "is_reserved": 0, "rental_uris": {"android": "https://dc.lft.to/lastmile_qr_scan", "ios": "https://dc.lft.to/lastmile_qr_scan"}, "fusion_lon": 0.0}, {"lat": 38.869213, "is_disabled": 0, "type": "electric_scooter", "lon": -76.9830435, "bike_id": "3db3237194f799426709e177c7d0f534", "fusion_lat": 0.0, "name": "3db3237194f799426709e177c7d0f534", "is_reserved": 0, "rental_uris": {"android": "https://dc.lft.to/lastmile_qr_scan", "ios": "https://dc.lft.to/lastmile_qr_scan"}, "fusion_lon": 0.0}, {"lat": 38.9084655, "is_disabled": 0, "type": "electric_scooter", "lon": -77.027179, "bike_id": "628e414f62db86b7faa4df750d601899", "fusion_lat": 0.0, "name": "628e414f62db86b7faa4df750d601899", "is_reserved": 0, "rental_uris": {"android": "https://dc.lft.to/lastmile_qr_scan", "ios": "https://dc.lft.to/lastmile_qr_scan"}, "fusion_lon": 0.0}, {"lat": 38.913332, "is_disabled": 0, "type": "electric_scooter", "lon": -77.03127516666666, "bike_id": "7eee7183169097f6cf086157066b1d4a", "fusion_lat": 0.0, "name": "7eee7183169097f6cf086157066b1d4a", "is_reserved": 0, "rental_uris": {"android": "https://dc.lft.to/lastmile_qr_scan", "ios": "https://dc.lft.to/lastmile_qr_scan"}, "fusion_lon": 0.0}, {"lat": 38.88425933333333, "is_disabled": 0, "type": "electric_scooter", "lon": -77.000219, "bike_id": "e4ad69f105880c99cc92d980605cf0f2", "fusion_lat": 0.0, "name": "e4ad69f105880c99cc92d980605cf0f2", "is_reserved": 0, "rental_uris": {"android": "https://dc.lft.to/lastmile_qr_scan", "ios": "https://dc.lft.to/lastmile_qr_scan"}, "fusion_lon": 0.0}, {"lat": 38.844258833333335, "is_disabled": 0, "type": "electric_scooter", "lon": -76.99778733333333, "bike_id": "51d4258da3d835fde04b02fb1236256b", "fusion_lat": 0.0, "name": "51d4258da3d835fde04b02fb1236256b", "is_reserved": 0, "rental_uris": {"android": "https://dc.lft.to/lastmile_qr_scan", "ios": "https://dc.lft.to/lastmile_qr_scan"}, "fusion_lon": 0.0}, {"lat": 38.92796966666667, "is_disabled": 0, "type": "electric_scooter", "lon": -77.04354783333334, "bike_id": "4f6cd98224b1ff0b0ca0cb3075007c1f", "fusion_lat": 0.0, "name": "4f6cd98224b1ff0b0ca0cb3075007c1f", "is_reserved": 0, "rental_uris": {"android": "https://dc.lft.to/lastmile_qr_scan", "ios": "https://dc.lft.to/lastmile_qr_scan"}, "fusion_lon": 0.0}, {"lat": 38.98658733333333, "is_disabled": 0, "type": "electric_bike", "lon": -77.0564565, "bike_id": "caf7eb1b2d8ca714667ca220ca52ae3b", "fusion_lat": 0.0, "name": "caf7eb1b2d8ca714667ca220ca52ae3b", "is_reserved": 0, "rental_uris": {"android": "https://dc.lft.to/lastmile_qr_scan", "ios": "https://dc.lft.to/lastmile_qr_scan"}, "fusion_lon": 0.0}, {"lat": 38.90260966666666, "is_disabled": 0, "type": "electric_scooter", "lon": -77.043697, "bike_id": "555a35a8f6e5c5cccc06e6e6825f0981", "fusion_lat": 0.0, "name": "555a35a8f6e5c5cccc06e6e6825f0981", "is_reserved": 0, "rental_uris": {"android": "https://dc.lft.to/lastmile_qr_scan", "ios": "https://dc.lft.to/lastmile_qr_scan"}, "fusion_lon": 0.0}, {"lat": 38.934643333333334, "is_disabled": 0, "type": "electric_scooter", "lon": -77.03241533333333, "bike_id": "4618a040e36c41e2978ae74435e4e0ae", "fusion_lat": 0.0, "name": "4618a040e36c41e2978ae74435e4e0ae", "is_reserved": 0, "rental_uris": {"android": "https://dc.lft.to/lastmile_qr_scan", "ios": "https://dc.lft.to/lastmile_qr_scan"}, "fusion_lon": 0.0}, {"lat": 38.93227066666667, "is_disabled": 0, "type": "electric_scooter", "lon": -77.0440965, "bike_id": "2e0ece87536dd39ed3d1bce2752ef72b", "fusion_lat": 0.0, "name": "2e0ece87536dd39ed3d1bce2752ef72b", "is_reserved": 0, "rental_uris": {"android": "https://dc.lft.to/lastmile_qr_scan", "ios": "https://dc.lft.to/lastmile_qr_scan"}, "fusion_lon": 0.0}, {"lat": 38.865973333333336, "is_disabled": 0, "type": "electric_bike", "lon": -76.9322995, "bike_id": "25da835840b9ad418fa4613433ab6d1b", "fusion_lat": 0.0, "name": "25da835840b9ad418fa4613433ab6d1b", "is_reserved": 0, "rental_uris": {"android": "https://dc.lft.to/lastmile_qr_scan", "ios": "https://dc.lft.to/lastmile_qr_scan"}, "fusion_lon": 0.0}, {"lat": 38.921732166666665, "is_disabled": 0, "type": "electric_scooter", "lon": -77.0513565, "bike_id": "5dc103862d066d897d5eb58591c52e1f", "fusion_lat": 0.0, "name": "5dc103862d066d897d5eb58591c52e1f", "is_reserved": 0, "rental_uris": {"android": "https://dc.lft.to/lastmile_qr_scan", "ios": "https://dc.lft.to/lastmile_qr_scan"}, "fusion_lon": 0.0}, {"lat": 38.91658916666667, "is_disabled": 0, "type": "electric_scooter", "lon": -77.04285383333334, "bike_id": "55f614dec65364c44bfd5a104871cd5e", "fusion_lat": 0.0, "name": "55f614dec65364c44bfd5a104871cd5e", "is_reserved": 0, "rental_uris": {"android": "https://dc.lft.to/lastmile_qr_scan", "ios": "https://dc.lft.to/lastmile_qr_scan"}, "fusion_lon": 0.0}, {"lat": 38.92334016666667, "is_disabled": 0, "type": "electric_scooter", "lon": -77.04461566666667, "bike_id": "ba78965bf1e2eabb2b83c934087367cf", "fusion_lat": 0.0, "name": "ba78965bf1e2eabb2b83c934087367cf", "is_reserved": 0, "rental_uris": {"android": "https://dc.lft.to/lastmile_qr_scan", "ios": "https://dc.lft.to/lastmile_qr_scan"}, "fusion_lon": 0.0}, {"lat": 38.962205, "is_disabled": 0, "type": "electric_bike", "lon": -77.0277755, "bike_id": "9580211eb9f63de0709a4f76e11a4745", "fusion_lat": 0.0, "name": "9580211eb9f63de0709a4f76e11a4745", "is_reserved": 0, "rental_uris": {"android": "https://dc.lft.to/lastmile_qr_scan", "ios": "https://dc.lft.to/lastmile_qr_scan"}, "fusion_lon": 0.0}, {"lat": 38.852222, "is_disabled": 0, "type": "electric_bike", "lon": -77.12965233333334, "bike_id": "8979c0d438b602625fba6bdf139ca49b", "fusion_lat": 0.0, "name": "8979c0d438b602625fba6bdf139ca49b", "is_reserved": 0, "rental_uris": {"android": "https://dc.lft.to/lastmile_qr_scan", "ios": "https://dc.lft.to/lastmile_qr_scan"}, "fusion_lon": 0.0}, {"lat": 38.91074916666667, "is_disabled": 0, "type": "electric_scooter", "lon": -77.01636333333333, "bike_id": "cd6496d050623e1dea79d1f9f77af672", "fusion_lat": 0.0, "name": "cd6496d050623e1dea79d1f9f77af672", "is_reserved": 0, "rental_uris": {"android": "https://dc.lft.to/lastmile_qr_scan", "ios": "https://dc.lft.to/lastmile_qr_scan"}, "fusion_lon": 0.0}, {"lat": 38.892508166666666, "is_disabled": 0, "type": "electric_scooter", "lon": -77.0465395, "bike_id": "2af22398ab2ae637ac01cf258bf3f9f3", "fusion_lat": 0.0, "name": "2af22398ab2ae637ac01cf258bf3f9f3", "is_reserved": 0, "rental_uris": {"android": "https://dc.lft.to/lastmile_qr_scan", "ios": "https://dc.lft.to/lastmile_qr_scan"}, "fusion_lon": 0.0}, {"lat": 38.90048616666667, "is_disabled": 0, "type": "electric_scooter", "lon": -77.00746266666667, "bike_id": "38201fa4db8bca9b7fc1694ce3482d51", "fusion_lat": 0.0, "name": "38201fa4db8bca9b7fc1694ce3482d51", "is_reserved": 0, "rental_uris": {"android": "https://dc.lft.to/lastmile_qr_scan", "ios": "https://dc.lft.to/lastmile_qr_scan"}, "fusion_lon": 0.0}, {"lat": 38.892431333333334, "is_disabled": 0, "type": "electric_scooter", "lon": -77.03960783333333, "bike_id": "115c80fdc238771710d982c927dcb467", "fusion_lat": 0.0, "name": "115c80fdc238771710d982c927dcb467", "is_reserved": 0, "rental_uris": {"android": "https://dc.lft.to/lastmile_qr_scan", "ios": "https://dc.lft.to/lastmile_qr_scan"}, "fusion_lon": 0.0}, {"lat": 38.92792766666667, "is_disabled": 0, "type": "electric_scooter", "lon": -77.03150166666667, "bike_id": "f6a81931ed5315cfd04689fecb1c0fe0", "fusion_lat": 0.0, "name": "f6a81931ed5315cfd04689fecb1c0fe0", "is_reserved": 0, "rental_uris": {"android": "https://dc.lft.to/lastmile_qr_scan", "ios": "https://dc.lft.to/lastmile_qr_scan"}, "fusion_lon": 0.0}, {"lat": 38.91120266666667, "is_disabled": 0, "type": "electric_scooter", "lon": -77.03728133333334, "bike_id": "458425a5b010e2d01a33522b7a5fd6ff", "fusion_lat": 0.0, "name": "458425a5b010e2d01a33522b7a5fd6ff", "is_reserved": 0, "rental_uris": {"android": "https://dc.lft.to/lastmile_qr_scan", "ios": "https://dc.lft.to/lastmile_qr_scan"}, "fusion_lon": 0.0}, {"lat": 38.9525385, "is_disabled": 0, "type": "electric_bike", "lon": -76.98231483333333, "bike_id": "4294e341f7d59fa49870de791ff4c286", "fusion_lat": 0.0, "name": "4294e341f7d59fa49870de791ff4c286", "is_reserved": 0, "rental_uris": {"android": "https://dc.lft.to/lastmile_qr_scan", "ios": "https://dc.lft.to/lastmile_qr_scan"}, "fusion_lon": 0.0}, {"lat": 38.91118433333333, "is_disabled": 0, "type": "electric_scooter", "lon": -77.0436105, "bike_id": "ae06092b987e340cc5d3058ad66a8635", "fusion_lat": 0.0, "name": "ae06092b987e340cc5d3058ad66a8635", "is_reserved": 0, "rental_uris": {"android": "https://dc.lft.to/lastmile_qr_scan", "ios": "https://dc.lft.to/lastmile_qr_scan"}, "fusion_lon": 0.0}, {"lat": 38.899221833333335, "is_disabled": 0, "type": "electric_scooter", "lon": -77.003666, "bike_id": "d57a6e72105bf0909d1eccbe6532fc69", "fusion_lat": 0.0, "name": "d57a6e72105bf0909d1eccbe6532fc69", "is_reserved": 0, "rental_uris": {"android": "https://dc.lft.to/lastmile_qr_scan", "ios": "https://dc.lft.to/lastmile_qr_scan"}, "fusion_lon": 0.0}, {"lat": 38.909552, "is_disabled": 0, "type": "electric_scooter", "lon": -77.0468435, "bike_id": "da178293d0219c4e91b7e8946626e3a4", "fusion_lat": 0.0, "name": "da178293d0219c4e91b7e8946626e3a4", "is_reserved": 0, "rental_uris": {"android": "https://dc.lft.to/lastmile_qr_scan", "ios": "https://dc.lft.to/lastmile_qr_scan"}, "fusion_lon": 0.0}, {"lat": 38.9244415, "is_disabled": 0, "type": "electric_scooter", "lon": -77.03374583333333, "bike_id": "1ddc2a58023caab9a76b7284bcef9819", "fusion_lat": 0.0, "name": "1ddc2a58023caab9a76b7284bcef9819", "is_reserved": 0, "rental_uris": {"android": "https://dc.lft.to/lastmile_qr_scan", "ios": "https://dc.lft.to/lastmile_qr_scan"}, "fusion_lon": 0.0}, {"lat": 38.90461033333333, "is_disabled": 0, "type": "electric_scooter", "lon": -77.03414516666666, "bike_id": "8781db7ba2efba7788081dabf0228ee0", "fusion_lat": 0.0, "name": "8781db7ba2efba7788081dabf0228ee0", "is_reserved": 0, "rental_uris": {"android": "https://dc.lft.to/lastmile_qr_scan", "ios": "https://dc.lft.to/lastmile_qr_scan"}, "fusion_lon": 0.0}, {"lat": 38.933511833333334, "is_disabled": 0, "type": "electric_bike", "lon": -76.99434766666667, "bike_id": "698f8ffa1264b96375147cdf190c4f02", "fusion_lat": 0.0, "name": "698f8ffa1264b96375147cdf190c4f02", "is_reserved": 0, "rental_uris": {"android": "https://dc.lft.to/lastmile_qr_scan", "ios": "https://dc.lft.to/lastmile_qr_scan"}, "fusion_lon": 0.0}, {"lat": 38.917066, "is_disabled": 0, "type": "electric_scooter", "lon": -77.02914916666667, "bike_id": "1c328ce3fc4040127bede38df2309235", "fusion_lat": 0.0, "name": "1c328ce3fc4040127bede38df2309235", "is_reserved": 0, "rental_uris": {"android": "https://dc.lft.to/lastmile_qr_scan", "ios": "https://dc.lft.to/lastmile_qr_scan"}, "fusion_lon": 0.0}, {"lat": 38.932027166666664, "is_disabled": 0, "type": "electric_scooter", "lon": -77.03854183333333, "bike_id": "9580c0a149823935117e75c0bacf1925", "fusion_lat": 0.0, "name": "9580c0a149823935117e75c0bacf1925", "is_reserved": 0, "rental_uris": {"android": "https://dc.lft.to/lastmile_qr_scan", "ios": "https://dc.lft.to/lastmile_qr_scan"}, "fusion_lon": 0.0}, {"lat": 38.937013, "is_disabled": 0, "type": "electric_scooter", "lon": -77.0239925, "bike_id": "da13ab3fdc3167000ab833cef76d3cb1", "fusion_lat": 0.0, "name": "da13ab3fdc3167000ab833cef76d3cb1", "is_reserved": 0, "rental_uris": {"android": "https://dc.lft.to/lastmile_qr_scan", "ios": "https://dc.lft.to/lastmile_qr_scan"}, "fusion_lon": 0.0}, {"lat": 39.094389166666666, "is_disabled": 0, "type": "electric_bike", "lon": -77.134605, "bike_id": "ea0714a4ecce5fd6735c621e337490f1", "fusion_lat": 0.0, "name": "ea0714a4ecce5fd6735c621e337490f1", "is_reserved": 0, "rental_uris": {"android": "https://dc.lft.to/lastmile_qr_scan", "ios": "https://dc.lft.to/lastmile_qr_scan"}, "fusion_lon": 0.0}, {"lat": 38.932737, "is_disabled": 0, "type": "electric_bike", "lon": -77.02848016666667, "bike_id": "b84c5eb110058b6f9caf6b1f80098ca0", "fusion_lat": 0.0, "name": "b84c5eb110058b6f9caf6b1f80098ca0", "is_reserved": 0, "rental_uris": {"android": "https://dc.lft.to/lastmile_qr_scan", "ios": "https://dc.lft.to/lastmile_qr_scan"}, "fusion_lon": 0.0}, {"lat": 38.86285016666667, "is_disabled": 0, "type": "electric_scooter", "lon": -76.99240833333333, "bike_id": "0d68cf655f4bae0e67429f0d585b955f", "fusion_lat": 0.0, "name": "0d68cf655f4bae0e67429f0d585b955f", "is_reserved": 0, "rental_uris": {"android": "https://dc.lft.to/lastmile_qr_scan", "ios": "https://dc.lft.to/lastmile_qr_scan"}, "fusion_lon": 0.0}, {"lat": 38.893596, "is_disabled": 0, "type": "electric_scooter", "lon": -77.04158516666666, "bike_id": "e9155571937d6f77d35007b6bf6ba239", "fusion_lat": 0.0, "name": "e9155571937d6f77d35007b6bf6ba239", "is_reserved": 0, "rental_uris": {"android": "https://dc.lft.to/lastmile_qr_scan", "ios": "https://dc.lft.to/lastmile_qr_scan"}, "fusion_lon": 0.0}, {"lat": 38.898449166666666, "is_disabled": 0, "type": "electric_scooter", "lon": -76.94458183333333, "bike_id": "ee7c29718ce2d8a25f2d8e8edd74bf8a", "fusion_lat": 0.0, "name": "ee7c29718ce2d8a25f2d8e8edd74bf8a", "is_reserved": 0, "rental_uris": {"android": "https://dc.lft.to/lastmile_qr_scan", "ios": "https://dc.lft.to/lastmile_qr_scan"}, "fusion_lon": 0.0}, {"lat": 38.90392933333333, "is_disabled": 0, "type": "electric_scooter", "lon": -77.02797, "bike_id": "b10d1f6c0779f5c6d9419a8147f232e3", "fusion_lat": 0.0, "name": "b10d1f6c0779f5c6d9419a8147f232e3", "is_reserved": 0, "rental_uris": {"android": "https://dc.lft.to/lastmile_qr_scan", "ios": "https://dc.lft.to/lastmile_qr_scan"}, "fusion_lon": 0.0}, {"lat": 38.915471, "is_disabled": 0, "type": "electric_scooter", "lon": -77.02203116666666, "bike_id": "68358f3cf8dacaae03bcd435b80598ab", "fusion_lat": 0.0, "name": "68358f3cf8dacaae03bcd435b80598ab", "is_reserved": 0, "rental_uris": {"android": "https://dc.lft.to/lastmile_qr_scan", "ios": "https://dc.lft.to/lastmile_qr_scan"}, "fusion_lon": 0.0}, {"lat": 38.87065183333333, "is_disabled": 0, "type": "electric_scooter", "lon": -77.00841533333333, "bike_id": "61d6b41b157e7c1b339b829988ae972b", "fusion_lat": 0.0, "name": "61d6b41b157e7c1b339b829988ae972b", "is_reserved": 0, "rental_uris": {"android": "https://dc.lft.to/lastmile_qr_scan", "ios": "https://dc.lft.to/lastmile_qr_scan"}, "fusion_lon": 0.0}, {"lat": 38.90164466666667, "is_disabled": 0, "type": "electric_scooter", "lon": -77.0480075, "bike_id": "f16743b6b3a49bffe41c2b7f53f20c9a", "fusion_lat": 0.0, "name": "f16743b6b3a49bffe41c2b7f53f20c9a", "is_reserved": 0, "rental_uris": {"android": "https://dc.lft.to/lastmile_qr_scan", "ios": "https://dc.lft.to/lastmile_qr_scan"}, "fusion_lon": 0.0}, {"lat": 38.89250883333333, "is_disabled": 0, "type": "electric_scooter", "lon": -77.04893616666666, "bike_id": "c0aedbf9ad2c62764c366814a6ebf475", "fusion_lat": 0.0, "name": "c0aedbf9ad2c62764c366814a6ebf475", "is_reserved": 0, "rental_uris": {"android": "https://dc.lft.to/lastmile_qr_scan", "ios": "https://dc.lft.to/lastmile_qr_scan"}, "fusion_lon": 0.0}, {"lat": 38.8621605, "is_disabled": 0, "type": "electric_bike", "lon": -76.99778383333333, "bike_id": "972cd61c7c8a36ff6a4e030e6b949f52", "fusion_lat": 0.0, "name": "972cd61c7c8a36ff6a4e030e6b949f52", "is_reserved": 0, "rental_uris": {"android": "https://dc.lft.to/lastmile_qr_scan", "ios": "https://dc.lft.to/lastmile_qr_scan"}, "fusion_lon": 0.0}, {"lat": 38.94184083333333, "is_disabled": 0, "type": "electric_scooter", "lon": -77.03653033333333, "bike_id": "88f11881f5ec25016a5742f5319ecdd9", "fusion_lat": 0.0, "name": "88f11881f5ec25016a5742f5319ecdd9", "is_reserved": 0, "rental_uris": {"android": "https://dc.lft.to/lastmile_qr_scan", "ios": "https://dc.lft.to/lastmile_qr_scan"}, "fusion_lon": 0.0}, {"lat": 38.90486683333334, "is_disabled": 0, "type": "electric_scooter", "lon": -76.99545683333334, "bike_id": "d7aad55e7d36ee2a643c3be440f8e8c0", "fusion_lat": 0.0, "name": "d7aad55e7d36ee2a643c3be440f8e8c0", "is_reserved": 0, "rental_uris": {"android": "https://dc.lft.to/lastmile_qr_scan", "ios": "https://dc.lft.to/lastmile_qr_scan"}, "fusion_lon": 0.0}, {"lat": 38.9153945, "is_disabled": 0, "type": "electric_scooter", "lon": -77.03848283333333, "bike_id": "46813b59111f42b74d6d4e11e8e7f1dc", "fusion_lat": 0.0, "name": "46813b59111f42b74d6d4e11e8e7f1dc", "is_reserved": 0, "rental_uris": {"android": "https://dc.lft.to/lastmile_qr_scan", "ios": "https://dc.lft.to/lastmile_qr_scan"}, "fusion_lon": 0.0}, {"lat": 38.91981066666666, "is_disabled": 0, "type": "electric_scooter", "lon": -77.02379166666667, "bike_id": "d7395d60d41b4c3bb780cd4a7a42476b", "fusion_lat": 0.0, "name": "d7395d60d41b4c3bb780cd4a7a42476b", "is_reserved": 0, "rental_uris": {"android": "https://dc.lft.to/lastmile_qr_scan", "ios": "https://dc.lft.to/lastmile_qr_scan"}, "fusion_lon": 0.0}, {"lat": 38.946058666666666, "is_disabled": 0, "type": "electric_scooter", "lon": -77.07035933333333, "bike_id": "144cc14ceaa9cb597ba6f86ce69dc906", "fusion_lat": 0.0, "name": "144cc14ceaa9cb597ba6f86ce69dc906", "is_reserved": 0, "rental_uris": {"android": "https://dc.lft.to/lastmile_qr_scan", "ios": "https://dc.lft.to/lastmile_qr_scan"}, "fusion_lon": 0.0}, {"lat": 38.90776816666666, "is_disabled": 0, "type": "electric_scooter", "lon": -77.03860383333334, "bike_id": "9db828b6dec4e32e882e5df3170c5f72", "fusion_lat": 0.0, "name": "9db828b6dec4e32e882e5df3170c5f72", "is_reserved": 0, "rental_uris": {"android": "https://dc.lft.to/lastmile_qr_scan", "ios": "https://dc.lft.to/lastmile_qr_scan"}, "fusion_lon": 0.0}, {"lat": 38.90188466666667, "is_disabled": 0, "type": "electric_scooter", "lon": -77.05012516666666, "bike_id": "e9997fafed1491d04005fe97cc686b8e", "fusion_lat": 0.0, "name": "e9997fafed1491d04005fe97cc686b8e", "is_reserved": 0, "rental_uris": {"android": "https://dc.lft.to/lastmile_qr_scan", "ios": "https://dc.lft.to/lastmile_qr_scan"}, "fusion_lon": 0.0}, {"lat": 38.92107166666667, "is_disabled": 0, "type": "electric_scooter", "lon": -77.0422515, "bike_id": "fc8453de768f7c7312fa8d133534cc40", "fusion_lat": 0.0, "name": "fc8453de768f7c7312fa8d133534cc40", "is_reserved": 0, "rental_uris": {"android": "https://dc.lft.to/lastmile_qr_scan", "ios": "https://dc.lft.to/lastmile_qr_scan"}, "fusion_lon": 0.0}, {"lat": 38.89362783333333, "is_disabled": 0, "type": "electric_scooter", "lon": -76.99106716666667, "bike_id": "724bbd55f9e42ddb7b711389a49cc67f", "fusion_lat": 0.0, "name": "724bbd55f9e42ddb7b711389a49cc67f", "is_reserved": 0, "rental_uris": {"android": "https://dc.lft.to/lastmile_qr_scan", "ios": "https://dc.lft.to/lastmile_qr_scan"}, "fusion_lon": 0.0}, {"lat": 38.92612366666667, "is_disabled": 0, "type": "electric_scooter", "lon": -77.0569455, "bike_id": "b5413d7df4a2b1e42e19d950322af54f", "fusion_lat": 0.0, "name": "b5413d7df4a2b1e42e19d950322af54f", "is_reserved": 0, "rental_uris": {"android": "https://dc.lft.to/lastmile_qr_scan", "ios": "https://dc.lft.to/lastmile_qr_scan"}, "fusion_lon": 0.0}, {"lat": 38.915592833333335, "is_disabled": 0, "type": "electric_scooter", "lon": -77.0097455, "bike_id": "4d095f5ec236ec954c364fb532fce2e1", "fusion_lat": 0.0, "name": "4d095f5ec236ec954c364fb532fce2e1", "is_reserved": 0, "rental_uris": {"android": "https://dc.lft.to/lastmile_qr_scan", "ios": "https://dc.lft.to/lastmile_qr_scan"}, "fusion_lon": 0.0}, {"lat": 38.91805866666667, "is_disabled": 0, "type": "electric_scooter", "lon": -77.03656033333333, "bike_id": "d55cc8531d88f6322068ea7108f54e47", "fusion_lat": 0.0, "name": "d55cc8531d88f6322068ea7108f54e47", "is_reserved": 0, "rental_uris": {"android": "https://dc.lft.to/lastmile_qr_scan", "ios": "https://dc.lft.to/lastmile_qr_scan"}, "fusion_lon": 0.0}, {"lat": 38.84423183333333, "is_disabled": 0, "type": "electric_scooter", "lon": -76.99776416666667, "bike_id": "41bd368c954a095271e0f015e596d543", "fusion_lat": 0.0, "name": "41bd368c954a095271e0f015e596d543", "is_reserved": 0, "rental_uris": {"android": "https://dc.lft.to/lastmile_qr_scan", "ios": "https://dc.lft.to/lastmile_qr_scan"}, "fusion_lon": 0.0}, {"lat": 38.923831, "is_disabled": 0, "type": "electric_scooter", "lon": -77.027667, "bike_id": "ee820dafd125c50f3b8033c8c5272c3d", "fusion_lat": 0.0, "name": "ee820dafd125c50f3b8033c8c5272c3d", "is_reserved": 0, "rental_uris": {"android": "https://dc.lft.to/lastmile_qr_scan", "ios": "https://dc.lft.to/lastmile_qr_scan"}, "fusion_lon": 0.0}, {"lat": 38.854305833333335, "is_disabled": 0, "type": "electric_bike", "lon": -76.9096885, "bike_id": "ee6c9dc1e5c8d4ccda107d62d0803077", "fusion_lat": 0.0, "name": "ee6c9dc1e5c8d4ccda107d62d0803077", "is_reserved": 0, "rental_uris": {"android": "https://dc.lft.to/lastmile_qr_scan", "ios": "https://dc.lft.to/lastmile_qr_scan"}, "fusion_lon": 0.0}, {"lat": 38.810531166666664, "is_disabled": 0, "type": "electric_bike", "lon": -77.08509083333334, "bike_id": "db4f6c5f5a615dd00746a8da9abfa38c", "fusion_lat": 0.0, "name": "db4f6c5f5a615dd00746a8da9abfa38c", "is_reserved": 0, "rental_uris": {"android": "https://dc.lft.to/lastmile_qr_scan", "ios": "https://dc.lft.to/lastmile_qr_scan"}, "fusion_lon": 0.0}, {"lat": 38.868939, "is_disabled": 0, "type": "electric_scooter", "lon": -76.98312416666667, "bike_id": "834ef694c2c2c2fcd47916c7a0380fa9", "fusion_lat": 0.0, "name": "834ef694c2c2c2fcd47916c7a0380fa9", "is_reserved": 0, "rental_uris": {"android": "https://dc.lft.to/lastmile_qr_scan", "ios": "https://dc.lft.to/lastmile_qr_scan"}, "fusion_lon": 0.0}, {"lat": 38.873423333333335, "is_disabled": 0, "type": "electric_scooter", "lon": -76.991662, "bike_id": "0c540ee543380e4a9df74f4182756d52", "fusion_lat": 0.0, "name": "0c540ee543380e4a9df74f4182756d52", "is_reserved": 0, "rental_uris": {"android": "https://dc.lft.to/lastmile_qr_scan", "ios": "https://dc.lft.to/lastmile_qr_scan"}, "fusion_lon": 0.0}, {"lat": 38.907931166666664, "is_disabled": 0, "type": "electric_scooter", "lon": -77.0421845, "bike_id": "3f528f2927660d13f3e4dc1a4d298adc", "fusion_lat": 0.0, "name": "3f528f2927660d13f3e4dc1a4d298adc", "is_reserved": 0, "rental_uris": {"android": "https://dc.lft.to/lastmile_qr_scan", "ios": "https://dc.lft.to/lastmile_qr_scan"}, "fusion_lon": 0.0}, {"lat": 38.905945333333335, "is_disabled": 0, "type": "electric_scooter", "lon": -77.040458, "bike_id": "40bc4816ceb2d9bb1c81647faeb2c987", "fusion_lat": 0.0, "name": "40bc4816ceb2d9bb1c81647faeb2c987", "is_reserved": 0, "rental_uris": {"android": "https://dc.lft.to/lastmile_qr_scan", "ios": "https://dc.lft.to/lastmile_qr_scan"}, "fusion_lon": 0.0}, {"lat": 38.916759, "is_disabled": 0, "type": "electric_scooter", "lon": -77.02975633333334, "bike_id": "ed957f0f06b5887025cdb561e300dda8", "fusion_lat": 0.0, "name": "ed957f0f06b5887025cdb561e300dda8", "is_reserved": 0, "rental_uris": {"android": "https://dc.lft.to/lastmile_qr_scan", "ios": "https://dc.lft.to/lastmile_qr_scan"}, "fusion_lon": 0.0}, {"lat": 38.910158, "is_disabled": 0, "type": "electric_scooter", "lon": -77.0383455, "bike_id": "693af1b3e073baa427f0fdbb53dca5ed", "fusion_lat": 0.0, "name": "693af1b3e073baa427f0fdbb53dca5ed", "is_reserved": 0, "rental_uris": {"android": "https://dc.lft.to/lastmile_qr_scan", "ios": "https://dc.lft.to/lastmile_qr_scan"}, "fusion_lon": 0.0}, {"lat": 38.922476, "is_disabled": 0, "type": "electric_scooter", "lon": -77.021898, "bike_id": "a882975f01c2e9edada5e9fef213d689", "fusion_lat": 0.0, "name": "a882975f01c2e9edada5e9fef213d689", "is_reserved": 0, "rental_uris": {"android": "https://dc.lft.to/lastmile_qr_scan", "ios": "https://dc.lft.to/lastmile_qr_scan"}, "fusion_lon": 0.0}, {"lat": 38.8838095, "is_disabled": 0, "type": "electric_scooter", "lon": -77.01880716666666, "bike_id": "324497da29c11cc96b37afeafe7c418a", "fusion_lat": 0.0, "name": "324497da29c11cc96b37afeafe7c418a", "is_reserved": 0, "rental_uris": {"android": "https://dc.lft.to/lastmile_qr_scan", "ios": "https://dc.lft.to/lastmile_qr_scan"}, "fusion_lon": 0.0}, {"lat": 38.904946833333334, "is_disabled": 0, "type": "electric_scooter", "lon": -76.98713283333333, "bike_id": "cc8ab8d7c46be5edae2fb13a055f8e92", "fusion_lat": 0.0, "name": "cc8ab8d7c46be5edae2fb13a055f8e92", "is_reserved": 0, "rental_uris": {"android": "https://dc.lft.to/lastmile_qr_scan", "ios": "https://dc.lft.to/lastmile_qr_scan"}, "fusion_lon": 0.0}, {"lat": 38.903779666666665, "is_disabled": 0, "type": "electric_scooter", "lon": -77.022054, "bike_id": "0228b7e8d0aeca7478f26ba47815c346", "fusion_lat": 0.0, "name": "0228b7e8d0aeca7478f26ba47815c346", "is_reserved": 0, "rental_uris": {"android": "https://dc.lft.to/lastmile_qr_scan", "ios": "https://dc.lft.to/lastmile_qr_scan"}, "fusion_lon": 0.0}, {"lat": 38.95886433333333, "is_disabled": 0, "type": "electric_bike", "lon": -76.9248875, "bike_id": "6393572c1f299e64196966fcc88aa7b0", "fusion_lat": 0.0, "name": "6393572c1f299e64196966fcc88aa7b0", "is_reserved": 0, "rental_uris": {"android": "https://dc.lft.to/lastmile_qr_scan", "ios": "https://dc.lft.to/lastmile_qr_scan"}, "fusion_lon": 0.0}, {"lat": 38.9171805, "is_disabled": 0, "type": "electric_scooter", "lon": -77.0322615, "bike_id": "a39a3f5aaf3ce445e9ae46b7e2d31d4e", "fusion_lat": 0.0, "name": "a39a3f5aaf3ce445e9ae46b7e2d31d4e", "is_reserved": 0, "rental_uris": {"android": "https://dc.lft.to/lastmile_qr_scan", "ios": "https://dc.lft.to/lastmile_qr_scan"}, "fusion_lon": 0.0}, {"lat": 38.97325216666667, "is_disabled": 0, "type": "electric_bike", "lon": -77.02145683333333, "bike_id": "313b067a8186c2358d73699d0f924969", "fusion_lat": 0.0, "name": "313b067a8186c2358d73699d0f924969", "is_reserved": 0, "rental_uris": {"android": "https://dc.lft.to/lastmile_qr_scan", "ios": "https://dc.lft.to/lastmile_qr_scan"}, "fusion_lon": 0.0}, {"lat": 38.9168565, "is_disabled": 0, "type": "electric_scooter", "lon": -77.001963, "bike_id": "7ab766e3c298a12f86a6f0e3f64379fd", "fusion_lat": 0.0, "name": "7ab766e3c298a12f86a6f0e3f64379fd", "is_reserved": 0, "rental_uris": {"android": "https://dc.lft.to/lastmile_qr_scan", "ios": "https://dc.lft.to/lastmile_qr_scan"}, "fusion_lon": 0.0}, {"lat": 38.917673, "is_disabled": 0, "type": "electric_scooter", "lon": -76.97626716666667, "bike_id": "880c19be21f27d07f1f7e0a972edfbbf", "fusion_lat": 0.0, "name": "880c19be21f27d07f1f7e0a972edfbbf", "is_reserved": 0, "rental_uris": {"android": "https://dc.lft.to/lastmile_qr_scan", "ios": "https://dc.lft.to/lastmile_qr_scan"}, "fusion_lon": 0.0}, {"lat": 38.883631333333334, "is_disabled": 0, "type": "electric_scooter", "lon": -76.94153433333334, "bike_id": "91b2602492de73301b4747a91bbce767", "fusion_lat": 0.0, "name": "91b2602492de73301b4747a91bbce767", "is_reserved": 0, "rental_uris": {"android": "https://dc.lft.to/lastmile_qr_scan", "ios": "https://dc.lft.to/lastmile_qr_scan"}, "fusion_lon": 0.0}, {"lat": 38.921565, "is_disabled": 0, "type": "electric_scooter", "lon": -77.03454266666667, "bike_id": "4293f72c0adb4a0812baa4899611ab99", "fusion_lat": 0.0, "name": "4293f72c0adb4a0812baa4899611ab99", "is_reserved": 0, "rental_uris": {"android": "https://dc.lft.to/lastmile_qr_scan", "ios": "https://dc.lft.to/lastmile_qr_scan"}, "fusion_lon": 0.0}, {"lat": 38.9232455, "is_disabled": 0, "type": "electric_scooter", "lon": -77.0411885, "bike_id": "582fabe5dd214cf3b91471d26cc6cdfd", "fusion_lat": 0.0, "name": "582fabe5dd214cf3b91471d26cc6cdfd", "is_reserved": 0, "rental_uris": {"android": "https://dc.lft.to/lastmile_qr_scan", "ios": "https://dc.lft.to/lastmile_qr_scan"}, "fusion_lon": 0.0}, {"lat": 38.90889133333334, "is_disabled": 0, "type": "electric_scooter", "lon": -77.043211, "bike_id": "629c3cb284cd3af13a3ea3a01a96e57b", "fusion_lat": 0.0, "name": "629c3cb284cd3af13a3ea3a01a96e57b", "is_reserved": 0, "rental_uris": {"android": "https://dc.lft.to/lastmile_qr_scan", "ios": "https://dc.lft.to/lastmile_qr_scan"}, "fusion_lon": 0.0}, {"lat": 38.90257483333333, "is_disabled": 0, "type": "electric_scooter", "lon": -77.04365166666666, "bike_id": "b84d1c2ba308717e0d69f04c9126ad5c", "fusion_lat": 0.0, "name": "b84d1c2ba308717e0d69f04c9126ad5c", "is_reserved": 0, "rental_uris": {"android": "https://dc.lft.to/lastmile_qr_scan", "ios": "https://dc.lft.to/lastmile_qr_scan"}, "fusion_lon": 0.0}, {"lat": 38.92637333333333, "is_disabled": 0, "type": "electric_scooter", "lon": -77.03802966666667, "bike_id": "5d42570de429b006bc9e7533327bddb4", "fusion_lat": 0.0, "name": "5d42570de429b006bc9e7533327bddb4", "is_reserved": 0, "rental_uris": {"android": "https://dc.lft.to/lastmile_qr_scan", "ios": "https://dc.lft.to/lastmile_qr_scan"}, "fusion_lon": 0.0}, {"lat": 38.90973566666667, "is_disabled": 0, "type": "electric_scooter", "lon": -77.02392316666666, "bike_id": "6ca45536f61a557b7f831d1bfda55cac", "fusion_lat": 0.0, "name": "6ca45536f61a557b7f831d1bfda55cac", "is_reserved": 0, "rental_uris": {"android": "https://dc.lft.to/lastmile_qr_scan", "ios": "https://dc.lft.to/lastmile_qr_scan"}, "fusion_lon": 0.0}, {"lat": 38.9015425, "is_disabled": 0, "type": "electric_scooter", "lon": -77.04142483333334, "bike_id": "17286251fec001195bb1bbb58d725dd0", "fusion_lat": 0.0, "name": "17286251fec001195bb1bbb58d725dd0", "is_reserved": 0, "rental_uris": {"android": "https://dc.lft.to/lastmile_qr_scan", "ios": "https://dc.lft.to/lastmile_qr_scan"}, "fusion_lon": 0.0}, {"lat": 38.9169165, "is_disabled": 0, "type": "electric_scooter", "lon": -77.03732816666667, "bike_id": "07167f5634b6ff06f93f7e6bf437c994", "fusion_lat": 0.0, "name": "07167f5634b6ff06f93f7e6bf437c994", "is_reserved": 0, "rental_uris": {"android": "https://dc.lft.to/lastmile_qr_scan", "ios": "https://dc.lft.to/lastmile_qr_scan"}, "fusion_lon": 0.0}, {"lat": 38.902248166666666, "is_disabled": 0, "type": "electric_scooter", "lon": -77.0297225, "bike_id": "8a01be8de639b36b16f7fb808c532a8f", "fusion_lat": 0.0, "name": "8a01be8de639b36b16f7fb808c532a8f", "is_reserved": 0, "rental_uris": {"android": "https://dc.lft.to/lastmile_qr_scan", "ios": "https://dc.lft.to/lastmile_qr_scan"}, "fusion_lon": 0.0}, {"lat": 38.92329733333333, "is_disabled": 0, "type": "electric_scooter", "lon": -77.0352315, "bike_id": "e81f7afa5bc56e368a295eb5b03235bf", "fusion_lat": 0.0, "name": "e81f7afa5bc56e368a295eb5b03235bf", "is_reserved": 0, "rental_uris": {"android": "https://dc.lft.to/lastmile_qr_scan", "ios": "https://dc.lft.to/lastmile_qr_scan"}, "fusion_lon": 0.0}, {"lat": 38.944406666666666, "is_disabled": 0, "type": "electric_scooter", "lon": -77.02338566666667, "bike_id": "346666cb12f52312448806d6cff52c64", "fusion_lat": 0.0, "name": "346666cb12f52312448806d6cff52c64", "is_reserved": 0, "rental_uris": {"android": "https://dc.lft.to/lastmile_qr_scan", "ios": "https://dc.lft.to/lastmile_qr_scan"}, "fusion_lon": 0.0}, {"lat": 38.857349, "is_disabled": 0, "type": "electric_scooter", "lon": -76.99437816666666, "bike_id": "87645f69da38ca8e70353f36c9b7afd9", "fusion_lat": 0.0, "name": "87645f69da38ca8e70353f36c9b7afd9", "is_reserved": 0, "rental_uris": {"android": "https://dc.lft.to/lastmile_qr_scan", "ios": "https://dc.lft.to/lastmile_qr_scan"}, "fusion_lon": 0.0}, {"lat": 38.90970216666667, "is_disabled": 0, "type": "electric_scooter", "lon": -77.0479045, "bike_id": "12584820f4fa09db68e3a0f2786f8da3", "fusion_lat": 0.0, "name": "12584820f4fa09db68e3a0f2786f8da3", "is_reserved": 0, "rental_uris": {"android": "https://dc.lft.to/lastmile_qr_scan", "ios": "https://dc.lft.to/lastmile_qr_scan"}, "fusion_lon": 0.0}, {"lat": 38.8818825, "is_disabled": 0, "type": "electric_scooter", "lon": -76.99512083333333, "bike_id": "c0d569ed260936b73404cd8eec8f9abc", "fusion_lat": 0.0, "name": "c0d569ed260936b73404cd8eec8f9abc", "is_reserved": 0, "rental_uris": {"android": "https://dc.lft.to/lastmile_qr_scan", "ios": "https://dc.lft.to/lastmile_qr_scan"}, "fusion_lon": 0.0}, {"lat": 38.95568266666667, "is_disabled": 0, "type": "electric_scooter", "lon": -77.022327, "bike_id": "e363495fb1c0a12ee3f7d1a3189fb617", "fusion_lat": 0.0, "name": "e363495fb1c0a12ee3f7d1a3189fb617", "is_reserved": 0, "rental_uris": {"android": "https://dc.lft.to/lastmile_qr_scan", "ios": "https://dc.lft.to/lastmile_qr_scan"}, "fusion_lon": 0.0}, {"lat": 38.865611333333334, "is_disabled": 0, "type": "electric_scooter", "lon": -76.98952116666666, "bike_id": "d34bc852b1f94ca873e840bf39867680", "fusion_lat": 0.0, "name": "d34bc852b1f94ca873e840bf39867680", "is_reserved": 0, "rental_uris": {"android": "https://dc.lft.to/lastmile_qr_scan", "ios": "https://dc.lft.to/lastmile_qr_scan"}, "fusion_lon": 0.0}, {"lat": 38.938825666666666, "is_disabled": 0, "type": "electric_scooter", "lon": -77.0244735, "bike_id": "f415592748f23e6a7a89b4b04f55b975", "fusion_lat": 0.0, "name": "f415592748f23e6a7a89b4b04f55b975", "is_reserved": 0, "rental_uris": {"android": "https://dc.lft.to/lastmile_qr_scan", "ios": "https://dc.lft.to/lastmile_qr_scan"}, "fusion_lon": 0.0}, {"lat": 38.90922833333333, "is_disabled": 0, "type": "electric_scooter", "lon": -77.03644683333333, "bike_id": "5c6b1b94a497d9e81b17c76c1593385d", "fusion_lat": 0.0, "name": "5c6b1b94a497d9e81b17c76c1593385d", "is_reserved": 0, "rental_uris": {"android": "https://dc.lft.to/lastmile_qr_scan", "ios": "https://dc.lft.to/lastmile_qr_scan"}, "fusion_lon": 0.0}, {"lat": 38.937493833333335, "is_disabled": 0, "type": "electric_scooter", "lon": -77.03491316666667, "bike_id": "555660d3cb05aa2f99d3bb5a348dd070", "fusion_lat": 0.0, "name": "555660d3cb05aa2f99d3bb5a348dd070", "is_reserved": 0, "rental_uris": {"android": "https://dc.lft.to/lastmile_qr_scan", "ios": "https://dc.lft.to/lastmile_qr_scan"}, "fusion_lon": 0.0}, {"lat": 38.872397, "is_disabled": 0, "type": "electric_scooter", "lon": -77.01186933333334, "bike_id": "1292e3589585a93d8ad3b4714058b8cf", "fusion_lat": 0.0, "name": "1292e3589585a93d8ad3b4714058b8cf", "is_reserved": 0, "rental_uris": {"android": "https://dc.lft.to/lastmile_qr_scan", "ios": "https://dc.lft.to/lastmile_qr_scan"}, "fusion_lon": 0.0}, {"lat": 38.9096745, "is_disabled": 0, "type": "electric_scooter", "lon": -77.032143, "bike_id": "6cb1af8c602d9fc4ffe49e8919347b4b", "fusion_lat": 0.0, "name": "6cb1af8c602d9fc4ffe49e8919347b4b", "is_reserved": 0, "rental_uris": {"android": "https://dc.lft.to/lastmile_qr_scan", "ios": "https://dc.lft.to/lastmile_qr_scan"}, "fusion_lon": 0.0}, {"lat": 38.90134666666667, "is_disabled": 0, "type": "electric_scooter", "lon": -77.00317566666666, "bike_id": "6a477ec5a58ed09771b7f3f33ed85f22", "fusion_lat": 0.0, "name": "6a477ec5a58ed09771b7f3f33ed85f22", "is_reserved": 0, "rental_uris": {"android": "https://dc.lft.to/lastmile_qr_scan", "ios": "https://dc.lft.to/lastmile_qr_scan"}, "fusion_lon": 0.0}, {"lat": 38.89610733333333, "is_disabled": 0, "type": "electric_scooter", "lon": -76.956537, "bike_id": "9f8ccff1cdfb7ae7077f373bfda80955", "fusion_lat": 0.0, "name": "9f8ccff1cdfb7ae7077f373bfda80955", "is_reserved": 0, "rental_uris": {"android": "https://dc.lft.to/lastmile_qr_scan", "ios": "https://dc.lft.to/lastmile_qr_scan"}, "fusion_lon": 0.0}, {"lat": 38.91377133333334, "is_disabled": 0, "type": "electric_scooter", "lon": -77.03208266666667, "bike_id": "1511aa02c668e6ca2f4963ee8100144c", "fusion_lat": 0.0, "name": "1511aa02c668e6ca2f4963ee8100144c", "is_reserved": 0, "rental_uris": {"android": "https://dc.lft.to/lastmile_qr_scan", "ios": "https://dc.lft.to/lastmile_qr_scan"}, "fusion_lon": 0.0}, {"lat": 38.897301666666664, "is_disabled": 0, "type": "electric_scooter", "lon": -77.0221205, "bike_id": "4b14816eadcaec6af2322a2021ab243e", "fusion_lat": 0.0, "name": "4b14816eadcaec6af2322a2021ab243e", "is_reserved": 0, "rental_uris": {"android": "https://dc.lft.to/lastmile_qr_scan", "ios": "https://dc.lft.to/lastmile_qr_scan"}, "fusion_lon": 0.0}, {"lat": 38.91113, "is_disabled": 0, "type": "electric_scooter", "lon": -77.02172733333333, "bike_id": "d8ceab478d7136d2e790d5d302133630", "fusion_lat": 0.0, "name": "d8ceab478d7136d2e790d5d302133630", "is_reserved": 0, "rental_uris": {"android": "https://dc.lft.to/lastmile_qr_scan", "ios": "https://dc.lft.to/lastmile_qr_scan"}, "fusion_lon": 0.0}, {"lat": 38.928847833333336, "is_disabled": 0, "type": "electric_scooter", "lon": -77.03870683333334, "bike_id": "24e80f678001ef0f322f1afc570eb117", "fusion_lat": 0.0, "name": "24e80f678001ef0f322f1afc570eb117", "is_reserved": 0, "rental_uris": {"android": "https://dc.lft.to/lastmile_qr_scan", "ios": "https://dc.lft.to/lastmile_qr_scan"}, "fusion_lon": 0.0}, {"lat": 38.8531515, "is_disabled": 0, "type": "electric_scooter", "lon": -76.9802335, "bike_id": "99741de1b8818b31e72aedaa98b44b1a", "fusion_lat": 0.0, "name": "99741de1b8818b31e72aedaa98b44b1a", "is_reserved": 0, "rental_uris": {"android": "https://dc.lft.to/lastmile_qr_scan", "ios": "https://dc.lft.to/lastmile_qr_scan"}, "fusion_lon": 0.0}, {"lat": 38.9275225, "is_disabled": 0, "type": "electric_scooter", "lon": -76.99624366666667, "bike_id": "1a2d852b28f7a5ec3f9205da3541b076", "fusion_lat": 0.0, "name": "1a2d852b28f7a5ec3f9205da3541b076", "is_reserved": 0, "rental_uris": {"android": "https://dc.lft.to/lastmile_qr_scan", "ios": "https://dc.lft.to/lastmile_qr_scan"}, "fusion_lon": 0.0}, {"lat": 38.9620525, "is_disabled": 0, "type": "electric_bike", "lon": -77.03512733333334, "bike_id": "a05348e12f964cde9a798e3a1054d067", "fusion_lat": 0.0, "name": "a05348e12f964cde9a798e3a1054d067", "is_reserved": 0, "rental_uris": {"android": "https://dc.lft.to/lastmile_qr_scan", "ios": "https://dc.lft.to/lastmile_qr_scan"}, "fusion_lon": 0.0}, {"lat": 38.874066166666665, "is_disabled": 0, "type": "electric_scooter", "lon": -77.0145135, "bike_id": "2fa569ea80550ba69451e2fb090b5c05", "fusion_lat": 0.0, "name": "2fa569ea80550ba69451e2fb090b5c05", "is_reserved": 0, "rental_uris": {"android": "https://dc.lft.to/lastmile_qr_scan", "ios": "https://dc.lft.to/lastmile_qr_scan"}, "fusion_lon": 0.0}, {"lat": 38.927727833333336, "is_disabled": 0, "type": "electric_scooter", "lon": -77.03255916666667, "bike_id": "4c91b4b57f65b3c36705a79e7185ac92", "fusion_lat": 0.0, "name": "4c91b4b57f65b3c36705a79e7185ac92", "is_reserved": 0, "rental_uris": {"android": "https://dc.lft.to/lastmile_qr_scan", "ios": "https://dc.lft.to/lastmile_qr_scan"}, "fusion_lon": 0.0}, {"lat": 38.926263166666665, "is_disabled": 0, "type": "electric_scooter", "lon": -77.04414816666667, "bike_id": "a54cb96f05570f4fd1dbc5c5016becf9", "fusion_lat": 0.0, "name": "a54cb96f05570f4fd1dbc5c5016becf9", "is_reserved": 0, "rental_uris": {"android": "https://dc.lft.to/lastmile_qr_scan", "ios": "https://dc.lft.to/lastmile_qr_scan"}, "fusion_lon": 0.0}, {"lat": 38.8812895, "is_disabled": 0, "type": "electric_scooter", "lon": -77.01974316666667, "bike_id": "142e4ca19f9d6af2fafd7f7da76f940b", "fusion_lat": 0.0, "name": "142e4ca19f9d6af2fafd7f7da76f940b", "is_reserved": 0, "rental_uris": {"android": "https://dc.lft.to/lastmile_qr_scan", "ios": "https://dc.lft.to/lastmile_qr_scan"}, "fusion_lon": 0.0}, {"lat": 38.89729066666666, "is_disabled": 0, "type": "electric_scooter", "lon": -77.0296365, "bike_id": "65f0834c128add35d64a5765a48eca7a", "fusion_lat": 0.0, "name": "65f0834c128add35d64a5765a48eca7a", "is_reserved": 0, "rental_uris": {"android": "https://dc.lft.to/lastmile_qr_scan", "ios": "https://dc.lft.to/lastmile_qr_scan"}, "fusion_lon": 0.0}, {"lat": 38.898858833333335, "is_disabled": 0, "type": "electric_scooter", "lon": -76.93178133333333, "bike_id": "a2d384fb27a8d873ca947532efb09b20", "fusion_lat": 0.0, "name": "a2d384fb27a8d873ca947532efb09b20", "is_reserved": 0, "rental_uris": {"android": "https://dc.lft.to/lastmile_qr_scan", "ios": "https://dc.lft.to/lastmile_qr_scan"}, "fusion_lon": 0.0}, {"lat": 38.90057183333333, "is_disabled": 0, "type": "electric_scooter", "lon": -77.02622016666666, "bike_id": "33d0c8887549d7645f441bfb8dca619b", "fusion_lat": 0.0, "name": "33d0c8887549d7645f441bfb8dca619b", "is_reserved": 0, "rental_uris": {"android": "https://dc.lft.to/lastmile_qr_scan", "ios": "https://dc.lft.to/lastmile_qr_scan"}, "fusion_lon": 0.0}, {"lat": 38.9224295, "is_disabled": 0, "type": "electric_scooter", "lon": -77.04573116666667, "bike_id": "3b078b4f453f6a737687889a877a070e", "fusion_lat": 0.0, "name": "3b078b4f453f6a737687889a877a070e", "is_reserved": 0, "rental_uris": {"android": "https://dc.lft.to/lastmile_qr_scan", "ios": "https://dc.lft.to/lastmile_qr_scan"}, "fusion_lon": 0.0}, {"lat": 38.90521966666667, "is_disabled": 0, "type": "electric_scooter", "lon": -77.06210316666666, "bike_id": "a7d65df8beb6c02e67353e6dc0f7a28c", "fusion_lat": 0.0, "name": "a7d65df8beb6c02e67353e6dc0f7a28c", "is_reserved": 0, "rental_uris": {"android": "https://dc.lft.to/lastmile_qr_scan", "ios": "https://dc.lft.to/lastmile_qr_scan"}, "fusion_lon": 0.0}, {"lat": 38.908325166666664, "is_disabled": 0, "type": "electric_scooter", "lon": -77.06387433333333, "bike_id": "8efb12a66715541a0ede8039ae7b9ae4", "fusion_lat": 0.0, "name": "8efb12a66715541a0ede8039ae7b9ae4", "is_reserved": 0, "rental_uris": {"android": "https://dc.lft.to/lastmile_qr_scan", "ios": "https://dc.lft.to/lastmile_qr_scan"}, "fusion_lon": 0.0}, {"lat": 38.897369833333336, "is_disabled": 0, "type": "electric_scooter", "lon": -77.0475965, "bike_id": "8931475670b55aa008df053f68825a48", "fusion_lat": 0.0, "name": "8931475670b55aa008df053f68825a48", "is_reserved": 0, "rental_uris": {"android": "https://dc.lft.to/lastmile_qr_scan", "ios": "https://dc.lft.to/lastmile_qr_scan"}, "fusion_lon": 0.0}, {"lat": 38.850574, "is_disabled": 0, "type": "electric_bike", "lon": -76.97315033333334, "bike_id": "79600acd6accfc2f7bddab106cb99395", "fusion_lat": 0.0, "name": "79600acd6accfc2f7bddab106cb99395", "is_reserved": 0, "rental_uris": {"android": "https://dc.lft.to/lastmile_qr_scan", "ios": "https://dc.lft.to/lastmile_qr_scan"}, "fusion_lon": 0.0}, {"lat": 38.9123055, "is_disabled": 0, "type": "electric_scooter", "lon": -77.0319505, "bike_id": "152c84872420eed5c7b3a8459dd3a7e9", "fusion_lat": 0.0, "name": "152c84872420eed5c7b3a8459dd3a7e9", "is_reserved": 0, "rental_uris": {"android": "https://dc.lft.to/lastmile_qr_scan", "ios": "https://dc.lft.to/lastmile_qr_scan"}, "fusion_lon": 0.0}, {"lat": 38.91917633333333, "is_disabled": 0, "type": "electric_scooter", "lon": -77.03125866666667, "bike_id": "433bc9070d2d2cbecd39ff144bf8a3a6", "fusion_lat": 0.0, "name": "433bc9070d2d2cbecd39ff144bf8a3a6", "is_reserved": 0, "rental_uris": {"android": "https://dc.lft.to/lastmile_qr_scan", "ios": "https://dc.lft.to/lastmile_qr_scan"}, "fusion_lon": 0.0}, {"lat": 38.906775833333334, "is_disabled": 0, "type": "electric_scooter", "lon": -77.0376765, "bike_id": "2f39f11820955d16e989771deb75a17e", "fusion_lat": 0.0, "name": "2f39f11820955d16e989771deb75a17e", "is_reserved": 0, "rental_uris": {"android": "https://dc.lft.to/lastmile_qr_scan", "ios": "https://dc.lft.to/lastmile_qr_scan"}, "fusion_lon": 0.0}, {"lat": 38.91853583333334, "is_disabled": 0, "type": "electric_scooter", "lon": -77.04119566666667, "bike_id": "1654b3b26c169b0014b95406153f055a", "fusion_lat": 0.0, "name": "1654b3b26c169b0014b95406153f055a", "is_reserved": 0, "rental_uris": {"android": "https://dc.lft.to/lastmile_qr_scan", "ios": "https://dc.lft.to/lastmile_qr_scan"}, "fusion_lon": 0.0}, {"lat": 38.914206166666666, "is_disabled": 0, "type": "electric_scooter", "lon": -77.03171933333333, "bike_id": "33cf7e5517c5e03ff375049f5f993382", "fusion_lat": 0.0, "name": "33cf7e5517c5e03ff375049f5f993382", "is_reserved": 0, "rental_uris": {"android": "https://dc.lft.to/lastmile_qr_scan", "ios": "https://dc.lft.to/lastmile_qr_scan"}, "fusion_lon": 0.0}, {"lat": 38.936093, "is_disabled": 0, "type": "electric_scooter", "lon": -77.058896, "bike_id": "b586f3129c33ce93129c586fe71c7eca", "fusion_lat": 0.0, "name": "b586f3129c33ce93129c586fe71c7eca", "is_reserved": 0, "rental_uris": {"android": "https://dc.lft.to/lastmile_qr_scan", "ios": "https://dc.lft.to/lastmile_qr_scan"}, "fusion_lon": 0.0}, {"lat": 38.938785833333334, "is_disabled": 0, "type": "electric_scooter", "lon": -77.03023466666667, "bike_id": "6c4b013cb00269f6f956b28ebc5f3e1a", "fusion_lat": 0.0, "name": "6c4b013cb00269f6f956b28ebc5f3e1a", "is_reserved": 0, "rental_uris": {"android": "https://dc.lft.to/lastmile_qr_scan", "ios": "https://dc.lft.to/lastmile_qr_scan"}, "fusion_lon": 0.0}, {"lat": 38.933280333333336, "is_disabled": 0, "type": "electric_scooter", "lon": -77.057017, "bike_id": "0f256c33916ba3f7c18f8ef091a6baae", "fusion_lat": 0.0, "name": "0f256c33916ba3f7c18f8ef091a6baae", "is_reserved": 0, "rental_uris": {"android": "https://dc.lft.to/lastmile_qr_scan", "ios": "https://dc.lft.to/lastmile_qr_scan"}, "fusion_lon": 0.0}, {"lat": 39.015977166666666, "is_disabled": 0, "type": "electric_bike", "lon": -77.04422966666667, "bike_id": "6a7e12be5b487403d30d43a6adce4655", "fusion_lat": 0.0, "name": "6a7e12be5b487403d30d43a6adce4655", "is_reserved": 0, "rental_uris": {"android": "https://dc.lft.to/lastmile_qr_scan", "ios": "https://dc.lft.to/lastmile_qr_scan"}, "fusion_lon": 0.0}, {"lat": 38.916971333333336, "is_disabled": 0, "type": "electric_scooter", "lon": -77.03473933333333, "bike_id": "8ccf4545125d3137e22f21c0507dff2b", "fusion_lat": 0.0, "name": "8ccf4545125d3137e22f21c0507dff2b", "is_reserved": 0, "rental_uris": {"android": "https://dc.lft.to/lastmile_qr_scan", "ios": "https://dc.lft.to/lastmile_qr_scan"}, "fusion_lon": 0.0}, {"lat": 38.884293, "is_disabled": 0, "type": "electric_scooter", "lon": -77.0305005, "bike_id": "2572a563c92f26100af68dde6eff462f", "fusion_lat": 0.0, "name": "2572a563c92f26100af68dde6eff462f", "is_reserved": 0, "rental_uris": {"android": "https://dc.lft.to/lastmile_qr_scan", "ios": "https://dc.lft.to/lastmile_qr_scan"}, "fusion_lon": 0.0}, {"lat": 38.900090666666664, "is_disabled": 0, "type": "electric_scooter", "lon": -76.998514, "bike_id": "05e236cc4530009010bbd8c42ea2fa20", "fusion_lat": 0.0, "name": "05e236cc4530009010bbd8c42ea2fa20", "is_reserved": 0, "rental_uris": {"android": "https://dc.lft.to/lastmile_qr_scan", "ios": "https://dc.lft.to/lastmile_qr_scan"}, "fusion_lon": 0.0}, {"lat": 38.94807, "is_disabled": 0, "type": "electric_scooter", "lon": -77.0790835, "bike_id": "6c6f24e6e765dad5fa523f21ea3144be", "fusion_lat": 0.0, "name": "6c6f24e6e765dad5fa523f21ea3144be", "is_reserved": 0, "rental_uris": {"android": "https://dc.lft.to/lastmile_qr_scan", "ios": "https://dc.lft.to/lastmile_qr_scan"}, "fusion_lon": 0.0}, {"lat": 38.9108275, "is_disabled": 0, "type": "electric_scooter", "lon": -77.07642883333334, "bike_id": "fc9e3fe44d66a756620188a64e937ccd", "fusion_lat": 0.0, "name": "fc9e3fe44d66a756620188a64e937ccd", "is_reserved": 0, "rental_uris": {"android": "https://dc.lft.to/lastmile_qr_scan", "ios": "https://dc.lft.to/lastmile_qr_scan"}, "fusion_lon": 0.0}, {"lat": 38.8912675, "is_disabled": 0, "type": "electric_scooter", "lon": -76.94092816666667, "bike_id": "092ea95905df952ea539448ac3e23103", "fusion_lat": 0.0, "name": "092ea95905df952ea539448ac3e23103", "is_reserved": 0, "rental_uris": {"android": "https://dc.lft.to/lastmile_qr_scan", "ios": "https://dc.lft.to/lastmile_qr_scan"}, "fusion_lon": 0.0}, {"lat": 38.904662, "is_disabled": 0, "type": "electric_scooter", "lon": -77.03228783333333, "bike_id": "96792308903d2bd9bed14ebec29d314c", "fusion_lat": 0.0, "name": "96792308903d2bd9bed14ebec29d314c", "is_reserved": 0, "rental_uris": {"android": "https://dc.lft.to/lastmile_qr_scan", "ios": "https://dc.lft.to/lastmile_qr_scan"}, "fusion_lon": 0.0}, {"lat": 38.908202333333335, "is_disabled": 0, "type": "electric_scooter", "lon": -77.04269366666666, "bike_id": "38c93b601416e84753ad85fae5ecdd42", "fusion_lat": 0.0, "name": "38c93b601416e84753ad85fae5ecdd42", "is_reserved": 0, "rental_uris": {"android": "https://dc.lft.to/lastmile_qr_scan", "ios": "https://dc.lft.to/lastmile_qr_scan"}, "fusion_lon": 0.0}, {"lat": 38.928831333333335, "is_disabled": 0, "type": "electric_scooter", "lon": -77.03286966666667, "bike_id": "c2f6ef0d6ed7534ad275c7456d46cc75", "fusion_lat": 0.0, "name": "c2f6ef0d6ed7534ad275c7456d46cc75", "is_reserved": 0, "rental_uris": {"android": "https://dc.lft.to/lastmile_qr_scan", "ios": "https://dc.lft.to/lastmile_qr_scan"}, "fusion_lon": 0.0}, {"lat": 38.92206683333333, "is_disabled": 0, "type": "electric_scooter", "lon": -77.0425245, "bike_id": "43d24c6d3a3c180ab476dac5a001d72b", "fusion_lat": 0.0, "name": "43d24c6d3a3c180ab476dac5a001d72b", "is_reserved": 0, "rental_uris": {"android": "https://dc.lft.to/lastmile_qr_scan", "ios": "https://dc.lft.to/lastmile_qr_scan"}, "fusion_lon": 0.0}, {"lat": 38.918289, "is_disabled": 0, "type": "electric_scooter", "lon": -77.0344485, "bike_id": "d75794ab13baf28493f0863943f4f12a", "fusion_lat": 0.0, "name": "d75794ab13baf28493f0863943f4f12a", "is_reserved": 0, "rental_uris": {"android": "https://dc.lft.to/lastmile_qr_scan", "ios": "https://dc.lft.to/lastmile_qr_scan"}, "fusion_lon": 0.0}, {"lat": 38.885129166666665, "is_disabled": 0, "type": "electric_scooter", "lon": -77.005723, "bike_id": "bb42dcec4201b27d5d299ef7a923063d", "fusion_lat": 0.0, "name": "bb42dcec4201b27d5d299ef7a923063d", "is_reserved": 0, "rental_uris": {"android": "https://dc.lft.to/lastmile_qr_scan", "ios": "https://dc.lft.to/lastmile_qr_scan"}, "fusion_lon": 0.0}, {"lat": 38.89513766666666, "is_disabled": 0, "type": "electric_scooter", "lon": -77.0436305, "bike_id": "92a24b8c1a6b82ad95608fdb2eb548e2", "fusion_lat": 0.0, "name": "92a24b8c1a6b82ad95608fdb2eb548e2", "is_reserved": 0, "rental_uris": {"android": "https://dc.lft.to/lastmile_qr_scan", "ios": "https://dc.lft.to/lastmile_qr_scan"}, "fusion_lon": 0.0}, {"lat": 38.90734616666667, "is_disabled": 0, "type": "electric_scooter", "lon": -77.04828216666667, "bike_id": "73064829967c932608e755404757ce15", "fusion_lat": 0.0, "name": "73064829967c932608e755404757ce15", "is_reserved": 0, "rental_uris": {"android": "https://dc.lft.to/lastmile_qr_scan", "ios": "https://dc.lft.to/lastmile_qr_scan"}, "fusion_lon": 0.0}, {"lat": 38.92181, "is_disabled": 0, "type": "electric_scooter", "lon": -77.04225066666666, "bike_id": "57dbacb7c7463618ba2aa62aee3e440d", "fusion_lat": 0.0, "name": "57dbacb7c7463618ba2aa62aee3e440d", "is_reserved": 0, "rental_uris": {"android": "https://dc.lft.to/lastmile_qr_scan", "ios": "https://dc.lft.to/lastmile_qr_scan"}, "fusion_lon": 0.0}, {"lat": 39.030526333333334, "is_disabled": 0, "type": "electric_bike", "lon": -77.09485616666667, "bike_id": "f88da0afde55a1b212a1e7e8b1d29957", "fusion_lat": 0.0, "name": "f88da0afde55a1b212a1e7e8b1d29957", "is_reserved": 0, "rental_uris": {"android": "https://dc.lft.to/lastmile_qr_scan", "ios": "https://dc.lft.to/lastmile_qr_scan"}, "fusion_lon": 0.0}, {"lat": 38.909707, "is_disabled": 0, "type": "electric_scooter", "lon": -77.04509416666667, "bike_id": "99b3785e1f6097b954e42d57304dc9ee", "fusion_lat": 0.0, "name": "99b3785e1f6097b954e42d57304dc9ee", "is_reserved": 0, "rental_uris": {"android": "https://dc.lft.to/lastmile_qr_scan", "ios": "https://dc.lft.to/lastmile_qr_scan"}, "fusion_lon": 0.0}, {"lat": 38.91714733333333, "is_disabled": 0, "type": "electric_scooter", "lon": -77.03554166666666, "bike_id": "b3ae53957dbb52fa58d2ea467ddc4e8f", "fusion_lat": 0.0, "name": "b3ae53957dbb52fa58d2ea467ddc4e8f", "is_reserved": 0, "rental_uris": {"android": "https://dc.lft.to/lastmile_qr_scan", "ios": "https://dc.lft.to/lastmile_qr_scan"}, "fusion_lon": 0.0}, {"lat": 38.9368215, "is_disabled": 0, "type": "electric_scooter", "lon": -77.03574216666667, "bike_id": "7b61fae959a1d114c2970958293fe2c7", "fusion_lat": 0.0, "name": "7b61fae959a1d114c2970958293fe2c7", "is_reserved": 0, "rental_uris": {"android": "https://dc.lft.to/lastmile_qr_scan", "ios": "https://dc.lft.to/lastmile_qr_scan"}, "fusion_lon": 0.0}, {"lat": 38.9236745, "is_disabled": 0, "type": "electric_bike", "lon": -77.04408183333334, "bike_id": "72d247b5616a2342cd1ebffe81913153", "fusion_lat": 0.0, "name": "72d247b5616a2342cd1ebffe81913153", "is_reserved": 0, "rental_uris": {"android": "https://dc.lft.to/lastmile_qr_scan", "ios": "https://dc.lft.to/lastmile_qr_scan"}, "fusion_lon": 0.0}, {"lat": 38.923302, "is_disabled": 0, "type": "electric_scooter", "lon": -77.0390505, "bike_id": "8544dac2a265cea3715b1dc0d65cd42b", "fusion_lat": 0.0, "name": "8544dac2a265cea3715b1dc0d65cd42b", "is_reserved": 0, "rental_uris": {"android": "https://dc.lft.to/lastmile_qr_scan", "ios": "https://dc.lft.to/lastmile_qr_scan"}, "fusion_lon": 0.0}, {"lat": 38.92905433333333, "is_disabled": 0, "type": "electric_scooter", "lon": -77.0325845, "bike_id": "43306364134f1c803fc3dcd5f9b08157", "fusion_lat": 0.0, "name": "43306364134f1c803fc3dcd5f9b08157", "is_reserved": 0, "rental_uris": {"android": "https://dc.lft.to/lastmile_qr_scan", "ios": "https://dc.lft.to/lastmile_qr_scan"}, "fusion_lon": 0.0}, {"lat": 38.88494716666666, "is_disabled": 0, "type": "electric_scooter", "lon": -77.00704383333333, "bike_id": "a306ffe25c5e08a8029d14335b45569f", "fusion_lat": 0.0, "name": "a306ffe25c5e08a8029d14335b45569f", "is_reserved": 0, "rental_uris": {"android": "https://dc.lft.to/lastmile_qr_scan", "ios": "https://dc.lft.to/lastmile_qr_scan"}, "fusion_lon": 0.0}, {"lat": 38.84935983333333, "is_disabled": 0, "type": "electric_bike", "lon": -77.100175, "bike_id": "8243100a63f334bcc4c2ffc49c2674d0", "fusion_lat": 0.0, "name": "8243100a63f334bcc4c2ffc49c2674d0", "is_reserved": 0, "rental_uris": {"android": "https://dc.lft.to/lastmile_qr_scan", "ios": "https://dc.lft.to/lastmile_qr_scan"}, "fusion_lon": 0.0}, {"lat": 38.92365933333333, "is_disabled": 0, "type": "electric_scooter", "lon": -77.04029533333333, "bike_id": "175c07beb128e5fe012a182d5e4ecbef", "fusion_lat": 0.0, "name": "175c07beb128e5fe012a182d5e4ecbef", "is_reserved": 0, "rental_uris": {"android": "https://dc.lft.to/lastmile_qr_scan", "ios": "https://dc.lft.to/lastmile_qr_scan"}, "fusion_lon": 0.0}, {"lat": 38.893717, "is_disabled": 0, "type": "electric_scooter", "lon": -76.949986, "bike_id": "2679edc8ff07b1d0b3b866ee988e51f3", "fusion_lat": 0.0, "name": "2679edc8ff07b1d0b3b866ee988e51f3", "is_reserved": 0, "rental_uris": {"android": "https://dc.lft.to/lastmile_qr_scan", "ios": "https://dc.lft.to/lastmile_qr_scan"}, "fusion_lon": 0.0}, {"lat": 38.9178785, "is_disabled": 0, "type": "electric_scooter", "lon": -77.02311666666667, "bike_id": "7dcce44a5bb6c4990a387ff583ed06e0", "fusion_lat": 0.0, "name": "7dcce44a5bb6c4990a387ff583ed06e0", "is_reserved": 0, "rental_uris": {"android": "https://dc.lft.to/lastmile_qr_scan", "ios": "https://dc.lft.to/lastmile_qr_scan"}, "fusion_lon": 0.0}, {"lat": 38.842893, "is_disabled": 0, "type": "electric_bike", "lon": -76.988383, "bike_id": "744cc5b2bf72083960c00986925339c7", "fusion_lat": 0.0, "name": "744cc5b2bf72083960c00986925339c7", "is_reserved": 0, "rental_uris": {"android": "https://dc.lft.to/lastmile_qr_scan", "ios": "https://dc.lft.to/lastmile_qr_scan"}, "fusion_lon": 0.0}, {"lat": 38.9213865, "is_disabled": 0, "type": "electric_scooter", "lon": -77.01038533333333, "bike_id": "919aa814c6b45ef2e74d4939322d2a69", "fusion_lat": 0.0, "name": "919aa814c6b45ef2e74d4939322d2a69", "is_reserved": 0, "rental_uris": {"android": "https://dc.lft.to/lastmile_qr_scan", "ios": "https://dc.lft.to/lastmile_qr_scan"}, "fusion_lon": 0.0}, {"lat": 38.86630816666667, "is_disabled": 0, "type": "electric_scooter", "lon": -76.98695366666666, "bike_id": "a63eec2e3290375166976670d4f6207c", "fusion_lat": 0.0, "name": "a63eec2e3290375166976670d4f6207c", "is_reserved": 0, "rental_uris": {"android": "https://dc.lft.to/lastmile_qr_scan", "ios": "https://dc.lft.to/lastmile_qr_scan"}, "fusion_lon": 0.0}, {"lat": 38.8429655, "is_disabled": 0, "type": "electric_scooter", "lon": -76.99943266666666, "bike_id": "f5c8c686218a5483f9ec751be3d12154", "fusion_lat": 0.0, "name": "f5c8c686218a5483f9ec751be3d12154", "is_reserved": 0, "rental_uris": {"android": "https://dc.lft.to/lastmile_qr_scan", "ios": "https://dc.lft.to/lastmile_qr_scan"}, "fusion_lon": 0.0}, {"lat": 38.930665833333336, "is_disabled": 0, "type": "electric_scooter", "lon": -77.02823666666667, "bike_id": "a0522bc70bd1d981348ecc03ff384a66", "fusion_lat": 0.0, "name": "a0522bc70bd1d981348ecc03ff384a66", "is_reserved": 0, "rental_uris": {"android": "https://dc.lft.to/lastmile_qr_scan", "ios": "https://dc.lft.to/lastmile_qr_scan"}, "fusion_lon": 0.0}, {"lat": 38.9185845, "is_disabled": 0, "type": "electric_scooter", "lon": -77.0322155, "bike_id": "7966214093737a1558babc0fc698d59d", "fusion_lat": 0.0, "name": "7966214093737a1558babc0fc698d59d", "is_reserved": 0, "rental_uris": {"android": "https://dc.lft.to/lastmile_qr_scan", "ios": "https://dc.lft.to/lastmile_qr_scan"}, "fusion_lon": 0.0}, {"lat": 38.90911116666667, "is_disabled": 0, "type": "electric_scooter", "lon": -77.027128, "bike_id": "d7ed7076e5d11f27a0e15242c6b2d849", "fusion_lat": 0.0, "name": "d7ed7076e5d11f27a0e15242c6b2d849", "is_reserved": 0, "rental_uris": {"android": "https://dc.lft.to/lastmile_qr_scan", "ios": "https://dc.lft.to/lastmile_qr_scan"}, "fusion_lon": 0.0}, {"lat": 38.90088133333333, "is_disabled": 0, "type": "electric_scooter", "lon": -77.05005483333333, "bike_id": "6914aec3caac03a65edc87446d02f040", "fusion_lat": 0.0, "name": "6914aec3caac03a65edc87446d02f040", "is_reserved": 0, "rental_uris": {"android": "https://dc.lft.to/lastmile_qr_scan", "ios": "https://dc.lft.to/lastmile_qr_scan"}, "fusion_lon": 0.0}, {"lat": 38.908140833333334, "is_disabled": 0, "type": "electric_scooter", "lon": -77.04350266666667, "bike_id": "d1c1babec61dcfb82a79b54d3981660b", "fusion_lat": 0.0, "name": "d1c1babec61dcfb82a79b54d3981660b", "is_reserved": 0, "rental_uris": {"android": "https://dc.lft.to/lastmile_qr_scan", "ios": "https://dc.lft.to/lastmile_qr_scan"}, "fusion_lon": 0.0}, {"lat": 38.908482666666664, "is_disabled": 0, "type": "electric_scooter", "lon": -77.02065483333334, "bike_id": "47bf22aa1f06db21f2c9938065780eaa", "fusion_lat": 0.0, "name": "47bf22aa1f06db21f2c9938065780eaa", "is_reserved": 0, "rental_uris": {"android": "https://dc.lft.to/lastmile_qr_scan", "ios": "https://dc.lft.to/lastmile_qr_scan"}, "fusion_lon": 0.0}, {"lat": 38.9088185, "is_disabled": 0, "type": "electric_scooter", "lon": -77.04350716666667, "bike_id": "d5fb1f55dc52ea496e2f44c2fb9edb56", "fusion_lat": 0.0, "name": "d5fb1f55dc52ea496e2f44c2fb9edb56", "is_reserved": 0, "rental_uris": {"android": "https://dc.lft.to/lastmile_qr_scan", "ios": "https://dc.lft.to/lastmile_qr_scan"}, "fusion_lon": 0.0}, {"lat": 38.91265933333333, "is_disabled": 0, "type": "electric_scooter", "lon": -77.03796133333333, "bike_id": "d32d6b82941eb334228186c997c5b1a5", "fusion_lat": 0.0, "name": "d32d6b82941eb334228186c997c5b1a5", "is_reserved": 0, "rental_uris": {"android": "https://dc.lft.to/lastmile_qr_scan", "ios": "https://dc.lft.to/lastmile_qr_scan"}, "fusion_lon": 0.0}, {"lat": 38.908917333333335, "is_disabled": 0, "type": "electric_scooter", "lon": -77.0434495, "bike_id": "7a4216935841021ac40f6e0bccb9b26c", "fusion_lat": 0.0, "name": "7a4216935841021ac40f6e0bccb9b26c", "is_reserved": 0, "rental_uris": {"android": "https://dc.lft.to/lastmile_qr_scan", "ios": "https://dc.lft.to/lastmile_qr_scan"}, "fusion_lon": 0.0}, {"lat": 38.945037666666664, "is_disabled": 0, "type": "electric_scooter", "lon": -77.015471, "bike_id": "fb7f9d038c5a0d325557e12f06236a63", "fusion_lat": 0.0, "name": "fb7f9d038c5a0d325557e12f06236a63", "is_reserved": 0, "rental_uris": {"android": "https://dc.lft.to/lastmile_qr_scan", "ios": "https://dc.lft.to/lastmile_qr_scan"}, "fusion_lon": 0.0}, {"lat": 38.91352666666667, "is_disabled": 0, "type": "electric_scooter", "lon": -77.03182666666666, "bike_id": "ce4b11ec46a23936139f7549a5612b25", "fusion_lat": 0.0, "name": "ce4b11ec46a23936139f7549a5612b25", "is_reserved": 0, "rental_uris": {"android": "https://dc.lft.to/lastmile_qr_scan", "ios": "https://dc.lft.to/lastmile_qr_scan"}, "fusion_lon": 0.0}, {"lat": 38.921852, "is_disabled": 0, "type": "electric_scooter", "lon": -77.02978266666666, "bike_id": "8eb01951db4ab0542ea5e2be0a0815c0", "fusion_lat": 0.0, "name": "8eb01951db4ab0542ea5e2be0a0815c0", "is_reserved": 0, "rental_uris": {"android": "https://dc.lft.to/lastmile_qr_scan", "ios": "https://dc.lft.to/lastmile_qr_scan"}, "fusion_lon": 0.0}, {"lat": 38.917177833333334, "is_disabled": 0, "type": "electric_scooter", "lon": -77.0385575, "bike_id": "d9e85f47bf58bc77eab40bcf37016081", "fusion_lat": 0.0, "name": "d9e85f47bf58bc77eab40bcf37016081", "is_reserved": 0, "rental_uris": {"android": "https://dc.lft.to/lastmile_qr_scan", "ios": "https://dc.lft.to/lastmile_qr_scan"}, "fusion_lon": 0.0}, {"lat": 38.79310133333333, "is_disabled": 0, "type": "electric_bike", "lon": -77.04925, "bike_id": "10de8438a76e0d3d2ad8ce36f31269a4", "fusion_lat": 0.0, "name": "10de8438a76e0d3d2ad8ce36f31269a4", "is_reserved": 0, "rental_uris": {"android": "https://dc.lft.to/lastmile_qr_scan", "ios": "https://dc.lft.to/lastmile_qr_scan"}, "fusion_lon": 0.0}, {"lat": 38.89586583333333, "is_disabled": 0, "type": "electric_scooter", "lon": -77.04360266666667, "bike_id": "b2adc79cbb568a378e48909caccf26b3", "fusion_lat": 0.0, "name": "b2adc79cbb568a378e48909caccf26b3", "is_reserved": 0, "rental_uris": {"android": "https://dc.lft.to/lastmile_qr_scan", "ios": "https://dc.lft.to/lastmile_qr_scan"}, "fusion_lon": 0.0}, {"lat": 38.902163, "is_disabled": 0, "type": "electric_scooter", "lon": -76.98841666666667, "bike_id": "135875c70db5c6c952827fd698d4bc72", "fusion_lat": 0.0, "name": "135875c70db5c6c952827fd698d4bc72", "is_reserved": 0, "rental_uris": {"android": "https://dc.lft.to/lastmile_qr_scan", "ios": "https://dc.lft.to/lastmile_qr_scan"}, "fusion_lon": 0.0}, {"lat": 38.9465625, "is_disabled": 0, "type": "electric_scooter", "lon": -77.06476266666667, "bike_id": "037bc5dbc3bec5b08f9d1a09a335489d", "fusion_lat": 0.0, "name": "037bc5dbc3bec5b08f9d1a09a335489d", "is_reserved": 0, "rental_uris": {"android": "https://dc.lft.to/lastmile_qr_scan", "ios": "https://dc.lft.to/lastmile_qr_scan"}, "fusion_lon": 0.0}, {"lat": 38.896603999999996, "is_disabled": 0, "type": "electric_scooter", "lon": -77.0091385, "bike_id": "6ba9e80d3f33ee5da697e2dba7ca2b6e", "fusion_lat": 0.0, "name": "6ba9e80d3f33ee5da697e2dba7ca2b6e", "is_reserved": 0, "rental_uris": {"android": "https://dc.lft.to/lastmile_qr_scan", "ios": "https://dc.lft.to/lastmile_qr_scan"}, "fusion_lon": 0.0}, {"lat": 38.920608666666666, "is_disabled": 0, "type": "electric_scooter", "lon": -77.0334235, "bike_id": "31985936bf3ba00a948223529eb3c83d", "fusion_lat": 0.0, "name": "31985936bf3ba00a948223529eb3c83d", "is_reserved": 0, "rental_uris": {"android": "https://dc.lft.to/lastmile_qr_scan", "ios": "https://dc.lft.to/lastmile_qr_scan"}, "fusion_lon": 0.0}, {"lat": 38.924858666666665, "is_disabled": 0, "type": "electric_scooter", "lon": -77.0394485, "bike_id": "a060190663811e12b9b2dcee0db6d77c", "fusion_lat": 0.0, "name": "a060190663811e12b9b2dcee0db6d77c", "is_reserved": 0, "rental_uris": {"android": "https://dc.lft.to/lastmile_qr_scan", "ios": "https://dc.lft.to/lastmile_qr_scan"}, "fusion_lon": 0.0}, {"lat": 38.9192545, "is_disabled": 0, "type": "electric_scooter", "lon": -77.0338835, "bike_id": "d86c261a38b2bd6dd9d3554d8431a42b", "fusion_lat": 0.0, "name": "d86c261a38b2bd6dd9d3554d8431a42b", "is_reserved": 0, "rental_uris": {"android": "https://dc.lft.to/lastmile_qr_scan", "ios": "https://dc.lft.to/lastmile_qr_scan"}, "fusion_lon": 0.0}, {"lat": 38.92665016666667, "is_disabled": 0, "type": "electric_scooter", "lon": -77.055932, "bike_id": "3b96b19e2e4df39ce8533b1e8d24d621", "fusion_lat": 0.0, "name": "3b96b19e2e4df39ce8533b1e8d24d621", "is_reserved": 0, "rental_uris": {"android": "https://dc.lft.to/lastmile_qr_scan", "ios": "https://dc.lft.to/lastmile_qr_scan"}, "fusion_lon": 0.0}, {"lat": 38.898884333333335, "is_disabled": 0, "type": "electric_scooter", "lon": -77.02800933333333, "bike_id": "20472237eb24a71a4961c5c561ea526a", "fusion_lat": 0.0, "name": "20472237eb24a71a4961c5c561ea526a", "is_reserved": 0, "rental_uris": {"android": "https://dc.lft.to/lastmile_qr_scan", "ios": "https://dc.lft.to/lastmile_qr_scan"}, "fusion_lon": 0.0}, {"lat": 38.91971816666667, "is_disabled": 0, "type": "electric_scooter", "lon": -77.039568, "bike_id": "95ada39b2b02ffbe3931d69ac320187a", "fusion_lat": 0.0, "name": "95ada39b2b02ffbe3931d69ac320187a", "is_reserved": 0, "rental_uris": {"android": "https://dc.lft.to/lastmile_qr_scan", "ios": "https://dc.lft.to/lastmile_qr_scan"}, "fusion_lon": 0.0}, {"lat": 38.8955085, "is_disabled": 0, "type": "electric_scooter", "lon": -76.9338515, "bike_id": "24115cb40ceb44bd5d5db4eb655ff009", "fusion_lat": 0.0, "name": "24115cb40ceb44bd5d5db4eb655ff009", "is_reserved": 0, "rental_uris": {"android": "https://dc.lft.to/lastmile_qr_scan", "ios": "https://dc.lft.to/lastmile_qr_scan"}, "fusion_lon": 0.0}, {"lat": 38.909744833333335, "is_disabled": 0, "type": "electric_scooter", "lon": -77.02166233333334, "bike_id": "e1c6f08059d7b21cbacf4e10e0f6ac23", "fusion_lat": 0.0, "name": "e1c6f08059d7b21cbacf4e10e0f6ac23", "is_reserved": 0, "rental_uris": {"android": "https://dc.lft.to/lastmile_qr_scan", "ios": "https://dc.lft.to/lastmile_qr_scan"}, "fusion_lon": 0.0}, {"lat": 38.902686, "is_disabled": 0, "type": "electric_scooter", "lon": -77.03457783333333, "bike_id": "0165837fe0eb00f1661b1cda1d0a18b8", "fusion_lat": 0.0, "name": "0165837fe0eb00f1661b1cda1d0a18b8", "is_reserved": 0, "rental_uris": {"android": "https://dc.lft.to/lastmile_qr_scan", "ios": "https://dc.lft.to/lastmile_qr_scan"}, "fusion_lon": 0.0}, {"lat": 38.92475916666667, "is_disabled": 0, "type": "electric_scooter", "lon": -77.03970666666666, "bike_id": "0d77bd52eb2114fb1622f605e8ba8cbb", "fusion_lat": 0.0, "name": "0d77bd52eb2114fb1622f605e8ba8cbb", "is_reserved": 0, "rental_uris": {"android": "https://dc.lft.to/lastmile_qr_scan", "ios": "https://dc.lft.to/lastmile_qr_scan"}, "fusion_lon": 0.0}, {"lat": 38.903635, "is_disabled": 0, "type": "electric_scooter", "lon": -76.97649616666666, "bike_id": "f2fb38a2c258df05ac587d1cb49cd078", "fusion_lat": 0.0, "name": "f2fb38a2c258df05ac587d1cb49cd078", "is_reserved": 0, "rental_uris": {"android": "https://dc.lft.to/lastmile_qr_scan", "ios": "https://dc.lft.to/lastmile_qr_scan"}, "fusion_lon": 0.0}, {"lat": 38.860009166666664, "is_disabled": 0, "type": "electric_scooter", "lon": -76.985464, "bike_id": "5598aa8390ea683415eed5e42a593115", "fusion_lat": 0.0, "name": "5598aa8390ea683415eed5e42a593115", "is_reserved": 0, "rental_uris": {"android": "https://dc.lft.to/lastmile_qr_scan", "ios": "https://dc.lft.to/lastmile_qr_scan"}, "fusion_lon": 0.0}, {"lat": 38.9232835, "is_disabled": 0, "type": "electric_scooter", "lon": -77.03527016666666, "bike_id": "661506f4403cb6574b217616968bc7c3", "fusion_lat": 0.0, "name": "661506f4403cb6574b217616968bc7c3", "is_reserved": 0, "rental_uris": {"android": "https://dc.lft.to/lastmile_qr_scan", "ios": "https://dc.lft.to/lastmile_qr_scan"}, "fusion_lon": 0.0}, {"lat": 38.91225416666666, "is_disabled": 0, "type": "electric_scooter", "lon": -77.03441916666667, "bike_id": "c77b31a19673d7c755972511cef66134", "fusion_lat": 0.0, "name": "c77b31a19673d7c755972511cef66134", "is_reserved": 0, "rental_uris": {"android": "https://dc.lft.to/lastmile_qr_scan", "ios": "https://dc.lft.to/lastmile_qr_scan"}, "fusion_lon": 0.0}, {"lat": 38.940847, "is_disabled": 0, "type": "electric_scooter", "lon": -77.0350065, "bike_id": "df970f93379ae8fefc99acabad3ded2e", "fusion_lat": 0.0, "name": "df970f93379ae8fefc99acabad3ded2e", "is_reserved": 0, "rental_uris": {"android": "https://dc.lft.to/lastmile_qr_scan", "ios": "https://dc.lft.to/lastmile_qr_scan"}, "fusion_lon": 0.0}, {"lat": 38.90575033333333, "is_disabled": 0, "type": "electric_scooter", "lon": -77.02205666666667, "bike_id": "d6f0fc76cd9fb8dda80994eb084cf8b2", "fusion_lat": 0.0, "name": "d6f0fc76cd9fb8dda80994eb084cf8b2", "is_reserved": 0, "rental_uris": {"android": "https://dc.lft.to/lastmile_qr_scan", "ios": "https://dc.lft.to/lastmile_qr_scan"}, "fusion_lon": 0.0}, {"lat": 38.9003675, "is_disabled": 0, "type": "electric_scooter", "lon": -77.00199633333334, "bike_id": "49513952c155ae311cc3a39fde3fdd0b", "fusion_lat": 0.0, "name": "49513952c155ae311cc3a39fde3fdd0b", "is_reserved": 0, "rental_uris": {"android": "https://dc.lft.to/lastmile_qr_scan", "ios": "https://dc.lft.to/lastmile_qr_scan"}, "fusion_lon": 0.0}, {"lat": 38.876318, "is_disabled": 0, "type": "electric_scooter", "lon": -76.96529883333334, "bike_id": "3c72536a24fc79ea070fdd189cdcbf1d", "fusion_lat": 0.0, "name": "3c72536a24fc79ea070fdd189cdcbf1d", "is_reserved": 0, "rental_uris": {"android": "https://dc.lft.to/lastmile_qr_scan", "ios": "https://dc.lft.to/lastmile_qr_scan"}, "fusion_lon": 0.0}, {"lat": 38.90584666666667, "is_disabled": 0, "type": "electric_scooter", "lon": -77.04656333333334, "bike_id": "0fd3a364a06c992189fb19d09e6fb1ad", "fusion_lat": 0.0, "name": "0fd3a364a06c992189fb19d09e6fb1ad", "is_reserved": 0, "rental_uris": {"android": "https://dc.lft.to/lastmile_qr_scan", "ios": "https://dc.lft.to/lastmile_qr_scan"}, "fusion_lon": 0.0}, {"lat": 38.94094883333333, "is_disabled": 0, "type": "electric_scooter", "lon": -77.03281616666666, "bike_id": "676e61a7ce7144ec030442ee1eb6bd5a", "fusion_lat": 0.0, "name": "676e61a7ce7144ec030442ee1eb6bd5a", "is_reserved": 0, "rental_uris": {"android": "https://dc.lft.to/lastmile_qr_scan", "ios": "https://dc.lft.to/lastmile_qr_scan"}, "fusion_lon": 0.0}, {"lat": 38.950756, "is_disabled": 0, "type": "electric_scooter", "lon": -77.06655116666667, "bike_id": "4196008a9bc800112e7cd54145dd9be1", "fusion_lat": 0.0, "name": "4196008a9bc800112e7cd54145dd9be1", "is_reserved": 0, "rental_uris": {"android": "https://dc.lft.to/lastmile_qr_scan", "ios": "https://dc.lft.to/lastmile_qr_scan"}, "fusion_lon": 0.0}, {"lat": 38.9303035, "is_disabled": 0, "type": "electric_scooter", "lon": -77.02353316666667, "bike_id": "cac4be27315bf276e20b30f040551c91", "fusion_lat": 0.0, "name": "cac4be27315bf276e20b30f040551c91", "is_reserved": 0, "rental_uris": {"android": "https://dc.lft.to/lastmile_qr_scan", "ios": "https://dc.lft.to/lastmile_qr_scan"}, "fusion_lon": 0.0}, {"lat": 38.842956666666666, "is_disabled": 0, "type": "electric_scooter", "lon": -76.99945466666667, "bike_id": "c44b0751f2c3fd37c51e303d80b5802a", "fusion_lat": 0.0, "name": "c44b0751f2c3fd37c51e303d80b5802a", "is_reserved": 0, "rental_uris": {"android": "https://dc.lft.to/lastmile_qr_scan", "ios": "https://dc.lft.to/lastmile_qr_scan"}, "fusion_lon": 0.0}, {"lat": 38.90061033333333, "is_disabled": 0, "type": "electric_scooter", "lon": -77.04401416666667, "bike_id": "251926b55f7e04dd60db7f20b7e07327", "fusion_lat": 0.0, "name": "251926b55f7e04dd60db7f20b7e07327", "is_reserved": 0, "rental_uris": {"android": "https://dc.lft.to/lastmile_qr_scan", "ios": "https://dc.lft.to/lastmile_qr_scan"}, "fusion_lon": 0.0}, {"lat": 38.907349833333335, "is_disabled": 0, "type": "electric_scooter", "lon": -77.04782616666667, "bike_id": "1a74709999d4ca339b58e6b004595013", "fusion_lat": 0.0, "name": "1a74709999d4ca339b58e6b004595013", "is_reserved": 0, "rental_uris": {"android": "https://dc.lft.to/lastmile_qr_scan", "ios": "https://dc.lft.to/lastmile_qr_scan"}, "fusion_lon": 0.0}, {"lat": 38.892394833333334, "is_disabled": 0, "type": "electric_scooter", "lon": -77.03958716666666, "bike_id": "74d318971646637ef44cc0feff092be2", "fusion_lat": 0.0, "name": "74d318971646637ef44cc0feff092be2", "is_reserved": 0, "rental_uris": {"android": "https://dc.lft.to/lastmile_qr_scan", "ios": "https://dc.lft.to/lastmile_qr_scan"}, "fusion_lon": 0.0}, {"lat": 38.90099416666666, "is_disabled": 0, "type": "electric_scooter", "lon": -77.049831, "bike_id": "13154a88cd7442b73f42a94fd0e0bc3a", "fusion_lat": 0.0, "name": "13154a88cd7442b73f42a94fd0e0bc3a", "is_reserved": 0, "rental_uris": {"android": "https://dc.lft.to/lastmile_qr_scan", "ios": "https://dc.lft.to/lastmile_qr_scan"}, "fusion_lon": 0.0}, {"lat": 38.9051355, "is_disabled": 0, "type": "electric_scooter", "lon": -77.067641, "bike_id": "7373865bac011de9364adc94e3117b6b", "fusion_lat": 0.0, "name": "7373865bac011de9364adc94e3117b6b", "is_reserved": 0, "rental_uris": {"android": "https://dc.lft.to/lastmile_qr_scan", "ios": "https://dc.lft.to/lastmile_qr_scan"}, "fusion_lon": 0.0}, {"lat": 38.90066216666666, "is_disabled": 0, "type": "electric_scooter", "lon": -76.93383166666666, "bike_id": "1e7c9ab4a5e1dcc7305d42b80e4c7272", "fusion_lat": 0.0, "name": "1e7c9ab4a5e1dcc7305d42b80e4c7272", "is_reserved": 0, "rental_uris": {"android": "https://dc.lft.to/lastmile_qr_scan", "ios": "https://dc.lft.to/lastmile_qr_scan"}, "fusion_lon": 0.0}, {"lat": 38.89231933333333, "is_disabled": 0, "type": "electric_scooter", "lon": -77.03181266666667, "bike_id": "cf3a4e6d1a00db48182585695d2ec070", "fusion_lat": 0.0, "name": "cf3a4e6d1a00db48182585695d2ec070", "is_reserved": 0, "rental_uris": {"android": "https://dc.lft.to/lastmile_qr_scan", "ios": "https://dc.lft.to/lastmile_qr_scan"}, "fusion_lon": 0.0}, {"lat": 39.000002, "is_disabled": 0, "type": "electric_bike", "lon": -76.9249385, "bike_id": "f5e9ed7bbee27c6bea44c33a2a5434ee", "fusion_lat": 0.0, "name": "f5e9ed7bbee27c6bea44c33a2a5434ee", "is_reserved": 0, "rental_uris": {"android": "https://dc.lft.to/lastmile_qr_scan", "ios": "https://dc.lft.to/lastmile_qr_scan"}, "fusion_lon": 0.0}, {"lat": 38.91685183333333, "is_disabled": 0, "type": "electric_scooter", "lon": -77.02980016666666, "bike_id": "f54d3467bde3052c84b3c68cad512a68", "fusion_lat": 0.0, "name": "f54d3467bde3052c84b3c68cad512a68", "is_reserved": 0, "rental_uris": {"android": "https://dc.lft.to/lastmile_qr_scan", "ios": "https://dc.lft.to/lastmile_qr_scan"}, "fusion_lon": 0.0}, {"lat": 38.9365675, "is_disabled": 0, "type": "electric_scooter", "lon": -77.02387383333334, "bike_id": "50f1f088982c3324d02331c7f72efec6", "fusion_lat": 0.0, "name": "50f1f088982c3324d02331c7f72efec6", "is_reserved": 0, "rental_uris": {"android": "https://dc.lft.to/lastmile_qr_scan", "ios": "https://dc.lft.to/lastmile_qr_scan"}, "fusion_lon": 0.0}, {"lat": 38.942968, "is_disabled": 0, "type": "electric_scooter", "lon": -77.0770105, "bike_id": "60d498e476a3847eeea6ca424d770b9a", "fusion_lat": 0.0, "name": "60d498e476a3847eeea6ca424d770b9a", "is_reserved": 0, "rental_uris": {"android": "https://dc.lft.to/lastmile_qr_scan", "ios": "https://dc.lft.to/lastmile_qr_scan"}, "fusion_lon": 0.0}, {"lat": 38.8996485, "is_disabled": 0, "type": "electric_scooter", "lon": -77.051295, "bike_id": "f5ddc2016bf694ecd8ca856444d56bc1", "fusion_lat": 0.0, "name": "f5ddc2016bf694ecd8ca856444d56bc1", "is_reserved": 0, "rental_uris": {"android": "https://dc.lft.to/lastmile_qr_scan", "ios": "https://dc.lft.to/lastmile_qr_scan"}, "fusion_lon": 0.0}, {"lat": 38.891029333333336, "is_disabled": 0, "type": "electric_scooter", "lon": -76.952547, "bike_id": "4f791e317c3c9e9f4dcdd08c11be36ef", "fusion_lat": 0.0, "name": "4f791e317c3c9e9f4dcdd08c11be36ef", "is_reserved": 0, "rental_uris": {"android": "https://dc.lft.to/lastmile_qr_scan", "ios": "https://dc.lft.to/lastmile_qr_scan"}, "fusion_lon": 0.0}, {"lat": 38.92064033333333, "is_disabled": 0, "type": "electric_scooter", "lon": -77.034657, "bike_id": "abe69c6b166d4cbe9825c3ef33b21f6c", "fusion_lat": 0.0, "name": "abe69c6b166d4cbe9825c3ef33b21f6c", "is_reserved": 0, "rental_uris": {"android": "https://dc.lft.to/lastmile_qr_scan", "ios": "https://dc.lft.to/lastmile_qr_scan"}, "fusion_lon": 0.0}, {"lat": 38.933567333333336, "is_disabled": 0, "type": "electric_scooter", "lon": -77.07375733333333, "bike_id": "97ae05b7f23f8d9c28d96a9586934e61", "fusion_lat": 0.0, "name": "97ae05b7f23f8d9c28d96a9586934e61", "is_reserved": 0, "rental_uris": {"android": "https://dc.lft.to/lastmile_qr_scan", "ios": "https://dc.lft.to/lastmile_qr_scan"}, "fusion_lon": 0.0}, {"lat": 38.9660415, "is_disabled": 0, "type": "electric_bike", "lon": -76.98334466666667, "bike_id": "519608b78c60e90e29936bc361d775e9", "fusion_lat": 0.0, "name": "519608b78c60e90e29936bc361d775e9", "is_reserved": 0, "rental_uris": {"android": "https://dc.lft.to/lastmile_qr_scan", "ios": "https://dc.lft.to/lastmile_qr_scan"}, "fusion_lon": 0.0}, {"lat": 38.892435166666665, "is_disabled": 0, "type": "electric_scooter", "lon": -77.04890966666666, "bike_id": "1cc7bef5f94cb84347c77f19edc54c36", "fusion_lat": 0.0, "name": "1cc7bef5f94cb84347c77f19edc54c36", "is_reserved": 0, "rental_uris": {"android": "https://dc.lft.to/lastmile_qr_scan", "ios": "https://dc.lft.to/lastmile_qr_scan"}, "fusion_lon": 0.0}, {"lat": 38.917131499999996, "is_disabled": 0, "type": "electric_scooter", "lon": -77.0346925, "bike_id": "7a06d92f5f768415ff8dfab8c4ef656c", "fusion_lat": 0.0, "name": "7a06d92f5f768415ff8dfab8c4ef656c", "is_reserved": 0, "rental_uris": {"android": "https://dc.lft.to/lastmile_qr_scan", "ios": "https://dc.lft.to/lastmile_qr_scan"}, "fusion_lon": 0.0}, {"lat": 38.935153166666666, "is_disabled": 0, "type": "electric_scooter", "lon": -77.032635, "bike_id": "5c0564e144d9d08b6ebe9a1dcb16012e", "fusion_lat": 0.0, "name": "5c0564e144d9d08b6ebe9a1dcb16012e", "is_reserved": 0, "rental_uris": {"android": "https://dc.lft.to/lastmile_qr_scan", "ios": "https://dc.lft.to/lastmile_qr_scan"}, "fusion_lon": 0.0}, {"lat": 38.8995725, "is_disabled": 0, "type": "electric_bike", "lon": -76.985707, "bike_id": "9cdcc34dfa88f4552fc85f09c4d46f83", "fusion_lat": 0.0, "name": "9cdcc34dfa88f4552fc85f09c4d46f83", "is_reserved": 0, "rental_uris": {"android": "https://dc.lft.to/lastmile_qr_scan", "ios": "https://dc.lft.to/lastmile_qr_scan"}, "fusion_lon": 0.0}, {"lat": 38.92322333333333, "is_disabled": 0, "type": "electric_scooter", "lon": -77.02956583333334, "bike_id": "bfa0f32264424dba5411c46ff3ca91fc", "fusion_lat": 0.0, "name": "bfa0f32264424dba5411c46ff3ca91fc", "is_reserved": 0, "rental_uris": {"android": "https://dc.lft.to/lastmile_qr_scan", "ios": "https://dc.lft.to/lastmile_qr_scan"}, "fusion_lon": 0.0}, {"lat": 38.92067083333333, "is_disabled": 0, "type": "electric_scooter", "lon": -77.024977, "bike_id": "d6cbeafe007ef12b3c44f1523687b89e", "fusion_lat": 0.0, "name": "d6cbeafe007ef12b3c44f1523687b89e", "is_reserved": 0, "rental_uris": {"android": "https://dc.lft.to/lastmile_qr_scan", "ios": "https://dc.lft.to/lastmile_qr_scan"}, "fusion_lon": 0.0}, {"lat": 38.9382415, "is_disabled": 0, "type": "electric_scooter", "lon": -77.06045183333333, "bike_id": "76c258fbc6a2e3d8ec4b9b5865d3d1df", "fusion_lat": 0.0, "name": "76c258fbc6a2e3d8ec4b9b5865d3d1df", "is_reserved": 0, "rental_uris": {"android": "https://dc.lft.to/lastmile_qr_scan", "ios": "https://dc.lft.to/lastmile_qr_scan"}, "fusion_lon": 0.0}, {"lat": 38.905825, "is_disabled": 0, "type": "electric_scooter", "lon": -77.033004, "bike_id": "f4363474a645767003c3ce3faa38f83a", "fusion_lat": 0.0, "name": "f4363474a645767003c3ce3faa38f83a", "is_reserved": 0, "rental_uris": {"android": "https://dc.lft.to/lastmile_qr_scan", "ios": "https://dc.lft.to/lastmile_qr_scan"}, "fusion_lon": 0.0}, {"lat": 38.89839816666667, "is_disabled": 0, "type": "electric_scooter", "lon": -76.93103466666666, "bike_id": "5da2808f3bf2fd74dbf46a0bd919ba9d", "fusion_lat": 0.0, "name": "5da2808f3bf2fd74dbf46a0bd919ba9d", "is_reserved": 0, "rental_uris": {"android": "https://dc.lft.to/lastmile_qr_scan", "ios": "https://dc.lft.to/lastmile_qr_scan"}, "fusion_lon": 0.0}, {"lat": 38.9203955, "is_disabled": 0, "type": "electric_scooter", "lon": -76.97804283333333, "bike_id": "14557aebf8598af0e00025f8dee61194", "fusion_lat": 0.0, "name": "14557aebf8598af0e00025f8dee61194", "is_reserved": 0, "rental_uris": {"android": "https://dc.lft.to/lastmile_qr_scan", "ios": "https://dc.lft.to/lastmile_qr_scan"}, "fusion_lon": 0.0}, {"lat": 38.9131625, "is_disabled": 0, "type": "electric_scooter", "lon": -77.03182916666667, "bike_id": "456e92bd14d7097e176eb3b2f8fc5637", "fusion_lat": 0.0, "name": "456e92bd14d7097e176eb3b2f8fc5637", "is_reserved": 0, "rental_uris": {"android": "https://dc.lft.to/lastmile_qr_scan", "ios": "https://dc.lft.to/lastmile_qr_scan"}, "fusion_lon": 0.0}, {"lat": 38.912025, "is_disabled": 0, "type": "electric_scooter", "lon": -77.04336133333334, "bike_id": "32cb9e0ea62d61a3b359106a466333a4", "fusion_lat": 0.0, "name": "32cb9e0ea62d61a3b359106a466333a4", "is_reserved": 0, "rental_uris": {"android": "https://dc.lft.to/lastmile_qr_scan", "ios": "https://dc.lft.to/lastmile_qr_scan"}, "fusion_lon": 0.0}, {"lat": 38.927974166666665, "is_disabled": 0, "type": "electric_scooter", "lon": -76.98488283333333, "bike_id": "69e27bd49802be6ad49f869aa11e216d", "fusion_lat": 0.0, "name": "69e27bd49802be6ad49f869aa11e216d", "is_reserved": 0, "rental_uris": {"android": "https://dc.lft.to/lastmile_qr_scan", "ios": "https://dc.lft.to/lastmile_qr_scan"}, "fusion_lon": 0.0}, {"lat": 38.884727166666664, "is_disabled": 0, "type": "electric_scooter", "lon": -77.02414766666666, "bike_id": "f03db310c66e2659ccc4b7c26fc210d9", "fusion_lat": 0.0, "name": "f03db310c66e2659ccc4b7c26fc210d9", "is_reserved": 0, "rental_uris": {"android": "https://dc.lft.to/lastmile_qr_scan", "ios": "https://dc.lft.to/lastmile_qr_scan"}, "fusion_lon": 0.0}, {"lat": 38.88749466666667, "is_disabled": 0, "type": "electric_scooter", "lon": -77.02067233333334, "bike_id": "f2411a87c529b083b1a49b6439473716", "fusion_lat": 0.0, "name": "f2411a87c529b083b1a49b6439473716", "is_reserved": 0, "rental_uris": {"android": "https://dc.lft.to/lastmile_qr_scan", "ios": "https://dc.lft.to/lastmile_qr_scan"}, "fusion_lon": 0.0}, {"lat": 38.86712133333333, "is_disabled": 0, "type": "electric_scooter", "lon": -76.987262, "bike_id": "0d56d811ec2906641f89b55d64b1949b", "fusion_lat": 0.0, "name": "0d56d811ec2906641f89b55d64b1949b", "is_reserved": 0, "rental_uris": {"android": "https://dc.lft.to/lastmile_qr_scan", "ios": "https://dc.lft.to/lastmile_qr_scan"}, "fusion_lon": 0.0}, {"lat": 38.9334535, "is_disabled": 0, "type": "electric_scooter", "lon": -77.03842583333333, "bike_id": "3d283bb13fd01162a5168c478419f921", "fusion_lat": 0.0, "name": "3d283bb13fd01162a5168c478419f921", "is_reserved": 0, "rental_uris": {"android": "https://dc.lft.to/lastmile_qr_scan", "ios": "https://dc.lft.to/lastmile_qr_scan"}, "fusion_lon": 0.0}, {"lat": 38.91717666666667, "is_disabled": 0, "type": "electric_scooter", "lon": -77.03498866666666, "bike_id": "a7b5be1b52524346b35f2f034104d9f5", "fusion_lat": 0.0, "name": "a7b5be1b52524346b35f2f034104d9f5", "is_reserved": 0, "rental_uris": {"android": "https://dc.lft.to/lastmile_qr_scan", "ios": "https://dc.lft.to/lastmile_qr_scan"}, "fusion_lon": 0.0}, {"lat": 38.903483, "is_disabled": 0, "type": "electric_scooter", "lon": -77.02525233333333, "bike_id": "fb91173f8fbce63633b4b4c65d1c3545", "fusion_lat": 0.0, "name": "fb91173f8fbce63633b4b4c65d1c3545", "is_reserved": 0, "rental_uris": {"android": "https://dc.lft.to/lastmile_qr_scan", "ios": "https://dc.lft.to/lastmile_qr_scan"}, "fusion_lon": 0.0}, {"lat": 38.9077695, "is_disabled": 0, "type": "electric_scooter", "lon": -77.0640465, "bike_id": "7317a9a25f3c9c59ac01236249bd08da", "fusion_lat": 0.0, "name": "7317a9a25f3c9c59ac01236249bd08da", "is_reserved": 0, "rental_uris": {"android": "https://dc.lft.to/lastmile_qr_scan", "ios": "https://dc.lft.to/lastmile_qr_scan"}, "fusion_lon": 0.0}, {"lat": 38.954068166666666, "is_disabled": 0, "type": "electric_scooter", "lon": -77.02748116666666, "bike_id": "9cfb57cb376713d76d73a37db50f3ec9", "fusion_lat": 0.0, "name": "9cfb57cb376713d76d73a37db50f3ec9", "is_reserved": 0, "rental_uris": {"android": "https://dc.lft.to/lastmile_qr_scan", "ios": "https://dc.lft.to/lastmile_qr_scan"}, "fusion_lon": 0.0}, {"lat": 38.93343433333333, "is_disabled": 0, "type": "electric_scooter", "lon": -77.02391966666667, "bike_id": "4ddbfa7ce9dc66101aa82af36d52f472", "fusion_lat": 0.0, "name": "4ddbfa7ce9dc66101aa82af36d52f472", "is_reserved": 0, "rental_uris": {"android": "https://dc.lft.to/lastmile_qr_scan", "ios": "https://dc.lft.to/lastmile_qr_scan"}, "fusion_lon": 0.0}, {"lat": 38.90971616666667, "is_disabled": 0, "type": "electric_scooter", "lon": -77.04051166666666, "bike_id": "9b0605f647abfd1768fc4815a8c7a8c3", "fusion_lat": 0.0, "name": "9b0605f647abfd1768fc4815a8c7a8c3", "is_reserved": 0, "rental_uris": {"android": "https://dc.lft.to/lastmile_qr_scan", "ios": "https://dc.lft.to/lastmile_qr_scan"}, "fusion_lon": 0.0}, {"lat": 38.80270266666667, "is_disabled": 0, "type": "electric_bike", "lon": -77.08111333333333, "bike_id": "640e42bf86cce0314385b56769d698e0", "fusion_lat": 0.0, "name": "640e42bf86cce0314385b56769d698e0", "is_reserved": 0, "rental_uris": {"android": "https://dc.lft.to/lastmile_qr_scan", "ios": "https://dc.lft.to/lastmile_qr_scan"}, "fusion_lon": 0.0}, {"lat": 38.9287735, "is_disabled": 0, "type": "electric_scooter", "lon": -77.03218783333334, "bike_id": "699304472f73e22beb0c6647de067573", "fusion_lat": 0.0, "name": "699304472f73e22beb0c6647de067573", "is_reserved": 0, "rental_uris": {"android": "https://dc.lft.to/lastmile_qr_scan", "ios": "https://dc.lft.to/lastmile_qr_scan"}, "fusion_lon": 0.0}, {"lat": 38.92355966666667, "is_disabled": 0, "type": "electric_scooter", "lon": -77.02446533333334, "bike_id": "814ecce034a89a339cb7edb654f8a631", "fusion_lat": 0.0, "name": "814ecce034a89a339cb7edb654f8a631", "is_reserved": 0, "rental_uris": {"android": "https://dc.lft.to/lastmile_qr_scan", "ios": "https://dc.lft.to/lastmile_qr_scan"}, "fusion_lon": 0.0}, {"lat": 38.900566166666664, "is_disabled": 0, "type": "electric_scooter", "lon": -77.03199733333334, "bike_id": "50c16dd58d45a5f74442f58e7af51dfd", "fusion_lat": 0.0, "name": "50c16dd58d45a5f74442f58e7af51dfd", "is_reserved": 0, "rental_uris": {"android": "https://dc.lft.to/lastmile_qr_scan", "ios": "https://dc.lft.to/lastmile_qr_scan"}, "fusion_lon": 0.0}, {"lat": 38.914148, "is_disabled": 0, "type": "electric_scooter", "lon": -77.032615, "bike_id": "c97355057a56ff3a66d2985e26cdcf2f", "fusion_lat": 0.0, "name": "c97355057a56ff3a66d2985e26cdcf2f", "is_reserved": 0, "rental_uris": {"android": "https://dc.lft.to/lastmile_qr_scan", "ios": "https://dc.lft.to/lastmile_qr_scan"}, "fusion_lon": 0.0}, {"lat": 38.884416, "is_disabled": 0, "type": "electric_scooter", "lon": -77.0303955, "bike_id": "2b248cd741b0082dc63147b528af3481", "fusion_lat": 0.0, "name": "2b248cd741b0082dc63147b528af3481", "is_reserved": 0, "rental_uris": {"android": "https://dc.lft.to/lastmile_qr_scan", "ios": "https://dc.lft.to/lastmile_qr_scan"}, "fusion_lon": 0.0}, {"lat": 38.9179155, "is_disabled": 0, "type": "electric_scooter", "lon": -77.02309533333333, "bike_id": "270055c55d64b7926df509b4984bf3b9", "fusion_lat": 0.0, "name": "270055c55d64b7926df509b4984bf3b9", "is_reserved": 0, "rental_uris": {"android": "https://dc.lft.to/lastmile_qr_scan", "ios": "https://dc.lft.to/lastmile_qr_scan"}, "fusion_lon": 0.0}, {"lat": 38.9037065, "is_disabled": 0, "type": "electric_scooter", "lon": -77.06017633333333, "bike_id": "127e5ce85a301e9191544acfa401d0bf", "fusion_lat": 0.0, "name": "127e5ce85a301e9191544acfa401d0bf", "is_reserved": 0, "rental_uris": {"android": "https://dc.lft.to/lastmile_qr_scan", "ios": "https://dc.lft.to/lastmile_qr_scan"}, "fusion_lon": 0.0}, {"lat": 38.929757333333335, "is_disabled": 0, "type": "electric_scooter", "lon": -77.03250416666667, "bike_id": "b8333198ba5547f317436a31f6e91319", "fusion_lat": 0.0, "name": "b8333198ba5547f317436a31f6e91319", "is_reserved": 0, "rental_uris": {"android": "https://dc.lft.to/lastmile_qr_scan", "ios": "https://dc.lft.to/lastmile_qr_scan"}, "fusion_lon": 0.0}, {"lat": 38.92054683333333, "is_disabled": 0, "type": "electric_scooter", "lon": -77.04334683333333, "bike_id": "77b2baf1b41dd6e2f821e4f4bc1e9b16", "fusion_lat": 0.0, "name": "77b2baf1b41dd6e2f821e4f4bc1e9b16", "is_reserved": 0, "rental_uris": {"android": "https://dc.lft.to/lastmile_qr_scan", "ios": "https://dc.lft.to/lastmile_qr_scan"}, "fusion_lon": 0.0},