{"data": {"bikes": [{"lon": -77.03979566666666, "name": "9bcb6dc40c90c03ced000f4bb48ff4a9", "is_disabled": 0, "type": "electric_scooter", "is_reserved": 0, "fusion_lon": 0.0, "lat": 38.90263, "rental_uris": {"ios": "https://dc.lft.to/lastmile_qr_scan", "android": "https://dc.lft.to/lastmile_qr_scan"}, "bike_id": "9bcb6dc40c90c03ced000f4bb48ff4a9", "fusion_lat": 0.0}, {"lon": -76.94853116666667, "name": "dba46a408446484c023cbf9b7681b14e", "is_disabled": 0, "type": "electric_scooter", "is_reserved": 0, "fusion_lon": 0.0, "lat": 38.89606716666667, "rental_uris": {"ios": "https://dc.lft.to/lastmile_qr_scan", "android": "https://dc.lft.to/lastmile_qr_scan"}, "bike_id": "dba46a408446484c023cbf9b7681b14e", "fusion_lat": 0.0}, {"lon": -76.9730305, "name": "35175350404399e1086eba5e9ad5b2b6", "is_disabled": 0, "type": "electric_scooter", "is_reserved": 0, "fusion_lon": 0.0, "lat": 38.919868, "rental_uris": {"ios": "https://dc.lft.to/lastmile_qr_scan", "android": "https://dc.lft.to/lastmile_qr_scan"}, "bike_id": "35175350404399e1086eba5e9ad5b2b6", "fusion_lat": 0.0}, {"lon": -77.0053395, "name": "ab40828ae9ea5fc83a5cfd277332e215", "is_disabled": 0, "type": "electric_scooter", "is_reserved": 0, "fusion_lon": 0.0, "lat": 38.875445666666664, "rental_uris": {"ios": "https://dc.lft.to/lastmile_qr_scan", "android": "https://dc.lft.to/lastmile_qr_scan"}, "bike_id": "ab40828ae9ea5fc83a5cfd277332e215", "fusion_lat": 0.0}, {"lon": -77.0086725, "name": "da6e7d05d7ffff5a5dbdde921615abdc", "is_disabled": 0, "type": "electric_scooter", "is_reserved": 0, "fusion_lon": 0.0, "lat": 38.897385, "rental_uris": {"ios": "https://dc.lft.to/lastmile_qr_scan", "android": "https://dc.lft.to/lastmile_qr_scan"}, "bike_id": "da6e7d05d7ffff5a5dbdde921615abdc", "fusion_lat": 0.0}, {"lon": -77.001292, "name": "4038f38096b8b755087cc331cc950462", "is_disabled": 0, "type": "electric_bike", "is_reserved": 0, "fusion_lon": 0.0, "lat": 38.99497216666666, "rental_uris": {"ios": "https://dc.lft.to/lastmile_qr_scan", "android": "https://dc.lft.to/lastmile_qr_scan"}, "bike_id": "4038f38096b8b755087cc331cc950462", "fusion_lat": 0.0}, {"lon": -77.03139566666667, "name": "af02a468fe6063867570114167eab7f1", "is_disabled": 0, "type": "electric_scooter", "is_reserved": 0, "fusion_lon": 0.0, "lat": 38.941960333333334, "rental_uris": {"ios": "https://dc.lft.to/lastmile_qr_scan", "android": "https://dc.lft.to/lastmile_qr_scan"}, "bike_id": "af02a468fe6063867570114167eab7f1", "fusion_lat": 0.0}, {"lon": -77.057067, "name": "134258901dbcc63188316b87967c9585", "is_disabled": 0, "type": "electric_scooter", "is_reserved": 0, "fusion_lon": 0.0, "lat": 38.90595316666667, "rental_uris": {"ios": "https://dc.lft.to/lastmile_qr_scan", "android": "https://dc.lft.to/lastmile_qr_scan"}, "bike_id": "134258901dbcc63188316b87967c9585", "fusion_lat": 0.0}, {"lon": -77.0309265, "name": "7191855f5a5b53f5b04d85b36327210c", "is_disabled": 0, "type": "electric_scooter", "is_reserved": 0, "fusion_lon": 0.0, "lat": 38.93372033333333, "rental_uris": {"ios": "https://dc.lft.to/lastmile_qr_scan", "android": "https://dc.lft.to/lastmile_qr_scan"}, "bike_id": "7191855f5a5b53f5b04d85b36327210c", "fusion_lat": 0.0}, {"lon": -77.01553483333333, "name": "caaa646f642bc888d9d6484cd257afdf", "is_disabled": 0, "type": "electric_scooter", "is_reserved": 0, "fusion_lon": 0.0, "lat": 38.9279685, "rental_uris": {"ios": "https://dc.lft.to/lastmile_qr_scan", "android": "https://dc.lft.to/lastmile_qr_scan"}, "bike_id": "caaa646f642bc888d9d6484cd257afdf", "fusion_lat": 0.0}, {"lon": -77.08912083333334, "name": "4c2ead82f192dc01a1c4daf086a58e6b", "is_disabled": 0, "type": "electric_bike", "is_reserved": 0, "fusion_lon": 0.0, "lat": 38.9673225, "rental_uris": {"ios": "https://dc.lft.to/lastmile_qr_scan", "android": "https://dc.lft.to/lastmile_qr_scan"}, "bike_id": "4c2ead82f192dc01a1c4daf086a58e6b", "fusion_lat": 0.0}, {"lon": -76.97268116666666, "name": "d2d8ca8131aceee9ee7aebacc3840699", "is_disabled": 0, "type": "electric_bike", "is_reserved": 0, "fusion_lon": 0.0, "lat": 38.914433833333334, "rental_uris": {"ios": "https://dc.lft.to/lastmile_qr_scan", "android": "https://dc.lft.to/lastmile_qr_scan"}, "bike_id": "d2d8ca8131aceee9ee7aebacc3840699", "fusion_lat": 0.0}, {"lon": -76.99020533333334, "name": "ad6369466e73ce190feb403c553281c3", "is_disabled": 0, "type": "electric_bike", "is_reserved": 0, "fusion_lon": 0.0, "lat": 38.8358565, "rental_uris": {"ios": "https://dc.lft.to/lastmile_qr_scan", "android": "https://dc.lft.to/lastmile_qr_scan"}, "bike_id": "ad6369466e73ce190feb403c553281c3", "fusion_lat": 0.0}, {"lon": -77.01549683333333, "name": "ce8328183b1f245e89c23ade5294d2df", "is_disabled": 0, "type": "electric_scooter", "is_reserved": 0, "fusion_lon": 0.0, "lat": 38.8917115, "rental_uris": {"ios": "https://dc.lft.to/lastmile_qr_scan", "android": "https://dc.lft.to/lastmile_qr_scan"}, "bike_id": "ce8328183b1f245e89c23ade5294d2df", "fusion_lat": 0.0}, {"lon": -77.04191516666667, "name": "22aada9c4e5560a1638fc240063196f5", "is_disabled": 0, "type": "electric_scooter", "is_reserved": 0, "fusion_lon": 0.0, "lat": 38.9262235, "rental_uris": {"ios": "https://dc.lft.to/lastmile_qr_scan", "android": "https://dc.lft.to/lastmile_qr_scan"}, "bike_id": "22aada9c4e5560a1638fc240063196f5", "fusion_lat": 0.0}, {"lon": -77.0412675, "name": "9e5f24aabcee120311a395169cd750eb", "is_disabled": 0, "type": "electric_scooter", "is_reserved": 0, "fusion_lon": 0.0, "lat": 38.9163495, "rental_uris": {"ios": "https://dc.lft.to/lastmile_qr_scan", "android": "https://dc.lft.to/lastmile_qr_scan"}, "bike_id": "9e5f24aabcee120311a395169cd750eb", "fusion_lat": 0.0}, {"lon": -77.0490785, "name": "b060e7a7c1cf3cbb10d46b40420d0b6c", "is_disabled": 0, "type": "electric_scooter", "is_reserved": 0, "fusion_lon": 0.0, "lat": 38.90383583333333, "rental_uris": {"ios": "https://dc.lft.to/lastmile_qr_scan", "android": "https://dc.lft.to/lastmile_qr_scan"}, "bike_id": "b060e7a7c1cf3cbb10d46b40420d0b6c", "fusion_lat": 0.0}, {"lon": -77.0000085, "name": "5617e00bd1cff2b22f7dac4551c43820", "is_disabled": 0, "type": "electric_bike", "is_reserved": 0, "fusion_lon": 0.0, "lat": 38.92390616666667, "rental_uris": {"ios": "https://dc.lft.to/lastmile_qr_scan", "android": "https://dc.lft.to/lastmile_qr_scan"}, "bike_id": "5617e00bd1cff2b22f7dac4551c43820", "fusion_lat": 0.0}, {"lon": -77.028214, "name": "6ce986377b28e86920a1e2dda19bc8af", "is_disabled": 0, "type": "electric_scooter", "is_reserved": 0, "fusion_lon": 0.0, "lat": 38.886557333333336, "rental_uris": {"ios": "https://dc.lft.to/lastmile_qr_scan", "android": "https://dc.lft.to/lastmile_qr_scan"}, "bike_id": "6ce986377b28e86920a1e2dda19bc8af", "fusion_lat": 0.0}, {"lon": -77.01951966666667, "name": "426ef4ad3e1ef1e064f1b9dc979d7fa2", "is_disabled": 0, "type": "electric_scooter", "is_reserved": 0, "fusion_lon": 0.0, "lat": 38.9224615, "rental_uris": {"ios": "https://dc.lft.to/lastmile_qr_scan", "android": "https://dc.lft.to/lastmile_qr_scan"}, "bike_id": "426ef4ad3e1ef1e064f1b9dc979d7fa2", "fusion_lat": 0.0}, {"lon": -77.05878483333333, "name": "9ae2dec888409ee514263fc1a26e37f6", "is_disabled": 0, "type": "electric_scooter", "is_reserved": 0, "fusion_lon": 0.0, "lat": 38.9052615, "rental_uris": {"ios": "https://dc.lft.to/lastmile_qr_scan", "android": "https://dc.lft.to/lastmile_qr_scan"}, "bike_id": "9ae2dec888409ee514263fc1a26e37f6", "fusion_lat": 0.0}, {"lon": -77.0430195, "name": "46367ce4d0bba7601037e8e45b8ac964", "is_disabled": 0, "type": "electric_scooter", "is_reserved": 0, "fusion_lon": 0.0, "lat": 38.92228933333333, "rental_uris": {"ios": "https://dc.lft.to/lastmile_qr_scan", "android": "https://dc.lft.to/lastmile_qr_scan"}, "bike_id": "46367ce4d0bba7601037e8e45b8ac964", "fusion_lat": 0.0}, {"lon": -77.00582416666667, "name": "66f4aecb4fff13b4b662dde7bb0ad63b", "is_disabled": 0, "type": "electric_scooter", "is_reserved": 0, "fusion_lon": 0.0, "lat": 38.905797, "rental_uris": {"ios": "https://dc.lft.to/lastmile_qr_scan", "android": "https://dc.lft.to/lastmile_qr_scan"}, "bike_id": "66f4aecb4fff13b4b662dde7bb0ad63b", "fusion_lat": 0.0}, {"lon": -77.03085133333333, "name": "df7dbf6c0586b01031a29029ef065f28", "is_disabled": 0, "type": "electric_scooter", "is_reserved": 0, "fusion_lon": 0.0, "lat": 38.91051566666667, "rental_uris": {"ios": "https://dc.lft.to/lastmile_qr_scan", "android": "https://dc.lft.to/lastmile_qr_scan"}, "bike_id": "df7dbf6c0586b01031a29029ef065f28", "fusion_lat": 0.0}, {"lon": -77.02130666666666, "name": "c883472ea4258c5fb2e564dcec0c7493", "is_disabled": 0, "type": "electric_scooter", "is_reserved": 0, "fusion_lon": 0.0, "lat": 38.92794116666666, "rental_uris": {"ios": "https://dc.lft.to/lastmile_qr_scan", "android": "https://dc.lft.to/lastmile_qr_scan"}, "bike_id": "c883472ea4258c5fb2e564dcec0c7493", "fusion_lat": 0.0}, {"lon": -77.01225266666667, "name": "7fb81d2cc11633b079d9340657392937", "is_disabled": 0, "type": "electric_scooter", "is_reserved": 0, "fusion_lon": 0.0, "lat": 38.91598, "rental_uris": {"ios": "https://dc.lft.to/lastmile_qr_scan", "android": "https://dc.lft.to/lastmile_qr_scan"}, "bike_id": "7fb81d2cc11633b079d9340657392937", "fusion_lat": 0.0}, {"lon": -77.03999883333333, "name": "fdddb5dcdc2fa0028914478f91d7fa6a", "is_disabled": 0, "type": "electric_scooter", "is_reserved": 0, "fusion_lon": 0.0, "lat": 38.93424183333333, "rental_uris": {"ios": "https://dc.lft.to/lastmile_qr_scan", "android": "https://dc.lft.to/lastmile_qr_scan"}, "bike_id": "fdddb5dcdc2fa0028914478f91d7fa6a", "fusion_lat": 0.0}, {"lon": -77.00598016666666, "name": "86f63b7303670b20c1ca607cc3e51da8", "is_disabled": 0, "type": "electric_scooter", "is_reserved": 0, "fusion_lon": 0.0, "lat": 38.87558166666667, "rental_uris": {"ios": "https://dc.lft.to/lastmile_qr_scan", "android": "https://dc.lft.to/lastmile_qr_scan"}, "bike_id": "86f63b7303670b20c1ca607cc3e51da8", "fusion_lat": 0.0}, {"lon": -76.99625366666666, "name": "e4d37888fa8db5adebd0ec6c8675e3f2", "is_disabled": 0, "type": "electric_scooter", "is_reserved": 0, "fusion_lon": 0.0, "lat": 38.8813585, "rental_uris": {"ios": "https://dc.lft.to/lastmile_qr_scan", "android": "https://dc.lft.to/lastmile_qr_scan"}, "bike_id": "e4d37888fa8db5adebd0ec6c8675e3f2", "fusion_lat": 0.0}, {"lon": -77.04630766666666, "name": "31d32f93454867fd62a147c9bf2edf55", "is_disabled": 0, "type": "electric_scooter", "is_reserved": 0, "fusion_lon": 0.0, "lat": 38.90962233333333, "rental_uris": {"ios": "https://dc.lft.to/lastmile_qr_scan", "android": "https://dc.lft.to/lastmile_qr_scan"}, "bike_id": "31d32f93454867fd62a147c9bf2edf55", "fusion_lat": 0.0}, {"lon": -77.04266633333333, "name": "e0f107ab2fa5b47e4f34f6b66b019caf", "is_disabled": 0, "type": "electric_scooter", "is_reserved": 0, "fusion_lon": 0.0, "lat": 38.90979083333333, "rental_uris": {"ios": "https://dc.lft.to/lastmile_qr_scan", "android": "https://dc.lft.to/lastmile_qr_scan"}, "bike_id": "e0f107ab2fa5b47e4f34f6b66b019caf", "fusion_lat": 0.0}, {"lon": -77.02195066666667, "name": "49d98894bf66972f8db09d44735a83a5", "is_disabled": 0, "type": "electric_scooter", "is_reserved": 0, "fusion_lon": 0.0, "lat": 38.921682833333335, "rental_uris": {"ios": "https://dc.lft.to/lastmile_qr_scan", "android": "https://dc.lft.to/lastmile_qr_scan"}, "bike_id": "49d98894bf66972f8db09d44735a83a5", "fusion_lat": 0.0}, {"lon": -76.9827135, "name": "5c300aab3e192cbb93e89d06fa8c7533", "is_disabled": 0, "type": "electric_scooter", "is_reserved": 0, "fusion_lon": 0.0, "lat": 38.903409833333335, "rental_uris": {"ios": "https://dc.lft.to/lastmile_qr_scan", "android": "https://dc.lft.to/lastmile_qr_scan"}, "bike_id": "5c300aab3e192cbb93e89d06fa8c7533", "fusion_lat": 0.0}, {"lon": -76.93054633333334, "name": "c8bd1c9deeb515b85b3847945c8f0648", "is_disabled": 0, "type": "electric_scooter", "is_reserved": 0, "fusion_lon": 0.0, "lat": 38.8955925, "rental_uris": {"ios": "https://dc.lft.to/lastmile_qr_scan", "android": "https://dc.lft.to/lastmile_qr_scan"}, "bike_id": "c8bd1c9deeb515b85b3847945c8f0648", "fusion_lat": 0.0}, {"lon": -77.0053845, "name": "87a517d5b9b0f9f1dc7a18a11a1d8b1c", "is_disabled": 0, "type": "electric_bike", "is_reserved": 0, "fusion_lon": 0.0, "lat": 38.87548233333333, "rental_uris": {"ios": "https://dc.lft.to/lastmile_qr_scan", "android": "https://dc.lft.to/lastmile_qr_scan"}, "bike_id": "87a517d5b9b0f9f1dc7a18a11a1d8b1c", "fusion_lat": 0.0}, {"lon": -77.01109633333333, "name": "a3194d14d29b39dc7517a43d0d1ef89a", "is_disabled": 0, "type": "electric_scooter", "is_reserved": 0, "fusion_lon": 0.0, "lat": 38.88509116666667, "rental_uris": {"ios": "https://dc.lft.to/lastmile_qr_scan", "android": "https://dc.lft.to/lastmile_qr_scan"}, "bike_id": "a3194d14d29b39dc7517a43d0d1ef89a", "fusion_lat": 0.0}, {"lon": -77.0469585, "name": "8fd90d2ad839471f63de3ffe2f263bb9", "is_disabled": 0, "type": "electric_scooter", "is_reserved": 0, "fusion_lon": 0.0, "lat": 38.900266, "rental_uris": {"ios": "https://dc.lft.to/lastmile_qr_scan", "android": "https://dc.lft.to/lastmile_qr_scan"}, "bike_id": "8fd90d2ad839471f63de3ffe2f263bb9", "fusion_lat": 0.0}, {"lon": -77.0396045, "name": "25c4817534489559d2bfae582c0c8675", "is_disabled": 0, "type": "electric_scooter", "is_reserved": 0, "fusion_lon": 0.0, "lat": 38.919705666666665, "rental_uris": {"ios": "https://dc.lft.to/lastmile_qr_scan", "android": "https://dc.lft.to/lastmile_qr_scan"}, "bike_id": "25c4817534489559d2bfae582c0c8675", "fusion_lat": 0.0}, {"lon": -77.00795233333334, "name": "4dbdc2dab4a57dd3ab7c9a938b959cc9", "is_disabled": 0, "type": "electric_scooter", "is_reserved": 0, "fusion_lon": 0.0, "lat": 38.89712316666667, "rental_uris": {"ios": "https://dc.lft.to/lastmile_qr_scan", "android": "https://dc.lft.to/lastmile_qr_scan"}, "bike_id": "4dbdc2dab4a57dd3ab7c9a938b959cc9", "fusion_lat": 0.0}, {"lon": -77.03089166666666, "name": "619cdb5343f75f3e790d12556c15efe5", "is_disabled": 0, "type": "electric_scooter", "is_reserved": 0, "fusion_lon": 0.0, "lat": 38.9038365, "rental_uris": {"ios": "https://dc.lft.to/lastmile_qr_scan", "android": "https://dc.lft.to/lastmile_qr_scan"}, "bike_id": "619cdb5343f75f3e790d12556c15efe5", "fusion_lat": 0.0}, {"lon": -77.0319885, "name": "e42bd91fe5dabfe3919b4066d026b5f7", "is_disabled": 0, "type": "electric_scooter", "is_reserved": 0, "fusion_lon": 0.0, "lat": 38.928833833333336, "rental_uris": {"ios": "https://dc.lft.to/lastmile_qr_scan", "android": "https://dc.lft.to/lastmile_qr_scan"}, "bike_id": "e42bd91fe5dabfe3919b4066d026b5f7", "fusion_lat": 0.0}, {"lon": -77.02288033333333, "name": "764bd9d125e68e3d3ba81c2c0cef822e", "is_disabled": 0, "type": "electric_scooter", "is_reserved": 0, "fusion_lon": 0.0, "lat": 38.91443066666667, "rental_uris": {"ios": "https://dc.lft.to/lastmile_qr_scan", "android": "https://dc.lft.to/lastmile_qr_scan"}, "bike_id": "764bd9d125e68e3d3ba81c2c0cef822e", "fusion_lat": 0.0}, {"lon": -77.048036, "name": "fbb156feb1c4cca5e659dfacd9f53285", "is_disabled": 0, "type": "electric_scooter", "is_reserved": 0, "fusion_lon": 0.0, "lat": 38.902105166666665, "rental_uris": {"ios": "https://dc.lft.to/lastmile_qr_scan", "android": "https://dc.lft.to/lastmile_qr_scan"}, "bike_id": "fbb156feb1c4cca5e659dfacd9f53285", "fusion_lat": 0.0}, {"lon": -77.01961516666667, "name": "1f308ea0849239d8cdb7d9038938a10f", "is_disabled": 0, "type": "electric_scooter", "is_reserved": 0, "fusion_lon": 0.0, "lat": 38.885748166666666, "rental_uris": {"ios": "https://dc.lft.to/lastmile_qr_scan", "android": "https://dc.lft.to/lastmile_qr_scan"}, "bike_id": "1f308ea0849239d8cdb7d9038938a10f", "fusion_lat": 0.0}, {"lon": -76.9949585, "name": "e45ce4a1cdfc20e79be2716189feab50", "is_disabled": 0, "type": "electric_scooter", "is_reserved": 0, "fusion_lon": 0.0, "lat": 38.88190433333333, "rental_uris": {"ios": "https://dc.lft.to/lastmile_qr_scan", "android": "https://dc.lft.to/lastmile_qr_scan"}, "bike_id": "e45ce4a1cdfc20e79be2716189feab50", "fusion_lat": 0.0}, {"lon": -77.02959033333333, "name": "01512e3d3f3eb36d184334c0602de051", "is_disabled": 0, "type": "electric_scooter", "is_reserved": 0, "fusion_lon": 0.0, "lat": 38.89876733333333, "rental_uris": {"ios": "https://dc.lft.to/lastmile_qr_scan", "android": "https://dc.lft.to/lastmile_qr_scan"}, "bike_id": "01512e3d3f3eb36d184334c0602de051", "fusion_lat": 0.0}, {"lon": -76.98035216666666, "name": "4a464e01018254f32bce2026451f1d92", "is_disabled": 0, "type": "electric_scooter", "is_reserved": 0, "fusion_lon": 0.0, "lat": 38.889669, "rental_uris": {"ios": "https://dc.lft.to/lastmile_qr_scan", "android": "https://dc.lft.to/lastmile_qr_scan"}, "bike_id": "4a464e01018254f32bce2026451f1d92", "fusion_lat": 0.0}, {"lon": -76.9446465, "name": "d9c18a0eb1493beca437cd138db921e7", "is_disabled": 0, "type": "electric_scooter", "is_reserved": 0, "fusion_lon": 0.0, "lat": 38.89027016666667, "rental_uris": {"ios": "https://dc.lft.to/lastmile_qr_scan", "android": "https://dc.lft.to/lastmile_qr_scan"}, "bike_id": "d9c18a0eb1493beca437cd138db921e7", "fusion_lat": 0.0}, {"lon": -77.03856416666666, "name": "7d93a2e093722d89dc4a435bbc9c86e6", "is_disabled": 0, "type": "electric_scooter", "is_reserved": 0, "fusion_lon": 0.0, "lat": 38.92539333333333, "rental_uris": {"ios": "https://dc.lft.to/lastmile_qr_scan", "android": "https://dc.lft.to/lastmile_qr_scan"}, "bike_id": "7d93a2e093722d89dc4a435bbc9c86e6", "fusion_lat": 0.0}, {"lon": -77.02600883333334, "name": "95496a8bfc38d61e0bbb8c0d1fba1e31", "is_disabled": 0, "type": "electric_scooter", "is_reserved": 0, "fusion_lon": 0.0, "lat": 38.8973875, "rental_uris": {"ios": "https://dc.lft.to/lastmile_qr_scan", "android": "https://dc.lft.to/lastmile_qr_scan"}, "bike_id": "95496a8bfc38d61e0bbb8c0d1fba1e31", "fusion_lat": 0.0}, {"lon": -77.01872216666666, "name": "95217ab0ef7c918c57677006a7f4183a", "is_disabled": 0, "type": "electric_scooter", "is_reserved": 0, "fusion_lon": 0.0, "lat": 38.93202633333333, "rental_uris": {"ios": "https://dc.lft.to/lastmile_qr_scan", "android": "https://dc.lft.to/lastmile_qr_scan"}, "bike_id": "95217ab0ef7c918c57677006a7f4183a", "fusion_lat": 0.0}, {"lon": -76.9802215, "name": "814f27b12fa0db88aabd1a47e4853d1c", "is_disabled": 0, "type": "electric_bike", "is_reserved": 0, "fusion_lon": 0.0, "lat": 38.86819033333333, "rental_uris": {"ios": "https://dc.lft.to/lastmile_qr_scan", "android": "https://dc.lft.to/lastmile_qr_scan"}, "bike_id": "814f27b12fa0db88aabd1a47e4853d1c", "fusion_lat": 0.0}, {"lon": -77.00286566666666, "name": "9b587a8c0f76a09a6cce74b0e961aea8", "is_disabled": 0, "type": "electric_scooter", "is_reserved": 0, "fusion_lon": 0.0, "lat": 38.893517833333334, "rental_uris": {"ios": "https://dc.lft.to/lastmile_qr_scan", "android": "https://dc.lft.to/lastmile_qr_scan"}, "bike_id": "9b587a8c0f76a09a6cce74b0e961aea8", "fusion_lat": 0.0}, {"lon": -77.00766283333333, "name": "b96327b94bb25be42d07c95db0135317", "is_disabled": 0, "type": "electric_bike", "is_reserved": 0, "fusion_lon": 0.0, "lat": 38.98135683333334, "rental_uris": {"ios": "https://dc.lft.to/lastmile_qr_scan", "android": "https://dc.lft.to/lastmile_qr_scan"}, "bike_id": "b96327b94bb25be42d07c95db0135317", "fusion_lat": 0.0}, {"lon": -77.0457545, "name": "29e4cd4a19e11321be3d6e59c1def4cf", "is_disabled": 0, "type": "electric_scooter", "is_reserved": 0, "fusion_lon": 0.0, "lat": 38.908620666666664, "rental_uris": {"ios": "https://dc.lft.to/lastmile_qr_scan", "android": "https://dc.lft.to/lastmile_qr_scan"}, "bike_id": "29e4cd4a19e11321be3d6e59c1def4cf", "fusion_lat": 0.0}, {"lon": -77.02615183333333, "name": "e39659d1d7777b06564e0a49c38be714", "is_disabled": 0, "type": "electric_scooter", "is_reserved": 0, "fusion_lon": 0.0, "lat": 38.8988125, "rental_uris": {"ios": "https://dc.lft.to/lastmile_qr_scan", "android": "https://dc.lft.to/lastmile_qr_scan"}, "bike_id": "e39659d1d7777b06564e0a49c38be714", "fusion_lat": 0.0}, {"lon": -77.039405, "name": "e529e932d853e225ec7d3242998fed34", "is_disabled": 0, "type": "electric_scooter", "is_reserved": 0, "fusion_lon": 0.0, "lat": 38.93054983333333, "rental_uris": {"ios": "https://dc.lft.to/lastmile_qr_scan", "android": "https://dc.lft.to/lastmile_qr_scan"}, "bike_id": "e529e932d853e225ec7d3242998fed34", "fusion_lat": 0.0}, {"lon": -76.9837455, "name": "9e70e954592bc543d2880c28bf788a2a", "is_disabled": 0, "type": "electric_scooter", "is_reserved": 0, "fusion_lon": 0.0, "lat": 38.892727666666666, "rental_uris": {"ios": "https://dc.lft.to/lastmile_qr_scan", "android": "https://dc.lft.to/lastmile_qr_scan"}, "bike_id": "9e70e954592bc543d2880c28bf788a2a", "fusion_lat": 0.0}, {"lon": -77.01306616666666, "name": "6098ed1ecaf248b9e3c8d99eeb590842", "is_disabled": 0, "type": "electric_scooter", "is_reserved": 0, "fusion_lon": 0.0, "lat": 38.94326916666667, "rental_uris": {"ios": "https://dc.lft.to/lastmile_qr_scan", "android": "https://dc.lft.to/lastmile_qr_scan"}, "bike_id": "6098ed1ecaf248b9e3c8d99eeb590842", "fusion_lat": 0.0}, {"lon": -77.0218285, "name": "97e0711357c348cebe01b1b1a85ac7f7", "is_disabled": 0, "type": "electric_scooter", "is_reserved": 0, "fusion_lon": 0.0, "lat": 38.886005833333336, "rental_uris": {"ios": "https://dc.lft.to/lastmile_qr_scan", "android": "https://dc.lft.to/lastmile_qr_scan"}, "bike_id": "97e0711357c348cebe01b1b1a85ac7f7", "fusion_lat": 0.0}, {"lon": -77.00332416666667, "name": "fc02d5d7b9b9a504d41e90ce7dd71462", "is_disabled": 0, "type": "electric_scooter", "is_reserved": 0, "fusion_lon": 0.0, "lat": 38.88603666666667, "rental_uris": {"ios": "https://dc.lft.to/lastmile_qr_scan", "android": "https://dc.lft.to/lastmile_qr_scan"}, "bike_id": "fc02d5d7b9b9a504d41e90ce7dd71462", "fusion_lat": 0.0}, {"lon": -77.033322, "name": "d98cfdea66cf328378ca1d63e6e87073", "is_disabled": 0, "type": "electric_scooter", "is_reserved": 0, "fusion_lon": 0.0, "lat": 38.928531666666665, "rental_uris": {"ios": "https://dc.lft.to/lastmile_qr_scan", "android": "https://dc.lft.to/lastmile_qr_scan"}, "bike_id": "d98cfdea66cf328378ca1d63e6e87073", "fusion_lat": 0.0}, {"lon": -77.02940866666667, "name": "d17338f0002fc06f619bc3e2b48e5f56", "is_disabled": 0, "type": "electric_scooter", "is_reserved": 0, "fusion_lon": 0.0, "lat": 38.939698166666666, "rental_uris": {"ios": "https://dc.lft.to/lastmile_qr_scan", "android": "https://dc.lft.to/lastmile_qr_scan"}, "bike_id": "d17338f0002fc06f619bc3e2b48e5f56", "fusion_lat": 0.0}, {"lon": -77.02194233333333, "name": "e5eb04eea92ac76d94f2995655861d4b", "is_disabled": 0, "type": "electric_scooter", "is_reserved": 0, "fusion_lon": 0.0, "lat": 38.899664666666666, "rental_uris": {"ios": "https://dc.lft.to/lastmile_qr_scan", "android": "https://dc.lft.to/lastmile_qr_scan"}, "bike_id": "e5eb04eea92ac76d94f2995655861d4b", "fusion_lat": 0.0}, {"lon": -77.049964, "name": "c40c48768a830ff49f45c924255f0f1f", "is_disabled": 0, "type": "electric_scooter", "is_reserved": 0, "fusion_lon": 0.0, "lat": 38.8993265, "rental_uris": {"ios": "https://dc.lft.to/lastmile_qr_scan", "android": "https://dc.lft.to/lastmile_qr_scan"}, "bike_id": "c40c48768a830ff49f45c924255f0f1f", "fusion_lat": 0.0}, {"lon": -77.035878, "name": "f481b5a788b64827341f03ad689972ff", "is_disabled": 0, "type": "electric_scooter", "is_reserved": 0, "fusion_lon": 0.0, "lat": 38.917024833333336, "rental_uris": {"ios": "https://dc.lft.to/lastmile_qr_scan", "android": "https://dc.lft.to/lastmile_qr_scan"}, "bike_id": "f481b5a788b64827341f03ad689972ff", "fusion_lat": 0.0}, {"lon": -77.03498666666667, "name": "58de9bd9662c169aaea04e63ba6f145d", "is_disabled": 0, "type": "electric_scooter", "is_reserved": 0, "fusion_lon": 0.0, "lat": 38.9163035, "rental_uris": {"ios": "https://dc.lft.to/lastmile_qr_scan", "android": "https://dc.lft.to/lastmile_qr_scan"}, "bike_id": "58de9bd9662c169aaea04e63ba6f145d", "fusion_lat": 0.0}, {"lon": -77.018499, "name": "765ebd9f25b45d802f6a0ab838ccf32a", "is_disabled": 0, "type": "electric_scooter", "is_reserved": 0, "fusion_lon": 0.0, "lat": 38.94928566666667, "rental_uris": {"ios": "https://dc.lft.to/lastmile_qr_scan", "android": "https://dc.lft.to/lastmile_qr_scan"}, "bike_id": "765ebd9f25b45d802f6a0ab838ccf32a", "fusion_lat": 0.0}, {"lon": -77.05459616666667, "name": "949d6f9e6eeab858de35897a0f7bfca0", "is_disabled": 0, "type": "electric_scooter", "is_reserved": 0, "fusion_lon": 0.0, "lat": 38.929013166666664, "rental_uris": {"ios": "https://dc.lft.to/lastmile_qr_scan", "android": "https://dc.lft.to/lastmile_qr_scan"}, "bike_id": "949d6f9e6eeab858de35897a0f7bfca0", "fusion_lat": 0.0}, {"lon": -77.02004316666667, "name": "fcb3f45c9141f748663139d11b92e120", "is_disabled": 0, "type": "electric_scooter", "is_reserved": 0, "fusion_lon": 0.0, "lat": 38.9235845, "rental_uris": {"ios": "https://dc.lft.to/lastmile_qr_scan", "android": "https://dc.lft.to/lastmile_qr_scan"}, "bike_id": "fcb3f45c9141f748663139d11b92e120", "fusion_lat": 0.0}, {"lon": -77.04731916666667, "name": "cfb73f10685a025da2c4a419e9077b7f", "is_disabled": 0, "type": "electric_scooter", "is_reserved": 0, "fusion_lon": 0.0, "lat": 38.9097435, "rental_uris": {"ios": "https://dc.lft.to/lastmile_qr_scan", "android": "https://dc.lft.to/lastmile_qr_scan"}, "bike_id": "cfb73f10685a025da2c4a419e9077b7f", "fusion_lat": 0.0}, {"lon": -77.025316, "name": "c202ed085240b0ddeb20fa23d1167946", "is_disabled": 0, "type": "electric_scooter", "is_reserved": 0, "fusion_lon": 0.0, "lat": 38.920873666666665, "rental_uris": {"ios": "https://dc.lft.to/lastmile_qr_scan", "android": "https://dc.lft.to/lastmile_qr_scan"}, "bike_id": "c202ed085240b0ddeb20fa23d1167946", "fusion_lat": 0.0}, {"lon": -76.952496, "name": "dd2d58f1630516aeaddae1d8ecc6ea02", "is_disabled": 0, "type": "electric_bike", "is_reserved": 0, "fusion_lon": 0.0, "lat": 38.90692133333334, "rental_uris": {"ios": "https://dc.lft.to/lastmile_qr_scan", "android": "https://dc.lft.to/lastmile_qr_scan"}, "bike_id": "dd2d58f1630516aeaddae1d8ecc6ea02", "fusion_lat": 0.0}, {"lon": -76.983706, "name": "b1812c88ae687fe0e774d4ae91478d04", "is_disabled": 0, "type": "electric_scooter", "is_reserved": 0, "fusion_lon": 0.0, "lat": 38.914929666666666, "rental_uris": {"ios": "https://dc.lft.to/lastmile_qr_scan", "android": "https://dc.lft.to/lastmile_qr_scan"}, "bike_id": "b1812c88ae687fe0e774d4ae91478d04", "fusion_lat": 0.0}, {"lon": -77.07318716666667, "name": "0fefbc8c955c180ca342f286480d581f", "is_disabled": 0, "type": "electric_scooter", "is_reserved": 0, "fusion_lon": 0.0, "lat": 38.92166316666667, "rental_uris": {"ios": "https://dc.lft.to/lastmile_qr_scan", "android": "https://dc.lft.to/lastmile_qr_scan"}, "bike_id": "0fefbc8c955c180ca342f286480d581f", "fusion_lat": 0.0}, {"lon": -77.02984533333333, "name": "aecdaab6c22f1050685e1e8e9c9c2a4c", "is_disabled": 0, "type": "electric_scooter", "is_reserved": 0, "fusion_lon": 0.0, "lat": 38.94258883333333, "rental_uris": {"ios": "https://dc.lft.to/lastmile_qr_scan", "android": "https://dc.lft.to/lastmile_qr_scan"}, "bike_id": "aecdaab6c22f1050685e1e8e9c9c2a4c", "fusion_lat": 0.0}, {"lon": -77.03228, "name": "68df5cf3f95344a603364a25303a226f", "is_disabled": 0, "type": "electric_scooter", "is_reserved": 0, "fusion_lon": 0.0, "lat": 38.91483183333333, "rental_uris": {"ios": "https://dc.lft.to/lastmile_qr_scan", "android": "https://dc.lft.to/lastmile_qr_scan"}, "bike_id": "68df5cf3f95344a603364a25303a226f", "fusion_lat": 0.0}, {"lon": -77.00203583333334, "name": "9be6f0e99b413f6687e7a75d47355f5a", "is_disabled": 0, "type": "electric_scooter", "is_reserved": 0, "fusion_lon": 0.0, "lat": 38.90126733333334, "rental_uris": {"ios": "https://dc.lft.to/lastmile_qr_scan", "android": "https://dc.lft.to/lastmile_qr_scan"}, "bike_id": "9be6f0e99b413f6687e7a75d47355f5a", "fusion_lat": 0.0}, {"lon": -77.01597983333333, "name": "01483153396219099c42ff8d5ab28553", "is_disabled": 0, "type": "electric_scooter", "is_reserved": 0, "fusion_lon": 0.0, "lat": 38.8746615, "rental_uris": {"ios": "https://dc.lft.to/lastmile_qr_scan", "android": "https://dc.lft.to/lastmile_qr_scan"}, "bike_id": "01483153396219099c42ff8d5ab28553", "fusion_lat": 0.0}, {"lon": -77.036227, "name": "ab892887c592ef0cc2ec81d98af11bd6", "is_disabled": 0, "type": "electric_scooter", "is_reserved": 0, "fusion_lon": 0.0, "lat": 38.939101, "rental_uris": {"ios": "https://dc.lft.to/lastmile_qr_scan", "android": "https://dc.lft.to/lastmile_qr_scan"}, "bike_id": "ab892887c592ef0cc2ec81d98af11bd6", "fusion_lat": 0.0}, {"lon": -76.955628, "name": "f5afc7907fe11dc6b675da1034c2c079", "is_disabled": 0, "type": "electric_bike", "is_reserved": 0, "fusion_lon": 0.0, "lat": 38.985026833333336, "rental_uris": {"ios": "https://dc.lft.to/lastmile_qr_scan", "android": "https://dc.lft.to/lastmile_qr_scan"}, "bike_id": "f5afc7907fe11dc6b675da1034c2c079", "fusion_lat": 0.0}, {"lon": -77.01768383333334, "name": "433e6cea7c0d0c8266f44a87b9a6ef89", "is_disabled": 0, "type": "electric_scooter", "is_reserved": 0, "fusion_lon": 0.0, "lat": 38.8873635, "rental_uris": {"ios": "https://dc.lft.to/lastmile_qr_scan", "android": "https://dc.lft.to/lastmile_qr_scan"}, "bike_id": "433e6cea7c0d0c8266f44a87b9a6ef89", "fusion_lat": 0.0}, {"lon": -77.03226566666666, "name": "e78d90195b0b4a5bfa15bf096087e847", "is_disabled": 0, "type": "electric_scooter", "is_reserved": 0, "fusion_lon": 0.0, "lat": 38.90869766666667, "rental_uris": {"ios": "https://dc.lft.to/lastmile_qr_scan", "android": "https://dc.lft.to/lastmile_qr_scan"}, "bike_id": "e78d90195b0b4a5bfa15bf096087e847", "fusion_lat": 0.0}, {"lon": -77.04453966666667, "name": "7e4397508d3ccdcdbf57e39671011607", "is_disabled": 0, "type": "electric_scooter", "is_reserved": 0, "fusion_lon": 0.0, "lat": 38.924628, "rental_uris": {"ios": "https://dc.lft.to/lastmile_qr_scan", "android": "https://dc.lft.to/lastmile_qr_scan"}, "bike_id": "7e4397508d3ccdcdbf57e39671011607", "fusion_lat": 0.0}, {"lon": -77.02220533333333, "name": "edc5c7c71e8fb04042c8ad077f39a88b", "is_disabled": 0, "type": "electric_scooter", "is_reserved": 0, "fusion_lon": 0.0, "lat": 38.920888166666664, "rental_uris": {"ios": "https://dc.lft.to/lastmile_qr_scan", "android": "https://dc.lft.to/lastmile_qr_scan"}, "bike_id": "edc5c7c71e8fb04042c8ad077f39a88b", "fusion_lat": 0.0}, {"lon": -77.0136355, "name": "fd3f32680fa977bd94dd37c169979a81", "is_disabled": 0, "type": "electric_scooter", "is_reserved": 0, "fusion_lon": 0.0, "lat": 38.928796166666665, "rental_uris": {"ios": "https://dc.lft.to/lastmile_qr_scan", "android": "https://dc.lft.to/lastmile_qr_scan"}, "bike_id": "fd3f32680fa977bd94dd37c169979a81", "fusion_lat": 0.0}, {"lon": -77.0218995, "name": "cb5af294dfbc7bc063734435ba8d9091", "is_disabled": 0, "type": "electric_scooter", "is_reserved": 0, "fusion_lon": 0.0, "lat": 38.894061666666666, "rental_uris": {"ios": "https://dc.lft.to/lastmile_qr_scan", "android": "https://dc.lft.to/lastmile_qr_scan"}, "bike_id": "cb5af294dfbc7bc063734435ba8d9091", "fusion_lat": 0.0}, {"lon": -76.9885765, "name": "9faa84acb718e0d862ae3f64d96ed3f1", "is_disabled": 0, "type": "electric_scooter", "is_reserved": 0, "fusion_lon": 0.0, "lat": 38.90023016666667, "rental_uris": {"ios": "https://dc.lft.to/lastmile_qr_scan", "android": "https://dc.lft.to/lastmile_qr_scan"}, "bike_id": "9faa84acb718e0d862ae3f64d96ed3f1", "fusion_lat": 0.0}, {"lon": -77.02740233333333, "name": "400d48ab3ab385173d0cd696d390d076", "is_disabled": 0, "type": "electric_scooter", "is_reserved": 0, "fusion_lon": 0.0, "lat": 38.924096166666665, "rental_uris": {"ios": "https://dc.lft.to/lastmile_qr_scan", "android": "https://dc.lft.to/lastmile_qr_scan"}, "bike_id": "400d48ab3ab385173d0cd696d390d076", "fusion_lat": 0.0}, {"lon": -77.06940183333333, "name": "ecb5721ed45bbbe43b8ea97e06305f54", "is_disabled": 0, "type": "electric_bike", "is_reserved": 0, "fusion_lon": 0.0, "lat": 38.847621, "rental_uris": {"ios": "https://dc.lft.to/lastmile_qr_scan", "android": "https://dc.lft.to/lastmile_qr_scan"}, "bike_id": "ecb5721ed45bbbe43b8ea97e06305f54", "fusion_lat": 0.0}, {"lon": -77.01176783333334, "name": "18a806b064ff900317d7c1e0dd8ebd17", "is_disabled": 0, "type": "electric_scooter", "is_reserved": 0, "fusion_lon": 0.0, "lat": 38.88591683333333, "rental_uris": {"ios": "https://dc.lft.to/lastmile_qr_scan", "android": "https://dc.lft.to/lastmile_qr_scan"}, "bike_id": "18a806b064ff900317d7c1e0dd8ebd17", "fusion_lat": 0.0}, {"lon": -76.97337783333333, "name": "42dfafc4499e2a14ccd3557eeda599f8", "is_disabled": 0, "type": "electric_bike", "is_reserved": 0, "fusion_lon": 0.0, "lat": 38.865490333333334, "rental_uris": {"ios": "https://dc.lft.to/lastmile_qr_scan", "android": "https://dc.lft.to/lastmile_qr_scan"}, "bike_id": "42dfafc4499e2a14ccd3557eeda599f8", "fusion_lat": 0.0}, {"lon": -77.0202985, "name": "b05a1e5658ca1d9f805d08814ae72072", "is_disabled": 0, "type": "electric_scooter", "is_reserved": 0, "fusion_lon": 0.0, "lat": 38.9244625, "rental_uris": {"ios": "https://dc.lft.to/lastmile_qr_scan", "android": "https://dc.lft.to/lastmile_qr_scan"}, "bike_id": "b05a1e5658ca1d9f805d08814ae72072", "fusion_lat": 0.0}, {"lon": -77.03218633333333, "name": "74d34409057713f674b2239676691e0a", "is_disabled": 0, "type": "electric_scooter", "is_reserved": 0, "fusion_lon": 0.0, "lat": 38.89221633333333, "rental_uris": {"ios": "https://dc.lft.to/lastmile_qr_scan", "android": "https://dc.lft.to/lastmile_qr_scan"}, "bike_id": "74d34409057713f674b2239676691e0a", "fusion_lat": 0.0}, {"lon": -77.03349583333333, "name": "128ba5989fc240d94012d81741506dde", "is_disabled": 0, "type": "electric_scooter", "is_reserved": 0, "fusion_lon": 0.0, "lat": 38.903185, "rental_uris": {"ios": "https://dc.lft.to/lastmile_qr_scan", "android": "https://dc.lft.to/lastmile_qr_scan"}, "bike_id": "128ba5989fc240d94012d81741506dde", "fusion_lat": 0.0}, {"lon": -77.04119183333333, "name": "11788c34c2acf5f43a8112e505605a9f", "is_disabled": 0, "type": "electric_scooter", "is_reserved": 0, "fusion_lon": 0.0, "lat": 38.92119, "rental_uris": {"ios": "https://dc.lft.to/lastmile_qr_scan", "android": "https://dc.lft.to/lastmile_qr_scan"}, "bike_id": "11788c34c2acf5f43a8112e505605a9f", "fusion_lat": 0.0}, {"lon": -77.0000545, "name": "7b7a9067688cd283356df98706c7d7ef", "is_disabled": 0, "type": "electric_scooter", "is_reserved": 0, "fusion_lon": 0.0, "lat": 38.907967, "rental_uris": {"ios": "https://dc.lft.to/lastmile_qr_scan", "android": "https://dc.lft.to/lastmile_qr_scan"}, "bike_id": "7b7a9067688cd283356df98706c7d7ef", "fusion_lat": 0.0}, {"lon": -77.0434995, "name": "253de3fcdbb8488ceace9b46c1df1b5b", "is_disabled": 0, "type": "electric_scooter", "is_reserved": 0, "fusion_lon": 0.0, "lat": 38.903369, "rental_uris": {"ios": "https://dc.lft.to/lastmile_qr_scan", "android": "https://dc.lft.to/lastmile_qr_scan"}, "bike_id": "253de3fcdbb8488ceace9b46c1df1b5b", "fusion_lat": 0.0}, {"lon": -77.01913483333334, "name": "081de64b287a61c1560097c5347b978c", "is_disabled": 0, "type": "electric_scooter", "is_reserved": 0, "fusion_lon": 0.0, "lat": 38.929405333333335, "rental_uris": {"ios": "https://dc.lft.to/lastmile_qr_scan", "android": "https://dc.lft.to/lastmile_qr_scan"}, "bike_id": "081de64b287a61c1560097c5347b978c", "fusion_lat": 0.0}, {"lon": -77.02188433333333, "name": "e10505c26467e87843a0e1f83a3d5c3a", "is_disabled": 0, "type": "electric_scooter", "is_reserved": 0, "fusion_lon": 0.0, "lat": 38.91660516666666, "rental_uris": {"ios": "https://dc.lft.to/lastmile_qr_scan", "android": "https://dc.lft.to/lastmile_qr_scan"}, "bike_id": "e10505c26467e87843a0e1f83a3d5c3a", "fusion_lat": 0.0}, {"lon": -77.052359, "name": "5144ab9396d68279457f2d1254c90ec0", "is_disabled": 0, "type": "electric_scooter", "is_reserved": 0, "fusion_lon": 0.0, "lat": 38.92465633333333, "rental_uris": {"ios": "https://dc.lft.to/lastmile_qr_scan", "android": "https://dc.lft.to/lastmile_qr_scan"}, "bike_id": "5144ab9396d68279457f2d1254c90ec0", "fusion_lat": 0.0}, {"lon": -77.04695016666666, "name": "e5ffa5c73b1579f822ac517fd03c21f9", "is_disabled": 0, "type": "electric_scooter", "is_reserved": 0, "fusion_lon": 0.0, "lat": 38.92161566666667, "rental_uris": {"ios": "https://dc.lft.to/lastmile_qr_scan", "android": "https://dc.lft.to/lastmile_qr_scan"}, "bike_id": "e5ffa5c73b1579f822ac517fd03c21f9", "fusion_lat": 0.0}, {"lon": -77.0185115, "name": "1a648b3caa416ed4ccbe04677f94fabc", "is_disabled": 0, "type": "electric_scooter", "is_reserved": 0, "fusion_lon": 0.0, "lat": 38.901124, "rental_uris": {"ios": "https://dc.lft.to/lastmile_qr_scan", "android": "https://dc.lft.to/lastmile_qr_scan"}, "bike_id": "1a648b3caa416ed4ccbe04677f94fabc", "fusion_lat": 0.0}, {"lon": -77.00060916666666, "name": "ee513078524e8c856f74044cdd09410a", "is_disabled": 0, "type": "electric_scooter", "is_reserved": 0, "fusion_lon": 0.0, "lat": 38.875277833333335, "rental_uris": {"ios": "https://dc.lft.to/lastmile_qr_scan", "android": "https://dc.lft.to/lastmile_qr_scan"}, "bike_id": "ee513078524e8c856f74044cdd09410a", "fusion_lat": 0.0}, {"lon": -77.0206005, "name": "baa747cfdb6fc0d736707a8b50359be5", "is_disabled": 0, "type": "electric_scooter", "is_reserved": 0, "fusion_lon": 0.0, "lat": 38.923587, "rental_uris": {"ios": "https://dc.lft.to/lastmile_qr_scan", "android": "https://dc.lft.to/lastmile_qr_scan"}, "bike_id": "baa747cfdb6fc0d736707a8b50359be5", "fusion_lat": 0.0}, {"lon": -77.00796983333333, "name": "785c5129af11ee722079d6ae44eaab07", "is_disabled": 0, "type": "electric_scooter", "is_reserved": 0, "fusion_lon": 0.0, "lat": 38.897168, "rental_uris": {"ios": "https://dc.lft.to/lastmile_qr_scan", "android": "https://dc.lft.to/lastmile_qr_scan"}, "bike_id": "785c5129af11ee722079d6ae44eaab07", "fusion_lat": 0.0}, {"lon": -77.02457683333333, "name": "5bcb2ced76a29921555b763a9073fa70", "is_disabled": 0, "type": "electric_scooter", "is_reserved": 0, "fusion_lon": 0.0, "lat": 38.906298, "rental_uris": {"ios": "https://dc.lft.to/lastmile_qr_scan", "android": "https://dc.lft.to/lastmile_qr_scan"}, "bike_id": "5bcb2ced76a29921555b763a9073fa70", "fusion_lat": 0.0}, {"lon": -77.16226083333333, "name": "86ceb91798a2eb7c15c9a190c61b980b", "is_disabled": 0, "type": "electric_bike", "is_reserved": 0, "fusion_lon": 0.0, "lat": 38.88655716666667, "rental_uris": {"ios": "https://dc.lft.to/lastmile_qr_scan", "android": "https://dc.lft.to/lastmile_qr_scan"}, "bike_id": "86ceb91798a2eb7c15c9a190c61b980b", "fusion_lat": 0.0}, {"lon": -77.0240905, "name": "d60b7208fd2a4551243dcbcad2503f4d", "is_disabled": 0, "type": "electric_scooter", "is_reserved": 0, "fusion_lon": 0.0, "lat": 38.8922505, "rental_uris": {"ios": "https://dc.lft.to/lastmile_qr_scan", "android": "https://dc.lft.to/lastmile_qr_scan"}, "bike_id": "d60b7208fd2a4551243dcbcad2503f4d", "fusion_lat": 0.0}, {"lon": -77.04082133333333, "name": "6405908d0dec488802ce6b2dd50597f7", "is_disabled": 0, "type": "electric_scooter", "is_reserved": 0, "fusion_lon": 0.0, "lat": 38.92380516666667, "rental_uris": {"ios": "https://dc.lft.to/lastmile_qr_scan", "android": "https://dc.lft.to/lastmile_qr_scan"}, "bike_id": "6405908d0dec488802ce6b2dd50597f7", "fusion_lat": 0.0}, {"lon": -76.99888966666667, "name": "2f35283950fb557b11efff5131c71b82", "is_disabled": 0, "type": "electric_bike", "is_reserved": 0, "fusion_lon": 0.0, "lat": 38.9429985, "rental_uris": {"ios": "https://dc.lft.to/lastmile_qr_scan", "android": "https://dc.lft.to/lastmile_qr_scan"}, "bike_id": "2f35283950fb557b11efff5131c71b82", "fusion_lat": 0.0}, {"lon": -77.03395166666667, "name": "00938bc76ea7dc11082c9624ceb2bcd3", "is_disabled": 0, "type": "electric_scooter", "is_reserved": 0, "fusion_lon": 0.0, "lat": 38.901062833333334, "rental_uris": {"ios": "https://dc.lft.to/lastmile_qr_scan", "android": "https://dc.lft.to/lastmile_qr_scan"}, "bike_id": "00938bc76ea7dc11082c9624ceb2bcd3", "fusion_lat": 0.0}, {"lon": -77.04464416666667, "name": "22da9ff8fbb2352dcf4052e3089b439f", "is_disabled": 0, "type": "electric_scooter", "is_reserved": 0, "fusion_lon": 0.0, "lat": 38.915328833333334, "rental_uris": {"ios": "https://dc.lft.to/lastmile_qr_scan", "android": "https://dc.lft.to/lastmile_qr_scan"}, "bike_id": "22da9ff8fbb2352dcf4052e3089b439f", "fusion_lat": 0.0}, {"lon": -77.03326666666666, "name": "31f602b10ac3a3ef932e1219bb36e50f", "is_disabled": 0, "type": "electric_scooter", "is_reserved": 0, "fusion_lon": 0.0, "lat": 38.928625833333335, "rental_uris": {"ios": "https://dc.lft.to/lastmile_qr_scan", "android": "https://dc.lft.to/lastmile_qr_scan"}, "bike_id": "31f602b10ac3a3ef932e1219bb36e50f", "fusion_lat": 0.0}, {"lon": -77.0261915, "name": "16a20fdcfdad20ab253645cc6b116900", "is_disabled": 0, "type": "electric_scooter", "is_reserved": 0, "fusion_lon": 0.0, "lat": 38.896278, "rental_uris": {"ios": "https://dc.lft.to/lastmile_qr_scan", "android": "https://dc.lft.to/lastmile_qr_scan"}, "bike_id": "16a20fdcfdad20ab253645cc6b116900", "fusion_lat": 0.0}, {"lon": -76.945785, "name": "80aefa1315206eea2f7bc65650014c57", "is_disabled": 0, "type": "electric_scooter", "is_reserved": 0, "fusion_lon": 0.0, "lat": 38.899234666666665, "rental_uris": {"ios": "https://dc.lft.to/lastmile_qr_scan", "android": "https://dc.lft.to/lastmile_qr_scan"}, "bike_id": "80aefa1315206eea2f7bc65650014c57", "fusion_lat": 0.0}, {"lon": -77.03879483333333, "name": "b2acbbfa8d616165954be5bb6e461cf9", "is_disabled": 0, "type": "electric_bike", "is_reserved": 0, "fusion_lon": 0.0, "lat": 39.02622516666667, "rental_uris": {"ios": "https://dc.lft.to/lastmile_qr_scan", "android": "https://dc.lft.to/lastmile_qr_scan"}, "bike_id": "b2acbbfa8d616165954be5bb6e461cf9", "fusion_lat": 0.0}, {"lon": -77.04900466666666, "name": "c64c380dd6c362cbb746cd69c8a3507c", "is_disabled": 0, "type": "electric_scooter", "is_reserved": 0, "fusion_lon": 0.0, "lat": 38.915944, "rental_uris": {"ios": "https://dc.lft.to/lastmile_qr_scan", "android": "https://dc.lft.to/lastmile_qr_scan"}, "bike_id": "c64c380dd6c362cbb746cd69c8a3507c", "fusion_lat": 0.0}, {"lon": -77.05311216666666, "name": "0862f7c4939fa6436c2db4de5ee3d5e2", "is_disabled": 0, "type": "electric_scooter", "is_reserved": 0, "fusion_lon": 0.0, "lat": 38.934622, "rental_uris": {"ios": "https://dc.lft.to/lastmile_qr_scan", "android": "https://dc.lft.to/lastmile_qr_scan"}, "bike_id": "0862f7c4939fa6436c2db4de5ee3d5e2", "fusion_lat": 0.0}, {"lon": -77.02301866666667, "name": "37052c2576a979b36a6910fb950d6b53", "is_disabled": 0, "type": "electric_scooter", "is_reserved": 0, "fusion_lon": 0.0, "lat": 38.920622, "rental_uris": {"ios": "https://dc.lft.to/lastmile_qr_scan", "android": "https://dc.lft.to/lastmile_qr_scan"}, "bike_id": "37052c2576a979b36a6910fb950d6b53", "fusion_lat": 0.0}, {"lon": -77.00330266666667, "name": "27c2bbb386acf35b7dd885b148db91ed", "is_disabled": 0, "type": "electric_scooter", "is_reserved": 0, "fusion_lon": 0.0, "lat": 38.89362416666667, "rental_uris": {"ios": "https://dc.lft.to/lastmile_qr_scan", "android": "https://dc.lft.to/lastmile_qr_scan"}, "bike_id": "27c2bbb386acf35b7dd885b148db91ed", "fusion_lat": 0.0}, {"lon": -77.02538383333334, "name": "87794bbb9607ed4191da57a36993e8e7", "is_disabled": 0, "type": "electric_scooter", "is_reserved": 0, "fusion_lon": 0.0, "lat": 38.895901, "rental_uris": {"ios": "https://dc.lft.to/lastmile_qr_scan", "android": "https://dc.lft.to/lastmile_qr_scan"}, "bike_id": "87794bbb9607ed4191da57a36993e8e7", "fusion_lat": 0.0}, {"lon": -77.01215716666667, "name": "170c743127923bd7f2bb46d31a1451ec", "is_disabled": 0, "type": "electric_scooter", "is_reserved": 0, "fusion_lon": 0.0, "lat": 38.89805533333333, "rental_uris": {"ios": "https://dc.lft.to/lastmile_qr_scan", "android": "https://dc.lft.to/lastmile_qr_scan"}, "bike_id": "170c743127923bd7f2bb46d31a1451ec", "fusion_lat": 0.0}, {"lon": -77.018186, "name": "7d4ba3006c4f5127986d1911b4f3643d", "is_disabled": 0, "type": "electric_scooter", "is_reserved": 0, "fusion_lon": 0.0, "lat": 38.92126366666667, "rental_uris": {"ios": "https://dc.lft.to/lastmile_qr_scan", "android": "https://dc.lft.to/lastmile_qr_scan"}, "bike_id": "7d4ba3006c4f5127986d1911b4f3643d", "fusion_lat": 0.0}, {"lon": -77.03055816666667, "name": "ad08c97f8cb7799229231a006868c487", "is_disabled": 0, "type": "electric_scooter", "is_reserved": 0, "fusion_lon": 0.0, "lat": 38.941775666666665, "rental_uris": {"ios": "https://dc.lft.to/lastmile_qr_scan", "android": "https://dc.lft.to/lastmile_qr_scan"}, "bike_id": "ad08c97f8cb7799229231a006868c487", "fusion_lat": 0.0}, {"lon": -77.00206733333333, "name": "037bc7393282abc090319ec5daaaf242", "is_disabled": 0, "type": "electric_scooter", "is_reserved": 0, "fusion_lon": 0.0, "lat": 38.873962166666665, "rental_uris": {"ios": "https://dc.lft.to/lastmile_qr_scan", "android": "https://dc.lft.to/lastmile_qr_scan"}, "bike_id": "037bc7393282abc090319ec5daaaf242", "fusion_lat": 0.0}, {"lon": -77.01533433333333, "name": "1c2c45b3d8c1ee1ece3c99ecf9f05a26", "is_disabled": 0, "type": "electric_scooter", "is_reserved": 0, "fusion_lon": 0.0, "lat": 38.920578, "rental_uris": {"ios": "https://dc.lft.to/lastmile_qr_scan", "android": "https://dc.lft.to/lastmile_qr_scan"}, "bike_id": "1c2c45b3d8c1ee1ece3c99ecf9f05a26", "fusion_lat": 0.0}, {"lon": -77.033848, "name": "bd5d27aeb5b4cba97d2628efacb050c2", "is_disabled": 0, "type": "electric_scooter", "is_reserved": 0, "fusion_lon": 0.0, "lat": 38.900127833333336, "rental_uris": {"ios": "https://dc.lft.to/lastmile_qr_scan", "android": "https://dc.lft.to/lastmile_qr_scan"}, "bike_id": "bd5d27aeb5b4cba97d2628efacb050c2", "fusion_lat": 0.0}, {"lon": -76.98612116666666, "name": "c39c98b999c88ea9ca7d51c7c7e37fa5", "is_disabled": 0, "type": "electric_scooter", "is_reserved": 0, "fusion_lon": 0.0, "lat": 38.90343033333333, "rental_uris": {"ios": "https://dc.lft.to/lastmile_qr_scan", "android": "https://dc.lft.to/lastmile_qr_scan"}, "bike_id": "c39c98b999c88ea9ca7d51c7c7e37fa5", "fusion_lat": 0.0}, {"lon": -77.12934283333334, "name": "fd0ecf1d68f0ae80796c71fc600cc794", "is_disabled": 0, "type": "electric_bike", "is_reserved": 0, "fusion_lon": 0.0, "lat": 38.865747, "rental_uris": {"ios": "https://dc.lft.to/lastmile_qr_scan", "android": "https://dc.lft.to/lastmile_qr_scan"}, "bike_id": "fd0ecf1d68f0ae80796c71fc600cc794", "fusion_lat": 0.0}, {"lon": -77.0194525, "name": "8c61003c9420ff533c4ff9200db18cf6", "is_disabled": 0, "type": "electric_scooter", "is_reserved": 0, "fusion_lon": 0.0, "lat": 38.92246016666667, "rental_uris": {"ios": "https://dc.lft.to/lastmile_qr_scan", "android": "https://dc.lft.to/lastmile_qr_scan"}, "bike_id": "8c61003c9420ff533c4ff9200db18cf6", "fusion_lat": 0.0}, {"lon": -77.020728, "name": "3aca9ad74ea935ccb0b2755fca764fe5", "is_disabled": 0, "type": "electric_scooter", "is_reserved": 0, "fusion_lon": 0.0, "lat": 38.92287433333333, "rental_uris": {"ios": "https://dc.lft.to/lastmile_qr_scan", "android": "https://dc.lft.to/lastmile_qr_scan"}, "bike_id": "3aca9ad74ea935ccb0b2755fca764fe5", "fusion_lat": 0.0}, {"lon": -77.04998866666666, "name": "e9af028f29a332bc56adbb8b85449517", "is_disabled": 0, "type": "electric_scooter", "is_reserved": 0, "fusion_lon": 0.0, "lat": 38.89229666666667, "rental_uris": {"ios": "https://dc.lft.to/lastmile_qr_scan", "android": "https://dc.lft.to/lastmile_qr_scan"}, "bike_id": "e9af028f29a332bc56adbb8b85449517", "fusion_lat": 0.0}, {"lon": -77.03344433333334, "name": "535ca5020d76b2b09b7e8b28483c9ce4", "is_disabled": 0, "type": "electric_scooter", "is_reserved": 0, "fusion_lon": 0.0, "lat": 38.916974333333336, "rental_uris": {"ios": "https://dc.lft.to/lastmile_qr_scan", "android": "https://dc.lft.to/lastmile_qr_scan"}, "bike_id": "535ca5020d76b2b09b7e8b28483c9ce4", "fusion_lat": 0.0}, {"lon": -76.93967566666667, "name": "bacfb9e0e10d5e1acfa972b49a284d4f", "is_disabled": 0, "type": "electric_scooter", "is_reserved": 0, "fusion_lon": 0.0, "lat": 38.89964366666667, "rental_uris": {"ios": "https://dc.lft.to/lastmile_qr_scan", "android": "https://dc.lft.to/lastmile_qr_scan"}, "bike_id": "bacfb9e0e10d5e1acfa972b49a284d4f", "fusion_lat": 0.0}, {"lon": -77.02417683333333, "name": "8dcf7de1049f39307025e1e835ce5374", "is_disabled": 0, "type": "electric_scooter", "is_reserved": 0, "fusion_lon": 0.0, "lat": 38.8921595, "rental_uris": {"ios": "https://dc.lft.to/lastmile_qr_scan", "android": "https://dc.lft.to/lastmile_qr_scan"}, "bike_id": "8dcf7de1049f39307025e1e835ce5374", "fusion_lat": 0.0}, {"lon": -76.98351216666667, "name": "754a1703c1c2f8d6f0458041283de9aa", "is_disabled": 0, "type": "electric_bike", "is_reserved": 0, "fusion_lon": 0.0, "lat": 38.8625245, "rental_uris": {"ios": "https://dc.lft.to/lastmile_qr_scan", "android": "https://dc.lft.to/lastmile_qr_scan"}, "bike_id": "754a1703c1c2f8d6f0458041283de9aa", "fusion_lat": 0.0}, {"lon": -77.0219935, "name": "9f66bb4a32eb179be8e35a6634e1955b", "is_disabled": 0, "type": "electric_scooter", "is_reserved": 0, "fusion_lon": 0.0, "lat": 38.91098266666667, "rental_uris": {"ios": "https://dc.lft.to/lastmile_qr_scan", "android": "https://dc.lft.to/lastmile_qr_scan"}, "bike_id": "9f66bb4a32eb179be8e35a6634e1955b", "fusion_lat": 0.0}, {"lon": -76.98450183333334, "name": "b87c4676ff944b7a77b481f7f85a44dd", "is_disabled": 0, "type": "electric_scooter", "is_reserved": 0, "fusion_lon": 0.0, "lat": 38.89233266666667, "rental_uris": {"ios": "https://dc.lft.to/lastmile_qr_scan", "android": "https://dc.lft.to/lastmile_qr_scan"}, "bike_id": "b87c4676ff944b7a77b481f7f85a44dd", "fusion_lat": 0.0}, {"lon": -77.0221295, "name": "2cbd5bfa865266cc0accdd8779ca2b4a", "is_disabled": 0, "type": "electric_scooter", "is_reserved": 0, "fusion_lon": 0.0, "lat": 38.924737666666665, "rental_uris": {"ios": "https://dc.lft.to/lastmile_qr_scan", "android": "https://dc.lft.to/lastmile_qr_scan"}, "bike_id": "2cbd5bfa865266cc0accdd8779ca2b4a", "fusion_lat": 0.0}, {"lon": -77.015571, "name": "b581671ef385a7043479b5b8cde9c26a", "is_disabled": 0, "type": "electric_scooter", "is_reserved": 0, "fusion_lon": 0.0, "lat": 38.8917245, "rental_uris": {"ios": "https://dc.lft.to/lastmile_qr_scan", "android": "https://dc.lft.to/lastmile_qr_scan"}, "bike_id": "b581671ef385a7043479b5b8cde9c26a", "fusion_lat": 0.0}, {"lon": -77.043027, "name": "45457542a8bba9a4c1d6dc6eb3266147", "is_disabled": 0, "type": "electric_bike", "is_reserved": 0, "fusion_lon": 0.0, "lat": 39.034201833333334, "rental_uris": {"ios": "https://dc.lft.to/lastmile_qr_scan", "android": "https://dc.lft.to/lastmile_qr_scan"}, "bike_id": "45457542a8bba9a4c1d6dc6eb3266147", "fusion_lat": 0.0}, {"lon": -77.001244, "name": "28a0b082c95f4b4d64841188241a74c5", "is_disabled": 0, "type": "electric_scooter", "is_reserved": 0, "fusion_lon": 0.0, "lat": 38.87377766666667, "rental_uris": {"ios": "https://dc.lft.to/lastmile_qr_scan", "android": "https://dc.lft.to/lastmile_qr_scan"}, "bike_id": "28a0b082c95f4b4d64841188241a74c5", "fusion_lat": 0.0}, {"lon": -77.0450825, "name": "175757000db42748db606d4d37189854", "is_disabled": 0, "type": "electric_scooter", "is_reserved": 0, "fusion_lon": 0.0, "lat": 38.9078205, "rental_uris": {"ios": "https://dc.lft.to/lastmile_qr_scan", "android": "https://dc.lft.to/lastmile_qr_scan"}, "bike_id": "175757000db42748db606d4d37189854", "fusion_lat": 0.0}, {"lon": -76.9466425, "name": "3357189afb95bc472202cc1aa793f26e", "is_disabled": 0, "type": "electric_scooter", "is_reserved": 0, "fusion_lon": 0.0, "lat": 38.898688, "rental_uris": {"ios": "https://dc.lft.to/lastmile_qr_scan", "android": "https://dc.lft.to/lastmile_qr_scan"}, "bike_id": "3357189afb95bc472202cc1aa793f26e", "fusion_lat": 0.0}, {"lon": -77.00293583333334, "name": "5db09dfb5bbd6ad49b46d1dad89fe920", "is_disabled": 0, "type": "electric_scooter", "is_reserved": 0, "fusion_lon": 0.0, "lat": 38.89195433333333, "rental_uris": {"ios": "https://dc.lft.to/lastmile_qr_scan", "android": "https://dc.lft.to/lastmile_qr_scan"}, "bike_id": "5db09dfb5bbd6ad49b46d1dad89fe920", "fusion_lat": 0.0}, {"lon": -77.03333816666667, "name": "c9e9893e5fc93d7af788e39d71ee5507", "is_disabled": 0, "type": "electric_scooter", "is_reserved": 0, "fusion_lon": 0.0, "lat": 38.9287155, "rental_uris": {"ios": "https://dc.lft.to/lastmile_qr_scan", "android": "https://dc.lft.to/lastmile_qr_scan"}, "bike_id": "c9e9893e5fc93d7af788e39d71ee5507", "fusion_lat": 0.0}, {"lon": -77.0213355, "name": "3bcf99efb7687f61e54a397916c0b8d0", "is_disabled": 0, "type": "electric_scooter", "is_reserved": 0, "fusion_lon": 0.0, "lat": 38.92364716666667, "rental_uris": {"ios": "https://dc.lft.to/lastmile_qr_scan", "android": "https://dc.lft.to/lastmile_qr_scan"}, "bike_id": "3bcf99efb7687f61e54a397916c0b8d0", "fusion_lat": 0.0}, {"lon": -76.99856083333333, "name": "e1c0649d7012f2b95f677d8eb22c9738", "is_disabled": 0, "type": "electric_scooter", "is_reserved": 0, "fusion_lon": 0.0, "lat": 38.90257166666667, "rental_uris": {"ios": "https://dc.lft.to/lastmile_qr_scan", "android": "https://dc.lft.to/lastmile_qr_scan"}, "bike_id": "e1c0649d7012f2b95f677d8eb22c9738", "fusion_lat": 0.0}, {"lon": -77.065718, "name": "37b55a5068000c98197a9cd3982c934f", "is_disabled": 0, "type": "electric_bike", "is_reserved": 0, "fusion_lon": 0.0, "lat": 38.932603, "rental_uris": {"ios": "https://dc.lft.to/lastmile_qr_scan", "android": "https://dc.lft.to/lastmile_qr_scan"}, "bike_id": "37b55a5068000c98197a9cd3982c934f", "fusion_lat": 0.0}, {"lon": -77.0451865, "name": "40b41d90314a081655057c2f2155afba", "is_disabled": 0, "type": "electric_scooter", "is_reserved": 0, "fusion_lon": 0.0, "lat": 38.90858133333333, "rental_uris": {"ios": "https://dc.lft.to/lastmile_qr_scan", "android": "https://dc.lft.to/lastmile_qr_scan"}, "bike_id": "40b41d90314a081655057c2f2155afba", "fusion_lat": 0.0}, {"lon": -77.02730066666666, "name": "487794a63cf02e3fe7ecee68794c5320", "is_disabled": 0, "type": "electric_scooter", "is_reserved": 0, "fusion_lon": 0.0, "lat": 38.897996, "rental_uris": {"ios": "https://dc.lft.to/lastmile_qr_scan", "android": "https://dc.lft.to/lastmile_qr_scan"}, "bike_id": "487794a63cf02e3fe7ecee68794c5320", "fusion_lat": 0.0}, {"lon": -77.0454445, "name": "0ec68d80321dd71453445ad0710bc527", "is_disabled": 0, "type": "electric_scooter", "is_reserved": 0, "fusion_lon": 0.0, "lat": 38.91470733333333, "rental_uris": {"ios": "https://dc.lft.to/lastmile_qr_scan", "android": "https://dc.lft.to/lastmile_qr_scan"}, "bike_id": "0ec68d80321dd71453445ad0710bc527", "fusion_lat": 0.0}, {"lon": -77.05404333333334, "name": "63bb99b5146338ee58748829c22b6a02", "is_disabled": 0, "type": "electric_scooter", "is_reserved": 0, "fusion_lon": 0.0, "lat": 38.898579166666664, "rental_uris": {"ios": "https://dc.lft.to/lastmile_qr_scan", "android": "https://dc.lft.to/lastmile_qr_scan"}, "bike_id": "63bb99b5146338ee58748829c22b6a02", "fusion_lat": 0.0}, {"lon": -77.002207, "name": "4e2b59593840c4c3dc94572edbe2e2df", "is_disabled": 0, "type": "electric_scooter", "is_reserved": 0, "fusion_lon": 0.0, "lat": 38.891969833333334, "rental_uris": {"ios": "https://dc.lft.to/lastmile_qr_scan", "android": "https://dc.lft.to/lastmile_qr_scan"}, "bike_id": "4e2b59593840c4c3dc94572edbe2e2df", "fusion_lat": 0.0}, {"lon": -77.06457266666666, "name": "ac94128ae909e684f702c006a201152f", "is_disabled": 0, "type": "electric_scooter", "is_reserved": 0, "fusion_lon": 0.0, "lat": 38.910448333333335, "rental_uris": {"ios": "https://dc.lft.to/lastmile_qr_scan", "android": "https://dc.lft.to/lastmile_qr_scan"}, "bike_id": "ac94128ae909e684f702c006a201152f", "fusion_lat": 0.0}, {"lon": -77.027107, "name": "169020ce95c516ab9720709657ebc2b8", "is_disabled": 0, "type": "electric_scooter", "is_reserved": 0, "fusion_lon": 0.0, "lat": 38.91816216666667, "rental_uris": {"ios": "https://dc.lft.to/lastmile_qr_scan", "android": "https://dc.lft.to/lastmile_qr_scan"}, "bike_id": "169020ce95c516ab9720709657ebc2b8", "fusion_lat": 0.0}, {"lon": -77.02073316666667, "name": "b75c2acf118f57bd834587c02fce9b1f", "is_disabled": 0, "type": "electric_scooter", "is_reserved": 0, "fusion_lon": 0.0, "lat": 38.952526166666665, "rental_uris": {"ios": "https://dc.lft.to/lastmile_qr_scan", "android": "https://dc.lft.to/lastmile_qr_scan"}, "bike_id": "b75c2acf118f57bd834587c02fce9b1f", "fusion_lat": 0.0}, {"lon": -76.9519755, "name": "19305cdcf0598d6bd02ed50902032349", "is_disabled": 0, "type": "electric_bike", "is_reserved": 0, "fusion_lon": 0.0, "lat": 38.89112083333333, "rental_uris": {"ios": "https://dc.lft.to/lastmile_qr_scan", "android": "https://dc.lft.to/lastmile_qr_scan"}, "bike_id": "19305cdcf0598d6bd02ed50902032349", "fusion_lat": 0.0}, {"lon": -77.04048416666667, "name": "354ea8e0fbcbfb2a0f70ec90e527c46e", "is_disabled": 0, "type": "electric_scooter", "is_reserved": 0, "fusion_lon": 0.0, "lat": 38.89892583333334, "rental_uris": {"ios": "https://dc.lft.to/lastmile_qr_scan", "android": "https://dc.lft.to/lastmile_qr_scan"}, "bike_id": "354ea8e0fbcbfb2a0f70ec90e527c46e", "fusion_lat": 0.0}, {"lon": -77.03185716666667, "name": "23efcc415efde563577fe2b3ec1a9c76", "is_disabled": 0, "type": "electric_scooter", "is_reserved": 0, "fusion_lon": 0.0, "lat": 38.89233316666667, "rental_uris": {"ios": "https://dc.lft.to/lastmile_qr_scan", "android": "https://dc.lft.to/lastmile_qr_scan"}, "bike_id": "23efcc415efde563577fe2b3ec1a9c76", "fusion_lat": 0.0}, {"lon": -77.02809766666667, "name": "baa74f041e74021336c207b59eb60812", "is_disabled": 0, "type": "electric_scooter", "is_reserved": 0, "fusion_lon": 0.0, "lat": 38.922386333333336, "rental_uris": {"ios": "https://dc.lft.to/lastmile_qr_scan", "android": "https://dc.lft.to/lastmile_qr_scan"}, "bike_id": "baa74f041e74021336c207b59eb60812", "fusion_lat": 0.0}, {"lon": -76.99609233333334, "name": "094a525a9ff57b30e32120ac2d573cde", "is_disabled": 0, "type": "electric_scooter", "is_reserved": 0, "fusion_lon": 0.0, "lat": 38.901385166666664, "rental_uris": {"ios": "https://dc.lft.to/lastmile_qr_scan", "android": "https://dc.lft.to/lastmile_qr_scan"}, "bike_id": "094a525a9ff57b30e32120ac2d573cde", "fusion_lat": 0.0}, {"lon": -77.02539616666667, "name": "8fba6f244ff32a47d23aabba239cdfbc", "is_disabled": 0, "type": "electric_scooter", "is_reserved": 0, "fusion_lon": 0.0, "lat": 38.892120166666665, "rental_uris": {"ios": "https://dc.lft.to/lastmile_qr_scan", "android": "https://dc.lft.to/lastmile_qr_scan"}, "bike_id": "8fba6f244ff32a47d23aabba239cdfbc", "fusion_lat": 0.0}, {"lon": -77.04418083333333, "name": "9473934b0794118f854f7d5a5cd85dc3", "is_disabled": 0, "type": "electric_scooter", "is_reserved": 0, "fusion_lon": 0.0, "lat": 38.911175, "rental_uris": {"ios": "https://dc.lft.to/lastmile_qr_scan", "android": "https://dc.lft.to/lastmile_qr_scan"}, "bike_id": "9473934b0794118f854f7d5a5cd85dc3", "fusion_lat": 0.0}, {"lon": -77.06876583333333, "name": "5ee7b2170a2f314d487c810f64ae17b9", "is_disabled": 0, "type": "electric_scooter", "is_reserved": 0, "fusion_lon": 0.0, "lat": 38.905166666666666, "rental_uris": {"ios": "https://dc.lft.to/lastmile_qr_scan", "android": "https://dc.lft.to/lastmile_qr_scan"}, "bike_id": "5ee7b2170a2f314d487c810f64ae17b9", "fusion_lat": 0.0}, {"lon": -76.98337983333333, "name": "3a43cfa9fd7d52f1279f0365820bad7c", "is_disabled": 0, "type": "electric_scooter", "is_reserved": 0, "fusion_lon": 0.0, "lat": 38.895459333333335, "rental_uris": {"ios": "https://dc.lft.to/lastmile_qr_scan", "android": "https://dc.lft.to/lastmile_qr_scan"}, "bike_id": "3a43cfa9fd7d52f1279f0365820bad7c", "fusion_lat": 0.0}, {"lon": -76.9708245, "name": "50c634ced67ffd8cbad80562d650e343", "is_disabled": 0, "type": "electric_scooter", "is_reserved": 0, "fusion_lon": 0.0, "lat": 38.869397, "rental_uris": {"ios": "https://dc.lft.to/lastmile_qr_scan", "android": "https://dc.lft.to/lastmile_qr_scan"}, "bike_id": "50c634ced67ffd8cbad80562d650e343", "fusion_lat": 0.0}, {"lon": -77.005923, "name": "16a864a60e60e78392b0445051300a66", "is_disabled": 0, "type": "electric_scooter", "is_reserved": 0, "fusion_lon": 0.0, "lat": 38.905715, "rental_uris": {"ios": "https://dc.lft.to/lastmile_qr_scan", "android": "https://dc.lft.to/lastmile_qr_scan"}, "bike_id": "16a864a60e60e78392b0445051300a66", "fusion_lat": 0.0}, {"lon": -77.03182066666666, "name": "f645e3d2345238b507ccf28bcb30c3ba", "is_disabled": 0, "type": "electric_scooter", "is_reserved": 0, "fusion_lon": 0.0, "lat": 38.89239666666667, "rental_uris": {"ios": "https://dc.lft.to/lastmile_qr_scan", "android": "https://dc.lft.to/lastmile_qr_scan"}, "bike_id": "f645e3d2345238b507ccf28bcb30c3ba", "fusion_lat": 0.0}, {"lon": -76.9787755, "name": "865d7bddde847cc22050c561a944e1b2", "is_disabled": 0, "type": "electric_scooter", "is_reserved": 0, "fusion_lon": 0.0, "lat": 38.89759183333334, "rental_uris": {"ios": "https://dc.lft.to/lastmile_qr_scan", "android": "https://dc.lft.to/lastmile_qr_scan"}, "bike_id": "865d7bddde847cc22050c561a944e1b2", "fusion_lat": 0.0}, {"lon": -77.00760966666667, "name": "5507f2d74b5df89bf30a1c031fbb67c6", "is_disabled": 0, "type": "electric_scooter", "is_reserved": 0, "fusion_lon": 0.0, "lat": 38.9095245, "rental_uris": {"ios": "https://dc.lft.to/lastmile_qr_scan", "android": "https://dc.lft.to/lastmile_qr_scan"}, "bike_id": "5507f2d74b5df89bf30a1c031fbb67c6", "fusion_lat": 0.0}, {"lon": -77.02211566666666, "name": "1840775ebf77f59c2853129ef00b063b", "is_disabled": 0, "type": "electric_scooter", "is_reserved": 0, "fusion_lon": 0.0, "lat": 38.924644, "rental_uris": {"ios": "https://dc.lft.to/lastmile_qr_scan", "android": "https://dc.lft.to/lastmile_qr_scan"}, "bike_id": "1840775ebf77f59c2853129ef00b063b", "fusion_lat": 0.0}, {"lon": -77.0036825, "name": "a558bde699f3e652a98ad03dac73b1d1", "is_disabled": 0, "type": "electric_scooter", "is_reserved": 0, "fusion_lon": 0.0, "lat": 38.899655, "rental_uris": {"ios": "https://dc.lft.to/lastmile_qr_scan", "android": "https://dc.lft.to/lastmile_qr_scan"}, "bike_id": "a558bde699f3e652a98ad03dac73b1d1", "fusion_lat": 0.0}, {"lon": -77.001828, "name": "eb86e5c170e9f0048731c7e44bacc2d8", "is_disabled": 0, "type": "electric_scooter", "is_reserved": 0, "fusion_lon": 0.0, "lat": 38.90032216666667, "rental_uris": {"ios": "https://dc.lft.to/lastmile_qr_scan", "android": "https://dc.lft.to/lastmile_qr_scan"}, "bike_id": "eb86e5c170e9f0048731c7e44bacc2d8", "fusion_lat": 0.0}, {"lon": -77.05006133333333, "name": "65f2bb21b32cfe75bffdba1193458e44", "is_disabled": 0, "type": "electric_scooter", "is_reserved": 0, "fusion_lon": 0.0, "lat": 38.900693833333335, "rental_uris": {"ios": "https://dc.lft.to/lastmile_qr_scan", "android": "https://dc.lft.to/lastmile_qr_scan"}, "bike_id": "65f2bb21b32cfe75bffdba1193458e44", "fusion_lat": 0.0}, {"lon": -77.0326035, "name": "3a3919728450b7d33c7ef150714c9fd4", "is_disabled": 0, "type": "electric_scooter", "is_reserved": 0, "fusion_lon": 0.0, "lat": 38.93443466666667, "rental_uris": {"ios": "https://dc.lft.to/lastmile_qr_scan", "android": "https://dc.lft.to/lastmile_qr_scan"}, "bike_id": "3a3919728450b7d33c7ef150714c9fd4", "fusion_lat": 0.0}, {"lon": -77.04641633333334, "name": "2b1b87d161c1a5b913c5eff9ff09e610", "is_disabled": 0, "type": "electric_bike", "is_reserved": 0, "fusion_lon": 0.0, "lat": 38.815427, "rental_uris": {"ios": "https://dc.lft.to/lastmile_qr_scan", "android": "https://dc.lft.to/lastmile_qr_scan"}, "bike_id": "2b1b87d161c1a5b913c5eff9ff09e610", "fusion_lat": 0.0}, {"lon": -77.0441785, "name": "f6448ec64c4acd7ad3c53d117ceb4c82", "is_disabled": 0, "type": "electric_scooter", "is_reserved": 0, "fusion_lon": 0.0, "lat": 38.89734766666667, "rental_uris": {"ios": "https://dc.lft.to/lastmile_qr_scan", "android": "https://dc.lft.to/lastmile_qr_scan"}, "bike_id": "f6448ec64c4acd7ad3c53d117ceb4c82", "fusion_lat": 0.0}, {"lon": -77.05049016666666, "name": "cf8cc0aca600f9dc633eca7c13a94ff5", "is_disabled": 0, "type": "electric_scooter", "is_reserved": 0, "fusion_lon": 0.0, "lat": 38.90148833333333, "rental_uris": {"ios": "https://dc.lft.to/lastmile_qr_scan", "android": "https://dc.lft.to/lastmile_qr_scan"}, "bike_id": "cf8cc0aca600f9dc633eca7c13a94ff5", "fusion_lat": 0.0}, {"lon": -77.018987, "name": "f5a94af202a35e28a55c110dc728ba96", "is_disabled": 0, "type": "electric_scooter", "is_reserved": 0, "fusion_lon": 0.0, "lat": 38.9232935, "rental_uris": {"ios": "https://dc.lft.to/lastmile_qr_scan", "android": "https://dc.lft.to/lastmile_qr_scan"}, "bike_id": "f5a94af202a35e28a55c110dc728ba96", "fusion_lat": 0.0}, {"lon": -77.0296025, "name": "f8a49f71e47a7e597e0eeb7412c825b0", "is_disabled": 0, "type": "electric_scooter", "is_reserved": 0, "fusion_lon": 0.0, "lat": 38.9260905, "rental_uris": {"ios": "https://dc.lft.to/lastmile_qr_scan", "android": "https://dc.lft.to/lastmile_qr_scan"}, "bike_id": "f8a49f71e47a7e597e0eeb7412c825b0", "fusion_lat": 0.0}, {"lon": -77.00200533333333, "name": "d247ada3d0970184f426fe59a4f7a77b", "is_disabled": 0, "type": "electric_scooter", "is_reserved": 0, "fusion_lon": 0.0, "lat": 38.911743333333334, "rental_uris": {"ios": "https://dc.lft.to/lastmile_qr_scan", "android": "https://dc.lft.to/lastmile_qr_scan"}, "bike_id": "d247ada3d0970184f426fe59a4f7a77b", "fusion_lat": 0.0}, {"lon": -76.988669, "name": "a40973bf6e94b239a2c5bb5f1bff736b", "is_disabled": 0, "type": "electric_scooter", "is_reserved": 0, "fusion_lon": 0.0, "lat": 38.913469, "rental_uris": {"ios": "https://dc.lft.to/lastmile_qr_scan", "android": "https://dc.lft.to/lastmile_qr_scan"}, "bike_id": "a40973bf6e94b239a2c5bb5f1bff736b", "fusion_lat": 0.0}, {"lon": -77.0318865, "name": "6323b664380a0b521601e47a762eca31", "is_disabled": 0, "type": "electric_scooter", "is_reserved": 0, "fusion_lon": 0.0, "lat": 38.8923465, "rental_uris": {"ios": "https://dc.lft.to/lastmile_qr_scan", "android": "https://dc.lft.to/lastmile_qr_scan"}, "bike_id": "6323b664380a0b521601e47a762eca31", "fusion_lat": 0.0}, {"lon": -77.03200166666667, "name": "4c2c9f74f52ec91587c2a05d6e96794b", "is_disabled": 0, "type": "electric_scooter", "is_reserved": 0, "fusion_lon": 0.0, "lat": 38.930509666666666, "rental_uris": {"ios": "https://dc.lft.to/lastmile_qr_scan", "android": "https://dc.lft.to/lastmile_qr_scan"}, "bike_id": "4c2c9f74f52ec91587c2a05d6e96794b", "fusion_lat": 0.0}, {"lon": -77.045003, "name": "3c5a95958709723dd2466311b45474e1", "is_disabled": 0, "type": "electric_scooter", "is_reserved": 0, "fusion_lon": 0.0, "lat": 38.91008983333333, "rental_uris": {"ios": "https://dc.lft.to/lastmile_qr_scan", "android": "https://dc.lft.to/lastmile_qr_scan"}, "bike_id": "3c5a95958709723dd2466311b45474e1", "fusion_lat": 0.0}, {"lon": -77.02678716666667, "name": "4fa403125ec8c8f1e9047dba6f82d7d3", "is_disabled": 0, "type": "electric_scooter", "is_reserved": 0, "fusion_lon": 0.0, "lat": 38.98459233333333, "rental_uris": {"ios": "https://dc.lft.to/lastmile_qr_scan", "android": "https://dc.lft.to/lastmile_qr_scan"}, "bike_id": "4fa403125ec8c8f1e9047dba6f82d7d3", "fusion_lat": 0.0}, {"lon": -77.02115066666667, "name": "ef7b3cfc681ac9089bf99dfd8e30512c", "is_disabled": 0, "type": "electric_scooter", "is_reserved": 0, "fusion_lon": 0.0, "lat": 38.8946945, "rental_uris": {"ios": "https://dc.lft.to/lastmile_qr_scan", "android": "https://dc.lft.to/lastmile_qr_scan"}, "bike_id": "ef7b3cfc681ac9089bf99dfd8e30512c", "fusion_lat": 0.0}, {"lon": -77.00577316666667, "name": "963af80a51b8795a01c91aa795e72967", "is_disabled": 0, "type": "electric_scooter", "is_reserved": 0, "fusion_lon": 0.0, "lat": 38.87217316666667, "rental_uris": {"ios": "https://dc.lft.to/lastmile_qr_scan", "android": "https://dc.lft.to/lastmile_qr_scan"}, "bike_id": "963af80a51b8795a01c91aa795e72967", "fusion_lat": 0.0}, {"lon": -77.006628, "name": "f8dd3e0c6d5b95768ccfdbe948c0f957", "is_disabled": 0, "type": "electric_scooter", "is_reserved": 0, "fusion_lon": 0.0, "lat": 38.883085333333334, "rental_uris": {"ios": "https://dc.lft.to/lastmile_qr_scan", "android": "https://dc.lft.to/lastmile_qr_scan"}, "bike_id": "f8dd3e0c6d5b95768ccfdbe948c0f957", "fusion_lat": 0.0}, {"lon": -77.048138, "name": "28712ea10fb1e69c73812e628ba320ae", "is_disabled": 0, "type": "electric_scooter", "is_reserved": 0, "fusion_lon": 0.0, "lat": 38.901883166666664, "rental_uris": {"ios": "https://dc.lft.to/lastmile_qr_scan", "android": "https://dc.lft.to/lastmile_qr_scan"}, "bike_id": "28712ea10fb1e69c73812e628ba320ae", "fusion_lat": 0.0}, {"lon": -77.00145766666667, "name": "ac6345d1a4f701fa14d6322b005c49d0", "is_disabled": 0, "type": "electric_scooter", "is_reserved": 0, "fusion_lon": 0.0, "lat": 38.867497, "rental_uris": {"ios": "https://dc.lft.to/lastmile_qr_scan", "android": "https://dc.lft.to/lastmile_qr_scan"}, "bike_id": "ac6345d1a4f701fa14d6322b005c49d0", "fusion_lat": 0.0}, {"lon": -77.02940266666667, "name": "47a3a14666a63ce71ed175d057d9d56e", "is_disabled": 0, "type": "electric_scooter", "is_reserved": 0, "fusion_lon": 0.0, "lat": 38.94276933333333, "rental_uris": {"ios": "https://dc.lft.to/lastmile_qr_scan", "android": "https://dc.lft.to/lastmile_qr_scan"}, "bike_id": "47a3a14666a63ce71ed175d057d9d56e", "fusion_lat": 0.0}, {"lon": -76.9506245, "name": "bf8c8b0cfb0915a5356afdf0719e75ac", "is_disabled": 0, "type": "electric_bike", "is_reserved": 0, "fusion_lon": 0.0, "lat": 39.0850975, "rental_uris": {"ios": "https://dc.lft.to/lastmile_qr_scan", "android": "https://dc.lft.to/lastmile_qr_scan"}, "bike_id": "bf8c8b0cfb0915a5356afdf0719e75ac", "fusion_lat": 0.0}, {"lon": -77.02010816666666, "name": "02f1a9b15270ce18d43580f446149a7a", "is_disabled": 0, "type": "electric_scooter", "is_reserved": 0, "fusion_lon": 0.0, "lat": 38.89487916666667, "rental_uris": {"ios": "https://dc.lft.to/lastmile_qr_scan", "android": "https://dc.lft.to/lastmile_qr_scan"}, "bike_id": "02f1a9b15270ce18d43580f446149a7a", "fusion_lat": 0.0}, {"lon": -76.98243733333334, "name": "738e6fce85ff984235720990b9b1162c", "is_disabled": 0, "type": "electric_scooter", "is_reserved": 0, "fusion_lon": 0.0, "lat": 38.864563833333335, "rental_uris": {"ios": "https://dc.lft.to/lastmile_qr_scan", "android": "https://dc.lft.to/lastmile_qr_scan"}, "bike_id": "738e6fce85ff984235720990b9b1162c", "fusion_lat": 0.0}, {"lon": -77.03476366666666, "name": "48ee0a4265ef053717adbf5059c3bfb9", "is_disabled": 0, "type": "electric_scooter", "is_reserved": 0, "fusion_lon": 0.0, "lat": 38.90455266666667, "rental_uris": {"ios": "https://dc.lft.to/lastmile_qr_scan", "android": "https://dc.lft.to/lastmile_qr_scan"}, "bike_id": "48ee0a4265ef053717adbf5059c3bfb9", "fusion_lat": 0.0}, {"lon": -77.0400525, "name": "9f58613a6cd48fa9da53105f90d95cb7", "is_disabled": 0, "type": "electric_scooter", "is_reserved": 0, "fusion_lon": 0.0, "lat": 38.910015666666666, "rental_uris": {"ios": "https://dc.lft.to/lastmile_qr_scan", "android": "https://dc.lft.to/lastmile_qr_scan"}, "bike_id": "9f58613a6cd48fa9da53105f90d95cb7", "fusion_lat": 0.0}, {"lon": -76.97734416666667, "name": "27fc717eff6e9264c3049f14daeb51d7", "is_disabled": 0, "type": "electric_bike", "is_reserved": 0, "fusion_lon": 0.0, "lat": 38.864831333333335, "rental_uris": {"ios": "https://dc.lft.to/lastmile_qr_scan", "android": "https://dc.lft.to/lastmile_qr_scan"}, "bike_id": "27fc717eff6e9264c3049f14daeb51d7", "fusion_lat": 0.0}, {"lon": -77.03188266666666, "name": "6ba853a7008fa7e8d98f0a777b816b16", "is_disabled": 0, "type": "electric_scooter", "is_reserved": 0, "fusion_lon": 0.0, "lat": 38.89236366666667, "rental_uris": {"ios": "https://dc.lft.to/lastmile_qr_scan", "android": "https://dc.lft.to/lastmile_qr_scan"}, "bike_id": "6ba853a7008fa7e8d98f0a777b816b16", "fusion_lat": 0.0}, {"lon": -77.00139833333333, "name": "6923f8542f83f4b9243969542a0d00c4", "is_disabled": 0, "type": "electric_scooter", "is_reserved": 0, "fusion_lon": 0.0, "lat": 38.884333166666664, "rental_uris": {"ios": "https://dc.lft.to/lastmile_qr_scan", "android": "https://dc.lft.to/lastmile_qr_scan"}, "bike_id": "6923f8542f83f4b9243969542a0d00c4", "fusion_lat": 0.0}, {"lon": -77.015842, "name": "d70d5e3089e273be04548095c6e7a285", "is_disabled": 0, "type": "electric_scooter", "is_reserved": 0, "fusion_lon": 0.0, "lat": 38.884981333333336, "rental_uris": {"ios": "https://dc.lft.to/lastmile_qr_scan", "android": "https://dc.lft.to/lastmile_qr_scan"}, "bike_id": "d70d5e3089e273be04548095c6e7a285", "fusion_lat": 0.0}, {"lon": -77.0465775, "name": "55122682441e06b91c4868c6bef1c7d8", "is_disabled": 0, "type": "electric_scooter", "is_reserved": 0, "fusion_lon": 0.0, "lat": 38.9097605, "rental_uris": {"ios": "https://dc.lft.to/lastmile_qr_scan", "android": "https://dc.lft.to/lastmile_qr_scan"}, "bike_id": "55122682441e06b91c4868c6bef1c7d8", "fusion_lat": 0.0}, {"lon": -76.99149533333333, "name": "059153363cbad454cfdc3cfea907fe9a", "is_disabled": 0, "type": "electric_scooter", "is_reserved": 0, "fusion_lon": 0.0, "lat": 38.89158166666667, "rental_uris": {"ios": "https://dc.lft.to/lastmile_qr_scan", "android": "https://dc.lft.to/lastmile_qr_scan"}, "bike_id": "059153363cbad454cfdc3cfea907fe9a", "fusion_lat": 0.0}, {"lon": -77.01499233333334, "name": "87ab9988002ac8bfa8379293c133b696", "is_disabled": 0, "type": "electric_scooter", "is_reserved": 0, "fusion_lon": 0.0, "lat": 38.891615, "rental_uris": {"ios": "https://dc.lft.to/lastmile_qr_scan", "android": "https://dc.lft.to/lastmile_qr_scan"}, "bike_id": "87ab9988002ac8bfa8379293c133b696", "fusion_lat": 0.0}, {"lon": -77.01835633333333, "name": "a9cceb81f9f705fff77f4e51cb9d5451", "is_disabled": 0, "type": "electric_scooter", "is_reserved": 0, "fusion_lon": 0.0, "lat": 38.908624833333334, "rental_uris": {"ios": "https://dc.lft.to/lastmile_qr_scan", "android": "https://dc.lft.to/lastmile_qr_scan"}, "bike_id": "a9cceb81f9f705fff77f4e51cb9d5451", "fusion_lat": 0.0}, {"lon": -77.0551635, "name": "5455fa8d669dc7377bca6d93ca78a294", "is_disabled": 0, "type": "electric_scooter", "is_reserved": 0, "fusion_lon": 0.0, "lat": 38.92962766666667, "rental_uris": {"ios": "https://dc.lft.to/lastmile_qr_scan", "android": "https://dc.lft.to/lastmile_qr_scan"}, "bike_id": "5455fa8d669dc7377bca6d93ca78a294", "fusion_lat": 0.0}, {"lon": -77.0398745, "name": "0b5fd553bf9eac13cf132970d530f1a2", "is_disabled": 0, "type": "electric_scooter", "is_reserved": 0, "fusion_lon": 0.0, "lat": 38.90128933333333, "rental_uris": {"ios": "https://dc.lft.to/lastmile_qr_scan", "android": "https://dc.lft.to/lastmile_qr_scan"}, "bike_id": "0b5fd553bf9eac13cf132970d530f1a2", "fusion_lat": 0.0}, {"lon": -77.06281566666667, "name": "6d38ea3344b49a03636a9ad6a4e5e99a", "is_disabled": 0, "type": "electric_scooter", "is_reserved": 0, "fusion_lon": 0.0, "lat": 38.9054035, "rental_uris": {"ios": "https://dc.lft.to/lastmile_qr_scan", "android": "https://dc.lft.to/lastmile_qr_scan"}, "bike_id": "6d38ea3344b49a03636a9ad6a4e5e99a", "fusion_lat": 0.0}, {"lon": -77.05492933333333, "name": "829cc5cd2f940e817c601de3430003a9", "is_disabled": 0, "type": "electric_scooter", "is_reserved": 0, "fusion_lon": 0.0, "lat": 38.908448666666665, "rental_uris": {"ios": "https://dc.lft.to/lastmile_qr_scan", "android": "https://dc.lft.to/lastmile_qr_scan"}, "bike_id": "829cc5cd2f940e817c601de3430003a9", "fusion_lat": 0.0}, {"lon": -77.04303533333334, "name": "961b9dc8e0f763b5b49b3c442a30acbb", "is_disabled": 0, "type": "electric_scooter", "is_reserved": 0, "fusion_lon": 0.0, "lat": 38.900944, "rental_uris": {"ios": "https://dc.lft.to/lastmile_qr_scan", "android": "https://dc.lft.to/lastmile_qr_scan"}, "bike_id": "961b9dc8e0f763b5b49b3c442a30acbb", "fusion_lat": 0.0}, {"lon": -77.01981983333333, "name": "9630a99527a102a2a911820b75dcf8f9", "is_disabled": 0, "type": "electric_scooter", "is_reserved": 0, "fusion_lon": 0.0, "lat": 38.913286666666664, "rental_uris": {"ios": "https://dc.lft.to/lastmile_qr_scan", "android": "https://dc.lft.to/lastmile_qr_scan"}, "bike_id": "9630a99527a102a2a911820b75dcf8f9", "fusion_lat": 0.0}, {"lon": -77.09614883333333, "name": "bd9ac7ed9a2aeb389781deeac9182c29", "is_disabled": 0, "type": "electric_bike", "is_reserved": 0, "fusion_lon": 0.0, "lat": 38.97440566666667, "rental_uris": {"ios": "https://dc.lft.to/lastmile_qr_scan", "android": "https://dc.lft.to/lastmile_qr_scan"}, "bike_id": "bd9ac7ed9a2aeb389781deeac9182c29", "fusion_lat": 0.0}, {"lon": -77.03172083333334, "name": "c7d740e33d75e5ed746a270cb003a470", "is_disabled": 0, "type": "electric_scooter", "is_reserved": 0, "fusion_lon": 0.0, "lat": 38.912639166666665, "rental_uris": {"ios": "https://dc.lft.to/lastmile_qr_scan", "android": "https://dc.lft.to/lastmile_qr_scan"}, "bike_id": "c7d740e33d75e5ed746a270cb003a470", "fusion_lat": 0.0}, {"lon": -77.009188, "name": "7c87fd6ad1e19c23cc33e4e38acfd1dd", "is_disabled": 0, "type": "electric_scooter", "is_reserved": 0, "fusion_lon": 0.0, "lat": 38.918737166666666, "rental_uris": {"ios": "https://dc.lft.to/lastmile_qr_scan", "android": "https://dc.lft.to/lastmile_qr_scan"}, "bike_id": "7c87fd6ad1e19c23cc33e4e38acfd1dd", "fusion_lat": 0.0}, {"lon": -76.92654616666667, "name": "4b3ce886c9deabdf509f22eacdaa4569", "is_disabled": 0, "type": "electric_scooter", "is_reserved": 0, "fusion_lon": 0.0, "lat": 38.8954605, "rental_uris": {"ios": "https://dc.lft.to/lastmile_qr_scan", "android": "https://dc.lft.to/lastmile_qr_scan"}, "bike_id": "4b3ce886c9deabdf509f22eacdaa4569", "fusion_lat": 0.0}, {"lon": -77.040022, "name": "eaeeaa3d314c635b08100a5f9aaa3fe0", "is_disabled": 0, "type": "electric_scooter", "is_reserved": 0, "fusion_lon": 0.0, "lat": 38.93425233333333, "rental_uris": {"ios": "https://dc.lft.to/lastmile_qr_scan", "android": "https://dc.lft.to/lastmile_qr_scan"}, "bike_id": "eaeeaa3d314c635b08100a5f9aaa3fe0", "fusion_lat": 0.0}, {"lon": -77.0195005, "name": "4fe9595683ba31cda700c27a82f1b68c", "is_disabled": 0, "type": "electric_scooter", "is_reserved": 0, "fusion_lon": 0.0, "lat": 38.9224685, "rental_uris": {"ios": "https://dc.lft.to/lastmile_qr_scan", "android": "https://dc.lft.to/lastmile_qr_scan"}, "bike_id": "4fe9595683ba31cda700c27a82f1b68c", "fusion_lat": 0.0}, {"lon": -77.021139, "name": "2054bb5d8065a4c8f9d80d2fc249f9be", "is_disabled": 0, "type": "electric_scooter", "is_reserved": 0, "fusion_lon": 0.0, "lat": 38.917344666666665, "rental_uris": {"ios": "https://dc.lft.to/lastmile_qr_scan", "android": "https://dc.lft.to/lastmile_qr_scan"}, "bike_id": "2054bb5d8065a4c8f9d80d2fc249f9be", "fusion_lat": 0.0}, {"lon": -77.03283383333333, "name": "7e4fe7480f3936749e0bd053923cec86", "is_disabled": 0, "type": "electric_scooter", "is_reserved": 0, "fusion_lon": 0.0, "lat": 38.935386333333334, "rental_uris": {"ios": "https://dc.lft.to/lastmile_qr_scan", "android": "https://dc.lft.to/lastmile_qr_scan"}, "bike_id": "7e4fe7480f3936749e0bd053923cec86", "fusion_lat": 0.0}, {"lon": -77.021616, "name": "7089a1aa8ddfadc001686e96cf30de92", "is_disabled": 0, "type": "electric_bike", "is_reserved": 0, "fusion_lon": 0.0, "lat": 38.95738333333333, "rental_uris": {"ios": "https://dc.lft.to/lastmile_qr_scan", "android": "https://dc.lft.to/lastmile_qr_scan"}, "bike_id": "7089a1aa8ddfadc001686e96cf30de92", "fusion_lat": 0.0}, {"lon": -77.04341716666667, "name": "9233591e2d4ea113b5dbbe908b067f44", "is_disabled": 0, "type": "electric_scooter", "is_reserved": 0, "fusion_lon": 0.0, "lat": 38.89728683333333, "rental_uris": {"ios": "https://dc.lft.to/lastmile_qr_scan", "android": "https://dc.lft.to/lastmile_qr_scan"}, "bike_id": "9233591e2d4ea113b5dbbe908b067f44", "fusion_lat": 0.0}, {"lon": -77.003075, "name": "7a4294ba22eefc2fd3eb0463f221cc0c", "is_disabled": 0, "type": "electric_scooter", "is_reserved": 0, "fusion_lon": 0.0, "lat": 38.876552333333336, "rental_uris": {"ios": "https://dc.lft.to/lastmile_qr_scan", "android": "https://dc.lft.to/lastmile_qr_scan"}, "bike_id": "7a4294ba22eefc2fd3eb0463f221cc0c", "fusion_lat": 0.0}, {"lon": -77.03968783333333, "name": "c08412882e50690484e8759ce904d01a", "is_disabled": 0, "type": "electric_scooter", "is_reserved": 0, "fusion_lon": 0.0, "lat": 38.90564633333334, "rental_uris": {"ios": "https://dc.lft.to/lastmile_qr_scan", "android": "https://dc.lft.to/lastmile_qr_scan"}, "bike_id": "c08412882e50690484e8759ce904d01a", "fusion_lat": 0.0}, {"lon": -77.02029333333333, "name": "5376c9ba89946183f57c4912d3af1cba", "is_disabled": 0, "type": "electric_scooter", "is_reserved": 0, "fusion_lon": 0.0, "lat": 38.92127583333333, "rental_uris": {"ios": "https://dc.lft.to/lastmile_qr_scan", "android": "https://dc.lft.to/lastmile_qr_scan"}, "bike_id": "5376c9ba89946183f57c4912d3af1cba", "fusion_lat": 0.0}, {"lon": -77.0318525, "name": "b94573b32421c0fef58f37b3a48513c1", "is_disabled": 0, "type": "electric_scooter", "is_reserved": 0, "fusion_lon": 0.0, "lat": 38.9119045, "rental_uris": {"ios": "https://dc.lft.to/lastmile_qr_scan", "android": "https://dc.lft.to/lastmile_qr_scan"}, "bike_id": "b94573b32421c0fef58f37b3a48513c1", "fusion_lat": 0.0}, {"lon": -77.02825033333333, "name": "359b89dead44c5d98ce96a6e8539847f", "is_disabled": 0, "type": "electric_scooter", "is_reserved": 0, "fusion_lon": 0.0, "lat": 38.92225766666667, "rental_uris": {"ios": "https://dc.lft.to/lastmile_qr_scan", "android": "https://dc.lft.to/lastmile_qr_scan"}, "bike_id": "359b89dead44c5d98ce96a6e8539847f", "fusion_lat": 0.0}, {"lon": -77.0194545, "name": "5cda75eee4e015bc2dfbbfeda8f967b6", "is_disabled": 0, "type": "electric_scooter", "is_reserved": 0, "fusion_lon": 0.0, "lat": 38.884942333333335, "rental_uris": {"ios": "https://dc.lft.to/lastmile_qr_scan", "android": "https://dc.lft.to/lastmile_qr_scan"}, "bike_id": "5cda75eee4e015bc2dfbbfeda8f967b6", "fusion_lat": 0.0}, {"lon": -76.99652883333333, "name": "6113e32e29de13acf270708370dc81ad", "is_disabled": 0, "type": "electric_bike", "is_reserved": 0, "fusion_lon": 0.0, "lat": 38.967719, "rental_uris": {"ios": "https://dc.lft.to/lastmile_qr_scan", "android": "https://dc.lft.to/lastmile_qr_scan"}, "bike_id": "6113e32e29de13acf270708370dc81ad", "fusion_lat": 0.0}, {"lon": -77.029594, "name": "a2ab803bf8aa987e67dd807ce87be7e1", "is_disabled": 0, "type": "electric_scooter", "is_reserved": 0, "fusion_lon": 0.0, "lat": 38.895597, "rental_uris": {"ios": "https://dc.lft.to/lastmile_qr_scan", "android": "https://dc.lft.to/lastmile_qr_scan"}, "bike_id": "a2ab803bf8aa987e67dd807ce87be7e1", "fusion_lat": 0.0}, {"lon": -76.9842095, "name": "e3fdfb8368274f88f455d665ad489186", "is_disabled": 0, "type": "electric_scooter", "is_reserved": 0, "fusion_lon": 0.0, "lat": 38.899680333333336, "rental_uris": {"ios": "https://dc.lft.to/lastmile_qr_scan", "android": "https://dc.lft.to/lastmile_qr_scan"}, "bike_id": "e3fdfb8368274f88f455d665ad489186", "fusion_lat": 0.0}, {"lon": -77.01914266666667, "name": "7678e7921bee4d405cb7449aa55a1661", "is_disabled": 0, "type": "electric_scooter", "is_reserved": 0, "fusion_lon": 0.0, "lat": 38.89725933333333, "rental_uris": {"ios": "https://dc.lft.to/lastmile_qr_scan", "android": "https://dc.lft.to/lastmile_qr_scan"}, "bike_id": "7678e7921bee4d405cb7449aa55a1661", "fusion_lat": 0.0}, {"lon": -77.0091305, "name": "265aa194ead086bc4fcf1bfae352e1b2", "is_disabled": 0, "type": "electric_scooter", "is_reserved": 0, "fusion_lon": 0.0, "lat": 38.89716116666666, "rental_uris": {"ios": "https://dc.lft.to/lastmile_qr_scan", "android": "https://dc.lft.to/lastmile_qr_scan"}, "bike_id": "265aa194ead086bc4fcf1bfae352e1b2", "fusion_lat": 0.0}, {"lon": -77.0149725, "name": "ae3c4a1a3cb5ad0833a5d3de5d283deb", "is_disabled": 0, "type": "electric_scooter", "is_reserved": 0, "fusion_lon": 0.0, "lat": 38.8968255, "rental_uris": {"ios": "https://dc.lft.to/lastmile_qr_scan", "android": "https://dc.lft.to/lastmile_qr_scan"}, "bike_id": "ae3c4a1a3cb5ad0833a5d3de5d283deb", "fusion_lat": 0.0}, {"lon": -77.025973, "name": "c102a8b9582305c7d4537d4c4146de8b", "is_disabled": 0, "type": "electric_scooter", "is_reserved": 0, "fusion_lon": 0.0, "lat": 38.900108833333334, "rental_uris": {"ios": "https://dc.lft.to/lastmile_qr_scan", "android": "https://dc.lft.to/lastmile_qr_scan"}, "bike_id": "c102a8b9582305c7d4537d4c4146de8b", "fusion_lat": 0.0}, {"lon": -76.97678166666667, "name": "21f1d3bac9b557070921bf66ca2cfd43", "is_disabled": 0, "type": "electric_scooter", "is_reserved": 0, "fusion_lon": 0.0, "lat": 38.891966833333335, "rental_uris": {"ios": "https://dc.lft.to/lastmile_qr_scan", "android": "https://dc.lft.to/lastmile_qr_scan"}, "bike_id": "21f1d3bac9b557070921bf66ca2cfd43", "fusion_lat": 0.0}, {"lon": -77.03959616666667, "name": "ce63e68153ffaa6a258842486404dde8", "is_disabled": 0, "type": "electric_scooter", "is_reserved": 0, "fusion_lon": 0.0, "lat": 38.8924045, "rental_uris": {"ios": "https://dc.lft.to/lastmile_qr_scan", "android": "https://dc.lft.to/lastmile_qr_scan"}, "bike_id": "ce63e68153ffaa6a258842486404dde8", "fusion_lat": 0.0}, {"lon": -76.9318495, "name": "d2b58f448f3b3ae3f55998d28ff5ed7f", "is_disabled": 0, "type": "electric_scooter", "is_reserved": 0, "fusion_lon": 0.0, "lat": 38.898759, "rental_uris": {"ios": "https://dc.lft.to/lastmile_qr_scan", "android": "https://dc.lft.to/lastmile_qr_scan"}, "bike_id": "d2b58f448f3b3ae3f55998d28ff5ed7f", "fusion_lat": 0.0}, {"lon": -77.01051116666666, "name": "bb7c14facb828bb20fb8e2262748abc0", "is_disabled": 0, "type": "electric_bike", "is_reserved": 0, "fusion_lon": 0.0, "lat": 38.87764383333333, "rental_uris": {"ios": "https://dc.lft.to/lastmile_qr_scan", "android": "https://dc.lft.to/lastmile_qr_scan"}, "bike_id": "bb7c14facb828bb20fb8e2262748abc0", "fusion_lat": 0.0}, {"lon": -77.0305665, "name": "a683d43540beec65fdd249996ba77d16", "is_disabled": 0, "type": "electric_scooter", "is_reserved": 0, "fusion_lon": 0.0, "lat": 38.96275216666667, "rental_uris": {"ios": "https://dc.lft.to/lastmile_qr_scan", "android": "https://dc.lft.to/lastmile_qr_scan"}, "bike_id": "a683d43540beec65fdd249996ba77d16", "fusion_lat": 0.0}, {"lon": -77.009154, "name": "d13d8ae92fe04f611081bef72e4a6d74", "is_disabled": 0, "type": "electric_scooter", "is_reserved": 0, "fusion_lon": 0.0, "lat": 38.89555933333333, "rental_uris": {"ios": "https://dc.lft.to/lastmile_qr_scan", "android": "https://dc.lft.to/lastmile_qr_scan"}, "bike_id": "d13d8ae92fe04f611081bef72e4a6d74", "fusion_lat": 0.0}, {"lon": -76.98111633333333, "name": "efdd61f3bc05e72d19568b83ddf12d00", "is_disabled": 0, "type": "electric_bike", "is_reserved": 0, "fusion_lon": 0.0, "lat": 38.94568266666667, "rental_uris": {"ios": "https://dc.lft.to/lastmile_qr_scan", "android": "https://dc.lft.to/lastmile_qr_scan"}, "bike_id": "efdd61f3bc05e72d19568b83ddf12d00", "fusion_lat": 0.0}, {"lon": -77.0271225, "name": "a5cbb8c3d1cca8b9940e264128e998cb", "is_disabled": 0, "type": "electric_scooter", "is_reserved": 0, "fusion_lon": 0.0, "lat": 38.8982975, "rental_uris": {"ios": "https://dc.lft.to/lastmile_qr_scan", "android": "https://dc.lft.to/lastmile_qr_scan"}, "bike_id": "a5cbb8c3d1cca8b9940e264128e998cb", "fusion_lat": 0.0}, {"lon": -77.02847866666667, "name": "edda251d50ec7dc54de54a07b49200cc", "is_disabled": 0, "type": "electric_scooter", "is_reserved": 0, "fusion_lon": 0.0, "lat": 38.94492866666667, "rental_uris": {"ios": "https://dc.lft.to/lastmile_qr_scan", "android": "https://dc.lft.to/lastmile_qr_scan"}, "bike_id": "edda251d50ec7dc54de54a07b49200cc", "fusion_lat": 0.0}, {"lon": -77.03920083333334, "name": "46feff178ae3ae97b3a78235385ae003", "is_disabled": 0, "type": "electric_bike", "is_reserved": 0, "fusion_lon": 0.0, "lat": 38.921036666666666, "rental_uris": {"ios": "https://dc.lft.to/lastmile_qr_scan", "android": "https://dc.lft.to/lastmile_qr_scan"}, "bike_id": "46feff178ae3ae97b3a78235385ae003", "fusion_lat": 0.0}, {"lon": -77.01741366666667, "name": "a652b45269b92b8f26fce41a368e8469", "is_disabled": 0, "type": "electric_scooter", "is_reserved": 0, "fusion_lon": 0.0, "lat": 38.920510166666666, "rental_uris": {"ios": "https://dc.lft.to/lastmile_qr_scan", "android": "https://dc.lft.to/lastmile_qr_scan"}, "bike_id": "a652b45269b92b8f26fce41a368e8469", "fusion_lat": 0.0}, {"lon": -77.02323583333333, "name": "85ffa086d4b423c7dd081ca27baf9d12", "is_disabled": 0, "type": "electric_bike", "is_reserved": 0, "fusion_lon": 0.0, "lat": 38.944369, "rental_uris": {"ios": "https://dc.lft.to/lastmile_qr_scan", "android": "https://dc.lft.to/lastmile_qr_scan"}, "bike_id": "85ffa086d4b423c7dd081ca27baf9d12", "fusion_lat": 0.0}, {"lon": -77.02005483333333, "name": "c6ffbbe818b748ca0ada92186233e812", "is_disabled": 0, "type": "electric_scooter", "is_reserved": 0, "fusion_lon": 0.0, "lat": 38.90373566666667, "rental_uris": {"ios": "https://dc.lft.to/lastmile_qr_scan", "android": "https://dc.lft.to/lastmile_qr_scan"}, "bike_id": "c6ffbbe818b748ca0ada92186233e812", "fusion_lat": 0.0}, {"lon": -77.072514, "name": "b838003acb24d7740125bfb679e12cbe", "is_disabled": 0, "type": "electric_scooter", "is_reserved": 0, "fusion_lon": 0.0, "lat": 38.939488, "rental_uris": {"ios": "https://dc.lft.to/lastmile_qr_scan", "android": "https://dc.lft.to/lastmile_qr_scan"}, "bike_id": "b838003acb24d7740125bfb679e12cbe", "fusion_lat": 0.0}, {"lon": -77.03884883333333, "name": "8f63a69f2a4915543c30ec8483c499f7", "is_disabled": 0, "type": "electric_scooter", "is_reserved": 0, "fusion_lon": 0.0, "lat": 38.92040866666667, "rental_uris": {"ios": "https://dc.lft.to/lastmile_qr_scan", "android": "https://dc.lft.to/lastmile_qr_scan"}, "bike_id": "8f63a69f2a4915543c30ec8483c499f7", "fusion_lat": 0.0}, {"lon": -77.0216295, "name": "31b35be28626b416fe50fa2c5f40853a", "is_disabled": 0, "type": "electric_scooter", "is_reserved": 0, "fusion_lon": 0.0, "lat": 38.9261345, "rental_uris": {"ios": "https://dc.lft.to/lastmile_qr_scan", "android": "https://dc.lft.to/lastmile_qr_scan"}, "bike_id": "31b35be28626b416fe50fa2c5f40853a", "fusion_lat": 0.0}, {"lon": -77.063804, "name": "df63fb3a408fb08fbfb97ee8049f336d", "is_disabled": 0, "type": "electric_scooter", "is_reserved": 0, "fusion_lon": 0.0, "lat": 38.90604866666666, "rental_uris": {"ios": "https://dc.lft.to/lastmile_qr_scan", "android": "https://dc.lft.to/lastmile_qr_scan"}, "bike_id": "df63fb3a408fb08fbfb97ee8049f336d", "fusion_lat": 0.0}, {"lon": -76.932589, "name": "3d38aaf05a84dfcfe1182ff0d98b5abc", "is_disabled": 0, "type": "electric_scooter", "is_reserved": 0, "fusion_lon": 0.0, "lat": 38.88770616666667, "rental_uris": {"ios": "https://dc.lft.to/lastmile_qr_scan", "android": "https://dc.lft.to/lastmile_qr_scan"}, "bike_id": "3d38aaf05a84dfcfe1182ff0d98b5abc", "fusion_lat": 0.0}, {"lon": -77.0230285, "name": "ea9d9c099dedca6e2849a8b7a048b013", "is_disabled": 0, "type": "electric_scooter", "is_reserved": 0, "fusion_lon": 0.0, "lat": 38.94074033333333, "rental_uris": {"ios": "https://dc.lft.to/lastmile_qr_scan", "android": "https://dc.lft.to/lastmile_qr_scan"}, "bike_id": "ea9d9c099dedca6e2849a8b7a048b013", "fusion_lat": 0.0}, {"lon": -77.02734166666667, "name": "65290baae8371eba94f640ef9444cd5b", "is_disabled": 0, "type": "electric_scooter", "is_reserved": 0, "fusion_lon": 0.0, "lat": 38.94004866666667, "rental_uris": {"ios": "https://dc.lft.to/lastmile_qr_scan", "android": "https://dc.lft.to/lastmile_qr_scan"}, "bike_id": "65290baae8371eba94f640ef9444cd5b", "fusion_lat": 0.0}, {"lon": -77.02300783333334, "name": "a6d20cdee66b0dd8ff239ff265202921", "is_disabled": 0, "type": "electric_bike", "is_reserved": 0, "fusion_lon": 0.0, "lat": 38.966687666666665, "rental_uris": {"ios": "https://dc.lft.to/lastmile_qr_scan", "android": "https://dc.lft.to/lastmile_qr_scan"}, "bike_id": "a6d20cdee66b0dd8ff239ff265202921", "fusion_lat": 0.0}, {"lon": -77.06525466666666, "name": "b7741d04fdef373f73e58da37997dde5", "is_disabled": 0, "type": "electric_scooter", "is_reserved": 0, "fusion_lon": 0.0, "lat": 38.9052745, "rental_uris": {"ios": "https://dc.lft.to/lastmile_qr_scan", "android": "https://dc.lft.to/lastmile_qr_scan"}, "bike_id": "b7741d04fdef373f73e58da37997dde5", "fusion_lat": 0.0}, {"lon": -77.00583016666667, "name": "9e2a8790ca81ea206a304f6f0201bf9d", "is_disabled": 0, "type": "electric_scooter", "is_reserved": 0, "fusion_lon": 0.0, "lat": 38.87519866666667, "rental_uris": {"ios": "https://dc.lft.to/lastmile_qr_scan", "android": "https://dc.lft.to/lastmile_qr_scan"}, "bike_id": "9e2a8790ca81ea206a304f6f0201bf9d", "fusion_lat": 0.0}, {"lon": -77.04075016666667, "name": "bc934e9d57429df9a6fbe606a18f4499", "is_disabled": 0, "type": "electric_bike", "is_reserved": 0, "fusion_lon": 0.0, "lat": 38.830616666666664, "rental_uris": {"ios": "https://dc.lft.to/lastmile_qr_scan", "android": "https://dc.lft.to/lastmile_qr_scan"}, "bike_id": "bc934e9d57429df9a6fbe606a18f4499", "fusion_lat": 0.0}, {"lon": -76.9749095, "name": "dcd0c6330598b7b8f5c18be3324289c1", "is_disabled": 0, "type": "electric_scooter", "is_reserved": 0, "fusion_lon": 0.0, "lat": 38.871620166666666, "rental_uris": {"ios": "https://dc.lft.to/lastmile_qr_scan", "android": "https://dc.lft.to/lastmile_qr_scan"}, "bike_id": "dcd0c6330598b7b8f5c18be3324289c1", "fusion_lat": 0.0}, {"lon": -77.039303, "name": "71831cfdddfe0af414439b10100ac2bb", "is_disabled": 0, "type": "electric_scooter", "is_reserved": 0, "fusion_lon": 0.0, "lat": 38.91699033333333, "rental_uris": {"ios": "https://dc.lft.to/lastmile_qr_scan", "android": "https://dc.lft.to/lastmile_qr_scan"}, "bike_id": "71831cfdddfe0af414439b10100ac2bb", "fusion_lat": 0.0}, {"lon": -77.009776, "name": "a08e7c590af574ac5e159338b9d1c308", "is_disabled": 0, "type": "electric_scooter", "is_reserved": 0, "fusion_lon": 0.0, "lat": 38.908470666666666, "rental_uris": {"ios": "https://dc.lft.to/lastmile_qr_scan", "android": "https://dc.lft.to/lastmile_qr_scan"}, "bike_id": "a08e7c590af574ac5e159338b9d1c308", "fusion_lat": 0.0}, {"lon": -77.0346195, "name": "c009782dc0c31e85317189d768a7dd96", "is_disabled": 0, "type": "electric_scooter", "is_reserved": 0, "fusion_lon": 0.0, "lat": 38.90765233333333, "rental_uris": {"ios": "https://dc.lft.to/lastmile_qr_scan", "android": "https://dc.lft.to/lastmile_qr_scan"}, "bike_id": "c009782dc0c31e85317189d768a7dd96", "fusion_lat": 0.0}, {"lon": -76.99859583333334, "name": "271182058983a8ef5915ae85a50b2454", "is_disabled": 0, "type": "electric_scooter", "is_reserved": 0, "fusion_lon": 0.0, "lat": 38.902584, "rental_uris": {"ios": "https://dc.lft.to/lastmile_qr_scan", "android": "https://dc.lft.to/lastmile_qr_scan"}, "bike_id": "271182058983a8ef5915ae85a50b2454", "fusion_lat": 0.0}, {"lon": -77.023089, "name": "998b7baaeae89c66ce520fc7419c30bb", "is_disabled": 0, "type": "electric_scooter", "is_reserved": 0, "fusion_lon": 0.0, "lat": 38.92072916666667, "rental_uris": {"ios": "https://dc.lft.to/lastmile_qr_scan", "android": "https://dc.lft.to/lastmile_qr_scan"}, "bike_id": "998b7baaeae89c66ce520fc7419c30bb", "fusion_lat": 0.0}, {"lon": -77.0005165, "name": "a4a43ca545730988f17836d27e5aacbe", "is_disabled": 0, "type": "electric_scooter", "is_reserved": 0, "fusion_lon": 0.0, "lat": 38.87680816666666, "rental_uris": {"ios": "https://dc.lft.to/lastmile_qr_scan", "android": "https://dc.lft.to/lastmile_qr_scan"}, "bike_id": "a4a43ca545730988f17836d27e5aacbe", "fusion_lat": 0.0}, {"lon": -76.92503116666667, "name": "4b13592c34bc87b539f9880709552b83", "is_disabled": 0, "type": "electric_scooter", "is_reserved": 0, "fusion_lon": 0.0, "lat": 38.88600016666667, "rental_uris": {"ios": "https://dc.lft.to/lastmile_qr_scan", "android": "https://dc.lft.to/lastmile_qr_scan"}, "bike_id": "4b13592c34bc87b539f9880709552b83", "fusion_lat": 0.0}, {"lon": -76.99158833333334, "name": "1acbefa6521bc7ce85c112c8f28b8b22", "is_disabled": 0, "type": "electric_scooter", "is_reserved": 0, "fusion_lon": 0.0, "lat": 38.89902583333333, "rental_uris": {"ios": "https://dc.lft.to/lastmile_qr_scan", "android": "https://dc.lft.to/lastmile_qr_scan"}, "bike_id": "1acbefa6521bc7ce85c112c8f28b8b22", "fusion_lat": 0.0}, {"lon": -77.02758566666667, "name": "48e55e9a22ab50f93b55c526293ba929", "is_disabled": 0, "type": "electric_scooter", "is_reserved": 0, "fusion_lon": 0.0, "lat": 38.956127, "rental_uris": {"ios": "https://dc.lft.to/lastmile_qr_scan", "android": "https://dc.lft.to/lastmile_qr_scan"}, "bike_id": "48e55e9a22ab50f93b55c526293ba929", "fusion_lat": 0.0}, {"lon": -77.05699116666666, "name": "83ce791cd6fda5537ac15fc60f7a5932", "is_disabled": 0, "type": "electric_scooter", "is_reserved": 0, "fusion_lon": 0.0, "lat": 38.9166355, "rental_uris": {"ios": "https://dc.lft.to/lastmile_qr_scan", "android": "https://dc.lft.to/lastmile_qr_scan"}, "bike_id": "83ce791cd6fda5537ac15fc60f7a5932", "fusion_lat": 0.0}, {"lon": -76.99508783333333, "name": "ed47cdd309be78bcc81553279de8ba2e", "is_disabled": 0, "type": "electric_scooter", "is_reserved": 0, "fusion_lon": 0.0, "lat": 38.880833333333335, "rental_uris": {"ios": "https://dc.lft.to/lastmile_qr_scan", "android": "https://dc.lft.to/lastmile_qr_scan"}, "bike_id": "ed47cdd309be78bcc81553279de8ba2e", "fusion_lat": 0.0}, {"lon": -77.005311, "name": "7ee7dfdf2dc0aad5d019017ad4ad6f6f", "is_disabled": 0, "type": "electric_scooter", "is_reserved": 0, "fusion_lon": 0.0, "lat": 38.8754155, "rental_uris": {"ios": "https://dc.lft.to/lastmile_qr_scan", "android": "https://dc.lft.to/lastmile_qr_scan"}, "bike_id": "7ee7dfdf2dc0aad5d019017ad4ad6f6f", "fusion_lat": 0.0}, {"lon": -76.99733983333333, "name": "daa7f2dd1db5b27aae7c4932b59a550a", "is_disabled": 0, "type": "electric_scooter", "is_reserved": 0, "fusion_lon": 0.0, "lat": 38.896155, "rental_uris": {"ios": "https://dc.lft.to/lastmile_qr_scan", "android": "https://dc.lft.to/lastmile_qr_scan"}, "bike_id": "daa7f2dd1db5b27aae7c4932b59a550a", "fusion_lat": 0.0}, {"lon": -77.02394966666667, "name": "238a499baa1eba946e6824ca4dfee05f", "is_disabled": 0, "type": "electric_scooter", "is_reserved": 0, "fusion_lon": 0.0, "lat": 38.898652, "rental_uris": {"ios": "https://dc.lft.to/lastmile_qr_scan", "android": "https://dc.lft.to/lastmile_qr_scan"}, "bike_id": "238a499baa1eba946e6824ca4dfee05f", "fusion_lat": 0.0}, {"lon": -77.0306955, "name": "0a97f5e1f64a2035bd887655113490a6", "is_disabled": 0, "type": "electric_scooter", "is_reserved": 0, "fusion_lon": 0.0, "lat": 38.89982766666667, "rental_uris": {"ios": "https://dc.lft.to/lastmile_qr_scan", "android": "https://dc.lft.to/lastmile_qr_scan"}, "bike_id": "0a97f5e1f64a2035bd887655113490a6", "fusion_lat": 0.0}, {"lon": -76.97329666666667, "name": "57c4e946069b9a891c2d049448902963", "is_disabled": 0, "type": "electric_scooter", "is_reserved": 0, "fusion_lon": 0.0, "lat": 38.90412633333333, "rental_uris": {"ios": "https://dc.lft.to/lastmile_qr_scan", "android": "https://dc.lft.to/lastmile_qr_scan"}, "bike_id": "57c4e946069b9a891c2d049448902963", "fusion_lat": 0.0}, {"lon": -76.99147983333333, "name": "0b9a73aa7ebdbb64b77af7e044a4fa8e", "is_disabled": 0, "type": "electric_scooter", "is_reserved": 0, "fusion_lon": 0.0, "lat": 38.900389, "rental_uris": {"ios": "https://dc.lft.to/lastmile_qr_scan", "android": "https://dc.lft.to/lastmile_qr_scan"}, "bike_id": "0b9a73aa7ebdbb64b77af7e044a4fa8e", "fusion_lat": 0.0}, {"lon": -77.01992816666667, "name": "c05d69ea4f0fba275ee25db88616b03f", "is_disabled": 0, "type": "electric_scooter", "is_reserved": 0, "fusion_lon": 0.0, "lat": 38.937727833333334, "rental_uris": {"ios": "https://dc.lft.to/lastmile_qr_scan", "android": "https://dc.lft.to/lastmile_qr_scan"}, "bike_id": "c05d69ea4f0fba275ee25db88616b03f", "fusion_lat": 0.0}, {"lon": -77.04424833333333, "name": "95f07ca26a716e06e67b63c64b19f7de", "is_disabled": 0, "type": "electric_scooter", "is_reserved": 0, "fusion_lon": 0.0, "lat": 38.915386833333336, "rental_uris": {"ios": "https://dc.lft.to/lastmile_qr_scan", "android": "https://dc.lft.to/lastmile_qr_scan"}, "bike_id": "95f07ca26a716e06e67b63c64b19f7de", "fusion_lat": 0.0}, {"lon": -76.98372283333333, "name": "0be631887170a64a459a233bcdf2bbcc", "is_disabled": 0, "type": "electric_scooter", "is_reserved": 0, "fusion_lon": 0.0, "lat": 38.86030516666667, "rental_uris": {"ios": "https://dc.lft.to/lastmile_qr_scan", "android": "https://dc.lft.to/lastmile_qr_scan"}, "bike_id": "0be631887170a64a459a233bcdf2bbcc", "fusion_lat": 0.0}, {"lon": -77.024863, "name": "de526810eb4a032be0c90fa94f746ab5", "is_disabled": 0, "type": "electric_scooter", "is_reserved": 0, "fusion_lon": 0.0, "lat": 38.918693, "rental_uris": {"ios": "https://dc.lft.to/lastmile_qr_scan", "android": "https://dc.lft.to/lastmile_qr_scan"}, "bike_id": "de526810eb4a032be0c90fa94f746ab5", "fusion_lat": 0.0}, {"lon": -77.02527783333333, "name": "6510b14ee62197a09c5d62af656208fd", "is_disabled": 0, "type": "electric_scooter", "is_reserved": 0, "fusion_lon": 0.0, "lat": 38.948376833333334, "rental_uris": {"ios": "https://dc.lft.to/lastmile_qr_scan", "android": "https://dc.lft.to/lastmile_qr_scan"},