{"data": {"bikes": [{"is_reserved": 0, "type": "electric_scooter", "bike_id": "fb8a37f26b0e6bed1a231be9b9459b9a", "lat": 38.926800666666665, "lon": -77.0320095, "rental_uris": {"android": "https://dc.lft.to/lastmile_qr_scan", "ios": "https://dc.lft.to/lastmile_qr_scan"}, "is_disabled": 0, "fusion_lat": 0.0, "name": "fb8a37f26b0e6bed1a231be9b9459b9a", "fusion_lon": 0.0}, {"is_reserved": 0, "type": "electric_scooter", "bike_id": "35e2f8aac4588f8283b6d8a891356077", "lat": 38.87293183333333, "lon": -77.01074666666666, "rental_uris": {"android": "https://dc.lft.to/lastmile_qr_scan", "ios": "https://dc.lft.to/lastmile_qr_scan"}, "is_disabled": 0, "fusion_lat": 0.0, "name": "35e2f8aac4588f8283b6d8a891356077", "fusion_lon": 0.0}, {"is_reserved": 0, "type": "electric_scooter", "bike_id": "8ad29f54880ab783043a9dbb64b68a05", "lat": 38.8930845, "lon": -77.01211716666667, "rental_uris": {"android": "https://dc.lft.to/lastmile_qr_scan", "ios": "https://dc.lft.to/lastmile_qr_scan"}, "is_disabled": 0, "fusion_lat": 0.0, "name": "8ad29f54880ab783043a9dbb64b68a05", "fusion_lon": 0.0}, {"is_reserved": 0, "type": "electric_scooter", "bike_id": "8e3a0eae6bc2ceb602361145100df0b0", "lat": 38.893384833333336, "lon": -77.04873116666667, "rental_uris": {"android": "https://dc.lft.to/lastmile_qr_scan", "ios": "https://dc.lft.to/lastmile_qr_scan"}, "is_disabled": 0, "fusion_lat": 0.0, "name": "8e3a0eae6bc2ceb602361145100df0b0", "fusion_lon": 0.0}, {"is_reserved": 0, "type": "electric_scooter", "bike_id": "cf8ff85a45af88fd3ce7e2ac16831757", "lat": 38.896416, "lon": -77.00917983333333, "rental_uris": {"android": "https://dc.lft.to/lastmile_qr_scan", "ios": "https://dc.lft.to/lastmile_qr_scan"}, "is_disabled": 0, "fusion_lat": 0.0, "name": "cf8ff85a45af88fd3ce7e2ac16831757", "fusion_lon": 0.0}, {"is_reserved": 0, "type": "electric_scooter", "bike_id": "0133a8ba4510f505c8e255d42127a2ae", "lat": 38.89636816666667, "lon": -76.9280025, "rental_uris": {"android": "https://dc.lft.to/lastmile_qr_scan", "ios": "https://dc.lft.to/lastmile_qr_scan"}, "is_disabled": 0, "fusion_lat": 0.0, "name": "0133a8ba4510f505c8e255d42127a2ae", "fusion_lon": 0.0}, {"is_reserved": 0, "type": "electric_bike", "bike_id": "9d4460234f688c1df60c104fdea574c4", "lat": 38.873372833333335, "lon": -77.01857483333333, "rental_uris": {"android": "https://dc.lft.to/lastmile_qr_scan", "ios": "https://dc.lft.to/lastmile_qr_scan"}, "is_disabled": 0, "fusion_lat": 0.0, "name": "9d4460234f688c1df60c104fdea574c4", "fusion_lon": 0.0}, {"is_reserved": 0, "type": "electric_bike", "bike_id": "7ff5db03605132ad7793194d63b97d7c", "lat": 38.94262233333333, "lon": -76.99075716666667, "rental_uris": {"android": "https://dc.lft.to/lastmile_qr_scan", "ios": "https://dc.lft.to/lastmile_qr_scan"}, "is_disabled": 0, "fusion_lat": 0.0, "name": "7ff5db03605132ad7793194d63b97d7c", "fusion_lon": 0.0}, {"is_reserved": 0, "type": "electric_scooter", "bike_id": "5894269821feb02ad8b389d3acde3923", "lat": 38.90095766666666, "lon": -77.05788366666667, "rental_uris": {"android": "https://dc.lft.to/lastmile_qr_scan", "ios": "https://dc.lft.to/lastmile_qr_scan"}, "is_disabled": 0, "fusion_lat": 0.0, "name": "5894269821feb02ad8b389d3acde3923", "fusion_lon": 0.0}, {"is_reserved": 0, "type": "electric_scooter", "bike_id": "9ca6afc1eafacef12d760a75e0b43dab", "lat": 38.907638166666665, "lon": -77.032058, "rental_uris": {"android": "https://dc.lft.to/lastmile_qr_scan", "ios": "https://dc.lft.to/lastmile_qr_scan"}, "is_disabled": 0, "fusion_lat": 0.0, "name": "9ca6afc1eafacef12d760a75e0b43dab", "fusion_lon": 0.0}, {"is_reserved": 0, "type": "electric_scooter", "bike_id": "b1e89589acb8afffc8edd1fc914482a6", "lat": 38.8961125, "lon": -77.02995416666667, "rental_uris": {"android": "https://dc.lft.to/lastmile_qr_scan", "ios": "https://dc.lft.to/lastmile_qr_scan"}, "is_disabled": 0, "fusion_lat": 0.0, "name": "b1e89589acb8afffc8edd1fc914482a6", "fusion_lon": 0.0}, {"is_reserved": 0, "type": "electric_scooter", "bike_id": "a304f92d385fc69a00acf44e6452fede", "lat": 38.959024, "lon": -77.00026483333333, "rental_uris": {"android": "https://dc.lft.to/lastmile_qr_scan", "ios": "https://dc.lft.to/lastmile_qr_scan"}, "is_disabled": 0, "fusion_lat": 0.0, "name": "a304f92d385fc69a00acf44e6452fede", "fusion_lon": 0.0}, {"is_reserved": 0, "type": "electric_scooter", "bike_id": "961b8067e270f074d9aeff783174548f", "lat": 38.945911333333335, "lon": -77.02033733333333, "rental_uris": {"android": "https://dc.lft.to/lastmile_qr_scan", "ios": "https://dc.lft.to/lastmile_qr_scan"}, "is_disabled": 0, "fusion_lat": 0.0, "name": "961b8067e270f074d9aeff783174548f", "fusion_lon": 0.0}, {"is_reserved": 0, "type": "electric_scooter", "bike_id": "710c5e4f06725364d1d38b4480625dae", "lat": 38.9018875, "lon": -77.02184583333333, "rental_uris": {"android": "https://dc.lft.to/lastmile_qr_scan", "ios": "https://dc.lft.to/lastmile_qr_scan"}, "is_disabled": 0, "fusion_lat": 0.0, "name": "710c5e4f06725364d1d38b4480625dae", "fusion_lon": 0.0}, {"is_reserved": 0, "type": "electric_scooter", "bike_id": "98b6e316ca4819b52ed9afc4f2b3c0da", "lat": 38.89716166666667, "lon": -77.00754883333333, "rental_uris": {"android": "https://dc.lft.to/lastmile_qr_scan", "ios": "https://dc.lft.to/lastmile_qr_scan"}, "is_disabled": 0, "fusion_lat": 0.0, "name": "98b6e316ca4819b52ed9afc4f2b3c0da", "fusion_lon": 0.0}, {"is_reserved": 0, "type": "electric_scooter", "bike_id": "72224dbeb8b0056ff71ba24e42e90d53", "lat": 38.91551533333333, "lon": -77.02116933333333, "rental_uris": {"android": "https://dc.lft.to/lastmile_qr_scan", "ios": "https://dc.lft.to/lastmile_qr_scan"}, "is_disabled": 0, "fusion_lat": 0.0, "name": "72224dbeb8b0056ff71ba24e42e90d53", "fusion_lon": 0.0}, {"is_reserved": 0, "type": "electric_scooter", "bike_id": "87534c1f704eaa3dd0cef1756a95bef1", "lat": 38.9105215, "lon": -77.0636325, "rental_uris": {"android": "https://dc.lft.to/lastmile_qr_scan", "ios": "https://dc.lft.to/lastmile_qr_scan"}, "is_disabled": 0, "fusion_lat": 0.0, "name": "87534c1f704eaa3dd0cef1756a95bef1", "fusion_lon": 0.0}, {"is_reserved": 0, "type": "electric_scooter", "bike_id": "493ab2bac65510726ec8d19af5b61fa0", "lat": 38.90022966666667, "lon": -76.9989295, "rental_uris": {"android": "https://dc.lft.to/lastmile_qr_scan", "ios": "https://dc.lft.to/lastmile_qr_scan"}, "is_disabled": 0, "fusion_lat": 0.0, "name": "493ab2bac65510726ec8d19af5b61fa0", "fusion_lon": 0.0}, {"is_reserved": 0, "type": "electric_scooter", "bike_id": "748e4c718eef259eb409339a616490dc", "lat": 38.93187, "lon": -77.02351933333334, "rental_uris": {"android": "https://dc.lft.to/lastmile_qr_scan", "ios": "https://dc.lft.to/lastmile_qr_scan"}, "is_disabled": 0, "fusion_lat": 0.0, "name": "748e4c718eef259eb409339a616490dc", "fusion_lon": 0.0}, {"is_reserved": 0, "type": "electric_scooter", "bike_id": "bd06bf1cfeb912601a84887d77269f59", "lat": 38.892544666666666, "lon": -76.94136983333334, "rental_uris": {"android": "https://dc.lft.to/lastmile_qr_scan", "ios": "https://dc.lft.to/lastmile_qr_scan"}, "is_disabled": 0, "fusion_lat": 0.0, "name": "bd06bf1cfeb912601a84887d77269f59", "fusion_lon": 0.0}, {"is_reserved": 0, "type": "electric_scooter", "bike_id": "51a47612f02263076cf471afe55d8898", "lat": 38.883705166666665, "lon": -76.94151216666667, "rental_uris": {"android": "https://dc.lft.to/lastmile_qr_scan", "ios": "https://dc.lft.to/lastmile_qr_scan"}, "is_disabled": 0, "fusion_lat": 0.0, "name": "51a47612f02263076cf471afe55d8898", "fusion_lon": 0.0}, {"is_reserved": 0, "type": "electric_scooter", "bike_id": "12b83974145a6b16078ce2018066e63b", "lat": 38.902542833333335, "lon": -77.05405833333333, "rental_uris": {"android": "https://dc.lft.to/lastmile_qr_scan", "ios": "https://dc.lft.to/lastmile_qr_scan"}, "is_disabled": 0, "fusion_lat": 0.0, "name": "12b83974145a6b16078ce2018066e63b", "fusion_lon": 0.0}, {"is_reserved": 0, "type": "electric_scooter", "bike_id": "ac14e890b06fcb56ffcaaed2b5f9bc2c", "lat": 38.935089833333336, "lon": -77.02405583333334, "rental_uris": {"android": "https://dc.lft.to/lastmile_qr_scan", "ios": "https://dc.lft.to/lastmile_qr_scan"}, "is_disabled": 0, "fusion_lat": 0.0, "name": "ac14e890b06fcb56ffcaaed2b5f9bc2c", "fusion_lon": 0.0}, {"is_reserved": 0, "type": "electric_scooter", "bike_id": "ed234aa753db038f03bcff7a638ac4f7", "lat": 38.882948, "lon": -76.92930083333333, "rental_uris": {"android": "https://dc.lft.to/lastmile_qr_scan", "ios": "https://dc.lft.to/lastmile_qr_scan"}, "is_disabled": 0, "fusion_lat": 0.0, "name": "ed234aa753db038f03bcff7a638ac4f7", "fusion_lon": 0.0}, {"is_reserved": 0, "type": "electric_scooter", "bike_id": "7ff958bf883291b9836670ec0719d477", "lat": 38.91495116666667, "lon": -77.01221566666666, "rental_uris": {"android": "https://dc.lft.to/lastmile_qr_scan", "ios": "https://dc.lft.to/lastmile_qr_scan"}, "is_disabled": 0, "fusion_lat": 0.0, "name": "7ff958bf883291b9836670ec0719d477", "fusion_lon": 0.0}, {"is_reserved": 0, "type": "electric_scooter", "bike_id": "d99ce3748623a9480adfcbf1aa54656d", "lat": 38.86724383333333, "lon": -76.97916733333334, "rental_uris": {"android": "https://dc.lft.to/lastmile_qr_scan", "ios": "https://dc.lft.to/lastmile_qr_scan"}, "is_disabled": 0, "fusion_lat": 0.0, "name": "d99ce3748623a9480adfcbf1aa54656d", "fusion_lon": 0.0}, {"is_reserved": 0, "type": "electric_scooter", "bike_id": "b576dd7d3e77505137ee185dbbaa95d8", "lat": 38.875318, "lon": -77.0005555, "rental_uris": {"android": "https://dc.lft.to/lastmile_qr_scan", "ios": "https://dc.lft.to/lastmile_qr_scan"}, "is_disabled": 0, "fusion_lat": 0.0, "name": "b576dd7d3e77505137ee185dbbaa95d8", "fusion_lon": 0.0}, {"is_reserved": 0, "type": "electric_scooter", "bike_id": "8a9ad31d5b10d88ce2dc88de059960b8", "lat": 38.92220366666667, "lon": -77.0433415, "rental_uris": {"android": "https://dc.lft.to/lastmile_qr_scan", "ios": "https://dc.lft.to/lastmile_qr_scan"}, "is_disabled": 0, "fusion_lat": 0.0, "name": "8a9ad31d5b10d88ce2dc88de059960b8", "fusion_lon": 0.0}, {"is_reserved": 0, "type": "electric_scooter", "bike_id": "f9a47539ea705e36b8a150dc811405f7", "lat": 38.926326333333336, "lon": -77.03787533333333, "rental_uris": {"android": "https://dc.lft.to/lastmile_qr_scan", "ios": "https://dc.lft.to/lastmile_qr_scan"}, "is_disabled": 0, "fusion_lat": 0.0, "name": "f9a47539ea705e36b8a150dc811405f7", "fusion_lon": 0.0}, {"is_reserved": 0, "type": "electric_scooter", "bike_id": "af7fdab7f6e10440486ab8aa35cc5b38", "lat": 38.91402, "lon": -77.03318616666667, "rental_uris": {"android": "https://dc.lft.to/lastmile_qr_scan", "ios": "https://dc.lft.to/lastmile_qr_scan"}, "is_disabled": 0, "fusion_lat": 0.0, "name": "af7fdab7f6e10440486ab8aa35cc5b38", "fusion_lon": 0.0}, {"is_reserved": 0, "type": "electric_bike", "bike_id": "cb46d550648dc8da27268d64c0c6fac4", "lat": 38.8038175, "lon": -76.98816183333334, "rental_uris": {"android": "https://dc.lft.to/lastmile_qr_scan", "ios": "https://dc.lft.to/lastmile_qr_scan"}, "is_disabled": 0, "fusion_lat": 0.0, "name": "cb46d550648dc8da27268d64c0c6fac4", "fusion_lon": 0.0}, {"is_reserved": 0, "type": "electric_scooter", "bike_id": "4dd1ca66944a893a996681ed272b9e2e", "lat": 38.9307305, "lon": -77.01992333333334, "rental_uris": {"android": "https://dc.lft.to/lastmile_qr_scan", "ios": "https://dc.lft.to/lastmile_qr_scan"}, "is_disabled": 0, "fusion_lat": 0.0, "name": "4dd1ca66944a893a996681ed272b9e2e", "fusion_lon": 0.0}, {"is_reserved": 0, "type": "electric_scooter", "bike_id": "2c283ed0939ccd94e3e1bcfd36127e1a", "lat": 38.894597, "lon": -77.01898316666667, "rental_uris": {"android": "https://dc.lft.to/lastmile_qr_scan", "ios": "https://dc.lft.to/lastmile_qr_scan"}, "is_disabled": 0, "fusion_lat": 0.0, "name": "2c283ed0939ccd94e3e1bcfd36127e1a", "fusion_lon": 0.0}, {"is_reserved": 0, "type": "electric_scooter", "bike_id": "e9efa7359e6efc22ac3d601fb4912b9b", "lat": 38.912651333333336, "lon": -77.0483655, "rental_uris": {"android": "https://dc.lft.to/lastmile_qr_scan", "ios": "https://dc.lft.to/lastmile_qr_scan"}, "is_disabled": 0, "fusion_lat": 0.0, "name": "e9efa7359e6efc22ac3d601fb4912b9b", "fusion_lon": 0.0}, {"is_reserved": 0, "type": "electric_scooter", "bike_id": "12d0144148107c3a4fa225cd9ba19ffd", "lat": 38.9073055, "lon": -77.007042, "rental_uris": {"android": "https://dc.lft.to/lastmile_qr_scan", "ios": "https://dc.lft.to/lastmile_qr_scan"}, "is_disabled": 0, "fusion_lat": 0.0, "name": "12d0144148107c3a4fa225cd9ba19ffd", "fusion_lon": 0.0}, {"is_reserved": 0, "type": "electric_scooter", "bike_id": "b6687434e6d02dfd49792d1138464d46", "lat": 38.89919033333334, "lon": -77.03346316666666, "rental_uris": {"android": "https://dc.lft.to/lastmile_qr_scan", "ios": "https://dc.lft.to/lastmile_qr_scan"}, "is_disabled": 0, "fusion_lat": 0.0, "name": "b6687434e6d02dfd49792d1138464d46", "fusion_lon": 0.0}, {"is_reserved": 0, "type": "electric_bike", "bike_id": "23a3290969ca279750a8d62ef1cca153", "lat": 38.911154833333335, "lon": -77.0842275, "rental_uris": {"android": "https://dc.lft.to/lastmile_qr_scan", "ios": "https://dc.lft.to/lastmile_qr_scan"}, "is_disabled": 0, "fusion_lat": 0.0, "name": "23a3290969ca279750a8d62ef1cca153", "fusion_lon": 0.0}, {"is_reserved": 0, "type": "electric_scooter", "bike_id": "3c7122dc71c845d8b91c7b2b80006f8a", "lat": 38.93455766666666, "lon": -77.02403533333333, "rental_uris": {"android": "https://dc.lft.to/lastmile_qr_scan", "ios": "https://dc.lft.to/lastmile_qr_scan"}, "is_disabled": 0, "fusion_lat": 0.0, "name": "3c7122dc71c845d8b91c7b2b80006f8a", "fusion_lon": 0.0}, {"is_reserved": 0, "type": "electric_scooter", "bike_id": "15a6aacaa353679bbe0d167be4214054", "lat": 38.89351083333333, "lon": -76.99365233333333, "rental_uris": {"android": "https://dc.lft.to/lastmile_qr_scan", "ios": "https://dc.lft.to/lastmile_qr_scan"}, "is_disabled": 0, "fusion_lat": 0.0, "name": "15a6aacaa353679bbe0d167be4214054", "fusion_lon": 0.0}, {"is_reserved": 0, "type": "electric_scooter", "bike_id": "c306c9739e925dc14e2140f06b3b7a3b", "lat": 38.873837333333334, "lon": -77.00137216666667, "rental_uris": {"android": "https://dc.lft.to/lastmile_qr_scan", "ios": "https://dc.lft.to/lastmile_qr_scan"}, "is_disabled": 0, "fusion_lat": 0.0, "name": "c306c9739e925dc14e2140f06b3b7a3b", "fusion_lon": 0.0}, {"is_reserved": 0, "type": "electric_scooter", "bike_id": "699f028aa30e17106d5e709daa4934f3", "lat": 38.9014375, "lon": -77.02583116666666, "rental_uris": {"android": "https://dc.lft.to/lastmile_qr_scan", "ios": "https://dc.lft.to/lastmile_qr_scan"}, "is_disabled": 0, "fusion_lat": 0.0, "name": "699f028aa30e17106d5e709daa4934f3", "fusion_lon": 0.0}, {"is_reserved": 0, "type": "electric_scooter", "bike_id": "97377c1746b51ac7659c02f5801eb3d2", "lat": 38.9283325, "lon": -77.00607433333333, "rental_uris": {"android": "https://dc.lft.to/lastmile_qr_scan", "ios": "https://dc.lft.to/lastmile_qr_scan"}, "is_disabled": 0, "fusion_lat": 0.0, "name": "97377c1746b51ac7659c02f5801eb3d2", "fusion_lon": 0.0}, {"is_reserved": 0, "type": "electric_scooter", "bike_id": "233da307cb6b7b835a9ff70c286ee7f4", "lat": 38.900076, "lon": -76.9935225, "rental_uris": {"android": "https://dc.lft.to/lastmile_qr_scan", "ios": "https://dc.lft.to/lastmile_qr_scan"}, "is_disabled": 0, "fusion_lat": 0.0, "name": "233da307cb6b7b835a9ff70c286ee7f4", "fusion_lon": 0.0}, {"is_reserved": 0, "type": "electric_scooter", "bike_id": "aa2c3503c0e143907b6e8de839d45e80", "lat": 38.925975333333334, "lon": -77.02154316666666, "rental_uris": {"android": "https://dc.lft.to/lastmile_qr_scan", "ios": "https://dc.lft.to/lastmile_qr_scan"}, "is_disabled": 0, "fusion_lat": 0.0, "name": "aa2c3503c0e143907b6e8de839d45e80", "fusion_lon": 0.0}, {"is_reserved": 0, "type": "electric_scooter", "bike_id": "e0f4159bef462066101670fa086079d8", "lat": 38.926279666666666, "lon": -77.03538666666667, "rental_uris": {"android": "https://dc.lft.to/lastmile_qr_scan", "ios": "https://dc.lft.to/lastmile_qr_scan"}, "is_disabled": 0, "fusion_lat": 0.0, "name": "e0f4159bef462066101670fa086079d8", "fusion_lon": 0.0}, {"is_reserved": 0, "type": "electric_scooter", "bike_id": "695394d23a3c8a414d6d2e533b1ead1b", "lat": 38.9353185, "lon": -77.02352366666666, "rental_uris": {"android": "https://dc.lft.to/lastmile_qr_scan", "ios": "https://dc.lft.to/lastmile_qr_scan"}, "is_disabled": 0, "fusion_lat": 0.0, "name": "695394d23a3c8a414d6d2e533b1ead1b", "fusion_lon": 0.0}, {"is_reserved": 0, "type": "electric_scooter", "bike_id": "3328d5d8478453c0de390ef91546087d", "lat": 38.89359433333333, "lon": -77.02222616666667, "rental_uris": {"android": "https://dc.lft.to/lastmile_qr_scan", "ios": "https://dc.lft.to/lastmile_qr_scan"}, "is_disabled": 0, "fusion_lat": 0.0, "name": "3328d5d8478453c0de390ef91546087d", "fusion_lon": 0.0}, {"is_reserved": 0, "type": "electric_scooter", "bike_id": "cb8fc2eae42858e500e2581ba84a7e71", "lat": 38.9014385, "lon": -77.03177033333333, "rental_uris": {"android": "https://dc.lft.to/lastmile_qr_scan", "ios": "https://dc.lft.to/lastmile_qr_scan"}, "is_disabled": 0, "fusion_lat": 0.0, "name": "cb8fc2eae42858e500e2581ba84a7e71", "fusion_lon": 0.0}, {"is_reserved": 0, "type": "electric_scooter", "bike_id": "e883d94e4351c90f91784d0fdc4f14c5", "lat": 38.9283535, "lon": -77.05416883333334, "rental_uris": {"android": "https://dc.lft.to/lastmile_qr_scan", "ios": "https://dc.lft.to/lastmile_qr_scan"}, "is_disabled": 0, "fusion_lat": 0.0, "name": "e883d94e4351c90f91784d0fdc4f14c5", "fusion_lon": 0.0}, {"is_reserved": 0, "type": "electric_scooter", "bike_id": "0fdc793cee285769dd3c754129514de2", "lat": 38.901707, "lon": -77.02383183333333, "rental_uris": {"android": "https://dc.lft.to/lastmile_qr_scan", "ios": "https://dc.lft.to/lastmile_qr_scan"}, "is_disabled": 0, "fusion_lat": 0.0, "name": "0fdc793cee285769dd3c754129514de2", "fusion_lon": 0.0}, {"is_reserved": 0, "type": "electric_bike", "bike_id": "190e0fdc7a35b034504a95a533bc10ec", "lat": 38.8392895, "lon": -77.07907016666667, "rental_uris": {"android": "https://dc.lft.to/lastmile_qr_scan", "ios": "https://dc.lft.to/lastmile_qr_scan"}, "is_disabled": 0, "fusion_lat": 0.0, "name": "190e0fdc7a35b034504a95a533bc10ec", "fusion_lon": 0.0}, {"is_reserved": 0, "type": "electric_scooter", "bike_id": "c6ef0ddf8a89fc35603f0015b86591ed", "lat": 38.920457666666664, "lon": -77.041964, "rental_uris": {"android": "https://dc.lft.to/lastmile_qr_scan", "ios": "https://dc.lft.to/lastmile_qr_scan"}, "is_disabled": 0, "fusion_lat": 0.0, "name": "c6ef0ddf8a89fc35603f0015b86591ed", "fusion_lon": 0.0}, {"is_reserved": 0, "type": "electric_scooter", "bike_id": "07c0424c091a2db47e7ad4a324b4091d", "lat": 38.98225083333333, "lon": -77.02643316666666, "rental_uris": {"android": "https://dc.lft.to/lastmile_qr_scan", "ios": "https://dc.lft.to/lastmile_qr_scan"}, "is_disabled": 0, "fusion_lat": 0.0, "name": "07c0424c091a2db47e7ad4a324b4091d", "fusion_lon": 0.0}, {"is_reserved": 0, "type": "electric_scooter", "bike_id": "da3595ea2de1e30013c41e497489e02d", "lat": 38.885135, "lon": -76.9967415, "rental_uris": {"android": "https://dc.lft.to/lastmile_qr_scan", "ios": "https://dc.lft.to/lastmile_qr_scan"}, "is_disabled": 0, "fusion_lat": 0.0, "name": "da3595ea2de1e30013c41e497489e02d", "fusion_lon": 0.0}, {"is_reserved": 0, "type": "electric_scooter", "bike_id": "7bb184eb1cfce5a4bfac67705a262285", "lat": 38.89731466666667, "lon": -77.0205475, "rental_uris": {"android": "https://dc.lft.to/lastmile_qr_scan", "ios": "https://dc.lft.to/lastmile_qr_scan"}, "is_disabled": 0, "fusion_lat": 0.0, "name": "7bb184eb1cfce5a4bfac67705a262285", "fusion_lon": 0.0}, {"is_reserved": 0, "type": "electric_scooter", "bike_id": "8786af0e71c863d4f69feaa2b26f814e", "lat": 38.86482433333333, "lon": -76.97743483333333, "rental_uris": {"android": "https://dc.lft.to/lastmile_qr_scan", "ios": "https://dc.lft.to/lastmile_qr_scan"}, "is_disabled": 0, "fusion_lat": 0.0, "name": "8786af0e71c863d4f69feaa2b26f814e", "fusion_lon": 0.0}, {"is_reserved": 0, "type": "electric_scooter", "bike_id": "3a511b81349c85ae7a61e01518a90683", "lat": 38.926397333333334, "lon": -77.036949, "rental_uris": {"android": "https://dc.lft.to/lastmile_qr_scan", "ios": "https://dc.lft.to/lastmile_qr_scan"}, "is_disabled": 0, "fusion_lat": 0.0, "name": "3a511b81349c85ae7a61e01518a90683", "fusion_lon": 0.0}, {"is_reserved": 0, "type": "electric_bike", "bike_id": "14c4ef3f49763830ab3d9b7bb3712cf6", "lat": 38.889345, "lon": -76.91324916666667, "rental_uris": {"android": "https://dc.lft.to/lastmile_qr_scan", "ios": "https://dc.lft.to/lastmile_qr_scan"}, "is_disabled": 0, "fusion_lat": 0.0, "name": "14c4ef3f49763830ab3d9b7bb3712cf6", "fusion_lon": 0.0}, {"is_reserved": 0, "type": "electric_scooter", "bike_id": "f7bfa95a385ba48b944496d661e99dc5", "lat": 38.92482416666667, "lon": -77.022726, "rental_uris": {"android": "https://dc.lft.to/lastmile_qr_scan", "ios": "https://dc.lft.to/lastmile_qr_scan"}, "is_disabled": 0, "fusion_lat": 0.0, "name": "f7bfa95a385ba48b944496d661e99dc5", "fusion_lon": 0.0}, {"is_reserved": 0, "type": "electric_scooter", "bike_id": "710562fbdb53164fbd11557f6e15654d", "lat": 38.9000445, "lon": -77.01216316666667, "rental_uris": {"android": "https://dc.lft.to/lastmile_qr_scan", "ios": "https://dc.lft.to/lastmile_qr_scan"}, "is_disabled": 0, "fusion_lat": 0.0, "name": "710562fbdb53164fbd11557f6e15654d", "fusion_lon": 0.0}, {"is_reserved": 0, "type": "electric_scooter", "bike_id": "4d24cb0582c0d3d05db4e47cca323781", "lat": 38.906274833333335, "lon": -77.03144783333333, "rental_uris": {"android": "https://dc.lft.to/lastmile_qr_scan", "ios": "https://dc.lft.to/lastmile_qr_scan"}, "is_disabled": 0, "fusion_lat": 0.0, "name": "4d24cb0582c0d3d05db4e47cca323781", "fusion_lon": 0.0}, {"is_reserved": 0, "type": "electric_scooter", "bike_id": "094906c78583790e5b13734e1b36027b", "lat": 38.91710366666667, "lon": -77.02944916666667, "rental_uris": {"android": "https://dc.lft.to/lastmile_qr_scan", "ios": "https://dc.lft.to/lastmile_qr_scan"}, "is_disabled": 0, "fusion_lat": 0.0, "name": "094906c78583790e5b13734e1b36027b", "fusion_lon": 0.0}, {"is_reserved": 0, "type": "electric_scooter", "bike_id": "ea877a1624e88ac9400448514a8fbaaa", "lat": 38.897117333333334, "lon": -77.02271666666667, "rental_uris": {"android": "https://dc.lft.to/lastmile_qr_scan", "ios": "https://dc.lft.to/lastmile_qr_scan"}, "is_disabled": 0, "fusion_lat": 0.0, "name": "ea877a1624e88ac9400448514a8fbaaa", "fusion_lon": 0.0}, {"is_reserved": 0, "type": "electric_scooter", "bike_id": "5db79a165fe026bf81adb955f319afb4", "lat": 38.920163333333335, "lon": -77.0295355, "rental_uris": {"android": "https://dc.lft.to/lastmile_qr_scan", "ios": "https://dc.lft.to/lastmile_qr_scan"}, "is_disabled": 0, "fusion_lat": 0.0, "name": "5db79a165fe026bf81adb955f319afb4", "fusion_lon": 0.0}, {"is_reserved": 0, "type": "electric_scooter", "bike_id": "8717a5114b3d0f2a0095b2bf607e8bde", "lat": 38.892784166666665, "lon": -77.02606966666667, "rental_uris": {"android": "https://dc.lft.to/lastmile_qr_scan", "ios": "https://dc.lft.to/lastmile_qr_scan"}, "is_disabled": 0, "fusion_lat": 0.0, "name": "8717a5114b3d0f2a0095b2bf607e8bde", "fusion_lon": 0.0}, {"is_reserved": 0, "type": "electric_scooter", "bike_id": "183e662239ceb9e269ad82688dd1ca48", "lat": 38.89729616666666, "lon": -76.94701283333333, "rental_uris": {"android": "https://dc.lft.to/lastmile_qr_scan", "ios": "https://dc.lft.to/lastmile_qr_scan"}, "is_disabled": 0, "fusion_lat": 0.0, "name": "183e662239ceb9e269ad82688dd1ca48", "fusion_lon": 0.0}, {"is_reserved": 0, "type": "electric_scooter", "bike_id": "9a8ecf539d75c5b9ebcc6215fd9b15d2", "lat": 38.89607916666667, "lon": -77.04683216666666, "rental_uris": {"android": "https://dc.lft.to/lastmile_qr_scan", "ios": "https://dc.lft.to/lastmile_qr_scan"}, "is_disabled": 0, "fusion_lat": 0.0, "name": "9a8ecf539d75c5b9ebcc6215fd9b15d2", "fusion_lon": 0.0}, {"is_reserved": 0, "type": "electric_scooter", "bike_id": "72f6dcb921fe83a4eb62decacfaa63df", "lat": 38.960328833333335, "lon": -77.02428216666667, "rental_uris": {"android": "https://dc.lft.to/lastmile_qr_scan", "ios": "https://dc.lft.to/lastmile_qr_scan"}, "is_disabled": 0, "fusion_lat": 0.0, "name": "72f6dcb921fe83a4eb62decacfaa63df", "fusion_lon": 0.0}, {"is_reserved": 0, "type": "electric_scooter", "bike_id": "9efaa200bf0724f6163816cf1daca73e", "lat": 38.936336833333336, "lon": -77.07300766666667, "rental_uris": {"android": "https://dc.lft.to/lastmile_qr_scan", "ios": "https://dc.lft.to/lastmile_qr_scan"}, "is_disabled": 0, "fusion_lat": 0.0, "name": "9efaa200bf0724f6163816cf1daca73e", "fusion_lon": 0.0}, {"is_reserved": 0, "type": "electric_scooter", "bike_id": "6ce3dd2efedd595f14564c476dc738c1", "lat": 38.92043566666667, "lon": -77.04201466666666, "rental_uris": {"android": "https://dc.lft.to/lastmile_qr_scan", "ios": "https://dc.lft.to/lastmile_qr_scan"}, "is_disabled": 0, "fusion_lat": 0.0, "name": "6ce3dd2efedd595f14564c476dc738c1", "fusion_lon": 0.0}, {"is_reserved": 0, "type": "electric_scooter", "bike_id": "5b347fb09218d91fee48b4d02b22d686", "lat": 38.91680266666667, "lon": -77.0240515, "rental_uris": {"android": "https://dc.lft.to/lastmile_qr_scan", "ios": "https://dc.lft.to/lastmile_qr_scan"}, "is_disabled": 0, "fusion_lat": 0.0, "name": "5b347fb09218d91fee48b4d02b22d686", "fusion_lon": 0.0}, {"is_reserved": 0, "type": "electric_scooter", "bike_id": "5ce03b9688dd91a8f390c5d88542cd70", "lat": 38.902505833333336, "lon": -77.02652583333334, "rental_uris": {"android": "https://dc.lft.to/lastmile_qr_scan", "ios": "https://dc.lft.to/lastmile_qr_scan"}, "is_disabled": 0, "fusion_lat": 0.0, "name": "5ce03b9688dd91a8f390c5d88542cd70", "fusion_lon": 0.0}, {"is_reserved": 0, "type": "electric_scooter", "bike_id": "7f5ce4f9c335a84d426885ada46e1e05", "lat": 38.918166, "lon": -77.03296633333333, "rental_uris": {"android": "https://dc.lft.to/lastmile_qr_scan", "ios": "https://dc.lft.to/lastmile_qr_scan"}, "is_disabled": 0, "fusion_lat": 0.0, "name": "7f5ce4f9c335a84d426885ada46e1e05", "fusion_lon": 0.0}, {"is_reserved": 0, "type": "electric_scooter", "bike_id": "008d2db5dde92ae64b39a673184f95f8", "lat": 38.919142, "lon": -77.048101, "rental_uris": {"android": "https://dc.lft.to/lastmile_qr_scan", "ios": "https://dc.lft.to/lastmile_qr_scan"}, "is_disabled": 0, "fusion_lat": 0.0, "name": "008d2db5dde92ae64b39a673184f95f8", "fusion_lon": 0.0}, {"is_reserved": 0, "type": "electric_scooter", "bike_id": "08cf6310a617683cef8d614bd9659dc7", "lat": 38.924475666666666, "lon": -77.02040283333334, "rental_uris": {"android": "https://dc.lft.to/lastmile_qr_scan", "ios": "https://dc.lft.to/lastmile_qr_scan"}, "is_disabled": 0, "fusion_lat": 0.0, "name": "08cf6310a617683cef8d614bd9659dc7", "fusion_lon": 0.0}, {"is_reserved": 0, "type": "electric_scooter", "bike_id": "c0cd54f8c4a7910bf94341bedd13e9d1", "lat": 38.933232833333335, "lon": -77.02913066666666, "rental_uris": {"android": "https://dc.lft.to/lastmile_qr_scan", "ios": "https://dc.lft.to/lastmile_qr_scan"}, "is_disabled": 0, "fusion_lat": 0.0, "name": "c0cd54f8c4a7910bf94341bedd13e9d1", "fusion_lon": 0.0}, {"is_reserved": 0, "type": "electric_scooter", "bike_id": "3bc17d39fc4382716314d73b17a59e70", "lat": 38.93719183333333, "lon": -77.03263383333334, "rental_uris": {"android": "https://dc.lft.to/lastmile_qr_scan", "ios": "https://dc.lft.to/lastmile_qr_scan"}, "is_disabled": 0, "fusion_lat": 0.0, "name": "3bc17d39fc4382716314d73b17a59e70", "fusion_lon": 0.0}, {"is_reserved": 0, "type": "electric_scooter", "bike_id": "eee33c1c622f191e8884e9038a5a3699", "lat": 38.923309, "lon": -77.045842, "rental_uris": {"android": "https://dc.lft.to/lastmile_qr_scan", "ios": "https://dc.lft.to/lastmile_qr_scan"}, "is_disabled": 0, "fusion_lat": 0.0, "name": "eee33c1c622f191e8884e9038a5a3699", "fusion_lon": 0.0}, {"is_reserved": 0, "type": "electric_bike", "bike_id": "8e118e3b9b554c16870bc8ffab9ed458", "lat": 38.8914375, "lon": -77.182988, "rental_uris": {"android": "https://dc.lft.to/lastmile_qr_scan", "ios": "https://dc.lft.to/lastmile_qr_scan"}, "is_disabled": 0, "fusion_lat": 0.0, "name": "8e118e3b9b554c16870bc8ffab9ed458", "fusion_lon": 0.0}, {"is_reserved": 0, "type": "electric_scooter", "bike_id": "7f40cb876ab36c841e311a5c78741c79", "lat": 38.853205833333334, "lon": -76.980116, "rental_uris": {"android": "https://dc.lft.to/lastmile_qr_scan", "ios": "https://dc.lft.to/lastmile_qr_scan"}, "is_disabled": 0, "fusion_lat": 0.0, "name": "7f40cb876ab36c841e311a5c78741c79", "fusion_lon": 0.0}, {"is_reserved": 0, "type": "electric_scooter", "bike_id": "76ee8beb00f4e1d7af393fe02a6202b7", "lat": 38.90260883333333, "lon": -77.0033225, "rental_uris": {"android": "https://dc.lft.to/lastmile_qr_scan", "ios": "https://dc.lft.to/lastmile_qr_scan"}, "is_disabled": 0, "fusion_lat": 0.0, "name": "76ee8beb00f4e1d7af393fe02a6202b7", "fusion_lon": 0.0}, {"is_reserved": 0, "type": "electric_scooter", "bike_id": "f66cc5618769d1990f288c1c4461353d", "lat": 38.9068265, "lon": -77.02697416666666, "rental_uris": {"android": "https://dc.lft.to/lastmile_qr_scan", "ios": "https://dc.lft.to/lastmile_qr_scan"}, "is_disabled": 0, "fusion_lat": 0.0, "name": "f66cc5618769d1990f288c1c4461353d", "fusion_lon": 0.0}, {"is_reserved": 0, "type": "electric_scooter", "bike_id": "9aac1e22618fd5b03daa968677b55482", "lat": 38.920401166666664, "lon": -77.04825116666666, "rental_uris": {"android": "https://dc.lft.to/lastmile_qr_scan", "ios": "https://dc.lft.to/lastmile_qr_scan"}, "is_disabled": 0, "fusion_lat": 0.0, "name": "9aac1e22618fd5b03daa968677b55482", "fusion_lon": 0.0}, {"is_reserved": 0, "type": "electric_scooter", "bike_id": "640df271b0e7e5234586f751c486293a", "lat": 38.91713016666667, "lon": -77.03856016666667, "rental_uris": {"android": "https://dc.lft.to/lastmile_qr_scan", "ios": "https://dc.lft.to/lastmile_qr_scan"}, "is_disabled": 0, "fusion_lat": 0.0, "name": "640df271b0e7e5234586f751c486293a", "fusion_lon": 0.0}, {"is_reserved": 0, "type": "electric_scooter", "bike_id": "b6c64fc03d6b82484976fa7bbb1433a3", "lat": 38.9141125, "lon": -77.022501, "rental_uris": {"android": "https://dc.lft.to/lastmile_qr_scan", "ios": "https://dc.lft.to/lastmile_qr_scan"}, "is_disabled": 0, "fusion_lat": 0.0, "name": "b6c64fc03d6b82484976fa7bbb1433a3", "fusion_lon": 0.0}, {"is_reserved": 0, "type": "electric_scooter", "bike_id": "0b9a4c0ba08ca796634b299783eb9cea", "lat": 38.91554433333334, "lon": -77.03990433333334, "rental_uris": {"android": "https://dc.lft.to/lastmile_qr_scan", "ios": "https://dc.lft.to/lastmile_qr_scan"}, "is_disabled": 0, "fusion_lat": 0.0, "name": "0b9a4c0ba08ca796634b299783eb9cea", "fusion_lon": 0.0}, {"is_reserved": 0, "type": "electric_scooter", "bike_id": "294f4af0b47cd780da49971d57a292ac", "lat": 38.91638416666667, "lon": -77.02401366666666, "rental_uris": {"android": "https://dc.lft.to/lastmile_qr_scan", "ios": "https://dc.lft.to/lastmile_qr_scan"}, "is_disabled": 0, "fusion_lat": 0.0, "name": "294f4af0b47cd780da49971d57a292ac", "fusion_lon": 0.0}, {"is_reserved": 0, "type": "electric_scooter", "bike_id": "9907d5f5511d6c6457cc938175bd52da", "lat": 38.891708, "lon": -77.01553516666667, "rental_uris": {"android": "https://dc.lft.to/lastmile_qr_scan", "ios": "https://dc.lft.to/lastmile_qr_scan"}, "is_disabled": 0, "fusion_lat": 0.0, "name": "9907d5f5511d6c6457cc938175bd52da", "fusion_lon": 0.0}, {"is_reserved": 0, "type": "electric_scooter", "bike_id": "84913788a173149d16c170b21b5275ea", "lat": 38.897385666666665, "lon": -76.99767866666667, "rental_uris": {"android": "https://dc.lft.to/lastmile_qr_scan", "ios": "https://dc.lft.to/lastmile_qr_scan"}, "is_disabled": 0, "fusion_lat": 0.0, "name": "84913788a173149d16c170b21b5275ea", "fusion_lon": 0.0}, {"is_reserved": 0, "type": "electric_scooter", "bike_id": "6c71c46cb7ee04906a9c106aec143ec2", "lat": 38.90668183333333, "lon": -77.027116, "rental_uris": {"android": "https://dc.lft.to/lastmile_qr_scan", "ios": "https://dc.lft.to/lastmile_qr_scan"}, "is_disabled": 0, "fusion_lat": 0.0, "name": "6c71c46cb7ee04906a9c106aec143ec2", "fusion_lon": 0.0}, {"is_reserved": 0, "type": "electric_bike", "bike_id": "8296acd831c08a61bf287f57bf566666", "lat": 38.946652666666665, "lon": -76.99332633333333, "rental_uris": {"android": "https://dc.lft.to/lastmile_qr_scan", "ios": "https://dc.lft.to/lastmile_qr_scan"}, "is_disabled": 0, "fusion_lat": 0.0, "name": "8296acd831c08a61bf287f57bf566666", "fusion_lon": 0.0}, {"is_reserved": 0, "type": "electric_scooter", "bike_id": "c244167e8ca96a79a3b15835e638ab3e", "lat": 38.911336, "lon": -77.03659, "rental_uris": {"android": "https://dc.lft.to/lastmile_qr_scan", "ios": "https://dc.lft.to/lastmile_qr_scan"}, "is_disabled": 0, "fusion_lat": 0.0, "name": "c244167e8ca96a79a3b15835e638ab3e", "fusion_lon": 0.0}, {"is_reserved": 0, "type": "electric_scooter", "bike_id": "ef22cbdfab550dc9996c1f271154bbe6", "lat": 38.921732, "lon": -77.04355733333334, "rental_uris": {"android": "https://dc.lft.to/lastmile_qr_scan", "ios": "https://dc.lft.to/lastmile_qr_scan"}, "is_disabled": 0, "fusion_lat": 0.0, "name": "ef22cbdfab550dc9996c1f271154bbe6", "fusion_lon": 0.0}, {"is_reserved": 0, "type": "electric_bike", "bike_id": "589efa2ccff0af841a4e9872092da6c4", "lat": 38.93944033333333, "lon": -77.02504233333333, "rental_uris": {"android": "https://dc.lft.to/lastmile_qr_scan", "ios": "https://dc.lft.to/lastmile_qr_scan"}, "is_disabled": 0, "fusion_lat": 0.0, "name": "589efa2ccff0af841a4e9872092da6c4", "fusion_lon": 0.0}, {"is_reserved": 0, "type": "electric_scooter", "bike_id": "61c66b580365adf9d4d2ada9b16cde0e", "lat": 38.945154, "lon": -77.029825, "rental_uris": {"android": "https://dc.lft.to/lastmile_qr_scan", "ios": "https://dc.lft.to/lastmile_qr_scan"}, "is_disabled": 0, "fusion_lat": 0.0, "name": "61c66b580365adf9d4d2ada9b16cde0e", "fusion_lon": 0.0}, {"is_reserved": 0, "type": "electric_scooter", "bike_id": "7e8c5a643143947f557045c759674ad0", "lat": 38.912205, "lon": -76.98703616666667, "rental_uris": {"android": "https://dc.lft.to/lastmile_qr_scan", "ios": "https://dc.lft.to/lastmile_qr_scan"}, "is_disabled": 0, "fusion_lat": 0.0, "name": "7e8c5a643143947f557045c759674ad0", "fusion_lon": 0.0}, {"is_reserved": 0, "type": "electric_scooter", "bike_id": "f19d042f4795457e7718a99b77983a70", "lat": 38.92366583333333, "lon": -77.0191645, "rental_uris": {"android": "https://dc.lft.to/lastmile_qr_scan", "ios": "https://dc.lft.to/lastmile_qr_scan"}, "is_disabled": 0, "fusion_lat": 0.0, "name": "f19d042f4795457e7718a99b77983a70", "fusion_lon": 0.0}, {"is_reserved": 0, "type": "electric_scooter", "bike_id": "156533ae8326da682cb1be1ea5b20061", "lat": 38.90398533333333, "lon": -77.00203766666667, "rental_uris": {"android": "https://dc.lft.to/lastmile_qr_scan", "ios": "https://dc.lft.to/lastmile_qr_scan"}, "is_disabled": 0, "fusion_lat": 0.0, "name": "156533ae8326da682cb1be1ea5b20061", "fusion_lon": 0.0}, {"is_reserved": 0, "type": "electric_scooter", "bike_id": "1b51f2b0b3f2166584340ae13caf6332", "lat": 38.930562333333334, "lon": -77.02970683333334, "rental_uris": {"android": "https://dc.lft.to/lastmile_qr_scan", "ios": "https://dc.lft.to/lastmile_qr_scan"}, "is_disabled": 0, "fusion_lat": 0.0, "name": "1b51f2b0b3f2166584340ae13caf6332", "fusion_lon": 0.0}, {"is_reserved": 0, "type": "electric_scooter", "bike_id": "4d1d2106d8226e730c46e1af4a163c84", "lat": 38.88508483333333, "lon": -77.01117283333333, "rental_uris": {"android": "https://dc.lft.to/lastmile_qr_scan", "ios": "https://dc.lft.to/lastmile_qr_scan"}, "is_disabled": 0, "fusion_lat": 0.0, "name": "4d1d2106d8226e730c46e1af4a163c84", "fusion_lon": 0.0}, {"is_reserved": 0, "type": "electric_scooter", "bike_id": "ae91319f7addee1cf3b6f4fef15f3085", "lat": 38.929881, "lon": -77.0347395, "rental_uris": {"android": "https://dc.lft.to/lastmile_qr_scan", "ios": "https://dc.lft.to/lastmile_qr_scan"}, "is_disabled": 0, "fusion_lat": 0.0, "name": "ae91319f7addee1cf3b6f4fef15f3085", "fusion_lon": 0.0}, {"is_reserved": 0, "type": "electric_scooter", "bike_id": "c8e17fbe7d502b9e8bbfe930078ad6b4", "lat": 38.89760666666667, "lon": -77.027139, "rental_uris": {"android": "https://dc.lft.to/lastmile_qr_scan", "ios": "https://dc.lft.to/lastmile_qr_scan"}, "is_disabled": 0, "fusion_lat": 0.0, "name": "c8e17fbe7d502b9e8bbfe930078ad6b4", "fusion_lon": 0.0}, {"is_reserved": 0, "type": "electric_scooter", "bike_id": "c6ee5118c3123f7724c14a8d1b55a671", "lat": 38.907444166666664, "lon": -77.01540983333334, "rental_uris": {"android": "https://dc.lft.to/lastmile_qr_scan", "ios": "https://dc.lft.to/lastmile_qr_scan"}, "is_disabled": 0, "fusion_lat": 0.0, "name": "c6ee5118c3123f7724c14a8d1b55a671", "fusion_lon": 0.0}, {"is_reserved": 0, "type": "electric_scooter", "bike_id": "2759a53f0024c5a606118422e252b168", "lat": 38.95091016666667, "lon": -77.02536266666667, "rental_uris": {"android": "https://dc.lft.to/lastmile_qr_scan", "ios": "https://dc.lft.to/lastmile_qr_scan"}, "is_disabled": 0, "fusion_lat": 0.0, "name": "2759a53f0024c5a606118422e252b168", "fusion_lon": 0.0}, {"is_reserved": 0, "type": "electric_scooter", "bike_id": "59449f7423e0d6f67fab1f5dcc17f469", "lat": 38.9183485, "lon": -77.03900133333333, "rental_uris": {"android": "https://dc.lft.to/lastmile_qr_scan", "ios": "https://dc.lft.to/lastmile_qr_scan"}, "is_disabled": 0, "fusion_lat": 0.0, "name": "59449f7423e0d6f67fab1f5dcc17f469", "fusion_lon": 0.0}, {"is_reserved": 0, "type": "electric_scooter", "bike_id": "d68ab57fdb711fafe2cc5a869ae50420", "lat": 38.9156815, "lon": -77.02972616666666, "rental_uris": {"android": "https://dc.lft.to/lastmile_qr_scan", "ios": "https://dc.lft.to/lastmile_qr_scan"}, "is_disabled": 0, "fusion_lat": 0.0, "name": "d68ab57fdb711fafe2cc5a869ae50420", "fusion_lon": 0.0}, {"is_reserved": 0, "type": "electric_scooter", "bike_id": "a5b38f3b531dea33cf1a5fa98fbf3501", "lat": 38.87838133333333, "lon": -77.022808, "rental_uris": {"android": "https://dc.lft.to/lastmile_qr_scan", "ios": "https://dc.lft.to/lastmile_qr_scan"}, "is_disabled": 0, "fusion_lat": 0.0, "name": "a5b38f3b531dea33cf1a5fa98fbf3501", "fusion_lon": 0.0}, {"is_reserved": 0, "type": "electric_scooter", "bike_id": "19929859b120c2f749f5aa31f30ac42f", "lat": 38.906979166666666, "lon": -77.045065, "rental_uris": {"android": "https://dc.lft.to/lastmile_qr_scan", "ios": "https://dc.lft.to/lastmile_qr_scan"}, "is_disabled": 0, "fusion_lat": 0.0, "name": "19929859b120c2f749f5aa31f30ac42f", "fusion_lon": 0.0}, {"is_reserved": 0, "type": "electric_scooter", "bike_id": "9912f0b6a22cbf38f10856a48a659ab9", "lat": 38.8843335, "lon": -77.02521083333333, "rental_uris": {"android": "https://dc.lft.to/lastmile_qr_scan", "ios": "https://dc.lft.to/lastmile_qr_scan"}, "is_disabled": 0, "fusion_lat": 0.0, "name": "9912f0b6a22cbf38f10856a48a659ab9", "fusion_lon": 0.0}, {"is_reserved": 0, "type": "electric_scooter", "bike_id": "6fde8ba9648118ed445438e8a2b063b5", "lat": 38.91739783333333, "lon": -77.017134, "rental_uris": {"android": "https://dc.lft.to/lastmile_qr_scan", "ios": "https://dc.lft.to/lastmile_qr_scan"}, "is_disabled": 0, "fusion_lat": 0.0, "name": "6fde8ba9648118ed445438e8a2b063b5", "fusion_lon": 0.0}, {"is_reserved": 0, "type": "electric_scooter", "bike_id": "d562504abaf561892fc98f67cdc4fcd9", "lat": 38.907323, "lon": -77.02964683333333, "rental_uris": {"android": "https://dc.lft.to/lastmile_qr_scan", "ios": "https://dc.lft.to/lastmile_qr_scan"}, "is_disabled": 0, "fusion_lat": 0.0, "name": "d562504abaf561892fc98f67cdc4fcd9", "fusion_lon": 0.0}, {"is_reserved": 0, "type": "electric_scooter", "bike_id": "db36bca2aa8338050584f7ddfed6969f", "lat": 38.92738033333333, "lon": -77.05368216666666, "rental_uris": {"android": "https://dc.lft.to/lastmile_qr_scan", "ios": "https://dc.lft.to/lastmile_qr_scan"}, "is_disabled": 0, "fusion_lat": 0.0, "name": "db36bca2aa8338050584f7ddfed6969f", "fusion_lon": 0.0}, {"is_reserved": 0, "type": "electric_scooter", "bike_id": "c7059e27fc3e055ff779e242930657d5", "lat": 38.912800833333336, "lon": -77.03671316666667, "rental_uris": {"android": "https://dc.lft.to/lastmile_qr_scan", "ios": "https://dc.lft.to/lastmile_qr_scan"}, "is_disabled": 0, "fusion_lat": 0.0, "name": "c7059e27fc3e055ff779e242930657d5", "fusion_lon": 0.0}, {"is_reserved": 0, "type": "electric_scooter", "bike_id": "5b71b07c9c566add48b59a1615b4d622", "lat": 38.89675166666667, "lon": -77.00520016666667, "rental_uris": {"android": "https://dc.lft.to/lastmile_qr_scan", "ios": "https://dc.lft.to/lastmile_qr_scan"}, "is_disabled": 0, "fusion_lat": 0.0, "name": "5b71b07c9c566add48b59a1615b4d622", "fusion_lon": 0.0}, {"is_reserved": 0, "type": "electric_scooter", "bike_id": "48f824c5688708cce51204818d34430e", "lat": 38.8843585, "lon": -77.02964466666667, "rental_uris": {"android": "https://dc.lft.to/lastmile_qr_scan", "ios": "https://dc.lft.to/lastmile_qr_scan"}, "is_disabled": 0, "fusion_lat": 0.0, "name": "48f824c5688708cce51204818d34430e", "fusion_lon": 0.0}, {"is_reserved": 0, "type": "electric_scooter", "bike_id": "81c45a2fde123cd032647a20e2969b19", "lat": 38.933693833333336, "lon": -77.03468283333333, "rental_uris": {"android": "https://dc.lft.to/lastmile_qr_scan", "ios": "https://dc.lft.to/lastmile_qr_scan"}, "is_disabled": 0, "fusion_lat": 0.0, "name": "81c45a2fde123cd032647a20e2969b19", "fusion_lon": 0.0}, {"is_reserved": 0, "type": "electric_scooter", "bike_id": "898e40e712aca2b343790fcdf3403601", "lat": 38.91872166666667, "lon": -77.02607083333334, "rental_uris": {"android": "https://dc.lft.to/lastmile_qr_scan", "ios": "https://dc.lft.to/lastmile_qr_scan"}, "is_disabled": 0, "fusion_lat": 0.0, "name": "898e40e712aca2b343790fcdf3403601", "fusion_lon": 0.0}, {"is_reserved": 0, "type": "electric_scooter", "bike_id": "b036372957eb26cb2a18c1a8781c2834", "lat": 38.89887316666667, "lon": -76.99360483333334, "rental_uris": {"android": "https://dc.lft.to/lastmile_qr_scan", "ios": "https://dc.lft.to/lastmile_qr_scan"}, "is_disabled": 0, "fusion_lat": 0.0, "name": "b036372957eb26cb2a18c1a8781c2834", "fusion_lon": 0.0}, {"is_reserved": 0, "type": "electric_bike", "bike_id": "9be9efd1e606eff470da1601e88e0e1e", "lat": 38.880828, "lon": -77.02573566666666, "rental_uris": {"android": "https://dc.lft.to/lastmile_qr_scan", "ios": "https://dc.lft.to/lastmile_qr_scan"}, "is_disabled": 0, "fusion_lat": 0.0, "name": "9be9efd1e606eff470da1601e88e0e1e", "fusion_lon": 0.0}, {"is_reserved": 0, "type": "electric_scooter", "bike_id": "2a7a11b177a058893245c9cdcc44c461", "lat": 38.914721666666665, "lon": -77.0320185, "rental_uris": {"android": "https://dc.lft.to/lastmile_qr_scan", "ios": "https://dc.lft.to/lastmile_qr_scan"}, "is_disabled": 0, "fusion_lat": 0.0, "name": "2a7a11b177a058893245c9cdcc44c461", "fusion_lon": 0.0}, {"is_reserved": 0, "type": "electric_scooter", "bike_id": "d2e02c020f52321a89dfecbe1af1c658", "lat": 38.914271, "lon": -77.0320095, "rental_uris": {"android": "https://dc.lft.to/lastmile_qr_scan", "ios": "https://dc.lft.to/lastmile_qr_scan"}, "is_disabled": 0, "fusion_lat": 0.0, "name": "d2e02c020f52321a89dfecbe1af1c658", "fusion_lon": 0.0}, {"is_reserved": 0, "type": "electric_scooter", "bike_id": "c05cc58c2c8ab93d54766348ec4edde7", "lat": 38.86966366666667, "lon": -77.011184, "rental_uris": {"android": "https://dc.lft.to/lastmile_qr_scan", "ios": "https://dc.lft.to/lastmile_qr_scan"}, "is_disabled": 0, "fusion_lat": 0.0, "name": "c05cc58c2c8ab93d54766348ec4edde7", "fusion_lon": 0.0}, {"is_reserved": 0, "type": "electric_scooter", "bike_id": "49f580e54484744ed70dc3070f1762fd", "lat": 38.905272333333336, "lon": -77.05675216666667, "rental_uris": {"android": "https://dc.lft.to/lastmile_qr_scan", "ios": "https://dc.lft.to/lastmile_qr_scan"}, "is_disabled": 0, "fusion_lat": 0.0, "name": "49f580e54484744ed70dc3070f1762fd", "fusion_lon": 0.0}, {"is_reserved": 0, "type": "electric_scooter", "bike_id": "0af25f5ceb50aac8768d04fc4da29a87", "lat": 38.916957333333336, "lon": -77.04107366666666, "rental_uris": {"android": "https://dc.lft.to/lastmile_qr_scan", "ios": "https://dc.lft.to/lastmile_qr_scan"}, "is_disabled": 0, "fusion_lat": 0.0, "name": "0af25f5ceb50aac8768d04fc4da29a87", "fusion_lon": 0.0}, {"is_reserved": 0, "type": "electric_scooter", "bike_id": "53b0519e379ca9a8e46aa806a607def9", "lat": 38.91560416666667, "lon": -77.025526, "rental_uris": {"android": "https://dc.lft.to/lastmile_qr_scan", "ios": "https://dc.lft.to/lastmile_qr_scan"}, "is_disabled": 0, "fusion_lat": 0.0, "name": "53b0519e379ca9a8e46aa806a607def9", "fusion_lon": 0.0}, {"is_reserved": 0, "type": "electric_scooter", "bike_id": "9637f389de145170721fd181c8394079", "lat": 38.94326866666667, "lon": -77.0125595, "rental_uris": {"android": "https://dc.lft.to/lastmile_qr_scan", "ios": "https://dc.lft.to/lastmile_qr_scan"}, "is_disabled": 0, "fusion_lat": 0.0, "name": "9637f389de145170721fd181c8394079", "fusion_lon": 0.0}, {"is_reserved": 0, "type": "electric_scooter", "bike_id": "602555e0c49104ef1013f4b9a895f497", "lat": 38.93024833333333, "lon": -77.05555, "rental_uris": {"android": "https://dc.lft.to/lastmile_qr_scan", "ios": "https://dc.lft.to/lastmile_qr_scan"}, "is_disabled": 0, "fusion_lat": 0.0, "name": "602555e0c49104ef1013f4b9a895f497", "fusion_lon": 0.0}, {"is_reserved": 0, "type": "electric_scooter", "bike_id": "ab10e3144a539956f22519236c71bb90", "lat": 38.923967166666664, "lon": -77.04268266666666, "rental_uris": {"android": "https://dc.lft.to/lastmile_qr_scan", "ios": "https://dc.lft.to/lastmile_qr_scan"}, "is_disabled": 0, "fusion_lat": 0.0, "name": "ab10e3144a539956f22519236c71bb90", "fusion_lon": 0.0}, {"is_reserved": 0, "type": "electric_scooter", "bike_id": "161b4956548b753eeed903944c26f243", "lat": 38.926367666666664, "lon": -77.04249416666667, "rental_uris": {"android": "https://dc.lft.to/lastmile_qr_scan", "ios": "https://dc.lft.to/lastmile_qr_scan"}, "is_disabled": 0, "fusion_lat": 0.0, "name": "161b4956548b753eeed903944c26f243", "fusion_lon": 0.0}, {"is_reserved": 0, "type": "electric_scooter", "bike_id": "6a31076e0f708179a2f65c69ae6adf43", "lat": 38.909001333333336, "lon": -76.99618966666667, "rental_uris": {"android": "https://dc.lft.to/lastmile_qr_scan", "ios": "https://dc.lft.to/lastmile_qr_scan"}, "is_disabled": 0, "fusion_lat": 0.0, "name": "6a31076e0f708179a2f65c69ae6adf43", "fusion_lon": 0.0}, {"is_reserved": 0, "type": "electric_scooter", "bike_id": "8603b677a71bddd2114dbcbd95ac01db", "lat": 38.9751805, "lon": -77.01740816666667, "rental_uris": {"android": "https://dc.lft.to/lastmile_qr_scan", "ios": "https://dc.lft.to/lastmile_qr_scan"}, "is_disabled": 0, "fusion_lat": 0.0, "name": "8603b677a71bddd2114dbcbd95ac01db", "fusion_lon": 0.0}, {"is_reserved": 0, "type": "electric_scooter", "bike_id": "b5e659289fb60dfd8e0b808374456119", "lat": 38.886111166666666, "lon": -77.01984266666666, "rental_uris": {"android": "https://dc.lft.to/lastmile_qr_scan", "ios": "https://dc.lft.to/lastmile_qr_scan"}, "is_disabled": 0, "fusion_lat": 0.0, "name": "b5e659289fb60dfd8e0b808374456119", "fusion_lon": 0.0}, {"is_reserved": 0, "type": "electric_scooter", "bike_id": "284e34ac10eb4513a08c6f609d70dc02", "lat": 38.930439666666665, "lon": -77.05543316666666, "rental_uris": {"android": "https://dc.lft.to/lastmile_qr_scan", "ios": "https://dc.lft.to/lastmile_qr_scan"}, "is_disabled": 0, "fusion_lat": 0.0, "name": "284e34ac10eb4513a08c6f609d70dc02", "fusion_lon": 0.0}, {"is_reserved": 0, "type": "electric_scooter", "bike_id": "91ccb25357118d05e67d033b15389b05", "lat": 38.894072, "lon": -77.02152483333333, "rental_uris": {"android": "https://dc.lft.to/lastmile_qr_scan", "ios": "https://dc.lft.to/lastmile_qr_scan"}, "is_disabled": 0, "fusion_lat": 0.0, "name": "91ccb25357118d05e67d033b15389b05", "fusion_lon": 0.0}, {"is_reserved": 0, "type": "electric_scooter", "bike_id": "7c5dd9fdcfffbe0ba96e601551f64857", "lat": 38.91561316666667, "lon": -77.0228095, "rental_uris": {"android": "https://dc.lft.to/lastmile_qr_scan", "ios": "https://dc.lft.to/lastmile_qr_scan"}, "is_disabled": 0, "fusion_lat": 0.0, "name": "7c5dd9fdcfffbe0ba96e601551f64857", "fusion_lon": 0.0}, {"is_reserved": 0, "type": "electric_scooter", "bike_id": "8392f63a9f217f07913d23f6e7525803", "lat": 38.952485333333335, "lon": -77.00916983333333, "rental_uris": {"android": "https://dc.lft.to/lastmile_qr_scan", "ios": "https://dc.lft.to/lastmile_qr_scan"}, "is_disabled": 0, "fusion_lat": 0.0, "name": "8392f63a9f217f07913d23f6e7525803", "fusion_lon": 0.0}, {"is_reserved": 0, "type": "electric_scooter", "bike_id": "2d6eb2e067ba056dcd13c0b7291f2dee", "lat": 38.92103483333333, "lon": -77.04697283333333, "rental_uris": {"android": "https://dc.lft.to/lastmile_qr_scan", "ios": "https://dc.lft.to/lastmile_qr_scan"}, "is_disabled": 0, "fusion_lat": 0.0, "name": "2d6eb2e067ba056dcd13c0b7291f2dee", "fusion_lon": 0.0}, {"is_reserved": 0, "type": "electric_scooter", "bike_id": "79e503a2700a9d300a7935ee6f90474d", "lat": 38.93756166666667, "lon": -77.03152916666667, "rental_uris": {"android": "https://dc.lft.to/lastmile_qr_scan", "ios": "https://dc.lft.to/lastmile_qr_scan"}, "is_disabled": 0, "fusion_lat": 0.0, "name": "79e503a2700a9d300a7935ee6f90474d", "fusion_lon": 0.0}, {"is_reserved": 0, "type": "electric_scooter", "bike_id": "92e690d773a5fb499906c78e55657877", "lat": 38.94029416666667, "lon": -77.02643283333333, "rental_uris": {"android": "https://dc.lft.to/lastmile_qr_scan", "ios": "https://dc.lft.to/lastmile_qr_scan"}, "is_disabled": 0, "fusion_lat": 0.0, "name": "92e690d773a5fb499906c78e55657877", "fusion_lon": 0.0}, {"is_reserved": 0, "type": "electric_scooter", "bike_id": "3a8dadc9e8c2af1ab72f1e7d56a82004", "lat": 38.90062233333333, "lon": -76.98654516666667, "rental_uris": {"android": "https://dc.lft.to/lastmile_qr_scan", "ios": "https://dc.lft.to/lastmile_qr_scan"}, "is_disabled": 0, "fusion_lat": 0.0, "name": "3a8dadc9e8c2af1ab72f1e7d56a82004", "fusion_lon": 0.0}, {"is_reserved": 0, "type": "electric_scooter", "bike_id": "04072bb1ce6753715a94ad11ff04f37e", "lat": 38.9345675, "lon": -77.02248533333334, "rental_uris": {"android": "https://dc.lft.to/lastmile_qr_scan", "ios": "https://dc.lft.to/lastmile_qr_scan"}, "is_disabled": 0, "fusion_lat": 0.0, "name": "04072bb1ce6753715a94ad11ff04f37e", "fusion_lon": 0.0}, {"is_reserved": 0, "type": "electric_scooter", "bike_id": "1e6a2b9755466ffc632cdea18f5c5c55", "lat": 38.864304, "lon": -76.99861133333333, "rental_uris": {"android": "https://dc.lft.to/lastmile_qr_scan", "ios": "https://dc.lft.to/lastmile_qr_scan"}, "is_disabled": 0, "fusion_lat": 0.0, "name": "1e6a2b9755466ffc632cdea18f5c5c55", "fusion_lon": 0.0}, {"is_reserved": 0, "type": "electric_scooter", "bike_id": "a6570d1a1e2104a179469c2289ba0905", "lat": 38.922522, "lon": -76.98317633333333, "rental_uris": {"android": "https://dc.lft.to/lastmile_qr_scan", "ios": "https://dc.lft.to/lastmile_qr_scan"}, "is_disabled": 0, "fusion_lat": 0.0, "name": "a6570d1a1e2104a179469c2289ba0905", "fusion_lon": 0.0}, {"is_reserved": 0, "type": "electric_scooter", "bike_id": "43781f6116f9f5ce67b609042d7036c6", "lat": 38.903564333333335, "lon": -77.01122616666666, "rental_uris": {"android": "https://dc.lft.to/lastmile_qr_scan", "ios": "https://dc.lft.to/lastmile_qr_scan"}, "is_disabled": 0, "fusion_lat": 0.0, "name": "43781f6116f9f5ce67b609042d7036c6", "fusion_lon": 0.0}, {"is_reserved": 0, "type": "electric_scooter", "bike_id": "facdc4cbb3cfa9e6ce82f5d16e4b88f6", "lat": 38.91708933333334, "lon": -77.03879316666666, "rental_uris": {"android": "https://dc.lft.to/lastmile_qr_scan", "ios": "https://dc.lft.to/lastmile_qr_scan"}, "is_disabled": 0, "fusion_lat": 0.0, "name": "facdc4cbb3cfa9e6ce82f5d16e4b88f6", "fusion_lon": 0.0}, {"is_reserved": 0, "type": "electric_bike", "bike_id": "6231e2b6a190b806cfa21e792db1eea3", "lat": 38.886560333333335, "lon": -77.16233766666667, "rental_uris": {"android": "https://dc.lft.to/lastmile_qr_scan", "ios": "https://dc.lft.to/lastmile_qr_scan"}, "is_disabled": 0, "fusion_lat": 0.0, "name": "6231e2b6a190b806cfa21e792db1eea3", "fusion_lon": 0.0}, {"is_reserved": 0, "type": "electric_scooter", "bike_id": "8f9aac52b5dcc3f7227f9adaf8d6a748", "lat": 38.887396333333335, "lon": -77.0289805, "rental_uris": {"android": "https://dc.lft.to/lastmile_qr_scan", "ios": "https://dc.lft.to/lastmile_qr_scan"}, "is_disabled": 0, "fusion_lat": 0.0, "name": "8f9aac52b5dcc3f7227f9adaf8d6a748", "fusion_lon": 0.0}, {"is_reserved": 0, "type": "electric_scooter", "bike_id": "46553f9f3ef8713a7d0733b29668ad3d", "lat": 38.89743383333333, "lon": -77.01763466666667, "rental_uris": {"android": "https://dc.lft.to/lastmile_qr_scan", "ios": "https://dc.lft.to/lastmile_qr_scan"}, "is_disabled": 0, "fusion_lat": 0.0, "name": "46553f9f3ef8713a7d0733b29668ad3d", "fusion_lon": 0.0}, {"is_reserved": 0, "type": "electric_scooter", "bike_id": "963e7213c56d26fd3f804c27fd490ca3", "lat": 38.92799733333333, "lon": -77.0365045, "rental_uris": {"android": "https://dc.lft.to/lastmile_qr_scan", "ios": "https://dc.lft.to/lastmile_qr_scan"}, "is_disabled": 0, "fusion_lat": 0.0, "name": "963e7213c56d26fd3f804c27fd490ca3", "fusion_lon": 0.0}, {"is_reserved": 0, "type": "electric_scooter", "bike_id": "077a83ff6e28150e22841d7332cd0a6a", "lat": 38.896259, "lon": -77.00205883333334, "rental_uris": {"android": "https://dc.lft.to/lastmile_qr_scan", "ios": "https://dc.lft.to/lastmile_qr_scan"}, "is_disabled": 0, "fusion_lat": 0.0, "name": "077a83ff6e28150e22841d7332cd0a6a", "fusion_lon": 0.0}, {"is_reserved": 0, "type": "electric_scooter", "bike_id": "a755404ef2e287729a4d4ee0c54caaba", "lat": 38.898737, "lon": -77.04873966666666, "rental_uris": {"android": "https://dc.lft.to/lastmile_qr_scan", "ios": "https://dc.lft.to/lastmile_qr_scan"}, "is_disabled": 0, "fusion_lat": 0.0, "name": "a755404ef2e287729a4d4ee0c54caaba", "fusion_lon": 0.0}, {"is_reserved": 0, "type": "electric_scooter", "bike_id": "a73134e6b7ed0bbadd14292c9dba89ef", "lat": 38.90039816666667, "lon": -76.990356, "rental_uris": {"android": "https://dc.lft.to/lastmile_qr_scan", "ios": "https://dc.lft.to/lastmile_qr_scan"}, "is_disabled": 0, "fusion_lat": 0.0, "name": "a73134e6b7ed0bbadd14292c9dba89ef", "fusion_lon": 0.0}, {"is_reserved": 0, "type": "electric_scooter", "bike_id": "5146a991615f6bfe550204d2da768b39", "lat": 38.924032, "lon": -76.9514645, "rental_uris": {"android": "https://dc.lft.to/lastmile_qr_scan", "ios": "https://dc.lft.to/lastmile_qr_scan"}, "is_disabled": 0, "fusion_lat": 0.0, "name": "5146a991615f6bfe550204d2da768b39", "fusion_lon": 0.0}, {"is_reserved": 0, "type": "electric_scooter", "bike_id": "d4ce7d2d42560c0538fa3e6cba242b66", "lat": 38.89222016666667, "lon": -77.01607916666667, "rental_uris": {"android": "https://dc.lft.to/lastmile_qr_scan", "ios": "https://dc.lft.to/lastmile_qr_scan"}, "is_disabled": 0, "fusion_lat": 0.0, "name": "d4ce7d2d42560c0538fa3e6cba242b66", "fusion_lon": 0.0}, {"is_reserved": 0, "type": "electric_scooter", "bike_id": "c9a4ff2a69d31afe90dd1af482aea31a", "lat": 38.900025166666666, "lon": -77.02882983333333, "rental_uris": {"android": "https://dc.lft.to/lastmile_qr_scan", "ios": "https://dc.lft.to/lastmile_qr_scan"}, "is_disabled": 0, "fusion_lat": 0.0, "name": "c9a4ff2a69d31afe90dd1af482aea31a", "fusion_lon": 0.0}, {"is_reserved": 0, "type": "electric_scooter", "bike_id": "60c174a01094f19ab923fdfafd5edd6b", "lat": 38.896398833333336, "lon": -77.01144883333333, "rental_uris": {"android": "https://dc.lft.to/lastmile_qr_scan", "ios": "https://dc.lft.to/lastmile_qr_scan"}, "is_disabled": 0, "fusion_lat": 0.0, "name": "60c174a01094f19ab923fdfafd5edd6b", "fusion_lon": 0.0}, {"is_reserved": 0, "type": "electric_scooter", "bike_id": "6f4cf507b688a1945b16517bf392deac", "lat": 38.90899, "lon": -77.0033695, "rental_uris": {"android": "https://dc.lft.to/lastmile_qr_scan", "ios": "https://dc.lft.to/lastmile_qr_scan"}, "is_disabled": 0, "fusion_lat": 0.0, "name": "6f4cf507b688a1945b16517bf392deac", "fusion_lon": 0.0}, {"is_reserved": 0, "type": "electric_scooter", "bike_id": "e3feefacc7c512b715d30b858c870a54", "lat": 38.90560116666666, "lon": -77.01566283333334, "rental_uris": {"android": "https://dc.lft.to/lastmile_qr_scan", "ios": "https://dc.lft.to/lastmile_qr_scan"}, "is_disabled": 0, "fusion_lat": 0.0, "name": "e3feefacc7c512b715d30b858c870a54", "fusion_lon": 0.0}, {"is_reserved": 0, "type": "electric_scooter", "bike_id": "7a68d0e2e31698c504ea007d210bf039", "lat": 38.89474666666667, "lon": -77.05001833333333, "rental_uris": {"android": "https://dc.lft.to/lastmile_qr_scan", "ios": "https://dc.lft.to/lastmile_qr_scan"}, "is_disabled": 0, "fusion_lat": 0.0, "name": "7a68d0e2e31698c504ea007d210bf039", "fusion_lon": 0.0}, {"is_reserved": 0, "type": "electric_scooter", "bike_id": "3833cb8869d1f2a3fd792501e08d5175", "lat": 38.915820333333336, "lon": -77.01229216666667, "rental_uris": {"android": "https://dc.lft.to/lastmile_qr_scan", "ios": "https://dc.lft.to/lastmile_qr_scan"}, "is_disabled": 0, "fusion_lat": 0.0, "name": "3833cb8869d1f2a3fd792501e08d5175", "fusion_lon": 0.0}, {"is_reserved": 0, "type": "electric_bike", "bike_id": "8c566db25e9ac3640a53f885a6358e7a", "lat": 38.942604833333334, "lon": -76.990733, "rental_uris": {"android": "https://dc.lft.to/lastmile_qr_scan", "ios": "https://dc.lft.to/lastmile_qr_scan"}, "is_disabled": 0, "fusion_lat": 0.0, "name": "8c566db25e9ac3640a53f885a6358e7a", "fusion_lon": 0.0}, {"is_reserved": 0, "type": "electric_scooter", "bike_id": "d1b2cbe0927399fe74ede038a00f670c", "lat": 38.923974333333334, "lon": -77.05065533333334, "rental_uris": {"android": "https://dc.lft.to/lastmile_qr_scan", "ios": "https://dc.lft.to/lastmile_qr_scan"}, "is_disabled": 0, "fusion_lat": 0.0, "name": "d1b2cbe0927399fe74ede038a00f670c", "fusion_lon": 0.0}, {"is_reserved": 0, "type": "electric_scooter", "bike_id": "1a5f2a4a5663ec248f401fe84eaf8dc0", "lat": 38.9239025, "lon": -77.025769, "rental_uris": {"android": "https://dc.lft.to/lastmile_qr_scan", "ios": "https://dc.lft.to/lastmile_qr_scan"}, "is_disabled": 0, "fusion_lat": 0.0, "name": "1a5f2a4a5663ec248f401fe84eaf8dc0", "fusion_lon": 0.0}, {"is_reserved": 0, "type": "electric_scooter", "bike_id": "e5ce8221e66f8c49464c1013867091b8", "lat": 38.898332833333335, "lon": -77.05028016666667, "rental_uris": {"android": "https://dc.lft.to/lastmile_qr_scan", "ios": "https://dc.lft.to/lastmile_qr_scan"}, "is_disabled": 0, "fusion_lat": 0.0, "name": "e5ce8221e66f8c49464c1013867091b8", "fusion_lon": 0.0}, {"is_reserved": 0, "type": "electric_scooter", "bike_id": "3c86ba77d7a566bbbf9387b53e85b347", "lat": 38.921805, "lon": -76.99736766666666, "rental_uris": {"android": "https://dc.lft.to/lastmile_qr_scan", "ios": "https://dc.lft.to/lastmile_qr_scan"}, "is_disabled": 0, "fusion_lat": 0.0, "name": "3c86ba77d7a566bbbf9387b53e85b347", "fusion_lon": 0.0}, {"is_reserved": 0, "type": "electric_scooter", "bike_id": "5b3c95437a9d27969976a54d9aabf76b", "lat": 38.90387833333333, "lon": -77.00558883333333, "rental_uris": {"android": "https://dc.lft.to/lastmile_qr_scan", "ios": "https://dc.lft.to/lastmile_qr_scan"}, "is_disabled": 0, "fusion_lat": 0.0, "name": "5b3c95437a9d27969976a54d9aabf76b", "fusion_lon": 0.0}, {"is_reserved": 0, "type": "electric_scooter", "bike_id": "f5729b10bd3b8075cc5ec19d711c4244", "lat": 38.91558966666667, "lon": -77.02117933333334, "rental_uris": {"android": "https://dc.lft.to/lastmile_qr_scan", "ios": "https://dc.lft.to/lastmile_qr_scan"}, "is_disabled": 0, "fusion_lat": 0.0, "name": "f5729b10bd3b8075cc5ec19d711c4244", "fusion_lon": 0.0}, {"is_reserved": 0, "type": "electric_scooter", "bike_id": "358c9617da6e6272c0aea6e796e17640", "lat": 38.91878283333333, "lon": -77.042527, "rental_uris": {"android": "https://dc.lft.to/lastmile_qr_scan", "ios": "https://dc.lft.to/lastmile_qr_scan"}, "is_disabled": 0, "fusion_lat": 0.0, "name": "358c9617da6e6272c0aea6e796e17640", "fusion_lon": 0.0}, {"is_reserved": 0, "type": "electric_scooter", "bike_id": "ee9b12aa9eda66d78cd2715770d1df67", "lat": 38.90088433333333, "lon": -77.04741766666666, "rental_uris": {"android": "https://dc.lft.to/lastmile_qr_scan", "ios": "https://dc.lft.to/lastmile_qr_scan"}, "is_disabled": 0, "fusion_lat": 0.0, "name": "ee9b12aa9eda66d78cd2715770d1df67", "fusion_lon": 0.0}, {"is_reserved": 0, "type": "electric_scooter", "bike_id": "d15435df7d74b840e8be614dbbfb082b", "lat": 38.9270915, "lon": -77.04044633333334, "rental_uris": {"android": "https://dc.lft.to/lastmile_qr_scan", "ios": "https://dc.lft.to/lastmile_qr_scan"}, "is_disabled": 0, "fusion_lat": 0.0, "name": "d15435df7d74b840e8be614dbbfb082b", "fusion_lon": 0.0}, {"is_reserved": 0, "type": "electric_scooter", "bike_id": "03b997dd8c079547e8ebc989e13ec71c", "lat": 38.935086, "lon": -77.033484, "rental_uris": {"android": "https://dc.lft.to/lastmile_qr_scan", "ios": "https://dc.lft.to/lastmile_qr_scan"}, "is_disabled": 0, "fusion_lat": 0.0, "name": "03b997dd8c079547e8ebc989e13ec71c", "fusion_lon": 0.0}, {"is_reserved": 0, "type": "electric_bike", "bike_id": "02279e781e69b3293eff3f5ec002d9b7", "lat": 38.97423633333333, "lon": -77.01257616666666, "rental_uris": {"android": "https://dc.lft.to/lastmile_qr_scan", "ios": "https://dc.lft.to/lastmile_qr_scan"}, "is_disabled": 0, "fusion_lat": 0.0, "name": "02279e781e69b3293eff3f5ec002d9b7", "fusion_lon": 0.0}, {"is_reserved": 0, "type": "electric_scooter", "bike_id": "6f57be5f11436866e3f714eccc165c19", "lat": 38.9307965, "lon": -77.02793916666667, "rental_uris": {"android": "https://dc.lft.to/lastmile_qr_scan", "ios": "https://dc.lft.to/lastmile_qr_scan"}, "is_disabled": 0, "fusion_lat": 0.0, "name": "6f57be5f11436866e3f714eccc165c19", "fusion_lon": 0.0}, {"is_reserved": 0, "type": "electric_scooter", "bike_id": "a3204e91d5559bc6c6d491e6c37df8ef", "lat": 38.90638283333333, "lon": -77.07027383333333, "rental_uris": {"android": "https://dc.lft.to/lastmile_qr_scan", "ios": "https://dc.lft.to/lastmile_qr_scan"}, "is_disabled": 0, "fusion_lat": 0.0, "name": "a3204e91d5559bc6c6d491e6c37df8ef", "fusion_lon": 0.0}, {"is_reserved": 0, "type": "electric_scooter", "bike_id": "2badcd533b9731e3459cb8dd76e2cfe6", "lat": 38.91868733333333, "lon": -77.040432, "rental_uris": {"android": "https://dc.lft.to/lastmile_qr_scan", "ios": "https://dc.lft.to/lastmile_qr_scan"}, "is_disabled": 0, "fusion_lat": 0.0, "name": "2badcd533b9731e3459cb8dd76e2cfe6", "fusion_lon": 0.0}, {"is_reserved": 0, "type": "electric_scooter", "bike_id": "384759bbb23314f0b2dd913b6385c828", "lat": 38.89979666666667, "lon": -77.02102433333333, "rental_uris": {"android": "https://dc.lft.to/lastmile_qr_scan", "ios": "https://dc.lft.to/lastmile_qr_scan"}, "is_disabled": 0, "fusion_lat": 0.0, "name": "384759bbb23314f0b2dd913b6385c828", "fusion_lon": 0.0}, {"is_reserved": 0, "type": "electric_scooter", "bike_id": "9bd8ac3476fe3a3fe86229a66de7be18", "lat": 38.928279333333336, "lon": -77.01368766666667, "rental_uris": {"android": "https://dc.lft.to/lastmile_qr_scan", "ios": "https://dc.lft.to/lastmile_qr_scan"}, "is_disabled": 0, "fusion_lat": 0.0, "name": "9bd8ac3476fe3a3fe86229a66de7be18", "fusion_lon": 0.0}, {"is_reserved": 0, "type": "electric_scooter", "bike_id": "c64aef36763f3ac5bc51297c72dd0503", "lat": 38.91554983333333, "lon": -77.0311915, "rental_uris": {"android": "https://dc.lft.to/lastmile_qr_scan", "ios": "https://dc.lft.to/lastmile_qr_scan"}, "is_disabled": 0, "fusion_lat": 0.0, "name": "c64aef36763f3ac5bc51297c72dd0503", "fusion_lon": 0.0}, {"is_reserved": 0, "type": "electric_bike", "bike_id": "4bf5b9a95f76c28eb4f1a1c3dea18654", "lat": 38.947972666666665, "lon": -76.94250966666667, "rental_uris": {"android": "https://dc.lft.to/lastmile_qr_scan", "ios": "https://dc.lft.to/lastmile_qr_scan"}, "is_disabled": 0, "fusion_lat": 0.0, "name": "4bf5b9a95f76c28eb4f1a1c3dea18654", "fusion_lon": 0.0}, {"is_reserved": 0, "type": "electric_bike", "bike_id": "dc3ae04133a680e52f26b6ec64b75acf", "lat": 38.9871735, "lon": -76.94586683333333, "rental_uris": {"android": "https://dc.lft.to/lastmile_qr_scan", "ios": "https://dc.lft.to/lastmile_qr_scan"}, "is_disabled": 0, "fusion_lat": 0.0, "name": "dc3ae04133a680e52f26b6ec64b75acf", "fusion_lon": 0.0}, {"is_reserved": 0, "type": "electric_scooter", "bike_id": "4f4608a4610f4b732dc229ba8dbf4267", "lat": 38.91117883333333, "lon": -77.00256633333333, "rental_uris": {"android": "https://dc.lft.to/lastmile_qr_scan", "ios": "https://dc.lft.to/lastmile_qr_scan"}, "is_disabled": 0, "fusion_lat": 0.0, "name": "4f4608a4610f4b732dc229ba8dbf4267", "fusion_lon": 0.0}, {"is_reserved": 0, "type": "electric_scooter", "bike_id": "56fb798e1dcf8a08e9ef5a8291141373", "lat": 38.91630383333333, "lon": -77.03211516666667, "rental_uris": {"android": "https://dc.lft.to/lastmile_qr_scan", "ios": "https://dc.lft.to/lastmile_qr_scan"}, "is_disabled": 0, "fusion_lat": 0.0, "name": "56fb798e1dcf8a08e9ef5a8291141373", "fusion_lon": 0.0}, {"is_reserved": 0, "type": "electric_scooter", "bike_id": "f9f4eea35c680623d3da6de8996f0dc3", "lat": 38.896274, "lon": -77.02137033333334, "rental_uris": {"android": "https://dc.lft.to/lastmile_qr_scan", "ios": "https://dc.lft.to/lastmile_qr_scan"}, "is_disabled": 0, "fusion_lat": 0.0, "name": "f9f4eea35c680623d3da6de8996f0dc3", "fusion_lon": 0.0}, {"is_reserved": 0, "type": "electric_scooter", "bike_id": "bce30ce98b0f0c5dd32306cce4d3496a", "lat": 38.89548883333333, "lon": -76.98337183333334, "rental_uris": {"android": "https://dc.lft.to/lastmile_qr_scan", "ios": "https://dc.lft.to/lastmile_qr_scan"}, "is_disabled": 0, "fusion_lat": 0.0, "name": "bce30ce98b0f0c5dd32306cce4d3496a", "fusion_lon": 0.0}, {"is_reserved": 0, "type": "electric_scooter", "bike_id": "d883b4857119a7ee601067d08148edd2", "lat": 38.91175716666667, "lon": -77.03182683333333, "rental_uris": {"android": "https://dc.lft.to/lastmile_qr_scan", "ios": "https://dc.lft.to/lastmile_qr_scan"}, "is_disabled": 0, "fusion_lat": 0.0, "name": "d883b4857119a7ee601067d08148edd2", "fusion_lon": 0.0}, {"is_reserved": 0, "type": "electric_scooter", "bike_id": "55506110b22c1b1284efc9c9a33840f8", "lat": 38.90109916666667, "lon": -77.03370966666667, "rental_uris": {"android": "https://dc.lft.to/lastmile_qr_scan", "ios": "https://dc.lft.to/lastmile_qr_scan"}, "is_disabled": 0, "fusion_lat": 0.0, "name": "55506110b22c1b1284efc9c9a33840f8", "fusion_lon": 0.0}, {"is_reserved": 0, "type": "electric_scooter", "bike_id": "c6f1a10d86517ad30aecdeea1b480f7b", "lat": 38.91224716666667, "lon": -77.03859966666667, "rental_uris": {"android": "https://dc.lft.to/lastmile_qr_scan", "ios": "https://dc.lft.to/lastmile_qr_scan"}, "is_disabled": 0, "fusion_lat": 0.0, "name": "c6f1a10d86517ad30aecdeea1b480f7b", "fusion_lon": 0.0}, {"is_reserved": 0, "type": "electric_bike", "bike_id": "5734c232df9f9e18b9dd9719d60bf11d", "lat": 38.84460466666667, "lon": -76.93156716666667, "rental_uris": {"android": "https://dc.lft.to/lastmile_qr_scan", "ios": "https://dc.lft.to/lastmile_qr_scan"}, "is_disabled": 0, "fusion_lat": 0.0, "name": "5734c232df9f9e18b9dd9719d60bf11d", "fusion_lon": 0.0}, {"is_reserved": 0, "type": "electric_scooter", "bike_id": "0c043d993a2aa4f4cc938fc86cf3f87b", "lat": 38.905273, "lon": -77.05679666666667, "rental_uris": {"android": "https://dc.lft.to/lastmile_qr_scan", "ios": "https://dc.lft.to/lastmile_qr_scan"}, "is_disabled": 0, "fusion_lat": 0.0, "name": "0c043d993a2aa4f4cc938fc86cf3f87b", "fusion_lon": 0.0}, {"is_reserved": 0, "type": "electric_scooter", "bike_id": "716f282245c84b1300bd68c7da0e2ff6", "lat": 38.88725183333333, "lon": -77.0283025, "rental_uris": {"android": "https://dc.lft.to/lastmile_qr_scan", "ios": "https://dc.lft.to/lastmile_qr_scan"}, "is_disabled": 0, "fusion_lat": 0.0, "name": "716f282245c84b1300bd68c7da0e2ff6", "fusion_lon": 0.0}, {"is_reserved": 0, "type": "electric_scooter", "bike_id": "a930b44cd3f77c3fefb29f3f4e7be966", "lat": 38.9124945, "lon": -77.00831783333334, "rental_uris": {"android": "https://dc.lft.to/lastmile_qr_scan", "ios": "https://dc.lft.to/lastmile_qr_scan"}, "is_disabled": 0, "fusion_lat": 0.0, "name": "a930b44cd3f77c3fefb29f3f4e7be966", "fusion_lon": 0.0}, {"is_reserved": 0, "type": "electric_scooter", "bike_id": "12c37856c7fe361c0933fa3a45049d4d", "lat": 38.905738166666666, "lon": -77.00909616666667, "rental_uris": {"android": "https://dc.lft.to/lastmile_qr_scan", "ios": "https://dc.lft.to/lastmile_qr_scan"}, "is_disabled": 0, "fusion_lat": 0.0, "name": "12c37856c7fe361c0933fa3a45049d4d", "fusion_lon": 0.0}, {"is_reserved": 0, "type": "electric_scooter", "bike_id": "d5ebd009342b2d7183c7a7d9872294e7", "lat": 38.9101775, "lon": -76.99373166666666, "rental_uris": {"android": "https://dc.lft.to/lastmile_qr_scan", "ios": "https://dc.lft.to/lastmile_qr_scan"}, "is_disabled": 0, "fusion_lat": 0.0, "name": "d5ebd009342b2d7183c7a7d9872294e7", "fusion_lon": 0.0}, {"is_reserved": 0, "type": "electric_scooter", "bike_id": "639f3d293607f067d2cba7e450147320", "lat": 38.9054215, "lon": -77.0461605, "rental_uris": {"android": "https://dc.lft.to/lastmile_qr_scan", "ios": "https://dc.lft.to/lastmile_qr_scan"}, "is_disabled": 0, "fusion_lat": 0.0, "name": "639f3d293607f067d2cba7e450147320", "fusion_lon": 0.0}, {"is_reserved": 0, "type": "electric_scooter", "bike_id": "b9944be3de8bd48779675df44042b041", "lat": 38.92375116666667, "lon": -77.031329, "rental_uris": {"android": "https://dc.lft.to/lastmile_qr_scan", "ios": "https://dc.lft.to/lastmile_qr_scan"}, "is_disabled": 0, "fusion_lat": 0.0, "name": "b9944be3de8bd48779675df44042b041", "fusion_lon": 0.0}, {"is_reserved": 0, "type": "electric_scooter", "bike_id": "dde21d0c842ade3979b1d904920ca893", "lat": 38.91827933333333, "lon": -77.0316025, "rental_uris": {"android": "https://dc.lft.to/lastmile_qr_scan", "ios": "https://dc.lft.to/lastmile_qr_scan"}, "is_disabled": 0, "fusion_lat": 0.0, "name": "dde21d0c842ade3979b1d904920ca893", "fusion_lon": 0.0}, {"is_reserved": 0, "type": "electric_scooter", "bike_id": "9bbdb00a97d452086bf03686d478bd74", "lat": 38.9220385, "lon": -77.02036016666666, "rental_uris": {"android": "https://dc.lft.to/lastmile_qr_scan", "ios": "https://dc.lft.to/lastmile_qr_scan"}, "is_disabled": 0, "fusion_lat": 0.0, "name": "9bbdb00a97d452086bf03686d478bd74", "fusion_lon": 0.0}, {"is_reserved": 0, "type": "electric_scooter", "bike_id": "56f89a53ffe90e5bfdd05c5ebf992a41", "lat": 38.884183166666666, "lon": -77.0255865, "rental_uris": {"android": "https://dc.lft.to/lastmile_qr_scan", "ios": "https://dc.lft.to/lastmile_qr_scan"}, "is_disabled": 0, "fusion_lat": 0.0, "name": "56f89a53ffe90e5bfdd05c5ebf992a41", "fusion_lon": 0.0}, {"is_reserved": 0, "type": "electric_scooter", "bike_id": "0fb23c1dcc97e1b83fecd017882f74f3", "lat": 38.9177815, "lon": -77.02299266666667, "rental_uris": {"android": "https://dc.lft.to/lastmile_qr_scan", "ios": "https://dc.lft.to/lastmile_qr_scan"}, "is_disabled": 0, "fusion_lat": 0.0, "name": "0fb23c1dcc97e1b83fecd017882f74f3", "fusion_lon": 0.0}, {"is_reserved": 0, "type": "electric_scooter", "bike_id": "09c37c920a0e0d1083e59ac4258cb54c", "lat": 38.929576833333336, "lon": -77.03161116666666, "rental_uris": {"android": "https://dc.lft.to/lastmile_qr_scan", "ios": "https://dc.lft.to/lastmile_qr_scan"}, "is_disabled": 0, "fusion_lat": 0.0, "name": "09c37c920a0e0d1083e59ac4258cb54c", "fusion_lon": 0.0}, {"is_reserved": 0, "type": "electric_scooter", "bike_id": "79269934c91546aa5c1e4094fd715b2c", "lat": 38.89609016666667, "lon": -77.00527883333334, "rental_uris": {"android": "https://dc.lft.to/lastmile_qr_scan", "ios": "https://dc.lft.to/lastmile_qr_scan"}, "is_disabled": 0, "fusion_lat": 0.0, "name": "79269934c91546aa5c1e4094fd715b2c", "fusion_lon": 0.0}, {"is_reserved": 0, "type": "electric_scooter", "bike_id": "e762baf47d80dc5af3ead7c16e0c554a", "lat": 38.9362725, "lon": -77.06486716666667, "rental_uris": {"android": "https://dc.lft.to/lastmile_qr_scan", "ios": "https://dc.lft.to/lastmile_qr_scan"}, "is_disabled": 0, "fusion_lat": 0.0, "name": "e762baf47d80dc5af3ead7c16e0c554a", "fusion_lon": 0.0}, {"is_reserved": 0, "type": "electric_scooter", "bike_id": "ab3308ad767fe24985c3ec5b4e09947d", "lat": 38.91565666666666, "lon": -77.03672883333333, "rental_uris": {"android": "https://dc.lft.to/lastmile_qr_scan", "ios": "https://dc.lft.to/lastmile_qr_scan"}, "is_disabled": 0, "fusion_lat": 0.0, "name": "ab3308ad767fe24985c3ec5b4e09947d", "fusion_lon": 0.0}, {"is_reserved": 0, "type": "electric_scooter", "bike_id": "d76680e0a816cd8bf3d629978bc45943", "lat": 38.8982765, "lon": -77.04829616666666, "rental_uris": {"android": "https://dc.lft.to/lastmile_qr_scan", "ios": "https://dc.lft.to/lastmile_qr_scan"}, "is_disabled": 0, "fusion_lat": 0.0, "name": "d76680e0a816cd8bf3d629978bc45943", "fusion_lon": 0.0}, {"is_reserved": 0, "type": "electric_scooter", "bike_id": "805bd39cfbb084931559de13d24a3f64", "lat": 38.901251333333335, "lon": -77.033718, "rental_uris": {"android": "https://dc.lft.to/lastmile_qr_scan", "ios": "https://dc.lft.to/lastmile_qr_scan"}, "is_disabled": 0, "fusion_lat": 0.0, "name": "805bd39cfbb084931559de13d24a3f64", "fusion_lon": 0.0}, {"is_reserved": 0, "type": "electric_scooter", "bike_id": "59080cd2add30b350d64f96646309683", "lat": 38.930267, "lon": -77.08310933333334, "rental_uris": {"android": "https://dc.lft.to/lastmile_qr_scan", "ios": "https://dc.lft.to/lastmile_qr_scan"}, "is_disabled": 0, "fusion_lat": 0.0, "name": "59080cd2add30b350d64f96646309683", "fusion_lon": 0.0}, {"is_reserved": 0, "type": "electric_scooter", "bike_id": "aa78a35baa8025730dfca0792acbf132", "lat": 38.90615566666666, "lon": -77.03300016666667, "rental_uris": {"android": "https://dc.lft.to/lastmile_qr_scan", "ios": "https://dc.lft.to/lastmile_qr_scan"}, "is_disabled": 0, "fusion_lat": 0.0, "name": "aa78a35baa8025730dfca0792acbf132", "fusion_lon": 0.0}, {"is_reserved": 0, "type": "electric_scooter", "bike_id": "56dee8cf672c070527d77a681ad0cae6", "lat": 38.974974, "lon": -77.01694066666667, "rental_uris": {"android": "https://dc.lft.to/lastmile_qr_scan", "ios": "https://dc.lft.to/lastmile_qr_scan"}, "is_disabled": 0, "fusion_lat": 0.0, "name": "56dee8cf672c070527d77a681ad0cae6", "fusion_lon": 0.0}, {"is_reserved": 0, "type": "electric_scooter", "bike_id": "5a9c56718504c86677ffdda97a982632", "lat": 38.90177933333333, "lon": -76.92896533333334, "rental_uris": {"android": "https://dc.lft.to/lastmile_qr_scan", "ios": "https://dc.lft.to/lastmile_qr_scan"}, "is_disabled": 0, "fusion_lat": 0.0, "name": "5a9c56718504c86677ffdda97a982632", "fusion_lon": 0.0}, {"is_reserved": 0, "type": "electric_scooter", "bike_id": "b4a2dc3b0c142e91970269db7c9ef868", "lat": 38.9094, "lon": -77.04504666666666, "rental_uris": {"android": "https://dc.lft.to/lastmile_qr_scan", "ios": "https://dc.lft.to/lastmile_qr_scan"}, "is_disabled": 0, "fusion_lat": 0.0, "name": "b4a2dc3b0c142e91970269db7c9ef868", "fusion_lon": 0.0}, {"is_reserved": 0, "type": "electric_bike", "bike_id": "f9ec194fb90fa7eafd18d6a0c4efb0cb", "lat": 38.80733333333333, "lon": -76.99255966666666, "rental_uris": {"android": "https://dc.lft.to/lastmile_qr_scan", "ios": "https://dc.lft.to/lastmile_qr_scan"}, "is_disabled": 0, "fusion_lat": 0.0, "name": "f9ec194fb90fa7eafd18d6a0c4efb0cb", "fusion_lon": 0.0}, {"is_reserved": 0, "type": "electric_scooter", "bike_id": "cc74d1cd2cd9c97e4efdd463b6d18c85", "lat": 38.90540466666667, "lon": -77.062913, "rental_uris": {"android": "https://dc.lft.to/lastmile_qr_scan", "ios": "https://dc.lft.to/lastmile_qr_scan"}, "is_disabled": 0, "fusion_lat": 0.0, "name": "cc74d1cd2cd9c97e4efdd463b6d18c85", "fusion_lon": 0.0}, {"is_reserved": 0, "type": "electric_scooter", "bike_id": "de187a9bca23c6e1afdcd3336fe06a03", "lat": 38.92113116666667, "lon": -77.01764, "rental_uris": {"android": "https://dc.lft.to/lastmile_qr_scan", "ios": "https://dc.lft.to/lastmile_qr_scan"}, "is_disabled": 0, "fusion_lat": 0.0, "name": "de187a9bca23c6e1afdcd3336fe06a03", "fusion_lon": 0.0}, {"is_reserved": 0, "type": "electric_scooter", "bike_id": "936c7c3d5a96788c9c4fd5b5134466e1", "lat": 38.91795283333333, "lon": -77.02715866666666, "rental_uris": {"android": "https://dc.lft.to/lastmile_qr_scan", "ios": "https://dc.lft.to/lastmile_qr_scan"}, "is_disabled": 0, "fusion_lat": 0.0, "name": "936c7c3d5a96788c9c4fd5b5134466e1", "fusion_lon": 0.0}, {"is_reserved": 0, "type": "electric_scooter", "bike_id": "d926828d342f5b2d234b16e1ec88bf9a", "lat": 38.92890933333334, "lon": -77.02618016666666, "rental_uris": {"android": "https://dc.lft.to/lastmile_qr_scan", "ios": "https://dc.lft.to/lastmile_qr_scan"}, "is_disabled": 0, "fusion_lat": 0.0, "name": "d926828d342f5b2d234b16e1ec88bf9a", "fusion_lon": 0.0}, {"is_reserved": 0, "type": "electric_bike", "bike_id": "f3b8e22d14b0e303c8d2f90ce815ebea", "lat": 38.888357, "lon": -76.95747883333334, "rental_uris": {"android": "https://dc.lft.to/lastmile_qr_scan", "ios": "https://dc.lft.to/lastmile_qr_scan"}, "is_disabled": 0, "fusion_lat": 0.0, "name": "f3b8e22d14b0e303c8d2f90ce815ebea", "fusion_lon": 0.0}, {"is_reserved": 0, "type": "electric_scooter", "bike_id": "45b59e2c678239bd53c01fd44b113a2b", "lat": 38.89710133333333, "lon": -77.0535615, "rental_uris": {"android": "https://dc.lft.to/lastmile_qr_scan", "ios": "https://dc.lft.to/lastmile_qr_scan"}, "is_disabled": 0, "fusion_lat": 0.0, "name": "45b59e2c678239bd53c01fd44b113a2b", "fusion_lon": 0.0}, {"is_reserved": 0, "type": "electric_scooter", "bike_id": "6d014b22c75b4a09ef3013599709f067", "lat": 38.89979433333333, "lon": -77.02705333333333, "rental_uris": {"android": "https://dc.lft.to/lastmile_qr_scan", "ios": "https://dc.lft.to/lastmile_qr_scan"}, "is_disabled": 0, "fusion_lat": 0.0, "name": "6d014b22c75b4a09ef3013599709f067", "fusion_lon": 0.0}, {"is_reserved": 0, "type": "electric_scooter", "bike_id": "bfc0c2c8b9e8289e3113cd586f146baa", "lat": 38.9464755, "lon": -77.0655575, "rental_uris": {"android": "https://dc.lft.to/lastmile_qr_scan", "ios": "https://dc.lft.to/lastmile_qr_scan"}, "is_disabled": 0, "fusion_lat": 0.0, "name": "bfc0c2c8b9e8289e3113cd586f146baa", "fusion_lon": 0.0}, {"is_reserved": 0, "type": "electric_scooter", "bike_id": "99ef9eb435816cb36a4bf7560ef6dc7e", "lat": 38.900802166666665, "lon": -77.02991133333333, "rental_uris": {"android": "https://dc.lft.to/lastmile_qr_scan", "ios": "https://dc.lft.to/lastmile_qr_scan"}, "is_disabled": 0, "fusion_lat": 0.0, "name": "99ef9eb435816cb36a4bf7560ef6dc7e", "fusion_lon": 0.0}, {"is_reserved": 0, "type": "electric_scooter", "bike_id": "c84cfdd845cd833ad8c20e65146d337a", "lat": 38.919810166666664, "lon": -77.04070583333333, "rental_uris": {"android": "https://dc.lft.to/lastmile_qr_scan", "ios": "https://dc.lft.to/lastmile_qr_scan"}, "is_disabled": 0, "fusion_lat": 0.0, "name": "c84cfdd845cd833ad8c20e65146d337a", "fusion_lon": 0.0}, {"is_reserved": 0, "type": "electric_scooter", "bike_id": "b6c6b67d6b8f5550a8cd2812a3cbf922", "lat": 38.9099985, "lon": -77.0450015, "rental_uris": {"android": "https://dc.lft.to/lastmile_qr_scan", "ios": "https://dc.lft.to/lastmile_qr_scan"}, "is_disabled": 0, "fusion_lat": 0.0, "name": "b6c6b67d6b8f5550a8cd2812a3cbf922", "fusion_lon": 0.0}, {"is_reserved": 0, "type": "electric_scooter", "bike_id": "ff1179c9adde8c180913ebbadd8d931d", "lat": 38.897455, "lon": -77.04994216666667, "rental_uris": {"android": "https://dc.lft.to/lastmile_qr_scan", "ios": "https://dc.lft.to/lastmile_qr_scan"}, "is_disabled": 0, "fusion_lat": 0.0, "name": "ff1179c9adde8c180913ebbadd8d931d", "fusion_lon": 0.0}, {"is_reserved": 0, "type": "electric_scooter", "bike_id": "165cf4af261f9bcf0599e2a70a573bd5", "lat": 38.9431185, "lon": -77.02178566666667, "rental_uris": {"android": "https://dc.lft.to/lastmile_qr_scan", "ios": "https://dc.lft.to/lastmile_qr_scan"}, "is_disabled": 0, "fusion_lat": 0.0, "name": "165cf4af261f9bcf0599e2a70a573bd5", "fusion_lon": 0.0}, {"is_reserved": 0, "type": "electric_scooter", "bike_id": "ec38d0eb1f09a6cd58b82eaa18c31ab3", "lat": 38.920284333333335, "lon": -77.01033816666667, "rental_uris": {"android": "https://dc.lft.to/lastmile_qr_scan", "ios": "https://dc.lft.to/lastmile_qr_scan"}, "is_disabled": 0, "fusion_lat": 0.0, "name": "ec38d0eb1f09a6cd58b82eaa18c31ab3", "fusion_lon": 0.0}, {"is_reserved": 0, "type": "electric_scooter", "bike_id": "6b8b8ba374becd19cc7206b68949d631", "lat": 38.9282655, "lon": -77.05440966666667, "rental_uris": {"android": "https://dc.lft.to/lastmile_qr_scan", "ios": "https://dc.lft.to/lastmile_qr_scan"}, "is_disabled": 0, "fusion_lat": 0.0, "name": "6b8b8ba374becd19cc7206b68949d631", "fusion_lon": 0.0}, {"is_reserved": 0, "type": "electric_scooter", "bike_id": "589545ae181e01cdf2f9c8e2c3234c62", "lat": 38.8991985, "lon": -77.02712066666666, "rental_uris": {"android": "https://dc.lft.to/lastmile_qr_scan", "ios": "https://dc.lft.to/lastmile_qr_scan"}, "is_disabled": 0, "fusion_lat": 0.0, "name": "589545ae181e01cdf2f9c8e2c3234c62", "fusion_lon": 0.0}, {"is_reserved": 0, "type": "electric_scooter", "bike_id": "6037eb027fd5d0bdb0e2e0b278a0b2fe", "lat": 38.905229166666665, "lon": -77.06786166666667, "rental_uris": {"android": "https://dc.lft.to/lastmile_qr_scan", "ios": "https://dc.lft.to/lastmile_qr_scan"}, "is_disabled": 0, "fusion_lat": 0.0, "name": "6037eb027fd5d0bdb0e2e0b278a0b2fe", "fusion_lon": 0.0}, {"is_reserved": 0, "type": "electric_scooter", "bike_id": "8fac7a6a59c4b4feb26466d8a4e8e8bd", "lat": 38.93740566666666, "lon": -77.0326575, "rental_uris": {"android": "https://dc.lft.to/lastmile_qr_scan", "ios": "https://dc.lft.to/lastmile_qr_scan"}, "is_disabled": 0, "fusion_lat": 0.0, "name": "8fac7a6a59c4b4feb26466d8a4e8e8bd", "fusion_lon": 0.0}, {"is_reserved": 0, "type": "electric_scooter", "bike_id": "e888dfa3052612a210ab0fd5d710c25e", "lat": 38.90030216666667, "lon": -77.03621183333334, "rental_uris": {"android": "https://dc.lft.to/lastmile_qr_scan", "ios": "https://dc.lft.to/lastmile_qr_scan"}, "is_disabled": 0, "fusion_lat": 0.0, "name": "e888dfa3052612a210ab0fd5d710c25e", "fusion_lon": 0.0}, {"is_reserved": 0, "type": "electric_scooter", "bike_id": "7cd324eefbebb6513fe396f3e61411f4", "lat": 38.87448833333333, "lon": -77.00925966666667, "rental_uris": {"android": "https://dc.lft.to/lastmile_qr_scan", "ios": "https://dc.lft.to/lastmile_qr_scan"}, "is_disabled": 0, "fusion_lat": 0.0, "name": "7cd324eefbebb6513fe396f3e61411f4", "fusion_lon": 0.0}, {"is_reserved": 0, "type": "electric_scooter", "bike_id": "8ac5d697b772d7d045cef6475a7539ae", "lat": 38.87610083333333, "lon": -76.9656465, "rental_uris": {"android": "https://dc.lft.to/lastmile_qr_scan", "ios": "https://dc.lft.to/lastmile_qr_scan"}, "is_disabled": 0, "fusion_lat": 0.0, "name": "8ac5d697b772d7d045cef6475a7539ae", "fusion_lon": 0.0}, {"is_reserved": 0, "type": "electric_scooter", "bike_id": "c66f4a3abbc8d9caa23c33bfb4ba4a68", "lat": 38.90511216666667, "lon": -77.063809, "rental_uris": {"android": "https://dc.lft.to/lastmile_qr_scan", "ios": "https://dc.lft.to/lastmile_qr_scan"}, "is_disabled": 0, "fusion_lat": 0.0, "name": "c66f4a3abbc8d9caa23c33bfb4ba4a68", "fusion_lon": 0.0}, {"is_reserved": 0, "type": "electric_scooter", "bike_id": "429a089a135350bcc6c12a7ce33d9d8e", "lat": 38.90940883333333, "lon": -77.03202033333334, "rental_uris": {"android": "https://dc.lft.to/lastmile_qr_scan", "ios": "https://dc.lft.to/lastmile_qr_scan"}, "is_disabled": 0, "fusion_lat": 0.0, "name": "429a089a135350bcc6c12a7ce33d9d8e", "fusion_lon": 0.0}, {"is_reserved": 0, "type": "electric_scooter", "bike_id": "bbc3b5d0f8a4a2cae33dfd9159034a9a", "lat": 38.94177966666667, "lon": -77.0256565, "rental_uris": {"android": "https://dc.lft.to/lastmile_qr_scan", "ios": "https://dc.lft.to/lastmile_qr_scan"}, "is_disabled": 0, "fusion_lat": 0.0, "name": "bbc3b5d0f8a4a2cae33dfd9159034a9a", "fusion_lon": 0.0}, {"is_reserved": 0, "type": "electric_scooter", "bike_id": "856d30205ad880437c7935a7d9315f16", "lat": 38.900545666666666, "lon": -77.0073915, "rental_uris": {"android": "https://dc.lft.to/lastmile_qr_scan", "ios": "https://dc.lft.to/lastmile_qr_scan"}, "is_disabled": 0, "fusion_lat": 0.0, "name": "856d30205ad880437c7935a7d9315f16", "fusion_lon": 0.0}, {"is_reserved": 0, "type": "electric_bike", "bike_id": "dddb7938b42eea52f0f7d591dbdb7e81", "lat": 38.95846066666667, "lon": -76.98607483333333, "rental_uris": {"android": "https://dc.lft.to/lastmile_qr_scan", "ios": "https://dc.lft.to/lastmile_qr_scan"}, "is_disabled": 0, "fusion_lat": 0.0, "name": "dddb7938b42eea52f0f7d591dbdb7e81", "fusion_lon": 0.0}, {"is_reserved": 0, "type": "electric_scooter", "bike_id": "cc1b2ec76edfd660f2cd1cd0e9735897", "lat": 38.92427633333333, "lon": -77.01940383333333, "rental_uris": {"android": "https://dc.lft.to/lastmile_qr_scan", "ios": "https://dc.lft.to/lastmile_qr_scan"}, "is_disabled": 0, "fusion_lat": 0.0, "name": "cc1b2ec76edfd660f2cd1cd0e9735897", "fusion_lon": 0.0}, {"is_reserved": 0, "type": "electric_scooter", "bike_id": "df5bfa35eb2f9ff7ffffc1f65a4e3235", "lat": 38.923166, "lon": -77.04456633333334, "rental_uris": {"android": "https://dc.lft.to/lastmile_qr_scan", "ios": "https://dc.lft.to/lastmile_qr_scan"}, "is_disabled": 0, "fusion_lat": 0.0, "name": "df5bfa35eb2f9ff7ffffc1f65a4e3235", "fusion_lon": 0.0}, {"is_reserved": 0, "type": "electric_scooter", "bike_id": "0df540531448627f9f8b6b17669b6ee3", "lat": 38.924385666666666, "lon": -77.02032816666667, "rental_uris": {"android": "https://dc.lft.to/lastmile_qr_scan", "ios": "https://dc.lft.to/lastmile_qr_scan"}, "is_disabled": 0, "fusion_lat": 0.0, "name": "0df540531448627f9f8b6b17669b6ee3", "fusion_lon": 0.0}, {"is_reserved": 0, "type": "electric_scooter", "bike_id": "4219d7a0441903d03b67fa46cfeae7f4", "lat": 38.87865766666667, "lon": -76.96262633333333, "rental_uris": {"android": "https://dc.lft.to/lastmile_qr_scan", "ios": "https://dc.lft.to/lastmile_qr_scan"}, "is_disabled": 0, "fusion_lat": 0.0, "name": "4219d7a0441903d03b67fa46cfeae7f4", "fusion_lon": 0.0}, {"is_reserved": 0, "type": "electric_scooter", "bike_id": "6908c125a5d54e95022a6cff5c283863", "lat": 38.9170785, "lon": -77.03225416666666, "rental_uris": {"android": "https://dc.lft.to/lastmile_qr_scan", "ios": "https://dc.lft.to/lastmile_qr_scan"}, "is_disabled": 0, "fusion_lat": 0.0, "name": "6908c125a5d54e95022a6cff5c283863", "fusion_lon": 0.0}, {"is_reserved": 0, "type": "electric_scooter", "bike_id": "30f60026959ae87ea94770a8883f3540", "lat": 38.8875525, "lon": -76.996171, "rental_uris": {"android": "https://dc.lft.to/lastmile_qr_scan", "ios": "https://dc.lft.to/lastmile_qr_scan"}, "is_disabled": 0, "fusion_lat": 0.0, "name": "30f60026959ae87ea94770a8883f3540", "fusion_lon": 0.0}, {"is_reserved": 0, "type": "electric_scooter", "bike_id": "4206aa39da22e19ee81d78b7966b7f34", "lat": 38.922839333333336, "lon": -77.03402, "rental_uris": {"android": "https://dc.lft.to/lastmile_qr_scan", "ios": "https://dc.lft.to/lastmile_qr_scan"}, "is_disabled": 0, "fusion_lat": 0.0, "name": "4206aa39da22e19ee81d78b7966b7f34", "fusion_lon": 0.0}, {"is_reserved": 0, "type": "electric_scooter", "bike_id": "18fbabd328fd8a61e7727be12adc5c97", "lat": 38.905281, "lon": -77.0610365, "rental_uris": {"android": "https://dc.lft.to/lastmile_qr_scan", "ios": "https://dc.lft.to/lastmile_qr_scan"}, "is_disabled": 0, "fusion_lat": 0.0, "name": "18fbabd328fd8a61e7727be12adc5c97", "fusion_lon": 0.0}, {"is_reserved": 0, "type": "electric_scooter", "bike_id": "2d22b9034330528db274137c5b3136c8", "lat": 38.90550433333333, "lon": -77.0269205, "rental_uris": {"android": "https://dc.lft.to/lastmile_qr_scan", "ios": "https://dc.lft.to/lastmile_qr_scan"}, "is_disabled": 0, "fusion_lat": 0.0, "name": "2d22b9034330528db274137c5b3136c8", "fusion_lon": 0.0}, {"is_reserved": 0, "type": "electric_scooter", "bike_id": "c6929792f8939f6aab8632b6bce74876", "lat": 38.92024633333333, "lon": -76.98543616666667, "rental_uris": {"android": "https://dc.lft.to/lastmile_qr_scan", "ios": "https://dc.lft.to/lastmile_qr_scan"}, "is_disabled": 0, "fusion_lat": 0.0, "name": "c6929792f8939f6aab8632b6bce74876", "fusion_lon": 0.0}, {"is_reserved": 0, "type": "electric_scooter", "bike_id": "7ff7b7dbc31cede6fb55312c108e3753", "lat": 38.887715, "lon": -76.9326515, "rental_uris": {"android": "https://dc.lft.to/lastmile_qr_scan", "ios": "https://dc.lft.to/lastmile_qr_scan"}, "is_disabled": 0, "fusion_lat": 0.0, "name": "7ff7b7dbc31cede6fb55312c108e3753", "fusion_lon": 0.0}, {"is_reserved": 0, "type": "electric_scooter", "bike_id": "e18bd8c206559c375f71aebe6586cf52", "lat": 38.911077666666664, "lon": -77.0325475, "rental_uris": {"android": "https://dc.lft.to/lastmile_qr_scan", "ios": "https://dc.lft.to/lastmile_qr_scan"}, "is_disabled": 0, "fusion_lat": 0.0, "name": "e18bd8c206559c375f71aebe6586cf52", "fusion_lon": 0.0}, {"is_reserved": 0, "type": "electric_bike", "bike_id": "a8e11eb5a8caa58d934565b43faff978", "lat": 38.867556666666665, "lon": -76.94535266666666, "rental_uris": {"android": "https://dc.lft.to/lastmile_qr_scan", "ios": "https://dc.lft.to/lastmile_qr_scan"}, "is_disabled": 0, "fusion_lat": 0.0, "name": "a8e11eb5a8caa58d934565b43faff978", "fusion_lon": 0.0}, {"is_reserved": 0, "type": "electric_scooter", "bike_id": "5fb946b8338bdd251c62b01c9c76aec2", "lat": 38.879299333333336, "lon": -77.01787983333334, "rental_uris": {"android": "https://dc.lft.to/lastmile_qr_scan", "ios": "https://dc.lft.to/lastmile_qr_scan"}, "is_disabled": 0, "fusion_lat": 0.0, "name": "5fb946b8338bdd251c62b01c9c76aec2", "fusion_lon": 0.0}, {"is_reserved": 0, "type": "electric_bike", "bike_id": "6b8091a3a647faa5abd22750fc20b914", "lat": 38.9295215, "lon": -77.03776816666667, "rental_uris": {"android": "https://dc.lft.to/lastmile_qr_scan", "ios": "https://dc.lft.to/lastmile_qr_scan"}, "is_disabled": 0, "fusion_lat": 0.0, "name": "6b8091a3a647faa5abd22750fc20b914", "fusion_lon": 0.0}, {"is_reserved": 0, "type": "electric_scooter", "bike_id": "1c12168d28ed8a8f2d05ef37a76fd368", "lat": 38.9298035, "lon": -77.05507516666667, "rental_uris": {"android": "https://dc.lft.to/lastmile_qr_scan", "ios": "https://dc.lft.to/lastmile_qr_scan"}, "is_disabled": 0, "fusion_lat": 0.0, "name": "1c12168d28ed8a8f2d05ef37a76fd368", "fusion_lon": 0.0}, {"is_reserved": 0, "type": "electric_scooter", "bike_id": "3f2025d6ed42d9926e3e9be4482bd284", "lat": 38.905233833333334, "lon": -77.0615365, "rental_uris": {"android": "https://dc.lft.to/lastmile_qr_scan", "ios": "https://dc.lft.to/lastmile_qr_scan"}, "is_disabled": 0, "fusion_lat": 0.0, "name": "3f2025d6ed42d9926e3e9be4482bd284", "fusion_lon": 0.0}, {"is_reserved": 0, "type": "electric_scooter", "bike_id": "da505f11959465be7d3cae92a36cfa1a", "lat": 38.887429166666664, "lon": -77.0140755, "rental_uris": {"android": "https://dc.lft.to/lastmile_qr_scan", "ios": "https://dc.lft.to/lastmile_qr_scan"}, "is_disabled": 0, "fusion_lat": 0.0, "name": "da505f11959465be7d3cae92a36cfa1a", "fusion_lon": 0.0}, {"is_reserved": 0, "type": "electric_scooter", "bike_id": "651bb0c1da60c1a9de7bf5711f89a542", "lat": 38.924866333333334, "lon": -77.028146, "rental_uris": {"android": "https://dc.lft.to/lastmile_qr_scan", "ios": "https://dc.lft.to/lastmile_qr_scan"}, "is_disabled": 0, "fusion_lat": 0.0, "name": "651bb0c1da60c1a9de7bf5711f89a542", "fusion_lon": 0.0}, {"is_reserved": 0, "type": "electric_bike", "bike_id": "a5c469cd221f92176afe488f5470f02a", "lat": 39.09447816666667, "lon": -77.134623, "rental_uris": {"android": "https://dc.lft.to/lastmile_qr_scan", "ios": "https://dc.lft.to/lastmile_qr_scan"}, "is_disabled": 0, "fusion_lat": 0.0, "name": "a5c469cd221f92176afe488f5470f02a", "fusion_lon": 0.0}, {"is_reserved": 0, "type": "electric_scooter", "bike_id": "bbacc915970034e9daeec1d0fe2475dd", "lat": 38.919291, "lon": -77.01979616666667, "rental_uris": {"android": "https://dc.lft.to/lastmile_qr_scan", "ios": "https://dc.lft.to/lastmile_qr_scan"}, "is_disabled": 0, "fusion_lat": 0.0, "name": "bbacc915970034e9daeec1d0fe2475dd", "fusion_lon": 0.0}, {"is_reserved": 0, "type": "electric_scooter", "bike_id": "a2437debf668befaa173c1b8bda5b786", "lat": 38.9363955, "lon": -77.06006816666667, "rental_uris": {"android": "https://dc.lft.to/lastmile_qr_scan", "ios": "https://dc.lft.to/lastmile_qr_scan"}, "is_disabled": 0, "fusion_lat": 0.0, "name": "a2437debf668befaa173c1b8bda5b786", "fusion_lon": 0.0}, {"is_reserved": 0, "type": "electric_scooter", "bike_id": "0fc88d52ddc58c76e11b257a247a84cf", "lat": 38.8971225, "lon": -76.99117383333333, "rental_uris": {"android": "https://dc.lft.to/lastmile_qr_scan", "ios": "https://dc.lft.to/lastmile_qr_scan"}, "is_disabled": 0, "fusion_lat": 0.0, "name": "0fc88d52ddc58c76e11b257a247a84cf", "fusion_lon": 0.0}, {"is_reserved": 0, "type": "electric_scooter", "bike_id": "400aa29d15c6b866fb517108f725dd7a", "lat": 38.9302715, "lon": -77.0379505, "rental_uris": {"android": "https://dc.lft.to/lastmile_qr_scan", "ios": "https://dc.lft.to/lastmile_qr_scan"}, "is_disabled": 0, "fusion_lat": 0.0, "name": "400aa29d15c6b866fb517108f725dd7a", "fusion_lon": 0.0}, {"is_reserved": 0, "type": "electric_scooter", "bike_id": "15530fb09ddf0a1374014869d4bc4e9c", "lat": 38.90556516666667, "lon": -77.02815616666666, "rental_uris": {"android": "https://dc.lft.to/lastmile_qr_scan", "ios": "https://dc.lft.to/lastmile_qr_scan"}, "is_disabled": 0, "fusion_lat": 0.0, "name": "15530fb09ddf0a1374014869d4bc4e9c", "fusion_lon": 0.0}, {"is_reserved": 0, "type": "electric_scooter", "bike_id": "f451fd9bc5736d3eec77b65a62e05995", "lat": 38.9278965, "lon": -77.03613183333333, "rental_uris": {"android": "https://dc.lft.to/lastmile_qr_scan", "ios": "https://dc.lft.to/lastmile_qr_scan"}, "is_disabled": 0, "fusion_lat": 0.0, "name": "f451fd9bc5736d3eec77b65a62e05995", "fusion_lon": 0.0}, {"is_reserved": 0, "type": "electric_scooter", "bike_id": "05fc3d8b2be689a2c6374d029dc72131", "lat": 38.9237205, "lon": -77.08053166666667, "rental_uris": {"android": "https://dc.lft.to/lastmile_qr_scan", "ios": "https://dc.lft.to/lastmile_qr_scan"}, "is_disabled": 0, "fusion_lat": 0.0, "name": "05fc3d8b2be689a2c6374d029dc72131", "fusion_lon": 0.0}, {"is_reserved": 0, "type": "electric_scooter", "bike_id": "03d188f1886c3f6cddadea552057aef1", "lat": 38.9729535, "lon": -77.03627866666666, "rental_uris": {"android": "https://dc.lft.to/lastmile_qr_scan", "ios": "https://dc.lft.to/lastmile_qr_scan"}, "is_disabled": 0, "fusion_lat": 0.0, "name": "03d188f1886c3f6cddadea552057aef1", "fusion_lon": 0.0}, {"is_reserved": 0, "type": "electric_scooter", "bike_id": "492915e826b3049933b3ef99556c94f2", "lat": 38.86447716666667, "lon": -76.991119, "rental_uris": {"android": "https://dc.lft.to/lastmile_qr_scan", "ios": "https://dc.lft.to/lastmile_qr_scan"}, "is_disabled": 0, "fusion_lat": 0.0, "name": "492915e826b3049933b3ef99556c94f2", "fusion_lon": 0.0}, {"is_reserved": 0, "type": "electric_scooter", "bike_id": "48926ac9b5417502e3ab9ba5fb938c17", "lat": 38.8931705, "lon": -77.02954, "rental_uris": {"android": "https://dc.lft.to/lastmile_qr_scan", "ios": "https://dc.lft.to/lastmile_qr_scan"}, "is_disabled": 0, "fusion_lat": 0.0, "name": "48926ac9b5417502e3ab9ba5fb938c17", "fusion_lon": 0.0}, {"is_reserved": 0, "type": "electric_scooter", "bike_id": "81076ac4c3c1843547faf426eaa78626", "lat": 38.928420833333334, "lon": -77.055041, "rental_uris": {"android": "https://dc.lft.to/lastmile_qr_scan", "ios": "https://dc.lft.to/lastmile_qr_scan"}, "is_disabled": 0, "fusion_lat": 0.0, "name": "81076ac4c3c1843547faf426eaa78626", "fusion_lon": 0.0}, {"is_reserved": 0, "type": "electric_scooter", "bike_id": "d60ca9c2167d9d71925579aba3fe95d6", "lat": 38.924330833333336, "lon": -77.00318933333334, "rental_uris": {"android": "https://dc.lft.to/lastmile_qr_scan", "ios": "https://dc.lft.to/lastmile_qr_scan"}, "is_disabled": 0, "fusion_lat": 0.0, "name": "d60ca9c2167d9d71925579aba3fe95d6", "fusion_lon": 0.0}, {"is_reserved": 0, "type": "electric_scooter", "bike_id": "559a5af958cc73c446914a64f47845f1", "lat": 38.922148666666665, "lon": -77.04238133333334, "rental_uris": {"android": "https://dc.lft.to/lastmile_qr_scan", "ios": "https://dc.lft.to/lastmile_qr_scan"}, "is_disabled": 0, "fusion_lat": 0.0, "name": "559a5af958cc73c446914a64f47845f1", "fusion_lon": 0.0}, {"is_reserved": 0, "type": "electric_scooter", "bike_id": "f477bdf57742b7716cf3f3314e36b777", "lat": 38.88529316666666, "lon": -76.996224, "rental_uris": {"android": "https://dc.lft.to/lastmile_qr_scan", "ios": "https://dc.lft.to/lastmile_qr_scan"}, "is_disabled": 0, "fusion_lat": 0.0, "name": "f477bdf57742b7716cf3f3314e36b777", "fusion_lon": 0.0}, {"is_reserved": 0, "type": "electric_scooter", "bike_id": "57fdd1b0383b3feb46d7f2e486ecc28e", "lat": 38.8987365, "lon": -76.93186966666667, "rental_uris": {"android": "https://dc.lft.to/lastmile_qr_scan", "ios": "https://dc.lft.to/lastmile_qr_scan"}, "is_disabled": 0, "fusion_lat": 0.0, "name": "57fdd1b0383b3feb46d7f2e486ecc28e", "fusion_lon": 0.0}, {"is_reserved": 0, "type": "electric_scooter", "bike_id": "54b22b722ad9ea5a64f0add756928613", "lat": 38.928647, "lon": -77.01369283333334, "rental_uris": {"android": "https://dc.lft.to/lastmile_qr_scan", "ios": "https://dc.lft.to/lastmile_qr_scan"}, "is_disabled": 0, "fusion_lat": 0.0, "name": "54b22b722ad9ea5a64f0add756928613", "fusion_lon": 0.0}, {"is_reserved": 0, "type": "electric_scooter", "bike_id": "eff5fbb0ff7b023102f4eae7f6b489ea", "lat": 38.9068335, "lon": -77.06253283333334, "rental_uris": {"android": "https://dc.lft.to/lastmile_qr_scan", "ios": "https://dc.lft.to/lastmile_qr_scan"}, "is_disabled": 0, "fusion_lat": 0.0, "name": "eff5fbb0ff7b023102f4eae7f6b489ea", "fusion_lon": 0.0}, {"is_reserved": 0, "type": "electric_scooter", "bike_id": "ce8693ce6816b8ff2fec240dd45fbf14", "lat": 38.9072205, "lon": -77.0168175, "rental_uris": {"android": "https://dc.lft.to/lastmile_qr_scan", "ios": "https://dc.lft.to/lastmile_qr_scan"}, "is_disabled": 0, "fusion_lat": 0.0, "name": "ce8693ce6816b8ff2fec240dd45fbf14", "fusion_lon": 0.0}, {"is_reserved": 0, "type": "electric_scooter", "bike_id": "1a3fd78c1d0f32f251a278ee60b4ff24", "lat": 38.9067845, "lon": -77.00901433333334, "rental_uris": {"android": "https://dc.lft.to/lastmile_qr_scan", "ios": "https://dc.lft.to/lastmile_qr_scan"}, "is_disabled": 0, "fusion_lat": 0.0, "name": "1a3fd78c1d0f32f251a278ee60b4ff24", "fusion_lon": 0.0}, {"is_reserved": 0, "type": "electric_scooter", "bike_id": "7c3cc7cd3bb17ac05db682a1ecfbb0ae", "lat": 38.9170375, "lon": -77.02414666666667, "rental_uris": {"android": "https://dc.lft.to/lastmile_qr_scan", "ios": "https://dc.lft.to/lastmile_qr_scan"}, "is_disabled": 0, "fusion_lat": 0.0, "name": "7c3cc7cd3bb17ac05db682a1ecfbb0ae", "fusion_lon": 0.0}, {"is_reserved": 0, "type": "electric_scooter", "bike_id": "fe06b4202357b308a7fa7827f10641f4", "lat": 38.917441333333336, "lon": -77.02805216666667, "rental_uris": {"android": "https://dc.lft.to/lastmile_qr_scan", "ios": "https://dc.lft.to/lastmile_qr_scan"}, "is_disabled": 0, "fusion_lat": 0.0, "name": "fe06b4202357b308a7fa7827f10641f4", "fusion_lon": 0.0}, {"is_reserved": 0, "type": "electric_scooter", "bike_id": "ad3e949febb1168129d322b1d992e963", "lat": 38.9224865, "lon": -77.04253416666667, "rental_uris": {"android": "https://dc.lft.to/lastmile_qr_scan", "ios": "https://dc.lft.to/lastmile_qr_scan"}, "is_disabled": 0, "fusion_lat": 0.0, "name": "ad3e949febb1168129d322b1d992e963", "fusion_lon": 0.0}, {"is_reserved": 0, "type": "electric_scooter", "bike_id": "edfbea448eb8a7e5da28bfe3c68c0f4a", "lat": 38.94078566666666, "lon": -77.05491316666667, "rental_uris": {"android": "https://dc.lft.to/lastmile_qr_scan", "ios": "https://dc.lft.to/lastmile_qr_scan"}, "is_disabled": 0, "fusion_lat": 0.0, "name": "edfbea448eb8a7e5da28bfe3c68c0f4a", "fusion_lon": 0.0}, {"is_reserved": 0, "type": "electric_scooter", "bike_id": "bee23ddb5169f1345e0ba6ee667b36c5", "lat": 38.92386116666667, "lon": -77.026913, "rental_uris": {"android": "https://dc.lft.to/lastmile_qr_scan", "ios": "https://dc.lft.to/lastmile_qr_scan"}, "is_disabled": 0, "fusion_lat": 0.0, "name": "bee23ddb5169f1345e0ba6ee667b36c5", "fusion_lon": 0.0}, {"is_reserved": 0, "type": "electric_scooter", "bike_id": "4f9db314568c36ab140d793f18689182", "lat": 38.902000666666666, "lon": -77.04872966666667, "rental_uris": {"android": "https://dc.lft.to/lastmile_qr_scan", "ios": "https://dc.lft.to/lastmile_qr_scan"}, "is_disabled": 0, "fusion_lat": 0.0, "name": "4f9db314568c36ab140d793f18689182", "fusion_lon": 0.0},