{"data": {"bikes": [{"fusion_lat": 0.0, "name": "29880b97891a4f52a2c44d480f2c1365", "is_disabled": 0, "rental_uris": {"android": "https://dc.lft.to/lastmile_qr_scan", "ios": "https://dc.lft.to/lastmile_qr_scan"}, "fusion_lon": 0.0, "lat": 38.933609, "bike_id": "29880b97891a4f52a2c44d480f2c1365", "type": "electric_scooter", "is_reserved": 0, "lon": -77.0249445}, {"fusion_lat": 0.0, "name": "110c2ee702f376dab2cf341cdd84f9f9", "is_disabled": 0, "rental_uris": {"android": "https://dc.lft.to/lastmile_qr_scan", "ios": "https://dc.lft.to/lastmile_qr_scan"}, "fusion_lon": 0.0, "lat": 38.96120616666666, "bike_id": "110c2ee702f376dab2cf341cdd84f9f9", "type": "electric_scooter", "is_reserved": 0, "lon": -77.02790083333333}, {"fusion_lat": 0.0, "name": "50dc60c5cd7309648103cad5d19612ec", "is_disabled": 0, "rental_uris": {"android": "https://dc.lft.to/lastmile_qr_scan", "ios": "https://dc.lft.to/lastmile_qr_scan"}, "fusion_lon": 0.0, "lat": 38.929884333333334, "bike_id": "50dc60c5cd7309648103cad5d19612ec", "type": "electric_scooter", "is_reserved": 0, "lon": -77.03230683333334}, {"fusion_lat": 0.0, "name": "3292b9182c3857db5157b2e5c2db607b", "is_disabled": 0, "rental_uris": {"android": "https://dc.lft.to/lastmile_qr_scan", "ios": "https://dc.lft.to/lastmile_qr_scan"}, "fusion_lon": 0.0, "lat": 38.927518, "bike_id": "3292b9182c3857db5157b2e5c2db607b", "type": "electric_scooter", "is_reserved": 0, "lon": -77.03275033333334}, {"fusion_lat": 0.0, "name": "78effe4b1f1133f376f84d6682ac8cf3", "is_disabled": 0, "rental_uris": {"android": "https://dc.lft.to/lastmile_qr_scan", "ios": "https://dc.lft.to/lastmile_qr_scan"}, "fusion_lon": 0.0, "lat": 38.9056885, "bike_id": "78effe4b1f1133f376f84d6682ac8cf3", "type": "electric_scooter", "is_reserved": 0, "lon": -77.0058145}, {"fusion_lat": 0.0, "name": "14e56fa95cc6d17cc3ed1c91da071246", "is_disabled": 0, "rental_uris": {"android": "https://dc.lft.to/lastmile_qr_scan", "ios": "https://dc.lft.to/lastmile_qr_scan"}, "fusion_lon": 0.0, "lat": 38.89223466666667, "bike_id": "14e56fa95cc6d17cc3ed1c91da071246", "type": "electric_scooter", "is_reserved": 0, "lon": -77.0418915}, {"fusion_lat": 0.0, "name": "6cbacd2d6750c4b0ea7110c2d1452df3", "is_disabled": 0, "rental_uris": {"android": "https://dc.lft.to/lastmile_qr_scan", "ios": "https://dc.lft.to/lastmile_qr_scan"}, "fusion_lon": 0.0, "lat": 38.933269833333334, "bike_id": "6cbacd2d6750c4b0ea7110c2d1452df3", "type": "electric_scooter", "is_reserved": 0, "lon": -77.03809766666667}, {"fusion_lat": 0.0, "name": "c16a19df5107dcf3d966a162ffd01a57", "is_disabled": 0, "rental_uris": {"android": "https://dc.lft.to/lastmile_qr_scan", "ios": "https://dc.lft.to/lastmile_qr_scan"}, "fusion_lon": 0.0, "lat": 38.9230645, "bike_id": "c16a19df5107dcf3d966a162ffd01a57", "type": "electric_scooter", "is_reserved": 0, "lon": -77.02254383333333}, {"fusion_lat": 0.0, "name": "d857b50dca3b11f601be690d0f4d3f20", "is_disabled": 0, "rental_uris": {"android": "https://dc.lft.to/lastmile_qr_scan", "ios": "https://dc.lft.to/lastmile_qr_scan"}, "fusion_lon": 0.0, "lat": 38.9072995, "bike_id": "d857b50dca3b11f601be690d0f4d3f20", "type": "electric_scooter", "is_reserved": 0, "lon": -77.0499285}, {"fusion_lat": 0.0, "name": "2071d49cd38d03afdfd7fe4dc3313e85", "is_disabled": 0, "rental_uris": {"android": "https://dc.lft.to/lastmile_qr_scan", "ios": "https://dc.lft.to/lastmile_qr_scan"}, "fusion_lon": 0.0, "lat": 38.91482966666667, "bike_id": "2071d49cd38d03afdfd7fe4dc3313e85", "type": "electric_scooter", "is_reserved": 0, "lon": -77.04610383333333}, {"fusion_lat": 0.0, "name": "bbba7735525a091c7b62044b98702392", "is_disabled": 0, "rental_uris": {"android": "https://dc.lft.to/lastmile_qr_scan", "ios": "https://dc.lft.to/lastmile_qr_scan"}, "fusion_lon": 0.0, "lat": 38.927938833333336, "bike_id": "bbba7735525a091c7b62044b98702392", "type": "electric_scooter", "is_reserved": 0, "lon": -77.01416883333333}, {"fusion_lat": 0.0, "name": "b4370ec4c14df3e2895659460db4f97a", "is_disabled": 0, "rental_uris": {"android": "https://dc.lft.to/lastmile_qr_scan", "ios": "https://dc.lft.to/lastmile_qr_scan"}, "fusion_lon": 0.0, "lat": 38.93075566666667, "bike_id": "b4370ec4c14df3e2895659460db4f97a", "type": "electric_scooter", "is_reserved": 0, "lon": -77.07761583333334}, {"fusion_lat": 0.0, "name": "41691fda0ce1a751ea84ad7d83ceca77", "is_disabled": 0, "rental_uris": {"android": "https://dc.lft.to/lastmile_qr_scan", "ios": "https://dc.lft.to/lastmile_qr_scan"}, "fusion_lon": 0.0, "lat": 38.9540255, "bike_id": "41691fda0ce1a751ea84ad7d83ceca77", "type": "electric_scooter", "is_reserved": 0, "lon": -77.02792533333333}, {"fusion_lat": 0.0, "name": "9afe3df84ebc45faf58728b74268a0ba", "is_disabled": 0, "rental_uris": {"android": "https://dc.lft.to/lastmile_qr_scan", "ios": "https://dc.lft.to/lastmile_qr_scan"}, "fusion_lon": 0.0, "lat": 38.860141166666665, "bike_id": "9afe3df84ebc45faf58728b74268a0ba", "type": "electric_bike", "is_reserved": 0, "lon": -77.12808183333334}, {"fusion_lat": 0.0, "name": "ce4e0f480b60d012906c77e45b7b07f2", "is_disabled": 0, "rental_uris": {"android": "https://dc.lft.to/lastmile_qr_scan", "ios": "https://dc.lft.to/lastmile_qr_scan"}, "fusion_lon": 0.0, "lat": 38.88730666666667, "bike_id": "ce4e0f480b60d012906c77e45b7b07f2", "type": "electric_scooter", "is_reserved": 0, "lon": -77.03178833333334}, {"fusion_lat": 0.0, "name": "80b25e8e758adaf9463b7a10c352f004", "is_disabled": 0, "rental_uris": {"android": "https://dc.lft.to/lastmile_qr_scan", "ios": "https://dc.lft.to/lastmile_qr_scan"}, "fusion_lon": 0.0, "lat": 38.9318325, "bike_id": "80b25e8e758adaf9463b7a10c352f004", "type": "electric_scooter", "is_reserved": 0, "lon": -77.03161}, {"fusion_lat": 0.0, "name": "d84209d3d38aa67579a7d153079ba3ab", "is_disabled": 0, "rental_uris": {"android": "https://dc.lft.to/lastmile_qr_scan", "ios": "https://dc.lft.to/lastmile_qr_scan"}, "fusion_lon": 0.0, "lat": 38.86666533333333, "bike_id": "d84209d3d38aa67579a7d153079ba3ab", "type": "electric_scooter", "is_reserved": 0, "lon": -76.98903366666667}, {"fusion_lat": 0.0, "name": "60b4db349dab35124e2232fe0f43d10a", "is_disabled": 0, "rental_uris": {"android": "https://dc.lft.to/lastmile_qr_scan", "ios": "https://dc.lft.to/lastmile_qr_scan"}, "fusion_lon": 0.0, "lat": 38.876615666666666, "bike_id": "60b4db349dab35124e2232fe0f43d10a", "type": "electric_scooter", "is_reserved": 0, "lon": -77.00084066666666}, {"fusion_lat": 0.0, "name": "0faac1474498cbe2d6e7acdb4455e100", "is_disabled": 0, "rental_uris": {"android": "https://dc.lft.to/lastmile_qr_scan", "ios": "https://dc.lft.to/lastmile_qr_scan"}, "fusion_lon": 0.0, "lat": 38.92067816666667, "bike_id": "0faac1474498cbe2d6e7acdb4455e100", "type": "electric_scooter", "is_reserved": 0, "lon": -77.03808883333333}, {"fusion_lat": 0.0, "name": "2270fe1a1e1f7d1ea1ed944bb0f03a64", "is_disabled": 0, "rental_uris": {"android": "https://dc.lft.to/lastmile_qr_scan", "ios": "https://dc.lft.to/lastmile_qr_scan"}, "fusion_lon": 0.0, "lat": 38.87456683333333, "bike_id": "2270fe1a1e1f7d1ea1ed944bb0f03a64", "type": "electric_scooter", "is_reserved": 0, "lon": -77.002882}, {"fusion_lat": 0.0, "name": "98dd77cbe516469b59f789c0178b3d11", "is_disabled": 0, "rental_uris": {"android": "https://dc.lft.to/lastmile_qr_scan", "ios": "https://dc.lft.to/lastmile_qr_scan"}, "fusion_lon": 0.0, "lat": 38.917331, "bike_id": "98dd77cbe516469b59f789c0178b3d11", "type": "electric_scooter", "is_reserved": 0, "lon": -77.01933266666667}, {"fusion_lat": 0.0, "name": "b7a7e3f8907ba9df2e5108fbfb6130ed", "is_disabled": 0, "rental_uris": {"android": "https://dc.lft.to/lastmile_qr_scan", "ios": "https://dc.lft.to/lastmile_qr_scan"}, "fusion_lon": 0.0, "lat": 38.9067245, "bike_id": "b7a7e3f8907ba9df2e5108fbfb6130ed", "type": "electric_bike", "is_reserved": 0, "lon": -77.03626966666667}, {"fusion_lat": 0.0, "name": "5cc0821d5f30e9e3092cf296a848f6ee", "is_disabled": 0, "rental_uris": {"android": "https://dc.lft.to/lastmile_qr_scan", "ios": "https://dc.lft.to/lastmile_qr_scan"}, "fusion_lon": 0.0, "lat": 38.938310333333334, "bike_id": "5cc0821d5f30e9e3092cf296a848f6ee", "type": "electric_scooter", "is_reserved": 0, "lon": -76.99193433333333}, {"fusion_lat": 0.0, "name": "8fa7673d61858a6e50ce76b5738a4028", "is_disabled": 0, "rental_uris": {"android": "https://dc.lft.to/lastmile_qr_scan", "ios": "https://dc.lft.to/lastmile_qr_scan"}, "fusion_lon": 0.0, "lat": 38.90393683333333, "bike_id": "8fa7673d61858a6e50ce76b5738a4028", "type": "electric_scooter", "is_reserved": 0, "lon": -77.03842233333333}, {"fusion_lat": 0.0, "name": "8a70d0a3faa5958a000cde3fc61a8b8f", "is_disabled": 0, "rental_uris": {"android": "https://dc.lft.to/lastmile_qr_scan", "ios": "https://dc.lft.to/lastmile_qr_scan"}, "fusion_lon": 0.0, "lat": 38.88990316666667, "bike_id": "8a70d0a3faa5958a000cde3fc61a8b8f", "type": "electric_bike", "is_reserved": 0, "lon": -77.07131183333334}, {"fusion_lat": 0.0, "name": "d581d2b36777655a4653e0e588493c5a", "is_disabled": 0, "rental_uris": {"android": "https://dc.lft.to/lastmile_qr_scan", "ios": "https://dc.lft.to/lastmile_qr_scan"}, "fusion_lon": 0.0, "lat": 38.904978166666666, "bike_id": "d581d2b36777655a4653e0e588493c5a", "type": "electric_scooter", "is_reserved": 0, "lon": -77.04890916666666}, {"fusion_lat": 0.0, "name": "d6f831c23079778a0ddc45f4d65924b9", "is_disabled": 0, "rental_uris": {"android": "https://dc.lft.to/lastmile_qr_scan", "ios": "https://dc.lft.to/lastmile_qr_scan"}, "fusion_lon": 0.0, "lat": 38.9004, "bike_id": "d6f831c23079778a0ddc45f4d65924b9", "type": "electric_scooter", "is_reserved": 0, "lon": -77.00188333333334}, {"fusion_lat": 0.0, "name": "a30d254e358d754b591baa777e167c2b", "is_disabled": 0, "rental_uris": {"android": "https://dc.lft.to/lastmile_qr_scan", "ios": "https://dc.lft.to/lastmile_qr_scan"}, "fusion_lon": 0.0, "lat": 38.91106333333333, "bike_id": "a30d254e358d754b591baa777e167c2b", "type": "electric_scooter", "is_reserved": 0, "lon": -77.002129}, {"fusion_lat": 0.0, "name": "1d4feb9ece0587a712a2a4b70abf68fd", "is_disabled": 0, "rental_uris": {"android": "https://dc.lft.to/lastmile_qr_scan", "ios": "https://dc.lft.to/lastmile_qr_scan"}, "fusion_lon": 0.0, "lat": 38.9068235, "bike_id": "1d4feb9ece0587a712a2a4b70abf68fd", "type": "electric_scooter", "is_reserved": 0, "lon": -77.036527}, {"fusion_lat": 0.0, "name": "6dcced4c36931a19f571b117f8abffc1", "is_disabled": 0, "rental_uris": {"android": "https://dc.lft.to/lastmile_qr_scan", "ios": "https://dc.lft.to/lastmile_qr_scan"}, "fusion_lon": 0.0, "lat": 38.90782166666666, "bike_id": "6dcced4c36931a19f571b117f8abffc1", "type": "electric_scooter", "is_reserved": 0, "lon": -77.03516666666667}, {"fusion_lat": 0.0, "name": "71b425668ac52b341932b33a0dff6e55", "is_disabled": 0, "rental_uris": {"android": "https://dc.lft.to/lastmile_qr_scan", "ios": "https://dc.lft.to/lastmile_qr_scan"}, "fusion_lon": 0.0, "lat": 38.911690666666665, "bike_id": "71b425668ac52b341932b33a0dff6e55", "type": "electric_bike", "is_reserved": 0, "lon": -77.0027845}, {"fusion_lat": 0.0, "name": "ebcdd20c93f94a489cd7c68755dace4f", "is_disabled": 0, "rental_uris": {"android": "https://dc.lft.to/lastmile_qr_scan", "ios": "https://dc.lft.to/lastmile_qr_scan"}, "fusion_lon": 0.0, "lat": 38.9047945, "bike_id": "ebcdd20c93f94a489cd7c68755dace4f", "type": "electric_scooter", "is_reserved": 0, "lon": -77.02595283333333}, {"fusion_lat": 0.0, "name": "8094b612cc1c8e7e6e210da41e579318", "is_disabled": 0, "rental_uris": {"android": "https://dc.lft.to/lastmile_qr_scan", "ios": "https://dc.lft.to/lastmile_qr_scan"}, "fusion_lon": 0.0, "lat": 38.90911466666667, "bike_id": "8094b612cc1c8e7e6e210da41e579318", "type": "electric_scooter", "is_reserved": 0, "lon": -76.99955283333334}, {"fusion_lat": 0.0, "name": "8577e94d56fd45a7e5b0dc66d8d2cc7d", "is_disabled": 0, "rental_uris": {"android": "https://dc.lft.to/lastmile_qr_scan", "ios": "https://dc.lft.to/lastmile_qr_scan"}, "fusion_lon": 0.0, "lat": 38.93561583333333, "bike_id": "8577e94d56fd45a7e5b0dc66d8d2cc7d", "type": "electric_bike", "is_reserved": 0, "lon": -77.0369725}, {"fusion_lat": 0.0, "name": "7fe4d4078479b8d6e41c60664ee8593e", "is_disabled": 0, "rental_uris": {"android": "https://dc.lft.to/lastmile_qr_scan", "ios": "https://dc.lft.to/lastmile_qr_scan"}, "fusion_lon": 0.0, "lat": 38.917259, "bike_id": "7fe4d4078479b8d6e41c60664ee8593e", "type": "electric_scooter", "is_reserved": 0, "lon": -77.02698133333334}, {"fusion_lat": 0.0, "name": "c8bdd81e6bfcf52ad7e2f4bef962164d", "is_disabled": 0, "rental_uris": {"android": "https://dc.lft.to/lastmile_qr_scan", "ios": "https://dc.lft.to/lastmile_qr_scan"}, "fusion_lon": 0.0, "lat": 38.84821783333334, "bike_id": "c8bdd81e6bfcf52ad7e2f4bef962164d", "type": "electric_scooter", "is_reserved": 0, "lon": -76.97344666666666}, {"fusion_lat": 0.0, "name": "ec0192e4657909722fbe032fceb1eb7e", "is_disabled": 0, "rental_uris": {"android": "https://dc.lft.to/lastmile_qr_scan", "ios": "https://dc.lft.to/lastmile_qr_scan"}, "fusion_lon": 0.0, "lat": 38.90906783333333, "bike_id": "ec0192e4657909722fbe032fceb1eb7e", "type": "electric_scooter", "is_reserved": 0, "lon": -77.04208983333334}, {"fusion_lat": 0.0, "name": "49ebe25932e29ad4da978f540f741f49", "is_disabled": 0, "rental_uris": {"android": "https://dc.lft.to/lastmile_qr_scan", "ios": "https://dc.lft.to/lastmile_qr_scan"}, "fusion_lon": 0.0, "lat": 38.910069666666665, "bike_id": "49ebe25932e29ad4da978f540f741f49", "type": "electric_scooter", "is_reserved": 0, "lon": -77.04909983333333}, {"fusion_lat": 0.0, "name": "594d9f1e7d4ed6f119aa222a2b6dd14b", "is_disabled": 0, "rental_uris": {"android": "https://dc.lft.to/lastmile_qr_scan", "ios": "https://dc.lft.to/lastmile_qr_scan"}, "fusion_lon": 0.0, "lat": 38.8475585, "bike_id": "594d9f1e7d4ed6f119aa222a2b6dd14b", "type": "electric_scooter", "is_reserved": 0, "lon": -76.99499416666667}, {"fusion_lat": 0.0, "name": "6fc162209affc569b879b0dfddcbb1a3", "is_disabled": 0, "rental_uris": {"android": "https://dc.lft.to/lastmile_qr_scan", "ios": "https://dc.lft.to/lastmile_qr_scan"}, "fusion_lon": 0.0, "lat": 38.900702333333335, "bike_id": "6fc162209affc569b879b0dfddcbb1a3", "type": "electric_scooter", "is_reserved": 0, "lon": -77.03829033333334}, {"fusion_lat": 0.0, "name": "13a6d56a9f9c1fed80a33368c5f21087", "is_disabled": 0, "rental_uris": {"android": "https://dc.lft.to/lastmile_qr_scan", "ios": "https://dc.lft.to/lastmile_qr_scan"}, "fusion_lon": 0.0, "lat": 38.92748016666667, "bike_id": "13a6d56a9f9c1fed80a33368c5f21087", "type": "electric_scooter", "is_reserved": 0, "lon": -77.03278116666667}, {"fusion_lat": 0.0, "name": "bc11d11b42aa8d30bf3d78b774ddfb60", "is_disabled": 0, "rental_uris": {"android": "https://dc.lft.to/lastmile_qr_scan", "ios": "https://dc.lft.to/lastmile_qr_scan"}, "fusion_lon": 0.0, "lat": 39.052528, "bike_id": "bc11d11b42aa8d30bf3d78b774ddfb60", "type": "electric_bike", "is_reserved": 0, "lon": -77.0806765}, {"fusion_lat": 0.0, "name": "7ffae9833bfb77c1a8cdfaa090ceedd5", "is_disabled": 0, "rental_uris": {"android": "https://dc.lft.to/lastmile_qr_scan", "ios": "https://dc.lft.to/lastmile_qr_scan"}, "fusion_lon": 0.0, "lat": 38.9234385, "bike_id": "7ffae9833bfb77c1a8cdfaa090ceedd5", "type": "electric_scooter", "is_reserved": 0, "lon": -77.05175666666666}, {"fusion_lat": 0.0, "name": "51d80c86e8d573b3a90f995c882ba61d", "is_disabled": 0, "rental_uris": {"android": "https://dc.lft.to/lastmile_qr_scan", "ios": "https://dc.lft.to/lastmile_qr_scan"}, "fusion_lon": 0.0, "lat": 38.90141583333333, "bike_id": "51d80c86e8d573b3a90f995c882ba61d", "type": "electric_scooter", "is_reserved": 0, "lon": -77.02608166666667}, {"fusion_lat": 0.0, "name": "37de39e0ff6b0c68dc366932dcd8c4d0", "is_disabled": 0, "rental_uris": {"android": "https://dc.lft.to/lastmile_qr_scan", "ios": "https://dc.lft.to/lastmile_qr_scan"}, "fusion_lon": 0.0, "lat": 38.89899883333333, "bike_id": "37de39e0ff6b0c68dc366932dcd8c4d0", "type": "electric_scooter", "is_reserved": 0, "lon": -76.93353383333333}, {"fusion_lat": 0.0, "name": "6bbcbe36e40da022bcc91ab43cdf5846", "is_disabled": 0, "rental_uris": {"android": "https://dc.lft.to/lastmile_qr_scan", "ios": "https://dc.lft.to/lastmile_qr_scan"}, "fusion_lon": 0.0, "lat": 38.8874705, "bike_id": "6bbcbe36e40da022bcc91ab43cdf5846", "type": "electric_scooter", "is_reserved": 0, "lon": -77.02781133333333}, {"fusion_lat": 0.0, "name": "e2fb48bf3be785d11cf8f9c3af269e69", "is_disabled": 0, "rental_uris": {"android": "https://dc.lft.to/lastmile_qr_scan", "ios": "https://dc.lft.to/lastmile_qr_scan"}, "fusion_lon": 0.0, "lat": 38.93894516666667, "bike_id": "e2fb48bf3be785d11cf8f9c3af269e69", "type": "electric_scooter", "is_reserved": 0, "lon": -77.08486783333333}, {"fusion_lat": 0.0, "name": "88fc5b7bdd0512bed9f2949f6eb771fa", "is_disabled": 0, "rental_uris": {"android": "https://dc.lft.to/lastmile_qr_scan", "ios": "https://dc.lft.to/lastmile_qr_scan"}, "fusion_lon": 0.0, "lat": 38.903354, "bike_id": "88fc5b7bdd0512bed9f2949f6eb771fa", "type": "electric_scooter", "is_reserved": 0, "lon": -77.06288766666667}, {"fusion_lat": 0.0, "name": "3f11d30f84b4bd719c1f0213642ba8e8", "is_disabled": 0, "rental_uris": {"android": "https://dc.lft.to/lastmile_qr_scan", "ios": "https://dc.lft.to/lastmile_qr_scan"}, "fusion_lon": 0.0, "lat": 38.895444833333336, "bike_id": "3f11d30f84b4bd719c1f0213642ba8e8", "type": "electric_scooter", "is_reserved": 0, "lon": -76.98097683333333}, {"fusion_lat": 0.0, "name": "57ed6c88fae3e3bbf5ba20c5e7e88277", "is_disabled": 0, "rental_uris": {"android": "https://dc.lft.to/lastmile_qr_scan", "ios": "https://dc.lft.to/lastmile_qr_scan"}, "fusion_lon": 0.0, "lat": 38.925394833333335, "bike_id": "57ed6c88fae3e3bbf5ba20c5e7e88277", "type": "electric_bike", "is_reserved": 0, "lon": -77.0789415}, {"fusion_lat": 0.0, "name": "9cd98aed0b822b190ddc075d07e801c5", "is_disabled": 0, "rental_uris": {"android": "https://dc.lft.to/lastmile_qr_scan", "ios": "https://dc.lft.to/lastmile_qr_scan"}, "fusion_lon": 0.0, "lat": 38.9249455, "bike_id": "9cd98aed0b822b190ddc075d07e801c5", "type": "electric_scooter", "is_reserved": 0, "lon": -77.02161516666666}, {"fusion_lat": 0.0, "name": "56592a33f9cd7d8ed6fb21e0f3711aa3", "is_disabled": 0, "rental_uris": {"android": "https://dc.lft.to/lastmile_qr_scan", "ios": "https://dc.lft.to/lastmile_qr_scan"}, "fusion_lon": 0.0, "lat": 38.88444766666667, "bike_id": "56592a33f9cd7d8ed6fb21e0f3711aa3", "type": "electric_scooter", "is_reserved": 0, "lon": -76.99630316666666}, {"fusion_lat": 0.0, "name": "cbe8f93fcf88160dfb24259b63627296", "is_disabled": 0, "rental_uris": {"android": "https://dc.lft.to/lastmile_qr_scan", "ios": "https://dc.lft.to/lastmile_qr_scan"}, "fusion_lon": 0.0, "lat": 38.901338833333334, "bike_id": "cbe8f93fcf88160dfb24259b63627296", "type": "electric_scooter", "is_reserved": 0, "lon": -77.039294}, {"fusion_lat": 0.0, "name": "a9868918682e5fb90ba2ad4555b47f16", "is_disabled": 0, "rental_uris": {"android": "https://dc.lft.to/lastmile_qr_scan", "ios": "https://dc.lft.to/lastmile_qr_scan"}, "fusion_lon": 0.0, "lat": 38.907738, "bike_id": "a9868918682e5fb90ba2ad4555b47f16", "type": "electric_scooter", "is_reserved": 0, "lon": -76.9971115}, {"fusion_lat": 0.0, "name": "ecf7fb570c6ba1287d9fe7b490278619", "is_disabled": 0, "rental_uris": {"android": "https://dc.lft.to/lastmile_qr_scan", "ios": "https://dc.lft.to/lastmile_qr_scan"}, "fusion_lon": 0.0, "lat": 38.91019816666667, "bike_id": "ecf7fb570c6ba1287d9fe7b490278619", "type": "electric_scooter", "is_reserved": 0, "lon": -77.06906666666667}, {"fusion_lat": 0.0, "name": "c6baeb5eef85f2a13c693fff578cb265", "is_disabled": 0, "rental_uris": {"android": "https://dc.lft.to/lastmile_qr_scan", "ios": "https://dc.lft.to/lastmile_qr_scan"}, "fusion_lon": 0.0, "lat": 38.9550985, "bike_id": "c6baeb5eef85f2a13c693fff578cb265", "type": "electric_scooter", "is_reserved": 0, "lon": -77.02841216666667}, {"fusion_lat": 0.0, "name": "6f82e976d361f2ab7b521ee3b8cc046f", "is_disabled": 0, "rental_uris": {"android": "https://dc.lft.to/lastmile_qr_scan", "ios": "https://dc.lft.to/lastmile_qr_scan"}, "fusion_lon": 0.0, "lat": 38.9008365, "bike_id": "6f82e976d361f2ab7b521ee3b8cc046f", "type": "electric_scooter", "is_reserved": 0, "lon": -77.04755866666666}, {"fusion_lat": 0.0, "name": "4ff4722086c6254744ad54af990634cb", "is_disabled": 0, "rental_uris": {"android": "https://dc.lft.to/lastmile_qr_scan", "ios": "https://dc.lft.to/lastmile_qr_scan"}, "fusion_lon": 0.0, "lat": 38.90393383333333, "bike_id": "4ff4722086c6254744ad54af990634cb", "type": "electric_scooter", "is_reserved": 0, "lon": -77.00200366666667}, {"fusion_lat": 0.0, "name": "e6c580e8c9ed2f692d0b6240d4a8827f", "is_disabled": 0, "rental_uris": {"android": "https://dc.lft.to/lastmile_qr_scan", "ios": "https://dc.lft.to/lastmile_qr_scan"}, "fusion_lon": 0.0, "lat": 38.909077833333335, "bike_id": "e6c580e8c9ed2f692d0b6240d4a8827f", "type": "electric_scooter", "is_reserved": 0, "lon": -77.03442283333334}, {"fusion_lat": 0.0, "name": "a512b8bb956d8526478c788cf6463a3f", "is_disabled": 0, "rental_uris": {"android": "https://dc.lft.to/lastmile_qr_scan", "ios": "https://dc.lft.to/lastmile_qr_scan"}, "fusion_lon": 0.0, "lat": 38.919396, "bike_id": "a512b8bb956d8526478c788cf6463a3f", "type": "electric_scooter", "is_reserved": 0, "lon": -77.04883883333333}, {"fusion_lat": 0.0, "name": "9deb84244a215672e63098f418ac17f4", "is_disabled": 0, "rental_uris": {"android": "https://dc.lft.to/lastmile_qr_scan", "ios": "https://dc.lft.to/lastmile_qr_scan"}, "fusion_lon": 0.0, "lat": 38.8919395, "bike_id": "9deb84244a215672e63098f418ac17f4", "type": "electric_scooter", "is_reserved": 0, "lon": -76.998396}, {"fusion_lat": 0.0, "name": "d0eb8bf72fae25b0cc8c3029d22a7251", "is_disabled": 0, "rental_uris": {"android": "https://dc.lft.to/lastmile_qr_scan", "ios": "https://dc.lft.to/lastmile_qr_scan"}, "fusion_lon": 0.0, "lat": 38.93755766666666, "bike_id": "d0eb8bf72fae25b0cc8c3029d22a7251", "type": "electric_bike", "is_reserved": 0, "lon": -76.95825783333333}, {"fusion_lat": 0.0, "name": "dc40d1f22b56e50dd018c621df964346", "is_disabled": 0, "rental_uris": {"android": "https://dc.lft.to/lastmile_qr_scan", "ios": "https://dc.lft.to/lastmile_qr_scan"}, "fusion_lon": 0.0, "lat": 38.937738333333336, "bike_id": "dc40d1f22b56e50dd018c621df964346", "type": "electric_bike", "is_reserved": 0, "lon": -77.01908933333333}, {"fusion_lat": 0.0, "name": "7718512abb5e03a8b1c72761a69e3c64", "is_disabled": 0, "rental_uris": {"android": "https://dc.lft.to/lastmile_qr_scan", "ios": "https://dc.lft.to/lastmile_qr_scan"}, "fusion_lon": 0.0, "lat": 38.86242083333333, "bike_id": "7718512abb5e03a8b1c72761a69e3c64", "type": "electric_scooter", "is_reserved": 0, "lon": -76.9949495}, {"fusion_lat": 0.0, "name": "7816672851c693c0ac17748147b983d2", "is_disabled": 0, "rental_uris": {"android": "https://dc.lft.to/lastmile_qr_scan", "ios": "https://dc.lft.to/lastmile_qr_scan"}, "fusion_lon": 0.0, "lat": 38.91207883333333, "bike_id": "7816672851c693c0ac17748147b983d2", "type": "electric_scooter", "is_reserved": 0, "lon": -77.03855883333334}, {"fusion_lat": 0.0, "name": "df6534669c30f813c35318f39173f15d", "is_disabled": 0, "rental_uris": {"android": "https://dc.lft.to/lastmile_qr_scan", "ios": "https://dc.lft.to/lastmile_qr_scan"}, "fusion_lon": 0.0, "lat": 38.94112966666667, "bike_id": "df6534669c30f813c35318f39173f15d", "type": "electric_scooter", "is_reserved": 0, "lon": -77.00047033333334}, {"fusion_lat": 0.0, "name": "47ade3cdb0062a3d2e40f89791055e8a", "is_disabled": 0, "rental_uris": {"android": "https://dc.lft.to/lastmile_qr_scan", "ios": "https://dc.lft.to/lastmile_qr_scan"}, "fusion_lon": 0.0, "lat": 38.94494916666667, "bike_id": "47ade3cdb0062a3d2e40f89791055e8a", "type": "electric_bike", "is_reserved": 0, "lon": -77.0068405}, {"fusion_lat": 0.0, "name": "30d380e3c76d964d8fefe7378c1a572d", "is_disabled": 0, "rental_uris": {"android": "https://dc.lft.to/lastmile_qr_scan", "ios": "https://dc.lft.to/lastmile_qr_scan"}, "fusion_lon": 0.0, "lat": 38.91799666666667, "bike_id": "30d380e3c76d964d8fefe7378c1a572d", "type": "electric_scooter", "is_reserved": 0, "lon": -77.041719}, {"fusion_lat": 0.0, "name": "9ce875b911169e4bfe15da020d71f895", "is_disabled": 0, "rental_uris": {"android": "https://dc.lft.to/lastmile_qr_scan", "ios": "https://dc.lft.to/lastmile_qr_scan"}, "fusion_lon": 0.0, "lat": 38.863482, "bike_id": "9ce875b911169e4bfe15da020d71f895", "type": "electric_bike", "is_reserved": 0, "lon": -77.07719183333333}, {"fusion_lat": 0.0, "name": "9ca0613cfeba91063f6058774daaec4a", "is_disabled": 0, "rental_uris": {"android": "https://dc.lft.to/lastmile_qr_scan", "ios": "https://dc.lft.to/lastmile_qr_scan"}, "fusion_lon": 0.0, "lat": 38.89387766666667, "bike_id": "9ca0613cfeba91063f6058774daaec4a", "type": "electric_scooter", "is_reserved": 0, "lon": -76.92304116666666}, {"fusion_lat": 0.0, "name": "307e85ef193583eec65bd9edd0b2f8b9", "is_disabled": 0, "rental_uris": {"android": "https://dc.lft.to/lastmile_qr_scan", "ios": "https://dc.lft.to/lastmile_qr_scan"}, "fusion_lon": 0.0, "lat": 38.932350166666666, "bike_id": "307e85ef193583eec65bd9edd0b2f8b9", "type": "electric_scooter", "is_reserved": 0, "lon": -77.02958866666667}, {"fusion_lat": 0.0, "name": "dc46b0b2b013dd02e3a83328478a38c6", "is_disabled": 0, "rental_uris": {"android": "https://dc.lft.to/lastmile_qr_scan", "ios": "https://dc.lft.to/lastmile_qr_scan"}, "fusion_lon": 0.0, "lat": 38.920364666666664, "bike_id": "dc46b0b2b013dd02e3a83328478a38c6", "type": "electric_scooter", "is_reserved": 0, "lon": -76.9899485}, {"fusion_lat": 0.0, "name": "6e1d8148b6c7caaf548c5af232990724", "is_disabled": 0, "rental_uris": {"android": "https://dc.lft.to/lastmile_qr_scan", "ios": "https://dc.lft.to/lastmile_qr_scan"}, "fusion_lon": 0.0, "lat": 38.908954, "bike_id": "6e1d8148b6c7caaf548c5af232990724", "type": "electric_scooter", "is_reserved": 0, "lon": -77.04395633333333}, {"fusion_lat": 0.0, "name": "c4d168d0a0b434206ab9d1332fcc93d9", "is_disabled": 0, "rental_uris": {"android": "https://dc.lft.to/lastmile_qr_scan", "ios": "https://dc.lft.to/lastmile_qr_scan"}, "fusion_lon": 0.0, "lat": 38.90548316666667, "bike_id": "c4d168d0a0b434206ab9d1332fcc93d9", "type": "electric_scooter", "is_reserved": 0, "lon": -77.00585133333334}, {"fusion_lat": 0.0, "name": "285f27f0e26442d64c1fb8069f39775c", "is_disabled": 0, "rental_uris": {"android": "https://dc.lft.to/lastmile_qr_scan", "ios": "https://dc.lft.to/lastmile_qr_scan"}, "fusion_lon": 0.0, "lat": 38.9270495, "bike_id": "285f27f0e26442d64c1fb8069f39775c", "type": "electric_scooter", "is_reserved": 0, "lon": -77.053632}, {"fusion_lat": 0.0, "name": "e3da3da0c3dbd3cf4beaa43095c1f834", "is_disabled": 0, "rental_uris": {"android": "https://dc.lft.to/lastmile_qr_scan", "ios": "https://dc.lft.to/lastmile_qr_scan"}, "fusion_lon": 0.0, "lat": 38.96233933333333, "bike_id": "e3da3da0c3dbd3cf4beaa43095c1f834", "type": "electric_bike", "is_reserved": 0, "lon": -76.92799016666666}, {"fusion_lat": 0.0, "name": "7a9abcc1e43bcafa042e652c3fcbcde1", "is_disabled": 0, "rental_uris": {"android": "https://dc.lft.to/lastmile_qr_scan", "ios": "https://dc.lft.to/lastmile_qr_scan"}, "fusion_lon": 0.0, "lat": 38.8922345, "bike_id": "7a9abcc1e43bcafa042e652c3fcbcde1", "type": "electric_scooter", "is_reserved": 0, "lon": -77.0450635}, {"fusion_lat": 0.0, "name": "0f1e4c1094d858b4aa4d7aea72d5e16f", "is_disabled": 0, "rental_uris": {"android": "https://dc.lft.to/lastmile_qr_scan", "ios": "https://dc.lft.to/lastmile_qr_scan"}, "fusion_lon": 0.0, "lat": 38.907174499999996, "bike_id": "0f1e4c1094d858b4aa4d7aea72d5e16f", "type": "electric_scooter", "is_reserved": 0, "lon": -77.027121}, {"fusion_lat": 0.0, "name": "15321106d543fbbb750967b27e919c2b", "is_disabled": 0, "rental_uris": {"android": "https://dc.lft.to/lastmile_qr_scan", "ios": "https://dc.lft.to/lastmile_qr_scan"}, "fusion_lon": 0.0, "lat": 38.947235666666664, "bike_id": "15321106d543fbbb750967b27e919c2b", "type": "electric_scooter", "is_reserved": 0, "lon": -77.02768683333333}, {"fusion_lat": 0.0, "name": "f050785df75e7465cd3cc2ceec709a59", "is_disabled": 0, "rental_uris": {"android": "https://dc.lft.to/lastmile_qr_scan", "ios": "https://dc.lft.to/lastmile_qr_scan"}, "fusion_lon": 0.0, "lat": 38.90683, "bike_id": "f050785df75e7465cd3cc2ceec709a59", "type": "electric_scooter", "is_reserved": 0, "lon": -77.036659}, {"fusion_lat": 0.0, "name": "35bce4f7e9af663eef7c2b178d254e79", "is_disabled": 0, "rental_uris": {"android": "https://dc.lft.to/lastmile_qr_scan", "ios": "https://dc.lft.to/lastmile_qr_scan"}, "fusion_lon": 0.0, "lat": 38.909828166666664, "bike_id": "35bce4f7e9af663eef7c2b178d254e79", "type": "electric_scooter", "is_reserved": 0, "lon": -77.022108}, {"fusion_lat": 0.0, "name": "52d40a3e25922468d33da6a3b0ad642b", "is_disabled": 0, "rental_uris": {"android": "https://dc.lft.to/lastmile_qr_scan", "ios": "https://dc.lft.to/lastmile_qr_scan"}, "fusion_lon": 0.0, "lat": 38.90895833333333, "bike_id": "52d40a3e25922468d33da6a3b0ad642b", "type": "electric_bike", "is_reserved": 0, "lon": -77.03212216666667}, {"fusion_lat": 0.0, "name": "c236954e540c1e492471d819cc32c1f9", "is_disabled": 0, "rental_uris": {"android": "https://dc.lft.to/lastmile_qr_scan", "ios": "https://dc.lft.to/lastmile_qr_scan"}, "fusion_lon": 0.0, "lat": 38.94007716666667, "bike_id": "c236954e540c1e492471d819cc32c1f9", "type": "electric_scooter", "is_reserved": 0, "lon": -77.0253565}, {"fusion_lat": 0.0, "name": "1934cba5b2b348250a60f2a29add52d7", "is_disabled": 0, "rental_uris": {"android": "https://dc.lft.to/lastmile_qr_scan", "ios": "https://dc.lft.to/lastmile_qr_scan"}, "fusion_lon": 0.0, "lat": 38.910169333333336, "bike_id": "1934cba5b2b348250a60f2a29add52d7", "type": "electric_scooter", "is_reserved": 0, "lon": -77.03854666666666}, {"fusion_lat": 0.0, "name": "9406cf2ce515e6e29e6e00723c2fd743", "is_disabled": 0, "rental_uris": {"android": "https://dc.lft.to/lastmile_qr_scan", "ios": "https://dc.lft.to/lastmile_qr_scan"}, "fusion_lon": 0.0, "lat": 38.92462666666667, "bike_id": "9406cf2ce515e6e29e6e00723c2fd743", "type": "electric_scooter", "is_reserved": 0, "lon": -77.03945866666666}, {"fusion_lat": 0.0, "name": "eaa760682cf9a86fcae7a1a4669afc21", "is_disabled": 0, "rental_uris": {"android": "https://dc.lft.to/lastmile_qr_scan", "ios": "https://dc.lft.to/lastmile_qr_scan"}, "fusion_lon": 0.0, "lat": 38.9074635, "bike_id": "eaa760682cf9a86fcae7a1a4669afc21", "type": "electric_scooter", "is_reserved": 0, "lon": -77.0346985}, {"fusion_lat": 0.0, "name": "8e1ffebb8010ce5195dc6791da1e9e45", "is_disabled": 0, "rental_uris": {"android": "https://dc.lft.to/lastmile_qr_scan", "ios": "https://dc.lft.to/lastmile_qr_scan"}, "fusion_lon": 0.0, "lat": 38.908624833333334, "bike_id": "8e1ffebb8010ce5195dc6791da1e9e45", "type": "electric_bike", "is_reserved": 0, "lon": -77.04410916666667}, {"fusion_lat": 0.0, "name": "0aee966a5175e1b5c88d1c3604cb1bc2", "is_disabled": 0, "rental_uris": {"android": "https://dc.lft.to/lastmile_qr_scan", "ios": "https://dc.lft.to/lastmile_qr_scan"}, "fusion_lon": 0.0, "lat": 38.91409983333333, "bike_id": "0aee966a5175e1b5c88d1c3604cb1bc2", "type": "electric_scooter", "is_reserved": 0, "lon": -77.0248045}, {"fusion_lat": 0.0, "name": "b76ce6c6ad177b769ae05dde732c159b", "is_disabled": 0, "rental_uris": {"android": "https://dc.lft.to/lastmile_qr_scan", "ios": "https://dc.lft.to/lastmile_qr_scan"}, "fusion_lon": 0.0, "lat": 38.887463, "bike_id": "b76ce6c6ad177b769ae05dde732c159b", "type": "electric_scooter", "is_reserved": 0, "lon": -77.01776283333334}, {"fusion_lat": 0.0, "name": "2250605696bc759d934678c6fb4fddde", "is_disabled": 0, "rental_uris": {"android": "https://dc.lft.to/lastmile_qr_scan", "ios": "https://dc.lft.to/lastmile_qr_scan"}, "fusion_lon": 0.0, "lat": 38.907975, "bike_id": "2250605696bc759d934678c6fb4fddde", "type": "electric_scooter", "is_reserved": 0, "lon": -77.03441466666666}, {"fusion_lat": 0.0, "name": "0576154b9c871e59f07a1f1f3fb9d61c", "is_disabled": 0, "rental_uris": {"android": "https://dc.lft.to/lastmile_qr_scan", "ios": "https://dc.lft.to/lastmile_qr_scan"}, "fusion_lon": 0.0, "lat": 38.916962166666664, "bike_id": "0576154b9c871e59f07a1f1f3fb9d61c", "type": "electric_scooter", "is_reserved": 0, "lon": -77.02743183333334}, {"fusion_lat": 0.0, "name": "0d5d0bf99e5327e7c1143abc62fb18e8", "is_disabled": 0, "rental_uris": {"android": "https://dc.lft.to/lastmile_qr_scan", "ios": "https://dc.lft.to/lastmile_qr_scan"}, "fusion_lon": 0.0, "lat": 38.8874525, "bike_id": "0d5d0bf99e5327e7c1143abc62fb18e8", "type": "electric_scooter", "is_reserved": 0, "lon": -77.02128983333333}, {"fusion_lat": 0.0, "name": "9369e97f3f00e686f7fce764d0cdfd01", "is_disabled": 0, "rental_uris": {"android": "https://dc.lft.to/lastmile_qr_scan", "ios": "https://dc.lft.to/lastmile_qr_scan"}, "fusion_lon": 0.0, "lat": 38.9468155, "bike_id": "9369e97f3f00e686f7fce764d0cdfd01", "type": "electric_bike", "is_reserved": 0, "lon": -76.95673183333334}, {"fusion_lat": 0.0, "name": "95dc0fec716898cf33249d33eb5c01fe", "is_disabled": 0, "rental_uris": {"android": "https://dc.lft.to/lastmile_qr_scan", "ios": "https://dc.lft.to/lastmile_qr_scan"}, "fusion_lon": 0.0, "lat": 38.934511666666666, "bike_id": "95dc0fec716898cf33249d33eb5c01fe", "type": "electric_scooter", "is_reserved": 0, "lon": -77.03866466666666}, {"fusion_lat": 0.0, "name": "4e5a8431e8ebd40e6b6fac635d5786db", "is_disabled": 0, "rental_uris": {"android": "https://dc.lft.to/lastmile_qr_scan", "ios": "https://dc.lft.to/lastmile_qr_scan"}, "fusion_lon": 0.0, "lat": 38.932534, "bike_id": "4e5a8431e8ebd40e6b6fac635d5786db", "type": "electric_scooter", "is_reserved": 0, "lon": -77.029508}, {"fusion_lat": 0.0, "name": "d22e1632a417bca49c77c98a7a883b66", "is_disabled": 0, "rental_uris": {"android": "https://dc.lft.to/lastmile_qr_scan", "ios": "https://dc.lft.to/lastmile_qr_scan"}, "fusion_lon": 0.0, "lat": 38.900037166666664, "bike_id": "d22e1632a417bca49c77c98a7a883b66", "type": "electric_scooter", "is_reserved": 0, "lon": -77.02284316666666}, {"fusion_lat": 0.0, "name": "fcd779b55f913f74774ed17132e12101", "is_disabled": 0, "rental_uris": {"android": "https://dc.lft.to/lastmile_qr_scan", "ios": "https://dc.lft.to/lastmile_qr_scan"}, "fusion_lon": 0.0, "lat": 38.8626525, "bike_id": "fcd779b55f913f74774ed17132e12101", "type": "electric_bike", "is_reserved": 0, "lon": -76.98351666666667}, {"fusion_lat": 0.0, "name": "4d84a86e8983c06ee73210e285d2d189", "is_disabled": 0, "rental_uris": {"android": "https://dc.lft.to/lastmile_qr_scan", "ios": "https://dc.lft.to/lastmile_qr_scan"}, "fusion_lon": 0.0, "lat": 38.9201925, "bike_id": "4d84a86e8983c06ee73210e285d2d189", "type": "electric_scooter", "is_reserved": 0, "lon": -77.0818625}, {"fusion_lat": 0.0, "name": "5a702cea4579228ceee3bd2c226fb569", "is_disabled": 0, "rental_uris": {"android": "https://dc.lft.to/lastmile_qr_scan", "ios": "https://dc.lft.to/lastmile_qr_scan"}, "fusion_lon": 0.0, "lat": 38.920710666666665, "bike_id": "5a702cea4579228ceee3bd2c226fb569", "type": "electric_scooter", "is_reserved": 0, "lon": -77.031947}, {"fusion_lat": 0.0, "name": "531a77c903823ff2accdb5d0e0c97db4", "is_disabled": 0, "rental_uris": {"android": "https://dc.lft.to/lastmile_qr_scan", "ios": "https://dc.lft.to/lastmile_qr_scan"}, "fusion_lon": 0.0, "lat": 38.916987166666665, "bike_id": "531a77c903823ff2accdb5d0e0c97db4", "type": "electric_scooter", "is_reserved": 0, "lon": -77.02429366666667}, {"fusion_lat": 0.0, "name": "cfda7b38eef5f1a0325726ac3f33d440", "is_disabled": 0, "rental_uris": {"android": "https://dc.lft.to/lastmile_qr_scan", "ios": "https://dc.lft.to/lastmile_qr_scan"}, "fusion_lon": 0.0, "lat": 38.9643995, "bike_id": "cfda7b38eef5f1a0325726ac3f33d440", "type": "electric_bike", "is_reserved": 0, "lon": -77.020704}, {"fusion_lat": 0.0, "name": "1a7afcf421d1dcfd388d99b38cb192a7", "is_disabled": 0, "rental_uris": {"android": "https://dc.lft.to/lastmile_qr_scan", "ios": "https://dc.lft.to/lastmile_qr_scan"}, "fusion_lon": 0.0, "lat": 38.920131, "bike_id": "1a7afcf421d1dcfd388d99b38cb192a7", "type": "electric_scooter", "is_reserved": 0, "lon": -77.0320895}, {"fusion_lat": 0.0, "name": "4c2bbe6ef9164e1e2c81a9fc8cb3e2f1", "is_disabled": 0, "rental_uris": {"android": "https://dc.lft.to/lastmile_qr_scan", "ios": "https://dc.lft.to/lastmile_qr_scan"}, "fusion_lon": 0.0, "lat": 38.918149666666665, "bike_id": "4c2bbe6ef9164e1e2c81a9fc8cb3e2f1", "type": "electric_scooter", "is_reserved": 0, "lon": -77.02687016666667}, {"fusion_lat": 0.0, "name": "eac294d8a854739be26e92173e17596f", "is_disabled": 0, "rental_uris": {"android": "https://dc.lft.to/lastmile_qr_scan", "ios": "https://dc.lft.to/lastmile_qr_scan"}, "fusion_lon": 0.0, "lat": 38.915509, "bike_id": "eac294d8a854739be26e92173e17596f", "type": "electric_scooter", "is_reserved": 0, "lon": -77.041603}, {"fusion_lat": 0.0, "name": "3e2e1044e6fffc9577231c22a5df49f8", "is_disabled": 0, "rental_uris": {"android": "https://dc.lft.to/lastmile_qr_scan", "ios": "https://dc.lft.to/lastmile_qr_scan"}, "fusion_lon": 0.0, "lat": 38.9171255, "bike_id": "3e2e1044e6fffc9577231c22a5df49f8", "type": "electric_scooter", "is_reserved": 0, "lon": -77.02616683333333}, {"fusion_lat": 0.0, "name": "6fa6c03175bcdcc0e7753a8d40358db0", "is_disabled": 0, "rental_uris": {"android": "https://dc.lft.to/lastmile_qr_scan", "ios": "https://dc.lft.to/lastmile_qr_scan"}, "fusion_lon": 0.0, "lat": 38.9335775, "bike_id": "6fa6c03175bcdcc0e7753a8d40358db0", "type": "electric_scooter", "is_reserved": 0, "lon": -77.07362233333333}, {"fusion_lat": 0.0, "name": "b7ff02adc12a13e3795d0f24ad3af77c", "is_disabled": 0, "rental_uris": {"android": "https://dc.lft.to/lastmile_qr_scan", "ios": "https://dc.lft.to/lastmile_qr_scan"}, "fusion_lon": 0.0, "lat": 38.91551666666667, "bike_id": "b7ff02adc12a13e3795d0f24ad3af77c", "type": "electric_scooter", "is_reserved": 0, "lon": -77.04161116666667}, {"fusion_lat": 0.0, "name": "ea14b638acc3bc47f4d6c8afa18224a3", "is_disabled": 0, "rental_uris": {"android": "https://dc.lft.to/lastmile_qr_scan", "ios": "https://dc.lft.to/lastmile_qr_scan"}, "fusion_lon": 0.0, "lat": 38.849273833333335, "bike_id": "ea14b638acc3bc47f4d6c8afa18224a3", "type": "electric_bike", "is_reserved": 0, "lon": -77.077729}, {"fusion_lat": 0.0, "name": "d87d5583b55b667a74f90a0a1589ecd2", "is_disabled": 0, "rental_uris": {"android": "https://dc.lft.to/lastmile_qr_scan", "ios": "https://dc.lft.to/lastmile_qr_scan"}, "fusion_lon": 0.0, "lat": 38.91839816666667, "bike_id": "d87d5583b55b667a74f90a0a1589ecd2", "type": "electric_scooter", "is_reserved": 0, "lon": -77.01611666666666}, {"fusion_lat": 0.0, "name": "b511f664cf45502711e8d4b13c41b675", "is_disabled": 0, "rental_uris": {"android": "https://dc.lft.to/lastmile_qr_scan", "ios": "https://dc.lft.to/lastmile_qr_scan"}, "fusion_lon": 0.0, "lat": 38.945258333333335, "bike_id": "b511f664cf45502711e8d4b13c41b675", "type": "electric_scooter", "is_reserved": 0, "lon": -77.02094083333333}, {"fusion_lat": 0.0, "name": "19b33115ce6a002bbdf77a19948732a0", "is_disabled": 0, "rental_uris": {"android": "https://dc.lft.to/lastmile_qr_scan", "ios": "https://dc.lft.to/lastmile_qr_scan"}, "fusion_lon": 0.0, "lat": 38.936370833333335, "bike_id": "19b33115ce6a002bbdf77a19948732a0", "type": "electric_scooter", "is_reserved": 0, "lon": -77.03685833333333}, {"fusion_lat": 0.0, "name": "0cdd86447ee4715a5ad562176ad456e2", "is_disabled": 0, "rental_uris": {"android": "https://dc.lft.to/lastmile_qr_scan", "ios": "https://dc.lft.to/lastmile_qr_scan"}, "fusion_lon": 0.0, "lat": 38.923168, "bike_id": "0cdd86447ee4715a5ad562176ad456e2", "type": "electric_scooter", "is_reserved": 0, "lon": -77.04041183333334}, {"fusion_lat": 0.0, "name": "a26fef0e875b3338bc2d239c4b784045", "is_disabled": 0, "rental_uris": {"android": "https://dc.lft.to/lastmile_qr_scan", "ios": "https://dc.lft.to/lastmile_qr_scan"}, "fusion_lon": 0.0, "lat": 38.90617783333333, "bike_id": "a26fef0e875b3338bc2d239c4b784045", "type": "electric_scooter", "is_reserved": 0, "lon": -77.01489783333334}, {"fusion_lat": 0.0, "name": "446584b0f999169b6e13437ad30ce79d", "is_disabled": 0, "rental_uris": {"android": "https://dc.lft.to/lastmile_qr_scan", "ios": "https://dc.lft.to/lastmile_qr_scan"}, "fusion_lon": 0.0, "lat": 38.89222616666667, "bike_id": "446584b0f999169b6e13437ad30ce79d", "type": "electric_scooter", "is_reserved": 0, "lon": -77.0450495}, {"fusion_lat": 0.0, "name": "96a8f93767ea86f13910bc9b0348ba7e", "is_disabled": 0, "rental_uris": {"android": "https://dc.lft.to/lastmile_qr_scan", "ios": "https://dc.lft.to/lastmile_qr_scan"}, "fusion_lon": 0.0, "lat": 38.899638333333336, "bike_id": "96a8f93767ea86f13910bc9b0348ba7e", "type": "electric_scooter", "is_reserved": 0, "lon": -77.017133}, {"fusion_lat": 0.0, "name": "8fcbb35150ad584340025b9c0537b912", "is_disabled": 0, "rental_uris": {"android": "https://dc.lft.to/lastmile_qr_scan", "ios": "https://dc.lft.to/lastmile_qr_scan"}, "fusion_lon": 0.0, "lat": 38.916891166666666, "bike_id": "8fcbb35150ad584340025b9c0537b912", "type": "electric_scooter", "is_reserved": 0, "lon": -77.02433533333334}, {"fusion_lat": 0.0, "name": "acee94e4af857bd0e3b3ff68b5dba8c5", "is_disabled": 0, "rental_uris": {"android": "https://dc.lft.to/lastmile_qr_scan", "ios": "https://dc.lft.to/lastmile_qr_scan"}, "fusion_lon": 0.0, "lat": 38.924133499999996, "bike_id": "acee94e4af857bd0e3b3ff68b5dba8c5", "type": "electric_scooter", "is_reserved": 0, "lon": -77.03638266666667}, {"fusion_lat": 0.0, "name": "3cb7b80bb57415bd3e4ba301577eb399", "is_disabled": 0, "rental_uris": {"android": "https://dc.lft.to/lastmile_qr_scan", "ios": "https://dc.lft.to/lastmile_qr_scan"}, "fusion_lon": 0.0, "lat": 38.8788725, "bike_id": "3cb7b80bb57415bd3e4ba301577eb399", "type": "electric_scooter", "is_reserved": 0, "lon": -77.00572316666667}, {"fusion_lat": 0.0, "name": "4bb320acd2d9775f3aa4fae65f21e9e4", "is_disabled": 0, "rental_uris": {"android": "https://dc.lft.to/lastmile_qr_scan", "ios": "https://dc.lft.to/lastmile_qr_scan"}, "fusion_lon": 0.0, "lat": 39.01076416666667, "bike_id": "4bb320acd2d9775f3aa4fae65f21e9e4", "type": "electric_bike", "is_reserved": 0, "lon": -76.91065366666666}, {"fusion_lat": 0.0, "name": "20cc83678dfe385f20b7576724b2e6d5", "is_disabled": 0, "rental_uris": {"android": "https://dc.lft.to/lastmile_qr_scan", "ios": "https://dc.lft.to/lastmile_qr_scan"}, "fusion_lon": 0.0, "lat": 38.90556133333333, "bike_id": "20cc83678dfe385f20b7576724b2e6d5", "type": "electric_scooter", "is_reserved": 0, "lon": -77.05004016666666}, {"fusion_lat": 0.0, "name": "c435ccd29b3dfda330c96a3062fa018d", "is_disabled": 0, "rental_uris": {"android": "https://dc.lft.to/lastmile_qr_scan", "ios": "https://dc.lft.to/lastmile_qr_scan"}, "fusion_lon": 0.0, "lat": 38.88766483333333, "bike_id": "c435ccd29b3dfda330c96a3062fa018d", "type": "electric_scooter", "is_reserved": 0, "lon": -77.02943833333333}, {"fusion_lat": 0.0, "name": "1ac61273b17d7b75954299933f60ec61", "is_disabled": 0, "rental_uris": {"android": "https://dc.lft.to/lastmile_qr_scan", "ios": "https://dc.lft.to/lastmile_qr_scan"}, "fusion_lon": 0.0, "lat": 38.9134, "bike_id": "1ac61273b17d7b75954299933f60ec61", "type": "electric_scooter", "is_reserved": 0, "lon": -77.0319355}, {"fusion_lat": 0.0, "name": "8f8106b3031c9200cc77b941a7feb250", "is_disabled": 0, "rental_uris": {"android": "https://dc.lft.to/lastmile_qr_scan", "ios": "https://dc.lft.to/lastmile_qr_scan"}, "fusion_lon": 0.0, "lat": 38.91951383333333, "bike_id": "8f8106b3031c9200cc77b941a7feb250", "type": "electric_scooter", "is_reserved": 0, "lon": -77.023783}, {"fusion_lat": 0.0, "name": "f7a240529da7a3c57a4323f0b2aeb491", "is_disabled": 0, "rental_uris": {"android": "https://dc.lft.to/lastmile_qr_scan", "ios": "https://dc.lft.to/lastmile_qr_scan"}, "fusion_lon": 0.0, "lat": 38.900756, "bike_id": "f7a240529da7a3c57a4323f0b2aeb491", "type": "electric_scooter", "is_reserved": 0, "lon": -77.0492765}, {"fusion_lat": 0.0, "name": "a0be7e1fae719574f4873e3374b09cf3", "is_disabled": 0, "rental_uris": {"android": "https://dc.lft.to/lastmile_qr_scan", "ios": "https://dc.lft.to/lastmile_qr_scan"}, "fusion_lon": 0.0, "lat": 38.90195283333333, "bike_id": "a0be7e1fae719574f4873e3374b09cf3", "type": "electric_scooter", "is_reserved": 0, "lon": -77.0237335}, {"fusion_lat": 0.0, "name": "b5f7baf8607bb62a7722fdf069233e19", "is_disabled": 0, "rental_uris": {"android": "https://dc.lft.to/lastmile_qr_scan", "ios": "https://dc.lft.to/lastmile_qr_scan"}, "fusion_lon": 0.0, "lat": 38.91774733333333, "bike_id": "b5f7baf8607bb62a7722fdf069233e19", "type": "electric_scooter", "is_reserved": 0, "lon": -77.03571383333333}, {"fusion_lat": 0.0, "name": "2c039049cabe903645f033e7c4b3c35a", "is_disabled": 0, "rental_uris": {"android": "https://dc.lft.to/lastmile_qr_scan", "ios": "https://dc.lft.to/lastmile_qr_scan"}, "fusion_lon": 0.0, "lat": 38.89953116666667, "bike_id": "2c039049cabe903645f033e7c4b3c35a", "type": "electric_scooter", "is_reserved": 0, "lon": -77.05708233333333}, {"fusion_lat": 0.0, "name": "fb86a357592b69e39042ee00a88c380e", "is_disabled": 0, "rental_uris": {"android": "https://dc.lft.to/lastmile_qr_scan", "ios": "https://dc.lft.to/lastmile_qr_scan"}, "fusion_lon": 0.0, "lat": 38.91540666666667, "bike_id": "fb86a357592b69e39042ee00a88c380e", "type": "electric_scooter", "is_reserved": 0, "lon": -77.032061}, {"fusion_lat": 0.0, "name": "4d65a8ebf3ca16bbb32362288d2475af", "is_disabled": 0, "rental_uris": {"android": "https://dc.lft.to/lastmile_qr_scan", "ios": "https://dc.lft.to/lastmile_qr_scan"}, "fusion_lon": 0.0, "lat": 38.922850833333335, "bike_id": "4d65a8ebf3ca16bbb32362288d2475af", "type": "electric_scooter", "is_reserved": 0, "lon": -77.03660866666667}, {"fusion_lat": 0.0, "name": "a060dd52d2b38fe6cbaddb7b7f6f3f9b", "is_disabled": 0, "rental_uris": {"android": "https://dc.lft.to/lastmile_qr_scan", "ios": "https://dc.lft.to/lastmile_qr_scan"}, "fusion_lon": 0.0, "lat": 38.887404333333336, "bike_id": "a060dd52d2b38fe6cbaddb7b7f6f3f9b", "type": "electric_scooter", "is_reserved": 0, "lon": -77.02134}, {"fusion_lat": 0.0, "name": "0cb6a6cd1473988a27e0de976e4d3e57", "is_disabled": 0, "rental_uris": {"android": "https://dc.lft.to/lastmile_qr_scan", "ios": "https://dc.lft.to/lastmile_qr_scan"}, "fusion_lon": 0.0, "lat": 38.91400466666666, "bike_id": "0cb6a6cd1473988a27e0de976e4d3e57", "type": "electric_scooter", "is_reserved": 0, "lon": -77.075526}, {"fusion_lat": 0.0, "name": "7a442fe13c4920e6f7bd23150609ee3a", "is_disabled": 0, "rental_uris": {"android": "https://dc.lft.to/lastmile_qr_scan", "ios": "https://dc.lft.to/lastmile_qr_scan"}, "fusion_lon": 0.0, "lat": 38.900278166666666, "bike_id": "7a442fe13c4920e6f7bd23150609ee3a", "type": "electric_scooter", "is_reserved": 0, "lon": -76.99876383333333}, {"fusion_lat": 0.0, "name": "e8c56bed4a880619c071e637f1c44663", "is_disabled": 0, "rental_uris": {"android": "https://dc.lft.to/lastmile_qr_scan", "ios": "https://dc.lft.to/lastmile_qr_scan"}, "fusion_lon": 0.0, "lat": 38.90283783333334, "bike_id": "e8c56bed4a880619c071e637f1c44663", "type": "electric_scooter", "is_reserved": 0, "lon": -77.03649483333334}, {"fusion_lat": 0.0, "name": "2deaaf974d5204c1d92fd9074dd0676a", "is_disabled": 0, "rental_uris": {"android": "https://dc.lft.to/lastmile_qr_scan", "ios": "https://dc.lft.to/lastmile_qr_scan"}, "fusion_lon": 0.0, "lat": 38.907257666666666, "bike_id": "2deaaf974d5204c1d92fd9074dd0676a", "type": "electric_scooter", "is_reserved": 0, "lon": -77.045589}, {"fusion_lat": 0.0, "name": "ad8bce911f91babadef5256d64a09493", "is_disabled": 0, "rental_uris": {"android": "https://dc.lft.to/lastmile_qr_scan", "ios": "https://dc.lft.to/lastmile_qr_scan"}, "fusion_lon": 0.0, "lat": 38.8873065, "bike_id": "ad8bce911f91babadef5256d64a09493", "type": "electric_scooter", "is_reserved": 0, "lon": -76.98356533333333}, {"fusion_lat": 0.0, "name": "fce1aac752285cfd4e64534ae57dc51b", "is_disabled": 0, "rental_uris": {"android": "https://dc.lft.to/lastmile_qr_scan", "ios": "https://dc.lft.to/lastmile_qr_scan"}, "fusion_lon": 0.0, "lat": 38.907272666666664, "bike_id": "fce1aac752285cfd4e64534ae57dc51b", "type": "electric_scooter", "is_reserved": 0, "lon": -77.043359}, {"fusion_lat": 0.0, "name": "23eaaed19c3c694cabf8f982d4235082", "is_disabled": 0, "rental_uris": {"android": "https://dc.lft.to/lastmile_qr_scan", "ios": "https://dc.lft.to/lastmile_qr_scan"}, "fusion_lon": 0.0, "lat": 38.92082416666667, "bike_id": "23eaaed19c3c694cabf8f982d4235082", "type": "electric_scooter", "is_reserved": 0, "lon": -77.02402883333333}, {"fusion_lat": 0.0, "name": "400865baebb20559c44ba530bb10b8e2", "is_disabled": 0, "rental_uris": {"android": "https://dc.lft.to/lastmile_qr_scan", "ios": "https://dc.lft.to/lastmile_qr_scan"}, "fusion_lon": 0.0, "lat": 38.901474666666665, "bike_id": "400865baebb20559c44ba530bb10b8e2", "type": "electric_scooter", "is_reserved": 0, "lon": -76.97423816666667}, {"fusion_lat": 0.0, "name": "2cbe4dfd4a08b0669321e3520120b5be", "is_disabled": 0, "rental_uris": {"android": "https://dc.lft.to/lastmile_qr_scan", "ios": "https://dc.lft.to/lastmile_qr_scan"}, "fusion_lon": 0.0, "lat": 38.907345, "bike_id": "2cbe4dfd4a08b0669321e3520120b5be", "type": "electric_scooter", "is_reserved": 0, "lon": -77.04332916666667}, {"fusion_lat": 0.0, "name": "49ecfff9a432b0580036222d28644136", "is_disabled": 0, "rental_uris": {"android": "https://dc.lft.to/lastmile_qr_scan", "ios": "https://dc.lft.to/lastmile_qr_scan"}, "fusion_lon": 0.0, "lat": 38.91551666666667, "bike_id": "49ecfff9a432b0580036222d28644136", "type": "electric_scooter", "is_reserved": 0, "lon": -77.02210483333333}, {"fusion_lat": 0.0, "name": "81d5c026311fb2f9dbac9e543d4fb040", "is_disabled": 0, "rental_uris": {"android": "https://dc.lft.to/lastmile_qr_scan", "ios": "https://dc.lft.to/lastmile_qr_scan"}, "fusion_lon": 0.0, "lat": 38.91690766666667, "bike_id": "81d5c026311fb2f9dbac9e543d4fb040", "type": "electric_scooter", "is_reserved": 0, "lon": -77.03111266666667}, {"fusion_lat": 0.0, "name": "23e9f0b13014ecfb10e23b469dd44746", "is_disabled": 0, "rental_uris": {"android": "https://dc.lft.to/lastmile_qr_scan", "ios": "https://dc.lft.to/lastmile_qr_scan"}, "fusion_lon": 0.0, "lat": 38.92086483333333, "bike_id": "23e9f0b13014ecfb10e23b469dd44746", "type": "electric_scooter", "is_reserved": 0, "lon": -77.0241035}, {"fusion_lat": 0.0, "name": "fda84ec7156f6f8e6db82dad4b1e87af", "is_disabled": 0, "rental_uris": {"android": "https://dc.lft.to/lastmile_qr_scan", "ios": "https://dc.lft.to/lastmile_qr_scan"}, "fusion_lon": 0.0, "lat": 38.887467, "bike_id": "fda84ec7156f6f8e6db82dad4b1e87af", "type": "electric_scooter", "is_reserved": 0, "lon": -77.01777166666666}, {"fusion_lat": 0.0, "name": "852d4d8c7371fd0138a857ab4e10b0c0", "is_disabled": 0, "rental_uris": {"android": "https://dc.lft.to/lastmile_qr_scan", "ios": "https://dc.lft.to/lastmile_qr_scan"}, "fusion_lon": 0.0, "lat": 38.90761066666666, "bike_id": "852d4d8c7371fd0138a857ab4e10b0c0", "type": "electric_scooter", "is_reserved": 0, "lon": -77.03588266666667}, {"fusion_lat": 0.0, "name": "e50def81f603d9d0ed357225cadb6c57", "is_disabled": 0, "rental_uris": {"android": "https://dc.lft.to/lastmile_qr_scan", "ios": "https://dc.lft.to/lastmile_qr_scan"}, "fusion_lon": 0.0, "lat": 38.91528383333333, "bike_id": "e50def81f603d9d0ed357225cadb6c57", "type": "electric_scooter", "is_reserved": 0, "lon": -77.07479416666666}, {"fusion_lat": 0.0, "name": "c79025b438aa9db512163aae11155b85", "is_disabled": 0, "rental_uris": {"android": "https://dc.lft.to/lastmile_qr_scan", "ios": "https://dc.lft.to/lastmile_qr_scan"}, "fusion_lon": 0.0, "lat": 38.9120795, "bike_id": "c79025b438aa9db512163aae11155b85", "type": "electric_scooter", "is_reserved": 0, "lon": -77.04506233333333}, {"fusion_lat": 0.0, "name": "b46bfc9a44c03222733061f984a01b49", "is_disabled": 0, "rental_uris": {"android": "https://dc.lft.to/lastmile_qr_scan", "ios": "https://dc.lft.to/lastmile_qr_scan"}, "fusion_lon": 0.0, "lat": 38.91678866666667, "bike_id": "b46bfc9a44c03222733061f984a01b49", "type": "electric_scooter", "is_reserved": 0, "lon": -77.02711966666666}, {"fusion_lat": 0.0, "name": "ce71b7b0eed542f847f70285051806f3", "is_disabled": 0, "rental_uris": {"android": "https://dc.lft.to/lastmile_qr_scan", "ios": "https://dc.lft.to/lastmile_qr_scan"}, "fusion_lon": 0.0, "lat": 38.90538216666667, "bike_id": "ce71b7b0eed542f847f70285051806f3", "type": "electric_scooter", "is_reserved": 0, "lon": -77.0295345}, {"fusion_lat": 0.0, "name": "1add0332aa5451fe4144e63a49991ed4", "is_disabled": 0, "rental_uris": {"android": "https://dc.lft.to/lastmile_qr_scan", "ios": "https://dc.lft.to/lastmile_qr_scan"}, "fusion_lon": 0.0, "lat": 38.907699, "bike_id": "1add0332aa5451fe4144e63a49991ed4", "type": "electric_scooter", "is_reserved": 0, "lon": -77.03555066666667}, {"fusion_lat": 0.0, "name": "9774529cca8f9d1a7f8bbf7ea90eeefa", "is_disabled": 0, "rental_uris": {"android": "https://dc.lft.to/lastmile_qr_scan", "ios": "https://dc.lft.to/lastmile_qr_scan"}, "fusion_lon": 0.0, "lat": 38.90602, "bike_id": "9774529cca8f9d1a7f8bbf7ea90eeefa", "type": "electric_scooter", "is_reserved": 0, "lon": -77.06297766666667}, {"fusion_lat": 0.0, "name": "9659abb3ad1eed69e81876323607205e", "is_disabled": 0, "rental_uris": {"android": "https://dc.lft.to/lastmile_qr_scan", "ios": "https://dc.lft.to/lastmile_qr_scan"}, "fusion_lon": 0.0, "lat": 38.899685, "bike_id": "9659abb3ad1eed69e81876323607205e", "type": "electric_scooter", "is_reserved": 0, "lon": -77.05095433333334}, {"fusion_lat": 0.0, "name": "6b19bd96988db47a61acfd001e6fdd67", "is_disabled": 0, "rental_uris": {"android": "https://dc.lft.to/lastmile_qr_scan", "ios": "https://dc.lft.to/lastmile_qr_scan"}, "fusion_lon": 0.0, "lat": 38.8837685, "bike_id": "6b19bd96988db47a61acfd001e6fdd67", "type": "electric_scooter", "is_reserved": 0, "lon": -77.00526816666667}, {"fusion_lat": 0.0, "name": "20a69d98da255c0fb6847978de5f7f20", "is_disabled": 0, "rental_uris": {"android": "https://dc.lft.to/lastmile_qr_scan", "ios": "https://dc.lft.to/lastmile_qr_scan"}, "fusion_lon": 0.0, "lat": 38.8442275, "bike_id": "20a69d98da255c0fb6847978de5f7f20", "type": "electric_scooter", "is_reserved": 0, "lon": -76.99777666666667}, {"fusion_lat": 0.0, "name": "bfb2869434495459317e8d831bb748e1", "is_disabled": 0, "rental_uris": {"android": "https://dc.lft.to/lastmile_qr_scan", "ios": "https://dc.lft.to/lastmile_qr_scan"}, "fusion_lon": 0.0, "lat": 38.91696366666667, "bike_id": "bfb2869434495459317e8d831bb748e1", "type": "electric_scooter", "is_reserved": 0, "lon": -77.028975}, {"fusion_lat": 0.0, "name": "3b47c437105c64afc170735996fd9e57", "is_disabled": 0, "rental_uris": {"android": "https://dc.lft.to/lastmile_qr_scan", "ios": "https://dc.lft.to/lastmile_qr_scan"}, "fusion_lon": 0.0, "lat": 38.85200183333333, "bike_id": "3b47c437105c64afc170735996fd9e57", "type": "electric_bike", "is_reserved": 0, "lon": -76.96288183333333}, {"fusion_lat": 0.0, "name": "e4c081a23c1d3c36419d47d2de331674", "is_disabled": 0, "rental_uris": {"android": "https://dc.lft.to/lastmile_qr_scan", "ios": "https://dc.lft.to/lastmile_qr_scan"}, "fusion_lon": 0.0, "lat": 38.886859333333334, "bike_id": "e4c081a23c1d3c36419d47d2de331674", "type": "electric_scooter", "is_reserved": 0, "lon": -77.00198233333333}, {"fusion_lat": 0.0, "name": "0ee3df3972ab0d551c43330a33acb3b6", "is_disabled": 0, "rental_uris": {"android": "https://dc.lft.to/lastmile_qr_scan", "ios": "https://dc.lft.to/lastmile_qr_scan"}, "fusion_lon": 0.0, "lat": 38.92482416666667, "bike_id": "0ee3df3972ab0d551c43330a33acb3b6", "type": "electric_scooter", "is_reserved": 0, "lon": -77.05212216666666}, {"fusion_lat": 0.0, "name": "a14dfef8cc057ccd4100551c49cd298d", "is_disabled": 0, "rental_uris": {"android": "https://dc.lft.to/lastmile_qr_scan", "ios": "https://dc.lft.to/lastmile_qr_scan"}, "fusion_lon": 0.0, "lat": 38.8477715, "bike_id": "a14dfef8cc057ccd4100551c49cd298d", "type": "electric_bike", "is_reserved": 0, "lon": -76.96621733333333}, {"fusion_lat": 0.0, "name": "bd4b28b9292dd904f852e0e86b60e69b", "is_disabled": 0, "rental_uris": {"android": "https://dc.lft.to/lastmile_qr_scan", "ios": "https://dc.lft.to/lastmile_qr_scan"}, "fusion_lon": 0.0, "lat": 38.9244275, "bike_id": "bd4b28b9292dd904f852e0e86b60e69b", "type": "electric_scooter", "is_reserved": 0, "lon": -77.0186755}, {"fusion_lat": 0.0, "name": "662908604dd3bd1d1b2df6c8da979011", "is_disabled": 0, "rental_uris": {"android": "https://dc.lft.to/lastmile_qr_scan", "ios": "https://dc.lft.to/lastmile_qr_scan"}, "fusion_lon": 0.0, "lat": 38.907836333333336, "bike_id": "662908604dd3bd1d1b2df6c8da979011", "type": "electric_scooter", "is_reserved": 0, "lon": -77.072577}, {"fusion_lat": 0.0, "name": "e68306347fc90eaa47545b25aba6271c", "is_disabled": 0, "rental_uris": {"android": "https://dc.lft.to/lastmile_qr_scan", "ios": "https://dc.lft.to/lastmile_qr_scan"}, "fusion_lon": 0.0, "lat": 38.927099166666665, "bike_id": "e68306347fc90eaa47545b25aba6271c", "type": "electric_scooter", "is_reserved": 0, "lon": -77.02089533333333}, {"fusion_lat": 0.0, "name": "89ff143abde20b212b205975ea2500b7", "is_disabled": 0, "rental_uris": {"android": "https://dc.lft.to/lastmile_qr_scan", "ios": "https://dc.lft.to/lastmile_qr_scan"}, "fusion_lon": 0.0, "lat": 38.887508833333335, "bike_id": "89ff143abde20b212b205975ea2500b7", "type": "electric_scooter", "is_reserved": 0, "lon": -77.021314}, {"fusion_lat": 0.0, "name": "fb7130177d83cc248096a31b96c06408", "is_disabled": 0, "rental_uris": {"android": "https://dc.lft.to/lastmile_qr_scan", "ios": "https://dc.lft.to/lastmile_qr_scan"}, "fusion_lon": 0.0, "lat": 38.901696, "bike_id": "fb7130177d83cc248096a31b96c06408", "type": "electric_scooter", "is_reserved": 0, "lon": -76.98076866666666}, {"fusion_lat": 0.0, "name": "ad485d8b60b3135676db18d99a613ae0", "is_disabled": 0, "rental_uris": {"android": "https://dc.lft.to/lastmile_qr_scan", "ios": "https://dc.lft.to/lastmile_qr_scan"}, "fusion_lon": 0.0, "lat": 38.905929666666665, "bike_id": "ad485d8b60b3135676db18d99a613ae0", "type": "electric_scooter", "is_reserved": 0, "lon": -77.01615116666666}, {"fusion_lat": 0.0, "name": "d07f5fcb45c50478544c5048dc9a04bc", "is_disabled": 0, "rental_uris": {"android": "https://dc.lft.to/lastmile_qr_scan", "ios": "https://dc.lft.to/lastmile_qr_scan"}, "fusion_lon": 0.0, "lat": 38.92997783333333, "bike_id": "d07f5fcb45c50478544c5048dc9a04bc", "type": "electric_scooter", "is_reserved": 0, "lon": -77.03795266666667}, {"fusion_lat": 0.0, "name": "6911fad5ca7ec0efcd915387c9dd6471", "is_disabled": 0, "rental_uris": {"android": "https://dc.lft.to/lastmile_qr_scan", "ios": "https://dc.lft.to/lastmile_qr_scan"}, "fusion_lon": 0.0, "lat": 38.836083, "bike_id": "6911fad5ca7ec0efcd915387c9dd6471", "type": "electric_bike", "is_reserved": 0, "lon": -77.00381566666667}, {"fusion_lat": 0.0, "name": "fe1597a68eeb65dec48667dcac1b9e37", "is_disabled": 0, "rental_uris": {"android": "https://dc.lft.to/lastmile_qr_scan", "ios": "https://dc.lft.to/lastmile_qr_scan"}, "fusion_lon": 0.0, "lat": 38.9298885, "bike_id": "fe1597a68eeb65dec48667dcac1b9e37", "type": "electric_scooter", "is_reserved": 0, "lon": -77.03474366666667}, {"fusion_lat": 0.0, "name": "0e8a63685552bc0d6e77ec127eac7501", "is_disabled": 0, "rental_uris": {"android": "https://dc.lft.to/lastmile_qr_scan", "ios": "https://dc.lft.to/lastmile_qr_scan"}, "fusion_lon": 0.0, "lat": 38.93075316666667, "bike_id": "0e8a63685552bc0d6e77ec127eac7501", "type": "electric_scooter", "is_reserved": 0, "lon": -77.03162933333333}, {"fusion_lat": 0.0, "name": "b1f18ee9aaf5f47e259200bec6acddc7", "is_disabled": 0, "rental_uris": {"android": "https://dc.lft.to/lastmile_qr_scan", "ios": "https://dc.lft.to/lastmile_qr_scan"}, "fusion_lon": 0.0, "lat": 38.908091666666664, "bike_id": "b1f18ee9aaf5f47e259200bec6acddc7", "type": "electric_scooter", "is_reserved": 0, "lon": -77.04172233333334}, {"fusion_lat": 0.0, "name": "0d1091ce88064a550af755fec77dea70", "is_disabled": 0, "rental_uris": {"android": "https://dc.lft.to/lastmile_qr_scan", "ios": "https://dc.lft.to/lastmile_qr_scan"}, "fusion_lon": 0.0, "lat": 38.884020166666666, "bike_id": "0d1091ce88064a550af755fec77dea70", "type": "electric_scooter", "is_reserved": 0, "lon": -77.02978366666666}, {"fusion_lat": 0.0, "name": "d8aec49d1434bacf9f2d4bc5f496deeb", "is_disabled": 0, "rental_uris": {"android": "https://dc.lft.to/lastmile_qr_scan", "ios": "https://dc.lft.to/lastmile_qr_scan"}, "fusion_lon": 0.0, "lat": 38.909679, "bike_id": "d8aec49d1434bacf9f2d4bc5f496deeb", "type": "electric_scooter", "is_reserved": 0, "lon": -77.039435}, {"fusion_lat": 0.0, "name": "6556b988a8b3d94c049d842f43cfb9a4", "is_disabled": 0, "rental_uris": {"android": "https://dc.lft.to/lastmile_qr_scan", "ios": "https://dc.lft.to/lastmile_qr_scan"}, "fusion_lon": 0.0, "lat": 38.90433766666666, "bike_id": "6556b988a8b3d94c049d842f43cfb9a4", "type": "electric_scooter", "is_reserved": 0, "lon": -76.979521}, {"fusion_lat": 0.0, "name": "8a61c8303c2a734e818461a7dca6bb3a", "is_disabled": 0, "rental_uris": {"android": "https://dc.lft.to/lastmile_qr_scan", "ios": "https://dc.lft.to/lastmile_qr_scan"}, "fusion_lon": 0.0, "lat": 38.9079695, "bike_id": "8a61c8303c2a734e818461a7dca6bb3a", "type": "electric_scooter", "is_reserved": 0, "lon": -77.04355066666666}, {"fusion_lat": 0.0, "name": "7f02d366bc363dfd93418e65f7b52029", "is_disabled": 0, "rental_uris": {"android": "https://dc.lft.to/lastmile_qr_scan", "ios": "https://dc.lft.to/lastmile_qr_scan"}, "fusion_lon": 0.0, "lat": 38.876675, "bike_id": "7f02d366bc363dfd93418e65f7b52029", "type": "electric_scooter", "is_reserved": 0, "lon": -77.00430016666667}, {"fusion_lat": 0.0, "name": "c9a3b4aa83283064e0a21c7e6aae4ae0", "is_disabled": 0, "rental_uris": {"android": "https://dc.lft.to/lastmile_qr_scan", "ios": "https://dc.lft.to/lastmile_qr_scan"}, "fusion_lon": 0.0, "lat": 38.88746233333333, "bike_id": "c9a3b4aa83283064e0a21c7e6aae4ae0", "type": "electric_scooter", "is_reserved": 0, "lon": -76.99848566666667}, {"fusion_lat": 0.0, "name": "dcfee3399336fe07e788a2f031dc2cf9", "is_disabled": 0, "rental_uris": {"android": "https://dc.lft.to/lastmile_qr_scan", "ios": "https://dc.lft.to/lastmile_qr_scan"}, "fusion_lon": 0.0, "lat": 38.91797916666667, "bike_id": "dcfee3399336fe07e788a2f031dc2cf9", "type": "electric_scooter", "is_reserved": 0, "lon": -77.04174333333333}, {"fusion_lat": 0.0, "name": "dedc59ae21c65f949b051b67baf60024", "is_disabled": 0, "rental_uris": {"android": "https://dc.lft.to/lastmile_qr_scan", "ios": "https://dc.lft.to/lastmile_qr_scan"}, "fusion_lon": 0.0, "lat": 38.9176395, "bike_id": "dedc59ae21c65f949b051b67baf60024", "type": "electric_scooter", "is_reserved": 0, "lon": -77.00452333333334}, {"fusion_lat": 0.0, "name": "f3baee77206d179561d223fbb23788f5", "is_disabled": 0, "rental_uris": {"android": "https://dc.lft.to/lastmile_qr_scan", "ios": "https://dc.lft.to/lastmile_qr_scan"}, "fusion_lon": 0.0, "lat": 38.92859133333333, "bike_id": "f3baee77206d179561d223fbb23788f5", "type": "electric_scooter", "is_reserved": 0, "lon": -77.03526816666667}, {"fusion_lat": 0.0, "name": "052cabaae4f17c247cd182cf1bb23d8c", "is_disabled": 0, "rental_uris": {"android": "https://dc.lft.to/lastmile_qr_scan", "ios": "https://dc.lft.to/lastmile_qr_scan"}, "fusion_lon": 0.0, "lat": 38.87410366666667, "bike_id": "052cabaae4f17c247cd182cf1bb23d8c", "type": "electric_scooter", "is_reserved": 0, "lon": -77.00200333333333}, {"fusion_lat": 0.0, "name": "a6fdb0cdbdea0579afe7594dc5dba371", "is_disabled": 0, "rental_uris": {"android": "https://dc.lft.to/lastmile_qr_scan", "ios": "https://dc.lft.to/lastmile_qr_scan"}, "fusion_lon": 0.0, "lat": 38.831570666666664, "bike_id": "a6fdb0cdbdea0579afe7594dc5dba371", "type": "electric_bike", "is_reserved": 0, "lon": -76.9957505}, {"fusion_lat": 0.0, "name": "5b9818b2ad9a524b815d395ed9307318", "is_disabled": 0, "rental_uris": {"android": "https://dc.lft.to/lastmile_qr_scan", "ios": "https://dc.lft.to/lastmile_qr_scan"}, "fusion_lon": 0.0, "lat": 38.90888483333333, "bike_id": "5b9818b2ad9a524b815d395ed9307318", "type": "electric_scooter", "is_reserved": 0, "lon": -77.04394683333334}, {"fusion_lat": 0.0, "name": "104541be610c4ceb9a12db8622266357", "is_disabled": 0, "rental_uris": {"android": "https://dc.lft.to/lastmile_qr_scan", "ios": "https://dc.lft.to/lastmile_qr_scan"}, "fusion_lon": 0.0, "lat": 38.90217583333333, "bike_id": "104541be610c4ceb9a12db8622266357", "type": "electric_scooter", "is_reserved": 0, "lon": -76.98619833333333}, {"fusion_lat": 0.0, "name": "2bd198e68b6e7e5b9ff35e2795a20cb2", "is_disabled": 0, "rental_uris": {"android": "https://dc.lft.to/lastmile_qr_scan", "ios": "https://dc.lft.to/lastmile_qr_scan"}, "fusion_lon": 0.0, "lat": 38.91562066666667, "bike_id": "2bd198e68b6e7e5b9ff35e2795a20cb2", "type": "electric_scooter", "is_reserved": 0, "lon": -77.022745}, {"fusion_lat": 0.0, "name": "f60cc04c758497387ff2f377a1160f4e", "is_disabled": 0, "rental_uris": {"android": "https://dc.lft.to/lastmile_qr_scan", "ios": "https://dc.lft.to/lastmile_qr_scan"}, "fusion_lon": 0.0, "lat": 38.9385715, "bike_id": "f60cc04c758497387ff2f377a1160f4e", "type": "electric_scooter", "is_reserved": 0, "lon": -77.03391666666667}, {"fusion_lat": 0.0, "name": "59638007c071ae1ac75ad902cba44682", "is_disabled": 0, "rental_uris": {"android": "https://dc.lft.to/lastmile_qr_scan", "ios": "https://dc.lft.to/lastmile_qr_scan"}, "fusion_lon": 0.0, "lat": 38.9571015, "bike_id": "59638007c071ae1ac75ad902cba44682", "type": "electric_scooter", "is_reserved": 0, "lon": -77.024085}, {"fusion_lat": 0.0, "name": "697e8fed60836349ab3ae304dc540eb5", "is_disabled": 0, "rental_uris": {"android": "https://dc.lft.to/lastmile_qr_scan", "ios": "https://dc.lft.to/lastmile_qr_scan"}, "fusion_lon": 0.0, "lat": 38.89224266666667, "bike_id": "697e8fed60836349ab3ae304dc540eb5", "type": "electric_scooter", "is_reserved": 0, "lon": -77.043215}, {"fusion_lat": 0.0, "name": "197d880974e5ba2965cdb3735ad1e518", "is_disabled": 0, "rental_uris": {"android": "https://dc.lft.to/lastmile_qr_scan", "ios": "https://dc.lft.to/lastmile_qr_scan"}, "fusion_lon": 0.0, "lat": 38.90112533333333, "bike_id": "197d880974e5ba2965cdb3735ad1e518", "type": "electric_scooter", "is_reserved": 0, "lon": -77.04608416666666}, {"fusion_lat": 0.0, "name": "1f083882b7e2c1305227a134138ac77f", "is_disabled": 0, "rental_uris": {"android": "https://dc.lft.to/lastmile_qr_scan", "ios": "https://dc.lft.to/lastmile_qr_scan"}, "fusion_lon": 0.0, "lat": 38.9018505, "bike_id": "1f083882b7e2c1305227a134138ac77f", "type": "electric_scooter", "is_reserved": 0, "lon": -77.0240485}, {"fusion_lat": 0.0, "name": "7b872a0954de1fcdbec615dd367da742", "is_disabled": 0, "rental_uris": {"android": "https://dc.lft.to/lastmile_qr_scan", "ios": "https://dc.lft.to/lastmile_qr_scan"}, "fusion_lon": 0.0, "lat": 38.890457833333336, "bike_id": "7b872a0954de1fcdbec615dd367da742", "type": "electric_scooter", "is_reserved": 0, "lon": -77.01506433333333}, {"fusion_lat": 0.0, "name": "bac38612c7b3f863954247f53d17dd18", "is_disabled": 0, "rental_uris": {"android": "https://dc.lft.to/lastmile_qr_scan", "ios": "https://dc.lft.to/lastmile_qr_scan"}, "fusion_lon": 0.0, "lat": 38.90063766666667, "bike_id": "bac38612c7b3f863954247f53d17dd18", "type": "electric_scooter", "is_reserved": 0, "lon": -76.93386016666666}, {"fusion_lat": 0.0, "name": "37332b37d42dd2ad75e27ac6f32c90ca", "is_disabled": 0, "rental_uris": {"android": "https://dc.lft.to/lastmile_qr_scan", "ios": "https://dc.lft.to/lastmile_qr_scan"}, "fusion_lon": 0.0, "lat": 38.88745433333333, "bike_id": "37332b37d42dd2ad75e27ac6f32c90ca", "type": "electric_scooter", "is_reserved": 0, "lon": -77.01777133333333}, {"fusion_lat": 0.0, "name": "e2953ae00088898b41f77dcc41ceaf74", "is_disabled": 0, "rental_uris": {"android": "https://dc.lft.to/lastmile_qr_scan", "ios": "https://dc.lft.to/lastmile_qr_scan"}, "fusion_lon": 0.0, "lat": 38.942706333333334, "bike_id": "e2953ae00088898b41f77dcc41ceaf74", "type": "electric_scooter", "is_reserved": 0, "lon": -77.03261966666666}, {"fusion_lat": 0.0, "name": "49111d4971ba5a284eaba2e1333badb0", "is_disabled": 0, "rental_uris": {"android": "https://dc.lft.to/lastmile_qr_scan", "ios": "https://dc.lft.to/lastmile_qr_scan"}, "fusion_lon": 0.0, "lat": 38.9140905, "bike_id": "49111d4971ba5a284eaba2e1333badb0", "type": "electric_scooter", "is_reserved": 0, "lon": -77.029863}, {"fusion_lat": 0.0, "name": "8a158d14075070d921fd668191b99235", "is_disabled": 0, "rental_uris": {"android": "https://dc.lft.to/lastmile_qr_scan", "ios": "https://dc.lft.to/lastmile_qr_scan"}, "fusion_lon": 0.0, "lat": 38.892205, "bike_id": "8a158d14075070d921fd668191b99235", "type": "electric_scooter", "is_reserved": 0, "lon": -77.02224733333334}, {"fusion_lat": 0.0, "name": "0bd497717a136546f487955440cf2686", "is_disabled": 0, "rental_uris": {"android": "https://dc.lft.to/lastmile_qr_scan", "ios": "https://dc.lft.to/lastmile_qr_scan"}, "fusion_lon": 0.0, "lat": 38.83519016666666, "bike_id": "0bd497717a136546f487955440cf2686", "type": "electric_bike", "is_reserved": 0, "lon": -76.98675633333333}, {"fusion_lat": 0.0, "name": "c8f2f13a39c4f73cb5e9302fe0214357", "is_disabled": 0, "rental_uris": {"android": "https://dc.lft.to/lastmile_qr_scan", "ios": "https://dc.lft.to/lastmile_qr_scan"}, "fusion_lon": 0.0, "lat": 38.9250075, "bike_id": "c8f2f13a39c4f73cb5e9302fe0214357", "type": "electric_scooter", "is_reserved": 0, "lon": -77.02404566666667}, {"fusion_lat": 0.0, "name": "38042665896b6ae171d0b0fec606c9f7", "is_disabled": 0, "rental_uris": {"android": "https://dc.lft.to/lastmile_qr_scan", "ios": "https://dc.lft.to/lastmile_qr_scan"}, "fusion_lon": 0.0, "lat": 38.88996816666667, "bike_id": "38042665896b6ae171d0b0fec606c9f7", "type": "electric_scooter", "is_reserved": 0, "lon": -76.95436783333334}, {"fusion_lat": 0.0, "name": "fc6e43dadabed1339267c802615c9d85", "is_disabled": 0, "rental_uris": {"android": "https://dc.lft.to/lastmile_qr_scan", "ios": "https://dc.lft.to/lastmile_qr_scan"}, "fusion_lon": 0.0, "lat": 38.8924945, "bike_id": "fc6e43dadabed1339267c802615c9d85", "type": "electric_bike", "is_reserved": 0, "lon": -76.985418}, {"fusion_lat": 0.0, "name": "49a16bbaec3faf73c7577ca78baab5da", "is_disabled": 0, "rental_uris": {"android": "https://dc.lft.to/lastmile_qr_scan", "ios": "https://dc.lft.to/lastmile_qr_scan"}, "fusion_lon": 0.0, "lat": 38.897823333333335, "bike_id": "49a16bbaec3faf73c7577ca78baab5da", "type": "electric_scooter", "is_reserved": 0, "lon": -77.02725683333334}, {"fusion_lat": 0.0, "name": "95fcdd50d11126234bd5e9f0b4303ee8", "is_disabled": 0, "rental_uris": {"android": "https://dc.lft.to/lastmile_qr_scan", "ios": "https://dc.lft.to/lastmile_qr_scan"}, "fusion_lon": 0.0, "lat": 38.9162925, "bike_id": "95fcdd50d11126234bd5e9f0b4303ee8", "type": "electric_scooter", "is_reserved": 0, "lon": -77.050731}, {"fusion_lat": 0.0, "name": "eb568723cd697fc53dabc17845ebbe5f", "is_disabled": 0, "rental_uris": {"android": "https://dc.lft.to/lastmile_qr_scan", "ios": "https://dc.lft.to/lastmile_qr_scan"}, "fusion_lon": 0.0, "lat": 38.893505833333336, "bike_id": "eb568723cd697fc53dabc17845ebbe5f", "type": "electric_scooter", "is_reserved": 0, "lon": -76.98655483333333}, {"fusion_lat": 0.0, "name": "0aabd82463e8b915dfc7c0550aaecddb", "is_disabled": 0, "rental_uris": {"android": "https://dc.lft.to/lastmile_qr_scan", "ios": "https://dc.lft.to/lastmile_qr_scan"}, "fusion_lon": 0.0, "lat": 38.898475166666664, "bike_id": "0aabd82463e8b915dfc7c0550aaecddb", "type": "electric_scooter", "is_reserved": 0, "lon": -76.94255283333334}, {"fusion_lat": 0.0, "name": "890468aac35e1152d15eba9a7e0afdac", "is_disabled": 0, "rental_uris": {"android": "https://dc.lft.to/lastmile_qr_scan", "ios": "https://dc.lft.to/lastmile_qr_scan"}, "fusion_lon": 0.0, "lat": 38.90003433333333, "bike_id": "890468aac35e1152d15eba9a7e0afdac", "type": "electric_scooter", "is_reserved": 0, "lon": -76.99843183333333}, {"fusion_lat": 0.0, "name": "c12c4b4b0de89ba00e9c8bd836706724", "is_disabled": 0, "rental_uris": {"android": "https://dc.lft.to/lastmile_qr_scan", "ios": "https://dc.lft.to/lastmile_qr_scan"}, "fusion_lon": 0.0, "lat": 38.931808, "bike_id": "c12c4b4b0de89ba00e9c8bd836706724", "type": "electric_scooter", "is_reserved": 0, "lon": -77.03299833333334}, {"fusion_lat": 0.0, "name": "ef04a46b8db3fe4ed826655bf3f7532a", "is_disabled": 0, "rental_uris": {"android": "https://dc.lft.to/lastmile_qr_scan", "ios": "https://dc.lft.to/lastmile_qr_scan"}, "fusion_lon": 0.0, "lat": 38.91849833333333, "bike_id": "ef04a46b8db3fe4ed826655bf3f7532a", "type": "electric_scooter", "is_reserved": 0, "lon": -77.02320816666666}, {"fusion_lat": 0.0, "name": "17cf946c2b43d21ed09fbd0e88432359", "is_disabled": 0, "rental_uris": {"android": "https://dc.lft.to/lastmile_qr_scan", "ios": "https://dc.lft.to/lastmile_qr_scan"}, "fusion_lon": 0.0, "lat": 38.897171, "bike_id": "17cf946c2b43d21ed09fbd0e88432359", "type": "electric_scooter", "is_reserved": 0, "lon": -77.007972}, {"fusion_lat": 0.0, "name": "8ab445b4c72c48e1eb9c2fc063e4f568", "is_disabled": 0, "rental_uris": {"android": "https://dc.lft.to/lastmile_qr_scan", "ios": "https://dc.lft.to/lastmile_qr_scan"}, "fusion_lon": 0.0, "lat": 38.92261533333333, "bike_id": "8ab445b4c72c48e1eb9c2fc063e4f568", "type": "electric_bike", "is_reserved": 0, "lon": -76.98645916666666}, {"fusion_lat": 0.0, "name": "7f8599ede21c51e4de81b7c0c634c685", "is_disabled": 0, "rental_uris": {"android": "https://dc.lft.to/lastmile_qr_scan", "ios": "https://dc.lft.to/lastmile_qr_scan"}, "fusion_lon": 0.0, "lat": 38.901686166666664, "bike_id": "7f8599ede21c51e4de81b7c0c634c685", "type": "electric_scooter", "is_reserved": 0, "lon": -77.026031}, {"fusion_lat": 0.0, "name": "bf0dbd6cab1c763df3c5dba820ba370e", "is_disabled": 0, "rental_uris": {"android": "https://dc.lft.to/lastmile_qr_scan", "ios": "https://dc.lft.to/lastmile_qr_scan"}, "fusion_lon": 0.0, "lat": 38.915625666666664, "bike_id": "bf0dbd6cab1c763df3c5dba820ba370e", "type": "electric_scooter", "is_reserved": 0, "lon": -77.03167966666666}, {"fusion_lat": 0.0, "name": "f2f983c04ed8e79192ba66159f058d1d", "is_disabled": 0, "rental_uris": {"android": "https://dc.lft.to/lastmile_qr_scan", "ios": "https://dc.lft.to/lastmile_qr_scan"}, "fusion_lon": 0.0, "lat": 38.892194333333336, "bike_id": "f2f983c04ed8e79192ba66159f058d1d", "type": "electric_scooter", "is_reserved": 0, "lon": -77.02311133333333}, {"fusion_lat": 0.0, "name": "52726ae28dc02399fd6b4163c92b0d58", "is_disabled": 0, "rental_uris": {"android": "https://dc.lft.to/lastmile_qr_scan", "ios": "https://dc.lft.to/lastmile_qr_scan"}, "fusion_lon": 0.0, "lat": 38.934126166666665, "bike_id": "52726ae28dc02399fd6b4163c92b0d58", "type": "electric_scooter", "is_reserved": 0, "lon": -77.02208716666667}, {"fusion_lat": 0.0, "name": "e823c2a2094f7c08f8d949f053ed37f6", "is_disabled": 0, "rental_uris": {"android": "https://dc.lft.to/lastmile_qr_scan", "ios": "https://dc.lft.to/lastmile_qr_scan"}, "fusion_lon": 0.0, "lat": 38.90228916666667, "bike_id": "e823c2a2094f7c08f8d949f053ed37f6", "type": "electric_scooter", "is_reserved": 0, "lon": -77.03265633333334}, {"fusion_lat": 0.0, "name": "0c376e5f3b58b76b09ccc0d6b85d47ce", "is_disabled": 0, "rental_uris": {"android": "https://dc.lft.to/lastmile_qr_scan", "ios": "https://dc.lft.to/lastmile_qr_scan"}, "fusion_lon": 0.0, "lat": 38.9055165, "bike_id": "0c376e5f3b58b76b09ccc0d6b85d47ce", "type": "electric_scooter", "is_reserved": 0, "lon": -77.04654933333333}, {"fusion_lat": 0.0, "name": "16250c07be2279175d442af04fc08c0b", "is_disabled": 0, "rental_uris": {"android": "https://dc.lft.to/lastmile_qr_scan", "ios": "https://dc.lft.to/lastmile_qr_scan"}, "fusion_lon": 0.0, "lat": 38.922875833333336, "bike_id": "16250c07be2279175d442af04fc08c0b", "type": "electric_scooter", "is_reserved": 0, "lon": -77.02966083333334}, {"fusion_lat": 0.0, "name": "aa71d9f33441f400fa8c861a6ca236b8", "is_disabled": 0, "rental_uris": {"android": "https://dc.lft.to/lastmile_qr_scan", "ios": "https://dc.lft.to/lastmile_qr_scan"}, "fusion_lon": 0.0, "lat": 38.901150666666666, "bike_id": "aa71d9f33441f400fa8c861a6ca236b8", "type": "electric_scooter", "is_reserved": 0, "lon": -77.033774}, {"fusion_lat": 0.0, "name": "328d789511351a9124322c9116e6750e", "is_disabled": 0, "rental_uris": {"android": "https://dc.lft.to/lastmile_qr_scan", "ios": "https://dc.lft.to/lastmile_qr_scan"}, "fusion_lon": 0.0, "lat": 38.90889716666667, "bike_id": "328d789511351a9124322c9116e6750e", "type": "electric_scooter", "is_reserved": 0, "lon": -77.043967}, {"fusion_lat": 0.0, "name": "27edb539208836e501dac7659d5d8faa", "is_disabled": 0, "rental_uris": {"android": "https://dc.lft.to/lastmile_qr_scan", "ios": "https://dc.lft.to/lastmile_qr_scan"}, "fusion_lon": 0.0, "lat": 38.90014716666667, "bike_id": "27edb539208836e501dac7659d5d8faa", "type": "electric_scooter", "is_reserved": 0, "lon": -76.99298733333333}, {"fusion_lat": 0.0, "name": "7550919605e84f2efc880c6c13120a92", "is_disabled": 0, "rental_uris": {"android": "https://dc.lft.to/lastmile_qr_scan", "ios": "https://dc.lft.to/lastmile_qr_scan"}, "fusion_lon": 0.0, "lat": 38.954203166666666, "bike_id": "7550919605e84f2efc880c6c13120a92", "type": "electric_scooter", "is_reserved": 0, "lon": -77.027644}, {"fusion_lat": 0.0, "name": "bd1b05e9d3d6832fe0ba452005401346", "is_disabled": 0, "rental_uris": {"android": "https://dc.lft.to/lastmile_qr_scan", "ios": "https://dc.lft.to/lastmile_qr_scan"}, "fusion_lon": 0.0, "lat": 38.88343833333333, "bike_id": "bd1b05e9d3d6832fe0ba452005401346", "type": "electric_scooter", "is_reserved": 0, "lon": -76.93497016666667}, {"fusion_lat": 0.0, "name": "fb12e3ad73656576dea132dbda04d756", "is_disabled": 0, "rental_uris": {"android": "https://dc.lft.to/lastmile_qr_scan", "ios": "https://dc.lft.to/lastmile_qr_scan"}, "fusion_lon": 0.0, "lat": 38.905626, "bike_id": "fb12e3ad73656576dea132dbda04d756", "type": "electric_scooter", "is_reserved": 0, "lon": -77.03744266666666}, {"fusion_lat": 0.0, "name": "502feb96fa5aa722fb41ec176639acb1", "is_disabled": 0, "rental_uris": {"android": "https://dc.lft.to/lastmile_qr_scan", "ios": "https://dc.lft.to/lastmile_qr_scan"}, "fusion_lon": 0.0, "lat": 38.89730016666667, "bike_id": "502feb96fa5aa722fb41ec176639acb1", "type": "electric_scooter", "is_reserved": 0, "lon": -77.0474705}, {"fusion_lat": 0.0, "name": "c714459d970c3193795fb7b475702e71", "is_disabled": 0, "rental_uris": {"android": "https://dc.lft.to/lastmile_qr_scan", "ios": "https://dc.lft.to/lastmile_qr_scan"}, "fusion_lon": 0.0, "lat": 38.920995166666664, "bike_id": "c714459d970c3193795fb7b475702e71", "type": "electric_scooter", "is_reserved": 0, "lon": -77.02522216666667}, {"fusion_lat": 0.0, "name": "9cf67122f329e338cc46f6a2e4c04357", "is_disabled": 0, "rental_uris": {"android": "https://dc.lft.to/lastmile_qr_scan", "ios": "https://dc.lft.to/lastmile_qr_scan"}, "fusion_lon": 0.0, "lat": 38.887323, "bike_id": "9cf67122f329e338cc46f6a2e4c04357", "type": "electric_scooter", "is_reserved": 0, "lon": -77.03173183333334}, {"fusion_lat": 0.0, "name": "807480d1192e7b815f77239b3559b81c", "is_disabled": 0, "rental_uris": {"android": "https://dc.lft.to/lastmile_qr_scan", "ios": "https://dc.lft.to/lastmile_qr_scan"}, "fusion_lon": 0.0, "lat": 38.94722266666667, "bike_id": "807480d1192e7b815f77239b3559b81c", "type": "electric_scooter", "is_reserved": 0, "lon": -77.06541133333333}, {"fusion_lat": 0.0, "name": "f774eb2eb235fe17a184515b74726600", "is_disabled": 0, "rental_uris": {"android": "https://dc.lft.to/lastmile_qr_scan", "ios": "https://dc.lft.to/lastmile_qr_scan"}, "fusion_lon": 0.0, "lat": 38.89726483333333, "bike_id": "f774eb2eb235fe17a184515b74726600", "type": "electric_scooter", "is_reserved": 0, "lon": -77.04810583333334}, {"fusion_lat": 0.0, "name": "616aee2a641ae0ab4d0680a52fa45bee", "is_disabled": 0, "rental_uris": {"android": "https://dc.lft.to/lastmile_qr_scan", "ios": "https://dc.lft.to/lastmile_qr_scan"}, "fusion_lon": 0.0, "lat": 38.906598, "bike_id": "616aee2a641ae0ab4d0680a52fa45bee", "type": "electric_scooter", "is_reserved": 0, "lon": -77.00927283333333}, {"fusion_lat": 0.0, "name": "638cc985a337bd3063bd149cb41f9704", "is_disabled": 0, "rental_uris": {"android": "https://dc.lft.to/lastmile_qr_scan", "ios": "https://dc.lft.to/lastmile_qr_scan"}, "fusion_lon": 0.0, "lat": 38.923326833333334, "bike_id": "638cc985a337bd3063bd149cb41f9704", "type": "electric_scooter", "is_reserved": 0, "lon": -77.056804}, {"fusion_lat": 0.0, "name": "3feeabf98515d8da0145c4f5f6ce64d3", "is_disabled": 0, "rental_uris": {"android": "https://dc.lft.to/lastmile_qr_scan", "ios": "https://dc.lft.to/lastmile_qr_scan"}, "fusion_lon": 0.0, "lat": 38.954208333333334, "bike_id": "3feeabf98515d8da0145c4f5f6ce64d3", "type": "electric_scooter", "is_reserved": 0, "lon": -77.0276275}, {"fusion_lat": 0.0, "name": "10fde9dc1bb324e94b3fd11a2f6f6368", "is_disabled": 0, "rental_uris": {"android": "https://dc.lft.to/lastmile_qr_scan", "ios": "https://dc.lft.to/lastmile_qr_scan"}, "fusion_lon": 0.0, "lat": 38.921204833333334, "bike_id": "10fde9dc1bb324e94b3fd11a2f6f6368", "type": "electric_scooter", "is_reserved": 0, "lon": -77.01211116666667}, {"fusion_lat": 0.0, "name": "e38a39a233004df6a450752014c28855", "is_disabled": 0, "rental_uris": {"android": "https://dc.lft.to/lastmile_qr_scan", "ios": "https://dc.lft.to/lastmile_qr_scan"}, "fusion_lon": 0.0, "lat": 38.915947333333335, "bike_id": "e38a39a233004df6a450752014c28855", "type": "electric_scooter", "is_reserved": 0, "lon": -76.99363833333334}, {"fusion_lat": 0.0, "name": "20df2497378789dc4623d3861cc4aaac", "is_disabled": 0, "rental_uris": {"android": "https://dc.lft.to/lastmile_qr_scan", "ios": "https://dc.lft.to/lastmile_qr_scan"}, "fusion_lon": 0.0, "lat": 38.91681783333333, "bike_id": "20df2497378789dc4623d3861cc4aaac", "type": "electric_scooter", "is_reserved": 0, "lon": -77.029693}, {"fusion_lat": 0.0, "name": "a4c6b94360e90f1e632ac17868436485", "is_disabled": 0, "rental_uris": {"android": "https://dc.lft.to/lastmile_qr_scan", "ios": "https://dc.lft.to/lastmile_qr_scan"}, "fusion_lon": 0.0, "lat": 38.89727116666667, "bike_id": "a4c6b94360e90f1e632ac17868436485", "type": "electric_scooter", "is_reserved": 0, "lon": -77.05523166666667}, {"fusion_lat": 0.0, "name": "5550915d805cd4dff119f598ead070ea", "is_disabled": 0, "rental_uris": {"android": "https://dc.lft.to/lastmile_qr_scan", "ios": "https://dc.lft.to/lastmile_qr_scan"}, "fusion_lon": 0.0, "lat": 38.906786833333335, "bike_id": "5550915d805cd4dff119f598ead070ea", "type": "electric_scooter", "is_reserved": 0, "lon": -77.03639266666667}, {"fusion_lat": 0.0, "name": "f8ff86979dd6f556e1f5d72be7cbd1a8", "is_disabled": 0, "rental_uris": {"android": "https://dc.lft.to/lastmile_qr_scan", "ios": "https://dc.lft.to/lastmile_qr_scan"}, "fusion_lon": 0.0, "lat": 38.847561, "bike_id": "f8ff86979dd6f556e1f5d72be7cbd1a8", "type": "electric_scooter", "is_reserved": 0, "lon": -76.995032}, {"fusion_lat": 0.0, "name": "fbad7938467b84de9dc1c96e257194d8", "is_disabled": 0, "rental_uris": {"android": "https://dc.lft.to/lastmile_qr_scan", "ios": "https://dc.lft.to/lastmile_qr_scan"}, "fusion_lon": 0.0, "lat": 38.86988616666667, "bike_id": "fbad7938467b84de9dc1c96e257194d8", "type": "electric_scooter", "is_reserved": 0, "lon": -76.977303}, {"fusion_lat": 0.0, "name": "5fd38a9d13dcf02f33c2dd568ffe8b5d", "is_disabled": 0, "rental_uris": {"android": "https://dc.lft.to/lastmile_qr_scan", "ios": "https://dc.lft.to/lastmile_qr_scan"}, "fusion_lon": 0.0, "lat": 38.91288433333333, "bike_id": "5fd38a9d13dcf02f33c2dd568ffe8b5d", "type": "electric_scooter", "is_reserved": 0, "lon": -77.02384916666666}, {"fusion_lat": 0.0, "name": "a2bb159fb409932b084508b5392ace21", "is_disabled": 0, "rental_uris": {"android": "https://dc.lft.to/lastmile_qr_scan", "ios": "https://dc.lft.to/lastmile_qr_scan"}, "fusion_lon": 0.0, "lat": 38.91717116666667, "bike_id": "a2bb159fb409932b084508b5392ace21", "type": "electric_scooter", "is_reserved": 0, "lon": -77.02803266666666}, {"fusion_lat": 0.0, "name": "9df949a6e06754d26871e3ba8a528848", "is_disabled": 0, "rental_uris": {"android": "https://dc.lft.to/lastmile_qr_scan", "ios": "https://dc.lft.to/lastmile_qr_scan"}, "fusion_lon": 0.0, "lat": 38.853632166666664, "bike_id": "9df949a6e06754d26871e3ba8a528848", "type": "electric_bike", "is_reserved": 0, "lon": -77.13461316666667}, {"fusion_lat": 0.0, "name": "0058b1b232f3c7803390b943ecde4de9", "is_disabled": 0, "rental_uris": {"android": "https://dc.lft.to/lastmile_qr_scan", "ios": "https://dc.lft.to/lastmile_qr_scan"}, "fusion_lon": 0.0, "lat": 38.8666705, "bike_id": "0058b1b232f3c7803390b943ecde4de9", "type": "electric_scooter", "is_reserved": 0, "lon": -77.01047916666667}, {"fusion_lat": 0.0, "name": "fc1578b798d6fb97a637b8b53e31b0f4", "is_disabled": 0, "rental_uris": {"android": "https://dc.lft.to/lastmile_qr_scan", "ios": "https://dc.lft.to/lastmile_qr_scan"}, "fusion_lon": 0.0, "lat": 38.90733816666667, "bike_id": "fc1578b798d6fb97a637b8b53e31b0f4", "type": "electric_scooter", "is_reserved": 0, "lon": -77.03313683333333}, {"fusion_lat": 0.0, "name": "5b6909ac9f08ea096a2d709ed4c71108", "is_disabled": 0, "rental_uris": {"android": "https://dc.lft.to/lastmile_qr_scan", "ios": "https://dc.lft.to/lastmile_qr_scan"}, "fusion_lon": 0.0, "lat": 38.926647833333334, "bike_id": "5b6909ac9f08ea096a2d709ed4c71108", "type": "electric_scooter", "is_reserved": 0, "lon": -77.04316566666667}, {"fusion_lat": 0.0, "name": "94ef32be9db39e32a8f4295c1f72335d", "is_disabled": 0, "rental_uris": {"android": "https://dc.lft.to/lastmile_qr_scan", "ios": "https://dc.lft.to/lastmile_qr_scan"}, "fusion_lon": 0.0, "lat": 38.917097166666665, "bike_id": "94ef32be9db39e32a8f4295c1f72335d", "type": "electric_scooter", "is_reserved": 0, "lon": -77.03471733333333}, {"fusion_lat": 0.0, "name": "9ebbbce6b4aac22d1f1a4e9c6278651d", "is_disabled": 0, "rental_uris": {"android": "https://dc.lft.to/lastmile_qr_scan", "ios": "https://dc.lft.to/lastmile_qr_scan"}, "fusion_lon": 0.0, "lat": 38.93224333333333, "bike_id": "9ebbbce6b4aac22d1f1a4e9c6278651d", "type": "electric_scooter", "is_reserved": 0, "lon": -76.99491216666667}, {"fusion_lat": 0.0, "name": "ffcdf045ac0a827282f99e6d9a473554", "is_disabled": 0, "rental_uris": {"android": "https://dc.lft.to/lastmile_qr_scan", "ios": "https://dc.lft.to/lastmile_qr_scan"}, "fusion_lon": 0.0, "lat": 38.89640383333333, "bike_id": "ffcdf045ac0a827282f99e6d9a473554", "type": "electric_scooter", "is_reserved": 0, "lon": -77.00936316666666}, {"fusion_lat": 0.0, "name": "9ee5928c9eda388c9290de019bd77377", "is_disabled": 0, "rental_uris": {"android": "https://dc.lft.to/lastmile_qr_scan", "ios": "https://dc.lft.to/lastmile_qr_scan"}, "fusion_lon": 0.0, "lat": 38.923437166666666, "bike_id": "9ee5928c9eda388c9290de019bd77377", "type": "electric_scooter", "is_reserved": 0, "lon": -77.0518185}, {"fusion_lat": 0.0, "name": "f561ef476028665b046c57f1ebb97883", "is_disabled": 0, "rental_uris": {"android": "https://dc.lft.to/lastmile_qr_scan", "ios": "https://dc.lft.to/lastmile_qr_scan"}, "fusion_lon": 0.0, "lat": 38.88460083333333, "bike_id": "f561ef476028665b046c57f1ebb97883", "type": "electric_scooter", "is_reserved": 0, "lon": -76.92622016666667}, {"fusion_lat": 0.0, "name": "b8e57d28339c0d7b241430f2a2f78dda", "is_disabled": 0, "rental_uris": {"android": "https://dc.lft.to/lastmile_qr_scan", "ios": "https://dc.lft.to/lastmile_qr_scan"}, "fusion_lon": 0.0, "lat": 38.90666183333333, "bike_id": "b8e57d28339c0d7b241430f2a2f78dda", "type": "electric_scooter", "is_reserved": 0, "lon": -77.01062666666667}, {"fusion_lat": 0.0, "name": "721047cf0a19c2429dd04ed277700fa7", "is_disabled": 0, "rental_uris": {"android": "https://dc.lft.to/lastmile_qr_scan", "ios": "https://dc.lft.to/lastmile_qr_scan"}, "fusion_lon": 0.0, "lat": 38.9182505, "bike_id": "721047cf0a19c2429dd04ed277700fa7", "type": "electric_scooter", "is_reserved": 0, "lon": -77.04530883333334}, {"fusion_lat": 0.0, "name": "dfb9c9323e4f538f79c87163780e5023", "is_disabled": 0, "rental_uris": {"android": "https://dc.lft.to/lastmile_qr_scan", "ios": "https://dc.lft.to/lastmile_qr_scan"}, "fusion_lon": 0.0, "lat": 38.8960515, "bike_id": "dfb9c9323e4f538f79c87163780e5023", "type": "electric_scooter", "is_reserved": 0, "lon": -76.9810915}, {"fusion_lat": 0.0, "name": "a4ed1622695fdf3cdef1ba4663abba9f", "is_disabled": 0, "rental_uris": {"android": "https://dc.lft.to/lastmile_qr_scan", "ios": "https://dc.lft.to/lastmile_qr_scan"}, "fusion_lon": 0.0, "lat": 38.90569583333333, "bike_id": "a4ed1622695fdf3cdef1ba4663abba9f", "type": "electric_scooter", "is_reserved": 0, "lon": -77.030614}, {"fusion_lat": 0.0, "name": "0768c01eb611db25a256ef0ceb0a49e9", "is_disabled": 0, "rental_uris": {"android": "https://dc.lft.to/lastmile_qr_scan", "ios": "https://dc.lft.to/lastmile_qr_scan"}, "fusion_lon": 0.0, "lat": 38.919221, "bike_id": "0768c01eb611db25a256ef0ceb0a49e9", "type": "electric_scooter", "is_reserved": 0, "lon": -77.03216983333333}, {"fusion_lat": 0.0, "name": "9c7c81c00c4ca10b9573884638d47a8d", "is_disabled": 0, "rental_uris": {"android": "https://dc.lft.to/lastmile_qr_scan", "ios": "https://dc.lft.to/lastmile_qr_scan"}, "fusion_lon": 0.0, "lat": 38.92922316666667, "bike_id": "9c7c81c00c4ca10b9573884638d47a8d", "type": "electric_scooter", "is_reserved": 0, "lon": -77.03274416666666}, {"fusion_lat": 0.0, "name": "14b0af13eb1adc45f1926f0343fa834c", "is_disabled": 0, "rental_uris": {"android": "https://dc.lft.to/lastmile_qr_scan", "ios": "https://dc.lft.to/lastmile_qr_scan"}, "fusion_lon": 0.0, "lat": 38.916007, "bike_id": "14b0af13eb1adc45f1926f0343fa834c", "type": "electric_scooter", "is_reserved": 0, "lon": -77.03201933333334}, {"fusion_lat": 0.0, "name": "1b0d5f47d66fdf33860d54f439070d9e", "is_disabled": 0, "rental_uris": {"android": "https://dc.lft.to/lastmile_qr_scan", "ios": "https://dc.lft.to/lastmile_qr_scan"}, "fusion_lon": 0.0, "lat": 38.9004825, "bike_id": "1b0d5f47d66fdf33860d54f439070d9e", "type": "electric_scooter", "is_reserved": 0, "lon": -77.00065833333333}, {"fusion_lat": 0.0, "name": "7abf17d2871a713f775fa89415f6860f", "is_disabled": 0, "rental_uris": {"android": "https://dc.lft.to/lastmile_qr_scan", "ios": "https://dc.lft.to/lastmile_qr_scan"}, "fusion_lon": 0.0, "lat": 38.90884916666667, "bike_id": "7abf17d2871a713f775fa89415f6860f", "type": "electric_scooter", "is_reserved": 0, "lon": -77.03222633333333}, {"fusion_lat": 0.0, "name": "1290e85fa0ecedbffcb913bb7b5dbd4d", "is_disabled": 0, "rental_uris": {"android": "https://dc.lft.to/lastmile_qr_scan", "ios": "https://dc.lft.to/lastmile_qr_scan"}, "fusion_lon": 0.0, "lat": 38.89585683333333, "bike_id": "1290e85fa0ecedbffcb913bb7b5dbd4d", "type": "electric_scooter", "is_reserved": 0, "lon": -76.98320816666667}, {"fusion_lat": 0.0, "name": "2768a7cecbe28e0b8d653294ff4ab14a", "is_disabled": 0, "rental_uris": {"android": "https://dc.lft.to/lastmile_qr_scan", "ios": "https://dc.lft.to/lastmile_qr_scan"}, "fusion_lon": 0.0, "lat": 38.91709483333333, "bike_id": "2768a7cecbe28e0b8d653294ff4ab14a", "type": "electric_scooter", "is_reserved": 0, "lon": -77.0303735}, {"fusion_lat": 0.0, "name": "638bb6336aacec4841172d70c1e112cb", "is_disabled": 0, "rental_uris": {"android": "https://dc.lft.to/lastmile_qr_scan", "ios": "https://dc.lft.to/lastmile_qr_scan"}, "fusion_lon": 0.0, "lat": 38.92538233333333, "bike_id": "638bb6336aacec4841172d70c1e112cb", "type": "electric_scooter", "is_reserved": 0, "lon": -77.03490366666666}, {"fusion_lat": 0.0, "name": "1c1ebd05359693c9dc7dd8d7adecb33f", "is_disabled": 0, "rental_uris": {"android": "https://dc.lft.to/lastmile_qr_scan", "ios": "https://dc.lft.to/lastmile_qr_scan"}, "fusion_lon": 0.0, "lat": 38.93007266666667, "bike_id": "1c1ebd05359693c9dc7dd8d7adecb33f", "type": "electric_scooter", "is_reserved": 0, "lon": -77.05541616666666}, {"fusion_lat": 0.0, "name": "dbf7cc44a3e8c7696a5fe6376fbd64dd", "is_disabled": 0, "rental_uris": {"android": "https://dc.lft.to/lastmile_qr_scan", "ios": "https://dc.lft.to/lastmile_qr_scan"}, "fusion_lon": 0.0, "lat": 38.902661, "bike_id": "dbf7cc44a3e8c7696a5fe6376fbd64dd", "type": "electric_scooter", "is_reserved": 0, "lon": -77.05311466666667}, {"fusion_lat": 0.0, "name": "06b5320bdf8a2cb883b7e1bf8b34ef37", "is_disabled": 0, "rental_uris": {"android": "https://dc.lft.to/lastmile_qr_scan", "ios": "https://dc.lft.to/lastmile_qr_scan"}, "fusion_lon": 0.0, "lat": 38.92324933333333, "bike_id": "06b5320bdf8a2cb883b7e1bf8b34ef37", "type": "electric_scooter", "is_reserved": 0, "lon": -77.04520066666667}, {"fusion_lat": 0.0, "name": "99efbc426355ff0458f9f3c941f7d53d", "is_disabled": 0, "rental_uris": {"android": "https://dc.lft.to/lastmile_qr_scan", "ios": "https://dc.lft.to/lastmile_qr_scan"}, "fusion_lon": 0.0, "lat": 38.9244745, "bike_id": "99efbc426355ff0458f9f3c941f7d53d", "type": "electric_scooter", "is_reserved": 0, "lon": -77.03330183333334}, {"fusion_lat": 0.0, "name": "cb694c40979f623d8631c5926bd19016", "is_disabled": 0, "rental_uris": {"android": "https://dc.lft.to/lastmile_qr_scan", "ios": "https://dc.lft.to/lastmile_qr_scan"}, "fusion_lon": 0.0, "lat": 38.90735316666667, "bike_id": "cb694c40979f623d8631c5926bd19016", "type": "electric_scooter", "is_reserved": 0, "lon": -77.04161933333333}, {"fusion_lat": 0.0, "name": "22ddc8e08664928e4939ecac1a965c5c", "is_disabled": 0, "rental_uris": {"android": "https://dc.lft.to/lastmile_qr_scan", "ios": "https://dc.lft.to/lastmile_qr_scan"}, "fusion_lon": 0.0, "lat": 38.91844283333333, "bike_id": "22ddc8e08664928e4939ecac1a965c5c", "type": "electric_scooter", "is_reserved": 0, "lon": -76.96537166666667}, {"fusion_lat": 0.0, "name": "e18117d198a175cf3bb53e5dac492fd1", "is_disabled": 0, "rental_uris": {"android": "https://dc.lft.to/lastmile_qr_scan", "ios": "https://dc.lft.to/lastmile_qr_scan"}, "fusion_lon": 0.0, "lat": 38.919231833333335, "bike_id": "e18117d198a175cf3bb53e5dac492fd1", "type": "electric_scooter", "is_reserved": 0, "lon": -77.03037616666667}, {"fusion_lat": 0.0, "name": "394b5c54334981d5511bb6669d789822", "is_disabled": 0, "rental_uris": {"android": "https://dc.lft.to/lastmile_qr_scan", "ios": "https://dc.lft.to/lastmile_qr_scan"}, "fusion_lon": 0.0, "lat": 38.91404383333333, "bike_id": "394b5c54334981d5511bb6669d789822", "type": "electric_scooter", "is_reserved": 0, "lon": -77.03221683333334}, {"fusion_lat": 0.0, "name": "b67fb4973bea42fdddd4a803290dfbe7", "is_disabled": 0, "rental_uris": {"android": "https://dc.lft.to/lastmile_qr_scan", "ios": "https://dc.lft.to/lastmile_qr_scan"}, "fusion_lon": 0.0, "lat": 38.94153466666667, "bike_id": "b67fb4973bea42fdddd4a803290dfbe7", "type": "electric_scooter", "is_reserved": 0, "lon": -77.032824}, {"fusion_lat": 0.0, "name": "94bb3243be30f93b61f4740a0e86cfb6", "is_disabled": 0, "rental_uris": {"android": "https://dc.lft.to/lastmile_qr_scan", "ios": "https://dc.lft.to/lastmile_qr_scan"}, "fusion_lon": 0.0, "lat": 38.88719916666667, "bike_id": "94bb3243be30f93b61f4740a0e86cfb6", "type": "electric_scooter", "is_reserved": 0, "lon": -76.9964145}, {"fusion_lat": 0.0, "name": "1ca86f5e87fcaffc1261c4bf31340947", "is_disabled": 0, "rental_uris": {"android": "https://dc.lft.to/lastmile_qr_scan", "ios": "https://dc.lft.to/lastmile_qr_scan"}, "fusion_lon": 0.0, "lat": 38.920685666666664, "bike_id": "1ca86f5e87fcaffc1261c4bf31340947", "type": "electric_scooter", "is_reserved": 0, "lon": -77.022231}, {"fusion_lat": 0.0, "name": "fc7849370070f3f0a05b2901decc904d", "is_disabled": 0, "rental_uris": {"android": "https://dc.lft.to/lastmile_qr_scan", "ios": "https://dc.lft.to/lastmile_qr_scan"}, "fusion_lon": 0.0, "lat": 38.916737, "bike_id": "fc7849370070f3f0a05b2901decc904d", "type": "electric_scooter", "is_reserved": 0, "lon": -77.0237615}, {"fusion_lat": 0.0, "name": "20a92f6f0b1357bb23e3ef0abf9eea54", "is_disabled": 0, "rental_uris": {"android": "https://dc.lft.to/lastmile_qr_scan", "ios": "https://dc.lft.to/lastmile_qr_scan"}, "fusion_lon": 0.0, "lat": 38.87892383333333, "bike_id": "20a92f6f0b1357bb23e3ef0abf9eea54", "type": "electric_scooter", "is_reserved": 0, "lon": -77.0057205}, {"fusion_lat": 0.0, "name": "08283026fc42000162a7339d3e0cca5a", "is_disabled": 0, "rental_uris": {"android": "https://dc.lft.to/lastmile_qr_scan", "ios": "https://dc.lft.to/lastmile_qr_scan"}, "fusion_lon": 0.0, "lat": 38.834985833333334, "bike_id": "08283026fc42000162a7339d3e0cca5a", "type": "electric_bike", "is_reserved": 0, "lon": -77.09017266666666}, {"fusion_lat": 0.0, "name": "21138fbb1272e372cb9bedfbe28ffd1e", "is_disabled": 0, "rental_uris": {"android": "https://dc.lft.to/lastmile_qr_scan", "ios": "https://dc.lft.to/lastmile_qr_scan"}, "fusion_lon": 0.0, "lat": 38.909592333333336, "bike_id": "21138fbb1272e372cb9bedfbe28ffd1e", "type": "electric_scooter", "is_reserved": 0, "lon": -77.01439466666666}, {"fusion_lat": 0.0, "name": "b7431533ae370226c33e6b893d3d8518", "is_disabled": 0, "rental_uris": {"android": "https://dc.lft.to/lastmile_qr_scan", "ios": "https://dc.lft.to/lastmile_qr_scan"}, "fusion_lon": 0.0, "lat": 38.932872833333334, "bike_id": "b7431533ae370226c33e6b893d3d8518", "type": "electric_scooter", "is_reserved": 0, "lon": -77.04081933333333}, {"fusion_lat": 0.0, "name": "f7cb491f24df4997880e7ecbb3feb209", "is_disabled": 0, "rental_uris": {"android": "https://dc.lft.to/lastmile_qr_scan", "ios": "https://dc.lft.to/lastmile_qr_scan"}, "fusion_lon": 0.0, "lat": 38.905730166666665, "bike_id": "f7cb491f24df4997880e7ecbb3feb209", "type": "electric_scooter", "is_reserved": 0, "lon": -77.00566266666667}, {"fusion_lat": 0.0, "name": "a0f1a4f4260beca6d6f067c6edd917d4", "is_disabled": 0, "rental_uris": {"android": "https://dc.lft.to/lastmile_qr_scan", "ios": "https://dc.lft.to/lastmile_qr_scan"}, "fusion_lon": 0.0, "lat": 38.914759833333335, "bike_id": "a0f1a4f4260beca6d6f067c6edd917d4", "type": "electric_scooter", "is_reserved": 0, "lon": -77.0385225}, {"fusion_lat": 0.0, "name": "2318678007d63c7be209804f237e26f3", "is_disabled": 0, "rental_uris": {"android": "https://dc.lft.to/lastmile_qr_scan", "ios": "https://dc.lft.to/lastmile_qr_scan"}, "fusion_lon": 0.0, "lat": 38.89987716666667, "bike_id": "2318678007d63c7be209804f237e26f3", "type": "electric_scooter", "is_reserved": 0, "lon": -76.98369966666667}, {"fusion_lat": 0.0, "name": "a21633f9e2f62dbe321e5b5e2196bc0f", "is_disabled": 0, "rental_uris": {"android": "https://dc.lft.to/lastmile_qr_scan", "ios": "https://dc.lft.to/lastmile_qr_scan"}, "fusion_lon": 0.0, "lat": 38.88357166666667, "bike_id": "a21633f9e2f62dbe321e5b5e2196bc0f", "type": "electric_scooter", "is_reserved": 0, "lon": -77.01355416666667}, {"fusion_lat": 0.0, "name": "83dbd0ea2088e7eb664e2f8d5a0da028", "is_disabled": 0, "rental_uris": {"android": "https://dc.lft.to/lastmile_qr_scan", "ios": "https://dc.lft.to/lastmile_qr_scan"}, "fusion_lon": 0.0, "lat": 38.89763683333334, "bike_id": "83dbd0ea2088e7eb664e2f8d5a0da028", "type": "electric_scooter", "is_reserved": 0, "lon": -77.00205183333334}, {"fusion_lat": 0.0, "name": "b20bd9d3e22bc2e47f45c3310895c88f", "is_disabled": 0, "rental_uris": {"android": "https://dc.lft.to/lastmile_qr_scan", "ios": "https://dc.lft.to/lastmile_qr_scan"}, "fusion_lon": 0.0, "lat": 38.91563, "bike_id": "b20bd9d3e22bc2e47f45c3310895c88f", "type": "electric_scooter", "is_reserved": 0, "lon": -77.03169566666666}, {"fusion_lat": 0.0, "name": "78c8df6b4aa8810f83c35ef45184d99b", "is_disabled": 0, "rental_uris": {"android": "https://dc.lft.to/lastmile_qr_scan", "ios": "https://dc.lft.to/lastmile_qr_scan"}, "fusion_lon": 0.0, "lat": 38.92293083333333, "bike_id": "78c8df6b4aa8810f83c35ef45184d99b", "type": "electric_scooter", "is_reserved": 0, "lon": -77.0421255}, {"fusion_lat": 0.0, "name": "321b660efaaf92d246898b84f8ff03b9", "is_disabled": 0, "rental_uris": {"android": "https://dc.lft.to/lastmile_qr_scan", "ios": "https://dc.lft.to/lastmile_qr_scan"}, "fusion_lon": 0.0, "lat": 38.872124166666666, "bike_id": "321b660efaaf92d246898b84f8ff03b9", "type": "electric_scooter", "is_reserved": 0, "lon": -77.00574966666667},