{"data": {"bikes": [{"fusion_lon": 0.0, "bike_id": "21524727fbd882f94f112a170991325d", "name": "21524727fbd882f94f112a170991325d", "type": "electric_scooter", "lon": -77.07115616666667, "rental_uris": {"android": "https://dc.lft.to/lastmile_qr_scan", "ios": "https://dc.lft.to/lastmile_qr_scan"}, "lat": 38.919747, "is_reserved": 0, "is_disabled": 0, "fusion_lat": 0.0}, {"fusion_lon": 0.0, "bike_id": "4dfb2ba9c4534dbbe91f3b2ddf154ff9", "name": "4dfb2ba9c4534dbbe91f3b2ddf154ff9", "type": "electric_scooter", "lon": -77.03849, "rental_uris": {"android": "https://dc.lft.to/lastmile_qr_scan", "ios": "https://dc.lft.to/lastmile_qr_scan"}, "lat": 38.921670666666664, "is_reserved": 0, "is_disabled": 0, "fusion_lat": 0.0}, {"fusion_lon": 0.0, "bike_id": "a0b594e805f175a3a82fdce69b22e2f1", "name": "a0b594e805f175a3a82fdce69b22e2f1", "type": "electric_scooter", "lon": -76.96570733333333, "rental_uris": {"android": "https://dc.lft.to/lastmile_qr_scan", "ios": "https://dc.lft.to/lastmile_qr_scan"}, "lat": 38.8713815, "is_reserved": 0, "is_disabled": 0, "fusion_lat": 0.0}, {"fusion_lon": 0.0, "bike_id": "ba34daad1e951c41225dd3b0f916ddb4", "name": "ba34daad1e951c41225dd3b0f916ddb4", "type": "electric_bike", "lon": -77.02487883333333, "rental_uris": {"android": "https://dc.lft.to/lastmile_qr_scan", "ios": "https://dc.lft.to/lastmile_qr_scan"}, "lat": 38.97368, "is_reserved": 0, "is_disabled": 0, "fusion_lat": 0.0}, {"fusion_lon": 0.0, "bike_id": "1ea2b7ce4d34e8eacf531894acc11cb8", "name": "1ea2b7ce4d34e8eacf531894acc11cb8", "type": "electric_scooter", "lon": -76.996277, "rental_uris": {"android": "https://dc.lft.to/lastmile_qr_scan", "ios": "https://dc.lft.to/lastmile_qr_scan"}, "lat": 38.84621633333333, "is_reserved": 0, "is_disabled": 0, "fusion_lat": 0.0}, {"fusion_lon": 0.0, "bike_id": "bddd5642e67cb25756aa77a053019b43", "name": "bddd5642e67cb25756aa77a053019b43", "type": "electric_scooter", "lon": -77.01124766666666, "rental_uris": {"android": "https://dc.lft.to/lastmile_qr_scan", "ios": "https://dc.lft.to/lastmile_qr_scan"}, "lat": 38.895994, "is_reserved": 0, "is_disabled": 0, "fusion_lat": 0.0}, {"fusion_lon": 0.0, "bike_id": "970704a797435de6d40d1960fede2e4d", "name": "970704a797435de6d40d1960fede2e4d", "type": "electric_scooter", "lon": -77.02363466666667, "rental_uris": {"android": "https://dc.lft.to/lastmile_qr_scan", "ios": "https://dc.lft.to/lastmile_qr_scan"}, "lat": 38.91948083333333, "is_reserved": 0, "is_disabled": 0, "fusion_lat": 0.0}, {"fusion_lon": 0.0, "bike_id": "5d92b8bb61c61d5535c3c23b55f35f51", "name": "5d92b8bb61c61d5535c3c23b55f35f51", "type": "electric_scooter", "lon": -76.95749966666666, "rental_uris": {"android": "https://dc.lft.to/lastmile_qr_scan", "ios": "https://dc.lft.to/lastmile_qr_scan"}, "lat": 38.8842985, "is_reserved": 0, "is_disabled": 0, "fusion_lat": 0.0}, {"fusion_lon": 0.0, "bike_id": "c034187ae662aecf59dd179e8f813c1e", "name": "c034187ae662aecf59dd179e8f813c1e", "type": "electric_scooter", "lon": -77.04225916666667, "rental_uris": {"android": "https://dc.lft.to/lastmile_qr_scan", "ios": "https://dc.lft.to/lastmile_qr_scan"}, "lat": 38.920674, "is_reserved": 0, "is_disabled": 0, "fusion_lat": 0.0}, {"fusion_lon": 0.0, "bike_id": "ad417912d1846a9fbb1f4bc81917b387", "name": "ad417912d1846a9fbb1f4bc81917b387", "type": "electric_scooter", "lon": -77.024899, "rental_uris": {"android": "https://dc.lft.to/lastmile_qr_scan", "ios": "https://dc.lft.to/lastmile_qr_scan"}, "lat": 38.94185, "is_reserved": 0, "is_disabled": 0, "fusion_lat": 0.0}, {"fusion_lon": 0.0, "bike_id": "592122fd5394b43c51860d71298a9d13", "name": "592122fd5394b43c51860d71298a9d13", "type": "electric_scooter", "lon": -77.0451325, "rental_uris": {"android": "https://dc.lft.to/lastmile_qr_scan", "ios": "https://dc.lft.to/lastmile_qr_scan"}, "lat": 38.907849666666664, "is_reserved": 0, "is_disabled": 0, "fusion_lat": 0.0}, {"fusion_lon": 0.0, "bike_id": "06797e898424e5bf8fac0edeaf101d4f", "name": "06797e898424e5bf8fac0edeaf101d4f", "type": "electric_scooter", "lon": -76.99006733333333, "rental_uris": {"android": "https://dc.lft.to/lastmile_qr_scan", "ios": "https://dc.lft.to/lastmile_qr_scan"}, "lat": 38.861055, "is_reserved": 0, "is_disabled": 0, "fusion_lat": 0.0}, {"fusion_lon": 0.0, "bike_id": "187ad0e14f2fefdb6927cfbf49ea0a61", "name": "187ad0e14f2fefdb6927cfbf49ea0a61", "type": "electric_scooter", "lon": -76.99386016666666, "rental_uris": {"android": "https://dc.lft.to/lastmile_qr_scan", "ios": "https://dc.lft.to/lastmile_qr_scan"}, "lat": 38.884522833333335, "is_reserved": 0, "is_disabled": 0, "fusion_lat": 0.0}, {"fusion_lon": 0.0, "bike_id": "4208f29b7a029d091fa1da14b13dc680", "name": "4208f29b7a029d091fa1da14b13dc680", "type": "electric_scooter", "lon": -77.0338225, "rental_uris": {"android": "https://dc.lft.to/lastmile_qr_scan", "ios": "https://dc.lft.to/lastmile_qr_scan"}, "lat": 38.96829616666667, "is_reserved": 0, "is_disabled": 0, "fusion_lat": 0.0}, {"fusion_lon": 0.0, "bike_id": "670534bc3ccd97a647b33e5bed13c8e4", "name": "670534bc3ccd97a647b33e5bed13c8e4", "type": "electric_scooter", "lon": -77.02197083333333, "rental_uris": {"android": "https://dc.lft.to/lastmile_qr_scan", "ios": "https://dc.lft.to/lastmile_qr_scan"}, "lat": 38.91124383333333, "is_reserved": 0, "is_disabled": 0, "fusion_lat": 0.0}, {"fusion_lon": 0.0, "bike_id": "768f053063c2d2061b42d548ef000377", "name": "768f053063c2d2061b42d548ef000377", "type": "electric_bike", "lon": -77.04900766666667, "rental_uris": {"android": "https://dc.lft.to/lastmile_qr_scan", "ios": "https://dc.lft.to/lastmile_qr_scan"}, "lat": 38.87491933333333, "is_reserved": 0, "is_disabled": 0, "fusion_lat": 0.0}, {"fusion_lon": 0.0, "bike_id": "a15742a82a6d0ca82385e05f6e9252b7", "name": "a15742a82a6d0ca82385e05f6e9252b7", "type": "electric_scooter", "lon": -77.02215916666667, "rental_uris": {"android": "https://dc.lft.to/lastmile_qr_scan", "ios": "https://dc.lft.to/lastmile_qr_scan"}, "lat": 38.912639166666665, "is_reserved": 0, "is_disabled": 0, "fusion_lat": 0.0}, {"fusion_lon": 0.0, "bike_id": "66b30a26a57c8854181f80774cd2c5bd", "name": "66b30a26a57c8854181f80774cd2c5bd", "type": "electric_scooter", "lon": -77.00194683333334, "rental_uris": {"android": "https://dc.lft.to/lastmile_qr_scan", "ios": "https://dc.lft.to/lastmile_qr_scan"}, "lat": 38.90228666666667, "is_reserved": 0, "is_disabled": 0, "fusion_lat": 0.0}, {"fusion_lon": 0.0, "bike_id": "c361c8e5d7f97b908cdf7ab240b30f74", "name": "c361c8e5d7f97b908cdf7ab240b30f74", "type": "electric_scooter", "lon": -77.02952766666667, "rental_uris": {"android": "https://dc.lft.to/lastmile_qr_scan", "ios": "https://dc.lft.to/lastmile_qr_scan"}, "lat": 38.91176333333333, "is_reserved": 0, "is_disabled": 0, "fusion_lat": 0.0}, {"fusion_lon": 0.0, "bike_id": "b6e8f63c05219b0b12b176aa5c916e11", "name": "b6e8f63c05219b0b12b176aa5c916e11", "type": "electric_scooter", "lon": -77.0178835, "rental_uris": {"android": "https://dc.lft.to/lastmile_qr_scan", "ios": "https://dc.lft.to/lastmile_qr_scan"}, "lat": 38.94114966666667, "is_reserved": 0, "is_disabled": 0, "fusion_lat": 0.0}, {"fusion_lon": 0.0, "bike_id": "3c98a75c540fda87465ab5bde1d142e0", "name": "3c98a75c540fda87465ab5bde1d142e0", "type": "electric_scooter", "lon": -77.00326166666666, "rental_uris": {"android": "https://dc.lft.to/lastmile_qr_scan", "ios": "https://dc.lft.to/lastmile_qr_scan"}, "lat": 38.907224, "is_reserved": 0, "is_disabled": 0, "fusion_lat": 0.0}, {"fusion_lon": 0.0, "bike_id": "8c34a5f89bc4ad5e73990988f171d3a8", "name": "8c34a5f89bc4ad5e73990988f171d3a8", "type": "electric_scooter", "lon": -77.02485816666666, "rental_uris": {"android": "https://dc.lft.to/lastmile_qr_scan", "ios": "https://dc.lft.to/lastmile_qr_scan"}, "lat": 38.904188166666664, "is_reserved": 0, "is_disabled": 0, "fusion_lat": 0.0}, {"fusion_lon": 0.0, "bike_id": "3de5e4b7f36460f042a5f55e1d3649d6", "name": "3de5e4b7f36460f042a5f55e1d3649d6", "type": "electric_scooter", "lon": -77.03729566666667, "rental_uris": {"android": "https://dc.lft.to/lastmile_qr_scan", "ios": "https://dc.lft.to/lastmile_qr_scan"}, "lat": 38.935722, "is_reserved": 0, "is_disabled": 0, "fusion_lat": 0.0}, {"fusion_lon": 0.0, "bike_id": "d51b5a8b434f8a8d34c967bbc17d8140", "name": "d51b5a8b434f8a8d34c967bbc17d8140", "type": "electric_scooter", "lon": -77.04020383333334, "rental_uris": {"android": "https://dc.lft.to/lastmile_qr_scan", "ios": "https://dc.lft.to/lastmile_qr_scan"}, "lat": 38.9129895, "is_reserved": 0, "is_disabled": 0, "fusion_lat": 0.0}, {"fusion_lon": 0.0, "bike_id": "b11629f7168bb09b65c2b4251b16d877", "name": "b11629f7168bb09b65c2b4251b16d877", "type": "electric_scooter", "lon": -77.03153083333333, "rental_uris": {"android": "https://dc.lft.to/lastmile_qr_scan", "ios": "https://dc.lft.to/lastmile_qr_scan"}, "lat": 38.92790633333333, "is_reserved": 0, "is_disabled": 0, "fusion_lat": 0.0}, {"fusion_lon": 0.0, "bike_id": "c932b8d6299ba0ee50697cfe51b4900f", "name": "c932b8d6299ba0ee50697cfe51b4900f", "type": "electric_bike", "lon": -77.10028283333334, "rental_uris": {"android": "https://dc.lft.to/lastmile_qr_scan", "ios": "https://dc.lft.to/lastmile_qr_scan"}, "lat": 38.990656666666666, "is_reserved": 0, "is_disabled": 0, "fusion_lat": 0.0}, {"fusion_lon": 0.0, "bike_id": "f349247c7d0fd5515e1559c01a86e01d", "name": "f349247c7d0fd5515e1559c01a86e01d", "type": "electric_scooter", "lon": -77.02931016666666, "rental_uris": {"android": "https://dc.lft.to/lastmile_qr_scan", "ios": "https://dc.lft.to/lastmile_qr_scan"}, "lat": 38.914176833333336, "is_reserved": 0, "is_disabled": 0, "fusion_lat": 0.0}, {"fusion_lon": 0.0, "bike_id": "a090e9b58b1cdec61d752846c25f98dd", "name": "a090e9b58b1cdec61d752846c25f98dd", "type": "electric_scooter", "lon": -77.05917066666666, "rental_uris": {"android": "https://dc.lft.to/lastmile_qr_scan", "ios": "https://dc.lft.to/lastmile_qr_scan"}, "lat": 38.909976, "is_reserved": 0, "is_disabled": 0, "fusion_lat": 0.0}, {"fusion_lon": 0.0, "bike_id": "9c1cfa51cb1cf5f48b6d32995fbf036d", "name": "9c1cfa51cb1cf5f48b6d32995fbf036d", "type": "electric_bike", "lon": -76.87494616666666, "rental_uris": {"android": "https://dc.lft.to/lastmile_qr_scan", "ios": "https://dc.lft.to/lastmile_qr_scan"}, "lat": 38.99091516666667, "is_reserved": 0, "is_disabled": 0, "fusion_lat": 0.0}, {"fusion_lon": 0.0, "bike_id": "85d122e25d3406c23149837cfde20554", "name": "85d122e25d3406c23149837cfde20554", "type": "electric_scooter", "lon": -77.03052233333334, "rental_uris": {"android": "https://dc.lft.to/lastmile_qr_scan", "ios": "https://dc.lft.to/lastmile_qr_scan"}, "lat": 38.8841, "is_reserved": 0, "is_disabled": 0, "fusion_lat": 0.0}, {"fusion_lon": 0.0, "bike_id": "2fd33b1c27e39fa36eabd1133637c633", "name": "2fd33b1c27e39fa36eabd1133637c633", "type": "electric_scooter", "lon": -77.02795033333334, "rental_uris": {"android": "https://dc.lft.to/lastmile_qr_scan", "ios": "https://dc.lft.to/lastmile_qr_scan"}, "lat": 38.95094483333333, "is_reserved": 0, "is_disabled": 0, "fusion_lat": 0.0}, {"fusion_lon": 0.0, "bike_id": "a51f06ae377e34ac973b9eed80a37c50", "name": "a51f06ae377e34ac973b9eed80a37c50", "type": "electric_scooter", "lon": -76.99053033333334, "rental_uris": {"android": "https://dc.lft.to/lastmile_qr_scan", "ios": "https://dc.lft.to/lastmile_qr_scan"}, "lat": 38.85899766666667, "is_reserved": 0, "is_disabled": 0, "fusion_lat": 0.0}, {"fusion_lon": 0.0, "bike_id": "7a5712b8df23d45936748337460def7f", "name": "7a5712b8df23d45936748337460def7f", "type": "electric_scooter", "lon": -77.01983166666666, "rental_uris": {"android": "https://dc.lft.to/lastmile_qr_scan", "ios": "https://dc.lft.to/lastmile_qr_scan"}, "lat": 38.88356666666667, "is_reserved": 0, "is_disabled": 0, "fusion_lat": 0.0}, {"fusion_lon": 0.0, "bike_id": "15ae62d6d3b3c3c891fefeff9d9b1ca3", "name": "15ae62d6d3b3c3c891fefeff9d9b1ca3", "type": "electric_scooter", "lon": -77.02373283333333, "rental_uris": {"android": "https://dc.lft.to/lastmile_qr_scan", "ios": "https://dc.lft.to/lastmile_qr_scan"}, "lat": 38.91956483333333, "is_reserved": 0, "is_disabled": 0, "fusion_lat": 0.0}, {"fusion_lon": 0.0, "bike_id": "efdba0fc9e04238b5cd3e626b3d61351", "name": "efdba0fc9e04238b5cd3e626b3d61351", "type": "electric_scooter", "lon": -76.97727083333334, "rental_uris": {"android": "https://dc.lft.to/lastmile_qr_scan", "ios": "https://dc.lft.to/lastmile_qr_scan"}, "lat": 38.87244233333333, "is_reserved": 0, "is_disabled": 0, "fusion_lat": 0.0}, {"fusion_lon": 0.0, "bike_id": "a2ff45fd5dc9369356fd380f0107ffd8", "name": "a2ff45fd5dc9369356fd380f0107ffd8", "type": "electric_scooter", "lon": -77.05743666666666, "rental_uris": {"android": "https://dc.lft.to/lastmile_qr_scan", "ios": "https://dc.lft.to/lastmile_qr_scan"}, "lat": 38.924137333333334, "is_reserved": 0, "is_disabled": 0, "fusion_lat": 0.0}, {"fusion_lon": 0.0, "bike_id": "ad73d5ff8547940b4995d2bd92b169bc", "name": "ad73d5ff8547940b4995d2bd92b169bc", "type": "electric_bike", "lon": -76.954688, "rental_uris": {"android": "https://dc.lft.to/lastmile_qr_scan", "ios": "https://dc.lft.to/lastmile_qr_scan"}, "lat": 38.935726833333334, "is_reserved": 0, "is_disabled": 0, "fusion_lat": 0.0}, {"fusion_lon": 0.0, "bike_id": "db4fe8c52e667744474622bf026380cc", "name": "db4fe8c52e667744474622bf026380cc", "type": "electric_scooter", "lon": -77.00441133333334, "rental_uris": {"android": "https://dc.lft.to/lastmile_qr_scan", "ios": "https://dc.lft.to/lastmile_qr_scan"}, "lat": 38.876620333333335, "is_reserved": 0, "is_disabled": 0, "fusion_lat": 0.0}, {"fusion_lon": 0.0, "bike_id": "c75a038b40676d9646922bd7f1d145d6", "name": "c75a038b40676d9646922bd7f1d145d6", "type": "electric_scooter", "lon": -77.07225083333333, "rental_uris": {"android": "https://dc.lft.to/lastmile_qr_scan", "ios": "https://dc.lft.to/lastmile_qr_scan"}, "lat": 38.93457266666667, "is_reserved": 0, "is_disabled": 0, "fusion_lat": 0.0}, {"fusion_lon": 0.0, "bike_id": "2db5377eda709f5c06389a76f89c2dbd", "name": "2db5377eda709f5c06389a76f89c2dbd", "type": "electric_scooter", "lon": -77.02329916666666, "rental_uris": {"android": "https://dc.lft.to/lastmile_qr_scan", "ios": "https://dc.lft.to/lastmile_qr_scan"}, "lat": 38.91565416666667, "is_reserved": 0, "is_disabled": 0, "fusion_lat": 0.0}, {"fusion_lon": 0.0, "bike_id": "b43951e0f8b17fd8d4d5422a7f4a806d", "name": "b43951e0f8b17fd8d4d5422a7f4a806d", "type": "electric_scooter", "lon": -77.00195816666667, "rental_uris": {"android": "https://dc.lft.to/lastmile_qr_scan", "ios": "https://dc.lft.to/lastmile_qr_scan"}, "lat": 38.902339166666664, "is_reserved": 0, "is_disabled": 0, "fusion_lat": 0.0}, {"fusion_lon": 0.0, "bike_id": "0db59f22ce8f28518ffc80e82a52229c", "name": "0db59f22ce8f28518ffc80e82a52229c", "type": "electric_scooter", "lon": -76.97615316666666, "rental_uris": {"android": "https://dc.lft.to/lastmile_qr_scan", "ios": "https://dc.lft.to/lastmile_qr_scan"}, "lat": 38.9314315, "is_reserved": 0, "is_disabled": 0, "fusion_lat": 0.0}, {"fusion_lon": 0.0, "bike_id": "7f85c86bc6dc14f65a631699f6d57640", "name": "7f85c86bc6dc14f65a631699f6d57640", "type": "electric_scooter", "lon": -77.03357816666667, "rental_uris": {"android": "https://dc.lft.to/lastmile_qr_scan", "ios": "https://dc.lft.to/lastmile_qr_scan"}, "lat": 38.900235333333335, "is_reserved": 0, "is_disabled": 0, "fusion_lat": 0.0}, {"fusion_lon": 0.0, "bike_id": "9141e34542555da4dd0e535df87283ec", "name": "9141e34542555da4dd0e535df87283ec", "type": "electric_scooter", "lon": -77.0722835, "rental_uris": {"android": "https://dc.lft.to/lastmile_qr_scan", "ios": "https://dc.lft.to/lastmile_qr_scan"}, "lat": 38.9345985, "is_reserved": 0, "is_disabled": 0, "fusion_lat": 0.0}, {"fusion_lon": 0.0, "bike_id": "b173d22524bca9eca6c1588de0c072bf", "name": "b173d22524bca9eca6c1588de0c072bf", "type": "electric_scooter", "lon": -77.02288883333334, "rental_uris": {"android": "https://dc.lft.to/lastmile_qr_scan", "ios": "https://dc.lft.to/lastmile_qr_scan"}, "lat": 38.9171665, "is_reserved": 0, "is_disabled": 0, "fusion_lat": 0.0}, {"fusion_lon": 0.0, "bike_id": "16665f08047e7aa5c97f0000bfeba124", "name": "16665f08047e7aa5c97f0000bfeba124", "type": "electric_scooter", "lon": -77.04396916666667, "rental_uris": {"android": "https://dc.lft.to/lastmile_qr_scan", "ios": "https://dc.lft.to/lastmile_qr_scan"}, "lat": 38.9108275, "is_reserved": 0, "is_disabled": 0, "fusion_lat": 0.0}, {"fusion_lon": 0.0, "bike_id": "556db6c693cf685605d4e138cd6c4af2", "name": "556db6c693cf685605d4e138cd6c4af2", "type": "electric_bike", "lon": -76.96558733333333, "rental_uris": {"android": "https://dc.lft.to/lastmile_qr_scan", "ios": "https://dc.lft.to/lastmile_qr_scan"}, "lat": 38.95092966666667, "is_reserved": 0, "is_disabled": 0, "fusion_lat": 0.0}, {"fusion_lon": 0.0, "bike_id": "241612c2850d21dc980ac9f91af2cf47", "name": "241612c2850d21dc980ac9f91af2cf47", "type": "electric_scooter", "lon": -77.04081433333333, "rental_uris": {"android": "https://dc.lft.to/lastmile_qr_scan", "ios": "https://dc.lft.to/lastmile_qr_scan"}, "lat": 38.907787166666665, "is_reserved": 0, "is_disabled": 0, "fusion_lat": 0.0}, {"fusion_lon": 0.0, "bike_id": "bd19671ab70cf2f31a2ba07c13279da2", "name": "bd19671ab70cf2f31a2ba07c13279da2", "type": "electric_scooter", "lon": -77.04602683333333, "rental_uris": {"android": "https://dc.lft.to/lastmile_qr_scan", "ios": "https://dc.lft.to/lastmile_qr_scan"}, "lat": 38.91699116666667, "is_reserved": 0, "is_disabled": 0, "fusion_lat": 0.0}, {"fusion_lon": 0.0, "bike_id": "ef8485ac78f4a958f39e42b50a703edc", "name": "ef8485ac78f4a958f39e42b50a703edc", "type": "electric_scooter", "lon": -77.038326, "rental_uris": {"android": "https://dc.lft.to/lastmile_qr_scan", "ios": "https://dc.lft.to/lastmile_qr_scan"}, "lat": 38.91115933333333, "is_reserved": 0, "is_disabled": 0, "fusion_lat": 0.0}, {"fusion_lon": 0.0, "bike_id": "11904300c986db962501495840627adc", "name": "11904300c986db962501495840627adc", "type": "electric_scooter", "lon": -77.057879, "rental_uris": {"android": "https://dc.lft.to/lastmile_qr_scan", "ios": "https://dc.lft.to/lastmile_qr_scan"}, "lat": 38.934769833333334, "is_reserved": 0, "is_disabled": 0, "fusion_lat": 0.0}, {"fusion_lon": 0.0, "bike_id": "28a577912776fecf2e7c7739aa99d375", "name": "28a577912776fecf2e7c7739aa99d375", "type": "electric_scooter", "lon": -76.96525183333333, "rental_uris": {"android": "https://dc.lft.to/lastmile_qr_scan", "ios": "https://dc.lft.to/lastmile_qr_scan"}, "lat": 38.874804833333336, "is_reserved": 0, "is_disabled": 0, "fusion_lat": 0.0}, {"fusion_lon": 0.0, "bike_id": "f541753f5e9fc2b84c2a43f2657e5701", "name": "f541753f5e9fc2b84c2a43f2657e5701", "type": "electric_scooter", "lon": -77.023009, "rental_uris": {"android": "https://dc.lft.to/lastmile_qr_scan", "ios": "https://dc.lft.to/lastmile_qr_scan"}, "lat": 38.91792483333333, "is_reserved": 0, "is_disabled": 0, "fusion_lat": 0.0}, {"fusion_lon": 0.0, "bike_id": "75aea7679eb3aa5dd526c44d5d00680d", "name": "75aea7679eb3aa5dd526c44d5d00680d", "type": "electric_scooter", "lon": -77.03734416666667, "rental_uris": {"android": "https://dc.lft.to/lastmile_qr_scan", "ios": "https://dc.lft.to/lastmile_qr_scan"}, "lat": 38.92893333333333, "is_reserved": 0, "is_disabled": 0, "fusion_lat": 0.0}, {"fusion_lon": 0.0, "bike_id": "e6b568daba834fac3e6072e29b28108a", "name": "e6b568daba834fac3e6072e29b28108a", "type": "electric_bike", "lon": -76.96882483333333, "rental_uris": {"android": "https://dc.lft.to/lastmile_qr_scan", "ios": "https://dc.lft.to/lastmile_qr_scan"}, "lat": 38.84596583333333, "is_reserved": 0, "is_disabled": 0, "fusion_lat": 0.0}, {"fusion_lon": 0.0, "bike_id": "bc96dba6a2c4b0ffbb2414891c8bec67", "name": "bc96dba6a2c4b0ffbb2414891c8bec67", "type": "electric_scooter", "lon": -77.03449533333334, "rental_uris": {"android": "https://dc.lft.to/lastmile_qr_scan", "ios": "https://dc.lft.to/lastmile_qr_scan"}, "lat": 38.917137, "is_reserved": 0, "is_disabled": 0, "fusion_lat": 0.0}, {"fusion_lon": 0.0, "bike_id": "dab8672cf91d1e2a52e926d96120a5c6", "name": "dab8672cf91d1e2a52e926d96120a5c6", "type": "electric_scooter", "lon": -77.04183983333333, "rental_uris": {"android": "https://dc.lft.to/lastmile_qr_scan", "ios": "https://dc.lft.to/lastmile_qr_scan"}, "lat": 38.912595, "is_reserved": 0, "is_disabled": 0, "fusion_lat": 0.0}, {"fusion_lon": 0.0, "bike_id": "0cb846187b59882a3f2e3763c4be26b0", "name": "0cb846187b59882a3f2e3763c4be26b0", "type": "electric_scooter", "lon": -77.03932916666666, "rental_uris": {"android": "https://dc.lft.to/lastmile_qr_scan", "ios": "https://dc.lft.to/lastmile_qr_scan"}, "lat": 38.92494166666667, "is_reserved": 0, "is_disabled": 0, "fusion_lat": 0.0}, {"fusion_lon": 0.0, "bike_id": "d23cd749eb7dec3d079d12726f5874a7", "name": "d23cd749eb7dec3d079d12726f5874a7", "type": "electric_scooter", "lon": -77.02892816666666, "rental_uris": {"android": "https://dc.lft.to/lastmile_qr_scan", "ios": "https://dc.lft.to/lastmile_qr_scan"}, "lat": 38.92475783333333, "is_reserved": 0, "is_disabled": 0, "fusion_lat": 0.0}, {"fusion_lon": 0.0, "bike_id": "5079f1a01c7fd84b143e3596bd4b421c", "name": "5079f1a01c7fd84b143e3596bd4b421c", "type": "electric_scooter", "lon": -77.01962733333333, "rental_uris": {"android": "https://dc.lft.to/lastmile_qr_scan", "ios": "https://dc.lft.to/lastmile_qr_scan"}, "lat": 38.93041866666667, "is_reserved": 0, "is_disabled": 0, "fusion_lat": 0.0}, {"fusion_lon": 0.0, "bike_id": "3f414fef386f1ace84a9761b36499e84", "name": "3f414fef386f1ace84a9761b36499e84", "type": "electric_scooter", "lon": -77.01613033333334, "rental_uris": {"android": "https://dc.lft.to/lastmile_qr_scan", "ios": "https://dc.lft.to/lastmile_qr_scan"}, "lat": 38.878747833333335, "is_reserved": 0, "is_disabled": 0, "fusion_lat": 0.0}, {"fusion_lon": 0.0, "bike_id": "7ff7c187fd44ceec943bda386872f252", "name": "7ff7c187fd44ceec943bda386872f252", "type": "electric_scooter", "lon": -77.02150916666666, "rental_uris": {"android": "https://dc.lft.to/lastmile_qr_scan", "ios": "https://dc.lft.to/lastmile_qr_scan"}, "lat": 38.926013, "is_reserved": 0, "is_disabled": 0, "fusion_lat": 0.0}, {"fusion_lon": 0.0, "bike_id": "79a79582e0ac3f7c110b65964c30c3e5", "name": "79a79582e0ac3f7c110b65964c30c3e5", "type": "electric_scooter", "lon": -77.03530633333334, "rental_uris": {"android": "https://dc.lft.to/lastmile_qr_scan", "ios": "https://dc.lft.to/lastmile_qr_scan"}, "lat": 38.9246945, "is_reserved": 0, "is_disabled": 0, "fusion_lat": 0.0}, {"fusion_lon": 0.0, "bike_id": "25daf7da2cfaebfd769c8f6c09664954", "name": "25daf7da2cfaebfd769c8f6c09664954", "type": "electric_scooter", "lon": -77.0317815, "rental_uris": {"android": "https://dc.lft.to/lastmile_qr_scan", "ios": "https://dc.lft.to/lastmile_qr_scan"}, "lat": 38.89759133333333, "is_reserved": 0, "is_disabled": 0, "fusion_lat": 0.0}, {"fusion_lon": 0.0, "bike_id": "1d12f08263d9235024fb7aa106e72a9c", "name": "1d12f08263d9235024fb7aa106e72a9c", "type": "electric_scooter", "lon": -77.00874583333334, "rental_uris": {"android": "https://dc.lft.to/lastmile_qr_scan", "ios": "https://dc.lft.to/lastmile_qr_scan"}, "lat": 38.87322616666667, "is_reserved": 0, "is_disabled": 0, "fusion_lat": 0.0}, {"fusion_lon": 0.0, "bike_id": "f36508b7f72b37f78570a9d88d18a001", "name": "f36508b7f72b37f78570a9d88d18a001", "type": "electric_scooter", "lon": -77.016972, "rental_uris": {"android": "https://dc.lft.to/lastmile_qr_scan", "ios": "https://dc.lft.to/lastmile_qr_scan"}, "lat": 38.905198666666664, "is_reserved": 0, "is_disabled": 0, "fusion_lat": 0.0}, {"fusion_lon": 0.0, "bike_id": "8cc71bcc930d3b80ad75c824baac3976", "name": "8cc71bcc930d3b80ad75c824baac3976", "type": "electric_scooter", "lon": -76.98814733333333, "rental_uris": {"android": "https://dc.lft.to/lastmile_qr_scan", "ios": "https://dc.lft.to/lastmile_qr_scan"}, "lat": 38.88707933333333, "is_reserved": 0, "is_disabled": 0, "fusion_lat": 0.0}, {"fusion_lon": 0.0, "bike_id": "8a4066370e3fc8376dfb6e19df0e4585", "name": "8a4066370e3fc8376dfb6e19df0e4585", "type": "electric_scooter", "lon": -77.0476855, "rental_uris": {"android": "https://dc.lft.to/lastmile_qr_scan", "ios": "https://dc.lft.to/lastmile_qr_scan"}, "lat": 38.90853833333333, "is_reserved": 0, "is_disabled": 0, "fusion_lat": 0.0}, {"fusion_lon": 0.0, "bike_id": "594a48449a268d1d917783ef9cb53f07", "name": "594a48449a268d1d917783ef9cb53f07", "type": "electric_scooter", "lon": -76.987122, "rental_uris": {"android": "https://dc.lft.to/lastmile_qr_scan", "ios": "https://dc.lft.to/lastmile_qr_scan"}, "lat": 38.86697366666667, "is_reserved": 0, "is_disabled": 0, "fusion_lat": 0.0}, {"fusion_lon": 0.0, "bike_id": "bd4f1f5153592b8f16802c305576a08f", "name": "bd4f1f5153592b8f16802c305576a08f", "type": "electric_bike", "lon": -77.124979, "rental_uris": {"android": "https://dc.lft.to/lastmile_qr_scan", "ios": "https://dc.lft.to/lastmile_qr_scan"}, "lat": 39.024205, "is_reserved": 0, "is_disabled": 0, "fusion_lat": 0.0}, {"fusion_lon": 0.0, "bike_id": "9df30c51f99e5d86fb36098e8f6464e0", "name": "9df30c51f99e5d86fb36098e8f6464e0", "type": "electric_bike", "lon": -76.99561983333334, "rental_uris": {"android": "https://dc.lft.to/lastmile_qr_scan", "ios": "https://dc.lft.to/lastmile_qr_scan"}, "lat": 39.00783833333333, "is_reserved": 0, "is_disabled": 0, "fusion_lat": 0.0}, {"fusion_lon": 0.0, "bike_id": "743a853db690a1e5e53b4fd2f2e0d728", "name": "743a853db690a1e5e53b4fd2f2e0d728", "type": "electric_bike", "lon": -77.09561666666667, "rental_uris": {"android": "https://dc.lft.to/lastmile_qr_scan", "ios": "https://dc.lft.to/lastmile_qr_scan"}, "lat": 38.91705183333333, "is_reserved": 0, "is_disabled": 0, "fusion_lat": 0.0}, {"fusion_lon": 0.0, "bike_id": "317f8b3bb85eb812cffdbca41bdda6c9", "name": "317f8b3bb85eb812cffdbca41bdda6c9", "type": "electric_scooter", "lon": -77.02682316666667, "rental_uris": {"android": "https://dc.lft.to/lastmile_qr_scan", "ios": "https://dc.lft.to/lastmile_qr_scan"}, "lat": 38.89630966666667, "is_reserved": 0, "is_disabled": 0, "fusion_lat": 0.0}, {"fusion_lon": 0.0, "bike_id": "c1d28f48ff170551ca73c74f3154a28c", "name": "c1d28f48ff170551ca73c74f3154a28c", "type": "electric_scooter", "lon": -77.03210666666666, "rental_uris": {"android": "https://dc.lft.to/lastmile_qr_scan", "ios": "https://dc.lft.to/lastmile_qr_scan"}, "lat": 38.925804666666664, "is_reserved": 0, "is_disabled": 0, "fusion_lat": 0.0}, {"fusion_lon": 0.0, "bike_id": "13917bd6736c76d046a271ac66a6fc72", "name": "13917bd6736c76d046a271ac66a6fc72", "type": "electric_scooter", "lon": -77.0470335, "rental_uris": {"android": "https://dc.lft.to/lastmile_qr_scan", "ios": "https://dc.lft.to/lastmile_qr_scan"}, "lat": 38.916796833333336, "is_reserved": 0, "is_disabled": 0, "fusion_lat": 0.0}, {"fusion_lon": 0.0, "bike_id": "33a6fe43bb7ed073439dfe219cfbf9d6", "name": "33a6fe43bb7ed073439dfe219cfbf9d6", "type": "electric_scooter", "lon": -77.02892466666667, "rental_uris": {"android": "https://dc.lft.to/lastmile_qr_scan", "ios": "https://dc.lft.to/lastmile_qr_scan"}, "lat": 38.904534, "is_reserved": 0, "is_disabled": 0, "fusion_lat": 0.0}, {"fusion_lon": 0.0, "bike_id": "6dff43169e96575d60305dc46e14cf10", "name": "6dff43169e96575d60305dc46e14cf10", "type": "electric_scooter", "lon": -77.0350925, "rental_uris": {"android": "https://dc.lft.to/lastmile_qr_scan", "ios": "https://dc.lft.to/lastmile_qr_scan"}, "lat": 38.91834383333333, "is_reserved": 0, "is_disabled": 0, "fusion_lat": 0.0}, {"fusion_lon": 0.0, "bike_id": "a4b2469225b7433a0e7f43038c3f578d", "name": "a4b2469225b7433a0e7f43038c3f578d", "type": "electric_scooter", "lon": -77.03090616666667, "rental_uris": {"android": "https://dc.lft.to/lastmile_qr_scan", "ios": "https://dc.lft.to/lastmile_qr_scan"}, "lat": 38.9171905, "is_reserved": 0, "is_disabled": 0, "fusion_lat": 0.0}, {"fusion_lon": 0.0, "bike_id": "6d5e5ff44363e3ac198df42c5005eba5", "name": "6d5e5ff44363e3ac198df42c5005eba5", "type": "electric_scooter", "lon": -77.06032716666667, "rental_uris": {"android": "https://dc.lft.to/lastmile_qr_scan", "ios": "https://dc.lft.to/lastmile_qr_scan"}, "lat": 38.939458333333334, "is_reserved": 0, "is_disabled": 0, "fusion_lat": 0.0}, {"fusion_lon": 0.0, "bike_id": "f5ea99e36b77800fbff332743e69c173", "name": "f5ea99e36b77800fbff332743e69c173", "type": "electric_bike", "lon": -77.02101333333333, "rental_uris": {"android": "https://dc.lft.to/lastmile_qr_scan", "ios": "https://dc.lft.to/lastmile_qr_scan"}, "lat": 39.022966333333336, "is_reserved": 0, "is_disabled": 0, "fusion_lat": 0.0}, {"fusion_lon": 0.0, "bike_id": "d03d08bfd991e491869a15869516a405", "name": "d03d08bfd991e491869a15869516a405", "type": "electric_bike", "lon": -77.1289645, "rental_uris": {"android": "https://dc.lft.to/lastmile_qr_scan", "ios": "https://dc.lft.to/lastmile_qr_scan"}, "lat": 38.863776, "is_reserved": 0, "is_disabled": 0, "fusion_lat": 0.0}, {"fusion_lon": 0.0, "bike_id": "8a2939358f2f773e63fc286a5603bd25", "name": "8a2939358f2f773e63fc286a5603bd25", "type": "electric_scooter", "lon": -77.03945783333333, "rental_uris": {"android": "https://dc.lft.to/lastmile_qr_scan", "ios": "https://dc.lft.to/lastmile_qr_scan"}, "lat": 38.909655666666666, "is_reserved": 0, "is_disabled": 0, "fusion_lat": 0.0}, {"fusion_lon": 0.0, "bike_id": "41281eba7687c19d7d1709342e1b57b8", "name": "41281eba7687c19d7d1709342e1b57b8", "type": "electric_scooter", "lon": -77.047847, "rental_uris": {"android": "https://dc.lft.to/lastmile_qr_scan", "ios": "https://dc.lft.to/lastmile_qr_scan"}, "lat": 38.902476, "is_reserved": 0, "is_disabled": 0, "fusion_lat": 0.0}, {"fusion_lon": 0.0, "bike_id": "dc4937a2351588f8bea7059797375aef", "name": "dc4937a2351588f8bea7059797375aef", "type": "electric_scooter", "lon": -77.07439266666667, "rental_uris": {"android": "https://dc.lft.to/lastmile_qr_scan", "ios": "https://dc.lft.to/lastmile_qr_scan"}, "lat": 38.910948833333336, "is_reserved": 0, "is_disabled": 0, "fusion_lat": 0.0}, {"fusion_lon": 0.0, "bike_id": "4989315a78d06f9cd3cad9514219d900", "name": "4989315a78d06f9cd3cad9514219d900", "type": "electric_scooter", "lon": -77.0271445, "rental_uris": {"android": "https://dc.lft.to/lastmile_qr_scan", "ios": "https://dc.lft.to/lastmile_qr_scan"}, "lat": 38.94088833333333, "is_reserved": 0, "is_disabled": 0, "fusion_lat": 0.0}, {"fusion_lon": 0.0, "bike_id": "e83d9765b76577d8f5eb2a6f98ac4518", "name": "e83d9765b76577d8f5eb2a6f98ac4518", "type": "electric_scooter", "lon": -77.0091355, "rental_uris": {"android": "https://dc.lft.to/lastmile_qr_scan", "ios": "https://dc.lft.to/lastmile_qr_scan"}, "lat": 38.959501333333336, "is_reserved": 0, "is_disabled": 0, "fusion_lat": 0.0}, {"fusion_lon": 0.0, "bike_id": "b879d9d9849e74f24d003cef17749de5", "name": "b879d9d9849e74f24d003cef17749de5", "type": "electric_scooter", "lon": -76.999577, "rental_uris": {"android": "https://dc.lft.to/lastmile_qr_scan", "ios": "https://dc.lft.to/lastmile_qr_scan"}, "lat": 38.9038745, "is_reserved": 0, "is_disabled": 0, "fusion_lat": 0.0}, {"fusion_lon": 0.0, "bike_id": "2da46c7b0bd58bd178deef0fab840e06", "name": "2da46c7b0bd58bd178deef0fab840e06", "type": "electric_scooter", "lon": -76.99690066666666, "rental_uris": {"android": "https://dc.lft.to/lastmile_qr_scan", "ios": "https://dc.lft.to/lastmile_qr_scan"}, "lat": 38.86033283333333, "is_reserved": 0, "is_disabled": 0, "fusion_lat": 0.0}, {"fusion_lon": 0.0, "bike_id": "d6f9250719c169098f7f82d66bb6d6ff", "name": "d6f9250719c169098f7f82d66bb6d6ff", "type": "electric_bike", "lon": -77.09578316666666, "rental_uris": {"android": "https://dc.lft.to/lastmile_qr_scan", "ios": "https://dc.lft.to/lastmile_qr_scan"}, "lat": 38.83790583333333, "is_reserved": 0, "is_disabled": 0, "fusion_lat": 0.0}, {"fusion_lon": 0.0, "bike_id": "c73c95351e981797bbcccc3944a61d8c", "name": "c73c95351e981797bbcccc3944a61d8c", "type": "electric_scooter", "lon": -77.04169, "rental_uris": {"android": "https://dc.lft.to/lastmile_qr_scan", "ios": "https://dc.lft.to/lastmile_qr_scan"}, "lat": 38.91093883333333, "is_reserved": 0, "is_disabled": 0, "fusion_lat": 0.0}, {"fusion_lon": 0.0, "bike_id": "7d541eec8d15bed0e2fd94421d05fe61", "name": "7d541eec8d15bed0e2fd94421d05fe61", "type": "electric_scooter", "lon": -76.94881316666667, "rental_uris": {"android": "https://dc.lft.to/lastmile_qr_scan", "ios": "https://dc.lft.to/lastmile_qr_scan"}, "lat": 38.89507283333333, "is_reserved": 0, "is_disabled": 0, "fusion_lat": 0.0}, {"fusion_lon": 0.0, "bike_id": "9acdb22b8c3119df3aa53301913f0977", "name": "9acdb22b8c3119df3aa53301913f0977", "type": "electric_scooter", "lon": -77.05004216666667, "rental_uris": {"android": "https://dc.lft.to/lastmile_qr_scan", "ios": "https://dc.lft.to/lastmile_qr_scan"}, "lat": 38.89231933333333, "is_reserved": 0, "is_disabled": 0, "fusion_lat": 0.0}, {"fusion_lon": 0.0, "bike_id": "8de54c1c74e570c6b3bb58b3da888028", "name": "8de54c1c74e570c6b3bb58b3da888028", "type": "electric_scooter", "lon": -77.0386725, "rental_uris": {"android": "https://dc.lft.to/lastmile_qr_scan", "ios": "https://dc.lft.to/lastmile_qr_scan"}, "lat": 38.91562416666667, "is_reserved": 0, "is_disabled": 0, "fusion_lat": 0.0}, {"fusion_lon": 0.0, "bike_id": "0fe92e8bcac2ca9feca0fd963be488dd", "name": "0fe92e8bcac2ca9feca0fd963be488dd", "type": "electric_scooter", "lon": -77.025758, "rental_uris": {"android": "https://dc.lft.to/lastmile_qr_scan", "ios": "https://dc.lft.to/lastmile_qr_scan"}, "lat": 38.899662, "is_reserved": 0, "is_disabled": 0, "fusion_lat": 0.0}, {"fusion_lon": 0.0, "bike_id": "395ce75375e565a66508cd6c76d3cdee", "name": "395ce75375e565a66508cd6c76d3cdee", "type": "electric_scooter", "lon": -77.02204816666666, "rental_uris": {"android": "https://dc.lft.to/lastmile_qr_scan", "ios": "https://dc.lft.to/lastmile_qr_scan"}, "lat": 38.90570816666666, "is_reserved": 0, "is_disabled": 0, "fusion_lat": 0.0}, {"fusion_lon": 0.0, "bike_id": "ff1017d3681c96dd18dcaaca877a3a18", "name": "ff1017d3681c96dd18dcaaca877a3a18", "type": "electric_scooter", "lon": -77.038644, "rental_uris": {"android": "https://dc.lft.to/lastmile_qr_scan", "ios": "https://dc.lft.to/lastmile_qr_scan"}, "lat": 38.9156135, "is_reserved": 0, "is_disabled": 0, "fusion_lat": 0.0}, {"fusion_lon": 0.0, "bike_id": "c5f5f40991f164ad7ddb5e86b2935d67", "name": "c5f5f40991f164ad7ddb5e86b2935d67", "type": "electric_scooter", "lon": -77.04647333333334, "rental_uris": {"android": "https://dc.lft.to/lastmile_qr_scan", "ios": "https://dc.lft.to/lastmile_qr_scan"}, "lat": 38.904217333333335, "is_reserved": 0, "is_disabled": 0, "fusion_lat": 0.0}, {"fusion_lon": 0.0, "bike_id": "9931bb096980ea4bb0ad990836fa7e5c", "name": "9931bb096980ea4bb0ad990836fa7e5c", "type": "electric_scooter", "lon": -76.99224716666667, "rental_uris": {"android": "https://dc.lft.to/lastmile_qr_scan", "ios": "https://dc.lft.to/lastmile_qr_scan"}, "lat": 38.89883116666667, "is_reserved": 0, "is_disabled": 0, "fusion_lat": 0.0}, {"fusion_lon": 0.0, "bike_id": "f078348a3f996feda04e1054daab7925", "name": "f078348a3f996feda04e1054daab7925", "type": "electric_bike", "lon": -77.1477535, "rental_uris": {"android": "https://dc.lft.to/lastmile_qr_scan", "ios": "https://dc.lft.to/lastmile_qr_scan"}, "lat": 39.095913, "is_reserved": 0, "is_disabled": 0, "fusion_lat": 0.0}, {"fusion_lon": 0.0, "bike_id": "f445e62dcc59baad80e0519a905944dc", "name": "f445e62dcc59baad80e0519a905944dc", "type": "electric_scooter", "lon": -77.02386083333333, "rental_uris": {"android": "https://dc.lft.to/lastmile_qr_scan", "ios": "https://dc.lft.to/lastmile_qr_scan"}, "lat": 38.920748333333336, "is_reserved": 0, "is_disabled": 0, "fusion_lat": 0.0}, {"fusion_lon": 0.0, "bike_id": "9e33bc5d2e6a2feacd4b43e42be2db22", "name": "9e33bc5d2e6a2feacd4b43e42be2db22", "type": "electric_scooter", "lon": -77.05518533333333, "rental_uris": {"android": "https://dc.lft.to/lastmile_qr_scan", "ios": "https://dc.lft.to/lastmile_qr_scan"}, "lat": 38.91058966666667, "is_reserved": 0, "is_disabled": 0, "fusion_lat": 0.0}, {"fusion_lon": 0.0, "bike_id": "7f60e17ce44481b0037752107900c3e7", "name": "7f60e17ce44481b0037752107900c3e7", "type": "electric_scooter", "lon": -77.0385645, "rental_uris": {"android": "https://dc.lft.to/lastmile_qr_scan", "ios": "https://dc.lft.to/lastmile_qr_scan"}, "lat": 38.91841316666667, "is_reserved": 0, "is_disabled": 0, "fusion_lat": 0.0}, {"fusion_lon": 0.0, "bike_id": "810f37b8ef926af625ca46238e0fb91e", "name": "810f37b8ef926af625ca46238e0fb91e", "type": "electric_scooter", "lon": -77.06661316666667, "rental_uris": {"android": "https://dc.lft.to/lastmile_qr_scan", "ios": "https://dc.lft.to/lastmile_qr_scan"}, "lat": 38.94964433333333, "is_reserved": 0, "is_disabled": 0, "fusion_lat": 0.0}, {"fusion_lon": 0.0, "bike_id": "fcd55bf657c3af22ba42c169033c91dd", "name": "fcd55bf657c3af22ba42c169033c91dd", "type": "electric_scooter", "lon": -76.982547, "rental_uris": {"android": "https://dc.lft.to/lastmile_qr_scan", "ios": "https://dc.lft.to/lastmile_qr_scan"}, "lat": 38.863582, "is_reserved": 0, "is_disabled": 0, "fusion_lat": 0.0}, {"fusion_lon": 0.0, "bike_id": "bd6f11b2efa6c23ff6915379feb91f9f", "name": "bd6f11b2efa6c23ff6915379feb91f9f", "type": "electric_scooter", "lon": -77.02165733333334, "rental_uris": {"android": "https://dc.lft.to/lastmile_qr_scan", "ios": "https://dc.lft.to/lastmile_qr_scan"}, "lat": 38.919776166666665, "is_reserved": 0, "is_disabled": 0, "fusion_lat": 0.0}, {"fusion_lon": 0.0, "bike_id": "7ad41c79c9d1530b0f2f3778bc76e3a1", "name": "7ad41c79c9d1530b0f2f3778bc76e3a1", "type": "electric_scooter", "lon": -77.03212, "rental_uris": {"android": "https://dc.lft.to/lastmile_qr_scan", "ios": "https://dc.lft.to/lastmile_qr_scan"}, "lat": 38.925751166666664, "is_reserved": 0, "is_disabled": 0, "fusion_lat": 0.0}, {"fusion_lon": 0.0, "bike_id": "60db1dcd4fbbe5549fabfe857e439eaa", "name": "60db1dcd4fbbe5549fabfe857e439eaa", "type": "electric_bike", "lon": -76.99764466666667, "rental_uris": {"android": "https://dc.lft.to/lastmile_qr_scan", "ios": "https://dc.lft.to/lastmile_qr_scan"}, "lat": 39.005959833333335, "is_reserved": 0, "is_disabled": 0, "fusion_lat": 0.0}, {"fusion_lon": 0.0, "bike_id": "3eea9cfc1f2fe24b355d9b0ca02600ff", "name": "3eea9cfc1f2fe24b355d9b0ca02600ff", "type": "electric_scooter", "lon": -76.98272783333333, "rental_uris": {"android": "https://dc.lft.to/lastmile_qr_scan", "ios": "https://dc.lft.to/lastmile_qr_scan"}, "lat": 38.88536033333333, "is_reserved": 0, "is_disabled": 0, "fusion_lat": 0.0}, {"fusion_lon": 0.0, "bike_id": "1ba544a7d648acee295bfd9f41065c9d", "name": "1ba544a7d648acee295bfd9f41065c9d", "type": "electric_bike", "lon": -77.11426183333333, "rental_uris": {"android": "https://dc.lft.to/lastmile_qr_scan", "ios": "https://dc.lft.to/lastmile_qr_scan"}, "lat": 38.8524705, "is_reserved": 0, "is_disabled": 0, "fusion_lat": 0.0}, {"fusion_lon": 0.0, "bike_id": "1e618da3e62afa2a90286bc089788404", "name": "1e618da3e62afa2a90286bc089788404", "type": "electric_scooter", "lon": -77.048109, "rental_uris": {"android": "https://dc.lft.to/lastmile_qr_scan", "ios": "https://dc.lft.to/lastmile_qr_scan"}, "lat": 38.902429, "is_reserved": 0, "is_disabled": 0, "fusion_lat": 0.0}, {"fusion_lon": 0.0, "bike_id": "bb4c707715c57ceb34869277bb0325f3", "name": "bb4c707715c57ceb34869277bb0325f3", "type": "electric_scooter", "lon": -77.001634, "rental_uris": {"android": "https://dc.lft.to/lastmile_qr_scan", "ios": "https://dc.lft.to/lastmile_qr_scan"}, "lat": 38.907169833333334, "is_reserved": 0, "is_disabled": 0, "fusion_lat": 0.0}, {"fusion_lon": 0.0, "bike_id": "ac680c3d9a295676a7b7bbc9531b10ab", "name": "ac680c3d9a295676a7b7bbc9531b10ab", "type": "electric_scooter", "lon": -77.04511666666667, "rental_uris": {"android": "https://dc.lft.to/lastmile_qr_scan", "ios": "https://dc.lft.to/lastmile_qr_scan"}, "lat": 38.921420833333336, "is_reserved": 0, "is_disabled": 0, "fusion_lat": 0.0}, {"fusion_lon": 0.0, "bike_id": "7e38321ce4f22470bb41f8652c4cfb22", "name": "7e38321ce4f22470bb41f8652c4cfb22", "type": "electric_scooter", "lon": -77.01881233333333, "rental_uris": {"android": "https://dc.lft.to/lastmile_qr_scan", "ios": "https://dc.lft.to/lastmile_qr_scan"}, "lat": 38.946405666666664, "is_reserved": 0, "is_disabled": 0, "fusion_lat": 0.0}, {"fusion_lon": 0.0, "bike_id": "1062cf3aee6652fbb99caa7e064875d4", "name": "1062cf3aee6652fbb99caa7e064875d4", "type": "electric_scooter", "lon": -76.98947816666667, "rental_uris": {"android": "https://dc.lft.to/lastmile_qr_scan", "ios": "https://dc.lft.to/lastmile_qr_scan"}, "lat": 38.84401966666667, "is_reserved": 0, "is_disabled": 0, "fusion_lat": 0.0}, {"fusion_lon": 0.0, "bike_id": "6e2c2656cf7e9bdcf53d66d327806d29", "name": "6e2c2656cf7e9bdcf53d66d327806d29", "type": "electric_scooter", "lon": -77.0269705, "rental_uris": {"android": "https://dc.lft.to/lastmile_qr_scan", "ios": "https://dc.lft.to/lastmile_qr_scan"}, "lat": 38.909798333333335, "is_reserved": 0, "is_disabled": 0, "fusion_lat": 0.0}, {"fusion_lon": 0.0, "bike_id": "787ca85ad06086e3c6a9420a4ab75967", "name": "787ca85ad06086e3c6a9420a4ab75967", "type": "electric_scooter", "lon": -77.013473, "rental_uris": {"android": "https://dc.lft.to/lastmile_qr_scan", "ios": "https://dc.lft.to/lastmile_qr_scan"}, "lat": 38.90725616666667, "is_reserved": 0, "is_disabled": 0, "fusion_lat": 0.0}, {"fusion_lon": 0.0, "bike_id": "e2c53fde64900e083a5fec2010d3f29d", "name": "e2c53fde64900e083a5fec2010d3f29d", "type": "electric_scooter", "lon": -77.03664233333333, "rental_uris": {"android": "https://dc.lft.to/lastmile_qr_scan", "ios": "https://dc.lft.to/lastmile_qr_scan"}, "lat": 38.92706, "is_reserved": 0, "is_disabled": 0, "fusion_lat": 0.0}, {"fusion_lon": 0.0, "bike_id": "0f39a78c64c36af9db30f73281c4d6a3", "name": "0f39a78c64c36af9db30f73281c4d6a3", "type": "electric_scooter", "lon": -76.99148633333333, "rental_uris": {"android": "https://dc.lft.to/lastmile_qr_scan", "ios": "https://dc.lft.to/lastmile_qr_scan"}, "lat": 38.897651333333336, "is_reserved": 0, "is_disabled": 0, "fusion_lat": 0.0}, {"fusion_lon": 0.0, "bike_id": "1448bbf5f28f13029e860158114d4230", "name": "1448bbf5f28f13029e860158114d4230", "type": "electric_scooter", "lon": -76.9945715, "rental_uris": {"android": "https://dc.lft.to/lastmile_qr_scan", "ios": "https://dc.lft.to/lastmile_qr_scan"}, "lat": 38.92285783333333, "is_reserved": 0, "is_disabled": 0, "fusion_lat": 0.0}, {"fusion_lon": 0.0, "bike_id": "ce5caecc7f4eb1746ab39a0d6c0df0a1", "name": "ce5caecc7f4eb1746ab39a0d6c0df0a1", "type": "electric_scooter", "lon": -77.04666833333333, "rental_uris": {"android": "https://dc.lft.to/lastmile_qr_scan", "ios": "https://dc.lft.to/lastmile_qr_scan"}, "lat": 38.907167333333334, "is_reserved": 0, "is_disabled": 0, "fusion_lat": 0.0}, {"fusion_lon": 0.0, "bike_id": "752e11ad672160123fdd03b0de6f10a8", "name": "752e11ad672160123fdd03b0de6f10a8", "type": "electric_scooter", "lon": -76.98764133333333, "rental_uris": {"android": "https://dc.lft.to/lastmile_qr_scan", "ios": "https://dc.lft.to/lastmile_qr_scan"}, "lat": 38.883122166666666, "is_reserved": 0, "is_disabled": 0, "fusion_lat": 0.0}, {"fusion_lon": 0.0, "bike_id": "d5bd07844bbc9190bb159182ebc84e58", "name": "d5bd07844bbc9190bb159182ebc84e58", "type": "electric_scooter", "lon": -77.0378885, "rental_uris": {"android": "https://dc.lft.to/lastmile_qr_scan", "ios": "https://dc.lft.to/lastmile_qr_scan"}, "lat": 38.93322833333333, "is_reserved": 0, "is_disabled": 0, "fusion_lat": 0.0}, {"fusion_lon": 0.0, "bike_id": "5792c5cec3eee1e7e2fa44f39eb54e39", "name": "5792c5cec3eee1e7e2fa44f39eb54e39", "type": "electric_bike", "lon": -76.94613383333333, "rental_uris": {"android": "https://dc.lft.to/lastmile_qr_scan", "ios": "https://dc.lft.to/lastmile_qr_scan"}, "lat": 38.8322945, "is_reserved": 0, "is_disabled": 0, "fusion_lat": 0.0}, {"fusion_lon": 0.0, "bike_id": "e752461a8f273192b7574e426d7b05d7", "name": "e752461a8f273192b7574e426d7b05d7", "type": "electric_scooter", "lon": -77.07100066666666, "rental_uris": {"android": "https://dc.lft.to/lastmile_qr_scan", "ios": "https://dc.lft.to/lastmile_qr_scan"}, "lat": 38.919703, "is_reserved": 0, "is_disabled": 0, "fusion_lat": 0.0}, {"fusion_lon": 0.0, "bike_id": "f55717c09e699e7dd938cc9147dd983e", "name": "f55717c09e699e7dd938cc9147dd983e", "type": "electric_scooter", "lon": -77.0137055, "rental_uris": {"android": "https://dc.lft.to/lastmile_qr_scan", "ios": "https://dc.lft.to/lastmile_qr_scan"}, "lat": 38.892200333333335, "is_reserved": 0, "is_disabled": 0, "fusion_lat": 0.0}, {"fusion_lon": 0.0, "bike_id": "0715849f816f59794913c7d548f45c2a", "name": "0715849f816f59794913c7d548f45c2a", "type": "electric_scooter", "lon": -77.04609483333333, "rental_uris": {"android": "https://dc.lft.to/lastmile_qr_scan", "ios": "https://dc.lft.to/lastmile_qr_scan"}, "lat": 38.90066233333334, "is_reserved": 0, "is_disabled": 0, "fusion_lat": 0.0}, {"fusion_lon": 0.0, "bike_id": "4d57450559df699c3f2ffe225c9b747e", "name": "4d57450559df699c3f2ffe225c9b747e", "type": "electric_bike", "lon": -76.98957333333334, "rental_uris": {"android": "https://dc.lft.to/lastmile_qr_scan", "ios": "https://dc.lft.to/lastmile_qr_scan"}, "lat": 38.88916016666667, "is_reserved": 0, "is_disabled": 0, "fusion_lat": 0.0}, {"fusion_lon": 0.0, "bike_id": "624d8d4fcbefe6c7f9f763cd493a7b20", "name": "624d8d4fcbefe6c7f9f763cd493a7b20", "type": "electric_scooter", "lon": -77.04391033333333, "rental_uris": {"android": "https://dc.lft.to/lastmile_qr_scan", "ios": "https://dc.lft.to/lastmile_qr_scan"}, "lat": 38.893943166666666, "is_reserved": 0, "is_disabled": 0, "fusion_lat": 0.0}, {"fusion_lon": 0.0, "bike_id": "8d54676e3581a6af53319c3512713ebf", "name": "8d54676e3581a6af53319c3512713ebf", "type": "electric_scooter", "lon": -77.0050575, "rental_uris": {"android": "https://dc.lft.to/lastmile_qr_scan", "ios": "https://dc.lft.to/lastmile_qr_scan"}, "lat": 38.87939983333333, "is_reserved": 0, "is_disabled": 0, "fusion_lat": 0.0}, {"fusion_lon": 0.0, "bike_id": "fa9d3601c52eeca60c89f701f3af8fd1", "name": "fa9d3601c52eeca60c89f701f3af8fd1", "type": "electric_scooter", "lon": -77.037071, "rental_uris": {"android": "https://dc.lft.to/lastmile_qr_scan", "ios": "https://dc.lft.to/lastmile_qr_scan"}, "lat": 38.926340333333336, "is_reserved": 0, "is_disabled": 0, "fusion_lat": 0.0}, {"fusion_lon": 0.0, "bike_id": "904c1e54d6c0bc4ac0a5806d6f67a56f", "name": "904c1e54d6c0bc4ac0a5806d6f67a56f", "type": "electric_scooter", "lon": -77.02028, "rental_uris": {"android": "https://dc.lft.to/lastmile_qr_scan", "ios": "https://dc.lft.to/lastmile_qr_scan"}, "lat": 38.88124283333333, "is_reserved": 0, "is_disabled": 0, "fusion_lat": 0.0}, {"fusion_lon": 0.0, "bike_id": "6158efa9037a487178f8f8198265519e", "name": "6158efa9037a487178f8f8198265519e", "type": "electric_bike", "lon": -76.9719165, "rental_uris": {"android": "https://dc.lft.to/lastmile_qr_scan", "ios": "https://dc.lft.to/lastmile_qr_scan"}, "lat": 38.8924895, "is_reserved": 0, "is_disabled": 0, "fusion_lat": 0.0}, {"fusion_lon": 0.0, "bike_id": "9c1da44ba4fcb664861c7f85eb9bffbd", "name": "9c1da44ba4fcb664861c7f85eb9bffbd", "type": "electric_scooter", "lon": -77.03202066666667, "rental_uris": {"android": "https://dc.lft.to/lastmile_qr_scan", "ios": "https://dc.lft.to/lastmile_qr_scan"}, "lat": 38.917392166666666, "is_reserved": 0, "is_disabled": 0, "fusion_lat": 0.0}, {"fusion_lon": 0.0, "bike_id": "74e5f0454456852d4ca968c1197b3b75", "name": "74e5f0454456852d4ca968c1197b3b75", "type": "electric_scooter", "lon": -77.0259095, "rental_uris": {"android": "https://dc.lft.to/lastmile_qr_scan", "ios": "https://dc.lft.to/lastmile_qr_scan"}, "lat": 38.90494433333333, "is_reserved": 0, "is_disabled": 0, "fusion_lat": 0.0}, {"fusion_lon": 0.0, "bike_id": "37e2cd0239821db9aa6ffff14c9b1dcc", "name": "37e2cd0239821db9aa6ffff14c9b1dcc", "type": "electric_scooter", "lon": -77.01209633333333, "rental_uris": {"android": "https://dc.lft.to/lastmile_qr_scan", "ios": "https://dc.lft.to/lastmile_qr_scan"}, "lat": 38.916691166666666, "is_reserved": 0, "is_disabled": 0, "fusion_lat": 0.0}, {"fusion_lon": 0.0, "bike_id": "0521933ae91e2b2a9da22ca583898214", "name": "0521933ae91e2b2a9da22ca583898214", "type": "electric_scooter", "lon": -77.0348925, "rental_uris": {"android": "https://dc.lft.to/lastmile_qr_scan", "ios": "https://dc.lft.to/lastmile_qr_scan"}, "lat": 38.92491533333333, "is_reserved": 0, "is_disabled": 0, "fusion_lat": 0.0}, {"fusion_lon": 0.0, "bike_id": "f7fb76dd8731fb24b3a3e7447543d34d", "name": "f7fb76dd8731fb24b3a3e7447543d34d", "type": "electric_scooter", "lon": -76.9868465, "rental_uris": {"android": "https://dc.lft.to/lastmile_qr_scan", "ios": "https://dc.lft.to/lastmile_qr_scan"}, "lat": 38.8853295, "is_reserved": 0, "is_disabled": 0, "fusion_lat": 0.0}, {"fusion_lon": 0.0, "bike_id": "86ce4f99a1551191edf272c2f59c8e31", "name": "86ce4f99a1551191edf272c2f59c8e31", "type": "electric_scooter", "lon": -77.02681183333333, "rental_uris": {"android": "https://dc.lft.to/lastmile_qr_scan", "ios": "https://dc.lft.to/lastmile_qr_scan"}, "lat": 38.896458833333334, "is_reserved": 0, "is_disabled": 0, "fusion_lat": 0.0}, {"fusion_lon": 0.0, "bike_id": "c2f4a80a35b92c7b937f5c24626a5c13", "name": "c2f4a80a35b92c7b937f5c24626a5c13", "type": "electric_scooter", "lon": -77.03437283333334, "rental_uris": {"android": "https://dc.lft.to/lastmile_qr_scan", "ios": "https://dc.lft.to/lastmile_qr_scan"}, "lat": 38.907190666666665, "is_reserved": 0, "is_disabled": 0, "fusion_lat": 0.0}, {"fusion_lon": 0.0, "bike_id": "ff5ec8339a4c3471820a7ceacc3b7bfd", "name": "ff5ec8339a4c3471820a7ceacc3b7bfd", "type": "electric_scooter", "lon": -77.02956033333334, "rental_uris": {"android": "https://dc.lft.to/lastmile_qr_scan", "ios": "https://dc.lft.to/lastmile_qr_scan"}, "lat": 38.905001, "is_reserved": 0, "is_disabled": 0, "fusion_lat": 0.0}, {"fusion_lon": 0.0, "bike_id": "e7e7a820863cc4133a3493a6cee86011", "name": "e7e7a820863cc4133a3493a6cee86011", "type": "electric_scooter", "lon": -77.03453633333334, "rental_uris": {"android": "https://dc.lft.to/lastmile_qr_scan", "ios": "https://dc.lft.to/lastmile_qr_scan"}, "lat": 38.91805016666667, "is_reserved": 0, "is_disabled": 0, "fusion_lat": 0.0}, {"fusion_lon": 0.0, "bike_id": "2e00b8b8a67230f46c7e3ca79177938e", "name": "2e00b8b8a67230f46c7e3ca79177938e", "type": "electric_bike", "lon": -77.10728316666666, "rental_uris": {"android": "https://dc.lft.to/lastmile_qr_scan", "ios": "https://dc.lft.to/lastmile_qr_scan"}, "lat": 38.8553005, "is_reserved": 0, "is_disabled": 0, "fusion_lat": 0.0}, {"fusion_lon": 0.0, "bike_id": "ad17b713a0ae2c30e3b6989f177b3889", "name": "ad17b713a0ae2c30e3b6989f177b3889", "type": "electric_scooter", "lon": -77.022191, "rental_uris": {"android": "https://dc.lft.to/lastmile_qr_scan", "ios": "https://dc.lft.to/lastmile_qr_scan"}, "lat": 38.91266383333333, "is_reserved": 0, "is_disabled": 0, "fusion_lat": 0.0}, {"fusion_lon": 0.0, "bike_id": "a5489250c1dba646ed84a11946bb4fea", "name": "a5489250c1dba646ed84a11946bb4fea", "type": "electric_bike", "lon": -76.94867033333334, "rental_uris": {"android": "https://dc.lft.to/lastmile_qr_scan", "ios": "https://dc.lft.to/lastmile_qr_scan"}, "lat": 38.88964333333333, "is_reserved": 0, "is_disabled": 0, "fusion_lat": 0.0}, {"fusion_lon": 0.0, "bike_id": "28055e2ecf043c635f14399e89d83d74", "name": "28055e2ecf043c635f14399e89d83d74", "type": "electric_bike", "lon": -76.877739, "rental_uris": {"android": "https://dc.lft.to/lastmile_qr_scan", "ios": "https://dc.lft.to/lastmile_qr_scan"}, "lat": 38.99228433333333, "is_reserved": 0, "is_disabled": 0, "fusion_lat": 0.0}, {"fusion_lon": 0.0, "bike_id": "97dd6478c64fcab7193e8996c6fbd6f0", "name": "97dd6478c64fcab7193e8996c6fbd6f0", "type": "electric_bike", "lon": -76.963835, "rental_uris": {"android": "https://dc.lft.to/lastmile_qr_scan", "ios": "https://dc.lft.to/lastmile_qr_scan"}, "lat": 38.9757855, "is_reserved": 0, "is_disabled": 0, "fusion_lat": 0.0}, {"fusion_lon": 0.0, "bike_id": "333ff3d7930326165831c42faec401ff", "name": "333ff3d7930326165831c42faec401ff", "type": "electric_scooter", "lon": -77.02420033333334, "rental_uris": {"android": "https://dc.lft.to/lastmile_qr_scan", "ios": "https://dc.lft.to/lastmile_qr_scan"}, "lat": 38.91824833333333, "is_reserved": 0, "is_disabled": 0, "fusion_lat": 0.0}, {"fusion_lon": 0.0, "bike_id": "bca9d8dcbff5f4eeb6f06751d1b5d626", "name": "bca9d8dcbff5f4eeb6f06751d1b5d626", "type": "electric_scooter", "lon": -77.03642683333334, "rental_uris": {"android": "https://dc.lft.to/lastmile_qr_scan", "ios": "https://dc.lft.to/lastmile_qr_scan"}, "lat": 38.912277833333334, "is_reserved": 0, "is_disabled": 0, "fusion_lat": 0.0}, {"fusion_lon": 0.0, "bike_id": "1e26fe44907def6664faa5425f45b979", "name": "1e26fe44907def6664faa5425f45b979", "type": "electric_scooter", "lon": -77.014395, "rental_uris": {"android": "https://dc.lft.to/lastmile_qr_scan", "ios": "https://dc.lft.to/lastmile_qr_scan"}, "lat": 38.91966, "is_reserved": 0, "is_disabled": 0, "fusion_lat": 0.0}, {"fusion_lon": 0.0, "bike_id": "a0ecd8d2cc31f10402582ee00db3ce98", "name": "a0ecd8d2cc31f10402582ee00db3ce98", "type": "electric_scooter", "lon": -76.99537116666667, "rental_uris": {"android": "https://dc.lft.to/lastmile_qr_scan", "ios": "https://dc.lft.to/lastmile_qr_scan"}, "lat": 38.900149666666664, "is_reserved": 0, "is_disabled": 0, "fusion_lat": 0.0}, {"fusion_lon": 0.0, "bike_id": "296372ea5b42dbad792bf41eba786a1c", "name": "296372ea5b42dbad792bf41eba786a1c", "type": "electric_scooter", "lon": -76.97819666666666, "rental_uris": {"android": "https://dc.lft.to/lastmile_qr_scan", "ios": "https://dc.lft.to/lastmile_qr_scan"}, "lat": 38.84606816666667, "is_reserved": 0, "is_disabled": 0, "fusion_lat": 0.0}, {"fusion_lon": 0.0, "bike_id": "db8d5983dddadcd9f820101c50fedecd", "name": "db8d5983dddadcd9f820101c50fedecd", "type": "electric_bike", "lon": -76.98519433333334, "rental_uris": {"android": "https://dc.lft.to/lastmile_qr_scan", "ios": "https://dc.lft.to/lastmile_qr_scan"}, "lat": 38.919976166666665, "is_reserved": 0, "is_disabled": 0, "fusion_lat": 0.0}, {"fusion_lon": 0.0, "bike_id": "32f65e49ed556328b187d4aa012bc75d", "name": "32f65e49ed556328b187d4aa012bc75d", "type": "electric_scooter", "lon": -77.00324766666667, "rental_uris": {"android": "https://dc.lft.to/lastmile_qr_scan", "ios": "https://dc.lft.to/lastmile_qr_scan"}, "lat": 38.902639666666666, "is_reserved": 0, "is_disabled": 0, "fusion_lat": 0.0}, {"fusion_lon": 0.0, "bike_id": "1b9b0de6b351ec83aab896cc8e22f9d4", "name": "1b9b0de6b351ec83aab896cc8e22f9d4", "type": "electric_bike", "lon": -76.98472533333333, "rental_uris": {"android": "https://dc.lft.to/lastmile_qr_scan", "ios": "https://dc.lft.to/lastmile_qr_scan"}, "lat": 38.89143983333334, "is_reserved": 0, "is_disabled": 0, "fusion_lat": 0.0}, {"fusion_lon": 0.0, "bike_id": "6003c12d1783981cec571d77df153ddd", "name": "6003c12d1783981cec571d77df153ddd", "type": "electric_scooter", "lon": -77.04108116666667, "rental_uris": {"android": "https://dc.lft.to/lastmile_qr_scan", "ios": "https://dc.lft.to/lastmile_qr_scan"}, "lat": 38.90147433333333, "is_reserved": 0, "is_disabled": 0, "fusion_lat": 0.0}, {"fusion_lon": 0.0, "bike_id": "b1bf627ac404b4a281f93830178f6308", "name": "b1bf627ac404b4a281f93830178f6308", "type": "electric_bike", "lon": -76.97503433333333, "rental_uris": {"android": "https://dc.lft.to/lastmile_qr_scan", "ios": "https://dc.lft.to/lastmile_qr_scan"}, "lat": 38.9193645, "is_reserved": 0, "is_disabled": 0, "fusion_lat": 0.0}, {"fusion_lon": 0.0, "bike_id": "1c366efa74b035d8b5749c51ba039a70", "name": "1c366efa74b035d8b5749c51ba039a70", "type": "electric_scooter", "lon": -76.99148083333333, "rental_uris": {"android": "https://dc.lft.to/lastmile_qr_scan", "ios": "https://dc.lft.to/lastmile_qr_scan"}, "lat": 38.8868055, "is_reserved": 0, "is_disabled": 0, "fusion_lat": 0.0}, {"fusion_lon": 0.0, "bike_id": "585057306ac45561b80250b6841fda7f", "name": "585057306ac45561b80250b6841fda7f", "type": "electric_scooter", "lon": -76.98454283333334, "rental_uris": {"android": "https://dc.lft.to/lastmile_qr_scan", "ios": "https://dc.lft.to/lastmile_qr_scan"}, "lat": 38.88016433333333, "is_reserved": 0, "is_disabled": 0, "fusion_lat": 0.0}, {"fusion_lon": 0.0, "bike_id": "a4f1e6f56a2d864d818bc0b08e602e73", "name": "a4f1e6f56a2d864d818bc0b08e602e73", "type": "electric_scooter", "lon": -77.025896, "rental_uris": {"android": "https://dc.lft.to/lastmile_qr_scan", "ios": "https://dc.lft.to/lastmile_qr_scan"}, "lat": 38.9184625, "is_reserved": 0, "is_disabled": 0, "fusion_lat": 0.0}, {"fusion_lon": 0.0, "bike_id": "a84d818e8e5d8f45aa222944099de0c9", "name": "a84d818e8e5d8f45aa222944099de0c9", "type": "electric_scooter", "lon": -77.04315216666667, "rental_uris": {"android": "https://dc.lft.to/lastmile_qr_scan", "ios": "https://dc.lft.to/lastmile_qr_scan"}, "lat": 38.91966166666667, "is_reserved": 0, "is_disabled": 0, "fusion_lat": 0.0}, {"fusion_lon": 0.0, "bike_id": "8dd1f07801ed4bd7456c9fede371e810", "name": "8dd1f07801ed4bd7456c9fede371e810", "type": "electric_scooter", "lon": -77.0447665, "rental_uris": {"android": "https://dc.lft.to/lastmile_qr_scan", "ios": "https://dc.lft.to/lastmile_qr_scan"}, "lat": 38.91079116666667, "is_reserved": 0, "is_disabled": 0, "fusion_lat": 0.0}, {"fusion_lon": 0.0, "bike_id": "be9c89d9d27abc380ddc8f489fb95984", "name": "be9c89d9d27abc380ddc8f489fb95984", "type": "electric_scooter", "lon": -77.02411166666667, "rental_uris": {"android": "https://dc.lft.to/lastmile_qr_scan", "ios": "https://dc.lft.to/lastmile_qr_scan"}, "lat": 38.957331333333336, "is_reserved": 0, "is_disabled": 0, "fusion_lat": 0.0}, {"fusion_lon": 0.0, "bike_id": "b786b14256d0e8ed3a1dfae26f30a51c", "name": "b786b14256d0e8ed3a1dfae26f30a51c", "type": "electric_scooter", "lon": -76.9792905, "rental_uris": {"android": "https://dc.lft.to/lastmile_qr_scan", "ios": "https://dc.lft.to/lastmile_qr_scan"}, "lat": 38.902403, "is_reserved": 0, "is_disabled": 0, "fusion_lat": 0.0}, {"fusion_lon": 0.0, "bike_id": "6e0126cb1f1d2446165906e09a54b352", "name": "6e0126cb1f1d2446165906e09a54b352", "type": "electric_scooter", "lon": -77.008892, "rental_uris": {"android": "https://dc.lft.to/lastmile_qr_scan", "ios": "https://dc.lft.to/lastmile_qr_scan"}, "lat": 38.90575483333333, "is_reserved": 0, "is_disabled": 0, "fusion_lat": 0.0}, {"fusion_lon": 0.0, "bike_id": "8b90968e1ce7795db1e0a13ed7254f04", "name": "8b90968e1ce7795db1e0a13ed7254f04", "type": "electric_bike", "lon": -77.08436983333333, "rental_uris": {"android": "https://dc.lft.to/lastmile_qr_scan", "ios": "https://dc.lft.to/lastmile_qr_scan"}, "lat": 38.81028233333333, "is_reserved": 0, "is_disabled": 0, "fusion_lat": 0.0}, {"fusion_lon": 0.0, "bike_id": "35a205686be1eed40813b63d51a88e8b", "name": "35a205686be1eed40813b63d51a88e8b", "type": "electric_scooter", "lon": -76.94943133333334, "rental_uris": {"android": "https://dc.lft.to/lastmile_qr_scan", "ios": "https://dc.lft.to/lastmile_qr_scan"}, "lat": 38.89352616666667, "is_reserved": 0, "is_disabled": 0, "fusion_lat": 0.0}, {"fusion_lon": 0.0, "bike_id": "f05aa27492fff21ab8bbba14645f70b3", "name": "f05aa27492fff21ab8bbba14645f70b3", "type": "electric_scooter", "lon": -77.0269285, "rental_uris": {"android": "https://dc.lft.to/lastmile_qr_scan", "ios": "https://dc.lft.to/lastmile_qr_scan"}, "lat": 38.90837333333333, "is_reserved": 0, "is_disabled": 0, "fusion_lat": 0.0}, {"fusion_lon": 0.0, "bike_id": "3d8ca7171638a15364d2e4e3a96c0551", "name": "3d8ca7171638a15364d2e4e3a96c0551", "type": "electric_scooter", "lon": -77.0315455, "rental_uris": {"android": "https://dc.lft.to/lastmile_qr_scan", "ios": "https://dc.lft.to/lastmile_qr_scan"}, "lat": 38.8830415, "is_reserved": 0, "is_disabled": 0, "fusion_lat": 0.0}, {"fusion_lon": 0.0, "bike_id": "9de36edca04431b90c24f50484e21820", "name": "9de36edca04431b90c24f50484e21820", "type": "electric_scooter", "lon": -77.052641, "rental_uris": {"android": "https://dc.lft.to/lastmile_qr_scan", "ios": "https://dc.lft.to/lastmile_qr_scan"}, "lat": 38.91004516666667, "is_reserved": 0, "is_disabled": 0, "fusion_lat": 0.0}, {"fusion_lon": 0.0, "bike_id": "976de0cc2ba27a13580a5230a069220a", "name": "976de0cc2ba27a13580a5230a069220a", "type": "electric_scooter", "lon": -77.04287083333334, "rental_uris": {"android": "https://dc.lft.to/lastmile_qr_scan", "ios": "https://dc.lft.to/lastmile_qr_scan"}, "lat": 38.917794, "is_reserved": 0, "is_disabled": 0, "fusion_lat": 0.0}, {"fusion_lon": 0.0, "bike_id": "e8e0ea64e3042160a4b9057fb3fd6cd3", "name": "e8e0ea64e3042160a4b9057fb3fd6cd3", "type": "electric_scooter", "lon": -77.0384635, "rental_uris": {"android": "https://dc.lft.to/lastmile_qr_scan", "ios": "https://dc.lft.to/lastmile_qr_scan"}, "lat": 38.910155833333334, "is_reserved": 0, "is_disabled": 0, "fusion_lat": 0.0}, {"fusion_lon": 0.0, "bike_id": "66bfa17789a464238ce4c8be705fb6b2", "name": "66bfa17789a464238ce4c8be705fb6b2", "type": "electric_scooter", "lon": -76.99900316666667, "rental_uris": {"android": "https://dc.lft.to/lastmile_qr_scan", "ios": "https://dc.lft.to/lastmile_qr_scan"}, "lat": 38.89208033333333, "is_reserved": 0, "is_disabled": 0, "fusion_lat": 0.0}, {"fusion_lon": 0.0, "bike_id": "898d82746114740ece803b61cd7ab921", "name": "898d82746114740ece803b61cd7ab921", "type": "electric_scooter", "lon": -77.0371425, "rental_uris": {"android": "https://dc.lft.to/lastmile_qr_scan", "ios": "https://dc.lft.to/lastmile_qr_scan"}, "lat": 38.918085, "is_reserved": 0, "is_disabled": 0, "fusion_lat": 0.0}, {"fusion_lon": 0.0, "bike_id": "c7c84b45125389675871413195635323", "name": "c7c84b45125389675871413195635323", "type": "electric_scooter", "lon": -77.03424916666667, "rental_uris": {"android": "https://dc.lft.to/lastmile_qr_scan", "ios": "https://dc.lft.to/lastmile_qr_scan"}, "lat": 38.907957, "is_reserved": 0, "is_disabled": 0, "fusion_lat": 0.0}, {"fusion_lon": 0.0, "bike_id": "d1e010e9713aaaad2a784315770004fe", "name": "d1e010e9713aaaad2a784315770004fe", "type": "electric_scooter", "lon": -77.00843916666666, "rental_uris": {"android": "https://dc.lft.to/lastmile_qr_scan", "ios": "https://dc.lft.to/lastmile_qr_scan"}, "lat": 38.8764315, "is_reserved": 0, "is_disabled": 0, "fusion_lat": 0.0}, {"fusion_lon": 0.0, "bike_id": "1746a0828f06362cc2ba9ba583433b5e", "name": "1746a0828f06362cc2ba9ba583433b5e", "type": "electric_scooter", "lon": -76.99809566666667, "rental_uris": {"android": "https://dc.lft.to/lastmile_qr_scan", "ios": "https://dc.lft.to/lastmile_qr_scan"}, "lat": 38.87682683333333, "is_reserved": 0, "is_disabled": 0, "fusion_lat": 0.0}, {"fusion_lon": 0.0, "bike_id": "d8484695b05c266789acfa5d7ad7a62f", "name": "d8484695b05c266789acfa5d7ad7a62f", "type": "electric_scooter", "lon": -77.086127, "rental_uris": {"android": "https://dc.lft.to/lastmile_qr_scan", "ios": "https://dc.lft.to/lastmile_qr_scan"}, "lat": 38.95872283333333, "is_reserved": 0, "is_disabled": 0, "fusion_lat": 0.0}, {"fusion_lon": 0.0, "bike_id": "6720d853e4d5f848216eb2be85fe9885", "name": "6720d853e4d5f848216eb2be85fe9885", "type": "electric_scooter", "lon": -76.986556, "rental_uris": {"android": "https://dc.lft.to/lastmile_qr_scan", "ios": "https://dc.lft.to/lastmile_qr_scan"}, "lat": 38.913100666666665, "is_reserved": 0, "is_disabled": 0, "fusion_lat": 0.0}, {"fusion_lon": 0.0, "bike_id": "8fb0d321bdd10ad05653467e288df0c7", "name": "8fb0d321bdd10ad05653467e288df0c7", "type": "electric_scooter", "lon": -76.99897833333333, "rental_uris": {"android": "https://dc.lft.to/lastmile_qr_scan", "ios": "https://dc.lft.to/lastmile_qr_scan"}, "lat": 38.956499, "is_reserved": 0, "is_disabled": 0, "fusion_lat": 0.0}, {"fusion_lon": 0.0, "bike_id": "805a874a7d27f247569540b83822cf8c", "name": "805a874a7d27f247569540b83822cf8c", "type": "electric_scooter", "lon": -77.0533285, "rental_uris": {"android": "https://dc.lft.to/lastmile_qr_scan", "ios": "https://dc.lft.to/lastmile_qr_scan"}, "lat": 38.927856166666665, "is_reserved": 0, "is_disabled": 0, "fusion_lat": 0.0}, {"fusion_lon": 0.0, "bike_id": "4ef5ab67dd36a342ed45e593deeb119c", "name": "4ef5ab67dd36a342ed45e593deeb119c", "type": "electric_scooter", "lon": -76.94902083333334, "rental_uris": {"android": "https://dc.lft.to/lastmile_qr_scan", "ios": "https://dc.lft.to/lastmile_qr_scan"}, "lat": 38.895311166666666, "is_reserved": 0, "is_disabled": 0, "fusion_lat": 0.0}, {"fusion_lon": 0.0, "bike_id": "38eb5cba92fedbec14719691cd043e95", "name": "38eb5cba92fedbec14719691cd043e95", "type": "electric_scooter", "lon": -77.0468115, "rental_uris": {"android": "https://dc.lft.to/lastmile_qr_scan", "ios": "https://dc.lft.to/lastmile_qr_scan"}, "lat": 38.898299, "is_reserved": 0, "is_disabled": 0, "fusion_lat": 0.0}, {"fusion_lon": 0.0, "bike_id": "0670cca760c6f08cac27c937fb3de598", "name": "0670cca760c6f08cac27c937fb3de598", "type": "electric_bike", "lon": -76.95994516666667, "rental_uris": {"android": "https://dc.lft.to/lastmile_qr_scan", "ios": "https://dc.lft.to/lastmile_qr_scan"}, "lat": 38.87005216666667, "is_reserved": 0, "is_disabled": 0, "fusion_lat": 0.0}, {"fusion_lon": 0.0, "bike_id": "adc7efa0f1e23237bdd3e593f944a55c", "name": "adc7efa0f1e23237bdd3e593f944a55c", "type": "electric_scooter", "lon": -77.02221333333334, "rental_uris": {"android": "https://dc.lft.to/lastmile_qr_scan", "ios": "https://dc.lft.to/lastmile_qr_scan"}, "lat": 38.912698666666664, "is_reserved": 0, "is_disabled": 0, "fusion_lat": 0.0}, {"fusion_lon": 0.0, "bike_id": "16379609d1a80695af7bb0f398d77528", "name": "16379609d1a80695af7bb0f398d77528", "type": "electric_scooter", "lon": -77.01770833333333, "rental_uris": {"android": "https://dc.lft.to/lastmile_qr_scan", "ios": "https://dc.lft.to/lastmile_qr_scan"}, "lat": 38.90260583333333, "is_reserved": 0, "is_disabled": 0, "fusion_lat": 0.0}, {"fusion_lon": 0.0, "bike_id": "429b2f8e0b39985076978f9c98809dbc", "name": "429b2f8e0b39985076978f9c98809dbc", "type": "electric_scooter", "lon": -77.002956, "rental_uris": {"android": "https://dc.lft.to/lastmile_qr_scan", "ios": "https://dc.lft.to/lastmile_qr_scan"}, "lat": 38.901305666666666, "is_reserved": 0, "is_disabled": 0, "fusion_lat": 0.0}, {"fusion_lon": 0.0, "bike_id": "3589e5083b5edcd7c83ba0ecee298f7e", "name": "3589e5083b5edcd7c83ba0ecee298f7e", "type": "electric_scooter", "lon": -76.975465, "rental_uris": {"android": "https://dc.lft.to/lastmile_qr_scan", "ios": "https://dc.lft.to/lastmile_qr_scan"}, "lat": 38.90261133333333, "is_reserved": 0, "is_disabled": 0, "fusion_lat": 0.0}, {"fusion_lon": 0.0, "bike_id": "da93d1536950ef17ff19690b6e0fa21d", "name": "da93d1536950ef17ff19690b6e0fa21d", "type": "electric_bike", "lon": -77.00673766666667, "rental_uris": {"android": "https://dc.lft.to/lastmile_qr_scan", "ios": "https://dc.lft.to/lastmile_qr_scan"}, "lat": 38.945120833333334, "is_reserved": 0, "is_disabled": 0, "fusion_lat": 0.0}, {"fusion_lon": 0.0, "bike_id": "2bbf657bec53494913bf7f36004ac43a", "name": "2bbf657bec53494913bf7f36004ac43a", "type": "electric_scooter", "lon": -77.04842183333334, "rental_uris": {"android": "https://dc.lft.to/lastmile_qr_scan", "ios": "https://dc.lft.to/lastmile_qr_scan"}, "lat": 38.910367666666666, "is_reserved": 0, "is_disabled": 0, "fusion_lat": 0.0}, {"fusion_lon": 0.0, "bike_id": "fc75e7cc7c4a2de2c3be6ad7407b471f", "name": "fc75e7cc7c4a2de2c3be6ad7407b471f", "type": "electric_scooter", "lon": -76.98332216666667, "rental_uris": {"android": "https://dc.lft.to/lastmile_qr_scan", "ios": "https://dc.lft.to/lastmile_qr_scan"}, "lat": 38.88990166666667, "is_reserved": 0, "is_disabled": 0, "fusion_lat": 0.0}, {"fusion_lon": 0.0, "bike_id": "3851541142cefeb4f32da7d04eef35ca", "name": "3851541142cefeb4f32da7d04eef35ca", "type": "electric_scooter", "lon": -77.02370983333333, "rental_uris": {"android": "https://dc.lft.to/lastmile_qr_scan", "ios": "https://dc.lft.to/lastmile_qr_scan"}, "lat": 38.95203, "is_reserved": 0, "is_disabled": 0, "fusion_lat": 0.0}, {"fusion_lon": 0.0, "bike_id": "ffca2446fa7ff6a9fe54f7ea53fdab4f", "name": "ffca2446fa7ff6a9fe54f7ea53fdab4f", "type": "electric_scooter", "lon": -77.01952966666667, "rental_uris": {"android": "https://dc.lft.to/lastmile_qr_scan", "ios": "https://dc.lft.to/lastmile_qr_scan"}, "lat": 38.90558766666667, "is_reserved": 0, "is_disabled": 0, "fusion_lat": 0.0}, {"fusion_lon": 0.0, "bike_id": "b863a70a8638157e899ffb1781592728", "name": "b863a70a8638157e899ffb1781592728", "type": "electric_scooter", "lon": -77.02758416666667, "rental_uris": {"android": "https://dc.lft.to/lastmile_qr_scan", "ios": "https://dc.lft.to/lastmile_qr_scan"}, "lat": 38.92580566666667, "is_reserved": 0, "is_disabled": 0, "fusion_lat": 0.0}, {"fusion_lon": 0.0, "bike_id": "ef7143459728b154435852a4ff8b5841", "name": "ef7143459728b154435852a4ff8b5841", "type": "electric_scooter", "lon": -77.072519, "rental_uris": {"android": "https://dc.lft.to/lastmile_qr_scan", "ios": "https://dc.lft.to/lastmile_qr_scan"}, "lat": 38.90778666666667, "is_reserved": 0, "is_disabled": 0, "fusion_lat": 0.0}, {"fusion_lon": 0.0, "bike_id": "4420c0dbc35fbe8e62e918aebdf60525", "name": "4420c0dbc35fbe8e62e918aebdf60525", "type": "electric_scooter", "lon": -77.03845483333333, "rental_uris": {"android": "https://dc.lft.to/lastmile_qr_scan", "ios": "https://dc.lft.to/lastmile_qr_scan"}, "lat": 38.915643, "is_reserved": 0, "is_disabled": 0, "fusion_lat": 0.0}, {"fusion_lon": 0.0, "bike_id": "f88dd5ee66448656c27528c44d99c229", "name": "f88dd5ee66448656c27528c44d99c229", "type": "electric_scooter", "lon": -77.001491, "rental_uris": {"android": "https://dc.lft.to/lastmile_qr_scan", "ios": "https://dc.lft.to/lastmile_qr_scan"}, "lat": 38.8739465, "is_reserved": 0, "is_disabled": 0, "fusion_lat": 0.0}, {"fusion_lon": 0.0, "bike_id": "1df8b2ff1aafad7b5d6b4abbe6acd0e7", "name": "1df8b2ff1aafad7b5d6b4abbe6acd0e7", "type": "electric_scooter", "lon": -77.02699366666667, "rental_uris": {"android": "https://dc.lft.to/lastmile_qr_scan", "ios": "https://dc.lft.to/lastmile_qr_scan"}, "lat": 38.909766166666664, "is_reserved": 0, "is_disabled": 0, "fusion_lat": 0.0}, {"fusion_lon": 0.0, "bike_id": "0b1a8ccc8323955d622f18ffd024a546", "name": "0b1a8ccc8323955d622f18ffd024a546", "type": "electric_scooter", "lon": -77.054126, "rental_uris": {"android": "https://dc.lft.to/lastmile_qr_scan", "ios": "https://dc.lft.to/lastmile_qr_scan"}, "lat": 38.89920933333333, "is_reserved": 0, "is_disabled": 0, "fusion_lat": 0.0}, {"fusion_lon": 0.0, "bike_id": "3202bb6661ea5734711b43ca85bf7ed6", "name": "3202bb6661ea5734711b43ca85bf7ed6", "type": "electric_bike", "lon": -76.88903, "rental_uris": {"android": "https://dc.lft.to/lastmile_qr_scan", "ios": "https://dc.lft.to/lastmile_qr_scan"}, "lat": 38.925913333333334, "is_reserved": 0, "is_disabled": 0, "fusion_lat": 0.0}, {"fusion_lon": 0.0, "bike_id": "3ed61c9b2b704ea01e415c258194e143", "name": "3ed61c9b2b704ea01e415c258194e143", "type": "electric_bike", "lon": -76.95224533333334, "rental_uris": {"android": "https://dc.lft.to/lastmile_qr_scan", "ios": "https://dc.lft.to/lastmile_qr_scan"}, "lat": 38.892389, "is_reserved": 0, "is_disabled": 0, "fusion_lat": 0.0}, {"fusion_lon": 0.0, "bike_id": "c1aed786025faf370b960a7ebfb20232", "name": "c1aed786025faf370b960a7ebfb20232", "type": "electric_scooter", "lon": -77.043164, "rental_uris": {"android": "https://dc.lft.to/lastmile_qr_scan", "ios": "https://dc.lft.to/lastmile_qr_scan"}, "lat": 38.89654916666667, "is_reserved": 0, "is_disabled": 0, "fusion_lat": 0.0}, {"fusion_lon": 0.0, "bike_id": "1da04900ccb2f01157cb737a9f221e73", "name": "1da04900ccb2f01157cb737a9f221e73", "type": "electric_scooter", "lon": -77.02970633333334, "rental_uris": {"android": "https://dc.lft.to/lastmile_qr_scan", "ios": "https://dc.lft.to/lastmile_qr_scan"}, "lat": 38.92747716666667, "is_reserved": 0, "is_disabled": 0, "fusion_lat": 0.0}, {"fusion_lon": 0.0, "bike_id": "04dfbe7e438f0a2869db7443c07a1352", "name": "04dfbe7e438f0a2869db7443c07a1352", "type": "electric_scooter", "lon": -77.0487215, "rental_uris": {"android": "https://dc.lft.to/lastmile_qr_scan", "ios": "https://dc.lft.to/lastmile_qr_scan"}, "lat": 38.9098185, "is_reserved": 0, "is_disabled": 0, "fusion_lat": 0.0}, {"fusion_lon": 0.0, "bike_id": "d278994326bda29044588cc791db7b8b", "name": "d278994326bda29044588cc791db7b8b", "type": "electric_scooter", "lon": -77.04280766666666, "rental_uris": {"android": "https://dc.lft.to/lastmile_qr_scan", "ios": "https://dc.lft.to/lastmile_qr_scan"}, "lat": 38.914223, "is_reserved": 0, "is_disabled": 0, "fusion_lat": 0.0}, {"fusion_lon": 0.0, "bike_id": "71b116dc3793a6225a223e12c336aaaa", "name": "71b116dc3793a6225a223e12c336aaaa", "type": "electric_scooter", "lon": -77.01191133333333, "rental_uris": {"android": "https://dc.lft.to/lastmile_qr_scan", "ios": "https://dc.lft.to/lastmile_qr_scan"}, "lat": 38.90031283333333, "is_reserved": 0, "is_disabled": 0, "fusion_lat": 0.0}, {"fusion_lon": 0.0, "bike_id": "e335c0cec43ba28d7657421c6ac75156", "name": "e335c0cec43ba28d7657421c6ac75156", "type": "electric_scooter", "lon": -77.00330933333333, "rental_uris": {"android": "https://dc.lft.to/lastmile_qr_scan", "ios": "https://dc.lft.to/lastmile_qr_scan"}, "lat": 38.89355783333333, "is_reserved": 0, "is_disabled": 0, "fusion_lat": 0.0}, {"fusion_lon": 0.0, "bike_id": "304aa248600ab52020ac1cdcf7006033", "name": "304aa248600ab52020ac1cdcf7006033", "type": "electric_scooter", "lon": -77.00831633333334, "rental_uris": {"android": "https://dc.lft.to/lastmile_qr_scan", "ios": "https://dc.lft.to/lastmile_qr_scan"}, "lat": 38.91263216666667, "is_reserved": 0, "is_disabled": 0, "fusion_lat": 0.0}, {"fusion_lon": 0.0, "bike_id": "7b221034f2639872dc8dbcc8f2b2330e", "name": "7b221034f2639872dc8dbcc8f2b2330e", "type": "electric_scooter", "lon": -76.98462583333334, "rental_uris": {"android": "https://dc.lft.to/lastmile_qr_scan", "ios": "https://dc.lft.to/lastmile_qr_scan"}, "lat": 38.88015516666667, "is_reserved": 0, "is_disabled": 0, "fusion_lat": 0.0}, {"fusion_lon": 0.0, "bike_id": "7cc24dc63a4c18fb580a082921c393b8", "name": "7cc24dc63a4c18fb580a082921c393b8", "type": "electric_scooter", "lon": -77.02562233333333, "rental_uris": {"android": "https://dc.lft.to/lastmile_qr_scan", "ios": "https://dc.lft.to/lastmile_qr_scan"}, "lat": 38.88463933333333, "is_reserved": 0, "is_disabled": 0, "fusion_lat": 0.0}, {"fusion_lon": 0.0, "bike_id": "a8d0046e888d587b4882899a006c7a76", "name": "a8d0046e888d587b4882899a006c7a76", "type": "electric_scooter", "lon": -77.024939, "rental_uris": {"android": "https://dc.lft.to/lastmile_qr_scan", "ios": "https://dc.lft.to/lastmile_qr_scan"}, "lat": 38.9175065, "is_reserved": 0, "is_disabled": 0, "fusion_lat": 0.0}, {"fusion_lon": 0.0, "bike_id": "2d524ab7f4a5fb71c417ccd69b152758", "name": "2d524ab7f4a5fb71c417ccd69b152758", "type": "electric_scooter", "lon": -76.99069333333334, "rental_uris": {"android": "https://dc.lft.to/lastmile_qr_scan", "ios": "https://dc.lft.to/lastmile_qr_scan"}, "lat": 38.904148666666664, "is_reserved": 0, "is_disabled": 0, "fusion_lat": 0.0}, {"fusion_lon": 0.0, "bike_id": "fb1e48c39c524e2ed122ef6a39e16775", "name": "fb1e48c39c524e2ed122ef6a39e16775", "type": "electric_scooter", "lon": -77.009321, "rental_uris": {"android": "https://dc.lft.to/lastmile_qr_scan", "ios": "https://dc.lft.to/lastmile_qr_scan"}, "lat": 38.871986166666666, "is_reserved": 0, "is_disabled": 0, "fusion_lat": 0.0}, {"fusion_lon": 0.0, "bike_id": "21e587c8bea552b25a101b7a54617805", "name": "21e587c8bea552b25a101b7a54617805", "type": "electric_scooter", "lon": -77.05330666666667, "rental_uris": {"android": "https://dc.lft.to/lastmile_qr_scan", "ios": "https://dc.lft.to/lastmile_qr_scan"}, "lat": 38.923145, "is_reserved": 0, "is_disabled": 0, "fusion_lat": 0.0}, {"fusion_lon": 0.0, "bike_id": "4ff11242e3f8f75a5be021877c7609f0", "name": "4ff11242e3f8f75a5be021877c7609f0", "type": "electric_scooter", "lon": -77.04156083333334, "rental_uris": {"android": "https://dc.lft.to/lastmile_qr_scan", "ios": "https://dc.lft.to/lastmile_qr_scan"}, "lat": 38.91616, "is_reserved": 0, "is_disabled": 0, "fusion_lat": 0.0}, {"fusion_lon": 0.0, "bike_id": "651aec9d3231ce5a283c34691930c696", "name": "651aec9d3231ce5a283c34691930c696", "type": "electric_scooter", "lon": -76.99381616666666, "rental_uris": {"android": "https://dc.lft.to/lastmile_qr_scan", "ios": "https://dc.lft.to/lastmile_qr_scan"}, "lat": 38.923953166666664, "is_reserved": 0, "is_disabled": 0, "fusion_lat": 0.0}, {"fusion_lon": 0.0, "bike_id": "2cdc29b89f3f1a304fb8d81bd49d60ee", "name": "2cdc29b89f3f1a304fb8d81bd49d60ee", "type": "electric_scooter", "lon": -77.05395066666667, "rental_uris": {"android": "https://dc.lft.to/lastmile_qr_scan", "ios": "https://dc.lft.to/lastmile_qr_scan"}, "lat": 38.868989166666665, "is_reserved": 0, "is_disabled": 0, "fusion_lat": 0.0}, {"fusion_lon": 0.0, "bike_id": "87ea7a2aaf27a69e33e183ef26ce3bf3", "name": "87ea7a2aaf27a69e33e183ef26ce3bf3", "type": "electric_scooter", "lon": -77.02961566666667, "rental_uris": {"android": "https://dc.lft.to/lastmile_qr_scan", "ios": "https://dc.lft.to/lastmile_qr_scan"}, "lat": 38.89885616666667, "is_reserved": 0, "is_disabled": 0, "fusion_lat": 0.0}, {"fusion_lon": 0.0, "bike_id": "6576b97595c9f7e49a6d6a5bad44e5e4", "name": "6576b97595c9f7e49a6d6a5bad44e5e4", "type": "electric_scooter", "lon": -77.02536616666667, "rental_uris": {"android": "https://dc.lft.to/lastmile_qr_scan", "ios": "https://dc.lft.to/lastmile_qr_scan"}, "lat": 38.90096583333333, "is_reserved": 0, "is_disabled": 0, "fusion_lat": 0.0}, {"fusion_lon": 0.0, "bike_id": "5bfeb6c19f2a7160d25c7de5247d3c05", "name": "5bfeb6c19f2a7160d25c7de5247d3c05", "type": "electric_scooter", "lon": -76.985607, "rental_uris": {"android": "https://dc.lft.to/lastmile_qr_scan", "ios": "https://dc.lft.to/lastmile_qr_scan"}, "lat": 38.85583583333333, "is_reserved": 0, "is_disabled": 0, "fusion_lat": 0.0}, {"fusion_lon": 0.0, "bike_id": "e3c622956222ebff6b4dd8195a5decaa", "name": "e3c622956222ebff6b4dd8195a5decaa", "type": "electric_scooter", "lon": -77.02929533333334, "rental_uris": {"android": "https://dc.lft.to/lastmile_qr_scan", "ios": "https://dc.lft.to/lastmile_qr_scan"}, "lat": 38.882196666666665, "is_reserved": 0, "is_disabled": 0, "fusion_lat": 0.0}, {"fusion_lon": 0.0, "bike_id": "96a3a8a8d66db3325a8fd2c553da752d", "name": "96a3a8a8d66db3325a8fd2c553da752d", "type": "electric_scooter", "lon": -77.03385483333334, "rental_uris": {"android": "https://dc.lft.to/lastmile_qr_scan", "ios": "https://dc.lft.to/lastmile_qr_scan"}, "lat": 38.90808233333333, "is_reserved": 0, "is_disabled": 0, "fusion_lat": 0.0}, {"fusion_lon": 0.0, "bike_id": "39773e3cf3c58cccd8b78d63ece9f132", "name": "39773e3cf3c58cccd8b78d63ece9f132", "type": "electric_bike", "lon": -77.00865066666667, "rental_uris": {"android": "https://dc.lft.to/lastmile_qr_scan", "ios": "https://dc.lft.to/lastmile_qr_scan"}, "lat": 38.827293833333336, "is_reserved": 0, "is_disabled": 0, "fusion_lat": 0.0}, {"fusion_lon": 0.0, "bike_id": "870943be810f1637029db4753d117242", "name": "870943be810f1637029db4753d117242", "type": "electric_scooter", "lon": -77.03182616666666, "rental_uris": {"android": "https://dc.lft.to/lastmile_qr_scan", "ios": "https://dc.lft.to/lastmile_qr_scan"}, "lat": 38.919255666666665, "is_reserved": 0, "is_disabled": 0, "fusion_lat": 0.0}, {"fusion_lon": 0.0, "bike_id": "59165bf28ff063dec551ea28f21621fe", "name": "59165bf28ff063dec551ea28f21621fe", "type": "electric_scooter", "lon": -77.00741866666667, "rental_uris": {"android": "https://dc.lft.to/lastmile_qr_scan", "ios": "https://dc.lft.to/lastmile_qr_scan"}, "lat": 38.91188133333333, "is_reserved": 0, "is_disabled": 0, "fusion_lat": 0.0}, {"fusion_lon": 0.0, "bike_id": "19c54dd81088577808b94ff4fda88f78", "name": "19c54dd81088577808b94ff4fda88f78", "type": "electric_scooter", "lon": -77.03856083333334, "rental_uris": {"android": "https://dc.lft.to/lastmile_qr_scan", "ios": "https://dc.lft.to/lastmile_qr_scan"}, "lat": 38.9117215, "is_reserved": 0, "is_disabled": 0, "fusion_lat": 0.0}, {"fusion_lon": 0.0, "bike_id": "d59cfc4babae9fa29e92f0c947429d83", "name": "d59cfc4babae9fa29e92f0c947429d83", "type": "electric_bike", "lon": -76.97993666666666, "rental_uris": {"android": "https://dc.lft.to/lastmile_qr_scan", "ios": "https://dc.lft.to/lastmile_qr_scan"}, "lat": 38.877585, "is_reserved": 0, "is_disabled": 0, "fusion_lat": 0.0}, {"fusion_lon": 0.0, "bike_id": "be29f9ea9fe3374570f830b993963d2c", "name": "be29f9ea9fe3374570f830b993963d2c", "type": "electric_scooter", "lon": -77.0227475, "rental_uris": {"android": "https://dc.lft.to/lastmile_qr_scan", "ios": "https://dc.lft.to/lastmile_qr_scan"}, "lat": 38.91658533333333, "is_reserved": 0, "is_disabled": 0, "fusion_lat": 0.0}, {"fusion_lon": 0.0, "bike_id": "a1bf4cff17e9e61906e1dc34629d06cf", "name": "a1bf4cff17e9e61906e1dc34629d06cf", "type": "electric_scooter", "lon": -77.03597766666667, "rental_uris": {"android": "https://dc.lft.to/lastmile_qr_scan", "ios": "https://dc.lft.to/lastmile_qr_scan"}, "lat": 38.92851116666667, "is_reserved": 0, "is_disabled": 0, "fusion_lat": 0.0}, {"fusion_lon": 0.0, "bike_id": "3e17565fea440505aaad3554afafa6a4", "name": "3e17565fea440505aaad3554afafa6a4", "type": "electric_scooter", "lon": -77.03156683333333, "rental_uris": {"android": "https://dc.lft.to/lastmile_qr_scan", "ios": "https://dc.lft.to/lastmile_qr_scan"}, "lat": 38.9271975, "is_reserved": 0, "is_disabled": 0, "fusion_lat": 0.0}, {"fusion_lon": 0.0, "bike_id": "2bc8183dce6e6f2b57ad8cf24e3e9841", "name": "2bc8183dce6e6f2b57ad8cf24e3e9841", "type": "electric_scooter", "lon": -77.04198266666667, "rental_uris": {"android": "https://dc.lft.to/lastmile_qr_scan", "ios": "https://dc.lft.to/lastmile_qr_scan"}, "lat": 38.92312166666667, "is_reserved": 0, "is_disabled": 0, "fusion_lat": 0.0}, {"fusion_lon": 0.0, "bike_id": "6b48099f374dc82d3c986188e7f7c79b", "name": "6b48099f374dc82d3c986188e7f7c79b", "type": "electric_scooter", "lon": -76.99957, "rental_uris": {"android": "https://dc.lft.to/lastmile_qr_scan", "ios": "https://dc.lft.to/lastmile_qr_scan"}, "lat": 38.89320816666667, "is_reserved": 0, "is_disabled": 0, "fusion_lat": 0.0}, {"fusion_lon": 0.0, "bike_id": "4d1776e8825364581a6317d26dd7369e", "name": "4d1776e8825364581a6317d26dd7369e", "type": "electric_scooter", "lon": -77.04173266666666, "rental_uris": {"android": "https://dc.lft.to/lastmile_qr_scan", "ios": "https://dc.lft.to/lastmile_qr_scan"}, "lat": 38.915494833333334, "is_reserved": 0, "is_disabled": 0, "fusion_lat": 0.0}, {"fusion_lon": 0.0, "bike_id": "7f626afae300e91306c9b48091c54e3f", "name": "7f626afae300e91306c9b48091c54e3f", "type": "electric_scooter", "lon": -77.01693866666666, "rental_uris": {"android": "https://dc.lft.to/lastmile_qr_scan", "ios": "https://dc.lft.to/lastmile_qr_scan"}, "lat": 38.97492166666667, "is_reserved": 0, "is_disabled": 0, "fusion_lat": 0.0}, {"fusion_lon": 0.0, "bike_id": "682e1868377f6907c074c29648fd5625", "name": "682e1868377f6907c074c29648fd5625", "type": "electric_scooter", "lon": -76.98581466666667, "rental_uris": {"android": "https://dc.lft.to/lastmile_qr_scan", "ios": "https://dc.lft.to/lastmile_qr_scan"}, "lat": 38.88401316666667, "is_reserved": 0, "is_disabled": 0, "fusion_lat": 0.0}, {"fusion_lon": 0.0, "bike_id": "36e86f27550b0ca060886c1ea51b7e93", "name": "36e86f27550b0ca060886c1ea51b7e93", "type": "electric_scooter", "lon": -77.02168883333333, "rental_uris": {"android": "https://dc.lft.to/lastmile_qr_scan", "ios": "https://dc.lft.to/lastmile_qr_scan"}, "lat": 38.942908, "is_reserved": 0, "is_disabled": 0, "fusion_lat": 0.0}, {"fusion_lon": 0.0, "bike_id": "84b868cadad5adc7414ddd2722ab8988", "name": "84b868cadad5adc7414ddd2722ab8988", "type": "electric_scooter", "lon": -77.03184783333333, "rental_uris": {"android": "https://dc.lft.to/lastmile_qr_scan", "ios": "https://dc.lft.to/lastmile_qr_scan"}, "lat": 38.9135365, "is_reserved": 0, "is_disabled": 0, "fusion_lat": 0.0}, {"fusion_lon": 0.0, "bike_id": "43ee4568fd15681ea3bb70a2fd29cb21", "name": "43ee4568fd15681ea3bb70a2fd29cb21", "type": "electric_scooter", "lon": -77.0221805, "rental_uris": {"android": "https://dc.lft.to/lastmile_qr_scan", "ios": "https://dc.lft.to/lastmile_qr_scan"}, "lat": 38.892184666666665, "is_reserved": 0, "is_disabled": 0, "fusion_lat": 0.0}, {"fusion_lon": 0.0, "bike_id": "fb314d061139cbd853e90820fab83424", "name": "fb314d061139cbd853e90820fab83424", "type": "electric_scooter", "lon": -77.03786983333333, "rental_uris": {"android": "https://dc.lft.to/lastmile_qr_scan", "ios": "https://dc.lft.to/lastmile_qr_scan"}, "lat": 38.92632666666667, "is_reserved": 0, "is_disabled": 0, "fusion_lat": 0.0}, {"fusion_lon": 0.0, "bike_id": "990a8d13ab228c98ece76fa4161c8865", "name": "990a8d13ab228c98ece76fa4161c8865", "type": "electric_scooter", "lon": -77.03322816666666, "rental_uris": {"android": "https://dc.lft.to/lastmile_qr_scan", "ios": "https://dc.lft.to/lastmile_qr_scan"}, "lat": 38.900186, "is_reserved": 0, "is_disabled": 0, "fusion_lat": 0.0}, {"fusion_lon": 0.0, "bike_id": "0a1f54b3faec58f4bda72ff02486c45e", "name": "0a1f54b3faec58f4bda72ff02486c45e", "type": "electric_scooter", "lon": -77.0304245, "rental_uris": {"android": "https://dc.lft.to/lastmile_qr_scan", "ios": "https://dc.lft.to/lastmile_qr_scan"}, "lat": 38.939819166666666, "is_reserved": 0, "is_disabled": 0, "fusion_lat": 0.0}, {"fusion_lon": 0.0, "bike_id": "c8e7c71b87482b22dee273f1c4b0936e", "name": "c8e7c71b87482b22dee273f1c4b0936e", "type": "electric_scooter", "lon": -77.030611, "rental_uris": {"android": "https://dc.lft.to/lastmile_qr_scan", "ios": "https://dc.lft.to/lastmile_qr_scan"}, "lat": 38.93981, "is_reserved": 0, "is_disabled": 0, "fusion_lat": 0.0}, {"fusion_lon": 0.0, "bike_id": "0916d1297f890b3c4b607c228cc43d6c", "name": "0916d1297f890b3c4b607c228cc43d6c", "type": "electric_scooter", "lon": -77.03450983333333, "rental_uris": {"android": "https://dc.lft.to/lastmile_qr_scan", "ios": "https://dc.lft.to/lastmile_qr_scan"}, "lat": 38.9072935, "is_reserved": 0, "is_disabled": 0, "fusion_lat": 0.0}, {"fusion_lon": 0.0, "bike_id": "06292dad5069de1a7071e338e67a0d7c", "name": "06292dad5069de1a7071e338e67a0d7c", "type": "electric_scooter", "lon": -77.02544766666666, "rental_uris": {"android": "https://dc.lft.to/lastmile_qr_scan", "ios": "https://dc.lft.to/lastmile_qr_scan"}, "lat": 38.930903666666666, "is_reserved": 0, "is_disabled": 0, "fusion_lat": 0.0}, {"fusion_lon": 0.0, "bike_id": "c5618019acf8bdbc4356afc5a7fb4daa", "name": "c5618019acf8bdbc4356afc5a7fb4daa", "type": "electric_bike", "lon": -77.360881, "rental_uris": {"android": "https://dc.lft.to/lastmile_qr_scan", "ios": "https://dc.lft.to/lastmile_qr_scan"}, "lat": 38.93958083333333, "is_reserved": 0, "is_disabled": 0, "fusion_lat": 0.0}, {"fusion_lon": 0.0, "bike_id": "eee9db2727c6b96fb6528f19350aac6f", "name": "eee9db2727c6b96fb6528f19350aac6f", "type": "electric_scooter", "lon": -77.0140545, "rental_uris": {"android": "https://dc.lft.to/lastmile_qr_scan", "ios": "https://dc.lft.to/lastmile_qr_scan"}, "lat": 38.8790925, "is_reserved": 0, "is_disabled": 0, "fusion_lat": 0.0}, {"fusion_lon": 0.0, "bike_id": "9190d370ab61cc337475d4d919ee6bf6", "name": "9190d370ab61cc337475d4d919ee6bf6", "type": "electric_scooter", "lon": -76.94196616666666, "rental_uris": {"android": "https://dc.lft.to/lastmile_qr_scan", "ios": "https://dc.lft.to/lastmile_qr_scan"}, "lat": 38.893753, "is_reserved": 0, "is_disabled": 0, "fusion_lat": 0.0}, {"fusion_lon": 0.0, "bike_id": "bb5f8af91887888d9f4854954204cb8f", "name": "bb5f8af91887888d9f4854954204cb8f", "type": "electric_scooter", "lon": -77.02650316666667, "rental_uris": {"android": "https://dc.lft.to/lastmile_qr_scan", "ios": "https://dc.lft.to/lastmile_qr_scan"}, "lat": 38.93872966666667, "is_reserved": 0, "is_disabled": 0, "fusion_lat": 0.0}, {"fusion_lon": 0.0, "bike_id": "3cdaff030a2ed227473bad59bba04968", "name": "3cdaff030a2ed227473bad59bba04968", "type": "electric_scooter", "lon": -77.0384925, "rental_uris": {"android": "https://dc.lft.to/lastmile_qr_scan", "ios": "https://dc.lft.to/lastmile_qr_scan"}, "lat": 38.90579983333333, "is_reserved": 0, "is_disabled": 0, "fusion_lat": 0.0}, {"fusion_lon": 0.0, "bike_id": "b9e4ba61b6087d87ad050e65d76efbb9", "name": "b9e4ba61b6087d87ad050e65d76efbb9", "type": "electric_scooter", "lon": -77.03207533333334, "rental_uris": {"android": "https://dc.lft.to/lastmile_qr_scan", "ios": "https://dc.lft.to/lastmile_qr_scan"}, "lat": 38.91398016666667, "is_reserved": 0, "is_disabled": 0, "fusion_lat": 0.0}, {"fusion_lon": 0.0, "bike_id": "53f68d1cbf3a69efeb2fed8f07585e9c", "name": "53f68d1cbf3a69efeb2fed8f07585e9c", "type": "electric_bike", "lon": -76.93199433333334, "rental_uris": {"android": "https://dc.lft.to/lastmile_qr_scan", "ios": "https://dc.lft.to/lastmile_qr_scan"}, "lat": 38.87234, "is_reserved": 0, "is_disabled": 0, "fusion_lat": 0.0}, {"fusion_lon": 0.0, "bike_id": "055aac4d61b7dfb76de9dfd5ff814ebc", "name": "055aac4d61b7dfb76de9dfd5ff814ebc", "type": "electric_scooter", "lon": -77.02161633333333, "rental_uris": {"android": "https://dc.lft.to/lastmile_qr_scan", "ios": "https://dc.lft.to/lastmile_qr_scan"}, "lat": 38.92613133333333, "is_reserved": 0, "is_disabled": 0, "fusion_lat": 0.0}, {"fusion_lon": 0.0, "bike_id": "4a0196db0f4536be4bd26f59e2d50b0d", "name": "4a0196db0f4536be4bd26f59e2d50b0d", "type": "electric_scooter", "lon": -77.0399765, "rental_uris": {"android": "https://dc.lft.to/lastmile_qr_scan", "ios": "https://dc.lft.to/lastmile_qr_scan"}, "lat": 38.924319833333335, "is_reserved": 0, "is_disabled": 0, "fusion_lat": 0.0}, {"fusion_lon": 0.0, "bike_id": "6f2a0f2a8987ddcb2a8d50fec118cb4a", "name": "6f2a0f2a8987ddcb2a8d50fec118cb4a", "type": "electric_scooter", "lon": -77.03906316666666, "rental_uris": {"android": "https://dc.lft.to/lastmile_qr_scan", "ios": "https://dc.lft.to/lastmile_qr_scan"}, "lat": 38.91419, "is_reserved": 0, "is_disabled": 0, "fusion_lat": 0.0}, {"fusion_lon": 0.0, "bike_id": "f8bb80ad09ff248ec3d39dc1d6c4392e", "name": "f8bb80ad09ff248ec3d39dc1d6c4392e", "type": "electric_scooter", "lon": -77.0232155, "rental_uris": {"android": "https://dc.lft.to/lastmile_qr_scan", "ios": "https://dc.lft.to/lastmile_qr_scan"}, "lat": 38.91792433333333, "is_reserved": 0, "is_disabled": 0, "fusion_lat": 0.0}, {"fusion_lon": 0.0, "bike_id": "c0a40cc52189393261d4e3a01571c442", "name": "c0a40cc52189393261d4e3a01571c442", "type": "electric_scooter", "lon": -77.01849916666667, "rental_uris": {"android": "https://dc.lft.to/lastmile_qr_scan", "ios": "https://dc.lft.to/lastmile_qr_scan"}, "lat": 38.954291166666664, "is_reserved": 0, "is_disabled": 0, "fusion_lat": 0.0}, {"fusion_lon": 0.0, "bike_id": "4feb66d35f891ab84df2a5ad71ba0699", "name": "4feb66d35f891ab84df2a5ad71ba0699", "type": "electric_scooter", "lon": -77.019156, "rental_uris": {"android": "https://dc.lft.to/lastmile_qr_scan", "ios": "https://dc.lft.to/lastmile_qr_scan"}, "lat": 38.9026985, "is_reserved": 0, "is_disabled": 0, "fusion_lat": 0.0}, {"fusion_lon": 0.0, "bike_id": "b6f1bc515ec858d2b0e114db4d6e2979", "name": "b6f1bc515ec858d2b0e114db4d6e2979", "type": "electric_scooter", "lon": -77.031511, "rental_uris": {"android": "https://dc.lft.to/lastmile_qr_scan", "ios": "https://dc.lft.to/lastmile_qr_scan"}, "lat": 38.883026, "is_reserved": 0, "is_disabled": 0, "fusion_lat": 0.0}, {"fusion_lon": 0.0, "bike_id": "61119e5532f0d8a7aa29eb78b6b12c1d", "name": "61119e5532f0d8a7aa29eb78b6b12c1d", "type": "electric_scooter", "lon": -77.0319235, "rental_uris": {"android": "https://dc.lft.to/lastmile_qr_scan", "ios": "https://dc.lft.to/lastmile_qr_scan"}, "lat": 38.91192083333333, "is_reserved": 0, "is_disabled": 0, "fusion_lat": 0.0}, {"fusion_lon": 0.0, "bike_id": "a7b2dc209ae68a72070f5b8c60b34e41", "name": "a7b2dc209ae68a72070f5b8c60b34e41", "type": "electric_scooter", "lon": -77.00590416666667, "rental_uris": {"android": "https://dc.lft.to/lastmile_qr_scan", "ios": "https://dc.lft.to/lastmile_qr_scan"}, "lat": 38.92754383333333, "is_reserved": 0, "is_disabled": 0, "fusion_lat": 0.0}, {"fusion_lon": 0.0, "bike_id": "63e4f2a8b9345b9e0fc2dca0e824dff9", "name": "63e4f2a8b9345b9e0fc2dca0e824dff9", "type": "electric_scooter", "lon": -77.0653055, "rental_uris": {"android": "https://dc.lft.to/lastmile_qr_scan", "ios": "https://dc.lft.to/lastmile_qr_scan"}, "lat": 38.91129433333333, "is_reserved": 0, "is_disabled": 0, "fusion_lat": 0.0}, {"fusion_lon": 0.0, "bike_id": "53c956789f1d71ab7ef2ade4332cadc0", "name": "53c956789f1d71ab7ef2ade4332cadc0", "type": "electric_bike", "lon": -77.099617, "rental_uris": {"android": "https://dc.lft.to/lastmile_qr_scan", "ios": "https://dc.lft.to/lastmile_qr_scan"}, "lat": 38.8579, "is_reserved": 0, "is_disabled": 0, "fusion_lat": 0.0}, {"fusion_lon": 0.0, "bike_id": "a7c10caea3770f9746245e41613f5d23", "name": "a7c10caea3770f9746245e41613f5d23", "type": "electric_scooter", "lon": -77.03436616666667, "rental_uris": {"android": "https://dc.lft.to/lastmile_qr_scan", "ios": "https://dc.lft.to/lastmile_qr_scan"}, "lat": 38.91808483333333, "is_reserved": 0, "is_disabled": 0, "fusion_lat": 0.0}, {"fusion_lon": 0.0, "bike_id": "776eac55f6432b0bb9857627448d5b25", "name": "776eac55f6432b0bb9857627448d5b25", "type": "electric_scooter", "lon": -76.9907705, "rental_uris": {"android": "https://dc.lft.to/lastmile_qr_scan", "ios": "https://dc.lft.to/lastmile_qr_scan"}, "lat": 38.860521166666665, "is_reserved": 0, "is_disabled": 0, "fusion_lat": 0.0}, {"fusion_lon": 0.0, "bike_id": "2745ef752af241f1d066f5806b324fae", "name": "2745ef752af241f1d066f5806b324fae", "type": "electric_scooter", "lon": -77.022957, "rental_uris": {"android": "https://dc.lft.to/lastmile_qr_scan", "ios": "https://dc.lft.to/lastmile_qr_scan"}, "lat": 38.917183333333334, "is_reserved": 0, "is_disabled": 0, "fusion_lat": 0.0}, {"fusion_lon": 0.0, "bike_id": "c56d8b3e990eb78a7a2223d87f162768", "name": "c56d8b3e990eb78a7a2223d87f162768", "type": "electric_scooter", "lon": -77.06253583333333, "rental_uris": {"android": "https://dc.lft.to/lastmile_qr_scan", "ios": "https://dc.lft.to/lastmile_qr_scan"}, "lat": 38.9131745, "is_reserved": 0, "is_disabled": 0, "fusion_lat": 0.0}, {"fusion_lon": 0.0, "bike_id": "9f3b6576ace6d0bf0007b8d97c4e38ce", "name": "9f3b6576ace6d0bf0007b8d97c4e38ce", "type": "electric_scooter", "lon": -77.03910316666666, "rental_uris": {"android": "https://dc.lft.to/lastmile_qr_scan", "ios": "https://dc.lft.to/lastmile_qr_scan"}, "lat": 38.9142055, "is_reserved": 0, "is_disabled": 0, "fusion_lat": 0.0}, {"fusion_lon": 0.0, "bike_id": "22c7ac89134163af8d16a53756ea9ebf", "name": "22c7ac89134163af8d16a53756ea9ebf", "type": "electric_scooter", "lon": -77.0120355, "rental_uris": {"android": "https://dc.lft.to/lastmile_qr_scan", "ios": "https://dc.lft.to/lastmile_qr_scan"}, "lat": 38.925867, "is_reserved": 0, "is_disabled": 0, "fusion_lat": 0.0}, {"fusion_lon": 0.0, "bike_id": "03e3e77d10afea65ed5a2789d0a4a8f5", "name": "03e3e77d10afea65ed5a2789d0a4a8f5", "type": "electric_scooter", "lon": -77.02448433333333, "rental_uris": {"android": "https://dc.lft.to/lastmile_qr_scan", "ios": "https://dc.lft.to/lastmile_qr_scan"}, "lat": 38.908547666666664, "is_reserved": 0, "is_disabled": 0, "fusion_lat": 0.0}, {"fusion_lon": 0.0, "bike_id": "659ea2d9d4c96ca1e3cec65888bb1fba", "name": "659ea2d9d4c96ca1e3cec65888bb1fba", "type": "electric_scooter", "lon": -77.019912, "rental_uris": {"android": "https://dc.lft.to/lastmile_qr_scan", "ios": "https://dc.lft.to/lastmile_qr_scan"}, "lat": 38.96639866666666, "is_reserved": 0, "is_disabled": 0, "fusion_lat": 0.0}, {"fusion_lon": 0.0, "bike_id": "71f09cfcb66bf854af4c767c5971f7be", "name": "71f09cfcb66bf854af4c767c5971f7be", "type": "electric_scooter", "lon": -77.02219166666667, "rental_uris": {"android": "https://dc.lft.to/lastmile_qr_scan", "ios": "https://dc.lft.to/lastmile_qr_scan"}, "lat": 38.892229, "is_reserved": 0, "is_disabled": 0, "fusion_lat": 0.0}, {"fusion_lon": 0.0, "bike_id": "713e7db5941ced00c30c58c7df7ee03f", "name": "713e7db5941ced00c30c58c7df7ee03f", "type": "electric_scooter", "lon": -77.05755416666666, "rental_uris": {"android": "https://dc.lft.to/lastmile_qr_scan", "ios": "https://dc.lft.to/lastmile_qr_scan"}, "lat": 38.92493066666667, "is_reserved": 0, "is_disabled": 0, "fusion_lat": 0.0}, {"fusion_lon": 0.0, "bike_id": "e49359f2f62e2fda2e03dc540137eab9", "name": "e49359f2f62e2fda2e03dc540137eab9", "type": "electric_scooter", "lon": -76.94914233333333, "rental_uris": {"android": "https://dc.lft.to/lastmile_qr_scan", "ios": "https://dc.lft.to/lastmile_qr_scan"}, "lat": 38.894891333333334, "is_reserved": 0, "is_disabled": 0, "fusion_lat": 0.0}, {"fusion_lon": 0.0, "bike_id": "7a5f7a26ab831dd641429288f649e951", "name": "7a5f7a26ab831dd641429288f649e951", "type": "electric_scooter", "lon": -76.99014983333333, "rental_uris": {"android": "https://dc.lft.to/lastmile_qr_scan", "ios": "https://dc.lft.to/lastmile_qr_scan"}, "lat": 38.90037866666667, "is_reserved": 0, "is_disabled": 0, "fusion_lat": 0.0}, {"fusion_lon": 0.0, "bike_id": "1ba268e277d50dc7abceff5cc117b158", "name": "1ba268e277d50dc7abceff5cc117b158", "type": "electric_scooter", "lon": -76.99002716666666, "rental_uris": {"android": "https://dc.lft.to/lastmile_qr_scan", "ios": "https://dc.lft.to/lastmile_qr_scan"}, "lat": 38.86506716666667, "is_reserved": 0, "is_disabled": 0, "fusion_lat": 0.0}, {"fusion_lon": 0.0, "bike_id": "f1fae5057a363838a9ade23cbbfd084f", "name": "f1fae5057a363838a9ade23cbbfd084f", "type": "electric_scooter", "lon": -77.023242, "rental_uris": {"android": "https://dc.lft.to/lastmile_qr_scan", "ios": "https://dc.lft.to/lastmile_qr_scan"}, "lat": 38.89664483333333, "is_reserved": 0, "is_disabled": 0, "fusion_lat": 0.0}, {"fusion_lon": 0.0, "bike_id": "b10fd6dd99411e5867049d38bef9170c", "name": "b10fd6dd99411e5867049d38bef9170c", "type": "electric_scooter", "lon": -77.03282133333333, "rental_uris": {"android": "https://dc.lft.to/lastmile_qr_scan", "ios": "https://dc.lft.to/lastmile_qr_scan"}, "lat": 38.947008333333336, "is_reserved": 0, "is_disabled": 0, "fusion_lat": 0.0}, {"fusion_lon": 0.0, "bike_id": "85f44d0bf6b906acaa43dfe5bd60791a", "name": "85f44d0bf6b906acaa43dfe5bd60791a", "type": "electric_scooter", "lon": -76.99359666666666, "rental_uris": {"android": "https://dc.lft.to/lastmile_qr_scan", "ios": "https://dc.lft.to/lastmile_qr_scan"}, "lat": 38.9283865, "is_reserved": 0, "is_disabled": 0, "fusion_lat": 0.0}, {"fusion_lon": 0.0, "bike_id": "009971f2e8dc86adb7c7dedd0a40b11b", "name": "009971f2e8dc86adb7c7dedd0a40b11b", "type": "electric_scooter", "lon": -77.0218, "rental_uris": {"android": "https://dc.lft.to/lastmile_qr_scan", "ios": "https://dc.lft.to/lastmile_qr_scan"}, "lat": 38.907886, "is_reserved": 0, "is_disabled": 0, "fusion_lat": 0.0}, {"fusion_lon": 0.0, "bike_id": "51b88b16b8f2fc40fcb24518e3443b57", "name": "51b88b16b8f2fc40fcb24518e3443b57", "type": "electric_scooter", "lon": -77.03828216666666, "rental_uris": {"android": "https://dc.lft.to/lastmile_qr_scan", "ios": "https://dc.lft.to/lastmile_qr_scan"}, "lat": 38.9111105, "is_reserved": 0, "is_disabled": 0, "fusion_lat": 0.0}, {"fusion_lon": 0.0, "bike_id": "856fd828e8cc0d5bb5a57c7f96399d36", "name": "856fd828e8cc0d5bb5a57c7f96399d36", "type": "electric_bike", "lon": -76.95161466666667, "rental_uris": {"android": "https://dc.lft.to/lastmile_qr_scan", "ios": "https://dc.lft.to/lastmile_qr_scan"}, "lat": 38.8851805, "is_reserved": 0, "is_disabled": 0, "fusion_lat": 0.0}, {"fusion_lon": 0.0, "bike_id": "e7770afc785f692c0cc5075e06aac3c4", "name": "e7770afc785f692c0cc5075e06aac3c4", "type": "electric_scooter", "lon": -77.03464666666666, "rental_uris": {"android": "https://dc.lft.to/lastmile_qr_scan", "ios": "https://dc.lft.to/lastmile_qr_scan"}, "lat": 38.92151466666667, "is_reserved": 0, "is_disabled": 0, "fusion_lat": 0.0}, {"fusion_lon": 0.0, "bike_id": "5a398b8a35af09c9549b2830fe1395dd", "name": "5a398b8a35af09c9549b2830fe1395dd", "type": "electric_scooter", "lon": -77.03729583333333, "rental_uris": {"android": "https://dc.lft.to/lastmile_qr_scan", "ios": "https://dc.lft.to/lastmile_qr_scan"}, "lat": 38.9285495, "is_reserved": 0, "is_disabled": 0, "fusion_lat": 0.0},