{"data": {"bikes": [{"name": "440ba5311b781d52ba30bc881c478a59", "type": "electric_scooter", "lat": 38.91023533333333, "is_reserved": 0, "lon": -77.04806266666667, "fusion_lon": 0.0, "is_disabled": 0, "fusion_lat": 0.0, "bike_id": "440ba5311b781d52ba30bc881c478a59", "rental_uris": {"ios": "https://dc.lft.to/lastmile_qr_scan", "android": "https://dc.lft.to/lastmile_qr_scan"}}, {"name": "acc549055c1b8de11e32b987d0a207ef", "type": "electric_scooter", "lat": 38.90272866666667, "is_reserved": 0, "lon": -77.03447716666666, "fusion_lon": 0.0, "is_disabled": 0, "fusion_lat": 0.0, "bike_id": "acc549055c1b8de11e32b987d0a207ef", "rental_uris": {"ios": "https://dc.lft.to/lastmile_qr_scan", "android": "https://dc.lft.to/lastmile_qr_scan"}}, {"name": "d19b6fd611d2d2a84b7972c3c90f7f0b", "type": "electric_bike", "lat": 38.949098166666666, "is_reserved": 0, "lon": -76.96368533333333, "fusion_lon": 0.0, "is_disabled": 0, "fusion_lat": 0.0, "bike_id": "d19b6fd611d2d2a84b7972c3c90f7f0b", "rental_uris": {"ios": "https://dc.lft.to/lastmile_qr_scan", "android": "https://dc.lft.to/lastmile_qr_scan"}}, {"name": "cdc2862fad013de6c2e7fa85380a29c4", "type": "electric_scooter", "lat": 38.8987465, "is_reserved": 0, "lon": -76.9316135, "fusion_lon": 0.0, "is_disabled": 0, "fusion_lat": 0.0, "bike_id": "cdc2862fad013de6c2e7fa85380a29c4", "rental_uris": {"ios": "https://dc.lft.to/lastmile_qr_scan", "android": "https://dc.lft.to/lastmile_qr_scan"}}, {"name": "cb1e163a29cc6b89bb97c7e94c3943f6", "type": "electric_scooter", "lat": 38.94173633333333, "is_reserved": 0, "lon": -77.04133933333334, "fusion_lon": 0.0, "is_disabled": 0, "fusion_lat": 0.0, "bike_id": "cb1e163a29cc6b89bb97c7e94c3943f6", "rental_uris": {"ios": "https://dc.lft.to/lastmile_qr_scan", "android": "https://dc.lft.to/lastmile_qr_scan"}}, {"name": "e9b727cefeaa936d92d2f2c729724fc9", "type": "electric_scooter", "lat": 38.928693333333335, "is_reserved": 0, "lon": -77.032264, "fusion_lon": 0.0, "is_disabled": 0, "fusion_lat": 0.0, "bike_id": "e9b727cefeaa936d92d2f2c729724fc9", "rental_uris": {"ios": "https://dc.lft.to/lastmile_qr_scan", "android": "https://dc.lft.to/lastmile_qr_scan"}}, {"name": "6099258bd9a21f8346011d5aa0af058f", "type": "electric_bike", "lat": 38.99833816666667, "is_reserved": 0, "lon": -76.88363116666666, "fusion_lon": 0.0, "is_disabled": 0, "fusion_lat": 0.0, "bike_id": "6099258bd9a21f8346011d5aa0af058f", "rental_uris": {"ios": "https://dc.lft.to/lastmile_qr_scan", "android": "https://dc.lft.to/lastmile_qr_scan"}}, {"name": "de87e17ec5a275adcfdbc2bc5592edba", "type": "electric_scooter", "lat": 38.928983833333334, "is_reserved": 0, "lon": -77.05457833333334, "fusion_lon": 0.0, "is_disabled": 0, "fusion_lat": 0.0, "bike_id": "de87e17ec5a275adcfdbc2bc5592edba", "rental_uris": {"ios": "https://dc.lft.to/lastmile_qr_scan", "android": "https://dc.lft.to/lastmile_qr_scan"}}, {"name": "33b6569d6701821b59a0f4c6cf2b615c", "type": "electric_scooter", "lat": 38.918443333333336, "is_reserved": 0, "lon": -77.0259095, "fusion_lon": 0.0, "is_disabled": 0, "fusion_lat": 0.0, "bike_id": "33b6569d6701821b59a0f4c6cf2b615c", "rental_uris": {"ios": "https://dc.lft.to/lastmile_qr_scan", "android": "https://dc.lft.to/lastmile_qr_scan"}}, {"name": "451e56de362b6845ffb0113e9c842fe1", "type": "electric_scooter", "lat": 38.90340066666667, "is_reserved": 0, "lon": -77.06646316666667, "fusion_lon": 0.0, "is_disabled": 0, "fusion_lat": 0.0, "bike_id": "451e56de362b6845ffb0113e9c842fe1", "rental_uris": {"ios": "https://dc.lft.to/lastmile_qr_scan", "android": "https://dc.lft.to/lastmile_qr_scan"}}, {"name": "23a48c7c3f7605e5a0bf3515036dc359", "type": "electric_scooter", "lat": 38.856442, "is_reserved": 0, "lon": -76.97447716666667, "fusion_lon": 0.0, "is_disabled": 0, "fusion_lat": 0.0, "bike_id": "23a48c7c3f7605e5a0bf3515036dc359", "rental_uris": {"ios": "https://dc.lft.to/lastmile_qr_scan", "android": "https://dc.lft.to/lastmile_qr_scan"}}, {"name": "4a3273e15eea141952979f2b10d9c2cd", "type": "electric_scooter", "lat": 38.9013265, "is_reserved": 0, "lon": -77.03968616666667, "fusion_lon": 0.0, "is_disabled": 0, "fusion_lat": 0.0, "bike_id": "4a3273e15eea141952979f2b10d9c2cd", "rental_uris": {"ios": "https://dc.lft.to/lastmile_qr_scan", "android": "https://dc.lft.to/lastmile_qr_scan"}}, {"name": "8fa1e6d333fb9c5e1941ea66c3ba8426", "type": "electric_scooter", "lat": 38.90382133333333, "is_reserved": 0, "lon": -77.01102383333334, "fusion_lon": 0.0, "is_disabled": 0, "fusion_lat": 0.0, "bike_id": "8fa1e6d333fb9c5e1941ea66c3ba8426", "rental_uris": {"ios": "https://dc.lft.to/lastmile_qr_scan", "android": "https://dc.lft.to/lastmile_qr_scan"}}, {"name": "111fbb1e47918169b1de0fb3594b0ce6", "type": "electric_scooter", "lat": 38.90003566666667, "is_reserved": 0, "lon": -77.011846, "fusion_lon": 0.0, "is_disabled": 0, "fusion_lat": 0.0, "bike_id": "111fbb1e47918169b1de0fb3594b0ce6", "rental_uris": {"ios": "https://dc.lft.to/lastmile_qr_scan", "android": "https://dc.lft.to/lastmile_qr_scan"}}, {"name": "a4e839a1815f2bd13828a68e111e72c4", "type": "electric_bike", "lat": 39.088577666666666, "is_reserved": 0, "lon": -77.17840783333334, "fusion_lon": 0.0, "is_disabled": 0, "fusion_lat": 0.0, "bike_id": "a4e839a1815f2bd13828a68e111e72c4", "rental_uris": {"ios": "https://dc.lft.to/lastmile_qr_scan", "android": "https://dc.lft.to/lastmile_qr_scan"}}, {"name": "0f4b82cc94250e4e8e823d32688e38f3", "type": "electric_scooter", "lat": 38.90281483333333, "is_reserved": 0, "lon": -77.0363265, "fusion_lon": 0.0, "is_disabled": 0, "fusion_lat": 0.0, "bike_id": "0f4b82cc94250e4e8e823d32688e38f3", "rental_uris": {"ios": "https://dc.lft.to/lastmile_qr_scan", "android": "https://dc.lft.to/lastmile_qr_scan"}}, {"name": "0c9b58ba4b54030b88f591672144977e", "type": "electric_scooter", "lat": 38.90705, "is_reserved": 0, "lon": -77.03264733333333, "fusion_lon": 0.0, "is_disabled": 0, "fusion_lat": 0.0, "bike_id": "0c9b58ba4b54030b88f591672144977e", "rental_uris": {"ios": "https://dc.lft.to/lastmile_qr_scan", "android": "https://dc.lft.to/lastmile_qr_scan"}}, {"name": "cc21e4bd9697fa0a85bfef60e5c826cb", "type": "electric_scooter", "lat": 38.956482, "is_reserved": 0, "lon": -77.032897, "fusion_lon": 0.0, "is_disabled": 0, "fusion_lat": 0.0, "bike_id": "cc21e4bd9697fa0a85bfef60e5c826cb", "rental_uris": {"ios": "https://dc.lft.to/lastmile_qr_scan", "android": "https://dc.lft.to/lastmile_qr_scan"}}, {"name": "c99ab38bd5f0a0600a1dd049024d4899", "type": "electric_scooter", "lat": 38.90115083333333, "is_reserved": 0, "lon": -77.04217466666667, "fusion_lon": 0.0, "is_disabled": 0, "fusion_lat": 0.0, "bike_id": "c99ab38bd5f0a0600a1dd049024d4899", "rental_uris": {"ios": "https://dc.lft.to/lastmile_qr_scan", "android": "https://dc.lft.to/lastmile_qr_scan"}}, {"name": "6f619b7a1be65fb27154d4cfa65e8176", "type": "electric_scooter", "lat": 38.9067445, "is_reserved": 0, "lon": -77.02701166666667, "fusion_lon": 0.0, "is_disabled": 0, "fusion_lat": 0.0, "bike_id": "6f619b7a1be65fb27154d4cfa65e8176", "rental_uris": {"ios": "https://dc.lft.to/lastmile_qr_scan", "android": "https://dc.lft.to/lastmile_qr_scan"}}, {"name": "7f30da09c6831e278c957fd79eba27ed", "type": "electric_scooter", "lat": 38.897889166666666, "is_reserved": 0, "lon": -77.02811266666667, "fusion_lon": 0.0, "is_disabled": 0, "fusion_lat": 0.0, "bike_id": "7f30da09c6831e278c957fd79eba27ed", "rental_uris": {"ios": "https://dc.lft.to/lastmile_qr_scan", "android": "https://dc.lft.to/lastmile_qr_scan"}}, {"name": "2c0cfdfa41c041d55db25568d85fcc9f", "type": "electric_bike", "lat": 38.92857716666666, "is_reserved": 0, "lon": -77.22214816666667, "fusion_lon": 0.0, "is_disabled": 0, "fusion_lat": 0.0, "bike_id": "2c0cfdfa41c041d55db25568d85fcc9f", "rental_uris": {"ios": "https://dc.lft.to/lastmile_qr_scan", "android": "https://dc.lft.to/lastmile_qr_scan"}}, {"name": "6ac1de3548aab01bbcc028d2829f9885", "type": "electric_bike", "lat": 38.9352205, "is_reserved": 0, "lon": -76.95061333333334, "fusion_lon": 0.0, "is_disabled": 0, "fusion_lat": 0.0, "bike_id": "6ac1de3548aab01bbcc028d2829f9885", "rental_uris": {"ios": "https://dc.lft.to/lastmile_qr_scan", "android": "https://dc.lft.to/lastmile_qr_scan"}}, {"name": "d0325a6b75c1f2e4453cfeefe01779f2", "type": "electric_scooter", "lat": 38.86537783333333, "is_reserved": 0, "lon": -76.98705883333334, "fusion_lon": 0.0, "is_disabled": 0, "fusion_lat": 0.0, "bike_id": "d0325a6b75c1f2e4453cfeefe01779f2", "rental_uris": {"ios": "https://dc.lft.to/lastmile_qr_scan", "android": "https://dc.lft.to/lastmile_qr_scan"}}, {"name": "df5efeac8e507a8f60f29d26694de112", "type": "electric_scooter", "lat": 38.895605833333335, "is_reserved": 0, "lon": -77.05005866666667, "fusion_lon": 0.0, "is_disabled": 0, "fusion_lat": 0.0, "bike_id": "df5efeac8e507a8f60f29d26694de112", "rental_uris": {"ios": "https://dc.lft.to/lastmile_qr_scan", "android": "https://dc.lft.to/lastmile_qr_scan"}}, {"name": "f833da85ba8b2119246dd50f29d3b559", "type": "electric_scooter", "lat": 38.862451, "is_reserved": 0, "lon": -76.99498533333333, "fusion_lon": 0.0, "is_disabled": 0, "fusion_lat": 0.0, "bike_id": "f833da85ba8b2119246dd50f29d3b559", "rental_uris": {"ios": "https://dc.lft.to/lastmile_qr_scan", "android": "https://dc.lft.to/lastmile_qr_scan"}}, {"name": "8b4da996118594488ccd59f8e66a119e", "type": "electric_scooter", "lat": 38.92741916666667, "is_reserved": 0, "lon": -77.01201566666667, "fusion_lon": 0.0, "is_disabled": 0, "fusion_lat": 0.0, "bike_id": "8b4da996118594488ccd59f8e66a119e", "rental_uris": {"ios": "https://dc.lft.to/lastmile_qr_scan", "android": "https://dc.lft.to/lastmile_qr_scan"}}, {"name": "a38e192e37ffa5bb87b803b8b7461e43", "type": "electric_scooter", "lat": 38.9013315, "is_reserved": 0, "lon": -77.04017683333333, "fusion_lon": 0.0, "is_disabled": 0, "fusion_lat": 0.0, "bike_id": "a38e192e37ffa5bb87b803b8b7461e43", "rental_uris": {"ios": "https://dc.lft.to/lastmile_qr_scan", "android": "https://dc.lft.to/lastmile_qr_scan"}}, {"name": "550d7d3188bcd8c14261834dcd20fddf", "type": "electric_scooter", "lat": 38.929448, "is_reserved": 0, "lon": -76.99744833333334, "fusion_lon": 0.0, "is_disabled": 0, "fusion_lat": 0.0, "bike_id": "550d7d3188bcd8c14261834dcd20fddf", "rental_uris": {"ios": "https://dc.lft.to/lastmile_qr_scan", "android": "https://dc.lft.to/lastmile_qr_scan"}}, {"name": "fc0323a3c5e4f2b57666f8dd2a1a5db4", "type": "electric_scooter", "lat": 38.92166266666667, "is_reserved": 0, "lon": -77.026792, "fusion_lon": 0.0, "is_disabled": 0, "fusion_lat": 0.0, "bike_id": "fc0323a3c5e4f2b57666f8dd2a1a5db4", "rental_uris": {"ios": "https://dc.lft.to/lastmile_qr_scan", "android": "https://dc.lft.to/lastmile_qr_scan"}}, {"name": "2aa936b4ca9f0b49b16eda9ec152ae54", "type": "electric_scooter", "lat": 38.9112975, "is_reserved": 0, "lon": -77.0435665, "fusion_lon": 0.0, "is_disabled": 0, "fusion_lat": 0.0, "bike_id": "2aa936b4ca9f0b49b16eda9ec152ae54", "rental_uris": {"ios": "https://dc.lft.to/lastmile_qr_scan", "android": "https://dc.lft.to/lastmile_qr_scan"}}, {"name": "882a38bd2e27318d35a4b2ba56cb3b63", "type": "electric_scooter", "lat": 38.913397, "is_reserved": 0, "lon": -77.042766, "fusion_lon": 0.0, "is_disabled": 0, "fusion_lat": 0.0, "bike_id": "882a38bd2e27318d35a4b2ba56cb3b63", "rental_uris": {"ios": "https://dc.lft.to/lastmile_qr_scan", "android": "https://dc.lft.to/lastmile_qr_scan"}}, {"name": "af1ee4c1db49f3dd0377b35eb31138d0", "type": "electric_scooter", "lat": 38.89537816666667, "is_reserved": 0, "lon": -77.02424683333334, "fusion_lon": 0.0, "is_disabled": 0, "fusion_lat": 0.0, "bike_id": "af1ee4c1db49f3dd0377b35eb31138d0", "rental_uris": {"ios": "https://dc.lft.to/lastmile_qr_scan", "android": "https://dc.lft.to/lastmile_qr_scan"}}, {"name": "a774554d6db4298926ff41d5d68440bc", "type": "electric_scooter", "lat": 38.8820765, "is_reserved": 0, "lon": -77.01445983333333, "fusion_lon": 0.0, "is_disabled": 0, "fusion_lat": 0.0, "bike_id": "a774554d6db4298926ff41d5d68440bc", "rental_uris": {"ios": "https://dc.lft.to/lastmile_qr_scan", "android": "https://dc.lft.to/lastmile_qr_scan"}}, {"name": "816d57f82c15bf3f3d39ffbcf54b0490", "type": "electric_scooter", "lat": 38.900383, "is_reserved": 0, "lon": -77.00217283333333, "fusion_lon": 0.0, "is_disabled": 0, "fusion_lat": 0.0, "bike_id": "816d57f82c15bf3f3d39ffbcf54b0490", "rental_uris": {"ios": "https://dc.lft.to/lastmile_qr_scan", "android": "https://dc.lft.to/lastmile_qr_scan"}}, {"name": "8a59d4129befb2bb64ccdc51be2b7064", "type": "electric_scooter", "lat": 38.92710266666667, "is_reserved": 0, "lon": -77.02092866666666, "fusion_lon": 0.0, "is_disabled": 0, "fusion_lat": 0.0, "bike_id": "8a59d4129befb2bb64ccdc51be2b7064", "rental_uris": {"ios": "https://dc.lft.to/lastmile_qr_scan", "android": "https://dc.lft.to/lastmile_qr_scan"}}, {"name": "c649ccd187fad137b73fd04be9420b58", "type": "electric_bike", "lat": 38.949022666666664, "is_reserved": 0, "lon": -76.9637265, "fusion_lon": 0.0, "is_disabled": 0, "fusion_lat": 0.0, "bike_id": "c649ccd187fad137b73fd04be9420b58", "rental_uris": {"ios": "https://dc.lft.to/lastmile_qr_scan", "android": "https://dc.lft.to/lastmile_qr_scan"}}, {"name": "91985d4ae29f5101d4a112d91285ae2e", "type": "electric_scooter", "lat": 38.90629716666667, "is_reserved": 0, "lon": -77.03898483333333, "fusion_lon": 0.0, "is_disabled": 0, "fusion_lat": 0.0, "bike_id": "91985d4ae29f5101d4a112d91285ae2e", "rental_uris": {"ios": "https://dc.lft.to/lastmile_qr_scan", "android": "https://dc.lft.to/lastmile_qr_scan"}}, {"name": "9ef166d1a623aaab62946d419d4d0a12", "type": "electric_scooter", "lat": 38.892277666666665, "is_reserved": 0, "lon": -77.0500055, "fusion_lon": 0.0, "is_disabled": 0, "fusion_lat": 0.0, "bike_id": "9ef166d1a623aaab62946d419d4d0a12", "rental_uris": {"ios": "https://dc.lft.to/lastmile_qr_scan", "android": "https://dc.lft.to/lastmile_qr_scan"}}, {"name": "e8894b008ac2e6ecf383b3a08882fcd5", "type": "electric_scooter", "lat": 38.92893816666667, "is_reserved": 0, "lon": -77.01647533333333, "fusion_lon": 0.0, "is_disabled": 0, "fusion_lat": 0.0, "bike_id": "e8894b008ac2e6ecf383b3a08882fcd5", "rental_uris": {"ios": "https://dc.lft.to/lastmile_qr_scan", "android": "https://dc.lft.to/lastmile_qr_scan"}}, {"name": "3094b9b2b2c6ba60820a7c2815114ccd", "type": "electric_scooter", "lat": 38.904715, "is_reserved": 0, "lon": -77.04674816666666, "fusion_lon": 0.0, "is_disabled": 0, "fusion_lat": 0.0, "bike_id": "3094b9b2b2c6ba60820a7c2815114ccd", "rental_uris": {"ios": "https://dc.lft.to/lastmile_qr_scan", "android": "https://dc.lft.to/lastmile_qr_scan"}}, {"name": "d9ddf0923402deeabe47322fd380432b", "type": "electric_scooter", "lat": 38.9444635, "is_reserved": 0, "lon": -77.063525, "fusion_lon": 0.0, "is_disabled": 0, "fusion_lat": 0.0, "bike_id": "d9ddf0923402deeabe47322fd380432b", "rental_uris": {"ios": "https://dc.lft.to/lastmile_qr_scan", "android": "https://dc.lft.to/lastmile_qr_scan"}}, {"name": "64297cea1d6a1124073de8037b4ff849", "type": "electric_scooter", "lat": 38.9367665, "is_reserved": 0, "lon": -77.03625816666667, "fusion_lon": 0.0, "is_disabled": 0, "fusion_lat": 0.0, "bike_id": "64297cea1d6a1124073de8037b4ff849", "rental_uris": {"ios": "https://dc.lft.to/lastmile_qr_scan", "android": "https://dc.lft.to/lastmile_qr_scan"}}, {"name": "c400230275b80512deff9001603ba522", "type": "electric_scooter", "lat": 38.91253666666667, "is_reserved": 0, "lon": -77.03841383333334, "fusion_lon": 0.0, "is_disabled": 0, "fusion_lat": 0.0, "bike_id": "c400230275b80512deff9001603ba522", "rental_uris": {"ios": "https://dc.lft.to/lastmile_qr_scan", "android": "https://dc.lft.to/lastmile_qr_scan"}}, {"name": "3041e825474f42bf8d7319604808cda0", "type": "electric_bike", "lat": 38.80227383333333, "is_reserved": 0, "lon": -77.07915283333334, "fusion_lon": 0.0, "is_disabled": 0, "fusion_lat": 0.0, "bike_id": "3041e825474f42bf8d7319604808cda0", "rental_uris": {"ios": "https://dc.lft.to/lastmile_qr_scan", "android": "https://dc.lft.to/lastmile_qr_scan"}}, {"name": "dd7fb7b34b288c01c904fd121748460b", "type": "electric_bike", "lat": 38.90692883333333, "is_reserved": 0, "lon": -76.95187333333334, "fusion_lon": 0.0, "is_disabled": 0, "fusion_lat": 0.0, "bike_id": "dd7fb7b34b288c01c904fd121748460b", "rental_uris": {"ios": "https://dc.lft.to/lastmile_qr_scan", "android": "https://dc.lft.to/lastmile_qr_scan"}}, {"name": "14cd47be347f0892fcd12778f1840626", "type": "electric_scooter", "lat": 38.917724166666666, "is_reserved": 0, "lon": -77.04103633333334, "fusion_lon": 0.0, "is_disabled": 0, "fusion_lat": 0.0, "bike_id": "14cd47be347f0892fcd12778f1840626", "rental_uris": {"ios": "https://dc.lft.to/lastmile_qr_scan", "android": "https://dc.lft.to/lastmile_qr_scan"}}, {"name": "aff578ccd3f5fbed983393a91b74eb2c", "type": "electric_bike", "lat": 38.911019, "is_reserved": 0, "lon": -77.004889, "fusion_lon": 0.0, "is_disabled": 0, "fusion_lat": 0.0, "bike_id": "aff578ccd3f5fbed983393a91b74eb2c", "rental_uris": {"ios": "https://dc.lft.to/lastmile_qr_scan", "android": "https://dc.lft.to/lastmile_qr_scan"}}, {"name": "2a08931103ea945a2cfd0bf66301c799", "type": "electric_scooter", "lat": 38.9037155, "is_reserved": 0, "lon": -77.011034, "fusion_lon": 0.0, "is_disabled": 0, "fusion_lat": 0.0, "bike_id": "2a08931103ea945a2cfd0bf66301c799", "rental_uris": {"ios": "https://dc.lft.to/lastmile_qr_scan", "android": "https://dc.lft.to/lastmile_qr_scan"}}, {"name": "7323a547ba4a4503b1a50a07a1a4a672", "type": "electric_scooter", "lat": 38.89634733333333, "is_reserved": 0, "lon": -77.04182366666667, "fusion_lon": 0.0, "is_disabled": 0, "fusion_lat": 0.0, "bike_id": "7323a547ba4a4503b1a50a07a1a4a672", "rental_uris": {"ios": "https://dc.lft.to/lastmile_qr_scan", "android": "https://dc.lft.to/lastmile_qr_scan"}}, {"name": "d5239b270da548c20792a82eab4b633a", "type": "electric_scooter", "lat": 38.903377666666664, "is_reserved": 0, "lon": -76.998484, "fusion_lon": 0.0, "is_disabled": 0, "fusion_lat": 0.0, "bike_id": "d5239b270da548c20792a82eab4b633a", "rental_uris": {"ios": "https://dc.lft.to/lastmile_qr_scan", "android": "https://dc.lft.to/lastmile_qr_scan"}}, {"name": "2b88c2ec2943d30391f398b69bae698d", "type": "electric_scooter", "lat": 38.906475, "is_reserved": 0, "lon": -77.02501416666667, "fusion_lon": 0.0, "is_disabled": 0, "fusion_lat": 0.0, "bike_id": "2b88c2ec2943d30391f398b69bae698d", "rental_uris": {"ios": "https://dc.lft.to/lastmile_qr_scan", "android": "https://dc.lft.to/lastmile_qr_scan"}}, {"name": "a0d81e2c8b7dbd14e7f3388e7884b2a3", "type": "electric_scooter", "lat": 38.89225716666667, "is_reserved": 0, "lon": -77.04636066666667, "fusion_lon": 0.0, "is_disabled": 0, "fusion_lat": 0.0, "bike_id": "a0d81e2c8b7dbd14e7f3388e7884b2a3", "rental_uris": {"ios": "https://dc.lft.to/lastmile_qr_scan", "android": "https://dc.lft.to/lastmile_qr_scan"}}, {"name": "415ca13557c4d357257344c8b32ba6a9", "type": "electric_scooter", "lat": 38.90534266666667, "is_reserved": 0, "lon": -77.04340533333334, "fusion_lon": 0.0, "is_disabled": 0, "fusion_lat": 0.0, "bike_id": "415ca13557c4d357257344c8b32ba6a9", "rental_uris": {"ios": "https://dc.lft.to/lastmile_qr_scan", "android": "https://dc.lft.to/lastmile_qr_scan"}}, {"name": "dd5dcea768ecf4903a72700e03596935", "type": "electric_scooter", "lat": 38.934248833333335, "is_reserved": 0, "lon": -77.07235266666666, "fusion_lon": 0.0, "is_disabled": 0, "fusion_lat": 0.0, "bike_id": "dd5dcea768ecf4903a72700e03596935", "rental_uris": {"ios": "https://dc.lft.to/lastmile_qr_scan", "android": "https://dc.lft.to/lastmile_qr_scan"}}, {"name": "8485f5fad7cb4ba27fdabc409e68ee19", "type": "electric_scooter", "lat": 38.938882666666665, "is_reserved": 0, "lon": -77.0246845, "fusion_lon": 0.0, "is_disabled": 0, "fusion_lat": 0.0, "bike_id": "8485f5fad7cb4ba27fdabc409e68ee19", "rental_uris": {"ios": "https://dc.lft.to/lastmile_qr_scan", "android": "https://dc.lft.to/lastmile_qr_scan"}}, {"name": "99f06086bd4f1b15908c9032b24bba16", "type": "electric_scooter", "lat": 38.905692333333334, "is_reserved": 0, "lon": -77.03076566666667, "fusion_lon": 0.0, "is_disabled": 0, "fusion_lat": 0.0, "bike_id": "99f06086bd4f1b15908c9032b24bba16", "rental_uris": {"ios": "https://dc.lft.to/lastmile_qr_scan", "android": "https://dc.lft.to/lastmile_qr_scan"}}, {"name": "b22094cbd6ac1aaf99abe2ebba8050f1", "type": "electric_bike", "lat": 38.96537633333333, "is_reserved": 0, "lon": -77.03513483333333, "fusion_lon": 0.0, "is_disabled": 0, "fusion_lat": 0.0, "bike_id": "b22094cbd6ac1aaf99abe2ebba8050f1", "rental_uris": {"ios": "https://dc.lft.to/lastmile_qr_scan", "android": "https://dc.lft.to/lastmile_qr_scan"}}, {"name": "9fd42162c025221b57ba9eae9dc94791", "type": "electric_scooter", "lat": 38.87676483333333, "is_reserved": 0, "lon": -77.00072716666666, "fusion_lon": 0.0, "is_disabled": 0, "fusion_lat": 0.0, "bike_id": "9fd42162c025221b57ba9eae9dc94791", "rental_uris": {"ios": "https://dc.lft.to/lastmile_qr_scan", "android": "https://dc.lft.to/lastmile_qr_scan"}}, {"name": "573d834f8787a51fd4a1a757a2703b18", "type": "electric_scooter", "lat": 38.842947833333334, "is_reserved": 0, "lon": -76.99949866666667, "fusion_lon": 0.0, "is_disabled": 0, "fusion_lat": 0.0, "bike_id": "573d834f8787a51fd4a1a757a2703b18", "rental_uris": {"ios": "https://dc.lft.to/lastmile_qr_scan", "android": "https://dc.lft.to/lastmile_qr_scan"}}, {"name": "617ae39d1187ef59c1d7cc2aada9957b", "type": "electric_scooter", "lat": 38.89743, "is_reserved": 0, "lon": -77.01308166666666, "fusion_lon": 0.0, "is_disabled": 0, "fusion_lat": 0.0, "bike_id": "617ae39d1187ef59c1d7cc2aada9957b", "rental_uris": {"ios": "https://dc.lft.to/lastmile_qr_scan", "android": "https://dc.lft.to/lastmile_qr_scan"}}, {"name": "26cf81b6497c60a21b94a751e4088d20", "type": "electric_scooter", "lat": 38.91784783333333, "is_reserved": 0, "lon": -77.02307716666667, "fusion_lon": 0.0, "is_disabled": 0, "fusion_lat": 0.0, "bike_id": "26cf81b6497c60a21b94a751e4088d20", "rental_uris": {"ios": "https://dc.lft.to/lastmile_qr_scan", "android": "https://dc.lft.to/lastmile_qr_scan"}}, {"name": "9075461edcdd7cdc8d32e7320efab0b8", "type": "electric_scooter", "lat": 38.969865666666664, "is_reserved": 0, "lon": -77.0271485, "fusion_lon": 0.0, "is_disabled": 0, "fusion_lat": 0.0, "bike_id": "9075461edcdd7cdc8d32e7320efab0b8", "rental_uris": {"ios": "https://dc.lft.to/lastmile_qr_scan", "android": "https://dc.lft.to/lastmile_qr_scan"}}, {"name": "d8ef64e9e50451ee4004570de272612a", "type": "electric_scooter", "lat": 38.903264166666666, "is_reserved": 0, "lon": -77.03854983333333, "fusion_lon": 0.0, "is_disabled": 0, "fusion_lat": 0.0, "bike_id": "d8ef64e9e50451ee4004570de272612a", "rental_uris": {"ios": "https://dc.lft.to/lastmile_qr_scan", "android": "https://dc.lft.to/lastmile_qr_scan"}}, {"name": "2326bda98e1e3a78c505ffeda3b3b49c", "type": "electric_scooter", "lat": 38.884118, "is_reserved": 0, "lon": -76.97602983333333, "fusion_lon": 0.0, "is_disabled": 0, "fusion_lat": 0.0, "bike_id": "2326bda98e1e3a78c505ffeda3b3b49c", "rental_uris": {"ios": "https://dc.lft.to/lastmile_qr_scan", "android": "https://dc.lft.to/lastmile_qr_scan"}}, {"name": "27fcccc27feb570f2054a8223deabca2", "type": "electric_scooter", "lat": 38.902382, "is_reserved": 0, "lon": -77.02690133333333, "fusion_lon": 0.0, "is_disabled": 0, "fusion_lat": 0.0, "bike_id": "27fcccc27feb570f2054a8223deabca2", "rental_uris": {"ios": "https://dc.lft.to/lastmile_qr_scan", "android": "https://dc.lft.to/lastmile_qr_scan"}}, {"name": "94316122372acaec6a49d42472a9aedc", "type": "electric_scooter", "lat": 38.907160166666664, "is_reserved": 0, "lon": -77.0449915, "fusion_lon": 0.0, "is_disabled": 0, "fusion_lat": 0.0, "bike_id": "94316122372acaec6a49d42472a9aedc", "rental_uris": {"ios": "https://dc.lft.to/lastmile_qr_scan", "android": "https://dc.lft.to/lastmile_qr_scan"}}, {"name": "884329dc1c01e76a3c4dbfc5826f73cd", "type": "electric_scooter", "lat": 38.909596666666665, "is_reserved": 0, "lon": -76.98540716666666, "fusion_lon": 0.0, "is_disabled": 0, "fusion_lat": 0.0, "bike_id": "884329dc1c01e76a3c4dbfc5826f73cd", "rental_uris": {"ios": "https://dc.lft.to/lastmile_qr_scan", "android": "https://dc.lft.to/lastmile_qr_scan"}}, {"name": "0d0f0e6e42e66939cc04e5e11b95e2a1", "type": "electric_scooter", "lat": 38.91535616666667, "is_reserved": 0, "lon": -77.0443225, "fusion_lon": 0.0, "is_disabled": 0, "fusion_lat": 0.0, "bike_id": "0d0f0e6e42e66939cc04e5e11b95e2a1", "rental_uris": {"ios": "https://dc.lft.to/lastmile_qr_scan", "android": "https://dc.lft.to/lastmile_qr_scan"}}, {"name": "16b0a98caa85a38077381001ed3a3027", "type": "electric_scooter", "lat": 38.903256166666665, "is_reserved": 0, "lon": -77.053204, "fusion_lon": 0.0, "is_disabled": 0, "fusion_lat": 0.0, "bike_id": "16b0a98caa85a38077381001ed3a3027", "rental_uris": {"ios": "https://dc.lft.to/lastmile_qr_scan", "android": "https://dc.lft.to/lastmile_qr_scan"}}, {"name": "cb5ae3b185533e50e4c4db738070b816", "type": "electric_scooter", "lat": 38.920249166666665, "is_reserved": 0, "lon": -77.02596733333333, "fusion_lon": 0.0, "is_disabled": 0, "fusion_lat": 0.0, "bike_id": "cb5ae3b185533e50e4c4db738070b816", "rental_uris": {"ios": "https://dc.lft.to/lastmile_qr_scan", "android": "https://dc.lft.to/lastmile_qr_scan"}}, {"name": "ba145833ec6d02d8bcec06ea31e62de4", "type": "electric_scooter", "lat": 38.92910116666667, "is_reserved": 0, "lon": -77.01227083333333, "fusion_lon": 0.0, "is_disabled": 0, "fusion_lat": 0.0, "bike_id": "ba145833ec6d02d8bcec06ea31e62de4", "rental_uris": {"ios": "https://dc.lft.to/lastmile_qr_scan", "android": "https://dc.lft.to/lastmile_qr_scan"}}, {"name": "1d90128d2ba422c9157c059be7c91562", "type": "electric_scooter", "lat": 38.902773, "is_reserved": 0, "lon": -77.0344975, "fusion_lon": 0.0, "is_disabled": 0, "fusion_lat": 0.0, "bike_id": "1d90128d2ba422c9157c059be7c91562", "rental_uris": {"ios": "https://dc.lft.to/lastmile_qr_scan", "android": "https://dc.lft.to/lastmile_qr_scan"}}, {"name": "59ff5f0c03065d431a6ceb4981781551", "type": "electric_scooter", "lat": 38.905478, "is_reserved": 0, "lon": -77.06275, "fusion_lon": 0.0, "is_disabled": 0, "fusion_lat": 0.0, "bike_id": "59ff5f0c03065d431a6ceb4981781551", "rental_uris": {"ios": "https://dc.lft.to/lastmile_qr_scan", "android": "https://dc.lft.to/lastmile_qr_scan"}}, {"name": "15bad8484444a132f6671e98f34081e0", "type": "electric_scooter", "lat": 38.862208, "is_reserved": 0, "lon": -76.99493516666666, "fusion_lon": 0.0, "is_disabled": 0, "fusion_lat": 0.0, "bike_id": "15bad8484444a132f6671e98f34081e0", "rental_uris": {"ios": "https://dc.lft.to/lastmile_qr_scan", "android": "https://dc.lft.to/lastmile_qr_scan"}}, {"name": "81c5d0ab364696c93d8710c29ba71eae", "type": "electric_scooter", "lat": 38.906241333333334, "is_reserved": 0, "lon": -76.983154, "fusion_lon": 0.0, "is_disabled": 0, "fusion_lat": 0.0, "bike_id": "81c5d0ab364696c93d8710c29ba71eae", "rental_uris": {"ios": "https://dc.lft.to/lastmile_qr_scan", "android": "https://dc.lft.to/lastmile_qr_scan"}}, {"name": "e75c0795f7f4f0e6b0c4e7764abcdf18", "type": "electric_scooter", "lat": 38.919321, "is_reserved": 0, "lon": -77.031822, "fusion_lon": 0.0, "is_disabled": 0, "fusion_lat": 0.0, "bike_id": "e75c0795f7f4f0e6b0c4e7764abcdf18", "rental_uris": {"ios": "https://dc.lft.to/lastmile_qr_scan", "android": "https://dc.lft.to/lastmile_qr_scan"}}, {"name": "4c2a0bc1fd85c009d6c7d86cb33536ea", "type": "electric_scooter", "lat": 38.891044666666666, "is_reserved": 0, "lon": -76.98705233333334, "fusion_lon": 0.0, "is_disabled": 0, "fusion_lat": 0.0, "bike_id": "4c2a0bc1fd85c009d6c7d86cb33536ea", "rental_uris": {"ios": "https://dc.lft.to/lastmile_qr_scan", "android": "https://dc.lft.to/lastmile_qr_scan"}}, {"name": "7730abed7c5ca43f77586d7b5eaed785", "type": "electric_scooter", "lat": 38.932531, "is_reserved": 0, "lon": -77.0400195, "fusion_lon": 0.0, "is_disabled": 0, "fusion_lat": 0.0, "bike_id": "7730abed7c5ca43f77586d7b5eaed785", "rental_uris": {"ios": "https://dc.lft.to/lastmile_qr_scan", "android": "https://dc.lft.to/lastmile_qr_scan"}}, {"name": "b5bbf844a85afb37a0264eed5f60acf9", "type": "electric_scooter", "lat": 38.9057685, "is_reserved": 0, "lon": -77.00575166666667, "fusion_lon": 0.0, "is_disabled": 0, "fusion_lat": 0.0, "bike_id": "b5bbf844a85afb37a0264eed5f60acf9", "rental_uris": {"ios": "https://dc.lft.to/lastmile_qr_scan", "android": "https://dc.lft.to/lastmile_qr_scan"}}, {"name": "c6651a370ff739c7156e6927cd70c30b", "type": "electric_scooter", "lat": 38.904736666666665, "is_reserved": 0, "lon": -77.03562116666667, "fusion_lon": 0.0, "is_disabled": 0, "fusion_lat": 0.0, "bike_id": "c6651a370ff739c7156e6927cd70c30b", "rental_uris": {"ios": "https://dc.lft.to/lastmile_qr_scan", "android": "https://dc.lft.to/lastmile_qr_scan"}}, {"name": "69d090b1335b7def720374a252c74e37", "type": "electric_scooter", "lat": 38.90242683333334, "is_reserved": 0, "lon": -77.00198383333333, "fusion_lon": 0.0, "is_disabled": 0, "fusion_lat": 0.0, "bike_id": "69d090b1335b7def720374a252c74e37", "rental_uris": {"ios": "https://dc.lft.to/lastmile_qr_scan", "android": "https://dc.lft.to/lastmile_qr_scan"}}, {"name": "9b30fac1a038c1f64bd91cac8f82dfc0", "type": "electric_scooter", "lat": 38.893982, "is_reserved": 0, "lon": -76.94804566666667, "fusion_lon": 0.0, "is_disabled": 0, "fusion_lat": 0.0, "bike_id": "9b30fac1a038c1f64bd91cac8f82dfc0", "rental_uris": {"ios": "https://dc.lft.to/lastmile_qr_scan", "android": "https://dc.lft.to/lastmile_qr_scan"}}, {"name": "fbc78346c68d365692ef6b95e6358c3a", "type": "electric_scooter", "lat": 38.85712066666667, "is_reserved": 0, "lon": -76.981316, "fusion_lon": 0.0, "is_disabled": 0, "fusion_lat": 0.0, "bike_id": "fbc78346c68d365692ef6b95e6358c3a", "rental_uris": {"ios": "https://dc.lft.to/lastmile_qr_scan", "android": "https://dc.lft.to/lastmile_qr_scan"}}, {"name": "a002937a9888165cc247eef8d4590705", "type": "electric_scooter", "lat": 38.91868866666667, "is_reserved": 0, "lon": -77.03653133333333, "fusion_lon": 0.0, "is_disabled": 0, "fusion_lat": 0.0, "bike_id": "a002937a9888165cc247eef8d4590705", "rental_uris": {"ios": "https://dc.lft.to/lastmile_qr_scan", "android": "https://dc.lft.to/lastmile_qr_scan"}}, {"name": "4ed920e88c5acb203a144143310c05c0", "type": "electric_scooter", "lat": 38.929188, "is_reserved": 0, "lon": -77.03254316666667, "fusion_lon": 0.0, "is_disabled": 0, "fusion_lat": 0.0, "bike_id": "4ed920e88c5acb203a144143310c05c0", "rental_uris": {"ios": "https://dc.lft.to/lastmile_qr_scan", "android": "https://dc.lft.to/lastmile_qr_scan"}}, {"name": "c654032d66bcc58d9184c9c921b2a1a3", "type": "electric_scooter", "lat": 38.92274666666667, "is_reserved": 0, "lon": -77.04240183333333, "fusion_lon": 0.0, "is_disabled": 0, "fusion_lat": 0.0, "bike_id": "c654032d66bcc58d9184c9c921b2a1a3", "rental_uris": {"ios": "https://dc.lft.to/lastmile_qr_scan", "android": "https://dc.lft.to/lastmile_qr_scan"}}, {"name": "0a1779c9e04f2f9426527e3bfd16fec7", "type": "electric_scooter", "lat": 38.93330683333333, "is_reserved": 0, "lon": -77.03269716666667, "fusion_lon": 0.0, "is_disabled": 0, "fusion_lat": 0.0, "bike_id": "0a1779c9e04f2f9426527e3bfd16fec7", "rental_uris": {"ios": "https://dc.lft.to/lastmile_qr_scan", "android": "https://dc.lft.to/lastmile_qr_scan"}}, {"name": "42dced8a33e43918d04059cd6b27d75f", "type": "electric_scooter", "lat": 38.935772, "is_reserved": 0, "lon": -76.9910715, "fusion_lon": 0.0, "is_disabled": 0, "fusion_lat": 0.0, "bike_id": "42dced8a33e43918d04059cd6b27d75f", "rental_uris": {"ios": "https://dc.lft.to/lastmile_qr_scan", "android": "https://dc.lft.to/lastmile_qr_scan"}}, {"name": "14783f19e233bd0bfb135c30f9f7cceb", "type": "electric_scooter", "lat": 38.90476683333333, "is_reserved": 0, "lon": -77.04185583333333, "fusion_lon": 0.0, "is_disabled": 0, "fusion_lat": 0.0, "bike_id": "14783f19e233bd0bfb135c30f9f7cceb", "rental_uris": {"ios": "https://dc.lft.to/lastmile_qr_scan", "android": "https://dc.lft.to/lastmile_qr_scan"}}, {"name": "daebbaa86df061ee2a111b4ac304329d", "type": "electric_scooter", "lat": 38.90249033333333, "is_reserved": 0, "lon": -77.0025495, "fusion_lon": 0.0, "is_disabled": 0, "fusion_lat": 0.0, "bike_id": "daebbaa86df061ee2a111b4ac304329d", "rental_uris": {"ios": "https://dc.lft.to/lastmile_qr_scan", "android": "https://dc.lft.to/lastmile_qr_scan"}}, {"name": "c1a1d385cbd57f689c3252f09b02b8a9", "type": "electric_scooter", "lat": 38.89971583333333, "is_reserved": 0, "lon": -77.0336445, "fusion_lon": 0.0, "is_disabled": 0, "fusion_lat": 0.0, "bike_id": "c1a1d385cbd57f689c3252f09b02b8a9", "rental_uris": {"ios": "https://dc.lft.to/lastmile_qr_scan", "android": "https://dc.lft.to/lastmile_qr_scan"}}, {"name": "ba1567752a07dd430a8a8586e6133026", "type": "electric_scooter", "lat": 38.9140705, "is_reserved": 0, "lon": -77.04565583333333, "fusion_lon": 0.0, "is_disabled": 0, "fusion_lat": 0.0, "bike_id": "ba1567752a07dd430a8a8586e6133026", "rental_uris": {"ios": "https://dc.lft.to/lastmile_qr_scan", "android": "https://dc.lft.to/lastmile_qr_scan"}}, {"name": "aa6b412c6342ba5764ca8bb65df9dd22", "type": "electric_scooter", "lat": 38.923411, "is_reserved": 0, "lon": -77.041793, "fusion_lon": 0.0, "is_disabled": 0, "fusion_lat": 0.0, "bike_id": "aa6b412c6342ba5764ca8bb65df9dd22", "rental_uris": {"ios": "https://dc.lft.to/lastmile_qr_scan", "android": "https://dc.lft.to/lastmile_qr_scan"}}, {"name": "f005afcd82dce4c801e3e59c7f242621", "type": "electric_scooter", "lat": 38.92529583333334, "is_reserved": 0, "lon": -77.0552765, "fusion_lon": 0.0, "is_disabled": 0, "fusion_lat": 0.0, "bike_id": "f005afcd82dce4c801e3e59c7f242621", "rental_uris": {"ios": "https://dc.lft.to/lastmile_qr_scan", "android": "https://dc.lft.to/lastmile_qr_scan"}}, {"name": "10aa4c2a79084917d0a618f770a79cb2", "type": "electric_scooter", "lat": 38.901492833333336, "is_reserved": 0, "lon": -76.93063983333333, "fusion_lon": 0.0, "is_disabled": 0, "fusion_lat": 0.0, "bike_id": "10aa4c2a79084917d0a618f770a79cb2", "rental_uris": {"ios": "https://dc.lft.to/lastmile_qr_scan", "android": "https://dc.lft.to/lastmile_qr_scan"}}, {"name": "a99d6d9cbedcbf7d7bc393f7a0fb238c", "type": "electric_scooter", "lat": 38.922360833333336, "is_reserved": 0, "lon": -77.03356183333334, "fusion_lon": 0.0, "is_disabled": 0, "fusion_lat": 0.0, "bike_id": "a99d6d9cbedcbf7d7bc393f7a0fb238c", "rental_uris": {"ios": "https://dc.lft.to/lastmile_qr_scan", "android": "https://dc.lft.to/lastmile_qr_scan"}}, {"name": "5971b0c7f173f24dc079bf30b9358572", "type": "electric_bike", "lat": 38.83811766666667, "is_reserved": 0, "lon": -77.09523566666667, "fusion_lon": 0.0, "is_disabled": 0, "fusion_lat": 0.0, "bike_id": "5971b0c7f173f24dc079bf30b9358572", "rental_uris": {"ios": "https://dc.lft.to/lastmile_qr_scan", "android": "https://dc.lft.to/lastmile_qr_scan"}}, {"name": "cb7d27900429f0db567c07f6c03a966b", "type": "electric_scooter", "lat": 38.904941666666666, "is_reserved": 0, "lon": -77.04166583333334, "fusion_lon": 0.0, "is_disabled": 0, "fusion_lat": 0.0, "bike_id": "cb7d27900429f0db567c07f6c03a966b", "rental_uris": {"ios": "https://dc.lft.to/lastmile_qr_scan", "android": "https://dc.lft.to/lastmile_qr_scan"}}, {"name": "f88b4a32bf5cff70b89fa59494739d71", "type": "electric_scooter", "lat": 38.91800583333333, "is_reserved": 0, "lon": -77.02707733333334, "fusion_lon": 0.0, "is_disabled": 0, "fusion_lat": 0.0, "bike_id": "f88b4a32bf5cff70b89fa59494739d71", "rental_uris": {"ios": "https://dc.lft.to/lastmile_qr_scan", "android": "https://dc.lft.to/lastmile_qr_scan"}}, {"name": "e94a5375d9933839abb9874b0134dded", "type": "electric_bike", "lat": 38.954787333333336, "is_reserved": 0, "lon": -77.0824045, "fusion_lon": 0.0, "is_disabled": 0, "fusion_lat": 0.0, "bike_id": "e94a5375d9933839abb9874b0134dded", "rental_uris": {"ios": "https://dc.lft.to/lastmile_qr_scan", "android": "https://dc.lft.to/lastmile_qr_scan"}}, {"name": "ab0010e35addb0e00fa11656a23f7fbb", "type": "electric_scooter", "lat": 38.909614166666664, "is_reserved": 0, "lon": -77.04542066666667, "fusion_lon": 0.0, "is_disabled": 0, "fusion_lat": 0.0, "bike_id": "ab0010e35addb0e00fa11656a23f7fbb", "rental_uris": {"ios": "https://dc.lft.to/lastmile_qr_scan", "android": "https://dc.lft.to/lastmile_qr_scan"}}, {"name": "48b951aad4a44fd34425382cd0f05c9b", "type": "electric_scooter", "lat": 38.89686, "is_reserved": 0, "lon": -77.049139, "fusion_lon": 0.0, "is_disabled": 0, "fusion_lat": 0.0, "bike_id": "48b951aad4a44fd34425382cd0f05c9b", "rental_uris": {"ios": "https://dc.lft.to/lastmile_qr_scan", "android": "https://dc.lft.to/lastmile_qr_scan"}}, {"name": "8764fe3e8af1c062b70e8d9f9e55e707", "type": "electric_scooter", "lat": 38.924203166666665, "is_reserved": 0, "lon": -77.01950566666666, "fusion_lon": 0.0, "is_disabled": 0, "fusion_lat": 0.0, "bike_id": "8764fe3e8af1c062b70e8d9f9e55e707", "rental_uris": {"ios": "https://dc.lft.to/lastmile_qr_scan", "android": "https://dc.lft.to/lastmile_qr_scan"}}, {"name": "67d29b7ff6e29f525d702abf50f818de", "type": "electric_scooter", "lat": 38.892222333333336, "is_reserved": 0, "lon": -77.04331716666667, "fusion_lon": 0.0, "is_disabled": 0, "fusion_lat": 0.0, "bike_id": "67d29b7ff6e29f525d702abf50f818de", "rental_uris": {"ios": "https://dc.lft.to/lastmile_qr_scan", "android": "https://dc.lft.to/lastmile_qr_scan"}}, {"name": "f7f79e72f25a05ccde9f5246ee06daf9", "type": "electric_scooter", "lat": 38.86355533333333, "is_reserved": 0, "lon": -76.99065683333333, "fusion_lon": 0.0, "is_disabled": 0, "fusion_lat": 0.0, "bike_id": "f7f79e72f25a05ccde9f5246ee06daf9", "rental_uris": {"ios": "https://dc.lft.to/lastmile_qr_scan", "android": "https://dc.lft.to/lastmile_qr_scan"}}, {"name": "0333bfe6a465a76d28ebde599d98366d", "type": "electric_scooter", "lat": 38.919041166666666, "is_reserved": 0, "lon": -77.02402716666667, "fusion_lon": 0.0, "is_disabled": 0, "fusion_lat": 0.0, "bike_id": "0333bfe6a465a76d28ebde599d98366d", "rental_uris": {"ios": "https://dc.lft.to/lastmile_qr_scan", "android": "https://dc.lft.to/lastmile_qr_scan"}}, {"name": "e0a174b313fd965c4412765d5a420a59", "type": "electric_scooter", "lat": 38.9287505, "is_reserved": 0, "lon": -77.04123483333333, "fusion_lon": 0.0, "is_disabled": 0, "fusion_lat": 0.0, "bike_id": "e0a174b313fd965c4412765d5a420a59", "rental_uris": {"ios": "https://dc.lft.to/lastmile_qr_scan", "android": "https://dc.lft.to/lastmile_qr_scan"}}, {"name": "7fef04a9590e611cbdf8768b45ff4cf0", "type": "electric_scooter", "lat": 38.91480416666667, "is_reserved": 0, "lon": -77.009766, "fusion_lon": 0.0, "is_disabled": 0, "fusion_lat": 0.0, "bike_id": "7fef04a9590e611cbdf8768b45ff4cf0", "rental_uris": {"ios": "https://dc.lft.to/lastmile_qr_scan", "android": "https://dc.lft.to/lastmile_qr_scan"}}, {"name": "1451043dbb5d3797695d28b13b3d6591", "type": "electric_scooter", "lat": 38.933640833333335, "is_reserved": 0, "lon": -77.0572515, "fusion_lon": 0.0, "is_disabled": 0, "fusion_lat": 0.0, "bike_id": "1451043dbb5d3797695d28b13b3d6591", "rental_uris": {"ios": "https://dc.lft.to/lastmile_qr_scan", "android": "https://dc.lft.to/lastmile_qr_scan"}}, {"name": "7c9c2a0d087b24353d8fc6ae83862e09", "type": "electric_scooter", "lat": 38.895526, "is_reserved": 0, "lon": -77.0468615, "fusion_lon": 0.0, "is_disabled": 0, "fusion_lat": 0.0, "bike_id": "7c9c2a0d087b24353d8fc6ae83862e09", "rental_uris": {"ios": "https://dc.lft.to/lastmile_qr_scan", "android": "https://dc.lft.to/lastmile_qr_scan"}}, {"name": "00c5763ee8869543ff8c38d4da63ae7c", "type": "electric_scooter", "lat": 38.873871333333334, "is_reserved": 0, "lon": -77.000275, "fusion_lon": 0.0, "is_disabled": 0, "fusion_lat": 0.0, "bike_id": "00c5763ee8869543ff8c38d4da63ae7c", "rental_uris": {"ios": "https://dc.lft.to/lastmile_qr_scan", "android": "https://dc.lft.to/lastmile_qr_scan"}}, {"name": "19acbeb01a002b73443d8c8abbb3dd6f", "type": "electric_scooter", "lat": 38.89715866666667, "is_reserved": 0, "lon": -77.03149033333334, "fusion_lon": 0.0, "is_disabled": 0, "fusion_lat": 0.0, "bike_id": "19acbeb01a002b73443d8c8abbb3dd6f", "rental_uris": {"ios": "https://dc.lft.to/lastmile_qr_scan", "android": "https://dc.lft.to/lastmile_qr_scan"}}, {"name": "4387bcba43a8887f186eb2ac0f475e6c", "type": "electric_scooter", "lat": 38.9302095, "is_reserved": 0, "lon": -77.023392, "fusion_lon": 0.0, "is_disabled": 0, "fusion_lat": 0.0, "bike_id": "4387bcba43a8887f186eb2ac0f475e6c", "rental_uris": {"ios": "https://dc.lft.to/lastmile_qr_scan", "android": "https://dc.lft.to/lastmile_qr_scan"}}, {"name": "44c4ff1be6ba5eb191c55be615b461e2", "type": "electric_scooter", "lat": 38.92441866666667, "is_reserved": 0, "lon": -77.05203816666666, "fusion_lon": 0.0, "is_disabled": 0, "fusion_lat": 0.0, "bike_id": "44c4ff1be6ba5eb191c55be615b461e2", "rental_uris": {"ios": "https://dc.lft.to/lastmile_qr_scan", "android": "https://dc.lft.to/lastmile_qr_scan"}}, {"name": "8db24a517c0a85d205a349a5a4116d9f", "type": "electric_bike", "lat": 38.845728333333334, "is_reserved": 0, "lon": -77.09623966666666, "fusion_lon": 0.0, "is_disabled": 0, "fusion_lat": 0.0, "bike_id": "8db24a517c0a85d205a349a5a4116d9f", "rental_uris": {"ios": "https://dc.lft.to/lastmile_qr_scan", "android": "https://dc.lft.to/lastmile_qr_scan"}}, {"name": "71bf66b23fdbc5c738dee85724518ceb", "type": "electric_bike", "lat": 38.999104333333335, "is_reserved": 0, "lon": -77.046236, "fusion_lon": 0.0, "is_disabled": 0, "fusion_lat": 0.0, "bike_id": "71bf66b23fdbc5c738dee85724518ceb", "rental_uris": {"ios": "https://dc.lft.to/lastmile_qr_scan", "android": "https://dc.lft.to/lastmile_qr_scan"}}, {"name": "9c1d23728bce6d5da986bb389b370e78", "type": "electric_scooter", "lat": 38.961090666666664, "is_reserved": 0, "lon": -77.028152, "fusion_lon": 0.0, "is_disabled": 0, "fusion_lat": 0.0, "bike_id": "9c1d23728bce6d5da986bb389b370e78", "rental_uris": {"ios": "https://dc.lft.to/lastmile_qr_scan", "android": "https://dc.lft.to/lastmile_qr_scan"}}, {"name": "5a783a486aae2064cde3bb9566fc035f", "type": "electric_scooter", "lat": 38.874535333333334, "is_reserved": 0, "lon": -77.00751033333333, "fusion_lon": 0.0, "is_disabled": 0, "fusion_lat": 0.0, "bike_id": "5a783a486aae2064cde3bb9566fc035f", "rental_uris": {"ios": "https://dc.lft.to/lastmile_qr_scan", "android": "https://dc.lft.to/lastmile_qr_scan"}}, {"name": "fbe5a3b5d1847b92aafef6e96929f009", "type": "electric_scooter", "lat": 38.9049605, "is_reserved": 0, "lon": -77.00931, "fusion_lon": 0.0, "is_disabled": 0, "fusion_lat": 0.0, "bike_id": "fbe5a3b5d1847b92aafef6e96929f009", "rental_uris": {"ios": "https://dc.lft.to/lastmile_qr_scan", "android": "https://dc.lft.to/lastmile_qr_scan"}}, {"name": "c7bf69ef4f3de5f6f1a0bb232bc377b1", "type": "electric_scooter", "lat": 38.92305233333333, "is_reserved": 0, "lon": -77.0120825, "fusion_lon": 0.0, "is_disabled": 0, "fusion_lat": 0.0, "bike_id": "c7bf69ef4f3de5f6f1a0bb232bc377b1", "rental_uris": {"ios": "https://dc.lft.to/lastmile_qr_scan", "android": "https://dc.lft.to/lastmile_qr_scan"}}, {"name": "9137a39775d551dc920b455a98465f46", "type": "electric_scooter", "lat": 38.916942, "is_reserved": 0, "lon": -77.03212133333334, "fusion_lon": 0.0, "is_disabled": 0, "fusion_lat": 0.0, "bike_id": "9137a39775d551dc920b455a98465f46", "rental_uris": {"ios": "https://dc.lft.to/lastmile_qr_scan", "android": "https://dc.lft.to/lastmile_qr_scan"}}, {"name": "9a112822b2a033f187f62086db9f2c4e", "type": "electric_scooter", "lat": 38.91111633333333, "is_reserved": 0, "lon": -77.04232633333334, "fusion_lon": 0.0, "is_disabled": 0, "fusion_lat": 0.0, "bike_id": "9a112822b2a033f187f62086db9f2c4e", "rental_uris": {"ios": "https://dc.lft.to/lastmile_qr_scan", "android": "https://dc.lft.to/lastmile_qr_scan"}}, {"name": "3aeb1d3f2971463ec68947b44926c9c9", "type": "electric_scooter", "lat": 38.937036, "is_reserved": 0, "lon": -77.06100683333334, "fusion_lon": 0.0, "is_disabled": 0, "fusion_lat": 0.0, "bike_id": "3aeb1d3f2971463ec68947b44926c9c9", "rental_uris": {"ios": "https://dc.lft.to/lastmile_qr_scan", "android": "https://dc.lft.to/lastmile_qr_scan"}}, {"name": "c4fe63ff56237f0be97e6168485e352c", "type": "electric_scooter", "lat": 38.899172666666665, "is_reserved": 0, "lon": -76.9337945, "fusion_lon": 0.0, "is_disabled": 0, "fusion_lat": 0.0, "bike_id": "c4fe63ff56237f0be97e6168485e352c", "rental_uris": {"ios": "https://dc.lft.to/lastmile_qr_scan", "android": "https://dc.lft.to/lastmile_qr_scan"}}, {"name": "18330d9b295a87c975cc8715d92d7e10", "type": "electric_scooter", "lat": 38.917271166666666, "is_reserved": 0, "lon": -77.0383675, "fusion_lon": 0.0, "is_disabled": 0, "fusion_lat": 0.0, "bike_id": "18330d9b295a87c975cc8715d92d7e10", "rental_uris": {"ios": "https://dc.lft.to/lastmile_qr_scan", "android": "https://dc.lft.to/lastmile_qr_scan"}}, {"name": "3b0cf5d993d853bb6ff13dce58a4c765", "type": "electric_scooter", "lat": 38.923123333333336, "is_reserved": 0, "lon": -77.03538283333333, "fusion_lon": 0.0, "is_disabled": 0, "fusion_lat": 0.0, "bike_id": "3b0cf5d993d853bb6ff13dce58a4c765", "rental_uris": {"ios": "https://dc.lft.to/lastmile_qr_scan", "android": "https://dc.lft.to/lastmile_qr_scan"}}, {"name": "895e0a66592a0d06d111a61bcffe52c1", "type": "electric_bike", "lat": 38.9184865, "is_reserved": 0, "lon": -76.96092233333333, "fusion_lon": 0.0, "is_disabled": 0, "fusion_lat": 0.0, "bike_id": "895e0a66592a0d06d111a61bcffe52c1", "rental_uris": {"ios": "https://dc.lft.to/lastmile_qr_scan", "android": "https://dc.lft.to/lastmile_qr_scan"}}, {"name": "ba100aec6ba4dbb65e21a9224c62aa3d", "type": "electric_scooter", "lat": 38.8844985, "is_reserved": 0, "lon": -77.02930116666667, "fusion_lon": 0.0, "is_disabled": 0, "fusion_lat": 0.0, "bike_id": "ba100aec6ba4dbb65e21a9224c62aa3d", "rental_uris": {"ios": "https://dc.lft.to/lastmile_qr_scan", "android": "https://dc.lft.to/lastmile_qr_scan"}}, {"name": "4d4e6869dc0f388297fc2d32ae81cb6c", "type": "electric_bike", "lat": 38.92642766666667, "is_reserved": 0, "lon": -77.02840966666666, "fusion_lon": 0.0, "is_disabled": 0, "fusion_lat": 0.0, "bike_id": "4d4e6869dc0f388297fc2d32ae81cb6c", "rental_uris": {"ios": "https://dc.lft.to/lastmile_qr_scan", "android": "https://dc.lft.to/lastmile_qr_scan"}}, {"name": "3bc745c9af1df1c6cd0455f3d86213ed", "type": "electric_scooter", "lat": 38.920463833333336, "is_reserved": 0, "lon": -77.03471783333333, "fusion_lon": 0.0, "is_disabled": 0, "fusion_lat": 0.0, "bike_id": "3bc745c9af1df1c6cd0455f3d86213ed", "rental_uris": {"ios": "https://dc.lft.to/lastmile_qr_scan", "android": "https://dc.lft.to/lastmile_qr_scan"}}, {"name": "42a66659829654809e8a6e8c06b507c3", "type": "electric_scooter", "lat": 38.908973, "is_reserved": 0, "lon": -77.08664766666666, "fusion_lon": 0.0, "is_disabled": 0, "fusion_lat": 0.0, "bike_id": "42a66659829654809e8a6e8c06b507c3", "rental_uris": {"ios": "https://dc.lft.to/lastmile_qr_scan", "android": "https://dc.lft.to/lastmile_qr_scan"}}, {"name": "e4845bae78417bb660c2e42a0ddfdb5a", "type": "electric_scooter", "lat": 38.89992383333333, "is_reserved": 0, "lon": -76.99735733333333, "fusion_lon": 0.0, "is_disabled": 0, "fusion_lat": 0.0, "bike_id": "e4845bae78417bb660c2e42a0ddfdb5a", "rental_uris": {"ios": "https://dc.lft.to/lastmile_qr_scan", "android": "https://dc.lft.to/lastmile_qr_scan"}}, {"name": "852f3d2e41461ef6e493c2f43a998900", "type": "electric_scooter", "lat": 38.892449666666664, "is_reserved": 0, "lon": -77.03215333333333, "fusion_lon": 0.0, "is_disabled": 0, "fusion_lat": 0.0, "bike_id": "852f3d2e41461ef6e493c2f43a998900", "rental_uris": {"ios": "https://dc.lft.to/lastmile_qr_scan", "android": "https://dc.lft.to/lastmile_qr_scan"}}, {"name": "4383a84ff0b3d16e5215fbf971d277a4", "type": "electric_bike", "lat": 38.824462, "is_reserved": 0, "lon": -77.07043933333334, "fusion_lon": 0.0, "is_disabled": 0, "fusion_lat": 0.0, "bike_id": "4383a84ff0b3d16e5215fbf971d277a4", "rental_uris": {"ios": "https://dc.lft.to/lastmile_qr_scan", "android": "https://dc.lft.to/lastmile_qr_scan"}}, {"name": "2bf517fc3c569fe10745de4e13d229cf", "type": "electric_scooter", "lat": 38.92461316666667, "is_reserved": 0, "lon": -77.02158066666667, "fusion_lon": 0.0, "is_disabled": 0, "fusion_lat": 0.0, "bike_id": "2bf517fc3c569fe10745de4e13d229cf", "rental_uris": {"ios": "https://dc.lft.to/lastmile_qr_scan", "android": "https://dc.lft.to/lastmile_qr_scan"}}, {"name": "7debc6a1ee5b88375bf3375484f3547c", "type": "electric_scooter", "lat": 38.92313633333333, "is_reserved": 0, "lon": -77.02978483333334, "fusion_lon": 0.0, "is_disabled": 0, "fusion_lat": 0.0, "bike_id": "7debc6a1ee5b88375bf3375484f3547c", "rental_uris": {"ios": "https://dc.lft.to/lastmile_qr_scan", "android": "https://dc.lft.to/lastmile_qr_scan"}}, {"name": "0cb057f683d21f423c29be920e22fdab", "type": "electric_bike", "lat": 38.86907183333334, "is_reserved": 0, "lon": -77.13183966666666, "fusion_lon": 0.0, "is_disabled": 0, "fusion_lat": 0.0, "bike_id": "0cb057f683d21f423c29be920e22fdab", "rental_uris": {"ios": "https://dc.lft.to/lastmile_qr_scan", "android": "https://dc.lft.to/lastmile_qr_scan"}}, {"name": "17c43ea8a9e2911c9d0cac1ee0a22573", "type": "electric_scooter", "lat": 38.91693216666667, "is_reserved": 0, "lon": -77.02810233333334, "fusion_lon": 0.0, "is_disabled": 0, "fusion_lat": 0.0, "bike_id": "17c43ea8a9e2911c9d0cac1ee0a22573", "rental_uris": {"ios": "https://dc.lft.to/lastmile_qr_scan", "android": "https://dc.lft.to/lastmile_qr_scan"}}, {"name": "2355db188fe8e9501c2d8103543cb59a", "type": "electric_scooter", "lat": 38.912418333333335, "is_reserved": 0, "lon": -77.00109083333334, "fusion_lon": 0.0, "is_disabled": 0, "fusion_lat": 0.0, "bike_id": "2355db188fe8e9501c2d8103543cb59a", "rental_uris": {"ios": "https://dc.lft.to/lastmile_qr_scan", "android": "https://dc.lft.to/lastmile_qr_scan"}}, {"name": "d9b89a272e5a8c1d2911cbc35ed352ab", "type": "electric_scooter", "lat": 38.91249716666667, "is_reserved": 0, "lon": -77.03641516666667, "fusion_lon": 0.0, "is_disabled": 0, "fusion_lat": 0.0, "bike_id": "d9b89a272e5a8c1d2911cbc35ed352ab", "rental_uris": {"ios": "https://dc.lft.to/lastmile_qr_scan", "android": "https://dc.lft.to/lastmile_qr_scan"}}, {"name": "1c2eee3d78026e43f7550daf123bad77", "type": "electric_scooter", "lat": 38.90039516666667, "is_reserved": 0, "lon": -77.01674766666666, "fusion_lon": 0.0, "is_disabled": 0, "fusion_lat": 0.0, "bike_id": "1c2eee3d78026e43f7550daf123bad77", "rental_uris": {"ios": "https://dc.lft.to/lastmile_qr_scan", "android": "https://dc.lft.to/lastmile_qr_scan"}}, {"name": "4c7bddc65b24dc9503222563ac9a9c16", "type": "electric_scooter", "lat": 38.8803955, "is_reserved": 0, "lon": -77.00369116666667, "fusion_lon": 0.0, "is_disabled": 0, "fusion_lat": 0.0, "bike_id": "4c7bddc65b24dc9503222563ac9a9c16", "rental_uris": {"ios": "https://dc.lft.to/lastmile_qr_scan", "android": "https://dc.lft.to/lastmile_qr_scan"}}, {"name": "a4971d3fae89a1cb06e3e0820e69ad18", "type": "electric_scooter", "lat": 38.844278, "is_reserved": 0, "lon": -76.997782, "fusion_lon": 0.0, "is_disabled": 0, "fusion_lat": 0.0, "bike_id": "a4971d3fae89a1cb06e3e0820e69ad18", "rental_uris": {"ios": "https://dc.lft.to/lastmile_qr_scan", "android": "https://dc.lft.to/lastmile_qr_scan"}}, {"name": "f8d3a7bb9b13ee1ad6a0140810021b47", "type": "electric_scooter", "lat": 38.9180295, "is_reserved": 0, "lon": -77.02817, "fusion_lon": 0.0, "is_disabled": 0, "fusion_lat": 0.0, "bike_id": "f8d3a7bb9b13ee1ad6a0140810021b47", "rental_uris": {"ios": "https://dc.lft.to/lastmile_qr_scan", "android": "https://dc.lft.to/lastmile_qr_scan"}}, {"name": "cbf7f122768c147c77195e9dba542469", "type": "electric_scooter", "lat": 38.90970216666667, "is_reserved": 0, "lon": -77.03989816666666, "fusion_lon": 0.0, "is_disabled": 0, "fusion_lat": 0.0, "bike_id": "cbf7f122768c147c77195e9dba542469", "rental_uris": {"ios": "https://dc.lft.to/lastmile_qr_scan", "android": "https://dc.lft.to/lastmile_qr_scan"}}, {"name": "539f235377a5f656cbe41edd94797070", "type": "electric_scooter", "lat": 38.89222783333334, "is_reserved": 0, "lon": -77.04262816666666, "fusion_lon": 0.0, "is_disabled": 0, "fusion_lat": 0.0, "bike_id": "539f235377a5f656cbe41edd94797070", "rental_uris": {"ios": "https://dc.lft.to/lastmile_qr_scan", "android": "https://dc.lft.to/lastmile_qr_scan"}}, {"name": "7d74141edd41239037b0e8b64cf25b3f", "type": "electric_scooter", "lat": 38.92517216666667, "is_reserved": 0, "lon": -77.02359116666666, "fusion_lon": 0.0, "is_disabled": 0, "fusion_lat": 0.0, "bike_id": "7d74141edd41239037b0e8b64cf25b3f", "rental_uris": {"ios": "https://dc.lft.to/lastmile_qr_scan", "android": "https://dc.lft.to/lastmile_qr_scan"}}, {"name": "a2b25baca5c1ef15ff4842972f924577", "type": "electric_scooter", "lat": 38.92343233333333, "is_reserved": 0, "lon": -77.050858, "fusion_lon": 0.0, "is_disabled": 0, "fusion_lat": 0.0, "bike_id": "a2b25baca5c1ef15ff4842972f924577", "rental_uris": {"ios": "https://dc.lft.to/lastmile_qr_scan", "android": "https://dc.lft.to/lastmile_qr_scan"}}, {"name": "eaa320e7341d606ff68e982a3e2c5be5", "type": "electric_scooter", "lat": 38.926196833333336, "is_reserved": 0, "lon": -77.00576966666667, "fusion_lon": 0.0, "is_disabled": 0, "fusion_lat": 0.0, "bike_id": "eaa320e7341d606ff68e982a3e2c5be5", "rental_uris": {"ios": "https://dc.lft.to/lastmile_qr_scan", "android": "https://dc.lft.to/lastmile_qr_scan"}}, {"name": "6513a16f01bdfbf38ceeaf4fab1eb5dd", "type": "electric_scooter", "lat": 38.89371916666666, "is_reserved": 0, "lon": -76.94996166666667, "fusion_lon": 0.0, "is_disabled": 0, "fusion_lat": 0.0, "bike_id": "6513a16f01bdfbf38ceeaf4fab1eb5dd", "rental_uris": {"ios": "https://dc.lft.to/lastmile_qr_scan", "android": "https://dc.lft.to/lastmile_qr_scan"}}, {"name": "7c42c3d49a7127bfdbbc54f94795a35f", "type": "electric_scooter", "lat": 38.8994735, "is_reserved": 0, "lon": -77.03151316666667, "fusion_lon": 0.0, "is_disabled": 0, "fusion_lat": 0.0, "bike_id": "7c42c3d49a7127bfdbbc54f94795a35f", "rental_uris": {"ios": "https://dc.lft.to/lastmile_qr_scan", "android": "https://dc.lft.to/lastmile_qr_scan"}}, {"name": "05e7ce547e33b7f81cfbd3b8956cca72", "type": "electric_scooter", "lat": 38.912591166666665, "is_reserved": 0, "lon": -77.03802616666667, "fusion_lon": 0.0, "is_disabled": 0, "fusion_lat": 0.0, "bike_id": "05e7ce547e33b7f81cfbd3b8956cca72", "rental_uris": {"ios": "https://dc.lft.to/lastmile_qr_scan", "android": "https://dc.lft.to/lastmile_qr_scan"}}, {"name": "07f9ad3b5abd06f2362e85347b6c6d45", "type": "electric_scooter", "lat": 38.90646233333333, "is_reserved": 0, "lon": -76.9857065, "fusion_lon": 0.0, "is_disabled": 0, "fusion_lat": 0.0, "bike_id": "07f9ad3b5abd06f2362e85347b6c6d45", "rental_uris": {"ios": "https://dc.lft.to/lastmile_qr_scan", "android": "https://dc.lft.to/lastmile_qr_scan"}}, {"name": "2e89f7802b3cc100985eda52fc0b0d18", "type": "electric_scooter", "lat": 38.89600766666667, "is_reserved": 0, "lon": -77.0284565, "fusion_lon": 0.0, "is_disabled": 0, "fusion_lat": 0.0, "bike_id": "2e89f7802b3cc100985eda52fc0b0d18", "rental_uris": {"ios": "https://dc.lft.to/lastmile_qr_scan", "android": "https://dc.lft.to/lastmile_qr_scan"}}, {"name": "e6c919a1529d9cba423d09d2b1bbd002", "type": "electric_bike", "lat": 38.86369, "is_reserved": 0, "lon": -76.9701365, "fusion_lon": 0.0, "is_disabled": 0, "fusion_lat": 0.0, "bike_id": "e6c919a1529d9cba423d09d2b1bbd002", "rental_uris": {"ios": "https://dc.lft.to/lastmile_qr_scan", "android": "https://dc.lft.to/lastmile_qr_scan"}}, {"name": "7bd7dce22259484c627e7950ed1b6fe9", "type": "electric_scooter", "lat": 38.91807416666666, "is_reserved": 0, "lon": -77.02490883333333, "fusion_lon": 0.0, "is_disabled": 0, "fusion_lat": 0.0, "bike_id": "7bd7dce22259484c627e7950ed1b6fe9", "rental_uris": {"ios": "https://dc.lft.to/lastmile_qr_scan", "android": "https://dc.lft.to/lastmile_qr_scan"}}, {"name": "1fbfd04abc11821ba5b168ee803e5391", "type": "electric_scooter", "lat": 38.88374266666667, "is_reserved": 0, "lon": -76.9237355, "fusion_lon": 0.0, "is_disabled": 0, "fusion_lat": 0.0, "bike_id": "1fbfd04abc11821ba5b168ee803e5391", "rental_uris": {"ios": "https://dc.lft.to/lastmile_qr_scan", "android": "https://dc.lft.to/lastmile_qr_scan"}}, {"name": "770aab3bfc1159020a3d7202cbeb10c6", "type": "electric_scooter", "lat": 38.9288255, "is_reserved": 0, "lon": -77.02656433333334, "fusion_lon": 0.0, "is_disabled": 0, "fusion_lat": 0.0, "bike_id": "770aab3bfc1159020a3d7202cbeb10c6", "rental_uris": {"ios": "https://dc.lft.to/lastmile_qr_scan", "android": "https://dc.lft.to/lastmile_qr_scan"}}, {"name": "7563ef4f3a6f582802bf3e0b6f87681f", "type": "electric_scooter", "lat": 38.913320666666664, "is_reserved": 0, "lon": -77.04548683333333, "fusion_lon": 0.0, "is_disabled": 0, "fusion_lat": 0.0, "bike_id": "7563ef4f3a6f582802bf3e0b6f87681f", "rental_uris": {"ios": "https://dc.lft.to/lastmile_qr_scan", "android": "https://dc.lft.to/lastmile_qr_scan"}}, {"name": "df5807323656587d89b650cefddc71d3", "type": "electric_scooter", "lat": 38.866586, "is_reserved": 0, "lon": -76.98882866666666, "fusion_lon": 0.0, "is_disabled": 0, "fusion_lat": 0.0, "bike_id": "df5807323656587d89b650cefddc71d3", "rental_uris": {"ios": "https://dc.lft.to/lastmile_qr_scan", "android": "https://dc.lft.to/lastmile_qr_scan"}}, {"name": "52c73a7b1cad7f755c3d423a6728af53", "type": "electric_scooter", "lat": 38.92362083333333, "is_reserved": 0, "lon": -77.05841583333333, "fusion_lon": 0.0, "is_disabled": 0, "fusion_lat": 0.0, "bike_id": "52c73a7b1cad7f755c3d423a6728af53", "rental_uris": {"ios": "https://dc.lft.to/lastmile_qr_scan", "android": "https://dc.lft.to/lastmile_qr_scan"}}, {"name": "e827ce8865e755ef6ddeb701b5f8d402", "type": "electric_scooter", "lat": 38.925117, "is_reserved": 0, "lon": -77.033236, "fusion_lon": 0.0, "is_disabled": 0, "fusion_lat": 0.0, "bike_id": "e827ce8865e755ef6ddeb701b5f8d402", "rental_uris": {"ios": "https://dc.lft.to/lastmile_qr_scan", "android": "https://dc.lft.to/lastmile_qr_scan"}}, {"name": "c52a577bc7c59bbe92fc0285498ac89a", "type": "electric_bike", "lat": 38.90716, "is_reserved": 0, "lon": -77.03995533333334, "fusion_lon": 0.0, "is_disabled": 0, "fusion_lat": 0.0, "bike_id": "c52a577bc7c59bbe92fc0285498ac89a", "rental_uris": {"ios": "https://dc.lft.to/lastmile_qr_scan", "android": "https://dc.lft.to/lastmile_qr_scan"}}, {"name": "292ccb27f7882f802a46fbcc89aebeb2", "type": "electric_scooter", "lat": 38.905371833333334, "is_reserved": 0, "lon": -77.05326083333334, "fusion_lon": 0.0, "is_disabled": 0, "fusion_lat": 0.0, "bike_id": "292ccb27f7882f802a46fbcc89aebeb2", "rental_uris": {"ios": "https://dc.lft.to/lastmile_qr_scan", "android": "https://dc.lft.to/lastmile_qr_scan"}}, {"name": "42539c93916260c44dc2d1df2238d228", "type": "electric_scooter", "lat": 38.895196166666665, "is_reserved": 0, "lon": -77.01129166666666, "fusion_lon": 0.0, "is_disabled": 0, "fusion_lat": 0.0, "bike_id": "42539c93916260c44dc2d1df2238d228", "rental_uris": {"ios": "https://dc.lft.to/lastmile_qr_scan", "android": "https://dc.lft.to/lastmile_qr_scan"}}, {"name": "3448a5d6b5d181c1b1186474b668f0c5", "type": "electric_scooter", "lat": 38.926792666666664, "is_reserved": 0, "lon": -77.043596, "fusion_lon": 0.0, "is_disabled": 0, "fusion_lat": 0.0, "bike_id": "3448a5d6b5d181c1b1186474b668f0c5", "rental_uris": {"ios": "https://dc.lft.to/lastmile_qr_scan", "android": "https://dc.lft.to/lastmile_qr_scan"}}, {"name": "9e51919c89dc968f581c5b9fdcf28086", "type": "electric_scooter", "lat": 38.91438633333333, "is_reserved": 0, "lon": -77.02213283333333, "fusion_lon": 0.0, "is_disabled": 0, "fusion_lat": 0.0, "bike_id": "9e51919c89dc968f581c5b9fdcf28086", "rental_uris": {"ios": "https://dc.lft.to/lastmile_qr_scan", "android": "https://dc.lft.to/lastmile_qr_scan"}}, {"name": "e36833e26d6b37e9fcbc98d92c0440c4", "type": "electric_scooter", "lat": 38.9068435, "is_reserved": 0, "lon": -77.04670066666667, "fusion_lon": 0.0, "is_disabled": 0, "fusion_lat": 0.0, "bike_id": "e36833e26d6b37e9fcbc98d92c0440c4", "rental_uris": {"ios": "https://dc.lft.to/lastmile_qr_scan", "android": "https://dc.lft.to/lastmile_qr_scan"}}, {"name": "6956df9576809498a57b4ca95339bb04", "type": "electric_scooter", "lat": 38.901347, "is_reserved": 0, "lon": -77.04396433333334, "fusion_lon": 0.0, "is_disabled": 0, "fusion_lat": 0.0, "bike_id": "6956df9576809498a57b4ca95339bb04", "rental_uris": {"ios": "https://dc.lft.to/lastmile_qr_scan", "android": "https://dc.lft.to/lastmile_qr_scan"}}, {"name": "29855124ff4ea7249f74ab939d53eef4", "type": "electric_scooter", "lat": 38.9251365, "is_reserved": 0, "lon": -77.001752, "fusion_lon": 0.0, "is_disabled": 0, "fusion_lat": 0.0, "bike_id": "29855124ff4ea7249f74ab939d53eef4", "rental_uris": {"ios": "https://dc.lft.to/lastmile_qr_scan", "android": "https://dc.lft.to/lastmile_qr_scan"}}, {"name": "0e8a4cc046edb13b024591afb7fa91b1", "type": "electric_scooter", "lat": 38.9191795, "is_reserved": 0, "lon": -77.03093, "fusion_lon": 0.0, "is_disabled": 0, "fusion_lat": 0.0, "bike_id": "0e8a4cc046edb13b024591afb7fa91b1", "rental_uris": {"ios": "https://dc.lft.to/lastmile_qr_scan", "android": "https://dc.lft.to/lastmile_qr_scan"}}, {"name": "867b3111723d12efa7516eb3ec9e6645", "type": "electric_scooter", "lat": 38.912647666666665, "is_reserved": 0, "lon": -77.03728016666666, "fusion_lon": 0.0, "is_disabled": 0, "fusion_lat": 0.0, "bike_id": "867b3111723d12efa7516eb3ec9e6645", "rental_uris": {"ios": "https://dc.lft.to/lastmile_qr_scan", "android": "https://dc.lft.to/lastmile_qr_scan"}}, {"name": "1fd2019715eb551cd9e142973ce53a7d", "type": "electric_scooter", "lat": 38.9002685, "is_reserved": 0, "lon": -77.0371615, "fusion_lon": 0.0, "is_disabled": 0, "fusion_lat": 0.0, "bike_id": "1fd2019715eb551cd9e142973ce53a7d", "rental_uris": {"ios": "https://dc.lft.to/lastmile_qr_scan", "android": "https://dc.lft.to/lastmile_qr_scan"}}, {"name": "1f5f9275cb594b728e962b0e08eaf503", "type": "electric_scooter", "lat": 38.89701866666667, "is_reserved": 0, "lon": -77.02127766666666, "fusion_lon": 0.0, "is_disabled": 0, "fusion_lat": 0.0, "bike_id": "1f5f9275cb594b728e962b0e08eaf503", "rental_uris": {"ios": "https://dc.lft.to/lastmile_qr_scan", "android": "https://dc.lft.to/lastmile_qr_scan"}}, {"name": "4abf8a28d412f4b941a8a599cbeb003b", "type": "electric_scooter", "lat": 38.914980166666666, "is_reserved": 0, "lon": -77.01217133333333, "fusion_lon": 0.0, "is_disabled": 0, "fusion_lat": 0.0, "bike_id": "4abf8a28d412f4b941a8a599cbeb003b", "rental_uris": {"ios": "https://dc.lft.to/lastmile_qr_scan", "android": "https://dc.lft.to/lastmile_qr_scan"}}, {"name": "359c5968076d4779ec82c5e941ca32a1", "type": "electric_scooter", "lat": 38.901036500000004, "is_reserved": 0, "lon": -77.04634283333333, "fusion_lon": 0.0, "is_disabled": 0, "fusion_lat": 0.0, "bike_id": "359c5968076d4779ec82c5e941ca32a1", "rental_uris": {"ios": "https://dc.lft.to/lastmile_qr_scan", "android": "https://dc.lft.to/lastmile_qr_scan"}}, {"name": "01f6b3e7df27f1c65d29cb4837cea5e9", "type": "electric_scooter", "lat": 38.92093466666667, "is_reserved": 0, "lon": -77.031872, "fusion_lon": 0.0, "is_disabled": 0, "fusion_lat": 0.0, "bike_id": "01f6b3e7df27f1c65d29cb4837cea5e9", "rental_uris": {"ios": "https://dc.lft.to/lastmile_qr_scan", "android": "https://dc.lft.to/lastmile_qr_scan"}}, {"name": "70c64fcd16c0478ab9ecbc99a25dc5e5", "type": "electric_scooter", "lat": 38.90379216666667, "is_reserved": 0, "lon": -77.03185733333333, "fusion_lon": 0.0, "is_disabled": 0, "fusion_lat": 0.0, "bike_id": "70c64fcd16c0478ab9ecbc99a25dc5e5", "rental_uris": {"ios": "https://dc.lft.to/lastmile_qr_scan", "android": "https://dc.lft.to/lastmile_qr_scan"}}, {"name": "82810de672b2c94a1c85d51b944566f3", "type": "electric_scooter", "lat": 38.896417, "is_reserved": 0, "lon": -77.02946533333333, "fusion_lon": 0.0, "is_disabled": 0, "fusion_lat": 0.0, "bike_id": "82810de672b2c94a1c85d51b944566f3", "rental_uris": {"ios": "https://dc.lft.to/lastmile_qr_scan", "android": "https://dc.lft.to/lastmile_qr_scan"}}, {"name": "8bf05f57f94f8038e8cbc5d6b0593fe0", "type": "electric_scooter", "lat": 38.9234715, "is_reserved": 0, "lon": -77.05088883333333, "fusion_lon": 0.0, "is_disabled": 0, "fusion_lat": 0.0, "bike_id": "8bf05f57f94f8038e8cbc5d6b0593fe0", "rental_uris": {"ios": "https://dc.lft.to/lastmile_qr_scan", "android": "https://dc.lft.to/lastmile_qr_scan"}}, {"name": "cbddd82d751000236eed2d76daa9973e", "type": "electric_scooter", "lat": 38.905722, "is_reserved": 0, "lon": -77.043887, "fusion_lon": 0.0, "is_disabled": 0, "fusion_lat": 0.0, "bike_id": "cbddd82d751000236eed2d76daa9973e", "rental_uris": {"ios": "https://dc.lft.to/lastmile_qr_scan", "android": "https://dc.lft.to/lastmile_qr_scan"}}, {"name": "43f515fe351ecb528080a331c43d4070", "type": "electric_scooter", "lat": 38.894748666666665, "is_reserved": 0, "lon": -77.0013445, "fusion_lon": 0.0, "is_disabled": 0, "fusion_lat": 0.0, "bike_id": "43f515fe351ecb528080a331c43d4070", "rental_uris": {"ios": "https://dc.lft.to/lastmile_qr_scan", "android": "https://dc.lft.to/lastmile_qr_scan"}}, {"name": "799088b99a7ccc8c183e1c39d45d0c58", "type": "electric_scooter", "lat": 38.92613766666667, "is_reserved": 0, "lon": -77.02162116666666, "fusion_lon": 0.0, "is_disabled": 0, "fusion_lat": 0.0, "bike_id": "799088b99a7ccc8c183e1c39d45d0c58", "rental_uris": {"ios": "https://dc.lft.to/lastmile_qr_scan", "android": "https://dc.lft.to/lastmile_qr_scan"}}, {"name": "3b66b8d481529ca1f2352f0bc6ec53c2", "type": "electric_bike", "lat": 38.964977833333336, "is_reserved": 0, "lon": -77.064904, "fusion_lon": 0.0, "is_disabled": 0, "fusion_lat": 0.0, "bike_id": "3b66b8d481529ca1f2352f0bc6ec53c2", "rental_uris": {"ios": "https://dc.lft.to/lastmile_qr_scan", "android": "https://dc.lft.to/lastmile_qr_scan"}}, {"name": "063155be58c76c72039bf4a1a8267445", "type": "electric_scooter", "lat": 38.8924645, "is_reserved": 0, "lon": -77.01790583333333, "fusion_lon": 0.0, "is_disabled": 0, "fusion_lat": 0.0, "bike_id": "063155be58c76c72039bf4a1a8267445", "rental_uris": {"ios": "https://dc.lft.to/lastmile_qr_scan", "android": "https://dc.lft.to/lastmile_qr_scan"}}, {"name": "5ee5d2fb5d5f87e7ed90c99be01ffb8f", "type": "electric_scooter", "lat": 38.934867, "is_reserved": 0, "lon": -77.03283916666666, "fusion_lon": 0.0, "is_disabled": 0, "fusion_lat": 0.0, "bike_id": "5ee5d2fb5d5f87e7ed90c99be01ffb8f", "rental_uris": {"ios": "https://dc.lft.to/lastmile_qr_scan", "android": "https://dc.lft.to/lastmile_qr_scan"}}, {"name": "f9aca54faf98f9091856295c22660b00", "type": "electric_scooter", "lat": 38.9163465, "is_reserved": 0, "lon": -77.02697583333334, "fusion_lon": 0.0, "is_disabled": 0, "fusion_lat": 0.0, "bike_id": "f9aca54faf98f9091856295c22660b00", "rental_uris": {"ios": "https://dc.lft.to/lastmile_qr_scan", "android": "https://dc.lft.to/lastmile_qr_scan"}}, {"name": "0e9591191a06637796fc5bec8afe58ab", "type": "electric_bike", "lat": 38.93634266666667, "is_reserved": 0, "lon": -77.02697566666667, "fusion_lon": 0.0, "is_disabled": 0, "fusion_lat": 0.0, "bike_id": "0e9591191a06637796fc5bec8afe58ab", "rental_uris": {"ios": "https://dc.lft.to/lastmile_qr_scan", "android": "https://dc.lft.to/lastmile_qr_scan"}}, {"name": "9b68cd05fe4923d9a487b73cf57e13b7", "type": "electric_scooter", "lat": 38.90238216666667, "is_reserved": 0, "lon": -76.97408916666667, "fusion_lon": 0.0, "is_disabled": 0, "fusion_lat": 0.0, "bike_id": "9b68cd05fe4923d9a487b73cf57e13b7", "rental_uris": {"ios": "https://dc.lft.to/lastmile_qr_scan", "android": "https://dc.lft.to/lastmile_qr_scan"}}, {"name": "5a2ec7ad1fc255d74302a0ba256187c2", "type": "electric_bike", "lat": 38.861625, "is_reserved": 0, "lon": -77.13093733333334, "fusion_lon": 0.0, "is_disabled": 0, "fusion_lat": 0.0, "bike_id": "5a2ec7ad1fc255d74302a0ba256187c2", "rental_uris": {"ios": "https://dc.lft.to/lastmile_qr_scan", "android": "https://dc.lft.to/lastmile_qr_scan"}}, {"name": "93f3fa8dee6473e68327adbe12a73f00", "type": "electric_scooter", "lat": 38.925793166666665, "is_reserved": 0, "lon": -77.02840966666666, "fusion_lon": 0.0, "is_disabled": 0, "fusion_lat": 0.0, "bike_id": "93f3fa8dee6473e68327adbe12a73f00", "rental_uris": {"ios": "https://dc.lft.to/lastmile_qr_scan", "android": "https://dc.lft.to/lastmile_qr_scan"}}, {"name": "abb7b7198918220f61080cc324913332", "type": "electric_scooter", "lat": 38.914083, "is_reserved": 0, "lon": -77.008053, "fusion_lon": 0.0, "is_disabled": 0, "fusion_lat": 0.0, "bike_id": "abb7b7198918220f61080cc324913332", "rental_uris": {"ios": "https://dc.lft.to/lastmile_qr_scan", "android": "https://dc.lft.to/lastmile_qr_scan"}}, {"name": "3901108ab3fe747743b56d552ccc542b", "type": "electric_bike", "lat": 38.96757616666667, "is_reserved": 0, "lon": -77.0916095, "fusion_lon": 0.0, "is_disabled": 0, "fusion_lat": 0.0, "bike_id": "3901108ab3fe747743b56d552ccc542b", "rental_uris": {"ios": "https://dc.lft.to/lastmile_qr_scan", "android": "https://dc.lft.to/lastmile_qr_scan"}}, {"name": "55b8dca732377704817448cc798c6a3b", "type": "electric_scooter", "lat": 38.92690733333333, "is_reserved": 0, "lon": -77.020825, "fusion_lon": 0.0, "is_disabled": 0, "fusion_lat": 0.0, "bike_id": "55b8dca732377704817448cc798c6a3b", "rental_uris": {"ios": "https://dc.lft.to/lastmile_qr_scan", "android": "https://dc.lft.to/lastmile_qr_scan"}}, {"name": "b8742ea4eddee6cb400394e250b046c6", "type": "electric_scooter", "lat": 38.92344766666667, "is_reserved": 0, "lon": -77.05095616666667, "fusion_lon": 0.0, "is_disabled": 0, "fusion_lat": 0.0, "bike_id": "b8742ea4eddee6cb400394e250b046c6", "rental_uris": {"ios": "https://dc.lft.to/lastmile_qr_scan", "android": "https://dc.lft.to/lastmile_qr_scan"}}, {"name": "d5c6a366ae90aacddf1cd8b32316cbfd", "type": "electric_scooter", "lat": 38.916042166666664, "is_reserved": 0, "lon": -77.03850566666667, "fusion_lon": 0.0, "is_disabled": 0, "fusion_lat": 0.0, "bike_id": "d5c6a366ae90aacddf1cd8b32316cbfd", "rental_uris": {"ios": "https://dc.lft.to/lastmile_qr_scan", "android": "https://dc.lft.to/lastmile_qr_scan"}}, {"name": "6d234743294881fad2d2014b86fa60f3", "type": "electric_scooter", "lat": 38.8622165, "is_reserved": 0, "lon": -76.99484516666666, "fusion_lon": 0.0, "is_disabled": 0, "fusion_lat": 0.0, "bike_id": "6d234743294881fad2d2014b86fa60f3", "rental_uris": {"ios": "https://dc.lft.to/lastmile_qr_scan", "android": "https://dc.lft.to/lastmile_qr_scan"}}, {"name": "e553d96102bef70858118cb90c9139a0", "type": "electric_scooter", "lat": 38.90359866666667, "is_reserved": 0, "lon": -77.03838616666667, "fusion_lon": 0.0, "is_disabled": 0, "fusion_lat": 0.0, "bike_id": "e553d96102bef70858118cb90c9139a0", "rental_uris": {"ios": "https://dc.lft.to/lastmile_qr_scan", "android": "https://dc.lft.to/lastmile_qr_scan"}}, {"name": "58cd9051c9ffe1ff327f94ed63cec823", "type": "electric_scooter", "lat": 38.95921933333333, "is_reserved": 0, "lon": -77.03323616666667, "fusion_lon": 0.0, "is_disabled": 0, "fusion_lat": 0.0, "bike_id": "58cd9051c9ffe1ff327f94ed63cec823", "rental_uris": {"ios": "https://dc.lft.to/lastmile_qr_scan", "android": "https://dc.lft.to/lastmile_qr_scan"}}, {"name": "0d2b28f4d153fe024f1eab776d493b8e", "type": "electric_scooter", "lat": 38.9012305, "is_reserved": 0, "lon": -77.05127333333333, "fusion_lon": 0.0, "is_disabled": 0, "fusion_lat": 0.0, "bike_id": "0d2b28f4d153fe024f1eab776d493b8e", "rental_uris": {"ios": "https://dc.lft.to/lastmile_qr_scan", "android": "https://dc.lft.to/lastmile_qr_scan"}}, {"name": "5f8c122dd8ac5573de553fdfcdffc0c0", "type": "electric_scooter", "lat": 38.923445, "is_reserved": 0, "lon": -77.05095233333333, "fusion_lon": 0.0, "is_disabled": 0, "fusion_lat": 0.0, "bike_id": "5f8c122dd8ac5573de553fdfcdffc0c0", "rental_uris": {"ios": "https://dc.lft.to/lastmile_qr_scan", "android": "https://dc.lft.to/lastmile_qr_scan"}}, {"name": "1d0dcc49741a516f15002ebaa42f1046", "type": "electric_scooter", "lat": 38.898058666666664, "is_reserved": 0, "lon": -76.9949725, "fusion_lon": 0.0, "is_disabled": 0, "fusion_lat": 0.0, "bike_id": "1d0dcc49741a516f15002ebaa42f1046", "rental_uris": {"ios": "https://dc.lft.to/lastmile_qr_scan", "android": "https://dc.lft.to/lastmile_qr_scan"}}, {"name": "b8a25426a3471d75766cbf578e7cab79", "type": "electric_scooter", "lat": 38.901278, "is_reserved": 0, "lon": -77.030465, "fusion_lon": 0.0, "is_disabled": 0, "fusion_lat": 0.0, "bike_id": "b8a25426a3471d75766cbf578e7cab79", "rental_uris": {"ios": "https://dc.lft.to/lastmile_qr_scan", "android": "https://dc.lft.to/lastmile_qr_scan"}}, {"name": "34771a9142718f32d8000f9da3fbe6a3", "type": "electric_scooter", "lat": 38.90833833333333, "is_reserved": 0, "lon": -77.03304466666667, "fusion_lon": 0.0, "is_disabled": 0, "fusion_lat": 0.0, "bike_id": "34771a9142718f32d8000f9da3fbe6a3", "rental_uris": {"ios": "https://dc.lft.to/lastmile_qr_scan", "android": "https://dc.lft.to/lastmile_qr_scan"}}, {"name": "38f40cd54f30e3ae61bfa694ba9bdda5", "type": "electric_scooter", "lat": 38.92590783333333, "is_reserved": 0, "lon": -77.029652, "fusion_lon": 0.0, "is_disabled": 0, "fusion_lat": 0.0, "bike_id": "38f40cd54f30e3ae61bfa694ba9bdda5", "rental_uris": {"ios": "https://dc.lft.to/lastmile_qr_scan", "android": "https://dc.lft.to/lastmile_qr_scan"}}, {"name": "2cd7a01d5e7c2227322324c1e0aeb9c0", "type": "electric_bike", "lat": 38.93672433333333, "is_reserved": 0, "lon": -76.95207266666667, "fusion_lon": 0.0, "is_disabled": 0, "fusion_lat": 0.0, "bike_id": "2cd7a01d5e7c2227322324c1e0aeb9c0", "rental_uris": {"ios": "https://dc.lft.to/lastmile_qr_scan", "android": "https://dc.lft.to/lastmile_qr_scan"}}, {"name": "574d092cae86b6ca83f7eef298186884", "type": "electric_scooter", "lat": 38.899505833333336, "is_reserved": 0, "lon": -77.02173533333334, "fusion_lon": 0.0, "is_disabled": 0, "fusion_lat": 0.0, "bike_id": "574d092cae86b6ca83f7eef298186884", "rental_uris": {"ios": "https://dc.lft.to/lastmile_qr_scan", "android": "https://dc.lft.to/lastmile_qr_scan"}}, {"name": "f0ec9f4325622afef6bf9674ecf51ef4", "type": "electric_scooter", "lat": 38.8762185, "is_reserved": 0, "lon": -77.00654933333334, "fusion_lon": 0.0, "is_disabled": 0, "fusion_lat": 0.0, "bike_id": "f0ec9f4325622afef6bf9674ecf51ef4", "rental_uris": {"ios": "https://dc.lft.to/lastmile_qr_scan", "android": "https://dc.lft.to/lastmile_qr_scan"}}, {"name": "2e1559d3bc288d36d3fe364294b1161d", "type": "electric_scooter", "lat": 38.923201, "is_reserved": 0, "lon": -77.02985016666666, "fusion_lon": 0.0, "is_disabled": 0, "fusion_lat": 0.0, "bike_id": "2e1559d3bc288d36d3fe364294b1161d", "rental_uris": {"ios": "https://dc.lft.to/lastmile_qr_scan", "android": "https://dc.lft.to/lastmile_qr_scan"}}, {"name": "8ee119c65a6a886334e6cf584085d389", "type": "electric_scooter", "lat": 38.892386, "is_reserved": 0, "lon": -77.03217883333333, "fusion_lon": 0.0, "is_disabled": 0, "fusion_lat": 0.0, "bike_id": "8ee119c65a6a886334e6cf584085d389", "rental_uris": {"ios": "https://dc.lft.to/lastmile_qr_scan", "android": "https://dc.lft.to/lastmile_qr_scan"}}, {"name": "bd6d852f85dcbb6c91e6c1b75d4bbe32", "type": "electric_scooter", "lat": 38.90563016666667, "is_reserved": 0, "lon": -77.038002, "fusion_lon": 0.0, "is_disabled": 0, "fusion_lat": 0.0, "bike_id": "bd6d852f85dcbb6c91e6c1b75d4bbe32", "rental_uris": {"ios": "https://dc.lft.to/lastmile_qr_scan", "android": "https://dc.lft.to/lastmile_qr_scan"}}, {"name": "11b2c88a06ef835fe7e7673431365e3e", "type": "electric_scooter", "lat": 38.922445333333336, "is_reserved": 0, "lon": -77.030883, "fusion_lon": 0.0, "is_disabled": 0, "fusion_lat": 0.0, "bike_id": "11b2c88a06ef835fe7e7673431365e3e", "rental_uris": {"ios": "https://dc.lft.to/lastmile_qr_scan", "android": "https://dc.lft.to/lastmile_qr_scan"}}, {"name": "253d48a6736674dce28459598ab757b4", "type": "electric_scooter", "lat": 38.90724566666667, "is_reserved": 0, "lon": -77.04798383333333, "fusion_lon": 0.0, "is_disabled": 0, "fusion_lat": 0.0, "bike_id": "253d48a6736674dce28459598ab757b4", "rental_uris": {"ios": "https://dc.lft.to/lastmile_qr_scan", "android": "https://dc.lft.to/lastmile_qr_scan"}}, {"name": "ff07ea73f730d4130a936b998953c61a", "type": "electric_scooter", "lat": 38.9049795, "is_reserved": 0, "lon": -77.06937333333333, "fusion_lon": 0.0, "is_disabled": 0, "fusion_lat": 0.0, "bike_id": "ff07ea73f730d4130a936b998953c61a", "rental_uris": {"ios": "https://dc.lft.to/lastmile_qr_scan", "android": "https://dc.lft.to/lastmile_qr_scan"}}, {"name": "6083fe6b88fe9f19b1d6cbe14e685de5", "type": "electric_scooter", "lat": 38.923096666666666, "is_reserved": 0, "lon": -77.03955166666667, "fusion_lon": 0.0, "is_disabled": 0, "fusion_lat": 0.0, "bike_id": "6083fe6b88fe9f19b1d6cbe14e685de5", "rental_uris": {"ios": "https://dc.lft.to/lastmile_qr_scan", "android": "https://dc.lft.to/lastmile_qr_scan"}}, {"name": "b417102b560acd544f2474fe7a7c98bf", "type": "electric_scooter", "lat": 38.92035383333333, "is_reserved": 0, "lon": -77.03424666666666, "fusion_lon": 0.0, "is_disabled": 0, "fusion_lat": 0.0, "bike_id": "b417102b560acd544f2474fe7a7c98bf", "rental_uris": {"ios": "https://dc.lft.to/lastmile_qr_scan", "android": "https://dc.lft.to/lastmile_qr_scan"}}, {"name": "43931b840077cb0fd3d5698c5abc2b35", "type": "electric_scooter", "lat": 38.910169833333335, "is_reserved": 0, "lon": -77.052789, "fusion_lon": 0.0, "is_disabled": 0, "fusion_lat": 0.0, "bike_id": "43931b840077cb0fd3d5698c5abc2b35", "rental_uris": {"ios": "https://dc.lft.to/lastmile_qr_scan", "android": "https://dc.lft.to/lastmile_qr_scan"}}, {"name": "c9886c1843cdaf414002ad76aada4aed", "type": "electric_scooter", "lat": 38.91102716666666, "is_reserved": 0, "lon": -77.0105705, "fusion_lon": 0.0, "is_disabled": 0, "fusion_lat": 0.0, "bike_id": "c9886c1843cdaf414002ad76aada4aed", "rental_uris": {"ios": "https://dc.lft.to/lastmile_qr_scan", "android": "https://dc.lft.to/lastmile_qr_scan"}}, {"name": "b6082f62bf662f12f02bd42fdee3b635", "type": "electric_scooter", "lat": 38.94212866666667, "is_reserved": 0, "lon": -77.01498733333334, "fusion_lon": 0.0, "is_disabled": 0, "fusion_lat": 0.0, "bike_id": "b6082f62bf662f12f02bd42fdee3b635", "rental_uris": {"ios": "https://dc.lft.to/lastmile_qr_scan", "android": "https://dc.lft.to/lastmile_qr_scan"}}, {"name": "2f52469a4dee6c0d924fe7058e5b510d", "type": "electric_scooter", "lat": 38.90067, "is_reserved": 0, "lon": -77.04906666666666, "fusion_lon": 0.0, "is_disabled": 0, "fusion_lat": 0.0, "bike_id": "2f52469a4dee6c0d924fe7058e5b510d", "rental_uris": {"ios": "https://dc.lft.to/lastmile_qr_scan", "android": "https://dc.lft.to/lastmile_qr_scan"}}, {"name": "3a22fadaca365aeb3639b03f6d405a6f", "type": "electric_scooter", "lat": 38.920879, "is_reserved": 0, "lon": -77.02390483333333, "fusion_lon": 0.0, "is_disabled": 0, "fusion_lat": 0.0, "bike_id": "3a22fadaca365aeb3639b03f6d405a6f", "rental_uris": {"ios": "https://dc.lft.to/lastmile_qr_scan", "android": "https://dc.lft.to/lastmile_qr_scan"}}, {"name": "1cb414663e30b5c040d0e4d7f2de936a", "type": "electric_scooter", "lat": 38.90775283333333, "is_reserved": 0, "lon": -77.04346533333333, "fusion_lon": 0.0, "is_disabled": 0, "fusion_lat": 0.0, "bike_id": "1cb414663e30b5c040d0e4d7f2de936a", "rental_uris": {"ios": "https://dc.lft.to/lastmile_qr_scan", "android": "https://dc.lft.to/lastmile_qr_scan"}}, {"name": "59ad759e11091d98899bfa371f36d5ad", "type": "electric_scooter", "lat": 38.90776683333333, "is_reserved": 0, "lon": -77.07162833333334, "fusion_lon": 0.0, "is_disabled": 0, "fusion_lat": 0.0, "bike_id": "59ad759e11091d98899bfa371f36d5ad", "rental_uris": {"ios": "https://dc.lft.to/lastmile_qr_scan", "android": "https://dc.lft.to/lastmile_qr_scan"}}, {"name": "dc62a11f1820d667c22d0d22b1ccbbe9", "type": "electric_scooter", "lat": 38.91593683333333, "is_reserved": 0, "lon": -77.04253466666667, "fusion_lon": 0.0, "is_disabled": 0, "fusion_lat": 0.0, "bike_id": "dc62a11f1820d667c22d0d22b1ccbbe9", "rental_uris": {"ios": "https://dc.lft.to/lastmile_qr_scan", "android": "https://dc.lft.to/lastmile_qr_scan"}}, {"name": "19b4cdec7a9875db92a6744913159c62", "type": "electric_scooter", "lat": 38.928101166666664, "is_reserved": 0, "lon": -77.01401566666667, "fusion_lon": 0.0, "is_disabled": 0, "fusion_lat": 0.0, "bike_id": "19b4cdec7a9875db92a6744913159c62", "rental_uris": {"ios": "https://dc.lft.to/lastmile_qr_scan", "android": "https://dc.lft.to/lastmile_qr_scan"}}, {"name": "c698165d6c9e7dfb13fea0a792a5a6ee", "type": "electric_scooter", "lat": 38.882728666666665, "is_reserved": 0, "lon": -76.98617333333334, "fusion_lon": 0.0, "is_disabled": 0, "fusion_lat": 0.0, "bike_id": "c698165d6c9e7dfb13fea0a792a5a6ee", "rental_uris": {"ios": "https://dc.lft.to/lastmile_qr_scan", "android": "https://dc.lft.to/lastmile_qr_scan"}}, {"name": "1b89f06e418565b1356716abcffc2ac2", "type": "electric_scooter", "lat": 38.900387, "is_reserved": 0, "lon": -77.0022285, "fusion_lon": 0.0, "is_disabled": 0, "fusion_lat": 0.0, "bike_id": "1b89f06e418565b1356716abcffc2ac2", "rental_uris": {"ios": "https://dc.lft.to/lastmile_qr_scan", "android": "https://dc.lft.to/lastmile_qr_scan"}}, {"name": "4f8311da301b8d207f06f78f1ab8c2bb", "type": "electric_scooter", "lat": 38.868303, "is_reserved": 0, "lon": -76.98613883333333, "fusion_lon": 0.0, "is_disabled": 0, "fusion_lat": 0.0, "bike_id": "4f8311da301b8d207f06f78f1ab8c2bb", "rental_uris": {"ios": "https://dc.lft.to/lastmile_qr_scan", "android": "https://dc.lft.to/lastmile_qr_scan"}}, {"name": "f3ae34fc3eeda4ebed8fc09486c9b121", "type": "electric_scooter", "lat": 38.9248215, "is_reserved": 0, "lon": -77.02997433333333, "fusion_lon": 0.0, "is_disabled": 0, "fusion_lat": 0.0, "bike_id": "f3ae34fc3eeda4ebed8fc09486c9b121", "rental_uris": {"ios": "https://dc.lft.to/lastmile_qr_scan", "android": "https://dc.lft.to/lastmile_qr_scan"}}, {"name": "5c3603fbeb93f5c1709f72064ffd5056", "type": "electric_scooter", "lat": 38.897393, "is_reserved": 0, "lon": -76.9384355, "fusion_lon": 0.0, "is_disabled": 0, "fusion_lat": 0.0, "bike_id": "5c3603fbeb93f5c1709f72064ffd5056", "rental_uris": {"ios": "https://dc.lft.to/lastmile_qr_scan", "android": "https://dc.lft.to/lastmile_qr_scan"}}, {"name": "46ce872345f0aeabaf01d9709b64fe73", "type": "electric_scooter", "lat": 38.905873666666665, "is_reserved": 0, "lon": -77.06520266666666, "fusion_lon": 0.0, "is_disabled": 0, "fusion_lat": 0.0, "bike_id": "46ce872345f0aeabaf01d9709b64fe73", "rental_uris": {"ios": "https://dc.lft.to/lastmile_qr_scan", "android": "https://dc.lft.to/lastmile_qr_scan"}}, {"name": "f2cede0af60af91b978a2de2fac00c39", "type": "electric_scooter", "lat": 38.92159316666667, "is_reserved": 0, "lon": -77.04220033333333, "fusion_lon": 0.0, "is_disabled": 0, "fusion_lat": 0.0, "bike_id": "f2cede0af60af91b978a2de2fac00c39", "rental_uris": {"ios": "https://dc.lft.to/lastmile_qr_scan", "android": "https://dc.lft.to/lastmile_qr_scan"}}, {"name": "484d2c516d4ff68a07b391d28f478c46", "type": "electric_scooter", "lat": 38.917716666666664, "is_reserved": 0, "lon": -77.02362516666666, "fusion_lon": 0.0, "is_disabled": 0, "fusion_lat": 0.0, "bike_id": "484d2c516d4ff68a07b391d28f478c46", "rental_uris": {"ios": "https://dc.lft.to/lastmile_qr_scan", "android": "https://dc.lft.to/lastmile_qr_scan"}}, {"name": "24434e67911d7d869eff273c69806558", "type": "electric_scooter", "lat": 38.932884333333334, "is_reserved": 0, "lon": -77.03984866666667, "fusion_lon": 0.0, "is_disabled": 0, "fusion_lat": 0.0, "bike_id": "24434e67911d7d869eff273c69806558", "rental_uris": {"ios": "https://dc.lft.to/lastmile_qr_scan", "android": "https://dc.lft.to/lastmile_qr_scan"}}, {"name": "ff7a015d505e4677fc03fb35d8ff724e", "type": "electric_scooter", "lat": 38.8952645, "is_reserved": 0, "lon": -77.02945066666666, "fusion_lon": 0.0, "is_disabled": 0, "fusion_lat": 0.0, "bike_id": "ff7a015d505e4677fc03fb35d8ff724e", "rental_uris": {"ios": "https://dc.lft.to/lastmile_qr_scan", "android": "https://dc.lft.to/lastmile_qr_scan"}}, {"name": "b820be7b5ab1bb82f9320813b4463df6", "type": "electric_scooter", "lat": 38.88687683333333, "is_reserved": 0, "lon": -76.95759633333333, "fusion_lon": 0.0, "is_disabled": 0, "fusion_lat": 0.0, "bike_id": "b820be7b5ab1bb82f9320813b4463df6", "rental_uris": {"ios": "https://dc.lft.to/lastmile_qr_scan", "android": "https://dc.lft.to/lastmile_qr_scan"}}, {"name": "5cafd4b85fd853138273ae75f1f18284", "type": "electric_scooter", "lat": 38.8945405, "is_reserved": 0, "lon": -77.01923966666666, "fusion_lon": 0.0, "is_disabled": 0, "fusion_lat": 0.0, "bike_id": "5cafd4b85fd853138273ae75f1f18284", "rental_uris": {"ios": "https://dc.lft.to/lastmile_qr_scan", "android": "https://dc.lft.to/lastmile_qr_scan"}}, {"name": "e5b4c932311c95443d4d53b81186d82c", "type": "electric_scooter", "lat": 38.86517416666667, "is_reserved": 0, "lon": -76.9903125, "fusion_lon": 0.0, "is_disabled": 0, "fusion_lat": 0.0, "bike_id": "e5b4c932311c95443d4d53b81186d82c", "rental_uris": {"ios": "https://dc.lft.to/lastmile_qr_scan", "android": "https://dc.lft.to/lastmile_qr_scan"}}, {"name": "16497292f9e383240d73660a1d9e8f0d", "type": "electric_scooter", "lat": 38.89483, "is_reserved": 0, "lon": -76.99515783333334, "fusion_lon": 0.0, "is_disabled": 0, "fusion_lat": 0.0, "bike_id": "16497292f9e383240d73660a1d9e8f0d", "rental_uris": {"ios": "https://dc.lft.to/lastmile_qr_scan", "android": "https://dc.lft.to/lastmile_qr_scan"}}, {"name": "6aad72a1852c786e0a906188d36188e6", "type": "electric_bike", "lat": 38.838231, "is_reserved": 0, "lon": -76.99673166666666, "fusion_lon": 0.0, "is_disabled": 0, "fusion_lat": 0.0, "bike_id": "6aad72a1852c786e0a906188d36188e6", "rental_uris": {"ios": "https://dc.lft.to/lastmile_qr_scan", "android": "https://dc.lft.to/lastmile_qr_scan"}}, {"name": "cdee3f3241466ab2c03fc1aeae374727", "type": "electric_scooter", "lat": 38.90627633333333, "is_reserved": 0, "lon": -77.03850733333333, "fusion_lon": 0.0, "is_disabled": 0, "fusion_lat": 0.0, "bike_id": "cdee3f3241466ab2c03fc1aeae374727", "rental_uris": {"ios": "https://dc.lft.to/lastmile_qr_scan", "android": "https://dc.lft.to/lastmile_qr_scan"}}, {"name": "f2e20f9470930c56a6e5f8ca8a2a56c3", "type": "electric_scooter", "lat": 38.897445833333336, "is_reserved": 0, "lon": -77.031375, "fusion_lon": 0.0, "is_disabled": 0, "fusion_lat": 0.0, "bike_id": "f2e20f9470930c56a6e5f8ca8a2a56c3", "rental_uris": {"ios": "https://dc.lft.to/lastmile_qr_scan", "android": "https://dc.lft.to/lastmile_qr_scan"}}, {"name": "8ae04722e6accfed131311c3f29b2fe0", "type": "electric_scooter", "lat": 38.91414616666667, "is_reserved": 0, "lon": -77.03996783333334, "fusion_lon": 0.0, "is_disabled": 0, "fusion_lat": 0.0, "bike_id": "8ae04722e6accfed131311c3f29b2fe0", "rental_uris": {"ios": "https://dc.lft.to/lastmile_qr_scan", "android": "https://dc.lft.to/lastmile_qr_scan"}}, {"name": "3d2401885a8b3431dc9837338acc9048", "type": "electric_scooter", "lat": 38.8841165, "is_reserved": 0, "lon": -77.015347, "fusion_lon": 0.0, "is_disabled": 0, "fusion_lat": 0.0, "bike_id": "3d2401885a8b3431dc9837338acc9048", "rental_uris": {"ios": "https://dc.lft.to/lastmile_qr_scan", "android": "https://dc.lft.to/lastmile_qr_scan"}}, {"name": "2d1602a9e01474b6d6af0b8141d97485", "type": "electric_bike", "lat": 38.9908995, "is_reserved": 0, "lon": -76.87497116666667, "fusion_lon": 0.0, "is_disabled": 0, "fusion_lat": 0.0, "bike_id": "2d1602a9e01474b6d6af0b8141d97485", "rental_uris": {"ios": "https://dc.lft.to/lastmile_qr_scan", "android": "https://dc.lft.to/lastmile_qr_scan"}}, {"name": "69e273c17c95156cd28ebe33c3854947", "type": "electric_scooter", "lat": 38.866729166666666, "is_reserved": 0, "lon": -76.98449983333333, "fusion_lon": 0.0, "is_disabled": 0, "fusion_lat": 0.0, "bike_id": "69e273c17c95156cd28ebe33c3854947", "rental_uris": {"ios": "https://dc.lft.to/lastmile_qr_scan", "android": "https://dc.lft.to/lastmile_qr_scan"}}, {"name": "aad3ec7665eec127a8f50d76a2f70d20", "type": "electric_scooter", "lat": 38.92443683333333, "is_reserved": 0, "lon": -77.0335405, "fusion_lon": 0.0, "is_disabled": 0, "fusion_lat": 0.0, "bike_id": "aad3ec7665eec127a8f50d76a2f70d20", "rental_uris": {"ios": "https://dc.lft.to/lastmile_qr_scan", "android": "https://dc.lft.to/lastmile_qr_scan"}}, {"name": "ce97d7a7f60b9293ab2c30f0ce90cffc", "type": "electric_scooter", "lat": 38.876747333333334, "is_reserved": 0, "lon": -77.017805, "fusion_lon": 0.0, "is_disabled": 0, "fusion_lat": 0.0, "bike_id": "ce97d7a7f60b9293ab2c30f0ce90cffc", "rental_uris": {"ios": "https://dc.lft.to/lastmile_qr_scan", "android": "https://dc.lft.to/lastmile_qr_scan"}}, {"name": "4998ea601e04b0eee7ed6f37bd9d2351", "type": "electric_scooter", "lat": 38.89226766666667, "is_reserved": 0, "lon": -77.04640483333333, "fusion_lon": 0.0, "is_disabled": 0, "fusion_lat": 0.0, "bike_id": "4998ea601e04b0eee7ed6f37bd9d2351", "rental_uris": {"ios": "https://dc.lft.to/lastmile_qr_scan", "android": "https://dc.lft.to/lastmile_qr_scan"}}, {"name": "a2d2e721d7c865aaf9d107db54989c4e", "type": "electric_scooter", "lat": 38.899711333333336, "is_reserved": 0, "lon": -77.05705883333333, "fusion_lon": 0.0, "is_disabled": 0, "fusion_lat": 0.0, "bike_id": "a2d2e721d7c865aaf9d107db54989c4e", "rental_uris": {"ios": "https://dc.lft.to/lastmile_qr_scan", "android": "https://dc.lft.to/lastmile_qr_scan"}}, {"name": "f3cd5b85bfa42a7921d4fdb59b6bcdc4", "type": "electric_scooter", "lat": 38.936081, "is_reserved": 0, "lon": -77.05864433333333, "fusion_lon": 0.0, "is_disabled": 0, "fusion_lat": 0.0, "bike_id": "f3cd5b85bfa42a7921d4fdb59b6bcdc4", "rental_uris": {"ios": "https://dc.lft.to/lastmile_qr_scan", "android": "https://dc.lft.to/lastmile_qr_scan"}}, {"name": "047153446568a624ae8f647a67760c8c", "type": "electric_bike", "lat": 38.82870233333333, "is_reserved": 0, "lon": -77.11224616666667, "fusion_lon": 0.0, "is_disabled": 0, "fusion_lat": 0.0, "bike_id": "047153446568a624ae8f647a67760c8c", "rental_uris": {"ios": "https://dc.lft.to/lastmile_qr_scan", "android": "https://dc.lft.to/lastmile_qr_scan"}}, {"name": "e3f6325da77d3021d60016cb945d7409", "type": "electric_scooter", "lat": 38.906478166666666, "is_reserved": 0, "lon": -77.03871466666666, "fusion_lon": 0.0, "is_disabled": 0, "fusion_lat": 0.0, "bike_id": "e3f6325da77d3021d60016cb945d7409", "rental_uris": {"ios": "https://dc.lft.to/lastmile_qr_scan", "android": "https://dc.lft.to/lastmile_qr_scan"}}, {"name": "0c1a4ec74a26a8fe17a9a0d4cdacabe8", "type": "electric_scooter", "lat": 38.922117166666666, "is_reserved": 0, "lon": -77.0423665, "fusion_lon": 0.0, "is_disabled": 0, "fusion_lat": 0.0, "bike_id": "0c1a4ec74a26a8fe17a9a0d4cdacabe8", "rental_uris": {"ios": "https://dc.lft.to/lastmile_qr_scan", "android": "https://dc.lft.to/lastmile_qr_scan"}}, {"name": "a588e5a70ec987b1fd0bf00d092c6fea", "type": "electric_scooter", "lat": 38.90239716666667, "is_reserved": 0, "lon": -77.0005085, "fusion_lon": 0.0, "is_disabled": 0, "fusion_lat": 0.0, "bike_id": "a588e5a70ec987b1fd0bf00d092c6fea", "rental_uris": {"ios": "https://dc.lft.to/lastmile_qr_scan", "android": "https://dc.lft.to/lastmile_qr_scan"}}, {"name": "6a5cf8f11c3ed3181a65147f85c10e4d", "type": "electric_scooter", "lat": 38.930862166666664, "is_reserved": 0, "lon": -77.02412733333334, "fusion_lon": 0.0, "is_disabled": 0, "fusion_lat": 0.0, "bike_id": "6a5cf8f11c3ed3181a65147f85c10e4d", "rental_uris": {"ios": "https://dc.lft.to/lastmile_qr_scan", "android": "https://dc.lft.to/lastmile_qr_scan"}}, {"name": "f81fdc5a892ceda6581299a6efe797ab", "type": "electric_scooter", "lat": 38.88927116666667, "is_reserved": 0, "lon": -76.94779416666667, "fusion_lon": 0.0, "is_disabled": 0, "fusion_lat": 0.0, "bike_id": "f81fdc5a892ceda6581299a6efe797ab", "rental_uris": {"ios": "https://dc.lft.to/lastmile_qr_scan", "android": "https://dc.lft.to/lastmile_qr_scan"}}, {"name": "8d0e198b290974efb2e3e826890c7643", "type": "electric_bike", "lat": 38.903574666666664, "is_reserved": 0, "lon": -76.98097316666667, "fusion_lon": 0.0, "is_disabled": 0, "fusion_lat": 0.0, "bike_id": "8d0e198b290974efb2e3e826890c7643", "rental_uris": {"ios": "https://dc.lft.to/lastmile_qr_scan", "android": "https://dc.lft.to/lastmile_qr_scan"}}, {"name": "f74ca8a0fc9417d991a68b26b5f8b79d", "type": "electric_scooter", "lat": 38.903764333333335, "is_reserved": 0, "lon": -77.04490766666666, "fusion_lon": 0.0, "is_disabled": 0, "fusion_lat": 0.0, "bike_id": "f74ca8a0fc9417d991a68b26b5f8b79d", "rental_uris": {"ios": "https://dc.lft.to/lastmile_qr_scan", "android": "https://dc.lft.to/lastmile_qr_scan"}}, {"name": "ac51baac33d85f5f8f990f9123338bc5", "type": "electric_bike", "lat": 38.838609, "is_reserved": 0, "lon": -77.0886955, "fusion_lon": 0.0, "is_disabled": 0, "fusion_lat": 0.0, "bike_id": "ac51baac33d85f5f8f990f9123338bc5", "rental_uris": {"ios": "https://dc.lft.to/lastmile_qr_scan", "android": "https://dc.lft.to/lastmile_qr_scan"}}, {"name": "039b37c99f5f3071fda69d2dc4902d2a", "type": "electric_bike", "lat": 38.9732485, "is_reserved": 0, "lon": -77.02152733333334, "fusion_lon": 0.0, "is_disabled": 0, "fusion_lat": 0.0, "bike_id": "039b37c99f5f3071fda69d2dc4902d2a", "rental_uris": {"ios": "https://dc.lft.to/lastmile_qr_scan", "android": "https://dc.lft.to/lastmile_qr_scan"}}, {"name": "588852228beba7e65a9b121b118459af", "type": "electric_scooter", "lat": 38.91739283333333, "is_reserved": 0, "lon": -77.03639416666667, "fusion_lon": 0.0, "is_disabled": 0, "fusion_lat": 0.0, "bike_id": "588852228beba7e65a9b121b118459af", "rental_uris": {"ios": "https://dc.lft.to/lastmile_qr_scan", "android": "https://dc.lft.to/lastmile_qr_scan"}}, {"name": "62ad733420e000000dbd4e255a3a4244", "type": "electric_scooter", "lat": 38.93222216666667, "is_reserved": 0, "lon": -77.03544883333333, "fusion_lon": 0.0, "is_disabled": 0, "fusion_lat": 0.0, "bike_id": "62ad733420e000000dbd4e255a3a4244", "rental_uris": {"ios": "https://dc.lft.to/lastmile_qr_scan", "android": "https://dc.lft.to/lastmile_qr_scan"}}, {"name": "2c5de4e0b371bcaf57339b4784595554", "type": "electric_scooter", "lat": 38.90325933333333, "is_reserved": 0, "lon": -77.03851116666667, "fusion_lon": 0.0, "is_disabled": 0, "fusion_lat": 0.0, "bike_id": "2c5de4e0b371bcaf57339b4784595554", "rental_uris": {"ios": "https://dc.lft.to/lastmile_qr_scan", "android": "https://dc.lft.to/lastmile_qr_scan"}}, {"name": "45c2f25904de872e9214be81391b404a", "type": "electric_scooter", "lat": 38.92133716666667, "is_reserved": 0, "lon": -77.03889616666666, "fusion_lon": 0.0, "is_disabled": 0, "fusion_lat": 0.0, "bike_id": "45c2f25904de872e9214be81391b404a", "rental_uris": {"ios": "https://dc.lft.to/lastmile_qr_scan", "android": "https://dc.lft.to/lastmile_qr_scan"}}, {"name": "caebcd4fac7972d4db0d26f3d884fb15", "type": "electric_scooter", "lat": 38.90504283333333, "is_reserved": 0, "lon": -77.04670983333334, "fusion_lon": 0.0, "is_disabled": 0, "fusion_lat": 0.0, "bike_id": "caebcd4fac7972d4db0d26f3d884fb15", "rental_uris": {"ios": "https://dc.lft.to/lastmile_qr_scan", "android": "https://dc.lft.to/lastmile_qr_scan"}}, {"name": "99086bceca24a9b885dc25cdee992f63", "type": "electric_scooter", "lat": 38.91939033333333, "is_reserved": 0, "lon": -77.045402, "fusion_lon": 0.0, "is_disabled": 0, "fusion_lat": 0.0, "bike_id": "99086bceca24a9b885dc25cdee992f63", "rental_uris": {"ios": "https://dc.lft.to/lastmile_qr_scan", "android": "https://dc.lft.to/lastmile_qr_scan"}}, {"name": "5aa446c830718e647885db0335481e67", "type": "electric_scooter", "lat": 38.93354866666667, "is_reserved": 0, "lon": -77.03371166666666, "fusion_lon": 0.0, "is_disabled": 0, "fusion_lat": 0.0, "bike_id": "5aa446c830718e647885db0335481e67", "rental_uris": {"ios": "https://dc.lft.to/lastmile_qr_scan", "android": "https://dc.lft.to/lastmile_qr_scan"}}, {"name": "bfd54b514c8f9e07e7c784133799230e", "type": "electric_scooter", "lat": 38.899831, "is_reserved": 0, "lon": -77.02942783333333, "fusion_lon": 0.0, "is_disabled": 0, "fusion_lat": 0.0, "bike_id": "bfd54b514c8f9e07e7c784133799230e", "rental_uris": {"ios": "https://dc.lft.to/lastmile_qr_scan", "android": "https://dc.lft.to/lastmile_qr_scan"}}, {"name": "c89eb7cbee7365e3a721d2fb333ca145", "type": "electric_scooter", "lat": 38.902510166666666, "is_reserved": 0, "lon": -77.04480766666667, "fusion_lon": 0.0, "is_disabled": 0, "fusion_lat": 0.0, "bike_id": "c89eb7cbee7365e3a721d2fb333ca145", "rental_uris": {"ios": "https://dc.lft.to/lastmile_qr_scan", "android": "https://dc.lft.to/lastmile_qr_scan"}}, {"name": "2c0b3d76c08cd2b7b0858f5e38d743b1", "type": "electric_scooter", "lat": 38.89558133333333, "is_reserved": 0, "lon": -77.050002, "fusion_lon": 0.0, "is_disabled": 0, "fusion_lat": 0.0, "bike_id": "2c0b3d76c08cd2b7b0858f5e38d743b1", "rental_uris": {"ios": "https://dc.lft.to/lastmile_qr_scan", "android": "https://dc.lft.to/lastmile_qr_scan"}}, {"name": "7e631b86cdd7061fe7cc0f5b648ab945", "type": "electric_scooter", "lat": 38.955279, "is_reserved": 0, "lon": -77.06988983333333, "fusion_lon": 0.0, "is_disabled": 0, "fusion_lat": 0.0, "bike_id": "7e631b86cdd7061fe7cc0f5b648ab945", "rental_uris": {"ios": "https://dc.lft.to/lastmile_qr_scan", "android": "https://dc.lft.to/lastmile_qr_scan"}}, {"name": "92a252aeebe03941487f472096f0b366", "type": "electric_scooter", "lat": 38.865229166666666, "is_reserved": 0, "lon": -76.990298, "fusion_lon": 0.0, "is_disabled": 0, "fusion_lat": 0.0, "bike_id": "92a252aeebe03941487f472096f0b366", "rental_uris": {"ios": "https://dc.lft.to/lastmile_qr_scan", "android": "https://dc.lft.to/lastmile_qr_scan"}}, {"name": "7d157ecafc5496598180aec66c476ac4", "type": "electric_scooter", "lat": 38.92724466666667, "is_reserved": 0, "lon": -77.0056955, "fusion_lon": 0.0, "is_disabled": 0, "fusion_lat": 0.0, "bike_id": "7d157ecafc5496598180aec66c476ac4", "rental_uris": {"ios": "https://dc.lft.to/lastmile_qr_scan", "android": "https://dc.lft.to/lastmile_qr_scan"}}, {"name": "ee215c2c7a51c9651df89c51541ed15f", "type": "electric_scooter", "lat": 38.89366233333333, "is_reserved": 0, "lon": -77.0479185, "fusion_lon": 0.0, "is_disabled": 0, "fusion_lat": 0.0, "bike_id": "ee215c2c7a51c9651df89c51541ed15f", "rental_uris": {"ios": "https://dc.lft.to/lastmile_qr_scan", "android": "https://dc.lft.to/lastmile_qr_scan"}}, {"name": "6dbba26ef9d7823af216cfc0c031018f", "type": "electric_bike", "lat": 39.094584833333336, "is_reserved": 0, "lon": -77.149949, "fusion_lon": 0.0, "is_disabled": 0, "fusion_lat": 0.0, "bike_id": "6dbba26ef9d7823af216cfc0c031018f", "rental_uris": {"ios": "https://dc.lft.to/lastmile_qr_scan", "android": "https://dc.lft.to/lastmile_qr_scan"}}, {"name": "b5639d10aa91803d1430e12627618bad", "type": "electric_scooter", "lat": 38.896762333333335, "is_reserved": 0, "lon": -77.0119295, "fusion_lon": 0.0, "is_disabled": 0, "fusion_lat": 0.0, "bike_id": "b5639d10aa91803d1430e12627618bad", "rental_uris": {"ios": "https://dc.lft.to/lastmile_qr_scan", "android": "https://dc.lft.to/lastmile_qr_scan"}}, {"name": "32ac998b6de94ae93ac4dd18502bc995", "type": "electric_bike", "lat": 38.87586733333333, "is_reserved": 0, "lon": -77.00762066666667, "fusion_lon": 0.0, "is_disabled": 0, "fusion_lat": 0.0, "bike_id": "32ac998b6de94ae93ac4dd18502bc995", "rental_uris": {"ios": "https://dc.lft.to/lastmile_qr_scan", "android": "https://dc.lft.to/lastmile_qr_scan"}}, {"name": "62a06d7b2e8cce80989f0d68f5c4385a", "type": "electric_scooter", "lat": 38.890141166666666, "is_reserved": 0, "lon": -76.93731533333333, "fusion_lon": 0.0, "is_disabled": 0, "fusion_lat": 0.0, "bike_id": "62a06d7b2e8cce80989f0d68f5c4385a", "rental_uris": {"ios": "https://dc.lft.to/lastmile_qr_scan", "android": "https://dc.lft.to/lastmile_qr_scan"}}, {"name": "020bf9cd3b313665115600945091cf03", "type": "electric_bike", "lat": 38.840604, "is_reserved": 0, "lon": -77.06403316666666, "fusion_lon": 0.0, "is_disabled": 0, "fusion_lat": 0.0, "bike_id": "020bf9cd3b313665115600945091cf03", "rental_uris": {"ios": "https://dc.lft.to/lastmile_qr_scan", "android": "https://dc.lft.to/lastmile_qr_scan"}}, {"name": "b4b115ed77c24d7e20c6a08ecd44399b", "type": "electric_scooter", "lat": 38.86245916666667, "is_reserved": 0, "lon": -76.9950075, "fusion_lon": 0.0, "is_disabled": 0, "fusion_lat": 0.0, "bike_id": "b4b115ed77c24d7e20c6a08ecd44399b", "rental_uris": {"ios": "https://dc.lft.to/lastmile_qr_scan", "android": "https://dc.lft.to/lastmile_qr_scan"}},