{"data": {"bikes": [{"bike_id": "c7c214205887b9613eb1656be31506fa", "is_reserved": 0, "name": "c7c214205887b9613eb1656be31506fa", "lat": 38.889330333333334, "fusion_lat": 0.0, "lon": -77.01508583333333, "is_disabled": 0, "fusion_lon": 0.0, "rental_uris": {"android": "https://dc.lft.to/lastmile_qr_scan", "ios": "https://dc.lft.to/lastmile_qr_scan"}, "type": "electric_scooter"}, {"bike_id": "92993e841fc6e4975edd8687030446aa", "is_reserved": 0, "name": "92993e841fc6e4975edd8687030446aa", "lat": 38.9000315, "fusion_lat": 0.0, "lon": -76.99324166666666, "is_disabled": 0, "fusion_lon": 0.0, "rental_uris": {"android": "https://dc.lft.to/lastmile_qr_scan", "ios": "https://dc.lft.to/lastmile_qr_scan"}, "type": "electric_scooter"}, {"bike_id": "410eabcbb9ea560250fd7c512d617e08", "is_reserved": 0, "name": "410eabcbb9ea560250fd7c512d617e08", "lat": 38.90357016666667, "fusion_lat": 0.0, "lon": -77.038675, "is_disabled": 0, "fusion_lon": 0.0, "rental_uris": {"android": "https://dc.lft.to/lastmile_qr_scan", "ios": "https://dc.lft.to/lastmile_qr_scan"}, "type": "electric_scooter"}, {"bike_id": "273539d23c5f5e85245b8946eabd5714", "is_reserved": 0, "name": "273539d23c5f5e85245b8946eabd5714", "lat": 38.916873833333334, "fusion_lat": 0.0, "lon": -77.02893383333334, "is_disabled": 0, "fusion_lon": 0.0, "rental_uris": {"android": "https://dc.lft.to/lastmile_qr_scan", "ios": "https://dc.lft.to/lastmile_qr_scan"}, "type": "electric_scooter"}, {"bike_id": "6f8e395218700aedc5358228d6113d35", "is_reserved": 0, "name": "6f8e395218700aedc5358228d6113d35", "lat": 38.90891633333333, "fusion_lat": 0.0, "lon": -77.04394316666666, "is_disabled": 0, "fusion_lon": 0.0, "rental_uris": {"android": "https://dc.lft.to/lastmile_qr_scan", "ios": "https://dc.lft.to/lastmile_qr_scan"}, "type": "electric_scooter"}, {"bike_id": "3d061e341f3563164754d1629f71debc", "is_reserved": 0, "name": "3d061e341f3563164754d1629f71debc", "lat": 38.91275366666667, "fusion_lat": 0.0, "lon": -77.02387716666667, "is_disabled": 0, "fusion_lon": 0.0, "rental_uris": {"android": "https://dc.lft.to/lastmile_qr_scan", "ios": "https://dc.lft.to/lastmile_qr_scan"}, "type": "electric_scooter"}, {"bike_id": "4c3fc654a8f4e9bce02d3610201a1e8f", "is_reserved": 0, "name": "4c3fc654a8f4e9bce02d3610201a1e8f", "lat": 38.897189833333336, "fusion_lat": 0.0, "lon": -77.00793083333333, "is_disabled": 0, "fusion_lon": 0.0, "rental_uris": {"android": "https://dc.lft.to/lastmile_qr_scan", "ios": "https://dc.lft.to/lastmile_qr_scan"}, "type": "electric_scooter"}, {"bike_id": "9d9ef2bff85973051284acd924b519a3", "is_reserved": 0, "name": "9d9ef2bff85973051284acd924b519a3", "lat": 38.8978205, "fusion_lat": 0.0, "lon": -77.02708833333334, "is_disabled": 0, "fusion_lon": 0.0, "rental_uris": {"android": "https://dc.lft.to/lastmile_qr_scan", "ios": "https://dc.lft.to/lastmile_qr_scan"}, "type": "electric_scooter"}, {"bike_id": "21d7a51083e296881a9ab567c45191f9", "is_reserved": 0, "name": "21d7a51083e296881a9ab567c45191f9", "lat": 38.893555666666664, "fusion_lat": 0.0, "lon": -76.98653366666667, "is_disabled": 0, "fusion_lon": 0.0, "rental_uris": {"android": "https://dc.lft.to/lastmile_qr_scan", "ios": "https://dc.lft.to/lastmile_qr_scan"}, "type": "electric_scooter"}, {"bike_id": "0ab632a268367bbe2fd1dc5a57d16736", "is_reserved": 0, "name": "0ab632a268367bbe2fd1dc5a57d16736", "lat": 38.90155266666667, "fusion_lat": 0.0, "lon": -77.026042, "is_disabled": 0, "fusion_lon": 0.0, "rental_uris": {"android": "https://dc.lft.to/lastmile_qr_scan", "ios": "https://dc.lft.to/lastmile_qr_scan"}, "type": "electric_scooter"}, {"bike_id": "8ec7263d0658466c4593aaca0c0a85cf", "is_reserved": 0, "name": "8ec7263d0658466c4593aaca0c0a85cf", "lat": 38.920060166666666, "fusion_lat": 0.0, "lon": -77.03180433333333, "is_disabled": 0, "fusion_lon": 0.0, "rental_uris": {"android": "https://dc.lft.to/lastmile_qr_scan", "ios": "https://dc.lft.to/lastmile_qr_scan"}, "type": "electric_scooter"}, {"bike_id": "c8011dcfb1f23629ce025d6381b5f15e", "is_reserved": 0, "name": "c8011dcfb1f23629ce025d6381b5f15e", "lat": 38.954206, "fusion_lat": 0.0, "lon": -77.02765466666666, "is_disabled": 0, "fusion_lon": 0.0, "rental_uris": {"android": "https://dc.lft.to/lastmile_qr_scan", "ios": "https://dc.lft.to/lastmile_qr_scan"}, "type": "electric_scooter"}, {"bike_id": "9c088b920a799bbdf8fb74629751b41e", "is_reserved": 0, "name": "9c088b920a799bbdf8fb74629751b41e", "lat": 38.918542333333335, "fusion_lat": 0.0, "lon": -77.02302466666667, "is_disabled": 0, "fusion_lon": 0.0, "rental_uris": {"android": "https://dc.lft.to/lastmile_qr_scan", "ios": "https://dc.lft.to/lastmile_qr_scan"}, "type": "electric_scooter"}, {"bike_id": "2587b462627346f0a91b7ae7f8464bae", "is_reserved": 0, "name": "2587b462627346f0a91b7ae7f8464bae", "lat": 38.926141666666666, "fusion_lat": 0.0, "lon": -77.02159033333334, "is_disabled": 0, "fusion_lon": 0.0, "rental_uris": {"android": "https://dc.lft.to/lastmile_qr_scan", "ios": "https://dc.lft.to/lastmile_qr_scan"}, "type": "electric_scooter"}, {"bike_id": "cc76342b44c8f2f1cdc6069351678e91", "is_reserved": 0, "name": "cc76342b44c8f2f1cdc6069351678e91", "lat": 38.90003816666667, "fusion_lat": 0.0, "lon": -76.998328, "is_disabled": 0, "fusion_lon": 0.0, "rental_uris": {"android": "https://dc.lft.to/lastmile_qr_scan", "ios": "https://dc.lft.to/lastmile_qr_scan"}, "type": "electric_scooter"}, {"bike_id": "7e3a7a8f1fcfadcf680e5e1e2057343e", "is_reserved": 0, "name": "7e3a7a8f1fcfadcf680e5e1e2057343e", "lat": 38.919580833333335, "fusion_lat": 0.0, "lon": -76.99206516666666, "is_disabled": 0, "fusion_lon": 0.0, "rental_uris": {"android": "https://dc.lft.to/lastmile_qr_scan", "ios": "https://dc.lft.to/lastmile_qr_scan"}, "type": "electric_bike"}, {"bike_id": "244896e6d3bcaba61e7e6cf46b2a71fe", "is_reserved": 0, "name": "244896e6d3bcaba61e7e6cf46b2a71fe", "lat": 38.916895, "fusion_lat": 0.0, "lon": -77.02950116666666, "is_disabled": 0, "fusion_lon": 0.0, "rental_uris": {"android": "https://dc.lft.to/lastmile_qr_scan", "ios": "https://dc.lft.to/lastmile_qr_scan"}, "type": "electric_scooter"}, {"bike_id": "af13ed91bf5fd0e5ee103a1599dbe60a", "is_reserved": 0, "name": "af13ed91bf5fd0e5ee103a1599dbe60a", "lat": 38.916327333333335, "fusion_lat": 0.0, "lon": -77.05069366666666, "is_disabled": 0, "fusion_lon": 0.0, "rental_uris": {"android": "https://dc.lft.to/lastmile_qr_scan", "ios": "https://dc.lft.to/lastmile_qr_scan"}, "type": "electric_scooter"}, {"bike_id": "8160882044cdf267399592d3be834632", "is_reserved": 0, "name": "8160882044cdf267399592d3be834632", "lat": 38.923217666666666, "fusion_lat": 0.0, "lon": -77.0402775, "is_disabled": 0, "fusion_lon": 0.0, "rental_uris": {"android": "https://dc.lft.to/lastmile_qr_scan", "ios": "https://dc.lft.to/lastmile_qr_scan"}, "type": "electric_scooter"}, {"bike_id": "9b987d3af8b08b13cec2b2499e7cdd45", "is_reserved": 0, "name": "9b987d3af8b08b13cec2b2499e7cdd45", "lat": 38.8936115, "fusion_lat": 0.0, "lon": -77.0032905, "is_disabled": 0, "fusion_lon": 0.0, "rental_uris": {"android": "https://dc.lft.to/lastmile_qr_scan", "ios": "https://dc.lft.to/lastmile_qr_scan"}, "type": "electric_scooter"}, {"bike_id": "8d125c7c1fb81ce6fec56d3d0939f2ac", "is_reserved": 0, "name": "8d125c7c1fb81ce6fec56d3d0939f2ac", "lat": 38.91216983333333, "fusion_lat": 0.0, "lon": -77.02959516666667, "is_disabled": 0, "fusion_lon": 0.0, "rental_uris": {"android": "https://dc.lft.to/lastmile_qr_scan", "ios": "https://dc.lft.to/lastmile_qr_scan"}, "type": "electric_scooter"}, {"bike_id": "384f411f6af5401de763a14d1c040708", "is_reserved": 0, "name": "384f411f6af5401de763a14d1c040708", "lat": 38.91461016666667, "fusion_lat": 0.0, "lon": -77.0021025, "is_disabled": 0, "fusion_lon": 0.0, "rental_uris": {"android": "https://dc.lft.to/lastmile_qr_scan", "ios": "https://dc.lft.to/lastmile_qr_scan"}, "type": "electric_scooter"}, {"bike_id": "750bba8b54aa412e3659c9862bacc4e7", "is_reserved": 0, "name": "750bba8b54aa412e3659c9862bacc4e7", "lat": 38.887449, "fusion_lat": 0.0, "lon": -77.025694, "is_disabled": 0, "fusion_lon": 0.0, "rental_uris": {"android": "https://dc.lft.to/lastmile_qr_scan", "ios": "https://dc.lft.to/lastmile_qr_scan"}, "type": "electric_scooter"}, {"bike_id": "806ead7fa6e80ee746aa2a0c6028a545", "is_reserved": 0, "name": "806ead7fa6e80ee746aa2a0c6028a545", "lat": 38.9347955, "fusion_lat": 0.0, "lon": -77.07272133333333, "is_disabled": 0, "fusion_lon": 0.0, "rental_uris": {"android": "https://dc.lft.to/lastmile_qr_scan", "ios": "https://dc.lft.to/lastmile_qr_scan"}, "type": "electric_scooter"}, {"bike_id": "a017e91613650b0f90191456efd72b8c", "is_reserved": 0, "name": "a017e91613650b0f90191456efd72b8c", "lat": 38.89873983333333, "fusion_lat": 0.0, "lon": -76.9317905, "is_disabled": 0, "fusion_lon": 0.0, "rental_uris": {"android": "https://dc.lft.to/lastmile_qr_scan", "ios": "https://dc.lft.to/lastmile_qr_scan"}, "type": "electric_scooter"}, {"bike_id": "db15846df5d5e9ead77e391b5c52dd52", "is_reserved": 0, "name": "db15846df5d5e9ead77e391b5c52dd52", "lat": 38.920205, "fusion_lat": 0.0, "lon": -77.01310716666667, "is_disabled": 0, "fusion_lon": 0.0, "rental_uris": {"android": "https://dc.lft.to/lastmile_qr_scan", "ios": "https://dc.lft.to/lastmile_qr_scan"}, "type": "electric_scooter"}, {"bike_id": "f80ce7921f1d083fc83744419f9a0e77", "is_reserved": 0, "name": "f80ce7921f1d083fc83744419f9a0e77", "lat": 38.905677833333336, "fusion_lat": 0.0, "lon": -77.00528383333334, "is_disabled": 0, "fusion_lon": 0.0, "rental_uris": {"android": "https://dc.lft.to/lastmile_qr_scan", "ios": "https://dc.lft.to/lastmile_qr_scan"}, "type": "electric_scooter"}, {"bike_id": "eb27dd196d4a5b131102297199262664", "is_reserved": 0, "name": "eb27dd196d4a5b131102297199262664", "lat": 38.907193166666666, "fusion_lat": 0.0, "lon": -77.0288725, "is_disabled": 0, "fusion_lon": 0.0, "rental_uris": {"android": "https://dc.lft.to/lastmile_qr_scan", "ios": "https://dc.lft.to/lastmile_qr_scan"}, "type": "electric_scooter"}, {"bike_id": "a7d5db5435e232ac2ba43bbd2316cf11", "is_reserved": 0, "name": "a7d5db5435e232ac2ba43bbd2316cf11", "lat": 38.90303316666667, "fusion_lat": 0.0, "lon": -77.05813683333334, "is_disabled": 0, "fusion_lon": 0.0, "rental_uris": {"android": "https://dc.lft.to/lastmile_qr_scan", "ios": "https://dc.lft.to/lastmile_qr_scan"}, "type": "electric_scooter"}, {"bike_id": "5d3ec1968eae972c157263ac71c42f33", "is_reserved": 0, "name": "5d3ec1968eae972c157263ac71c42f33", "lat": 38.91409183333333, "fusion_lat": 0.0, "lon": -77.041858, "is_disabled": 0, "fusion_lon": 0.0, "rental_uris": {"android": "https://dc.lft.to/lastmile_qr_scan", "ios": "https://dc.lft.to/lastmile_qr_scan"}, "type": "electric_scooter"}, {"bike_id": "4c7ac8b7679782a99c7bbd0f3890ff50", "is_reserved": 0, "name": "4c7ac8b7679782a99c7bbd0f3890ff50", "lat": 38.892472, "fusion_lat": 0.0, "lon": -77.0395655, "is_disabled": 0, "fusion_lon": 0.0, "rental_uris": {"android": "https://dc.lft.to/lastmile_qr_scan", "ios": "https://dc.lft.to/lastmile_qr_scan"}, "type": "electric_scooter"}, {"bike_id": "97fc34da3fd17d2bc1fac8df2d17fe16", "is_reserved": 0, "name": "97fc34da3fd17d2bc1fac8df2d17fe16", "lat": 38.9483285, "fusion_lat": 0.0, "lon": -77.0999675, "is_disabled": 0, "fusion_lon": 0.0, "rental_uris": {"android": "https://dc.lft.to/lastmile_qr_scan", "ios": "https://dc.lft.to/lastmile_qr_scan"}, "type": "electric_scooter"}, {"bike_id": "23364988cfa204d9ef95bac4fb8982dc", "is_reserved": 0, "name": "23364988cfa204d9ef95bac4fb8982dc", "lat": 38.8836775, "fusion_lat": 0.0, "lon": -76.99516633333333, "is_disabled": 0, "fusion_lon": 0.0, "rental_uris": {"android": "https://dc.lft.to/lastmile_qr_scan", "ios": "https://dc.lft.to/lastmile_qr_scan"}, "type": "electric_scooter"}, {"bike_id": "586db015327c4ed4fdfad1adaea28984", "is_reserved": 0, "name": "586db015327c4ed4fdfad1adaea28984", "lat": 38.863311, "fusion_lat": 0.0, "lon": -76.98723566666666, "is_disabled": 0, "fusion_lon": 0.0, "rental_uris": {"android": "https://dc.lft.to/lastmile_qr_scan", "ios": "https://dc.lft.to/lastmile_qr_scan"}, "type": "electric_bike"}, {"bike_id": "f7b3e2520c346c0b67cd71f940f1a136", "is_reserved": 0, "name": "f7b3e2520c346c0b67cd71f940f1a136", "lat": 38.919595666666666, "fusion_lat": 0.0, "lon": -77.04168016666667, "is_disabled": 0, "fusion_lon": 0.0, "rental_uris": {"android": "https://dc.lft.to/lastmile_qr_scan", "ios": "https://dc.lft.to/lastmile_qr_scan"}, "type": "electric_scooter"}, {"bike_id": "3ae086087b03444238474c301c64b06c", "is_reserved": 0, "name": "3ae086087b03444238474c301c64b06c", "lat": 38.8721365, "fusion_lat": 0.0, "lon": -77.01668716666667, "is_disabled": 0, "fusion_lon": 0.0, "rental_uris": {"android": "https://dc.lft.to/lastmile_qr_scan", "ios": "https://dc.lft.to/lastmile_qr_scan"}, "type": "electric_scooter"}, {"bike_id": "bae62b4cc8a320dce394ea3016984219", "is_reserved": 0, "name": "bae62b4cc8a320dce394ea3016984219", "lat": 38.8866715, "fusion_lat": 0.0, "lon": -77.01980766666667, "is_disabled": 0, "fusion_lon": 0.0, "rental_uris": {"android": "https://dc.lft.to/lastmile_qr_scan", "ios": "https://dc.lft.to/lastmile_qr_scan"}, "type": "electric_scooter"}, {"bike_id": "9ff5bfad113d46378fd1356fb87ae08a", "is_reserved": 0, "name": "9ff5bfad113d46378fd1356fb87ae08a", "lat": 38.9053385, "fusion_lat": 0.0, "lon": -77.05636633333333, "is_disabled": 0, "fusion_lon": 0.0, "rental_uris": {"android": "https://dc.lft.to/lastmile_qr_scan", "ios": "https://dc.lft.to/lastmile_qr_scan"}, "type": "electric_scooter"}, {"bike_id": "4290451c9b566ad8ee743e84dc84cd54", "is_reserved": 0, "name": "4290451c9b566ad8ee743e84dc84cd54", "lat": 38.90497666666667, "fusion_lat": 0.0, "lon": -77.029513, "is_disabled": 0, "fusion_lon": 0.0, "rental_uris": {"android": "https://dc.lft.to/lastmile_qr_scan", "ios": "https://dc.lft.to/lastmile_qr_scan"}, "type": "electric_scooter"}, {"bike_id": "bee954f5c39fd00bbc85142b2ddf3f1b", "is_reserved": 0, "name": "bee954f5c39fd00bbc85142b2ddf3f1b", "lat": 38.90847383333333, "fusion_lat": 0.0, "lon": -77.06341383333333, "is_disabled": 0, "fusion_lon": 0.0, "rental_uris": {"android": "https://dc.lft.to/lastmile_qr_scan", "ios": "https://dc.lft.to/lastmile_qr_scan"}, "type": "electric_scooter"}, {"bike_id": "087640258085aaa7e48000bda22ab1f5", "is_reserved": 0, "name": "087640258085aaa7e48000bda22ab1f5", "lat": 38.92194516666667, "fusion_lat": 0.0, "lon": -77.04188233333333, "is_disabled": 0, "fusion_lon": 0.0, "rental_uris": {"android": "https://dc.lft.to/lastmile_qr_scan", "ios": "https://dc.lft.to/lastmile_qr_scan"}, "type": "electric_scooter"}, {"bike_id": "827c8c617e931b76a49ed68f42516462", "is_reserved": 0, "name": "827c8c617e931b76a49ed68f42516462", "lat": 38.881388333333334, "fusion_lat": 0.0, "lon": -76.9983815, "is_disabled": 0, "fusion_lon": 0.0, "rental_uris": {"android": "https://dc.lft.to/lastmile_qr_scan", "ios": "https://dc.lft.to/lastmile_qr_scan"}, "type": "electric_bike"}, {"bike_id": "5ffe71c283eeb009a0bc2795ddebd9fa", "is_reserved": 0, "name": "5ffe71c283eeb009a0bc2795ddebd9fa", "lat": 38.79984666666667, "fusion_lat": 0.0, "lon": -77.12976166666667, "is_disabled": 0, "fusion_lon": 0.0, "rental_uris": {"android": "https://dc.lft.to/lastmile_qr_scan", "ios": "https://dc.lft.to/lastmile_qr_scan"}, "type": "electric_bike"}, {"bike_id": "60440001b9fe9cf38ebfcdd4ba188c87", "is_reserved": 0, "name": "60440001b9fe9cf38ebfcdd4ba188c87", "lat": 38.91732733333333, "fusion_lat": 0.0, "lon": -77.04172283333334, "is_disabled": 0, "fusion_lon": 0.0, "rental_uris": {"android": "https://dc.lft.to/lastmile_qr_scan", "ios": "https://dc.lft.to/lastmile_qr_scan"}, "type": "electric_scooter"}, {"bike_id": "7f7e86cd3c3551d97def57b27c06f2b0", "is_reserved": 0, "name": "7f7e86cd3c3551d97def57b27c06f2b0", "lat": 38.91669, "fusion_lat": 0.0, "lon": -77.041933, "is_disabled": 0, "fusion_lon": 0.0, "rental_uris": {"android": "https://dc.lft.to/lastmile_qr_scan", "ios": "https://dc.lft.to/lastmile_qr_scan"}, "type": "electric_scooter"}, {"bike_id": "e8bc445b8661adc6448cf973a9f6ec2f", "is_reserved": 0, "name": "e8bc445b8661adc6448cf973a9f6ec2f", "lat": 38.91865816666667, "fusion_lat": 0.0, "lon": -77.041646, "is_disabled": 0, "fusion_lon": 0.0, "rental_uris": {"android": "https://dc.lft.to/lastmile_qr_scan", "ios": "https://dc.lft.to/lastmile_qr_scan"}, "type": "electric_scooter"}, {"bike_id": "27e38024df32922bd30e7dd4e0c566d7", "is_reserved": 0, "name": "27e38024df32922bd30e7dd4e0c566d7", "lat": 38.9548335, "fusion_lat": 0.0, "lon": -77.02665816666666, "is_disabled": 0, "fusion_lon": 0.0, "rental_uris": {"android": "https://dc.lft.to/lastmile_qr_scan", "ios": "https://dc.lft.to/lastmile_qr_scan"}, "type": "electric_bike"}, {"bike_id": "0128f6454a694649d17acdeab87479d8", "is_reserved": 0, "name": "0128f6454a694649d17acdeab87479d8", "lat": 38.932591333333335, "fusion_lat": 0.0, "lon": -76.98899833333333, "is_disabled": 0, "fusion_lon": 0.0, "rental_uris": {"android": "https://dc.lft.to/lastmile_qr_scan", "ios": "https://dc.lft.to/lastmile_qr_scan"}, "type": "electric_scooter"}, {"bike_id": "0fbb4d58599cbef5bbdb4f9b38e9fc96", "is_reserved": 0, "name": "0fbb4d58599cbef5bbdb4f9b38e9fc96", "lat": 38.9064265, "fusion_lat": 0.0, "lon": -77.041797, "is_disabled": 0, "fusion_lon": 0.0, "rental_uris": {"android": "https://dc.lft.to/lastmile_qr_scan", "ios": "https://dc.lft.to/lastmile_qr_scan"}, "type": "electric_scooter"}, {"bike_id": "c1ab9262d0077f8682282475f0db4695", "is_reserved": 0, "name": "c1ab9262d0077f8682282475f0db4695", "lat": 38.9246865, "fusion_lat": 0.0, "lon": -77.02145766666666, "is_disabled": 0, "fusion_lon": 0.0, "rental_uris": {"android": "https://dc.lft.to/lastmile_qr_scan", "ios": "https://dc.lft.to/lastmile_qr_scan"}, "type": "electric_scooter"}, {"bike_id": "19d081aa59f2e43fa778428a930d14d7", "is_reserved": 0, "name": "19d081aa59f2e43fa778428a930d14d7", "lat": 38.89977116666667, "fusion_lat": 0.0, "lon": -77.01613683333333, "is_disabled": 0, "fusion_lon": 0.0, "rental_uris": {"android": "https://dc.lft.to/lastmile_qr_scan", "ios": "https://dc.lft.to/lastmile_qr_scan"}, "type": "electric_scooter"}, {"bike_id": "1c1ebf21f9844632342cfac0470e5c16", "is_reserved": 0, "name": "1c1ebf21f9844632342cfac0470e5c16", "lat": 38.92579683333334, "fusion_lat": 0.0, "lon": -77.03642233333333, "is_disabled": 0, "fusion_lon": 0.0, "rental_uris": {"android": "https://dc.lft.to/lastmile_qr_scan", "ios": "https://dc.lft.to/lastmile_qr_scan"}, "type": "electric_scooter"}, {"bike_id": "46a551d26f9de675950c4c26e93558b3", "is_reserved": 0, "name": "46a551d26f9de675950c4c26e93558b3", "lat": 38.8449215, "fusion_lat": 0.0, "lon": -76.98179533333334, "is_disabled": 0, "fusion_lon": 0.0, "rental_uris": {"android": "https://dc.lft.to/lastmile_qr_scan", "ios": "https://dc.lft.to/lastmile_qr_scan"}, "type": "electric_bike"}, {"bike_id": "3cc31a3276d4f1e8dec3443b99c58d21", "is_reserved": 0, "name": "3cc31a3276d4f1e8dec3443b99c58d21", "lat": 38.9141165, "fusion_lat": 0.0, "lon": -77.01076316666666, "is_disabled": 0, "fusion_lon": 0.0, "rental_uris": {"android": "https://dc.lft.to/lastmile_qr_scan", "ios": "https://dc.lft.to/lastmile_qr_scan"}, "type": "electric_scooter"}, {"bike_id": "b0e9dd184faf8506e2d88573b1c2c5e0", "is_reserved": 0, "name": "b0e9dd184faf8506e2d88573b1c2c5e0", "lat": 38.8874495, "fusion_lat": 0.0, "lon": -77.01401216666666, "is_disabled": 0, "fusion_lon": 0.0, "rental_uris": {"android": "https://dc.lft.to/lastmile_qr_scan", "ios": "https://dc.lft.to/lastmile_qr_scan"}, "type": "electric_scooter"}, {"bike_id": "89b183f1146b0aa751b3407d371fc996", "is_reserved": 0, "name": "89b183f1146b0aa751b3407d371fc996", "lat": 38.921532, "fusion_lat": 0.0, "lon": -77.03352383333333, "is_disabled": 0, "fusion_lon": 0.0, "rental_uris": {"android": "https://dc.lft.to/lastmile_qr_scan", "ios": "https://dc.lft.to/lastmile_qr_scan"}, "type": "electric_scooter"}, {"bike_id": "0b5a18d225396c8cc7707c9c40230783", "is_reserved": 0, "name": "0b5a18d225396c8cc7707c9c40230783", "lat": 38.90967233333333, "fusion_lat": 0.0, "lon": -77.039461, "is_disabled": 0, "fusion_lon": 0.0, "rental_uris": {"android": "https://dc.lft.to/lastmile_qr_scan", "ios": "https://dc.lft.to/lastmile_qr_scan"}, "type": "electric_scooter"}, {"bike_id": "444c27db97e98e2f26d89acd35b1a576", "is_reserved": 0, "name": "444c27db97e98e2f26d89acd35b1a576", "lat": 38.91265, "fusion_lat": 0.0, "lon": -77.01682483333333, "is_disabled": 0, "fusion_lon": 0.0, "rental_uris": {"android": "https://dc.lft.to/lastmile_qr_scan", "ios": "https://dc.lft.to/lastmile_qr_scan"}, "type": "electric_scooter"}, {"bike_id": "0b453fd22824be7ec03d3e86f54e700c", "is_reserved": 0, "name": "0b453fd22824be7ec03d3e86f54e700c", "lat": 38.91998933333333, "fusion_lat": 0.0, "lon": -77.0328325, "is_disabled": 0, "fusion_lon": 0.0, "rental_uris": {"android": "https://dc.lft.to/lastmile_qr_scan", "ios": "https://dc.lft.to/lastmile_qr_scan"}, "type": "electric_scooter"}, {"bike_id": "e6ce3c82a3ada39102c93792433a97d8", "is_reserved": 0, "name": "e6ce3c82a3ada39102c93792433a97d8", "lat": 38.917672833333334, "fusion_lat": 0.0, "lon": -77.0150235, "is_disabled": 0, "fusion_lon": 0.0, "rental_uris": {"android": "https://dc.lft.to/lastmile_qr_scan", "ios": "https://dc.lft.to/lastmile_qr_scan"}, "type": "electric_scooter"}, {"bike_id": "b13da83a2997819bc7f9b92325dc8414", "is_reserved": 0, "name": "b13da83a2997819bc7f9b92325dc8414", "lat": 38.813334833333336, "fusion_lat": 0.0, "lon": -77.0508195, "is_disabled": 0, "fusion_lon": 0.0, "rental_uris": {"android": "https://dc.lft.to/lastmile_qr_scan", "ios": "https://dc.lft.to/lastmile_qr_scan"}, "type": "electric_bike"}, {"bike_id": "2f8161b6d17cf235dde7d20b181138bc", "is_reserved": 0, "name": "2f8161b6d17cf235dde7d20b181138bc", "lat": 38.89842816666667, "fusion_lat": 0.0, "lon": -77.02761583333333, "is_disabled": 0, "fusion_lon": 0.0, "rental_uris": {"android": "https://dc.lft.to/lastmile_qr_scan", "ios": "https://dc.lft.to/lastmile_qr_scan"}, "type": "electric_scooter"}, {"bike_id": "ec3c0f2cda11a5c810d68fd98ef3833d", "is_reserved": 0, "name": "ec3c0f2cda11a5c810d68fd98ef3833d", "lat": 38.887471833333336, "fusion_lat": 0.0, "lon": -77.017776, "is_disabled": 0, "fusion_lon": 0.0, "rental_uris": {"android": "https://dc.lft.to/lastmile_qr_scan", "ios": "https://dc.lft.to/lastmile_qr_scan"}, "type": "electric_scooter"}, {"bike_id": "48baf41a4ef60679f0eacfb951e2beb1", "is_reserved": 0, "name": "48baf41a4ef60679f0eacfb951e2beb1", "lat": 38.8899935, "fusion_lat": 0.0, "lon": -76.95435116666667, "is_disabled": 0, "fusion_lon": 0.0, "rental_uris": {"android": "https://dc.lft.to/lastmile_qr_scan", "ios": "https://dc.lft.to/lastmile_qr_scan"}, "type": "electric_scooter"}, {"bike_id": "55ba0077d904d3319a4fcc2be1c3b617", "is_reserved": 0, "name": "55ba0077d904d3319a4fcc2be1c3b617", "lat": 38.9031895, "fusion_lat": 0.0, "lon": -77.02450383333333, "is_disabled": 0, "fusion_lon": 0.0, "rental_uris": {"android": "https://dc.lft.to/lastmile_qr_scan", "ios": "https://dc.lft.to/lastmile_qr_scan"}, "type": "electric_scooter"}, {"bike_id": "2be01e16b3d4aab674b70415b990f29e", "is_reserved": 0, "name": "2be01e16b3d4aab674b70415b990f29e", "lat": 38.8351425, "fusion_lat": 0.0, "lon": -76.986758, "is_disabled": 0, "fusion_lon": 0.0, "rental_uris": {"android": "https://dc.lft.to/lastmile_qr_scan", "ios": "https://dc.lft.to/lastmile_qr_scan"}, "type": "electric_bike"}, {"bike_id": "2b025989f4c2fc4f2bc83a9461dd128f", "is_reserved": 0, "name": "2b025989f4c2fc4f2bc83a9461dd128f", "lat": 38.8922145, "fusion_lat": 0.0, "lon": -77.04323266666667, "is_disabled": 0, "fusion_lon": 0.0, "rental_uris": {"android": "https://dc.lft.to/lastmile_qr_scan", "ios": "https://dc.lft.to/lastmile_qr_scan"}, "type": "electric_scooter"}, {"bike_id": "a9fa963aa739198f8fdd43f257dbd565", "is_reserved": 0, "name": "a9fa963aa739198f8fdd43f257dbd565", "lat": 38.890106333333335, "fusion_lat": 0.0, "lon": -76.9369645, "is_disabled": 0, "fusion_lon": 0.0, "rental_uris": {"android": "https://dc.lft.to/lastmile_qr_scan", "ios": "https://dc.lft.to/lastmile_qr_scan"}, "type": "electric_scooter"}, {"bike_id": "725e37476360116676787b47bccd03ad", "is_reserved": 0, "name": "725e37476360116676787b47bccd03ad", "lat": 38.9017245, "fusion_lat": 0.0, "lon": -77.02006283333333, "is_disabled": 0, "fusion_lon": 0.0, "rental_uris": {"android": "https://dc.lft.to/lastmile_qr_scan", "ios": "https://dc.lft.to/lastmile_qr_scan"}, "type": "electric_scooter"}, {"bike_id": "cbba152721ea545e14dea5b32c287580", "is_reserved": 0, "name": "cbba152721ea545e14dea5b32c287580", "lat": 38.91407066666667, "fusion_lat": 0.0, "lon": -77.02979383333333, "is_disabled": 0, "fusion_lon": 0.0, "rental_uris": {"android": "https://dc.lft.to/lastmile_qr_scan", "ios": "https://dc.lft.to/lastmile_qr_scan"}, "type": "electric_scooter"}, {"bike_id": "43625e71f315d5ff51cfa1e68e2b64bf", "is_reserved": 0, "name": "43625e71f315d5ff51cfa1e68e2b64bf", "lat": 38.901379666666664, "fusion_lat": 0.0, "lon": -77.0461045, "is_disabled": 0, "fusion_lon": 0.0, "rental_uris": {"android": "https://dc.lft.to/lastmile_qr_scan", "ios": "https://dc.lft.to/lastmile_qr_scan"}, "type": "electric_scooter"}, {"bike_id": "1e561956d349908a64a7522ccf8ea8a0", "is_reserved": 0, "name": "1e561956d349908a64a7522ccf8ea8a0", "lat": 38.894947333333334, "fusion_lat": 0.0, "lon": -77.00357783333334, "is_disabled": 0, "fusion_lon": 0.0, "rental_uris": {"android": "https://dc.lft.to/lastmile_qr_scan", "ios": "https://dc.lft.to/lastmile_qr_scan"}, "type": "electric_scooter"}, {"bike_id": "a2a5d61abb991383fd275b34e4490156", "is_reserved": 0, "name": "a2a5d61abb991383fd275b34e4490156", "lat": 38.9425385, "fusion_lat": 0.0, "lon": -77.03626216666666, "is_disabled": 0, "fusion_lon": 0.0, "rental_uris": {"android": "https://dc.lft.to/lastmile_qr_scan", "ios": "https://dc.lft.to/lastmile_qr_scan"}, "type": "electric_scooter"}, {"bike_id": "439a99b16dc64d17a48904a5e128fcc5", "is_reserved": 0, "name": "439a99b16dc64d17a48904a5e128fcc5", "lat": 38.87380133333333, "fusion_lat": 0.0, "lon": -77.00083, "is_disabled": 0, "fusion_lon": 0.0, "rental_uris": {"android": "https://dc.lft.to/lastmile_qr_scan", "ios": "https://dc.lft.to/lastmile_qr_scan"}, "type": "electric_scooter"}, {"bike_id": "bba1be830999bed4cfab9763f8d6f44f", "is_reserved": 0, "name": "bba1be830999bed4cfab9763f8d6f44f", "lat": 38.86666116666667, "fusion_lat": 0.0, "lon": -76.98901033333334, "is_disabled": 0, "fusion_lon": 0.0, "rental_uris": {"android": "https://dc.lft.to/lastmile_qr_scan", "ios": "https://dc.lft.to/lastmile_qr_scan"}, "type": "electric_scooter"}, {"bike_id": "b79b88f50636d867c9d662803448780c", "is_reserved": 0, "name": "b79b88f50636d867c9d662803448780c", "lat": 38.88768833333334, "fusion_lat": 0.0, "lon": -77.02942433333334, "is_disabled": 0, "fusion_lon": 0.0, "rental_uris": {"android": "https://dc.lft.to/lastmile_qr_scan", "ios": "https://dc.lft.to/lastmile_qr_scan"}, "type": "electric_scooter"}, {"bike_id": "d206e68fb30a92688c60c74fe16a5a26", "is_reserved": 0, "name": "d206e68fb30a92688c60c74fe16a5a26", "lat": 38.900360166666665, "fusion_lat": 0.0, "lon": -76.99844166666666, "is_disabled": 0, "fusion_lon": 0.0, "rental_uris": {"android": "https://dc.lft.to/lastmile_qr_scan", "ios": "https://dc.lft.to/lastmile_qr_scan"}, "type": "electric_scooter"}, {"bike_id": "aff4c134d421501135ce0f431551f57a", "is_reserved": 0, "name": "aff4c134d421501135ce0f431551f57a", "lat": 38.909488333333336, "fusion_lat": 0.0, "lon": -77.031829, "is_disabled": 0, "fusion_lon": 0.0, "rental_uris": {"android": "https://dc.lft.to/lastmile_qr_scan", "ios": "https://dc.lft.to/lastmile_qr_scan"}, "type": "electric_scooter"}, {"bike_id": "c183dbaebf8c78a6a640930dc8edd51c", "is_reserved": 0, "name": "c183dbaebf8c78a6a640930dc8edd51c", "lat": 38.917202, "fusion_lat": 0.0, "lon": -77.02401783333333, "is_disabled": 0, "fusion_lon": 0.0, "rental_uris": {"android": "https://dc.lft.to/lastmile_qr_scan", "ios": "https://dc.lft.to/lastmile_qr_scan"}, "type": "electric_scooter"}, {"bike_id": "1928aca3a74de929313c6b05f9c971f6", "is_reserved": 0, "name": "1928aca3a74de929313c6b05f9c971f6", "lat": 38.9007175, "fusion_lat": 0.0, "lon": -77.0490925, "is_disabled": 0, "fusion_lon": 0.0, "rental_uris": {"android": "https://dc.lft.to/lastmile_qr_scan", "ios": "https://dc.lft.to/lastmile_qr_scan"}, "type": "electric_scooter"}, {"bike_id": "5e438575553fa50f18eee11419a52b4a", "is_reserved": 0, "name": "5e438575553fa50f18eee11419a52b4a", "lat": 38.898764666666665, "fusion_lat": 0.0, "lon": -77.050078, "is_disabled": 0, "fusion_lon": 0.0, "rental_uris": {"android": "https://dc.lft.to/lastmile_qr_scan", "ios": "https://dc.lft.to/lastmile_qr_scan"}, "type": "electric_scooter"}, {"bike_id": "189d43cee80b542c5c0b2ca50a7678c2", "is_reserved": 0, "name": "189d43cee80b542c5c0b2ca50a7678c2", "lat": 38.8924665, "fusion_lat": 0.0, "lon": -77.0487335, "is_disabled": 0, "fusion_lon": 0.0, "rental_uris": {"android": "https://dc.lft.to/lastmile_qr_scan", "ios": "https://dc.lft.to/lastmile_qr_scan"}, "type": "electric_scooter"}, {"bike_id": "b9ee51aea0f7a694599b06e2bad42102", "is_reserved": 0, "name": "b9ee51aea0f7a694599b06e2bad42102", "lat": 38.907656833333334, "fusion_lat": 0.0, "lon": -77.03585633333333, "is_disabled": 0, "fusion_lon": 0.0, "rental_uris": {"android": "https://dc.lft.to/lastmile_qr_scan", "ios": "https://dc.lft.to/lastmile_qr_scan"}, "type": "electric_scooter"}, {"bike_id": "6e582732a30e7020cc82dde5299265ff", "is_reserved": 0, "name": "6e582732a30e7020cc82dde5299265ff", "lat": 38.92230966666666, "fusion_lat": 0.0, "lon": -76.975338, "is_disabled": 0, "fusion_lon": 0.0, "rental_uris": {"android": "https://dc.lft.to/lastmile_qr_scan", "ios": "https://dc.lft.to/lastmile_qr_scan"}, "type": "electric_scooter"}, {"bike_id": "159134c86b8153b9ce20694b44272cb0", "is_reserved": 0, "name": "159134c86b8153b9ce20694b44272cb0", "lat": 38.9084355, "fusion_lat": 0.0, "lon": -77.0435465, "is_disabled": 0, "fusion_lon": 0.0, "rental_uris": {"android": "https://dc.lft.to/lastmile_qr_scan", "ios": "https://dc.lft.to/lastmile_qr_scan"}, "type": "electric_scooter"}, {"bike_id": "20982009d4e783cadae1d033e115b227", "is_reserved": 0, "name": "20982009d4e783cadae1d033e115b227", "lat": 38.901469, "fusion_lat": 0.0, "lon": -76.974212, "is_disabled": 0, "fusion_lon": 0.0, "rental_uris": {"android": "https://dc.lft.to/lastmile_qr_scan", "ios": "https://dc.lft.to/lastmile_qr_scan"}, "type": "electric_scooter"}, {"bike_id": "655f282fe0aea5143fb3ea025267575b", "is_reserved": 0, "name": "655f282fe0aea5143fb3ea025267575b", "lat": 38.91694666666667, "fusion_lat": 0.0, "lon": -77.031113, "is_disabled": 0, "fusion_lon": 0.0, "rental_uris": {"android": "https://dc.lft.to/lastmile_qr_scan", "ios": "https://dc.lft.to/lastmile_qr_scan"}, "type": "electric_scooter"}, {"bike_id": "02b6962eecd6e906080d1a92add3c2ca", "is_reserved": 0, "name": "02b6962eecd6e906080d1a92add3c2ca", "lat": 38.88745516666667, "fusion_lat": 0.0, "lon": -77.01771833333333, "is_disabled": 0, "fusion_lon": 0.0, "rental_uris": {"android": "https://dc.lft.to/lastmile_qr_scan", "ios": "https://dc.lft.to/lastmile_qr_scan"}, "type": "electric_scooter"}, {"bike_id": "acba05e9ab8a5cbf14d75d0034bf1f4c", "is_reserved": 0, "name": "acba05e9ab8a5cbf14d75d0034bf1f4c", "lat": 38.88760933333333, "fusion_lat": 0.0, "lon": -76.9829285, "is_disabled": 0, "fusion_lon": 0.0, "rental_uris": {"android": "https://dc.lft.to/lastmile_qr_scan", "ios": "https://dc.lft.to/lastmile_qr_scan"}, "type": "electric_scooter"}, {"bike_id": "4360d5497123f421345118cb79f39dfa", "is_reserved": 0, "name": "4360d5497123f421345118cb79f39dfa", "lat": 38.915958, "fusion_lat": 0.0, "lon": -77.01475616666667, "is_disabled": 0, "fusion_lon": 0.0, "rental_uris": {"android": "https://dc.lft.to/lastmile_qr_scan", "ios": "https://dc.lft.to/lastmile_qr_scan"}, "type": "electric_scooter"}, {"bike_id": "17b4b496c597662317d1d55376380c3a", "is_reserved": 0, "name": "17b4b496c597662317d1d55376380c3a", "lat": 38.9170765, "fusion_lat": 0.0, "lon": -77.0334535, "is_disabled": 0, "fusion_lon": 0.0, "rental_uris": {"android": "https://dc.lft.to/lastmile_qr_scan", "ios": "https://dc.lft.to/lastmile_qr_scan"}, "type": "electric_scooter"}, {"bike_id": "548ff7a6780b97221f713da340ce2ec7", "is_reserved": 0, "name": "548ff7a6780b97221f713da340ce2ec7", "lat": 38.91601883333333, "fusion_lat": 0.0, "lon": -77.0450665, "is_disabled": 0, "fusion_lon": 0.0, "rental_uris": {"android": "https://dc.lft.to/lastmile_qr_scan", "ios": "https://dc.lft.to/lastmile_qr_scan"}, "type": "electric_scooter"}, {"bike_id": "60ce0e9aa41c790e5abeeac75e02cfea", "is_reserved": 0, "name": "60ce0e9aa41c790e5abeeac75e02cfea", "lat": 38.9449275, "fusion_lat": 0.0, "lon": -77.03630783333334, "is_disabled": 0, "fusion_lon": 0.0, "rental_uris": {"android": "https://dc.lft.to/lastmile_qr_scan", "ios": "https://dc.lft.to/lastmile_qr_scan"}, "type": "electric_scooter"}, {"bike_id": "d494516a23f23b8499ba3a2c318b0e81", "is_reserved": 0, "name": "d494516a23f23b8499ba3a2c318b0e81", "lat": 38.88747933333333, "fusion_lat": 0.0, "lon": -77.03072283333333, "is_disabled": 0, "fusion_lon": 0.0, "rental_uris": {"android": "https://dc.lft.to/lastmile_qr_scan", "ios": "https://dc.lft.to/lastmile_qr_scan"}, "type": "electric_scooter"}, {"bike_id": "54d3cf45adabbd1e7719a9116ce266f2", "is_reserved": 0, "name": "54d3cf45adabbd1e7719a9116ce266f2", "lat": 38.89908333333333, "fusion_lat": 0.0, "lon": -76.99157583333333, "is_disabled": 0, "fusion_lon": 0.0, "rental_uris": {"android": "https://dc.lft.to/lastmile_qr_scan", "ios": "https://dc.lft.to/lastmile_qr_scan"}, "type": "electric_scooter"}, {"bike_id": "0adb367a99b65b194e9666712975ffbe", "is_reserved": 0, "name": "0adb367a99b65b194e9666712975ffbe", "lat": 38.92793566666667, "fusion_lat": 0.0, "lon": -77.02450433333334, "is_disabled": 0, "fusion_lon": 0.0, "rental_uris": {"android": "https://dc.lft.to/lastmile_qr_scan", "ios": "https://dc.lft.to/lastmile_qr_scan"}, "type": "electric_scooter"}, {"bike_id": "dac310c4bfe0f36d1bde4afe2d315a4e", "is_reserved": 0, "name": "dac310c4bfe0f36d1bde4afe2d315a4e", "lat": 38.900095666666665, "fusion_lat": 0.0, "lon": -77.01656666666666, "is_disabled": 0, "fusion_lon": 0.0, "rental_uris": {"android": "https://dc.lft.to/lastmile_qr_scan", "ios": "https://dc.lft.to/lastmile_qr_scan"}, "type": "electric_scooter"}, {"bike_id": "68457cb9290c26d9ace86aef967eb649", "is_reserved": 0, "name": "68457cb9290c26d9ace86aef967eb649", "lat": 38.90895716666667, "fusion_lat": 0.0, "lon": -77.03856166666667, "is_disabled": 0, "fusion_lon": 0.0, "rental_uris": {"android": "https://dc.lft.to/lastmile_qr_scan", "ios": "https://dc.lft.to/lastmile_qr_scan"}, "type": "electric_scooter"}, {"bike_id": "189f127c7a51c1c4c383ad86a2c90944", "is_reserved": 0, "name": "189f127c7a51c1c4c383ad86a2c90944", "lat": 38.879683666666665, "fusion_lat": 0.0, "lon": -76.916122, "is_disabled": 0, "fusion_lon": 0.0, "rental_uris": {"android": "https://dc.lft.to/lastmile_qr_scan", "ios": "https://dc.lft.to/lastmile_qr_scan"}, "type": "electric_bike"}, {"bike_id": "024bbd522dd437a0fb5060a547cf89e1", "is_reserved": 0, "name": "024bbd522dd437a0fb5060a547cf89e1", "lat": 38.89992216666667, "fusion_lat": 0.0, "lon": -77.01625316666667, "is_disabled": 0, "fusion_lon": 0.0, "rental_uris": {"android": "https://dc.lft.to/lastmile_qr_scan", "ios": "https://dc.lft.to/lastmile_qr_scan"}, "type": "electric_scooter"}, {"bike_id": "1771f8d2c551ec61107511df463f38f0", "is_reserved": 0, "name": "1771f8d2c551ec61107511df463f38f0", "lat": 38.929125666666664, "fusion_lat": 0.0, "lon": -77.03247983333333, "is_disabled": 0, "fusion_lon": 0.0, "rental_uris": {"android": "https://dc.lft.to/lastmile_qr_scan", "ios": "https://dc.lft.to/lastmile_qr_scan"}, "type": "electric_scooter"}, {"bike_id": "3dc55577099072d67dbc486989675c72", "is_reserved": 0, "name": "3dc55577099072d67dbc486989675c72", "lat": 38.887664666666666, "fusion_lat": 0.0, "lon": -77.01304083333333, "is_disabled": 0, "fusion_lon": 0.0, "rental_uris": {"android": "https://dc.lft.to/lastmile_qr_scan", "ios": "https://dc.lft.to/lastmile_qr_scan"}, "type": "electric_scooter"}, {"bike_id": "7527293d932881bd7d1750b6551527e5", "is_reserved": 0, "name": "7527293d932881bd7d1750b6551527e5", "lat": 38.91109133333333, "fusion_lat": 0.0, "lon": -77.04543966666667, "is_disabled": 0, "fusion_lon": 0.0, "rental_uris": {"android": "https://dc.lft.to/lastmile_qr_scan", "ios": "https://dc.lft.to/lastmile_qr_scan"}, "type": "electric_scooter"}, {"bike_id": "39b36048c36c72d846a56150c2ec06e8", "is_reserved": 0, "name": "39b36048c36c72d846a56150c2ec06e8", "lat": 38.9158995, "fusion_lat": 0.0, "lon": -77.017175, "is_disabled": 0, "fusion_lon": 0.0, "rental_uris": {"android": "https://dc.lft.to/lastmile_qr_scan", "ios": "https://dc.lft.to/lastmile_qr_scan"}, "type": "electric_scooter"}, {"bike_id": "c3afd53b9a3faf3f534288f21c57ff02", "is_reserved": 0, "name": "c3afd53b9a3faf3f534288f21c57ff02", "lat": 38.9085875, "fusion_lat": 0.0, "lon": -77.02716416666667, "is_disabled": 0, "fusion_lon": 0.0, "rental_uris": {"android": "https://dc.lft.to/lastmile_qr_scan", "ios": "https://dc.lft.to/lastmile_qr_scan"}, "type": "electric_scooter"}, {"bike_id": "9fc4923db124a501fea63661d787d012", "is_reserved": 0, "name": "9fc4923db124a501fea63661d787d012", "lat": 38.899554, "fusion_lat": 0.0, "lon": -77.03926583333333, "is_disabled": 0, "fusion_lon": 0.0, "rental_uris": {"android": "https://dc.lft.to/lastmile_qr_scan", "ios": "https://dc.lft.to/lastmile_qr_scan"}, "type": "electric_scooter"}, {"bike_id": "80f52bfa995564247ae77aa6a94a69a2", "is_reserved": 0, "name": "80f52bfa995564247ae77aa6a94a69a2", "lat": 38.9541935, "fusion_lat": 0.0, "lon": -77.02768933333333, "is_disabled": 0, "fusion_lon": 0.0, "rental_uris": {"android": "https://dc.lft.to/lastmile_qr_scan", "ios": "https://dc.lft.to/lastmile_qr_scan"}, "type": "electric_scooter"}, {"bike_id": "9aec7cd3a4c4e16a65bb6222c2560440", "is_reserved": 0, "name": "9aec7cd3a4c4e16a65bb6222c2560440", "lat": 38.87492983333333, "fusion_lat": 0.0, "lon": -77.00016183333334, "is_disabled": 0, "fusion_lon": 0.0, "rental_uris": {"android": "https://dc.lft.to/lastmile_qr_scan", "ios": "https://dc.lft.to/lastmile_qr_scan"}, "type": "electric_scooter"}, {"bike_id": "4745386ea50b1c2768813bd8065663a3", "is_reserved": 0, "name": "4745386ea50b1c2768813bd8065663a3", "lat": 38.8279375, "fusion_lat": 0.0, "lon": -77.12484833333333, "is_disabled": 0, "fusion_lon": 0.0, "rental_uris": {"android": "https://dc.lft.to/lastmile_qr_scan", "ios": "https://dc.lft.to/lastmile_qr_scan"}, "type": "electric_bike"}, {"bike_id": "e7f7cb1348bea9c46d80933fe4e63a18", "is_reserved": 0, "name": "e7f7cb1348bea9c46d80933fe4e63a18", "lat": 38.933058833333334, "fusion_lat": 0.0, "lon": -77.02136816666666, "is_disabled": 0, "fusion_lon": 0.0, "rental_uris": {"android": "https://dc.lft.to/lastmile_qr_scan", "ios": "https://dc.lft.to/lastmile_qr_scan"}, "type": "electric_scooter"}, {"bike_id": "5a45da93834c304dcdf57d2bbd231efd", "is_reserved": 0, "name": "5a45da93834c304dcdf57d2bbd231efd", "lat": 38.900165, "fusion_lat": 0.0, "lon": -77.0006845, "is_disabled": 0, "fusion_lon": 0.0, "rental_uris": {"android": "https://dc.lft.to/lastmile_qr_scan", "ios": "https://dc.lft.to/lastmile_qr_scan"}, "type": "electric_scooter"}, {"bike_id": "ff7131f5d0fd0dc500219f9511966e91", "is_reserved": 0, "name": "ff7131f5d0fd0dc500219f9511966e91", "lat": 38.89962966666667, "fusion_lat": 0.0, "lon": -77.02202833333334, "is_disabled": 0, "fusion_lon": 0.0, "rental_uris": {"android": "https://dc.lft.to/lastmile_qr_scan", "ios": "https://dc.lft.to/lastmile_qr_scan"}, "type": "electric_scooter"}, {"bike_id": "4f3fb816fdce919e36f0a3ed8ab80399", "is_reserved": 0, "name": "4f3fb816fdce919e36f0a3ed8ab80399", "lat": 38.91951816666667, "fusion_lat": 0.0, "lon": -77.07843483333333, "is_disabled": 0, "fusion_lon": 0.0, "rental_uris": {"android": "https://dc.lft.to/lastmile_qr_scan", "ios": "https://dc.lft.to/lastmile_qr_scan"}, "type": "electric_scooter"}, {"bike_id": "601c22b0d2bff24f65c157501444c25b", "is_reserved": 0, "name": "601c22b0d2bff24f65c157501444c25b", "lat": 38.8852415, "fusion_lat": 0.0, "lon": -76.98213483333333, "is_disabled": 0, "fusion_lon": 0.0, "rental_uris": {"android": "https://dc.lft.to/lastmile_qr_scan", "ios": "https://dc.lft.to/lastmile_qr_scan"}, "type": "electric_scooter"}, {"bike_id": "164f7a1890a1cfac90a90fcf6bd6e146", "is_reserved": 0, "name": "164f7a1890a1cfac90a90fcf6bd6e146", "lat": 38.900681166666665, "fusion_lat": 0.0, "lon": -77.041713, "is_disabled": 0, "fusion_lon": 0.0, "rental_uris": {"android": "https://dc.lft.to/lastmile_qr_scan", "ios": "https://dc.lft.to/lastmile_qr_scan"}, "type": "electric_scooter"}, {"bike_id": "c2e3204696a2abe3e42c12ff35603b36", "is_reserved": 0, "name": "c2e3204696a2abe3e42c12ff35603b36", "lat": 38.892198666666665, "fusion_lat": 0.0, "lon": -77.02653983333333, "is_disabled": 0, "fusion_lon": 0.0, "rental_uris": {"android": "https://dc.lft.to/lastmile_qr_scan", "ios": "https://dc.lft.to/lastmile_qr_scan"}, "type": "electric_scooter"}, {"bike_id": "6f2297e4498bf2d7f3fafbfea6ebd368", "is_reserved": 0, "name": "6f2297e4498bf2d7f3fafbfea6ebd368", "lat": 38.91691483333334, "fusion_lat": 0.0, "lon": -77.03765466666667, "is_disabled": 0, "fusion_lon": 0.0, "rental_uris": {"android": "https://dc.lft.to/lastmile_qr_scan", "ios": "https://dc.lft.to/lastmile_qr_scan"}, "type": "electric_scooter"}, {"bike_id": "dbe8446579c2dfe6bd7ade29025c5fd4", "is_reserved": 0, "name": "dbe8446579c2dfe6bd7ade29025c5fd4", "lat": 38.8739665, "fusion_lat": 0.0, "lon": -77.01449616666666, "is_disabled": 0, "fusion_lon": 0.0, "rental_uris": {"android": "https://dc.lft.to/lastmile_qr_scan", "ios": "https://dc.lft.to/lastmile_qr_scan"}, "type": "electric_scooter"}, {"bike_id": "0b2c937926bd02ea73f77d1a37aba2cd", "is_reserved": 0, "name": "0b2c937926bd02ea73f77d1a37aba2cd", "lat": 38.899271166666665, "fusion_lat": 0.0, "lon": -77.01270666666667, "is_disabled": 0, "fusion_lon": 0.0, "rental_uris": {"android": "https://dc.lft.to/lastmile_qr_scan", "ios": "https://dc.lft.to/lastmile_qr_scan"}, "type": "electric_scooter"}, {"bike_id": "38dea161a0b8ee1ad88d32f83c334d77", "is_reserved": 0, "name": "38dea161a0b8ee1ad88d32f83c334d77", "lat": 38.931874666666666, "fusion_lat": 0.0, "lon": -77.0429905, "is_disabled": 0, "fusion_lon": 0.0, "rental_uris": {"android": "https://dc.lft.to/lastmile_qr_scan", "ios": "https://dc.lft.to/lastmile_qr_scan"}, "type": "electric_scooter"}, {"bike_id": "80d217ccd8421c3344ee477581f55e45", "is_reserved": 0, "name": "80d217ccd8421c3344ee477581f55e45", "lat": 38.903495, "fusion_lat": 0.0, "lon": -76.98664133333334, "is_disabled": 0, "fusion_lon": 0.0, "rental_uris": {"android": "https://dc.lft.to/lastmile_qr_scan", "ios": "https://dc.lft.to/lastmile_qr_scan"}, "type": "electric_bike"}, {"bike_id": "de4f28a399d2434c551a46c061858b50", "is_reserved": 0, "name": "de4f28a399d2434c551a46c061858b50", "lat": 38.90016883333333, "fusion_lat": 0.0, "lon": -76.9997305, "is_disabled": 0, "fusion_lon": 0.0, "rental_uris": {"android": "https://dc.lft.to/lastmile_qr_scan", "ios": "https://dc.lft.to/lastmile_qr_scan"}, "type": "electric_scooter"}, {"bike_id": "2a693ea256d27046ab32c623a0d9dbca", "is_reserved": 0, "name": "2a693ea256d27046ab32c623a0d9dbca", "lat": 38.915118, "fusion_lat": 0.0, "lon": -77.015602, "is_disabled": 0, "fusion_lon": 0.0, "rental_uris": {"android": "https://dc.lft.to/lastmile_qr_scan", "ios": "https://dc.lft.to/lastmile_qr_scan"}, "type": "electric_scooter"}, {"bike_id": "0cdd09df0293df7a294883d7f3929c54", "is_reserved": 0, "name": "0cdd09df0293df7a294883d7f3929c54", "lat": 38.925894, "fusion_lat": 0.0, "lon": -77.21005366666667, "is_disabled": 0, "fusion_lon": 0.0, "rental_uris": {"android": "https://dc.lft.to/lastmile_qr_scan", "ios": "https://dc.lft.to/lastmile_qr_scan"}, "type": "electric_bike"}, {"bike_id": "fb75f9c34af9a9357c3195506209db4d", "is_reserved": 0, "name": "fb75f9c34af9a9357c3195506209db4d", "lat": 38.8718635, "fusion_lat": 0.0, "lon": -77.00580866666667, "is_disabled": 0, "fusion_lon": 0.0, "rental_uris": {"android": "https://dc.lft.to/lastmile_qr_scan", "ios": "https://dc.lft.to/lastmile_qr_scan"}, "type": "electric_scooter"}, {"bike_id": "c97fbbeefde2d54ecb879488806460fd", "is_reserved": 0, "name": "c97fbbeefde2d54ecb879488806460fd", "lat": 38.900633666666664, "fusion_lat": 0.0, "lon": -76.9274725, "is_disabled": 0, "fusion_lon": 0.0, "rental_uris": {"android": "https://dc.lft.to/lastmile_qr_scan", "ios": "https://dc.lft.to/lastmile_qr_scan"}, "type": "electric_scooter"}, {"bike_id": "15c82b5b6fa2ee155cf90e99eb37658a", "is_reserved": 0, "name": "15c82b5b6fa2ee155cf90e99eb37658a", "lat": 38.895540833333335, "fusion_lat": 0.0, "lon": -76.94872333333333, "is_disabled": 0, "fusion_lon": 0.0, "rental_uris": {"android": "https://dc.lft.to/lastmile_qr_scan", "ios": "https://dc.lft.to/lastmile_qr_scan"}, "type": "electric_scooter"}, {"bike_id": "1b5da3bce233c06f1b3951bde2ba597c", "is_reserved": 0, "name": "1b5da3bce233c06f1b3951bde2ba597c", "lat": 38.89039116666667, "fusion_lat": 0.0, "lon": -77.02975616666667, "is_disabled": 0, "fusion_lon": 0.0, "rental_uris": {"android": "https://dc.lft.to/lastmile_qr_scan", "ios": "https://dc.lft.to/lastmile_qr_scan"}, "type": "electric_scooter"}, {"bike_id": "930cb28679d000752f702e72191ecf7a", "is_reserved": 0, "name": "930cb28679d000752f702e72191ecf7a", "lat": 38.90169066666667, "fusion_lat": 0.0, "lon": -77.02300633333333, "is_disabled": 0, "fusion_lon": 0.0, "rental_uris": {"android": "https://dc.lft.to/lastmile_qr_scan", "ios": "https://dc.lft.to/lastmile_qr_scan"}, "type": "electric_scooter"}, {"bike_id": "bbf1fa824604d7a3c7128c08ebe222cf", "is_reserved": 0, "name": "bbf1fa824604d7a3c7128c08ebe222cf", "lat": 38.89544466666667, "fusion_lat": 0.0, "lon": -76.949546, "is_disabled": 0, "fusion_lon": 0.0, "rental_uris": {"android": "https://dc.lft.to/lastmile_qr_scan", "ios": "https://dc.lft.to/lastmile_qr_scan"}, "type": "electric_scooter"}, {"bike_id": "3f744b12780bc9727a7334f24784a192", "is_reserved": 0, "name": "3f744b12780bc9727a7334f24784a192", "lat": 38.80763433333333, "fusion_lat": 0.0, "lon": -77.1298015, "is_disabled": 0, "fusion_lon": 0.0, "rental_uris": {"android": "https://dc.lft.to/lastmile_qr_scan", "ios": "https://dc.lft.to/lastmile_qr_scan"}, "type": "electric_bike"}, {"bike_id": "7535313d69705f41fd4a62975b6e84e1", "is_reserved": 0, "name": "7535313d69705f41fd4a62975b6e84e1", "lat": 38.91111183333334, "fusion_lat": 0.0, "lon": -77.04541083333334, "is_disabled": 0, "fusion_lon": 0.0, "rental_uris": {"android": "https://dc.lft.to/lastmile_qr_scan", "ios": "https://dc.lft.to/lastmile_qr_scan"}, "type": "electric_scooter"}, {"bike_id": "ad3892d4f3e04f0c07cd2158ed1c9ee5", "is_reserved": 0, "name": "ad3892d4f3e04f0c07cd2158ed1c9ee5", "lat": 38.909644, "fusion_lat": 0.0, "lon": -77.0241415, "is_disabled": 0, "fusion_lon": 0.0, "rental_uris": {"android": "https://dc.lft.to/lastmile_qr_scan", "ios": "https://dc.lft.to/lastmile_qr_scan"}, "type": "electric_scooter"}, {"bike_id": "3e323dda6b5b9dc50458435a27acb566", "is_reserved": 0, "name": "3e323dda6b5b9dc50458435a27acb566", "lat": 38.9275665, "fusion_lat": 0.0, "lon": -77.02425716666667, "is_disabled": 0, "fusion_lon": 0.0, "rental_uris": {"android": "https://dc.lft.to/lastmile_qr_scan", "ios": "https://dc.lft.to/lastmile_qr_scan"}, "type": "electric_scooter"}, {"bike_id": "9e203e50a206eee3b4070cbd416a20e5", "is_reserved": 0, "name": "9e203e50a206eee3b4070cbd416a20e5", "lat": 38.904124333333336, "fusion_lat": 0.0, "lon": -77.04674766666666, "is_disabled": 0, "fusion_lon": 0.0, "rental_uris": {"android": "https://dc.lft.to/lastmile_qr_scan", "ios": "https://dc.lft.to/lastmile_qr_scan"}, "type": "electric_scooter"}, {"bike_id": "5f14c1f37a858fba48442b150f94ec5a", "is_reserved": 0, "name": "5f14c1f37a858fba48442b150f94ec5a", "lat": 38.95088666666667, "fusion_lat": 0.0, "lon": -76.9979375, "is_disabled": 0, "fusion_lon": 0.0, "rental_uris": {"android": "https://dc.lft.to/lastmile_qr_scan", "ios": "https://dc.lft.to/lastmile_qr_scan"}, "type": "electric_bike"}, {"bike_id": "08c0fa461b8e2017c86e2eefa009598b", "is_reserved": 0, "name": "08c0fa461b8e2017c86e2eefa009598b", "lat": 38.92234833333333, "fusion_lat": 0.0, "lon": -77.0352155, "is_disabled": 0, "fusion_lon": 0.0, "rental_uris": {"android": "https://dc.lft.to/lastmile_qr_scan", "ios": "https://dc.lft.to/lastmile_qr_scan"}, "type": "electric_scooter"}, {"bike_id": "653ef72f37424b058560b20a539b369e", "is_reserved": 0, "name": "653ef72f37424b058560b20a539b369e", "lat": 38.89743966666666, "fusion_lat": 0.0, "lon": -77.02196816666667, "is_disabled": 0, "fusion_lon": 0.0, "rental_uris": {"android": "https://dc.lft.to/lastmile_qr_scan", "ios": "https://dc.lft.to/lastmile_qr_scan"}, "type": "electric_scooter"}, {"bike_id": "0ba2e397ab8a85dfa6163d1a5e75c80d", "is_reserved": 0, "name": "0ba2e397ab8a85dfa6163d1a5e75c80d", "lat": 38.8919695, "fusion_lat": 0.0, "lon": -77.022186, "is_disabled": 0, "fusion_lon": 0.0, "rental_uris": {"android": "https://dc.lft.to/lastmile_qr_scan", "ios": "https://dc.lft.to/lastmile_qr_scan"}, "type": "electric_scooter"}, {"bike_id": "4c8705864ef7577142957578035903d3", "is_reserved": 0, "name": "4c8705864ef7577142957578035903d3", "lat": 38.9369045, "fusion_lat": 0.0, "lon": -76.990571, "is_disabled": 0, "fusion_lon": 0.0, "rental_uris": {"android": "https://dc.lft.to/lastmile_qr_scan", "ios": "https://dc.lft.to/lastmile_qr_scan"}, "type": "electric_bike"}, {"bike_id": "0503b40d36068cedbe2425e5f117de12", "is_reserved": 0, "name": "0503b40d36068cedbe2425e5f117de12", "lat": 38.90565766666667, "fusion_lat": 0.0, "lon": -77.00698, "is_disabled": 0, "fusion_lon": 0.0, "rental_uris": {"android": "https://dc.lft.to/lastmile_qr_scan", "ios": "https://dc.lft.to/lastmile_qr_scan"}, "type": "electric_scooter"}, {"bike_id": "9752020b040b2427e18be0ff918ec33b", "is_reserved": 0, "name": "9752020b040b2427e18be0ff918ec33b", "lat": 38.900279833333336, "fusion_lat": 0.0, "lon": -76.99140683333333, "is_disabled": 0, "fusion_lon": 0.0, "rental_uris": {"android": "https://dc.lft.to/lastmile_qr_scan", "ios": "https://dc.lft.to/lastmile_qr_scan"}, "type": "electric_scooter"}, {"bike_id": "69508dc0e5f9dfce109f7db1250ce32d", "is_reserved": 0, "name": "69508dc0e5f9dfce109f7db1250ce32d", "lat": 38.875340666666666, "fusion_lat": 0.0, "lon": -77.00505933333334, "is_disabled": 0, "fusion_lon": 0.0, "rental_uris": {"android": "https://dc.lft.to/lastmile_qr_scan", "ios": "https://dc.lft.to/lastmile_qr_scan"}, "type": "electric_scooter"}, {"bike_id": "5a94ec966c7a740c2f288e94b81983db", "is_reserved": 0, "name": "5a94ec966c7a740c2f288e94b81983db", "lat": 38.90714233333333, "fusion_lat": 0.0, "lon": -77.025218, "is_disabled": 0, "fusion_lon": 0.0, "rental_uris": {"android": "https://dc.lft.to/lastmile_qr_scan", "ios": "https://dc.lft.to/lastmile_qr_scan"}, "type": "electric_scooter"}, {"bike_id": "34341d09269b18564a747b730b9c1bb6", "is_reserved": 0, "name": "34341d09269b18564a747b730b9c1bb6", "lat": 38.9427155, "fusion_lat": 0.0, "lon": -77.0325455, "is_disabled": 0, "fusion_lon": 0.0, "rental_uris": {"android": "https://dc.lft.to/lastmile_qr_scan", "ios": "https://dc.lft.to/lastmile_qr_scan"}, "type": "electric_scooter"}, {"bike_id": "44c047bff6f9192ea14d19472b6a8a4c", "is_reserved": 0, "name": "44c047bff6f9192ea14d19472b6a8a4c", "lat": 38.919155333333336, "fusion_lat": 0.0, "lon": -77.0326255, "is_disabled": 0, "fusion_lon": 0.0, "rental_uris": {"android": "https://dc.lft.to/lastmile_qr_scan", "ios": "https://dc.lft.to/lastmile_qr_scan"}, "type": "electric_scooter"}, {"bike_id": "595e6bcd42d5dc8a2b8f825c241ebac8", "is_reserved": 0, "name": "595e6bcd42d5dc8a2b8f825c241ebac8", "lat": 38.892333666666666, "fusion_lat": 0.0, "lon": -77.04363333333333, "is_disabled": 0, "fusion_lon": 0.0, "rental_uris": {"android": "https://dc.lft.to/lastmile_qr_scan", "ios": "https://dc.lft.to/lastmile_qr_scan"}, "type": "electric_scooter"}, {"bike_id": "1b42b738010a42f4f56be8210e7eec50", "is_reserved": 0, "name": "1b42b738010a42f4f56be8210e7eec50", "lat": 38.917212166666665, "fusion_lat": 0.0, "lon": -77.03335333333334, "is_disabled": 0, "fusion_lon": 0.0, "rental_uris": {"android": "https://dc.lft.to/lastmile_qr_scan", "ios": "https://dc.lft.to/lastmile_qr_scan"}, "type": "electric_scooter"}, {"bike_id": "23cb9e993c43829b5cf413333def37c2", "is_reserved": 0, "name": "23cb9e993c43829b5cf413333def37c2", "lat": 38.9272065, "fusion_lat": 0.0, "lon": -77.02080633333334, "is_disabled": 0, "fusion_lon": 0.0, "rental_uris": {"android": "https://dc.lft.to/lastmile_qr_scan", "ios": "https://dc.lft.to/lastmile_qr_scan"}, "type": "electric_bike"}, {"bike_id": "64fc97745f026b59f541a7be0fb538ca", "is_reserved": 0, "name": "64fc97745f026b59f541a7be0fb538ca", "lat": 38.93485316666667, "fusion_lat": 0.0, "lon": -77.072787, "is_disabled": 0, "fusion_lon": 0.0, "rental_uris": {"android": "https://dc.lft.to/lastmile_qr_scan", "ios": "https://dc.lft.to/lastmile_qr_scan"}, "type": "electric_scooter"}, {"bike_id": "1e9d2b079b95689c554dd23e8d542a50", "is_reserved": 0, "name": "1e9d2b079b95689c554dd23e8d542a50", "lat": 38.897913333333335, "fusion_lat": 0.0, "lon": -76.94732216666667, "is_disabled": 0, "fusion_lon": 0.0, "rental_uris": {"android": "https://dc.lft.to/lastmile_qr_scan", "ios": "https://dc.lft.to/lastmile_qr_scan"}, "type": "electric_scooter"}, {"bike_id": "6831427c0f341630747dad5f76dd453c", "is_reserved": 0, "name": "6831427c0f341630747dad5f76dd453c", "lat": 38.870318833333336, "fusion_lat": 0.0, "lon": -77.228985, "is_disabled": 0, "fusion_lon": 0.0, "rental_uris": {"android": "https://dc.lft.to/lastmile_qr_scan", "ios": "https://dc.lft.to/lastmile_qr_scan"}, "type": "electric_bike"}, {"bike_id": "0c473811c34c9ab8f35b1c8dfbfe90db", "is_reserved": 0, "name": "0c473811c34c9ab8f35b1c8dfbfe90db", "lat": 38.9037115, "fusion_lat": 0.0, "lon": -77.0297165, "is_disabled": 0, "fusion_lon": 0.0, "rental_uris": {"android": "https://dc.lft.to/lastmile_qr_scan", "ios": "https://dc.lft.to/lastmile_qr_scan"}, "type": "electric_scooter"}, {"bike_id": "d5615bb56b62ac35836453f51048b195", "is_reserved": 0, "name": "d5615bb56b62ac35836453f51048b195", "lat": 38.874242, "fusion_lat": 0.0, "lon": -76.97177366666666, "is_disabled": 0, "fusion_lon": 0.0, "rental_uris": {"android": "https://dc.lft.to/lastmile_qr_scan", "ios": "https://dc.lft.to/lastmile_qr_scan"}, "type": "electric_scooter"}, {"bike_id": "6625eedac65132a629ea7f16b9aaba07", "is_reserved": 0, "name": "6625eedac65132a629ea7f16b9aaba07", "lat": 38.90409566666666, "fusion_lat": 0.0, "lon": -77.0363135, "is_disabled": 0, "fusion_lon": 0.0, "rental_uris": {"android": "https://dc.lft.to/lastmile_qr_scan", "ios": "https://dc.lft.to/lastmile_qr_scan"}, "type": "electric_scooter"}, {"bike_id": "c0803af5f7145bb9280f9e8bae84daa7", "is_reserved": 0, "name": "c0803af5f7145bb9280f9e8bae84daa7", "lat": 38.89829616666667, "fusion_lat": 0.0, "lon": -77.022321, "is_disabled": 0, "fusion_lon": 0.0, "rental_uris": {"android": "https://dc.lft.to/lastmile_qr_scan", "ios": "https://dc.lft.to/lastmile_qr_scan"}, "type": "electric_scooter"}, {"bike_id": "25fd0fa839fb5181f38af8ac39633558", "is_reserved": 0, "name": "25fd0fa839fb5181f38af8ac39633558", "lat": 38.87262183333333, "fusion_lat": 0.0, "lon": -77.00574333333333, "is_disabled": 0, "fusion_lon": 0.0, "rental_uris": {"android": "https://dc.lft.to/lastmile_qr_scan", "ios": "https://dc.lft.to/lastmile_qr_scan"}, "type": "electric_scooter"}, {"bike_id": "f25767c2a78b92f67109d8e069c58508", "is_reserved": 0, "name": "f25767c2a78b92f67109d8e069c58508", "lat": 38.91556383333333, "fusion_lat": 0.0, "lon": -77.00582916666667, "is_disabled": 0, "fusion_lon": 0.0, "rental_uris": {"android": "https://dc.lft.to/lastmile_qr_scan", "ios": "https://dc.lft.to/lastmile_qr_scan"}, "type": "electric_scooter"}, {"bike_id": "37cfde2cef60093d2bd68f4e8368d422", "is_reserved": 0, "name": "37cfde2cef60093d2bd68f4e8368d422", "lat": 38.902799, "fusion_lat": 0.0, "lon": -77.0238495, "is_disabled": 0, "fusion_lon": 0.0, "rental_uris": {"android": "https://dc.lft.to/lastmile_qr_scan", "ios": "https://dc.lft.to/lastmile_qr_scan"}, "type": "electric_scooter"}, {"bike_id": "a12dcd2e4a9d127da2d0ea008ccd4434", "is_reserved": 0, "name": "a12dcd2e4a9d127da2d0ea008ccd4434", "lat": 38.925017833333335, "fusion_lat": 0.0, "lon": -77.02399566666666, "is_disabled": 0, "fusion_lon": 0.0, "rental_uris": {"android": "https://dc.lft.to/lastmile_qr_scan", "ios": "https://dc.lft.to/lastmile_qr_scan"}, "type": "electric_scooter"}, {"bike_id": "3e4829dffe6a8d98abcf34aca947249d", "is_reserved": 0, "name": "3e4829dffe6a8d98abcf34aca947249d", "lat": 38.915572166666664, "fusion_lat": 0.0, "lon": -77.0204745, "is_disabled": 0, "fusion_lon": 0.0, "rental_uris": {"android": "https://dc.lft.to/lastmile_qr_scan", "ios": "https://dc.lft.to/lastmile_qr_scan"}, "type": "electric_scooter"}, {"bike_id": "d3f527062175c23d3058c1a2f126cbcb", "is_reserved": 0, "name": "d3f527062175c23d3058c1a2f126cbcb", "lat": 38.9237235, "fusion_lat": 0.0, "lon": -77.05173866666667, "is_disabled": 0, "fusion_lon": 0.0, "rental_uris": {"android": "https://dc.lft.to/lastmile_qr_scan", "ios": "https://dc.lft.to/lastmile_qr_scan"}, "type": "electric_scooter"}, {"bike_id": "2a0c6779c82a9db301fd450b2b50550e", "is_reserved": 0, "name": "2a0c6779c82a9db301fd450b2b50550e", "lat": 38.90966233333333, "fusion_lat": 0.0, "lon": -77.0484645, "is_disabled": 0, "fusion_lon": 0.0, "rental_uris": {"android": "https://dc.lft.to/lastmile_qr_scan", "ios": "https://dc.lft.to/lastmile_qr_scan"}, "type": "electric_scooter"}, {"bike_id": "a5744125a2f95e687e537311fc99fade", "is_reserved": 0, "name": "a5744125a2f95e687e537311fc99fade", "lat": 38.914175666666665, "fusion_lat": 0.0, "lon": -77.02094333333334, "is_disabled": 0, "fusion_lon": 0.0, "rental_uris": {"android": "https://dc.lft.to/lastmile_qr_scan", "ios": "https://dc.lft.to/lastmile_qr_scan"}, "type": "electric_scooter"}, {"bike_id": "9e7f20c32b98a6834517813a6e8cd732", "is_reserved": 0, "name": "9e7f20c32b98a6834517813a6e8cd732", "lat": 38.908129333333335, "fusion_lat": 0.0, "lon": -77.03450433333333, "is_disabled": 0, "fusion_lon": 0.0, "rental_uris": {"android": "https://dc.lft.to/lastmile_qr_scan", "ios": "https://dc.lft.to/lastmile_qr_scan"}, "type": "electric_scooter"}, {"bike_id": "26cecb8c0b8c586ecec598a9b4386c87", "is_reserved": 0, "name": "26cecb8c0b8c586ecec598a9b4386c87", "lat": 38.857195, "fusion_lat": 0.0, "lon": -76.98093583333333, "is_disabled": 0, "fusion_lon": 0.0, "rental_uris": {"android": "https://dc.lft.to/lastmile_qr_scan", "ios": "https://dc.lft.to/lastmile_qr_scan"}, "type": "electric_bike"}, {"bike_id": "a6a37ef7f68cbdb7b0b250f141aa082f", "is_reserved": 0, "name": "a6a37ef7f68cbdb7b0b250f141aa082f", "lat": 38.90364833333334, "fusion_lat": 0.0, "lon": -77.0073925, "is_disabled": 0, "fusion_lon": 0.0, "rental_uris": {"android": "https://dc.lft.to/lastmile_qr_scan", "ios": "https://dc.lft.to/lastmile_qr_scan"}, "type": "electric_scooter"}, {"bike_id": "9ea58c31d87df243849d9edf6f3c10fb", "is_reserved": 0, "name": "9ea58c31d87df243849d9edf6f3c10fb", "lat": 38.876940833333336, "fusion_lat": 0.0, "lon": -77.019025, "is_disabled": 0, "fusion_lon": 0.0, "rental_uris": {"android": "https://dc.lft.to/lastmile_qr_scan", "ios": "https://dc.lft.to/lastmile_qr_scan"}, "type": "electric_scooter"}, {"bike_id": "e7985d9638843d4355c1acb6ee6071fd", "is_reserved": 0, "name": "e7985d9638843d4355c1acb6ee6071fd", "lat": 38.9064195, "fusion_lat": 0.0, "lon": -77.00659116666667, "is_disabled": 0, "fusion_lon": 0.0, "rental_uris": {"android": "https://dc.lft.to/lastmile_qr_scan", "ios": "https://dc.lft.to/lastmile_qr_scan"}, "type": "electric_scooter"}, {"bike_id": "d75d3816d16cd1327973289767ef7bd5", "is_reserved": 0, "name": "d75d3816d16cd1327973289767ef7bd5", "lat": 38.8983505, "fusion_lat": 0.0, "lon": -77.0219515, "is_disabled": 0, "fusion_lon": 0.0, "rental_uris": {"android": "https://dc.lft.to/lastmile_qr_scan", "ios": "https://dc.lft.to/lastmile_qr_scan"}, "type": "electric_scooter"}, {"bike_id": "b6cbcb133a8cf2d3fe959281d77d2ac6", "is_reserved": 0, "name": "b6cbcb133a8cf2d3fe959281d77d2ac6", "lat": 38.9122225, "fusion_lat": 0.0, "lon": -77.06596416666666, "is_disabled": 0, "fusion_lon": 0.0, "rental_uris": {"android": "https://dc.lft.to/lastmile_qr_scan", "ios": "https://dc.lft.to/lastmile_qr_scan"}, "type": "electric_scooter"}, {"bike_id": "38cb8eef35ed405135e57a3bac22ae4f", "is_reserved": 0, "name": "38cb8eef35ed405135e57a3bac22ae4f", "lat": 38.934134666666665, "fusion_lat": 0.0, "lon": -77.04306, "is_disabled": 0, "fusion_lon": 0.0, "rental_uris": {"android": "https://dc.lft.to/lastmile_qr_scan", "ios": "https://dc.lft.to/lastmile_qr_scan"}, "type": "electric_bike"}, {"bike_id": "ea1956521f04ded8cdbb895756be402f", "is_reserved": 0, "name": "ea1956521f04ded8cdbb895756be402f", "lat": 38.887467666666666, "fusion_lat": 0.0, "lon": -77.02124066666667, "is_disabled": 0, "fusion_lon": 0.0, "rental_uris": {"android": "https://dc.lft.to/lastmile_qr_scan", "ios": "https://dc.lft.to/lastmile_qr_scan"}, "type": "electric_scooter"}, {"bike_id": "212f1c2795778659fc44630739a00ee8", "is_reserved": 0, "name": "212f1c2795778659fc44630739a00ee8", "lat": 38.898005, "fusion_lat": 0.0, "lon": -77.04883733333334, "is_disabled": 0, "fusion_lon": 0.0, "rental_uris": {"android": "https://dc.lft.to/lastmile_qr_scan", "ios": "https://dc.lft.to/lastmile_qr_scan"}, "type": "electric_scooter"}, {"bike_id": "636f6017dbce9805ba1016f68745a599", "is_reserved": 0, "name": "636f6017dbce9805ba1016f68745a599", "lat": 38.897117333333334, "fusion_lat": 0.0, "lon": -77.02810166666667, "is_disabled": 0, "fusion_lon": 0.0, "rental_uris": {"android": "https://dc.lft.to/lastmile_qr_scan", "ios": "https://dc.lft.to/lastmile_qr_scan"}, "type": "electric_scooter"}, {"bike_id": "94a248411d01c873ee8a1df2e7875aa6", "is_reserved": 0, "name": "94a248411d01c873ee8a1df2e7875aa6", "lat": 38.918481166666666, "fusion_lat": 0.0, "lon": -76.96537333333333, "is_disabled": 0, "fusion_lon": 0.0, "rental_uris": {"android": "https://dc.lft.to/lastmile_qr_scan", "ios": "https://dc.lft.to/lastmile_qr_scan"}, "type": "electric_scooter"}, {"bike_id": "70a8257e5b5814a2ee54737dd5ea60e1", "is_reserved": 0, "name": "70a8257e5b5814a2ee54737dd5ea60e1", "lat": 38.922527333333335, "fusion_lat": 0.0, "lon": -77.0306535, "is_disabled": 0, "fusion_lon": 0.0, "rental_uris": {"android": "https://dc.lft.to/lastmile_qr_scan", "ios": "https://dc.lft.to/lastmile_qr_scan"}, "type": "electric_scooter"}, {"bike_id": "60d71c52c72a896aed92d974ad7f8a8b", "is_reserved": 0, "name": "60d71c52c72a896aed92d974ad7f8a8b", "lat": 38.90892783333334, "fusion_lat": 0.0, "lon": -77.04393083333333, "is_disabled": 0, "fusion_lon": 0.0, "rental_uris": {"android": "https://dc.lft.to/lastmile_qr_scan", "ios": "https://dc.lft.to/lastmile_qr_scan"}, "type": "electric_scooter"}, {"bike_id": "9076912b3280a66e36e3aaf328b8002a", "is_reserved": 0, "name": "9076912b3280a66e36e3aaf328b8002a", "lat": 38.887341666666664, "fusion_lat": 0.0, "lon": -77.02380033333333, "is_disabled": 0, "fusion_lon": 0.0, "rental_uris": {"android": "https://dc.lft.to/lastmile_qr_scan", "ios": "https://dc.lft.to/lastmile_qr_scan"}, "type": "electric_scooter"}, {"bike_id": "9c2cc15b937c99e7fca773a21c348ed5", "is_reserved": 0, "name": "9c2cc15b937c99e7fca773a21c348ed5", "lat": 38.87042783333333, "fusion_lat": 0.0, "lon": -77.010076, "is_disabled": 0, "fusion_lon": 0.0, "rental_uris": {"android": "https://dc.lft.to/lastmile_qr_scan", "ios": "https://dc.lft.to/lastmile_qr_scan"}, "type": "electric_scooter"}, {"bike_id": "17538a5c85de63482ae9f4e129f25d4c", "is_reserved": 0, "name": "17538a5c85de63482ae9f4e129f25d4c", "lat": 38.957326, "fusion_lat": 0.0, "lon": -77.0239885, "is_disabled": 0, "fusion_lon": 0.0, "rental_uris": {"android": "https://dc.lft.to/lastmile_qr_scan", "ios": "https://dc.lft.to/lastmile_qr_scan"}, "type": "electric_scooter"}, {"bike_id": "eaa69ee296849e4efff4485fda974c5d", "is_reserved": 0, "name": "eaa69ee296849e4efff4485fda974c5d", "lat": 38.902168833333334, "fusion_lat": 0.0, "lon": -76.98608766666666, "is_disabled": 0, "fusion_lon": 0.0, "rental_uris": {"android": "https://dc.lft.to/lastmile_qr_scan", "ios": "https://dc.lft.to/lastmile_qr_scan"}, "type": "electric_scooter"}, {"bike_id": "69c577b3527904f59398157c24702b48", "is_reserved": 0, "name": "69c577b3527904f59398157c24702b48", "lat": 38.9061385, "fusion_lat": 0.0, "lon": -77.005716, "is_disabled": 0, "fusion_lon": 0.0, "rental_uris": {"android": "https://dc.lft.to/lastmile_qr_scan", "ios": "https://dc.lft.to/lastmile_qr_scan"}, "type": "electric_scooter"}, {"bike_id": "aa868fc85e25eff3a8b59d0158db2a48", "is_reserved": 0, "name": "aa868fc85e25eff3a8b59d0158db2a48", "lat": 38.92127266666667, "fusion_lat": 0.0, "lon": -77.0421255, "is_disabled": 0, "fusion_lon": 0.0, "rental_uris": {"android": "https://dc.lft.to/lastmile_qr_scan", "ios": "https://dc.lft.to/lastmile_qr_scan"}, "type": "electric_scooter"}, {"bike_id": "89413057f21986961ab9019d838e1aab", "is_reserved": 0, "name": "89413057f21986961ab9019d838e1aab", "lat": 38.873969833333334, "fusion_lat": 0.0, "lon": -77.00208466666666, "is_disabled": 0, "fusion_lon": 0.0, "rental_uris": {"android": "https://dc.lft.to/lastmile_qr_scan", "ios": "https://dc.lft.to/lastmile_qr_scan"}, "type": "electric_scooter"}, {"bike_id": "c9866a69d7b40d476a8bfea75236077a", "is_reserved": 0, "name": "c9866a69d7b40d476a8bfea75236077a", "lat": 38.90609383333334, "fusion_lat": 0.0, "lon": -77.00567916666667, "is_disabled": 0, "fusion_lon": 0.0, "rental_uris": {"android": "https://dc.lft.to/lastmile_qr_scan", "ios": "https://dc.lft.to/lastmile_qr_scan"}, "type": "electric_scooter"}, {"bike_id": "44ef40566e4fd8f92a63ab7fe6ae0ac8", "is_reserved": 0, "name": "44ef40566e4fd8f92a63ab7fe6ae0ac8", "lat": 38.8951645, "fusion_lat": 0.0, "lon": -77.00360633333334, "is_disabled": 0, "fusion_lon": 0.0, "rental_uris": {"android": "https://dc.lft.to/lastmile_qr_scan", "ios": "https://dc.lft.to/lastmile_qr_scan"}, "type": "electric_scooter"}, {"bike_id": "04218951f121432ef425b3a9dbcb4b82", "is_reserved": 0, "name": "04218951f121432ef425b3a9dbcb4b82", "lat": 38.95356316666667, "fusion_lat": 0.0, "lon": -76.980901, "is_disabled": 0, "fusion_lon": 0.0, "rental_uris": {"android": "https://dc.lft.to/lastmile_qr_scan", "ios": "https://dc.lft.to/lastmile_qr_scan"}, "type": "electric_bike"}, {"bike_id": "58ea7fd67b06774b0f8946f203a92ea5", "is_reserved": 0, "name": "58ea7fd67b06774b0f8946f203a92ea5", "lat": 38.865299666666665, "fusion_lat": 0.0, "lon": -76.9743715, "is_disabled": 0, "fusion_lon": 0.0, "rental_uris": {"android": "https://dc.lft.to/lastmile_qr_scan", "ios": "https://dc.lft.to/lastmile_qr_scan"}, "type": "electric_bike"}, {"bike_id": "468261ce67f795ae07412ea91b71e0c7", "is_reserved": 0, "name": "468261ce67f795ae07412ea91b71e0c7", "lat": 38.901938333333334, "fusion_lat": 0.0, "lon": -77.02352716666667, "is_disabled": 0, "fusion_lon": 0.0, "rental_uris": {"android": "https://dc.lft.to/lastmile_qr_scan", "ios": "https://dc.lft.to/lastmile_qr_scan"}, "type": "electric_scooter"}, {"bike_id": "db6ec2da1cf4979b7742e77dc1ce3693", "is_reserved": 0, "name": "db6ec2da1cf4979b7742e77dc1ce3693", "lat": 38.915513, "fusion_lat": 0.0, "lon": -77.04616566666667, "is_disabled": 0, "fusion_lon": 0.0, "rental_uris": {"android": "https://dc.lft.to/lastmile_qr_scan", "ios": "https://dc.lft.to/lastmile_qr_scan"}, "type": "electric_scooter"}, {"bike_id": "00894e65a626196fb64eff6d4fcbd560", "is_reserved": 0, "name": "00894e65a626196fb64eff6d4fcbd560", "lat": 38.876707833333334, "fusion_lat": 0.0, "lon": -76.99270933333334, "is_disabled": 0, "fusion_lon": 0.0, "rental_uris": {"android": "https://dc.lft.to/lastmile_qr_scan", "ios": "https://dc.lft.to/lastmile_qr_scan"}, "type": "electric_scooter"}, {"bike_id": "0d9d2bfdf7654538d26678d701ce3ea9", "is_reserved": 0, "name": "0d9d2bfdf7654538d26678d701ce3ea9", "lat": 38.92342516666667, "fusion_lat": 0.0, "lon": -77.0517965, "is_disabled": 0, "fusion_lon": 0.0, "rental_uris": {"android": "https://dc.lft.to/lastmile_qr_scan", "ios": "https://dc.lft.to/lastmile_qr_scan"}, "type": "electric_scooter"}, {"bike_id": "d4dfba355e4ee2a809a6f988e4660741", "is_reserved": 0, "name": "d4dfba355e4ee2a809a6f988e4660741", "lat": 38.8939115, "fusion_lat": 0.0, "lon": -76.92306733333334, "is_disabled": 0, "fusion_lon": 0.0, "rental_uris": {"android": "https://dc.lft.to/lastmile_qr_scan", "ios": "https://dc.lft.to/lastmile_qr_scan"}, "type": "electric_scooter"}, {"bike_id": "dce98dde65092751f2f42a8795661652", "is_reserved": 0, "name": "dce98dde65092751f2f42a8795661652", "lat": 38.943366833333336, "fusion_lat": 0.0, "lon": -76.98312533333333, "is_disabled": 0, "fusion_lon": 0.0, "rental_uris": {"android": "https://dc.lft.to/lastmile_qr_scan", "ios": "https://dc.lft.to/lastmile_qr_scan"}, "type": "electric_scooter"}, {"bike_id": "6d329a334b1b45a7cf931fdbf3e52dc1", "is_reserved": 0, "name": "6d329a334b1b45a7cf931fdbf3e52dc1", "lat": 38.911931833333334, "fusion_lat": 0.0, "lon": -77.04165833333333, "is_disabled": 0, "fusion_lon": 0.0, "rental_uris": {"android": "https://dc.lft.to/lastmile_qr_scan", "ios": "https://dc.lft.to/lastmile_qr_scan"}, "type": "electric_scooter"}, {"bike_id": "490f9cf6b9f941d4e378cf48dd846c0a", "is_reserved": 0, "name": "490f9cf6b9f941d4e378cf48dd846c0a", "lat": 38.904615666666665, "fusion_lat": 0.0, "lon": -77.0486805, "is_disabled": 0, "fusion_lon": 0.0, "rental_uris": {"android": "https://dc.lft.to/lastmile_qr_scan", "ios": "https://dc.lft.to/lastmile_qr_scan"}, "type": "electric_scooter"}, {"bike_id": "71b7a5e1eb20fb933057508db8a2ccf0", "is_reserved": 0, "name": "71b7a5e1eb20fb933057508db8a2ccf0", "lat": 38.912205166666666, "fusion_lat": 0.0, "lon": -77.031767, "is_disabled": 0, "fusion_lon": 0.0, "rental_uris": {"android": "https://dc.lft.to/lastmile_qr_scan", "ios": "https://dc.lft.to/lastmile_qr_scan"}, "type": "electric_scooter"}, {"bike_id": "b3236ae54ba2f4bc34b35efccfa44301", "is_reserved": 0, "name": "b3236ae54ba2f4bc34b35efccfa44301", "lat": 38.903158, "fusion_lat": 0.0, "lon": -76.9779855, "is_disabled": 0, "fusion_lon": 0.0, "rental_uris": {"android": "https://dc.lft.to/lastmile_qr_scan", "ios": "https://dc.lft.to/lastmile_qr_scan"}, "type": "electric_scooter"}, {"bike_id": "b7d49e01005bd7e754aebb2a19b993dc", "is_reserved": 0, "name": "b7d49e01005bd7e754aebb2a19b993dc", "lat": 38.8982225, "fusion_lat": 0.0, "lon": -77.042526, "is_disabled": 0, "fusion_lon": 0.0, "rental_uris": {"android": "https://dc.lft.to/lastmile_qr_scan", "ios": "https://dc.lft.to/lastmile_qr_scan"}, "type": "electric_scooter"}, {"bike_id": "679b55897d48e006f17a9b2e24694a85", "is_reserved": 0, "name": "679b55897d48e006f17a9b2e24694a85", "lat": 38.8872485, "fusion_lat": 0.0, "lon": -77.025756, "is_disabled": 0, "fusion_lon": 0.0, "rental_uris": {"android": "https://dc.lft.to/lastmile_qr_scan", "ios": "https://dc.lft.to/lastmile_qr_scan"}, "type": "electric_scooter"}, {"bike_id": "2b0412505f429540461604313f1e928d", "is_reserved": 0, "name": "2b0412505f429540461604313f1e928d", "lat": 38.92586883333333, "fusion_lat": 0.0, "lon": -77.028075, "is_disabled": 0, "fusion_lon": 0.0, "rental_uris": {"android": "https://dc.lft.to/lastmile_qr_scan", "ios": "https://dc.lft.to/lastmile_qr_scan"}, "type": "electric_scooter"}, {"bike_id": "cd1e7b891db94956e2ea1e256f7213af", "is_reserved": 0, "name": "cd1e7b891db94956e2ea1e256f7213af", "lat": 38.920406166666666, "fusion_lat": 0.0, "lon": -77.03379733333334, "is_disabled": 0, "fusion_lon": 0.0, "rental_uris": {"android": "https://dc.lft.to/lastmile_qr_scan", "ios": "https://dc.lft.to/lastmile_qr_scan"}, "type": "electric_scooter"}, {"bike_id": "5a1f5ae73e406790fcad0dba302782fb", "is_reserved": 0, "name": "5a1f5ae73e406790fcad0dba302782fb", "lat": 38.909823, "fusion_lat": 0.0, "lon": -77.021711, "is_disabled": 0, "fusion_lon": 0.0, "rental_uris": {"android": "https://dc.lft.to/lastmile_qr_scan", "ios": "https://dc.lft.to/lastmile_qr_scan"}, "type": "electric_scooter"}, {"bike_id": "eda8a16c4debe530e51d8eb5dc042feb", "is_reserved": 0, "name": "eda8a16c4debe530e51d8eb5dc042feb", "lat": 38.923473666666666, "fusion_lat": 0.0, "lon": -77.01897283333334, "is_disabled": 0, "fusion_lon": 0.0, "rental_uris": {"android": "https://dc.lft.to/lastmile_qr_scan", "ios": "https://dc.lft.to/lastmile_qr_scan"}, "type": "electric_scooter"}, {"bike_id": "aa8756a9fc8f39745f592fc9bbb0b7e2", "is_reserved": 0, "name": "aa8756a9fc8f39745f592fc9bbb0b7e2", "lat": 38.87765783333333, "fusion_lat": 0.0, "lon": -77.005498, "is_disabled": 0, "fusion_lon": 0.0, "rental_uris": {"android": "https://dc.lft.to/lastmile_qr_scan", "ios": "https://dc.lft.to/lastmile_qr_scan"}, "type": "electric_scooter"}, {"bike_id": "99c17a1e8a670aed951633631a8355ed", "is_reserved": 0, "name": "99c17a1e8a670aed951633631a8355ed", "lat": 38.899528333333336, "fusion_lat": 0.0, "lon": -77.0569895, "is_disabled": 0, "fusion_lon": 0.0, "rental_uris": {"android": "https://dc.lft.to/lastmile_qr_scan", "ios": "https://dc.lft.to/lastmile_qr_scan"}, "type": "electric_scooter"}, {"bike_id": "38b10c7e681f1c8a6d09263840501c87", "is_reserved": 0, "name": "38b10c7e681f1c8a6d09263840501c87", "lat": 38.90957566666667, "fusion_lat": 0.0, "lon": -77.03466716666667, "is_disabled": 0, "fusion_lon": 0.0, "rental_uris": {"android": "https://dc.lft.to/lastmile_qr_scan", "ios": "https://dc.lft.to/lastmile_qr_scan"}, "type": "electric_scooter"}, {"bike_id": "d4494b594e671f68c8739b378ba3d846", "is_reserved": 0, "name": "d4494b594e671f68c8739b378ba3d846", "lat": 38.89525533333333, "fusion_lat": 0.0, "lon": -77.00207366666666, "is_disabled": 0, "fusion_lon": 0.0, "rental_uris": {"android": "https://dc.lft.to/lastmile_qr_scan", "ios": "https://dc.lft.to/lastmile_qr_scan"}, "type": "electric_scooter"}, {"bike_id": "123195d3a5e6b39897d723c6d7814bfb", "is_reserved": 0, "name": "123195d3a5e6b39897d723c6d7814bfb", "lat": 38.89925933333333, "fusion_lat": 0.0, "lon": -77.05002233333333, "is_disabled": 0, "fusion_lon": 0.0, "rental_uris": {"android": "https://dc.lft.to/lastmile_qr_scan", "ios": "https://dc.lft.to/lastmile_qr_scan"}, "type": "electric_scooter"}, {"bike_id": "82f92ada60c9c409e12b0fadd3ac0506", "is_reserved": 0, "name": "82f92ada60c9c409e12b0fadd3ac0506", "lat": 38.91067616666667, "fusion_lat": 0.0, "lon": -77.04241016666667, "is_disabled": 0, "fusion_lon": 0.0, "rental_uris": {"android": "https://dc.lft.to/lastmile_qr_scan", "ios": "https://dc.lft.to/lastmile_qr_scan"}, "type": "electric_scooter"}, {"bike_id": "9bca3d6175f5bec035cbd77cdf0b09fe", "is_reserved": 0, "name": "9bca3d6175f5bec035cbd77cdf0b09fe", "lat": 38.91400383333333, "fusion_lat": 0.0, "lon": -77.07553966666667, "is_disabled": 0, "fusion_lon": 0.0, "rental_uris": {"android": "https://dc.lft.to/lastmile_qr_scan", "ios": "https://dc.lft.to/lastmile_qr_scan"}, "type": "electric_scooter"}, {"bike_id": "e0f5d611b9474b789eb964bc5f9ec90b", "is_reserved": 0, "name": "e0f5d611b9474b789eb964bc5f9ec90b", "lat": 38.90128083333333, "fusion_lat": 0.0, "lon": -77.00287083333333, "is_disabled": 0, "fusion_lon": 0.0, "rental_uris": {"android": "https://dc.lft.to/lastmile_qr_scan", "ios": "https://dc.lft.to/lastmile_qr_scan"}, "type": "electric_scooter"}, {"bike_id": "0d72a88c5e7b69f3234e462438c7c734", "is_reserved": 0, "name": "0d72a88c5e7b69f3234e462438c7c734", "lat": 38.9037465, "fusion_lat": 0.0, "lon": -77.0330965, "is_disabled": 0, "fusion_lon": 0.0, "rental_uris": {"android": "https://dc.lft.to/lastmile_qr_scan", "ios": "https://dc.lft.to/lastmile_qr_scan"}, "type": "electric_scooter"}, {"bike_id": "ad2a9855ab49ef526a5d238c840c1e69", "is_reserved": 0, "name": "ad2a9855ab49ef526a5d238c840c1e69", "lat": 38.887134333333336, "fusion_lat": 0.0, "lon": -77.028302, "is_disabled": 0, "fusion_lon": 0.0, "rental_uris": {"android": "https://dc.lft.to/lastmile_qr_scan", "ios": "https://dc.lft.to/lastmile_qr_scan"}, "type": "electric_scooter"}, {"bike_id": "401fcf68ef0eb0796c611fb33a6d01e6", "is_reserved": 0, "name": "401fcf68ef0eb0796c611fb33a6d01e6", "lat": 38.88636016666667, "fusion_lat": 0.0, "lon": -76.925832, "is_disabled": 0, "fusion_lon": 0.0, "rental_uris": {"android": "https://dc.lft.to/lastmile_qr_scan", "ios": "https://dc.lft.to/lastmile_qr_scan"}, "type": "electric_scooter"}, {"bike_id": "fe25319fc65be9e6bfff791219efd413", "is_reserved": 0, "name": "fe25319fc65be9e6bfff791219efd413", "lat": 38.915796666666665, "fusion_lat": 0.0, "lon": -77.01232333333333, "is_disabled": 0, "fusion_lon": 0.0, "rental_uris": {"android": "https://dc.lft.to/lastmile_qr_scan", "ios": "https://dc.lft.to/lastmile_qr_scan"}, "type": "electric_scooter"}, {"bike_id": "def60f140bf5115a9a7fb134e02a0181", "is_reserved": 0, "name": "def60f140bf5115a9a7fb134e02a0181", "lat": 38.924696, "fusion_lat": 0.0, "lon": -77.022171, "is_disabled": 0, "fusion_lon": 0.0, "rental_uris": {"android": "https://dc.lft.to/lastmile_qr_scan", "ios": "https://dc.lft.to/lastmile_qr_scan"}, "type": "electric_scooter"}, {"bike_id": "dfeca3479f9dde86efae2ef1f519ae6f", "is_reserved": 0, "name": "dfeca3479f9dde86efae2ef1f519ae6f", "lat": 38.912373, "fusion_lat": 0.0, "lon": -77.04874633333333, "is_disabled": 0, "fusion_lon": 0.0, "rental_uris": {"android": "https://dc.lft.to/lastmile_qr_scan", "ios": "https://dc.lft.to/lastmile_qr_scan"}, "type": "electric_scooter"}, {"bike_id": "d1b95bc49f4a6372f52a5bea4f790e98", "is_reserved": 0, "name": "d1b95bc49f4a6372f52a5bea4f790e98", "lat": 38.91488066666667, "fusion_lat": 0.0, "lon": -77.0424465, "is_disabled": 0, "fusion_lon": 0.0, "rental_uris": {"android": "https://dc.lft.to/lastmile_qr_scan", "ios": "https://dc.lft.to/lastmile_qr_scan"}, "type": "electric_scooter"}, {"bike_id": "2316e53313892db93d2e118a832a599a", "is_reserved": 0, "name": "2316e53313892db93d2e118a832a599a", "lat": 38.910266, "fusion_lat": 0.0, "lon": -77.03441816666667, "is_disabled": 0, "fusion_lon": 0.0, "rental_uris": {"android": "https://dc.lft.to/lastmile_qr_scan", "ios": "https://dc.lft.to/lastmile_qr_scan"}, "type": "electric_scooter"}, {"bike_id": "ea5c4f8c2687f7750a95cfac0be699c1", "is_reserved": 0, "name": "ea5c4f8c2687f7750a95cfac0be699c1", "lat": 38.92590366666667, "fusion_lat": 0.0, "lon": -77.052829, "is_disabled": 0, "fusion_lon": 0.0, "rental_uris": {"android": "https://dc.lft.to/lastmile_qr_scan", "ios": "https://dc.lft.to/lastmile_qr_scan"}, "type": "electric_scooter"}, {"bike_id": "43e2ec99d82b3e5e7b32df67d81be4a0", "is_reserved": 0, "name": "43e2ec99d82b3e5e7b32df67d81be4a0", "lat": 38.89894866666667, "fusion_lat": 0.0, "lon": -76.98065716666666, "is_disabled": 0, "fusion_lon": 0.0, "rental_uris": {"android": "https://dc.lft.to/lastmile_qr_scan", "ios": "https://dc.lft.to/lastmile_qr_scan"}, "type": "electric_scooter"}, {"bike_id": "f0c411260a7661efdcabac83a5b39435", "is_reserved": 0, "name": "f0c411260a7661efdcabac83a5b39435", "lat": 38.905653, "fusion_lat": 0.0, "lon": -77.0058255, "is_disabled": 0, "fusion_lon": 0.0, "rental_uris": {"android": "https://dc.lft.to/lastmile_qr_scan", "ios": "https://dc.lft.to/lastmile_qr_scan"}, "type": "electric_scooter"}, {"bike_id": "f5960979f8c4773b16f01da1450dc363", "is_reserved": 0, "name": "f5960979f8c4773b16f01da1450dc363", "lat": 38.900231833333336, "fusion_lat": 0.0, "lon": -77.00688916666667, "is_disabled": 0, "fusion_lon": 0.0, "rental_uris": {"android": "https://dc.lft.to/lastmile_qr_scan", "ios": "https://dc.lft.to/lastmile_qr_scan"}, "type": "electric_scooter"}, {"bike_id": "beb978c4a7cb37d32605a48ac6d8f8b0", "is_reserved": 0, "name": "beb978c4a7cb37d32605a48ac6d8f8b0", "lat": 39.07048416666667, "fusion_lat": 0.0, "lon": -77.11523066666666, "is_disabled": 0, "fusion_lon": 0.0, "rental_uris": {"android": "https://dc.lft.to/lastmile_qr_scan", "ios": "https://dc.lft.to/lastmile_qr_scan"}, "type": "electric_bike"}, {"bike_id": "cc442f5bc8f8e66b0ff45309966301e1", "is_reserved": 0, "name": "cc442f5bc8f8e66b0ff45309966301e1", "lat": 38.896889, "fusion_lat": 0.0, "lon": -77.00496483333333, "is_disabled": 0, "fusion_lon": 0.0, "rental_uris": {"android": "https://dc.lft.to/lastmile_qr_scan", "ios": "https://dc.lft.to/lastmile_qr_scan"}, "type": "electric_scooter"}, {"bike_id": "980d9e07b8c407d4b208fb447ae89dd8", "is_reserved": 0, "name": "980d9e07b8c407d4b208fb447ae89dd8", "lat": 38.9111195, "fusion_lat": 0.0, "lon": -77.04347883333334, "is_disabled": 0, "fusion_lon": 0.0, "rental_uris": {"android": "https://dc.lft.to/lastmile_qr_scan", "ios": "https://dc.lft.to/lastmile_qr_scan"}, "type": "electric_scooter"}, {"bike_id": "192a3b713047f1fe285a7a4d4f1ef5a2", "is_reserved": 0, "name": "192a3b713047f1fe285a7a4d4f1ef5a2", "lat": 38.9176155, "fusion_lat": 0.0, "lon": -77.0321045, "is_disabled": 0, "fusion_lon": 0.0, "rental_uris": {"android": "https://dc.lft.to/lastmile_qr_scan", "ios": "https://dc.lft.to/lastmile_qr_scan"}, "type": "electric_scooter"}, {"bike_id": "0be5d158cdd7963eea3b8eaa0fb9f392", "is_reserved": 0, "name": "0be5d158cdd7963eea3b8eaa0fb9f392", "lat": 38.89082033333333, "fusion_lat": 0.0, "lon": -77.04038666666666, "is_disabled": 0, "fusion_lon": 0.0, "rental_uris": {"android": "https://dc.lft.to/lastmile_qr_scan", "ios": "https://dc.lft.to/lastmile_qr_scan"}, "type": "electric_scooter"}, {"bike_id": "323b19039951af6bf57b2802c45194cf", "is_reserved": 0, "name": "323b19039951af6bf57b2802c45194cf", "lat": 38.88744583333333, "fusion_lat": 0.0, "lon": -77.02567666666667, "is_disabled": 0, "fusion_lon": 0.0, "rental_uris": {"android": "https://dc.lft.to/lastmile_qr_scan", "ios": "https://dc.lft.to/lastmile_qr_scan"}, "type": "electric_scooter"}, {"bike_id": "aa2a583bba5cd287438245d98cb168bf", "is_reserved": 0, "name": "aa2a583bba5cd287438245d98cb168bf", "lat": 38.93706133333333, "fusion_lat": 0.0, "lon": -77.02406116666667, "is_disabled": 0, "fusion_lon": 0.0, "rental_uris": {"android": "https://dc.lft.to/lastmile_qr_scan", "ios": "https://dc.lft.to/lastmile_qr_scan"}, "type": "electric_scooter"}, {"bike_id": "16ef95077511ffa79931032a907f9af2", "is_reserved": 0, "name": "16ef95077511ffa79931032a907f9af2", "lat": 38.9209745, "fusion_lat": 0.0, "lon": -77.02518466666666, "is_disabled": 0, "fusion_lon": 0.0, "rental_uris": {"android": "https://dc.lft.to/lastmile_qr_scan", "ios": "https://dc.lft.to/lastmile_qr_scan"}, "type": "electric_scooter"}, {"bike_id": "3869861a55d018bc5f030eae9976f023", "is_reserved": 0, "name": "3869861a55d018bc5f030eae9976f023", "lat": 38.87200583333333, "fusion_lat": 0.0, "lon": -77.0093155, "is_disabled": 0, "fusion_lon": 0.0, "rental_uris": {"android": "https://dc.lft.to/lastmile_qr_scan", "ios": "https://dc.lft.to/lastmile_qr_scan"}, "type": "electric_scooter"}, {"bike_id": "0c5f81c767e19683ffb31753c5578e5b", "is_reserved": 0, "name": "0c5f81c767e19683ffb31753c5578e5b", "lat": 38.8740265, "fusion_lat": 0.0, "lon": -77.000317, "is_disabled": 0, "fusion_lon": 0.0, "rental_uris": {"android": "https://dc.lft.to/lastmile_qr_scan", "ios": "https://dc.lft.to/lastmile_qr_scan"}, "type": "electric_scooter"}, {"bike_id": "836e28739d846337a5e9fff99d58225e", "is_reserved": 0, "name": "836e28739d846337a5e9fff99d58225e", "lat": 38.92396516666667, "fusion_lat": 0.0, "lon": -77.02039566666667, "is_disabled": 0, "fusion_lon": 0.0, "rental_uris": {"android": "https://dc.lft.to/lastmile_qr_scan", "ios": "https://dc.lft.to/lastmile_qr_scan"}, "type": "electric_scooter"}, {"bike_id": "9ac6117d988f8174170371f9d80ece2b", "is_reserved": 0, "name": "9ac6117d988f8174170371f9d80ece2b", "lat": 38.911897333333336, "fusion_lat": 0.0, "lon": -77.0218355, "is_disabled": 0, "fusion_lon": 0.0, "rental_uris": {"android": "https://dc.lft.to/lastmile_qr_scan", "ios": "https://dc.lft.to/lastmile_qr_scan"}, "type": "electric_scooter"}, {"bike_id": "d045a1d381cf5a41de2c35a82f964733", "is_reserved": 0, "name": "d045a1d381cf5a41de2c35a82f964733", "lat": 38.9211325, "fusion_lat": 0.0, "lon": -77.03928583333334, "is_disabled": 0, "fusion_lon": 0.0, "rental_uris": {"android": "https://dc.lft.to/lastmile_qr_scan", "ios": "https://dc.lft.to/lastmile_qr_scan"}, "type": "electric_scooter"}, {"bike_id": "913cacf437a4ecd4fc430229b100a628", "is_reserved": 0, "name": "913cacf437a4ecd4fc430229b100a628", "lat": 38.90309, "fusion_lat": 0.0, "lon": -77.06109533333333, "is_disabled": 0, "fusion_lon": 0.0, "rental_uris": {"android": "https://dc.lft.to/lastmile_qr_scan", "ios": "https://dc.lft.to/lastmile_qr_scan"}, "type": "electric_scooter"}, {"bike_id": "f5f2f8a3bf88417a90b0bcc87322ce29", "is_reserved": 0, "name": "f5f2f8a3bf88417a90b0bcc87322ce29", "lat": 38.921163166666666, "fusion_lat": 0.0, "lon": -77.025653, "is_disabled": 0, "fusion_lon": 0.0, "rental_uris": {"android": "https://dc.lft.to/lastmile_qr_scan", "ios": "https://dc.lft.to/lastmile_qr_scan"}, "type": "electric_scooter"}, {"bike_id": "553ea650c9b39901f18384b94c1865b4", "is_reserved": 0, "name": "553ea650c9b39901f18384b94c1865b4", "lat": 38.902389166666666, "fusion_lat": 0.0, "lon": -77.04582716666667, "is_disabled": 0, "fusion_lon": 0.0, "rental_uris": {"android": "https://dc.lft.to/lastmile_qr_scan", "ios": "https://dc.lft.to/lastmile_qr_scan"}, "type": "electric_scooter"}, {"bike_id": "7f6afc70cb9bee6140f0aace52f0eabf", "is_reserved": 0, "name": "7f6afc70cb9bee6140f0aace52f0eabf", "lat": 38.99447466666667, "fusion_lat": 0.0, "lon": -76.99583366666667, "is_disabled": 0, "fusion_lon": 0.0, "rental_uris": {"android": "https://dc.lft.to/lastmile_qr_scan", "ios": "https://dc.lft.to/lastmile_qr_scan"}, "type": "electric_bike"}, {"bike_id": "cacc503584d91a9864198ba19fdc6e7d", "is_reserved": 0, "name": "cacc503584d91a9864198ba19fdc6e7d", "lat": 38.8960595, "fusion_lat": 0.0, "lon": -77.009283, "is_disabled": 0, "fusion_lon": 0.0, "rental_uris": {"android": "https://dc.lft.to/lastmile_qr_scan", "ios": "https://dc.lft.to/lastmile_qr_scan"}, "type": "electric_scooter"}, {"bike_id": "d6668bc511a7e6fb522184f9f6eb794a", "is_reserved": 0, "name": "d6668bc511a7e6fb522184f9f6eb794a", "lat": 38.8963765, "fusion_lat": 0.0, "lon": -77.02674933333333, "is_disabled": 0, "fusion_lon": 0.0, "rental_uris": {"android": "https://dc.lft.to/lastmile_qr_scan", "ios": "https://dc.lft.to/lastmile_qr_scan"}, "type": "electric_scooter"}, {"bike_id": "6a4e4f0f4e5db5467fc5fa296ff5913b", "is_reserved": 0, "name": "6a4e4f0f4e5db5467fc5fa296ff5913b", "lat": 38.84531616666666, "fusion_lat": 0.0, "lon": -76.9813415, "is_disabled": 0, "fusion_lon": 0.0, "rental_uris": {"android": "https://dc.lft.to/lastmile_qr_scan", "ios": "https://dc.lft.to/lastmile_qr_scan"}, "type": "electric_bike"}, {"bike_id": "47fca9504d5f5a04dc5114aa1e480bc8", "is_reserved": 0, "name": "47fca9504d5f5a04dc5114aa1e480bc8", "lat": 38.916997333333335, "fusion_lat": 0.0, "lon": -77.0355465, "is_disabled": 0, "fusion_lon": 0.0, "rental_uris": {"android": "https://dc.lft.to/lastmile_qr_scan", "ios": "https://dc.lft.to/lastmile_qr_scan"}, "type": "electric_scooter"}, {"bike_id": "d203d999709b700e4cefd0a59cbf90a2", "is_reserved": 0, "name": "d203d999709b700e4cefd0a59cbf90a2", "lat": 38.857992, "fusion_lat": 0.0, "lon": -76.98732166666667, "is_disabled": 0, "fusion_lon": 0.0, "rental_uris": {"android": "https://dc.lft.to/lastmile_qr_scan", "ios": "https://dc.lft.to/lastmile_qr_scan"}, "type": "electric_bike"}, {"bike_id": "da3919d114eb51332c8a083c576c04d2", "is_reserved": 0, "name": "da3919d114eb51332c8a083c576c04d2", "lat": 38.902279166666666, "fusion_lat": 0.0, "lon": -77.02369666666667, "is_disabled": 0, "fusion_lon": 0.0, "rental_uris": {"android": "https://dc.lft.to/lastmile_qr_scan", "ios": "https://dc.lft.to/lastmile_qr_scan"}, "type": "electric_scooter"}, {"bike_id": "03393a8f56ecc85368dcf04401aca99c", "is_reserved": 0, "name": "03393a8f56ecc85368dcf04401aca99c", "lat": 38.8901405, "fusion_lat": 0.0, "lon": -76.937325, "is_disabled": 0, "fusion_lon": 0.0, "rental_uris": {"android": "https://dc.lft.to/lastmile_qr_scan", "ios": "https://dc.lft.to/lastmile_qr_scan"}, "type": "electric_scooter"}, {"bike_id": "a4ac9d093248e073d4fbaa4758f42995", "is_reserved": 0, "name": "a4ac9d093248e073d4fbaa4758f42995", "lat": 38.89544883333333, "fusion_lat": 0.0, "lon": -76.98334966666667, "is_disabled": 0, "fusion_lon": 0.0, "rental_uris": {"android": "https://dc.lft.to/lastmile_qr_scan", "ios": "https://dc.lft.to/lastmile_qr_scan"}, "type": "electric_scooter"}, {"bike_id": "06296b58617bf34b2791615e241bc8eb", "is_reserved": 0, "name": "06296b58617bf34b2791615e241bc8eb", "lat": 38.90079566666667, "fusion_lat": 0.0, "lon": -77.0514705, "is_disabled": 0, "fusion_lon": 0.0, "rental_uris": {"android": "https://dc.lft.to/lastmile_qr_scan", "ios": "https://dc.lft.to/lastmile_qr_scan"}, "type": "electric_scooter"}, {"bike_id": "32a4ff9c771e56a8247c448ea6dc4956", "is_reserved": 0, "name": "32a4ff9c771e56a8247c448ea6dc4956", "lat": 38.90062183333333, "fusion_lat": 0.0, "lon": -77.05075416666666, "is_disabled": 0, "fusion_lon": 0.0, "rental_uris": {"android": "https://dc.lft.to/lastmile_qr_scan", "ios": "https://dc.lft.to/lastmile_qr_scan"}, "type": "electric_scooter"}, {"bike_id": "7a7c6e2f1f0aa5439c1f173cba10ac41", "is_reserved": 0, "name": "7a7c6e2f1f0aa5439c1f173cba10ac41", "lat": 38.90127, "fusion_lat": 0.0, "lon": -77.044953, "is_disabled": 0, "fusion_lon": 0.0, "rental_uris": {"android": "https://dc.lft.to/lastmile_qr_scan", "ios": "https://dc.lft.to/lastmile_qr_scan"}, "type": "electric_scooter"}, {"bike_id": "6d7260fbc2bf2b1b245789e26c536565", "is_reserved": 0, "name": "6d7260fbc2bf2b1b245789e26c536565", "lat": 38.92176, "fusion_lat": 0.0, "lon": -77.03808716666667, "is_disabled": 0, "fusion_lon": 0.0, "rental_uris": {"android": "https://dc.lft.to/lastmile_qr_scan", "ios": "https://dc.lft.to/lastmile_qr_scan"}, "type": "electric_scooter"}, {"bike_id": "d271e46f3d88936222f01bbdbe3f364d", "is_reserved": 0, "name": "d271e46f3d88936222f01bbdbe3f364d", "lat": 38.90859, "fusion_lat": 0.0, "lon": -77.00367283333334, "is_disabled": 0, "fusion_lon": 0.0, "rental_uris": {"android": "https://dc.lft.to/lastmile_qr_scan", "ios": "https://dc.lft.to/lastmile_qr_scan"}, "type": "electric_scooter"}, {"bike_id": "7d65f31661137e65649edc6ac0a7441e", "is_reserved": 0, "name": "7d65f31661137e65649edc6ac0a7441e", "lat": 38.8962515, "fusion_lat": 0.0, "lon": -76.9984965, "is_disabled": 0, "fusion_lon": 0.0, "rental_uris": {"android": "https://dc.lft.to/lastmile_qr_scan", "ios": "https://dc.lft.to/lastmile_qr_scan"}, "type": "electric_scooter"}, {"bike_id": "559afa1f37970a9a52b57173ec354861", "is_reserved": 0, "name": "559afa1f37970a9a52b57173ec354861", "lat": 38.912969333333336, "fusion_lat": 0.0, "lon": -76.98476, "is_disabled": 0, "fusion_lon": 0.0, "rental_uris": {"android": "https://dc.lft.to/lastmile_qr_scan", "ios": "https://dc.lft.to/lastmile_qr_scan"}, "type": "electric_scooter"}, {"bike_id": "c7a612894b51debaeceaabc54b8b8b90", "is_reserved": 0, "name": "c7a612894b51debaeceaabc54b8b8b90", "lat": 38.883859666666666, "fusion_lat": 0.0, "lon": -77.019854, "is_disabled": 0, "fusion_lon": 0.0, "rental_uris": {"android": "https://dc.lft.to/lastmile_qr_scan", "ios": "https://dc.lft.to/lastmile_qr_scan"}, "type": "electric_scooter"}, {"bike_id": "e7b66468d24795663548a3159d1f16f3", "is_reserved": 0, "name": "e7b66468d24795663548a3159d1f16f3", "lat": 38.821736666666666, "fusion_lat": 0.0, "lon": -77.00147266666667, "is_disabled": 0, "fusion_lon": 0.0, "rental_uris": {"android": "https://dc.lft.to/lastmile_qr_scan", "ios": "https://dc.lft.to/lastmile_qr_scan"}, "type": "electric_bike"}, {"bike_id": "032fda6980f3296cf63c0e3829c986ba", "is_reserved": 0, "name": "032fda6980f3296cf63c0e3829c986ba", "lat": 38.900333333333336, "fusion_lat": 0.0, "lon": -76.99135133333333, "is_disabled": 0, "fusion_lon": 0.0, "rental_uris": {"android": "https://dc.lft.to/lastmile_qr_scan", "ios": "https://dc.lft.to/lastmile_qr_scan"}, "type": "electric_scooter"}, {"bike_id": "8ac2535d5f496805d3b15a217e9ac88b", "is_reserved": 0, "name": "8ac2535d5f496805d3b15a217e9ac88b", "lat": 38.913034333333336, "fusion_lat": 0.0, "lon": -77.0268795, "is_disabled": 0, "fusion_lon": 0.0, "rental_uris": {"android": "https://dc.lft.to/lastmile_qr_scan", "ios": "https://dc.lft.to/lastmile_qr_scan"}, "type": "electric_scooter"}, {"bike_id": "f6e2dab564da774e4a6a0fc8c0ba7b8e", "is_reserved": 0, "name": "f6e2dab564da774e4a6a0fc8c0ba7b8e", "lat": 38.88104633333333, "fusion_lat": 0.0, "lon": -77.016515, "is_disabled": 0, "fusion_lon": 0.0, "rental_uris": {"android": "https://dc.lft.to/lastmile_qr_scan", "ios": "https://dc.lft.to/lastmile_qr_scan"}, "type": "electric_scooter"}, {"bike_id": "fef5e605cc18ca6ce5ee15daa27d1388", "is_reserved": 0, "name": "fef5e605cc18ca6ce5ee15daa27d1388", "lat": 38.901722666666664, "fusion_lat": 0.0, "lon": -77.02488566666666, "is_disabled": 0, "fusion_lon": 0.0, "rental_uris": {"android": "https://dc.lft.to/lastmile_qr_scan", "ios": "https://dc.lft.to/lastmile_qr_scan"}, "type": "electric_scooter"}, {"bike_id": "fe7bcfb2cdd59964114882973cd094a9", "is_reserved": 0, "name": "fe7bcfb2cdd59964114882973cd094a9", "lat": 38.90062483333333, "fusion_lat": 0.0, "lon": -76.93383933333334, "is_disabled": 0, "fusion_lon": 0.0, "rental_uris": {"android": "https://dc.lft.to/lastmile_qr_scan", "ios": "https://dc.lft.to/lastmile_qr_scan"}, "type": "electric_scooter"}, {"bike_id": "081271cc0bbbb76522df129f44dcb60c", "is_reserved": 0, "name": "081271cc0bbbb76522df129f44dcb60c", "lat": 38.898318333333336, "fusion_lat": 0.0, "lon": -76.94635316666667, "is_disabled": 0, "fusion_lon": 0.0, "rental_uris": {"android": "https://dc.lft.to/lastmile_qr_scan", "ios": "https://dc.lft.to/lastmile_qr_scan"}, "type": "electric_scooter"}, {"bike_id": "91e4f10ff82c2b993e42783cce6d9239", "is_reserved": 0, "name": "91e4f10ff82c2b993e42783cce6d9239", "lat": 38.91720933333333, "fusion_lat": 0.0, "lon": -77.02533, "is_disabled": 0, "fusion_lon": 0.0, "rental_uris": {"android": "https://dc.lft.to/lastmile_qr_scan", "ios": "https://dc.lft.to/lastmile_qr_scan"}, "type": "electric_scooter"}, {"bike_id": "78a8d90411dc2f314d74804fb94ceed8", "is_reserved": 0, "name": "78a8d90411dc2f314d74804fb94ceed8", "lat": 38.91694616666667, "fusion_lat": 0.0, "lon": -77.030363, "is_disabled": 0, "fusion_lon": 0.0, "rental_uris": {"android": "https://dc.lft.to/lastmile_qr_scan", "ios": "https://dc.lft.to/lastmile_qr_scan"}, "type": "electric_scooter"}, {"bike_id": "e6f96a1964aa7616f3d800df582576da", "is_reserved": 0, "name": "e6f96a1964aa7616f3d800df582576da", "lat": 38.92192816666667, "fusion_lat": 0.0, "lon": -76.99696783333333, "is_disabled": 0, "fusion_lon": 0.0, "rental_uris": {"android": "https://dc.lft.to/lastmile_qr_scan", "ios": "https://dc.lft.to/lastmile_qr_scan"}, "type": "electric_scooter"}, {"bike_id": "b41de5e167e497c6544534faf590a84c", "is_reserved": 0, "name": "b41de5e167e497c6544534faf590a84c", "lat": 38.917461833333334, "fusion_lat": 0.0, "lon": -77.041555, "is_disabled": 0, "fusion_lon": 0.0, "rental_uris": {"android": "https://dc.lft.to/lastmile_qr_scan", "ios": "https://dc.lft.to/lastmile_qr_scan"}, "type": "electric_scooter"}, {"bike_id": "2f65fdd0d891484a84af4cb001fc395a", "is_reserved": 0, "name": "2f65fdd0d891484a84af4cb001fc395a", "lat": 38.876440833333334, "fusion_lat": 0.0, "lon": -77.0006205, "is_disabled": 0, "fusion_lon": 0.0, "rental_uris": {"android": "https://dc.lft.to/lastmile_qr_scan", "ios": "https://dc.lft.to/lastmile_qr_scan"}, "type": "electric_scooter"}, {"bike_id": "7e68dbc88476132a3a284057030273a7", "is_reserved": 0, "name": "7e68dbc88476132a3a284057030273a7", "lat": 38.923786166666666, "fusion_lat": 0.0, "lon": -77.03538983333333, "is_disabled": 0, "fusion_lon": 0.0, "rental_uris": {"android": "https://dc.lft.to/lastmile_qr_scan", "ios": "https://dc.lft.to/lastmile_qr_scan"}, "type": "electric_scooter"}, {"bike_id": "c77332f6460039feef2099cd115a32b6", "is_reserved": 0, "name": "c77332f6460039feef2099cd115a32b6", "lat": 38.84756383333333, "fusion_lat": 0.0, "lon": -76.99497533333333, "is_disabled": 0, "fusion_lon": 0.0, "rental_uris": {"android": "https://dc.lft.to/lastmile_qr_scan", "ios": "https://dc.lft.to/lastmile_qr_scan"}, "type": "electric_scooter"}, {"bike_id": "7485fca01f42744d307bcf5555e48887", "is_reserved": 0, "name": "7485fca01f42744d307bcf5555e48887", "lat": 38.923452833333336, "fusion_lat": 0.0, "lon": -77.05177633333334, "is_disabled": 0, "fusion_lon": 0.0, "rental_uris": {"android": "https://dc.lft.to/lastmile_qr_scan", "ios": "https://dc.lft.to/lastmile_qr_scan"}, "type": "electric_scooter"}, {"bike_id": "32062d10104cb8ea20f1f25b06f07137", "is_reserved": 0, "name": "32062d10104cb8ea20f1f25b06f07137", "lat": 38.922245, "fusion_lat": 0.0, "lon": -77.02114733333333, "is_disabled": 0, "fusion_lon": 0.0, "rental_uris": {"android": "https://dc.lft.to/lastmile_qr_scan", "ios": "https://dc.lft.to/lastmile_qr_scan"}, "type": "electric_scooter"}, {"bike_id": "72dff6d7b5fad9c9a7262b40f6f4d02a", "is_reserved": 0, "name": "72dff6d7b5fad9c9a7262b40f6f4d02a", "lat": 38.901364, "fusion_lat": 0.0, "lon": -77.02607333333333, "is_disabled": 0, "fusion_lon": 0.0, "rental_uris": {"android": "https://dc.lft.to/lastmile_qr_scan", "ios": "https://dc.lft.to/lastmile_qr_scan"}, "type": "electric_scooter"}, {"bike_id": "bd5764f7c369c927032666ded40ea773", "is_reserved": 0, "name": "bd5764f7c369c927032666ded40ea773", "lat": 38.916759666666664, "fusion_lat": 0.0, "lon": -77.01577233333333, "is_disabled": 0, "fusion_lon": 0.0, "rental_uris": {"android": "https://dc.lft.to/lastmile_qr_scan", "ios": "https://dc.lft.to/lastmile_qr_scan"}, "type": "electric_scooter"}, {"bike_id": "5f59e725b20527282862aa199d8a748c", "is_reserved": 0, "name": "5f59e725b20527282862aa199d8a748c", "lat": 38.90339766666666, "fusion_lat": 0.0, "lon": -77.062734, "is_disabled": 0, "fusion_lon": 0.0, "rental_uris": {"android": "https://dc.lft.to/lastmile_qr_scan", "ios": "https://dc.lft.to/lastmile_qr_scan"}, "type": "electric_scooter"}, {"bike_id": "530cd42b7d5c984e3eb9889027e93263", "is_reserved": 0, "name": "530cd42b7d5c984e3eb9889027e93263", "lat": 38.9389595, "fusion_lat": 0.0, "lon": -77.08490583333334, "is_disabled": 0, "fusion_lon": 0.0, "rental_uris": {"android": "https://dc.lft.to/lastmile_qr_scan", "ios": "https://dc.lft.to/lastmile_qr_scan"}, "type": "electric_scooter"}, {"bike_id": "e43c055982df5ecdd7edc8598198ed36", "is_reserved": 0, "name": "e43c055982df5ecdd7edc8598198ed36", "lat": 38.89547916666667, "fusion_lat": 0.0, "lon": -76.980906, "is_disabled": 0, "fusion_lon": 0.0, "rental_uris": {"android": "https://dc.lft.to/lastmile_qr_scan", "ios": "https://dc.lft.to/lastmile_qr_scan"}, "type": "electric_scooter"}, {"bike_id": "ab907418a83744353e60eeff14b7b6d6", "is_reserved": 0, "name": "ab907418a83744353e60eeff14b7b6d6", "lat": 38.86981333333333, "fusion_lat": 0.0, "lon": -77.0136935, "is_disabled": 0, "fusion_lon": 0.0, "rental_uris": {"android": "https://dc.lft.to/lastmile_qr_scan", "ios": "https://dc.lft.to/lastmile_qr_scan"}, "type": "electric_scooter"}, {"bike_id": "f179e893b3f3584aede4f4c5fd40138e", "is_reserved": 0, "name": "f179e893b3f3584aede4f4c5fd40138e", "lat": 38.89015083333334, "fusion_lat": 0.0, "lon": -76.93731216666667, "is_disabled": 0, "fusion_lon": 0.0, "rental_uris": {"android": "https://dc.lft.to/lastmile_qr_scan", "ios": "https://dc.lft.to/lastmile_qr_scan"}, "type": "electric_scooter"}, {"bike_id": "834ccb4a6e2926739ee0a0946a875cfd", "is_reserved": 0, "name": "834ccb4a6e2926739ee0a0946a875cfd", "lat": 38.8949995, "fusion_lat": 0.0, "lon": -77.03955533333334, "is_disabled": 0, "fusion_lon": 0.0, "rental_uris": {"android": "https://dc.lft.to/lastmile_qr_scan", "ios": "https://dc.lft.to/lastmile_qr_scan"}, "type": "electric_scooter"}, {"bike_id": "5fc8be23841eee3596858ddd270839a9", "is_reserved": 0, "name": "5fc8be23841eee3596858ddd270839a9", "lat": 38.908793833333334, "fusion_lat": 0.0, "lon": -77.038436, "is_disabled": 0, "fusion_lon": 0.0, "rental_uris": {"android": "https://dc.lft.to/lastmile_qr_scan", "ios": "https://dc.lft.to/lastmile_qr_scan"},