{"data": {"bikes": [{"rental_uris": {"ios": "https://dc.lft.to/lastmile_qr_scan", "android": "https://dc.lft.to/lastmile_qr_scan"}, "lat": 38.90795166666667, "is_disabled": 0, "bike_id": "8f9b4bce0def762a8963bc2f569f9ec6", "name": "8f9b4bce0def762a8963bc2f569f9ec6", "type": "electric_scooter", "fusion_lon": 0.0, "is_reserved": 0, "fusion_lat": 0.0, "lon": -76.94120933333333}, {"rental_uris": {"ios": "https://dc.lft.to/lastmile_qr_scan", "android": "https://dc.lft.to/lastmile_qr_scan"}, "lat": 38.8923525, "is_disabled": 0, "bike_id": "015e5443794b0b9e89835eaa19697217", "name": "015e5443794b0b9e89835eaa19697217", "type": "electric_scooter", "fusion_lon": 0.0, "is_reserved": 0, "fusion_lat": 0.0, "lon": -77.0282835}, {"rental_uris": {"ios": "https://dc.lft.to/lastmile_qr_scan", "android": "https://dc.lft.to/lastmile_qr_scan"}, "lat": 38.9087185, "is_disabled": 0, "bike_id": "05d9684957eb49403d59b3e299b10bc2", "name": "05d9684957eb49403d59b3e299b10bc2", "type": "electric_scooter", "fusion_lon": 0.0, "is_reserved": 0, "fusion_lat": 0.0, "lon": -77.022911}, {"rental_uris": {"ios": "https://dc.lft.to/lastmile_qr_scan", "android": "https://dc.lft.to/lastmile_qr_scan"}, "lat": 38.917027833333336, "is_disabled": 0, "bike_id": "66f3d64415083d75a1c48db5451c188d", "name": "66f3d64415083d75a1c48db5451c188d", "type": "electric_scooter", "fusion_lon": 0.0, "is_reserved": 0, "fusion_lat": 0.0, "lon": -77.0294735}, {"rental_uris": {"ios": "https://dc.lft.to/lastmile_qr_scan", "android": "https://dc.lft.to/lastmile_qr_scan"}, "lat": 38.90442266666667, "is_disabled": 0, "bike_id": "bba37e19954e193444b8aa3779ed62f0", "name": "bba37e19954e193444b8aa3779ed62f0", "type": "electric_scooter", "fusion_lon": 0.0, "is_reserved": 0, "fusion_lat": 0.0, "lon": -77.05154116666667}, {"rental_uris": {"ios": "https://dc.lft.to/lastmile_qr_scan", "android": "https://dc.lft.to/lastmile_qr_scan"}, "lat": 38.929049, "is_disabled": 0, "bike_id": "6484921183692673455cdd07be1d7d4b", "name": "6484921183692673455cdd07be1d7d4b", "type": "electric_scooter", "fusion_lon": 0.0, "is_reserved": 0, "fusion_lat": 0.0, "lon": -77.0637885}, {"rental_uris": {"ios": "https://dc.lft.to/lastmile_qr_scan", "android": "https://dc.lft.to/lastmile_qr_scan"}, "lat": 38.926118833333334, "is_disabled": 0, "bike_id": "1364c599c7f78853884459e05d9d6c97", "name": "1364c599c7f78853884459e05d9d6c97", "type": "electric_scooter", "fusion_lon": 0.0, "is_reserved": 0, "fusion_lat": 0.0, "lon": -77.02162583333333}, {"rental_uris": {"ios": "https://dc.lft.to/lastmile_qr_scan", "android": "https://dc.lft.to/lastmile_qr_scan"}, "lat": 38.939069333333336, "is_disabled": 0, "bike_id": "9f66f2f2af9b2fa7473c161c64c92d55", "name": "9f66f2f2af9b2fa7473c161c64c92d55", "type": "electric_scooter", "fusion_lon": 0.0, "is_reserved": 0, "fusion_lat": 0.0, "lon": -77.060394}, {"rental_uris": {"ios": "https://dc.lft.to/lastmile_qr_scan", "android": "https://dc.lft.to/lastmile_qr_scan"}, "lat": 38.88450316666667, "is_disabled": 0, "bike_id": "82f747164300678b45d9399d2475bf09", "name": "82f747164300678b45d9399d2475bf09", "type": "electric_scooter", "fusion_lon": 0.0, "is_reserved": 0, "fusion_lat": 0.0, "lon": -76.99586033333334}, {"rental_uris": {"ios": "https://dc.lft.to/lastmile_qr_scan", "android": "https://dc.lft.to/lastmile_qr_scan"}, "lat": 38.90466216666667, "is_disabled": 0, "bike_id": "77e05541cd9fd7368e4f0fa176c1e430", "name": "77e05541cd9fd7368e4f0fa176c1e430", "type": "electric_scooter", "fusion_lon": 0.0, "is_reserved": 0, "fusion_lat": 0.0, "lon": -77.00733166666667}, {"rental_uris": {"ios": "https://dc.lft.to/lastmile_qr_scan", "android": "https://dc.lft.to/lastmile_qr_scan"}, "lat": 38.89231433333333, "is_disabled": 0, "bike_id": "63b8994374d8db019f9fa60638adbbaf", "name": "63b8994374d8db019f9fa60638adbbaf", "type": "electric_scooter", "fusion_lon": 0.0, "is_reserved": 0, "fusion_lat": 0.0, "lon": -77.0282945}, {"rental_uris": {"ios": "https://dc.lft.to/lastmile_qr_scan", "android": "https://dc.lft.to/lastmile_qr_scan"}, "lat": 38.906454, "is_disabled": 0, "bike_id": "14f5bc94af493b125c89b3c533d961c2", "name": "14f5bc94af493b125c89b3c533d961c2", "type": "electric_scooter", "fusion_lon": 0.0, "is_reserved": 0, "fusion_lat": 0.0, "lon": -77.01792}, {"rental_uris": {"ios": "https://dc.lft.to/lastmile_qr_scan", "android": "https://dc.lft.to/lastmile_qr_scan"}, "lat": 38.90054516666667, "is_disabled": 0, "bike_id": "822e02a0583ce8364e5b3e29178cdd0d", "name": "822e02a0583ce8364e5b3e29178cdd0d", "type": "electric_scooter", "fusion_lon": 0.0, "is_reserved": 0, "fusion_lat": 0.0, "lon": -77.04824033333334}, {"rental_uris": {"ios": "https://dc.lft.to/lastmile_qr_scan", "android": "https://dc.lft.to/lastmile_qr_scan"}, "lat": 38.927482833333336, "is_disabled": 0, "bike_id": "fa185acec46673bb2eb71d8c70201cea", "name": "fa185acec46673bb2eb71d8c70201cea", "type": "electric_scooter", "fusion_lon": 0.0, "is_reserved": 0, "fusion_lat": 0.0, "lon": -77.02542266666667}, {"rental_uris": {"ios": "https://dc.lft.to/lastmile_qr_scan", "android": "https://dc.lft.to/lastmile_qr_scan"}, "lat": 38.8745535, "is_disabled": 0, "bike_id": "9fb3de34a6d8986f076515d65a7bd748", "name": "9fb3de34a6d8986f076515d65a7bd748", "type": "electric_scooter", "fusion_lon": 0.0, "is_reserved": 0, "fusion_lat": 0.0, "lon": -77.00601383333333}, {"rental_uris": {"ios": "https://dc.lft.to/lastmile_qr_scan", "android": "https://dc.lft.to/lastmile_qr_scan"}, "lat": 38.8922535, "is_disabled": 0, "bike_id": "2d0045c6fc6beabbc37532f0a3840bb0", "name": "2d0045c6fc6beabbc37532f0a3840bb0", "type": "electric_scooter", "fusion_lon": 0.0, "is_reserved": 0, "fusion_lat": 0.0, "lon": -77.05005883333334}, {"rental_uris": {"ios": "https://dc.lft.to/lastmile_qr_scan", "android": "https://dc.lft.to/lastmile_qr_scan"}, "lat": 38.933292, "is_disabled": 0, "bike_id": "c825df13eed2481f128f6af3487cb615", "name": "c825df13eed2481f128f6af3487cb615", "type": "electric_scooter", "fusion_lon": 0.0, "is_reserved": 0, "fusion_lat": 0.0, "lon": -77.023506}, {"rental_uris": {"ios": "https://dc.lft.to/lastmile_qr_scan", "android": "https://dc.lft.to/lastmile_qr_scan"}, "lat": 38.92566266666667, "is_disabled": 0, "bike_id": "79005cc73bdc7d306d1bbcb2ad6dc9a6", "name": "79005cc73bdc7d306d1bbcb2ad6dc9a6", "type": "electric_scooter", "fusion_lon": 0.0, "is_reserved": 0, "fusion_lat": 0.0, "lon": -77.03083483333333}, {"rental_uris": {"ios": "https://dc.lft.to/lastmile_qr_scan", "android": "https://dc.lft.to/lastmile_qr_scan"}, "lat": 38.92989083333333, "is_disabled": 0, "bike_id": "ea203dd14c87a85c3d9343bd49f46fe9", "name": "ea203dd14c87a85c3d9343bd49f46fe9", "type": "electric_scooter", "fusion_lon": 0.0, "is_reserved": 0, "fusion_lat": 0.0, "lon": -77.02347566666667}, {"rental_uris": {"ios": "https://dc.lft.to/lastmile_qr_scan", "android": "https://dc.lft.to/lastmile_qr_scan"}, "lat": 38.921251166666664, "is_disabled": 0, "bike_id": "4ae81ef463936e41358e89508f0ee193", "name": "4ae81ef463936e41358e89508f0ee193", "type": "electric_scooter", "fusion_lon": 0.0, "is_reserved": 0, "fusion_lat": 0.0, "lon": -77.04607833333333}, {"rental_uris": {"ios": "https://dc.lft.to/lastmile_qr_scan", "android": "https://dc.lft.to/lastmile_qr_scan"}, "lat": 38.93512483333333, "is_disabled": 0, "bike_id": "ac928882163eb86c10ee058794d35ed7", "name": "ac928882163eb86c10ee058794d35ed7", "type": "electric_scooter", "fusion_lon": 0.0, "is_reserved": 0, "fusion_lat": 0.0, "lon": -77.02548066666667}, {"rental_uris": {"ios": "https://dc.lft.to/lastmile_qr_scan", "android": "https://dc.lft.to/lastmile_qr_scan"}, "lat": 38.985599666666666, "is_disabled": 0, "bike_id": "29504d740b2dfd419ecce62ccd00cdc1", "name": "29504d740b2dfd419ecce62ccd00cdc1", "type": "electric_bike", "fusion_lon": 0.0, "is_reserved": 0, "fusion_lat": 0.0, "lon": -76.98829416666666}, {"rental_uris": {"ios": "https://dc.lft.to/lastmile_qr_scan", "android": "https://dc.lft.to/lastmile_qr_scan"}, "lat": 38.904075, "is_disabled": 0, "bike_id": "7c73c8570053b11daa04e6221364f41c", "name": "7c73c8570053b11daa04e6221364f41c", "type": "electric_scooter", "fusion_lon": 0.0, "is_reserved": 0, "fusion_lat": 0.0, "lon": -77.02679916666666}, {"rental_uris": {"ios": "https://dc.lft.to/lastmile_qr_scan", "android": "https://dc.lft.to/lastmile_qr_scan"}, "lat": 38.910895333333336, "is_disabled": 0, "bike_id": "0910d4dcfba0e02e3b30145f0420c01a", "name": "0910d4dcfba0e02e3b30145f0420c01a", "type": "electric_scooter", "fusion_lon": 0.0, "is_reserved": 0, "fusion_lat": 0.0, "lon": -77.04404883333333}, {"rental_uris": {"ios": "https://dc.lft.to/lastmile_qr_scan", "android": "https://dc.lft.to/lastmile_qr_scan"}, "lat": 38.91554716666667, "is_disabled": 0, "bike_id": "8b871078bb91ee1e890642d72edf942e", "name": "8b871078bb91ee1e890642d72edf942e", "type": "electric_scooter", "fusion_lon": 0.0, "is_reserved": 0, "fusion_lat": 0.0, "lon": -77.00832866666667}, {"rental_uris": {"ios": "https://dc.lft.to/lastmile_qr_scan", "android": "https://dc.lft.to/lastmile_qr_scan"}, "lat": 38.9265085, "is_disabled": 0, "bike_id": "8d3b0867cddbfa7db272bf40e5911c5b", "name": "8d3b0867cddbfa7db272bf40e5911c5b", "type": "electric_scooter", "fusion_lon": 0.0, "is_reserved": 0, "fusion_lat": 0.0, "lon": -77.0405655}, {"rental_uris": {"ios": "https://dc.lft.to/lastmile_qr_scan", "android": "https://dc.lft.to/lastmile_qr_scan"}, "lat": 38.8979875, "is_disabled": 0, "bike_id": "add167295125880f2c55e5b4766bfe5d", "name": "add167295125880f2c55e5b4766bfe5d", "type": "electric_scooter", "fusion_lon": 0.0, "is_reserved": 0, "fusion_lat": 0.0, "lon": -77.0271765}, {"rental_uris": {"ios": "https://dc.lft.to/lastmile_qr_scan", "android": "https://dc.lft.to/lastmile_qr_scan"}, "lat": 38.901142666666665, "is_disabled": 0, "bike_id": "046206730c3e6b0bb4cfbe1e4c8c0f97", "name": "046206730c3e6b0bb4cfbe1e4c8c0f97", "type": "electric_scooter", "fusion_lon": 0.0, "is_reserved": 0, "fusion_lat": 0.0, "lon": -77.0326035}, {"rental_uris": {"ios": "https://dc.lft.to/lastmile_qr_scan", "android": "https://dc.lft.to/lastmile_qr_scan"}, "lat": 38.923103166666664, "is_disabled": 0, "bike_id": "bcc8a87047844ad6274baf7c58ed4cde", "name": "bcc8a87047844ad6274baf7c58ed4cde", "type": "electric_scooter", "fusion_lon": 0.0, "is_reserved": 0, "fusion_lat": 0.0, "lon": -77.04638183333333}, {"rental_uris": {"ios": "https://dc.lft.to/lastmile_qr_scan", "android": "https://dc.lft.to/lastmile_qr_scan"}, "lat": 38.9163165, "is_disabled": 0, "bike_id": "9a72fca33b4d730f06658d43a31619bf", "name": "9a72fca33b4d730f06658d43a31619bf", "type": "electric_scooter", "fusion_lon": 0.0, "is_reserved": 0, "fusion_lat": 0.0, "lon": -77.02274183333333}, {"rental_uris": {"ios": "https://dc.lft.to/lastmile_qr_scan", "android": "https://dc.lft.to/lastmile_qr_scan"}, "lat": 38.936997166666664, "is_disabled": 0, "bike_id": "728f270b420b4b1da024a2b7a59dc3e7", "name": "728f270b420b4b1da024a2b7a59dc3e7", "type": "electric_scooter", "fusion_lon": 0.0, "is_reserved": 0, "fusion_lat": 0.0, "lon": -77.021193}, {"rental_uris": {"ios": "https://dc.lft.to/lastmile_qr_scan", "android": "https://dc.lft.to/lastmile_qr_scan"}, "lat": 38.92498916666667, "is_disabled": 0, "bike_id": "6cbacbde15a9fe89138e74e8e645041c", "name": "6cbacbde15a9fe89138e74e8e645041c", "type": "electric_scooter", "fusion_lon": 0.0, "is_reserved": 0, "fusion_lat": 0.0, "lon": -77.02703683333333}, {"rental_uris": {"ios": "https://dc.lft.to/lastmile_qr_scan", "android": "https://dc.lft.to/lastmile_qr_scan"}, "lat": 38.897351666666665, "is_disabled": 0, "bike_id": "38c7b1aafe1e5591f5035ffe87ec1891", "name": "38c7b1aafe1e5591f5035ffe87ec1891", "type": "electric_bike", "fusion_lon": 0.0, "is_reserved": 0, "fusion_lat": 0.0, "lon": -76.90536283333333}, {"rental_uris": {"ios": "https://dc.lft.to/lastmile_qr_scan", "android": "https://dc.lft.to/lastmile_qr_scan"}, "lat": 38.89302433333334, "is_disabled": 0, "bike_id": "b5e05a86f72cf0b55dfa39304c887f0b", "name": "b5e05a86f72cf0b55dfa39304c887f0b", "type": "electric_scooter", "fusion_lon": 0.0, "is_reserved": 0, "fusion_lat": 0.0, "lon": -77.02629266666666}, {"rental_uris": {"ios": "https://dc.lft.to/lastmile_qr_scan", "android": "https://dc.lft.to/lastmile_qr_scan"}, "lat": 38.944145, "is_disabled": 0, "bike_id": "68692e11fd307dd3b6bc9716b09006f5", "name": "68692e11fd307dd3b6bc9716b09006f5", "type": "electric_scooter", "fusion_lon": 0.0, "is_reserved": 0, "fusion_lat": 0.0, "lon": -77.05518683333334}, {"rental_uris": {"ios": "https://dc.lft.to/lastmile_qr_scan", "android": "https://dc.lft.to/lastmile_qr_scan"}, "lat": 38.9022885, "is_disabled": 0, "bike_id": "0ca03e82a022921c015fa2e611419172", "name": "0ca03e82a022921c015fa2e611419172", "type": "electric_scooter", "fusion_lon": 0.0, "is_reserved": 0, "fusion_lat": 0.0, "lon": -77.0327355}, {"rental_uris": {"ios": "https://dc.lft.to/lastmile_qr_scan", "android": "https://dc.lft.to/lastmile_qr_scan"}, "lat": 38.887451166666665, "is_disabled": 0, "bike_id": "627cefe6960763ffae6df3268480809f", "name": "627cefe6960763ffae6df3268480809f", "type": "electric_scooter", "fusion_lon": 0.0, "is_reserved": 0, "fusion_lat": 0.0, "lon": -77.02171966666667}, {"rental_uris": {"ios": "https://dc.lft.to/lastmile_qr_scan", "android": "https://dc.lft.to/lastmile_qr_scan"}, "lat": 38.94966633333333, "is_disabled": 0, "bike_id": "7903e59e2d36ef77cedf18cb6d1b8622", "name": "7903e59e2d36ef77cedf18cb6d1b8622", "type": "electric_bike", "fusion_lon": 0.0, "is_reserved": 0, "fusion_lat": 0.0, "lon": -76.96099833333334}, {"rental_uris": {"ios": "https://dc.lft.to/lastmile_qr_scan", "android": "https://dc.lft.to/lastmile_qr_scan"}, "lat": 38.90166933333333, "is_disabled": 0, "bike_id": "0f120384e7ceac64d4c98267cebdeaa8", "name": "0f120384e7ceac64d4c98267cebdeaa8", "type": "electric_scooter", "fusion_lon": 0.0, "is_reserved": 0, "fusion_lat": 0.0, "lon": -77.0228545}, {"rental_uris": {"ios": "https://dc.lft.to/lastmile_qr_scan", "android": "https://dc.lft.to/lastmile_qr_scan"}, "lat": 38.91483766666666, "is_disabled": 0, "bike_id": "0443a89fc239fae1eed74aa046a7c289", "name": "0443a89fc239fae1eed74aa046a7c289", "type": "electric_scooter", "fusion_lon": 0.0, "is_reserved": 0, "fusion_lat": 0.0, "lon": -77.04176033333333}, {"rental_uris": {"ios": "https://dc.lft.to/lastmile_qr_scan", "android": "https://dc.lft.to/lastmile_qr_scan"}, "lat": 38.83809016666667, "is_disabled": 0, "bike_id": "930a7c086557e38018cc73b20be47674", "name": "930a7c086557e38018cc73b20be47674", "type": "electric_bike", "fusion_lon": 0.0, "is_reserved": 0, "fusion_lat": 0.0, "lon": -77.09524783333333}, {"rental_uris": {"ios": "https://dc.lft.to/lastmile_qr_scan", "android": "https://dc.lft.to/lastmile_qr_scan"}, "lat": 38.92779983333333, "is_disabled": 0, "bike_id": "f54faba3bf62544e957a39800fa19447", "name": "f54faba3bf62544e957a39800fa19447", "type": "electric_scooter", "fusion_lon": 0.0, "is_reserved": 0, "fusion_lat": 0.0, "lon": -77.0558325}, {"rental_uris": {"ios": "https://dc.lft.to/lastmile_qr_scan", "android": "https://dc.lft.to/lastmile_qr_scan"}, "lat": 38.9077785, "is_disabled": 0, "bike_id": "28c83c647bd8380b7dbefaf0acbd3fc0", "name": "28c83c647bd8380b7dbefaf0acbd3fc0", "type": "electric_scooter", "fusion_lon": 0.0, "is_reserved": 0, "fusion_lat": 0.0, "lon": -77.0716865}, {"rental_uris": {"ios": "https://dc.lft.to/lastmile_qr_scan", "android": "https://dc.lft.to/lastmile_qr_scan"}, "lat": 38.892228833333334, "is_disabled": 0, "bike_id": "ba5e3ac9bc78b222b2c33e0c05087e1d", "name": "ba5e3ac9bc78b222b2c33e0c05087e1d", "type": "electric_scooter", "fusion_lon": 0.0, "is_reserved": 0, "fusion_lat": 0.0, "lon": -77.02843366666667}, {"rental_uris": {"ios": "https://dc.lft.to/lastmile_qr_scan", "android": "https://dc.lft.to/lastmile_qr_scan"}, "lat": 38.92131883333333, "is_disabled": 0, "bike_id": "d9a14e6d3490d661f1ccf82c462fbf97", "name": "d9a14e6d3490d661f1ccf82c462fbf97", "type": "electric_scooter", "fusion_lon": 0.0, "is_reserved": 0, "fusion_lat": 0.0, "lon": -77.0459115}, {"rental_uris": {"ios": "https://dc.lft.to/lastmile_qr_scan", "android": "https://dc.lft.to/lastmile_qr_scan"}, "lat": 38.92325866666667, "is_disabled": 0, "bike_id": "fcc5af25366b3d8496474ca87beffc33", "name": "fcc5af25366b3d8496474ca87beffc33", "type": "electric_scooter", "fusion_lon": 0.0, "is_reserved": 0, "fusion_lat": 0.0, "lon": -76.98627583333334}, {"rental_uris": {"ios": "https://dc.lft.to/lastmile_qr_scan", "android": "https://dc.lft.to/lastmile_qr_scan"}, "lat": 38.905594666666666, "is_disabled": 0, "bike_id": "13f6df2b35bd0e003d7e1c049671e8b9", "name": "13f6df2b35bd0e003d7e1c049671e8b9", "type": "electric_scooter", "fusion_lon": 0.0, "is_reserved": 0, "fusion_lat": 0.0, "lon": -77.03808516666666}, {"rental_uris": {"ios": "https://dc.lft.to/lastmile_qr_scan", "android": "https://dc.lft.to/lastmile_qr_scan"}, "lat": 38.907853833333334, "is_disabled": 0, "bike_id": "376968b3f1fc447290f2fc656eb70f3a", "name": "376968b3f1fc447290f2fc656eb70f3a", "type": "electric_scooter", "fusion_lon": 0.0, "is_reserved": 0, "fusion_lat": 0.0, "lon": -77.01107266666666}, {"rental_uris": {"ios": "https://dc.lft.to/lastmile_qr_scan", "android": "https://dc.lft.to/lastmile_qr_scan"}, "lat": 38.90434533333333, "is_disabled": 0, "bike_id": "4c2944982dce5694fb5030a1b760afce", "name": "4c2944982dce5694fb5030a1b760afce", "type": "electric_scooter", "fusion_lon": 0.0, "is_reserved": 0, "fusion_lat": 0.0, "lon": -77.043688}, {"rental_uris": {"ios": "https://dc.lft.to/lastmile_qr_scan", "android": "https://dc.lft.to/lastmile_qr_scan"}, "lat": 38.8842035, "is_disabled": 0, "bike_id": "e9b6ef5b28265141842d29c25f7ca49b", "name": "e9b6ef5b28265141842d29c25f7ca49b", "type": "electric_scooter", "fusion_lon": 0.0, "is_reserved": 0, "fusion_lat": 0.0, "lon": -76.9954925}, {"rental_uris": {"ios": "https://dc.lft.to/lastmile_qr_scan", "android": "https://dc.lft.to/lastmile_qr_scan"}, "lat": 38.89482983333333, "is_disabled": 0, "bike_id": "7d903cb2490956130578c5b1b22e6035", "name": "7d903cb2490956130578c5b1b22e6035", "type": "electric_scooter", "fusion_lon": 0.0, "is_reserved": 0, "fusion_lat": 0.0, "lon": -76.99516966666667}, {"rental_uris": {"ios": "https://dc.lft.to/lastmile_qr_scan", "android": "https://dc.lft.to/lastmile_qr_scan"}, "lat": 38.912529666666664, "is_disabled": 0, "bike_id": "c1180135219c485fc7061fdf25ee7432", "name": "c1180135219c485fc7061fdf25ee7432", "type": "electric_scooter", "fusion_lon": 0.0, "is_reserved": 0, "fusion_lat": 0.0, "lon": -77.00932733333333}, {"rental_uris": {"ios": "https://dc.lft.to/lastmile_qr_scan", "android": "https://dc.lft.to/lastmile_qr_scan"}, "lat": 38.905100166666664, "is_disabled": 0, "bike_id": "0b75d31986ac1b0b2baf91ab6d010605", "name": "0b75d31986ac1b0b2baf91ab6d010605", "type": "electric_scooter", "fusion_lon": 0.0, "is_reserved": 0, "fusion_lat": 0.0, "lon": -77.0408875}, {"rental_uris": {"ios": "https://dc.lft.to/lastmile_qr_scan", "android": "https://dc.lft.to/lastmile_qr_scan"}, "lat": 38.91323933333334, "is_disabled": 0, "bike_id": "0044085a37ea631977ce5b1c921f0552", "name": "0044085a37ea631977ce5b1c921f0552", "type": "electric_scooter", "fusion_lon": 0.0, "is_reserved": 0, "fusion_lat": 0.0, "lon": -77.0453905}, {"rental_uris": {"ios": "https://dc.lft.to/lastmile_qr_scan", "android": "https://dc.lft.to/lastmile_qr_scan"}, "lat": 38.9035605, "is_disabled": 0, "bike_id": "f7a63dba9645020167775485229e2fe5", "name": "f7a63dba9645020167775485229e2fe5", "type": "electric_scooter", "fusion_lon": 0.0, "is_reserved": 0, "fusion_lat": 0.0, "lon": -77.016937}, {"rental_uris": {"ios": "https://dc.lft.to/lastmile_qr_scan", "android": "https://dc.lft.to/lastmile_qr_scan"}, "lat": 38.9155195, "is_disabled": 0, "bike_id": "ccb719d4085f42634eb7382e8bd55f9a", "name": "ccb719d4085f42634eb7382e8bd55f9a", "type": "electric_scooter", "fusion_lon": 0.0, "is_reserved": 0, "fusion_lat": 0.0, "lon": -77.03461733333333}, {"rental_uris": {"ios": "https://dc.lft.to/lastmile_qr_scan", "android": "https://dc.lft.to/lastmile_qr_scan"}, "lat": 38.924772, "is_disabled": 0, "bike_id": "904953c435e9e8cc35ae7f005e130dc5", "name": "904953c435e9e8cc35ae7f005e130dc5", "type": "electric_scooter", "fusion_lon": 0.0, "is_reserved": 0, "fusion_lat": 0.0, "lon": -77.02794683333333}, {"rental_uris": {"ios": "https://dc.lft.to/lastmile_qr_scan", "android": "https://dc.lft.to/lastmile_qr_scan"}, "lat": 38.9143105, "is_disabled": 0, "bike_id": "c2ae9164e2048f8176f13d11e26c1a5a", "name": "c2ae9164e2048f8176f13d11e26c1a5a", "type": "electric_scooter", "fusion_lon": 0.0, "is_reserved": 0, "fusion_lat": 0.0, "lon": -77.02818}, {"rental_uris": {"ios": "https://dc.lft.to/lastmile_qr_scan", "android": "https://dc.lft.to/lastmile_qr_scan"}, "lat": 38.9059185, "is_disabled": 0, "bike_id": "a44da416f0ca88ea36e9af70de9837c2", "name": "a44da416f0ca88ea36e9af70de9837c2", "type": "electric_scooter", "fusion_lon": 0.0, "is_reserved": 0, "fusion_lat": 0.0, "lon": -77.00588016666667}, {"rental_uris": {"ios": "https://dc.lft.to/lastmile_qr_scan", "android": "https://dc.lft.to/lastmile_qr_scan"}, "lat": 38.865930666666664, "is_disabled": 0, "bike_id": "75a85bceadf35df60098b142e60e0ec4", "name": "75a85bceadf35df60098b142e60e0ec4", "type": "electric_bike", "fusion_lon": 0.0, "is_reserved": 0, "fusion_lat": 0.0, "lon": -76.93231166666666}, {"rental_uris": {"ios": "https://dc.lft.to/lastmile_qr_scan", "android": "https://dc.lft.to/lastmile_qr_scan"}, "lat": 38.95563816666667, "is_disabled": 0, "bike_id": "f70c583a81d6c8dcfff9628352b8c33a", "name": "f70c583a81d6c8dcfff9628352b8c33a", "type": "electric_scooter", "fusion_lon": 0.0, "is_reserved": 0, "fusion_lat": 0.0, "lon": -77.006331}, {"rental_uris": {"ios": "https://dc.lft.to/lastmile_qr_scan", "android": "https://dc.lft.to/lastmile_qr_scan"}, "lat": 38.94133333333333, "is_disabled": 0, "bike_id": "ff157de8dda48f68873e65b7eb0d4a45", "name": "ff157de8dda48f68873e65b7eb0d4a45", "type": "electric_scooter", "fusion_lon": 0.0, "is_reserved": 0, "fusion_lat": 0.0, "lon": -77.09205066666667}, {"rental_uris": {"ios": "https://dc.lft.to/lastmile_qr_scan", "android": "https://dc.lft.to/lastmile_qr_scan"}, "lat": 38.90071116666667, "is_disabled": 0, "bike_id": "10df919ddb36a426341d50308af12ac9", "name": "10df919ddb36a426341d50308af12ac9", "type": "electric_scooter", "fusion_lon": 0.0, "is_reserved": 0, "fusion_lat": 0.0, "lon": -77.0021175}, {"rental_uris": {"ios": "https://dc.lft.to/lastmile_qr_scan", "android": "https://dc.lft.to/lastmile_qr_scan"}, "lat": 38.9175895, "is_disabled": 0, "bike_id": "bea9bebd629dd5c587eb93e35de055a0", "name": "bea9bebd629dd5c587eb93e35de055a0", "type": "electric_scooter", "fusion_lon": 0.0, "is_reserved": 0, "fusion_lat": 0.0, "lon": -77.02490966666667}, {"rental_uris": {"ios": "https://dc.lft.to/lastmile_qr_scan", "android": "https://dc.lft.to/lastmile_qr_scan"}, "lat": 38.85217933333333, "is_disabled": 0, "bike_id": "9c275cc487adde1a028a210f34e237e8", "name": "9c275cc487adde1a028a210f34e237e8", "type": "electric_bike", "fusion_lon": 0.0, "is_reserved": 0, "fusion_lat": 0.0, "lon": -77.129598}, {"rental_uris": {"ios": "https://dc.lft.to/lastmile_qr_scan", "android": "https://dc.lft.to/lastmile_qr_scan"}, "lat": 38.91198816666667, "is_disabled": 0, "bike_id": "659c9b88b81c36d2a98a5cd0690c2448", "name": "659c9b88b81c36d2a98a5cd0690c2448", "type": "electric_scooter", "fusion_lon": 0.0, "is_reserved": 0, "fusion_lat": 0.0, "lon": -77.02955783333333}, {"rental_uris": {"ios": "https://dc.lft.to/lastmile_qr_scan", "android": "https://dc.lft.to/lastmile_qr_scan"}, "lat": 38.95325783333333, "is_disabled": 0, "bike_id": "60363eee71674e4450e60f06cbd79ca9", "name": "60363eee71674e4450e60f06cbd79ca9", "type": "electric_scooter", "fusion_lon": 0.0, "is_reserved": 0, "fusion_lat": 0.0, "lon": -77.01655366666667}, {"rental_uris": {"ios": "https://dc.lft.to/lastmile_qr_scan", "android": "https://dc.lft.to/lastmile_qr_scan"}, "lat": 38.922690333333335, "is_disabled": 0, "bike_id": "10a0c07ad46180d2f5926c0ef6c5a5e5", "name": "10a0c07ad46180d2f5926c0ef6c5a5e5", "type": "electric_scooter", "fusion_lon": 0.0, "is_reserved": 0, "fusion_lat": 0.0, "lon": -76.99765016666667}, {"rental_uris": {"ios": "https://dc.lft.to/lastmile_qr_scan", "android": "https://dc.lft.to/lastmile_qr_scan"}, "lat": 38.935697, "is_disabled": 0, "bike_id": "425138c9b94ffd8a10df136e3d532efd", "name": "425138c9b94ffd8a10df136e3d532efd", "type": "electric_bike", "fusion_lon": 0.0, "is_reserved": 0, "fusion_lat": 0.0, "lon": -76.9546635}, {"rental_uris": {"ios": "https://dc.lft.to/lastmile_qr_scan", "android": "https://dc.lft.to/lastmile_qr_scan"}, "lat": 38.863527500000004, "is_disabled": 0, "bike_id": "76364e40b4ae9aa13d84a8d34992b9c5", "name": "76364e40b4ae9aa13d84a8d34992b9c5", "type": "electric_scooter", "fusion_lon": 0.0, "is_reserved": 0, "fusion_lat": 0.0, "lon": -76.98266866666667}, {"rental_uris": {"ios": "https://dc.lft.to/lastmile_qr_scan", "android": "https://dc.lft.to/lastmile_qr_scan"}, "lat": 38.938614, "is_disabled": 0, "bike_id": "792c283cb04d315849181218153c0ee3", "name": "792c283cb04d315849181218153c0ee3", "type": "electric_bike", "fusion_lon": 0.0, "is_reserved": 0, "fusion_lat": 0.0, "lon": -77.04229116666667}, {"rental_uris": {"ios": "https://dc.lft.to/lastmile_qr_scan", "android": "https://dc.lft.to/lastmile_qr_scan"}, "lat": 38.9300645, "is_disabled": 0, "bike_id": "9930f29bcef9e1b515b2655536455bc4", "name": "9930f29bcef9e1b515b2655536455bc4", "type": "electric_scooter", "fusion_lon": 0.0, "is_reserved": 0, "fusion_lat": 0.0, "lon": -77.03239366666666}, {"rental_uris": {"ios": "https://dc.lft.to/lastmile_qr_scan", "android": "https://dc.lft.to/lastmile_qr_scan"}, "lat": 38.929627833333335, "is_disabled": 0, "bike_id": "8d9b425b785a3407e5e68d706985daa9", "name": "8d9b425b785a3407e5e68d706985daa9", "type": "electric_scooter", "fusion_lon": 0.0, "is_reserved": 0, "fusion_lat": 0.0, "lon": -77.05525433333334}, {"rental_uris": {"ios": "https://dc.lft.to/lastmile_qr_scan", "android": "https://dc.lft.to/lastmile_qr_scan"}, "lat": 38.9078145, "is_disabled": 0, "bike_id": "8ee3630a4900b7c3a64e1828fd46db4c", "name": "8ee3630a4900b7c3a64e1828fd46db4c", "type": "electric_scooter", "fusion_lon": 0.0, "is_reserved": 0, "fusion_lat": 0.0, "lon": -77.02696316666666}, {"rental_uris": {"ios": "https://dc.lft.to/lastmile_qr_scan", "android": "https://dc.lft.to/lastmile_qr_scan"}, "lat": 38.8933175, "is_disabled": 0, "bike_id": "aa4b5efa01d04cae82bf9f958039bb22", "name": "aa4b5efa01d04cae82bf9f958039bb22", "type": "electric_scooter", "fusion_lon": 0.0, "is_reserved": 0, "fusion_lat": 0.0, "lon": -77.01211116666667}, {"rental_uris": {"ios": "https://dc.lft.to/lastmile_qr_scan", "android": "https://dc.lft.to/lastmile_qr_scan"}, "lat": 38.91673, "is_disabled": 0, "bike_id": "888990b5fa1dd523906407a7fa1e013a", "name": "888990b5fa1dd523906407a7fa1e013a", "type": "electric_scooter", "fusion_lon": 0.0, "is_reserved": 0, "fusion_lat": 0.0, "lon": -77.02393833333333}, {"rental_uris": {"ios": "https://dc.lft.to/lastmile_qr_scan", "android": "https://dc.lft.to/lastmile_qr_scan"}, "lat": 38.8690675, "is_disabled": 0, "bike_id": "f4185a052eb37fdfa1522ae8e5ebf1c4", "name": "f4185a052eb37fdfa1522ae8e5ebf1c4", "type": "electric_bike", "fusion_lon": 0.0, "is_reserved": 0, "fusion_lat": 0.0, "lon": -77.13179266666667}, {"rental_uris": {"ios": "https://dc.lft.to/lastmile_qr_scan", "android": "https://dc.lft.to/lastmile_qr_scan"}, "lat": 38.880478, "is_disabled": 0, "bike_id": "5724c4c89c27e2ea165304f11648430f", "name": "5724c4c89c27e2ea165304f11648430f", "type": "electric_scooter", "fusion_lon": 0.0, "is_reserved": 0, "fusion_lat": 0.0, "lon": -77.03066833333334}, {"rental_uris": {"ios": "https://dc.lft.to/lastmile_qr_scan", "android": "https://dc.lft.to/lastmile_qr_scan"}, "lat": 38.905218, "is_disabled": 0, "bike_id": "368ab8fa8f75d9b383d785c16f27e934", "name": "368ab8fa8f75d9b383d785c16f27e934", "type": "electric_scooter", "fusion_lon": 0.0, "is_reserved": 0, "fusion_lat": 0.0, "lon": -77.04772983333334}, {"rental_uris": {"ios": "https://dc.lft.to/lastmile_qr_scan", "android": "https://dc.lft.to/lastmile_qr_scan"}, "lat": 38.910993, "is_disabled": 0, "bike_id": "f895723124eb47740ef1db081e1f8871", "name": "f895723124eb47740ef1db081e1f8871", "type": "electric_scooter", "fusion_lon": 0.0, "is_reserved": 0, "fusion_lat": 0.0, "lon": -77.02802683333333}, {"rental_uris": {"ios": "https://dc.lft.to/lastmile_qr_scan", "android": "https://dc.lft.to/lastmile_qr_scan"}, "lat": 38.91688033333333, "is_disabled": 0, "bike_id": "22024cd866dd42cf0f6b298de732d8a5", "name": "22024cd866dd42cf0f6b298de732d8a5", "type": "electric_scooter", "fusion_lon": 0.0, "is_reserved": 0, "fusion_lat": 0.0, "lon": -77.0295255}, {"rental_uris": {"ios": "https://dc.lft.to/lastmile_qr_scan", "android": "https://dc.lft.to/lastmile_qr_scan"}, "lat": 38.879046333333335, "is_disabled": 0, "bike_id": "6ad3d864f8137aa9b43c8c9162695368", "name": "6ad3d864f8137aa9b43c8c9162695368", "type": "electric_scooter", "fusion_lon": 0.0, "is_reserved": 0, "fusion_lat": 0.0, "lon": -76.9914975}, {"rental_uris": {"ios": "https://dc.lft.to/lastmile_qr_scan", "android": "https://dc.lft.to/lastmile_qr_scan"}, "lat": 38.912350333333336, "is_disabled": 0, "bike_id": "e54df753db91db6d235b9ee68c49ca88", "name": "e54df753db91db6d235b9ee68c49ca88", "type": "electric_scooter", "fusion_lon": 0.0, "is_reserved": 0, "fusion_lat": 0.0, "lon": -77.045196}, {"rental_uris": {"ios": "https://dc.lft.to/lastmile_qr_scan", "android": "https://dc.lft.to/lastmile_qr_scan"}, "lat": 38.8987725, "is_disabled": 0, "bike_id": "b9116575561ad57806b85849f1994b2b", "name": "b9116575561ad57806b85849f1994b2b", "type": "electric_scooter", "fusion_lon": 0.0, "is_reserved": 0, "fusion_lat": 0.0, "lon": -76.92958466666667}, {"rental_uris": {"ios": "https://dc.lft.to/lastmile_qr_scan", "android": "https://dc.lft.to/lastmile_qr_scan"}, "lat": 38.92946533333333, "is_disabled": 0, "bike_id": "e51a001a17ac7ba965370fe29a932bae", "name": "e51a001a17ac7ba965370fe29a932bae", "type": "electric_scooter", "fusion_lon": 0.0, "is_reserved": 0, "fusion_lat": 0.0, "lon": -77.034245}, {"rental_uris": {"ios": "https://dc.lft.to/lastmile_qr_scan", "android": "https://dc.lft.to/lastmile_qr_scan"}, "lat": 38.9211485, "is_disabled": 0, "bike_id": "98ff13e8f44986f326e5c8ca8682e073", "name": "98ff13e8f44986f326e5c8ca8682e073", "type": "electric_scooter", "fusion_lon": 0.0, "is_reserved": 0, "fusion_lat": 0.0, "lon": -77.04441466666667}, {"rental_uris": {"ios": "https://dc.lft.to/lastmile_qr_scan", "android": "https://dc.lft.to/lastmile_qr_scan"}, "lat": 38.897298, "is_disabled": 0, "bike_id": "63146e8e75c015d2608c8a1872539c59", "name": "63146e8e75c015d2608c8a1872539c59", "type": "electric_scooter", "fusion_lon": 0.0, "is_reserved": 0, "fusion_lat": 0.0, "lon": -77.003822}, {"rental_uris": {"ios": "https://dc.lft.to/lastmile_qr_scan", "android": "https://dc.lft.to/lastmile_qr_scan"}, "lat": 38.99671216666667, "is_disabled": 0, "bike_id": "63157baca24115b5f70ed1abc519e7f9", "name": "63157baca24115b5f70ed1abc519e7f9", "type": "electric_bike", "fusion_lon": 0.0, "is_reserved": 0, "fusion_lat": 0.0, "lon": -77.03792116666666}, {"rental_uris": {"ios": "https://dc.lft.to/lastmile_qr_scan", "android": "https://dc.lft.to/lastmile_qr_scan"}, "lat": 38.89194716666667, "is_disabled": 0, "bike_id": "e324459fe2aa99b486e7a6be68aa4115", "name": "e324459fe2aa99b486e7a6be68aa4115", "type": "electric_scooter", "fusion_lon": 0.0, "is_reserved": 0, "fusion_lat": 0.0, "lon": -77.00339416666667}, {"rental_uris": {"ios": "https://dc.lft.to/lastmile_qr_scan", "android": "https://dc.lft.to/lastmile_qr_scan"}, "lat": 38.915893, "is_disabled": 0, "bike_id": "85c39f571df6c20fb180312ed0c23edd", "name": "85c39f571df6c20fb180312ed0c23edd", "type": "electric_scooter", "fusion_lon": 0.0, "is_reserved": 0, "fusion_lat": 0.0, "lon": -77.04657366666666}, {"rental_uris": {"ios": "https://dc.lft.to/lastmile_qr_scan", "android": "https://dc.lft.to/lastmile_qr_scan"}, "lat": 38.8848005, "is_disabled": 0, "bike_id": "3cad9021a17f1c4eecdb67fb8c53dae2", "name": "3cad9021a17f1c4eecdb67fb8c53dae2", "type": "electric_bike", "fusion_lon": 0.0, "is_reserved": 0, "fusion_lat": 0.0, "lon": -76.99709116666666}, {"rental_uris": {"ios": "https://dc.lft.to/lastmile_qr_scan", "android": "https://dc.lft.to/lastmile_qr_scan"}, "lat": 38.872962, "is_disabled": 0, "bike_id": "491cebd3cd7fead6921798f1dfd7ab38", "name": "491cebd3cd7fead6921798f1dfd7ab38", "type": "electric_scooter", "fusion_lon": 0.0, "is_reserved": 0, "fusion_lat": 0.0, "lon": -77.01096933333334}, {"rental_uris": {"ios": "https://dc.lft.to/lastmile_qr_scan", "android": "https://dc.lft.to/lastmile_qr_scan"}, "lat": 38.908428666666666, "is_disabled": 0, "bike_id": "8f1ad08a331211cd30e05fab42137607", "name": "8f1ad08a331211cd30e05fab42137607", "type": "electric_scooter", "fusion_lon": 0.0, "is_reserved": 0, "fusion_lat": 0.0, "lon": -77.0329995}, {"rental_uris": {"ios": "https://dc.lft.to/lastmile_qr_scan", "android": "https://dc.lft.to/lastmile_qr_scan"}, "lat": 38.89957366666667, "is_disabled": 0, "bike_id": "6ed5a8df6108c614669b4b832b669386", "name": "6ed5a8df6108c614669b4b832b669386", "type": "electric_scooter", "fusion_lon": 0.0, "is_reserved": 0, "fusion_lat": 0.0, "lon": -76.98553333333334}, {"rental_uris": {"ios": "https://dc.lft.to/lastmile_qr_scan", "android": "https://dc.lft.to/lastmile_qr_scan"}, "lat": 38.899961166666664, "is_disabled": 0, "bike_id": "298681b0679a41a9ea8235b069a43a6c", "name": "298681b0679a41a9ea8235b069a43a6c", "type": "electric_scooter", "fusion_lon": 0.0, "is_reserved": 0, "fusion_lat": 0.0, "lon": -77.00111766666667}, {"rental_uris": {"ios": "https://dc.lft.to/lastmile_qr_scan", "android": "https://dc.lft.to/lastmile_qr_scan"}, "lat": 38.91267583333333, "is_disabled": 0, "bike_id": "0b4d8beaaf8b1cf142abc138cc7f5c1e", "name": "0b4d8beaaf8b1cf142abc138cc7f5c1e", "type": "electric_scooter", "fusion_lon": 0.0, "is_reserved": 0, "fusion_lat": 0.0, "lon": -77.0373985}, {"rental_uris": {"ios": "https://dc.lft.to/lastmile_qr_scan", "android": "https://dc.lft.to/lastmile_qr_scan"}, "lat": 38.892223, "is_disabled": 0, "bike_id": "1b3ef5fd1500fcaf6efae5b99029791e", "name": "1b3ef5fd1500fcaf6efae5b99029791e", "type": "electric_scooter", "fusion_lon": 0.0, "is_reserved": 0, "fusion_lat": 0.0, "lon": -77.032267}, {"rental_uris": {"ios": "https://dc.lft.to/lastmile_qr_scan", "android": "https://dc.lft.to/lastmile_qr_scan"}, "lat": 38.903402, "is_disabled": 0, "bike_id": "46b5233f7e3e45c872c0590d93900ba3", "name": "46b5233f7e3e45c872c0590d93900ba3", "type": "electric_scooter", "fusion_lon": 0.0, "is_reserved": 0, "fusion_lat": 0.0, "lon": -77.02638533333334}, {"rental_uris": {"ios": "https://dc.lft.to/lastmile_qr_scan", "android": "https://dc.lft.to/lastmile_qr_scan"}, "lat": 38.902387, "is_disabled": 0, "bike_id": "ec508eb8eca24d47a749756090b3c6af", "name": "ec508eb8eca24d47a749756090b3c6af", "type": "electric_scooter", "fusion_lon": 0.0, "is_reserved": 0, "fusion_lat": 0.0, "lon": -77.00204633333334}, {"rental_uris": {"ios": "https://dc.lft.to/lastmile_qr_scan", "android": "https://dc.lft.to/lastmile_qr_scan"}, "lat": 38.91885033333333, "is_disabled": 0, "bike_id": "b9c7b5dec25b20ebdd40fa7c55917c0d", "name": "b9c7b5dec25b20ebdd40fa7c55917c0d", "type": "electric_scooter", "fusion_lon": 0.0, "is_reserved": 0, "fusion_lat": 0.0, "lon": -77.0160435}, {"rental_uris": {"ios": "https://dc.lft.to/lastmile_qr_scan", "android": "https://dc.lft.to/lastmile_qr_scan"}, "lat": 38.90544516666667, "is_disabled": 0, "bike_id": "1ffbb9ac460c860d6a458b71eaefcf49", "name": "1ffbb9ac460c860d6a458b71eaefcf49", "type": "electric_scooter", "fusion_lon": 0.0, "is_reserved": 0, "fusion_lat": 0.0, "lon": -77.03976966666667}, {"rental_uris": {"ios": "https://dc.lft.to/lastmile_qr_scan", "android": "https://dc.lft.to/lastmile_qr_scan"}, "lat": 38.8656045, "is_disabled": 0, "bike_id": "f51a81e00feba281420ebeeccb66592b", "name": "f51a81e00feba281420ebeeccb66592b", "type": "electric_scooter", "fusion_lon": 0.0, "is_reserved": 0, "fusion_lat": 0.0, "lon": -76.97418233333333}, {"rental_uris": {"ios": "https://dc.lft.to/lastmile_qr_scan", "android": "https://dc.lft.to/lastmile_qr_scan"}, "lat": 38.89716466666667, "is_disabled": 0, "bike_id": "86a356fb8fae042671720d36e0875b64", "name": "86a356fb8fae042671720d36e0875b64", "type": "electric_scooter", "fusion_lon": 0.0, "is_reserved": 0, "fusion_lat": 0.0, "lon": -77.00459866666667}, {"rental_uris": {"ios": "https://dc.lft.to/lastmile_qr_scan", "android": "https://dc.lft.to/lastmile_qr_scan"}, "lat": 38.84292766666667, "is_disabled": 0, "bike_id": "8ecd2dfeadbba0b6f8195f8d90e75ca2", "name": "8ecd2dfeadbba0b6f8195f8d90e75ca2", "type": "electric_scooter", "fusion_lon": 0.0, "is_reserved": 0, "fusion_lat": 0.0, "lon": -76.99078716666666}, {"rental_uris": {"ios": "https://dc.lft.to/lastmile_qr_scan", "android": "https://dc.lft.to/lastmile_qr_scan"}, "lat": 38.898225333333336, "is_disabled": 0, "bike_id": "607845458cdef598dd18548174a36da2", "name": "607845458cdef598dd18548174a36da2", "type": "electric_scooter", "fusion_lon": 0.0, "is_reserved": 0, "fusion_lat": 0.0, "lon": -77.03352183333334}, {"rental_uris": {"ios": "https://dc.lft.to/lastmile_qr_scan", "android": "https://dc.lft.to/lastmile_qr_scan"}, "lat": 38.904125, "is_disabled": 0, "bike_id": "962d8c1ac5faa493c06c33d0d7709326", "name": "962d8c1ac5faa493c06c33d0d7709326", "type": "electric_scooter", "fusion_lon": 0.0, "is_reserved": 0, "fusion_lat": 0.0, "lon": -77.0513485}, {"rental_uris": {"ios": "https://dc.lft.to/lastmile_qr_scan", "android": "https://dc.lft.to/lastmile_qr_scan"}, "lat": 38.89256016666667, "is_disabled": 0, "bike_id": "c4328f9bfabf099db35a8d367e54ba2b", "name": "c4328f9bfabf099db35a8d367e54ba2b", "type": "electric_scooter", "fusion_lon": 0.0, "is_reserved": 0, "fusion_lat": 0.0, "lon": -77.03173983333333}, {"rental_uris": {"ios": "https://dc.lft.to/lastmile_qr_scan", "android": "https://dc.lft.to/lastmile_qr_scan"}, "lat": 38.93914816666667, "is_disabled": 0, "bike_id": "892419934db7eef9309d1360e4369e25", "name": "892419934db7eef9309d1360e4369e25", "type": "electric_scooter", "fusion_lon": 0.0, "is_reserved": 0, "fusion_lat": 0.0, "lon": -77.01901416666666}, {"rental_uris": {"ios": "https://dc.lft.to/lastmile_qr_scan", "android": "https://dc.lft.to/lastmile_qr_scan"}, "lat": 38.902590833333335, "is_disabled": 0, "bike_id": "5227d13af164ac446447654aa3a17f28", "name": "5227d13af164ac446447654aa3a17f28", "type": "electric_scooter", "fusion_lon": 0.0, "is_reserved": 0, "fusion_lat": 0.0, "lon": -77.00281}, {"rental_uris": {"ios": "https://dc.lft.to/lastmile_qr_scan", "android": "https://dc.lft.to/lastmile_qr_scan"}, "lat": 38.937369, "is_disabled": 0, "bike_id": "e036799572bbfab2c41e368c3c1490c7", "name": "e036799572bbfab2c41e368c3c1490c7", "type": "electric_scooter", "fusion_lon": 0.0, "is_reserved": 0, "fusion_lat": 0.0, "lon": -77.03497083333333}, {"rental_uris": {"ios": "https://dc.lft.to/lastmile_qr_scan", "android": "https://dc.lft.to/lastmile_qr_scan"}, "lat": 38.9070475, "is_disabled": 0, "bike_id": "bb051b6d781c0fd5533e86d0ff67427f", "name": "bb051b6d781c0fd5533e86d0ff67427f", "type": "electric_scooter", "fusion_lon": 0.0, "is_reserved": 0, "fusion_lat": 0.0, "lon": -76.986969}, {"rental_uris": {"ios": "https://dc.lft.to/lastmile_qr_scan", "android": "https://dc.lft.to/lastmile_qr_scan"}, "lat": 38.90026833333334, "is_disabled": 0, "bike_id": "fbe1822d40afaa055b92f7dfc6740ba3", "name": "fbe1822d40afaa055b92f7dfc6740ba3", "type": "electric_scooter", "fusion_lon": 0.0, "is_reserved": 0, "fusion_lat": 0.0, "lon": -77.04489933333333}, {"rental_uris": {"ios": "https://dc.lft.to/lastmile_qr_scan", "android": "https://dc.lft.to/lastmile_qr_scan"}, "lat": 38.88744416666667, "is_disabled": 0, "bike_id": "3d3b8f8a0160816d8bb4da88e8e71c49", "name": "3d3b8f8a0160816d8bb4da88e8e71c49", "type": "electric_scooter", "fusion_lon": 0.0, "is_reserved": 0, "fusion_lat": 0.0, "lon": -77.02830283333333}, {"rental_uris": {"ios": "https://dc.lft.to/lastmile_qr_scan", "android": "https://dc.lft.to/lastmile_qr_scan"}, "lat": 38.935485, "is_disabled": 0, "bike_id": "6e00118bb6f545da330905b3ad538271", "name": "6e00118bb6f545da330905b3ad538271", "type": "electric_scooter", "fusion_lon": 0.0, "is_reserved": 0, "fusion_lat": 0.0, "lon": -77.034738}, {"rental_uris": {"ios": "https://dc.lft.to/lastmile_qr_scan", "android": "https://dc.lft.to/lastmile_qr_scan"}, "lat": 38.894817, "is_disabled": 0, "bike_id": "6ee8c857ee0960f2f2aad2376490a147", "name": "6ee8c857ee0960f2f2aad2376490a147", "type": "electric_scooter", "fusion_lon": 0.0, "is_reserved": 0, "fusion_lat": 0.0, "lon": -77.04541066666667}, {"rental_uris": {"ios": "https://dc.lft.to/lastmile_qr_scan", "android": "https://dc.lft.to/lastmile_qr_scan"}, "lat": 38.8963175, "is_disabled": 0, "bike_id": "32185757d7df0b28b0978561e84213b0", "name": "32185757d7df0b28b0978561e84213b0", "type": "electric_bike", "fusion_lon": 0.0, "is_reserved": 0, "fusion_lat": 0.0, "lon": -76.947816}, {"rental_uris": {"ios": "https://dc.lft.to/lastmile_qr_scan", "android": "https://dc.lft.to/lastmile_qr_scan"}, "lat": 38.9203415, "is_disabled": 0, "bike_id": "174338752ac7d6e21dcd96f4b9c8d589", "name": "174338752ac7d6e21dcd96f4b9c8d589", "type": "electric_scooter", "fusion_lon": 0.0, "is_reserved": 0, "fusion_lat": 0.0, "lon": -76.97020666666667}, {"rental_uris": {"ios": "https://dc.lft.to/lastmile_qr_scan", "android": "https://dc.lft.to/lastmile_qr_scan"}, "lat": 38.909444666666666, "is_disabled": 0, "bike_id": "9345694a1ba1265b24d3378a56a57622", "name": "9345694a1ba1265b24d3378a56a57622", "type": "electric_scooter", "fusion_lon": 0.0, "is_reserved": 0, "fusion_lat": 0.0, "lon": -76.99907033333334}, {"rental_uris": {"ios": "https://dc.lft.to/lastmile_qr_scan", "android": "https://dc.lft.to/lastmile_qr_scan"}, "lat": 38.802982, "is_disabled": 0, "bike_id": "9209e69f4f3c6e85d38d9e339bbff131", "name": "9209e69f4f3c6e85d38d9e339bbff131", "type": "electric_bike", "fusion_lon": 0.0, "is_reserved": 0, "fusion_lat": 0.0, "lon": -77.0398555}, {"rental_uris": {"ios": "https://dc.lft.to/lastmile_qr_scan", "android": "https://dc.lft.to/lastmile_qr_scan"}, "lat": 38.844699166666665, "is_disabled": 0, "bike_id": "295e6587a5fcdf4872d296e13ca08cea", "name": "295e6587a5fcdf4872d296e13ca08cea", "type": "electric_scooter", "fusion_lon": 0.0, "is_reserved": 0, "fusion_lat": 0.0, "lon": -76.99511433333333}, {"rental_uris": {"ios": "https://dc.lft.to/lastmile_qr_scan", "android": "https://dc.lft.to/lastmile_qr_scan"}, "lat": 38.928305333333334, "is_disabled": 0, "bike_id": "2f36f97cf0d645a4f416164dc78dea38", "name": "2f36f97cf0d645a4f416164dc78dea38", "type": "electric_scooter", "fusion_lon": 0.0, "is_reserved": 0, "fusion_lat": 0.0, "lon": -77.02161183333334}, {"rental_uris": {"ios": "https://dc.lft.to/lastmile_qr_scan", "android": "https://dc.lft.to/lastmile_qr_scan"}, "lat": 38.914454166666665, "is_disabled": 0, "bike_id": "b4aa3328601cdcf0988f22ce703af827", "name": "b4aa3328601cdcf0988f22ce703af827", "type": "electric_bike", "fusion_lon": 0.0, "is_reserved": 0, "fusion_lat": 0.0, "lon": -77.0692415}, {"rental_uris": {"ios": "https://dc.lft.to/lastmile_qr_scan", "android": "https://dc.lft.to/lastmile_qr_scan"}, "lat": 38.91767516666667, "is_disabled": 0, "bike_id": "2a656c7341dc4898257e2afb6e46e3a6", "name": "2a656c7341dc4898257e2afb6e46e3a6", "type": "electric_scooter", "fusion_lon": 0.0, "is_reserved": 0, "fusion_lat": 0.0, "lon": -77.01881233333333}, {"rental_uris": {"ios": "https://dc.lft.to/lastmile_qr_scan", "android": "https://dc.lft.to/lastmile_qr_scan"}, "lat": 38.96622716666667, "is_disabled": 0, "bike_id": "36457e818e5bf5137337b5a1437516db", "name": "36457e818e5bf5137337b5a1437516db", "type": "electric_scooter", "fusion_lon": 0.0, "is_reserved": 0, "fusion_lat": 0.0, "lon": -77.027546}, {"rental_uris": {"ios": "https://dc.lft.to/lastmile_qr_scan", "android": "https://dc.lft.to/lastmile_qr_scan"}, "lat": 38.89989, "is_disabled": 0, "bike_id": "4adebdd24d05582cc32758404c70edda", "name": "4adebdd24d05582cc32758404c70edda", "type": "electric_scooter", "fusion_lon": 0.0, "is_reserved": 0, "fusion_lat": 0.0, "lon": -77.02709783333333}, {"rental_uris": {"ios": "https://dc.lft.to/lastmile_qr_scan", "android": "https://dc.lft.to/lastmile_qr_scan"}, "lat": 38.887435833333335, "is_disabled": 0, "bike_id": "b5e9f710bc0f0665edf4364b257562ca", "name": "b5e9f710bc0f0665edf4364b257562ca", "type": "electric_scooter", "fusion_lon": 0.0, "is_reserved": 0, "fusion_lat": 0.0, "lon": -77.02573233333334}, {"rental_uris": {"ios": "https://dc.lft.to/lastmile_qr_scan", "android": "https://dc.lft.to/lastmile_qr_scan"}, "lat": 38.88033216666667, "is_disabled": 0, "bike_id": "24c9ce7c3f9a57bd159f22505c803220", "name": "24c9ce7c3f9a57bd159f22505c803220", "type": "electric_scooter", "fusion_lon": 0.0, "is_reserved": 0, "fusion_lat": 0.0, "lon": -76.9962415}, {"rental_uris": {"ios": "https://dc.lft.to/lastmile_qr_scan", "android": "https://dc.lft.to/lastmile_qr_scan"}, "lat": 38.903479833333336, "is_disabled": 0, "bike_id": "a6bfc387e01e966c51ed3809ecf0aaba", "name": "a6bfc387e01e966c51ed3809ecf0aaba", "type": "electric_scooter", "fusion_lon": 0.0, "is_reserved": 0, "fusion_lat": 0.0, "lon": -77.040767}, {"rental_uris": {"ios": "https://dc.lft.to/lastmile_qr_scan", "android": "https://dc.lft.to/lastmile_qr_scan"}, "lat": 38.92685433333333, "is_disabled": 0, "bike_id": "c18b3777e7d6aa91948124c103a27fce", "name": "c18b3777e7d6aa91948124c103a27fce", "type": "electric_scooter", "fusion_lon": 0.0, "is_reserved": 0, "fusion_lat": 0.0, "lon": -77.022928}, {"rental_uris": {"ios": "https://dc.lft.to/lastmile_qr_scan", "android": "https://dc.lft.to/lastmile_qr_scan"}, "lat": 38.93291633333333, "is_disabled": 0, "bike_id": "58e1132b708b1a46c9bfd955eaa85663", "name": "58e1132b708b1a46c9bfd955eaa85663", "type": "electric_scooter", "fusion_lon": 0.0, "is_reserved": 0, "fusion_lat": 0.0, "lon": -77.02443516666666}, {"rental_uris": {"ios": "https://dc.lft.to/lastmile_qr_scan", "android": "https://dc.lft.to/lastmile_qr_scan"}, "lat": 38.862450833333334, "is_disabled": 0, "bike_id": "b2464fbe24bac4d4a60f3208cb1ae0db", "name": "b2464fbe24bac4d4a60f3208cb1ae0db", "type": "electric_scooter", "fusion_lon": 0.0, "is_reserved": 0, "fusion_lat": 0.0, "lon": -76.9949625}, {"rental_uris": {"ios": "https://dc.lft.to/lastmile_qr_scan", "android": "https://dc.lft.to/lastmile_qr_scan"}, "lat": 38.938516, "is_disabled": 0, "bike_id": "3c0f8698d08ce8ea397f8fc1c97e6b63", "name": "3c0f8698d08ce8ea397f8fc1c97e6b63", "type": "electric_scooter", "fusion_lon": 0.0, "is_reserved": 0, "fusion_lat": 0.0, "lon": -77.02475333333334}, {"rental_uris": {"ios": "https://dc.lft.to/lastmile_qr_scan", "android": "https://dc.lft.to/lastmile_qr_scan"}, "lat": 38.9224, "is_disabled": 0, "bike_id": "d3ad3f09207f8aebce82f42f2ec7f5d5", "name": "d3ad3f09207f8aebce82f42f2ec7f5d5", "type": "electric_scooter", "fusion_lon": 0.0, "is_reserved": 0, "fusion_lat": 0.0, "lon": -77.03521033333334}, {"rental_uris": {"ios": "https://dc.lft.to/lastmile_qr_scan", "android": "https://dc.lft.to/lastmile_qr_scan"}, "lat": 38.90946516666666, "is_disabled": 0, "bike_id": "a7ab25f61a896b40cf36b66d9a3296d9", "name": "a7ab25f61a896b40cf36b66d9a3296d9", "type": "electric_scooter", "fusion_lon": 0.0, "is_reserved": 0, "fusion_lat": 0.0, "lon": -76.99919766666666}, {"rental_uris": {"ios": "https://dc.lft.to/lastmile_qr_scan", "android": "https://dc.lft.to/lastmile_qr_scan"}, "lat": 38.8767705, "is_disabled": 0, "bike_id": "75b19ad41b4d572cdf722edbe661ee3c", "name": "75b19ad41b4d572cdf722edbe661ee3c", "type": "electric_scooter", "fusion_lon": 0.0, "is_reserved": 0, "fusion_lat": 0.0, "lon": -77.0072385}, {"rental_uris": {"ios": "https://dc.lft.to/lastmile_qr_scan", "android": "https://dc.lft.to/lastmile_qr_scan"}, "lat": 38.91660433333333, "is_disabled": 0, "bike_id": "812cc85a159967f86989e3e45aeda4b6", "name": "812cc85a159967f86989e3e45aeda4b6", "type": "electric_scooter", "fusion_lon": 0.0, "is_reserved": 0, "fusion_lat": 0.0, "lon": -77.02548283333333}, {"rental_uris": {"ios": "https://dc.lft.to/lastmile_qr_scan", "android": "https://dc.lft.to/lastmile_qr_scan"}, "lat": 38.90007283333333, "is_disabled": 0, "bike_id": "6b6a3e12e08cf460807963abfa2fdc4c", "name": "6b6a3e12e08cf460807963abfa2fdc4c", "type": "electric_scooter", "fusion_lon": 0.0, "is_reserved": 0, "fusion_lat": 0.0, "lon": -77.04652866666666}, {"rental_uris": {"ios": "https://dc.lft.to/lastmile_qr_scan", "android": "https://dc.lft.to/lastmile_qr_scan"}, "lat": 38.86163466666667, "is_disabled": 0, "bike_id": "33e601765f9b0eff5598114174114408", "name": "33e601765f9b0eff5598114174114408", "type": "electric_bike", "fusion_lon": 0.0, "is_reserved": 0, "fusion_lat": 0.0, "lon": -77.130963}, {"rental_uris": {"ios": "https://dc.lft.to/lastmile_qr_scan", "android": "https://dc.lft.to/lastmile_qr_scan"}, "lat": 38.89688016666667, "is_disabled": 0, "bike_id": "9ee4d6c38e13f014a46e61b0d3cf0281", "name": "9ee4d6c38e13f014a46e61b0d3cf0281", "type": "electric_scooter", "fusion_lon": 0.0, "is_reserved": 0, "fusion_lat": 0.0, "lon": -77.0315035}, {"rental_uris": {"ios": "https://dc.lft.to/lastmile_qr_scan", "android": "https://dc.lft.to/lastmile_qr_scan"}, "lat": 38.887450666666666, "is_disabled": 0, "bike_id": "ccd15cabb0b6d434dfd05343db1817db", "name": "ccd15cabb0b6d434dfd05343db1817db", "type": "electric_scooter", "fusion_lon": 0.0, "is_reserved": 0, "fusion_lat": 0.0, "lon": -77.03182733333334}, {"rental_uris": {"ios": "https://dc.lft.to/lastmile_qr_scan", "android": "https://dc.lft.to/lastmile_qr_scan"}, "lat": 38.9220625, "is_disabled": 0, "bike_id": "3edb79fb43a19bb5e51ecfc3599d3f85", "name": "3edb79fb43a19bb5e51ecfc3599d3f85", "type": "electric_scooter", "fusion_lon": 0.0, "is_reserved": 0, "fusion_lat": 0.0, "lon": -77.04253616666666}, {"rental_uris": {"ios": "https://dc.lft.to/lastmile_qr_scan", "android": "https://dc.lft.to/lastmile_qr_scan"}, "lat": 38.845132666666665, "is_disabled": 0, "bike_id": "9a962a76c790b11945b7455c07d96e1d", "name": "9a962a76c790b11945b7455c07d96e1d", "type": "electric_bike", "fusion_lon": 0.0, "is_reserved": 0, "fusion_lat": 0.0, "lon": -77.07794433333333}, {"rental_uris": {"ios": "https://dc.lft.to/lastmile_qr_scan", "android": "https://dc.lft.to/lastmile_qr_scan"}, "lat": 38.92805033333333, "is_disabled": 0, "bike_id": "213203b413f2d91f80ceb4153ae6b585", "name": "213203b413f2d91f80ceb4153ae6b585", "type": "electric_scooter", "fusion_lon": 0.0, "is_reserved": 0, "fusion_lat": 0.0, "lon": -77.04364616666666}, {"rental_uris": {"ios": "https://dc.lft.to/lastmile_qr_scan", "android": "https://dc.lft.to/lastmile_qr_scan"}, "lat": 38.961343666666664, "is_disabled": 0, "bike_id": "89eb82c64da03f8ad42d3dcef4110034", "name": "89eb82c64da03f8ad42d3dcef4110034", "type": "electric_scooter", "fusion_lon": 0.0, "is_reserved": 0, "fusion_lat": 0.0, "lon": -77.0282125}, {"rental_uris": {"ios": "https://dc.lft.to/lastmile_qr_scan", "android": "https://dc.lft.to/lastmile_qr_scan"}, "lat": 38.842954666666664, "is_disabled": 0, "bike_id": "e5498db96d30e36dbd5fbfa755ee82cf", "name": "e5498db96d30e36dbd5fbfa755ee82cf", "type": "electric_scooter", "fusion_lon": 0.0, "is_reserved": 0, "fusion_lat": 0.0, "lon": -76.9994915}, {"rental_uris": {"ios": "https://dc.lft.to/lastmile_qr_scan", "android": "https://dc.lft.to/lastmile_qr_scan"}, "lat": 38.887354, "is_disabled": 0, "bike_id": "304d9c59b556a20087e520c997db0f04", "name": "304d9c59b556a20087e520c997db0f04", "type": "electric_scooter", "fusion_lon": 0.0, "is_reserved": 0, "fusion_lat": 0.0, "lon": -77.015345}, {"rental_uris": {"ios": "https://dc.lft.to/lastmile_qr_scan", "android": "https://dc.lft.to/lastmile_qr_scan"}, "lat": 38.917706, "is_disabled": 0, "bike_id": "0bc12b91021370b8b5e9caa5d6986652", "name": "0bc12b91021370b8b5e9caa5d6986652", "type": "electric_scooter", "fusion_lon": 0.0, "is_reserved": 0, "fusion_lat": 0.0, "lon": -77.02354366666667}, {"rental_uris": {"ios": "https://dc.lft.to/lastmile_qr_scan", "android": "https://dc.lft.to/lastmile_qr_scan"}, "lat": 38.86202183333333, "is_disabled": 0, "bike_id": "583b25ef69196e99066ea40afda0fc60", "name": "583b25ef69196e99066ea40afda0fc60", "type": "electric_scooter", "fusion_lon": 0.0, "is_reserved": 0, "fusion_lat": 0.0, "lon": -76.9950585}, {"rental_uris": {"ios": "https://dc.lft.to/lastmile_qr_scan", "android": "https://dc.lft.to/lastmile_qr_scan"}, "lat": 38.89271933333333, "is_disabled": 0, "bike_id": "4c416179a37f7b6c7131b51d0e046ca9", "name": "4c416179a37f7b6c7131b51d0e046ca9", "type": "electric_scooter", "fusion_lon": 0.0, "is_reserved": 0, "fusion_lat": 0.0, "lon": -77.02027633333333}, {"rental_uris": {"ios": "https://dc.lft.to/lastmile_qr_scan", "android": "https://dc.lft.to/lastmile_qr_scan"}, "lat": 38.89223366666667, "is_disabled": 0, "bike_id": "f25bba43f91204801cfbcbdd65a78af9", "name": "f25bba43f91204801cfbcbdd65a78af9", "type": "electric_scooter", "fusion_lon": 0.0, "is_reserved": 0, "fusion_lat": 0.0, "lon": -77.00309766666666}, {"rental_uris": {"ios": "https://dc.lft.to/lastmile_qr_scan", "android": "https://dc.lft.to/lastmile_qr_scan"}, "lat": 38.9105595, "is_disabled": 0, "bike_id": "00e686b2b8c6c3f21de2f50ff3ae7f55", "name": "00e686b2b8c6c3f21de2f50ff3ae7f55", "type": "electric_scooter", "fusion_lon": 0.0, "is_reserved": 0, "fusion_lat": 0.0, "lon": -77.02200233333333}, {"rental_uris": {"ios": "https://dc.lft.to/lastmile_qr_scan", "android": "https://dc.lft.to/lastmile_qr_scan"}, "lat": 38.93015783333333, "is_disabled": 0, "bike_id": "308f92e852a337d41e93a84c8bd9152a", "name": "308f92e852a337d41e93a84c8bd9152a", "type": "electric_scooter", "fusion_lon": 0.0, "is_reserved": 0, "fusion_lat": 0.0, "lon": -77.0380865}, {"rental_uris": {"ios": "https://dc.lft.to/lastmile_qr_scan", "android": "https://dc.lft.to/lastmile_qr_scan"}, "lat": 38.916916, "is_disabled": 0, "bike_id": "9b8223cdfb83229327d4a73de5fd8adc", "name": "9b8223cdfb83229327d4a73de5fd8adc", "type": "electric_scooter", "fusion_lon": 0.0, "is_reserved": 0, "fusion_lat": 0.0, "lon": -77.02955516666667}, {"rental_uris": {"ios": "https://dc.lft.to/lastmile_qr_scan", "android": "https://dc.lft.to/lastmile_qr_scan"}, "lat": 38.907655166666665, "is_disabled": 0, "bike_id": "6f2112f2f92cf96c4d9eb75df6aebb5e", "name": "6f2112f2f92cf96c4d9eb75df6aebb5e", "type": "electric_scooter", "fusion_lon": 0.0, "is_reserved": 0, "fusion_lat": 0.0, "lon": -77.0323075}, {"rental_uris": {"ios": "https://dc.lft.to/lastmile_qr_scan", "android": "https://dc.lft.to/lastmile_qr_scan"}, "lat": 38.8764515, "is_disabled": 0, "bike_id": "faa3576a2af54ca64006a3c017ea671c", "name": "faa3576a2af54ca64006a3c017ea671c", "type": "electric_scooter", "fusion_lon": 0.0, "is_reserved": 0, "fusion_lat": 0.0, "lon": -76.96508416666667}, {"rental_uris": {"ios": "https://dc.lft.to/lastmile_qr_scan", "android": "https://dc.lft.to/lastmile_qr_scan"}, "lat": 38.861732333333336, "is_disabled": 0, "bike_id": "3a1d15c3fbbf2b59d1a6986220e3e065", "name": "3a1d15c3fbbf2b59d1a6986220e3e065", "type": "electric_scooter", "fusion_lon": 0.0, "is_reserved": 0, "fusion_lat": 0.0, "lon": -76.98327483333334}, {"rental_uris": {"ios": "https://dc.lft.to/lastmile_qr_scan", "android": "https://dc.lft.to/lastmile_qr_scan"}, "lat": 38.924412833333335, "is_disabled": 0, "bike_id": "8677f09d167167d4d140405bcc4eee2f", "name": "8677f09d167167d4d140405bcc4eee2f", "type": "electric_bike", "fusion_lon": 0.0, "is_reserved": 0, "fusion_lat": 0.0, "lon": -76.96840183333333}, {"rental_uris": {"ios": "https://dc.lft.to/lastmile_qr_scan", "android": "https://dc.lft.to/lastmile_qr_scan"}, "lat": 38.90612183333333, "is_disabled": 0, "bike_id": "004f92f2bba00304e8829808d5f58d61", "name": "004f92f2bba00304e8829808d5f58d61", "type": "electric_scooter", "fusion_lon": 0.0, "is_reserved": 0, "fusion_lat": 0.0, "lon": -77.0269425}, {"rental_uris": {"ios": "https://dc.lft.to/lastmile_qr_scan", "android": "https://dc.lft.to/lastmile_qr_scan"}, "lat": 38.94048683333333, "is_disabled": 0, "bike_id": "2770a7dda9c72ed00884e0f6ee2bcd9d", "name": "2770a7dda9c72ed00884e0f6ee2bcd9d", "type": "electric_scooter", "fusion_lon": 0.0, "is_reserved": 0, "fusion_lat": 0.0, "lon": -77.075732}, {"rental_uris": {"ios": "https://dc.lft.to/lastmile_qr_scan", "android": "https://dc.lft.to/lastmile_qr_scan"}, "lat": 39.1056345, "is_disabled": 0, "bike_id": "c45ba0622013431b70785a73a1ce8abc", "name": "c45ba0622013431b70785a73a1ce8abc", "type": "electric_bike", "fusion_lon": 0.0, "is_reserved": 0, "fusion_lat": 0.0, "lon": -77.15268783333333}, {"rental_uris": {"ios": "https://dc.lft.to/lastmile_qr_scan", "android": "https://dc.lft.to/lastmile_qr_scan"}, "lat": 38.91052033333333, "is_disabled": 0, "bike_id": "ceebfac0b18b432f6faa64416ca2342e", "name": "ceebfac0b18b432f6faa64416ca2342e", "type": "electric_scooter", "fusion_lon": 0.0, "is_reserved": 0, "fusion_lat": 0.0, "lon": -77.04329733333333}, {"rental_uris": {"ios": "https://dc.lft.to/lastmile_qr_scan", "android": "https://dc.lft.to/lastmile_qr_scan"}, "lat": 38.88515916666667, "is_disabled": 0, "bike_id": "41a5800a31fc522ad5646437c5f9b3bb", "name": "41a5800a31fc522ad5646437c5f9b3bb", "type": "electric_scooter", "fusion_lon": 0.0, "is_reserved": 0, "fusion_lat": 0.0, "lon": -77.00597716666667}, {"rental_uris": {"ios": "https://dc.lft.to/lastmile_qr_scan", "android": "https://dc.lft.to/lastmile_qr_scan"}, "lat": 38.909647666666665, "is_disabled": 0, "bike_id": "b073ba5a88df6531976c16bb379fad22", "name": "b073ba5a88df6531976c16bb379fad22", "type": "electric_scooter", "fusion_lon": 0.0, "is_reserved": 0, "fusion_lat": 0.0, "lon": -77.03877733333333}, {"rental_uris": {"ios": "https://dc.lft.to/lastmile_qr_scan", "android": "https://dc.lft.to/lastmile_qr_scan"}, "lat": 38.93017116666667, "is_disabled": 0, "bike_id": "5b62b993f59d2d2522179ae53cc24cf9", "name": "5b62b993f59d2d2522179ae53cc24cf9", "type": "electric_scooter", "fusion_lon": 0.0, "is_reserved": 0, "fusion_lat": 0.0, "lon": -77.02115533333334}, {"rental_uris": {"ios": "https://dc.lft.to/lastmile_qr_scan", "android": "https://dc.lft.to/lastmile_qr_scan"}, "lat": 38.9040495, "is_disabled": 0, "bike_id": "8719d229b7b8390619c521c1e8cdcf3f", "name": "8719d229b7b8390619c521c1e8cdcf3f", "type": "electric_scooter", "fusion_lon": 0.0, "is_reserved": 0, "fusion_lat": 0.0, "lon": -77.0626835}, {"rental_uris": {"ios": "https://dc.lft.to/lastmile_qr_scan", "android": "https://dc.lft.to/lastmile_qr_scan"}, "lat": 38.88503, "is_disabled": 0, "bike_id": "58df1d86e4a1598e86532f37c68bef8e", "name": "58df1d86e4a1598e86532f37c68bef8e", "type": "electric_scooter", "fusion_lon": 0.0, "is_reserved": 0, "fusion_lat": 0.0, "lon": -77.00564316666667}, {"rental_uris": {"ios": "https://dc.lft.to/lastmile_qr_scan", "android": "https://dc.lft.to/lastmile_qr_scan"}, "lat": 38.89234166666667, "is_disabled": 0, "bike_id": "ba533f9953962eeb91db30dc0355ce8e", "name": "ba533f9953962eeb91db30dc0355ce8e", "type": "electric_scooter", "fusion_lon": 0.0, "is_reserved": 0, "fusion_lat": 0.0, "lon": -77.0436395}, {"rental_uris": {"ios": "https://dc.lft.to/lastmile_qr_scan", "android": "https://dc.lft.to/lastmile_qr_scan"}, "lat": 38.927852, "is_disabled": 0, "bike_id": "cfc2d027dd65775aefe49b1a434d0d48", "name": "cfc2d027dd65775aefe49b1a434d0d48", "type": "electric_scooter", "fusion_lon": 0.0, "is_reserved": 0, "fusion_lat": 0.0, "lon": -77.03088466666667}, {"rental_uris": {"ios": "https://dc.lft.to/lastmile_qr_scan", "android": "https://dc.lft.to/lastmile_qr_scan"}, "lat": 38.91184166666667, "is_disabled": 0, "bike_id": "30ff7b0cd9193a42259f58bd97864258", "name": "30ff7b0cd9193a42259f58bd97864258", "type": "electric_scooter", "fusion_lon": 0.0, "is_reserved": 0, "fusion_lat": 0.0, "lon": -77.03361383333333}, {"rental_uris": {"ios": "https://dc.lft.to/lastmile_qr_scan", "android": "https://dc.lft.to/lastmile_qr_scan"}, "lat": 38.896773333333336, "is_disabled": 0, "bike_id": "ef2445e4d12f2a02799d61cea02d1886", "name": "ef2445e4d12f2a02799d61cea02d1886", "type": "electric_scooter", "fusion_lon": 0.0, "is_reserved": 0, "fusion_lat": 0.0, "lon": -76.94734283333334}, {"rental_uris": {"ios": "https://dc.lft.to/lastmile_qr_scan", "android": "https://dc.lft.to/lastmile_qr_scan"}, "lat": 38.92834083333333, "is_disabled": 0, "bike_id": "4add0496a3a187b803c5499507474603", "name": "4add0496a3a187b803c5499507474603", "type": "electric_scooter", "fusion_lon": 0.0, "is_reserved": 0, "fusion_lat": 0.0, "lon": -77.0542605}, {"rental_uris": {"ios": "https://dc.lft.to/lastmile_qr_scan", "android": "https://dc.lft.to/lastmile_qr_scan"}, "lat": 38.928557166666664, "is_disabled": 0, "bike_id": "e02e7a67a0afa982822c28459a40da89", "name": "e02e7a67a0afa982822c28459a40da89", "type": "electric_scooter", "fusion_lon": 0.0, "is_reserved": 0, "fusion_lat": 0.0, "lon": -77.034437}, {"rental_uris": {"ios": "https://dc.lft.to/lastmile_qr_scan", "android": "https://dc.lft.to/lastmile_qr_scan"}, "lat": 38.935832166666664, "is_disabled": 0, "bike_id": "71691d28a30cb36c8178dcc80b257dd3", "name": "71691d28a30cb36c8178dcc80b257dd3", "type": "electric_scooter", "fusion_lon": 0.0, "is_reserved": 0, "fusion_lat": 0.0, "lon": -77.03282383333334}, {"rental_uris": {"ios": "https://dc.lft.to/lastmile_qr_scan", "android": "https://dc.lft.to/lastmile_qr_scan"}, "lat": 38.91762766666667, "is_disabled": 0, "bike_id": "056cd48aac1aad058510ae1b81391288", "name": "056cd48aac1aad058510ae1b81391288", "type": "electric_scooter", "fusion_lon": 0.0, "is_reserved": 0, "fusion_lat": 0.0, "lon": -77.02300133333334}, {"rental_uris": {"ios": "https://dc.lft.to/lastmile_qr_scan", "android": "https://dc.lft.to/lastmile_qr_scan"}, "lat": 38.974033166666665, "is_disabled": 0, "bike_id": "d98c0d98094459abfbb39aacb8874da7", "name": "d98c0d98094459abfbb39aacb8874da7", "type": "electric_bike", "fusion_lon": 0.0, "is_reserved": 0, "fusion_lat": 0.0, "lon": -77.024976}, {"rental_uris": {"ios": "https://dc.lft.to/lastmile_qr_scan", "android": "https://dc.lft.to/lastmile_qr_scan"}, "lat": 38.887367833333336, "is_disabled": 0, "bike_id": "6ace1effd790b1a879e1e50e5308f8c5", "name": "6ace1effd790b1a879e1e50e5308f8c5", "type": "electric_scooter", "fusion_lon": 0.0, "is_reserved": 0, "fusion_lat": 0.0, "lon": -77.01535783333334}, {"rental_uris": {"ios": "https://dc.lft.to/lastmile_qr_scan", "android": "https://dc.lft.to/lastmile_qr_scan"}, "lat": 38.916736, "is_disabled": 0, "bike_id": "1be6be97afde8e01f43c0a498b88b4c5", "name": "1be6be97afde8e01f43c0a498b88b4c5", "type": "electric_scooter", "fusion_lon": 0.0, "is_reserved": 0, "fusion_lat": 0.0, "lon": -76.98034116666666}, {"rental_uris": {"ios": "https://dc.lft.to/lastmile_qr_scan", "android": "https://dc.lft.to/lastmile_qr_scan"}, "lat": 38.84292216666667, "is_disabled": 0, "bike_id": "d2b23f21d6d22669763fc9324c271a7c", "name": "d2b23f21d6d22669763fc9324c271a7c", "type": "electric_scooter", "fusion_lon": 0.0, "is_reserved": 0, "fusion_lat": 0.0, "lon": -76.9994865}, {"rental_uris": {"ios": "https://dc.lft.to/lastmile_qr_scan", "android": "https://dc.lft.to/lastmile_qr_scan"}, "lat": 38.89605783333333, "is_disabled": 0, "bike_id": "b99751de7450f95f321655d175bca91f", "name": "b99751de7450f95f321655d175bca91f", "type": "electric_scooter", "fusion_lon": 0.0, "is_reserved": 0, "fusion_lat": 0.0, "lon": -77.05441333333333}, {"rental_uris": {"ios": "https://dc.lft.to/lastmile_qr_scan", "android": "https://dc.lft.to/lastmile_qr_scan"}, "lat": 38.90916966666666, "is_disabled": 0, "bike_id": "226eb951a27dfbaea2a4811eade19801", "name": "226eb951a27dfbaea2a4811eade19801", "type": "electric_scooter", "fusion_lon": 0.0, "is_reserved": 0, "fusion_lat": 0.0, "lon": -77.07275483333333}, {"rental_uris": {"ios": "https://dc.lft.to/lastmile_qr_scan", "android": "https://dc.lft.to/lastmile_qr_scan"}, "lat": 38.89693233333333, "is_disabled": 0, "bike_id": "562d9fd1af453cc960a2ee2f2f7f7625", "name": "562d9fd1af453cc960a2ee2f2f7f7625", "type": "electric_scooter", "fusion_lon": 0.0, "is_reserved": 0, "fusion_lat": 0.0, "lon": -77.00497816666666}, {"rental_uris": {"ios": "https://dc.lft.to/lastmile_qr_scan", "android": "https://dc.lft.to/lastmile_qr_scan"}, "lat": 38.88733583333333, "is_disabled": 0, "bike_id": "9ce7938d0555debadbb0731935889b34", "name": "9ce7938d0555debadbb0731935889b34", "type": "electric_scooter", "fusion_lon": 0.0, "is_reserved": 0, "fusion_lat": 0.0, "lon": -77.02320983333334}, {"rental_uris": {"ios": "https://dc.lft.to/lastmile_qr_scan", "android": "https://dc.lft.to/lastmile_qr_scan"}, "lat": 38.950843166666665, "is_disabled": 0, "bike_id": "47fca6f75c3d61366580c5e78efed7ed", "name": "47fca6f75c3d61366580c5e78efed7ed", "type": "electric_bike", "fusion_lon": 0.0, "is_reserved": 0, "fusion_lat": 0.0, "lon": -76.9656285}, {"rental_uris": {"ios": "https://dc.lft.to/lastmile_qr_scan", "android": "https://dc.lft.to/lastmile_qr_scan"}, "lat": 38.899884166666666, "is_disabled": 0, "bike_id": "f66e38d7855ba2e42f546a6c0d15b909", "name": "f66e38d7855ba2e42f546a6c0d15b909", "type": "electric_scooter", "fusion_lon": 0.0, "is_reserved": 0, "fusion_lat": 0.0, "lon": -77.0460515}, {"rental_uris": {"ios": "https://dc.lft.to/lastmile_qr_scan", "android": "https://dc.lft.to/lastmile_qr_scan"}, "lat": 38.924584333333335, "is_disabled": 0, "bike_id": "6dba806cc57217d62a7f46e823585d7b", "name": "6dba806cc57217d62a7f46e823585d7b", "type": "electric_scooter", "fusion_lon": 0.0, "is_reserved": 0, "fusion_lat": 0.0, "lon": -77.02964416666667}, {"rental_uris": {"ios": "https://dc.lft.to/lastmile_qr_scan", "android": "https://dc.lft.to/lastmile_qr_scan"}, "lat": 38.931393, "is_disabled": 0, "bike_id": "b5ea638d38c02e3f2950da2003aaa501", "name": "b5ea638d38c02e3f2950da2003aaa501", "type": "electric_scooter", "fusion_lon": 0.0, "is_reserved": 0, "fusion_lat": 0.0, "lon": -77.07836633333334}, {"rental_uris": {"ios": "https://dc.lft.to/lastmile_qr_scan", "android": "https://dc.lft.to/lastmile_qr_scan"}, "lat": 38.90032866666667, "is_disabled": 0, "bike_id": "66429166f8834038b0ac6d8e0379de27", "name": "66429166f8834038b0ac6d8e0379de27", "type": "electric_scooter", "fusion_lon": 0.0, "is_reserved": 0, "fusion_lat": 0.0, "lon": -77.0261045}, {"rental_uris": {"ios": "https://dc.lft.to/lastmile_qr_scan", "android": "https://dc.lft.to/lastmile_qr_scan"}, "lat": 38.8999725, "is_disabled": 0, "bike_id": "4e2c597d9fe46a1b422e258a882b87e0", "name": "4e2c597d9fe46a1b422e258a882b87e0", "type": "electric_scooter", "fusion_lon": 0.0, "is_reserved": 0, "fusion_lat": 0.0, "lon": -77.00155816666667}, {"rental_uris": {"ios": "https://dc.lft.to/lastmile_qr_scan", "android": "https://dc.lft.to/lastmile_qr_scan"}, "lat": 38.944619833333334, "is_disabled": 0, "bike_id": "c80299f67f982f52eff94c3ca5dcd2c0", "name": "c80299f67f982f52eff94c3ca5dcd2c0", "type": "electric_scooter", "fusion_lon": 0.0, "is_reserved": 0, "fusion_lat": 0.0, "lon": -77.0281}, {"rental_uris": {"ios": "https://dc.lft.to/lastmile_qr_scan", "android": "https://dc.lft.to/lastmile_qr_scan"}, "lat": 38.917954, "is_disabled": 0, "bike_id": "a868c6fb161be13731750ec2b148e8ae", "name": "a868c6fb161be13731750ec2b148e8ae", "type": "electric_scooter", "fusion_lon": 0.0, "is_reserved": 0, "fusion_lat": 0.0, "lon": -77.0229195}, {"rental_uris": {"ios": "https://dc.lft.to/lastmile_qr_scan", "android": "https://dc.lft.to/lastmile_qr_scan"}, "lat": 38.89759633333333, "is_disabled": 0, "bike_id": "0493b1148e26a092a351ff5200bdb9e0", "name": "0493b1148e26a092a351ff5200bdb9e0", "type": "electric_scooter", "fusion_lon": 0.0, "is_reserved": 0, "fusion_lat": 0.0, "lon": -76.93832183333333}, {"rental_uris": {"ios": "https://dc.lft.to/lastmile_qr_scan", "android": "https://dc.lft.to/lastmile_qr_scan"}, "lat": 38.89220983333333, "is_disabled": 0, "bike_id": "a0854d047a0002842a381a6b64586fc1", "name": "a0854d047a0002842a381a6b64586fc1", "type": "electric_scooter", "fusion_lon": 0.0, "is_reserved": 0, "fusion_lat": 0.0, "lon": -77.02721633333333}, {"rental_uris": {"ios": "https://dc.lft.to/lastmile_qr_scan", "android": "https://dc.lft.to/lastmile_qr_scan"}, "lat": 38.93559966666667, "is_disabled": 0, "bike_id": "6b73067d301284e0b1e76c7ecfaf910b", "name": "6b73067d301284e0b1e76c7ecfaf910b", "type": "electric_scooter", "fusion_lon": 0.0, "is_reserved": 0, "fusion_lat": 0.0, "lon": -77.08204716666667}, {"rental_uris": {"ios": "https://dc.lft.to/lastmile_qr_scan", "android": "https://dc.lft.to/lastmile_qr_scan"}, "lat": 38.894343666666664, "is_disabled": 0, "bike_id": "4be92d76039fc965e89f9fea883bdb18", "name": "4be92d76039fc965e89f9fea883bdb18", "type": "electric_scooter", "fusion_lon": 0.0, "is_reserved": 0, "fusion_lat": 0.0, "lon": -77.00114733333334}, {"rental_uris": {"ios": "https://dc.lft.to/lastmile_qr_scan", "android": "https://dc.lft.to/lastmile_qr_scan"}, "lat": 38.91346816666667, "is_disabled": 0, "bike_id": "a0d4efa28a3db89f73cc9704b9d8d05f", "name": "a0d4efa28a3db89f73cc9704b9d8d05f", "type": "electric_scooter", "fusion_lon": 0.0, "is_reserved": 0, "fusion_lat": 0.0, "lon": -77.00341266666666}, {"rental_uris": {"ios": "https://dc.lft.to/lastmile_qr_scan", "android": "https://dc.lft.to/lastmile_qr_scan"}, "lat": 38.92091383333333, "is_disabled": 0, "bike_id": "9efa041e30269c2dc03bc7f34399d0d2", "name": "9efa041e30269c2dc03bc7f34399d0d2", "type": "electric_scooter", "fusion_lon": 0.0, "is_reserved": 0, "fusion_lat": 0.0, "lon": -76.975965}, {"rental_uris": {"ios": "https://dc.lft.to/lastmile_qr_scan", "android": "https://dc.lft.to/lastmile_qr_scan"}, "lat": 38.90261233333333, "is_disabled": 0, "bike_id": "33040f98408e7aa3e2dde626e41d97a2", "name": "33040f98408e7aa3e2dde626e41d97a2", "type": "electric_scooter", "fusion_lon": 0.0, "is_reserved": 0, "fusion_lat": 0.0, "lon": -77.02602366666666}, {"rental_uris": {"ios": "https://dc.lft.to/lastmile_qr_scan", "android": "https://dc.lft.to/lastmile_qr_scan"}, "lat": 38.898835, "is_disabled": 0, "bike_id": "dda50ae9cbbfa14a454331a655e27e30", "name": "dda50ae9cbbfa14a454331a655e27e30", "type": "electric_scooter", "fusion_lon": 0.0, "is_reserved": 0, "fusion_lat": 0.0, "lon": -76.93175466666666}, {"rental_uris": {"ios": "https://dc.lft.to/lastmile_qr_scan", "android": "https://dc.lft.to/lastmile_qr_scan"}, "lat": 38.88623316666666, "is_disabled": 0, "bike_id": "e35c89234cc984b7229aabe86d665d58", "name": "e35c89234cc984b7229aabe86d665d58", "type": "electric_scooter", "fusion_lon": 0.0, "is_reserved": 0, "fusion_lat": 0.0, "lon": -77.03169166666666}, {"rental_uris": {"ios": "https://dc.lft.to/lastmile_qr_scan", "android": "https://dc.lft.to/lastmile_qr_scan"}, "lat": 38.90399983333333, "is_disabled": 0, "bike_id": "42de1401b702be929120a62b4fbde3e8", "name": "42de1401b702be929120a62b4fbde3e8", "type": "electric_scooter", "fusion_lon": 0.0, "is_reserved": 0, "fusion_lat": 0.0, "lon": -77.03248183333334}, {"rental_uris": {"ios": "https://dc.lft.to/lastmile_qr_scan", "android": "https://dc.lft.to/lastmile_qr_scan"}, "lat": 38.911064833333334, "is_disabled": 0, "bike_id": "241ed5d23bcdfed10d841de0f2681aa0", "name": "241ed5d23bcdfed10d841de0f2681aa0", "type": "electric_scooter", "fusion_lon": 0.0, "is_reserved": 0, "fusion_lat": 0.0, "lon": -77.04406433333334}, {"rental_uris": {"ios": "https://dc.lft.to/lastmile_qr_scan", "android": "https://dc.lft.to/lastmile_qr_scan"}, "lat": 38.90291833333333, "is_disabled": 0, "bike_id": "5f4aafa64f8622187bf433772d14b4d7", "name": "5f4aafa64f8622187bf433772d14b4d7", "type": "electric_scooter", "fusion_lon": 0.0, "is_reserved": 0, "fusion_lat": 0.0, "lon": -77.0022155}, {"rental_uris": {"ios": "https://dc.lft.to/lastmile_qr_scan", "android": "https://dc.lft.to/lastmile_qr_scan"}, "lat": 38.9416575, "is_disabled": 0, "bike_id": "f26ebcf4922f0a0c6670065403f7a917", "name": "f26ebcf4922f0a0c6670065403f7a917", "type": "electric_scooter", "fusion_lon": 0.0, "is_reserved": 0, "fusion_lat": 0.0, "lon": -77.02559133333334}, {"rental_uris": {"ios": "https://dc.lft.to/lastmile_qr_scan", "android": "https://dc.lft.to/lastmile_qr_scan"}, "lat": 38.893331, "is_disabled": 0, "bike_id": "c52afaef77ce053e4f2e32319b723ca7", "name": "c52afaef77ce053e4f2e32319b723ca7", "type": "electric_scooter", "fusion_lon": 0.0, "is_reserved": 0, "fusion_lat": 0.0, "lon": -77.04659666666667}, {"rental_uris": {"ios": "https://dc.lft.to/lastmile_qr_scan", "android": "https://dc.lft.to/lastmile_qr_scan"}, "lat": 38.95304483333334, "is_disabled": 0, "bike_id": "20ebe359323637b974ca07aa733e6259", "name": "20ebe359323637b974ca07aa733e6259", "type": "electric_bike", "fusion_lon": 0.0, "is_reserved": 0, "fusion_lat": 0.0, "lon": -77.02462183333333}, {"rental_uris": {"ios": "https://dc.lft.to/lastmile_qr_scan", "android": "https://dc.lft.to/lastmile_qr_scan"}, "lat": 38.92173916666667, "is_disabled": 0, "bike_id": "b8c2f628a36af9ddad0cc9e6dff28b3c", "name": "b8c2f628a36af9ddad0cc9e6dff28b3c", "type": "electric_scooter", "fusion_lon": 0.0, "is_reserved": 0, "fusion_lat": 0.0, "lon": -77.043352}, {"rental_uris": {"ios": "https://dc.lft.to/lastmile_qr_scan", "android": "https://dc.lft.to/lastmile_qr_scan"}, "lat": 38.8966175, "is_disabled": 0, "bike_id": "775e890a8daec7e966785d3d308f0c19", "name": "775e890a8daec7e966785d3d308f0c19", "type": "electric_bike", "fusion_lon": 0.0, "is_reserved": 0, "fusion_lat": 0.0, "lon": -77.02466083333333}, {"rental_uris": {"ios": "https://dc.lft.to/lastmile_qr_scan", "android": "https://dc.lft.to/lastmile_qr_scan"}, "lat": 38.957295, "is_disabled": 0, "bike_id": "e12c3d097b63b6f4cf5e5b86c09ec85f", "name": "e12c3d097b63b6f4cf5e5b86c09ec85f", "type": "electric_scooter", "fusion_lon": 0.0, "is_reserved": 0, "fusion_lat": 0.0, "lon": -77.00225316666666}, {"rental_uris": {"ios": "https://dc.lft.to/lastmile_qr_scan", "android": "https://dc.lft.to/lastmile_qr_scan"}, "lat": 38.882177166666665, "is_disabled": 0, "bike_id": "5697997ce785800813b962d33582985f", "name": "5697997ce785800813b962d33582985f", "type": "electric_scooter", "fusion_lon": 0.0, "is_reserved": 0, "fusion_lat": 0.0, "lon": -77.029291}, {"rental_uris": {"ios": "https://dc.lft.to/lastmile_qr_scan", "android": "https://dc.lft.to/lastmile_qr_scan"}, "lat": 38.9489585, "is_disabled": 0, "bike_id": "d5beaa809476f36d496df0ffa2b522c8", "name": "d5beaa809476f36d496df0ffa2b522c8", "type": "electric_scooter", "fusion_lon": 0.0, "is_reserved": 0, "fusion_lat": 0.0, "lon": -77.01868666666667}, {"rental_uris": {"ios": "https://dc.lft.to/lastmile_qr_scan", "android": "https://dc.lft.to/lastmile_qr_scan"}, "lat": 38.919222, "is_disabled": 0, "bike_id": "b4647eca24d7b237f738ce9bbf4c180a", "name": "b4647eca24d7b237f738ce9bbf4c180a", "type": "electric_scooter", "fusion_lon": 0.0, "is_reserved": 0, "fusion_lat": 0.0, "lon": -77.02456716666667}, {"rental_uris": {"ios": "https://dc.lft.to/lastmile_qr_scan", "android": "https://dc.lft.to/lastmile_qr_scan"}, "lat": 38.891906, "is_disabled": 0, "bike_id": "afeb4f97b6e4d2bbe61064001cbf6713", "name": "afeb4f97b6e4d2bbe61064001cbf6713", "type": "electric_bike", "fusion_lon": 0.0, "is_reserved": 0, "fusion_lat": 0.0, "lon": -77.12264366666666}, {"rental_uris": {"ios": "https://dc.lft.to/lastmile_qr_scan", "android": "https://dc.lft.to/lastmile_qr_scan"}, "lat": 38.90200933333333, "is_disabled": 0, "bike_id": "1c7130a163732df3ec08675eb1257e60", "name": "1c7130a163732df3ec08675eb1257e60", "type": "electric_scooter", "fusion_lon": 0.0, "is_reserved": 0, "fusion_lat": 0.0, "lon": -77.04749416666667}, {"rental_uris": {"ios": "https://dc.lft.to/lastmile_qr_scan", "android": "https://dc.lft.to/lastmile_qr_scan"}, "lat": 38.83194266666667, "is_disabled": 0, "bike_id": "ed636f6d266b4f4b74342f8263e12b6a", "name": "ed636f6d266b4f4b74342f8263e12b6a", "type": "electric_bike", "fusion_lon": 0.0, "is_reserved": 0, "fusion_lat": 0.0, "lon": -77.07686466666667}, {"rental_uris": {"ios": "https://dc.lft.to/lastmile_qr_scan", "android": "https://dc.lft.to/lastmile_qr_scan"}, "lat": 38.88294233333333, "is_disabled": 0, "bike_id": "5c90f853a62b8b3313cfad4f0a253efb", "name": "5c90f853a62b8b3313cfad4f0a253efb", "type": "electric_scooter", "fusion_lon": 0.0, "is_reserved": 0, "fusion_lat": 0.0, "lon": -76.99354866666667}, {"rental_uris": {"ios": "https://dc.lft.to/lastmile_qr_scan", "android": "https://dc.lft.to/lastmile_qr_scan"}, "lat": 38.877414, "is_disabled": 0, "bike_id": "4ba5032fdeff2d83b95ac28dfbe82eae", "name": "4ba5032fdeff2d83b95ac28dfbe82eae", "type": "electric_scooter", "fusion_lon": 0.0, "is_reserved": 0, "fusion_lat": 0.0, "lon": -77.00218866666667}, {"rental_uris": {"ios": "https://dc.lft.to/lastmile_qr_scan", "android": "https://dc.lft.to/lastmile_qr_scan"}, "lat": 38.905550833333336, "is_disabled": 0, "bike_id": "114ce312ad33ba12ec2d086260e5b335", "name": "114ce312ad33ba12ec2d086260e5b335", "type": "electric_scooter", "fusion_lon": 0.0, "is_reserved": 0, "fusion_lat": 0.0, "lon": -77.01094566666667}, {"rental_uris": {"ios": "https://dc.lft.to/lastmile_qr_scan", "android": "https://dc.lft.to/lastmile_qr_scan"}, "lat": 38.91266066666667, "is_disabled": 0, "bike_id": "b3f3452d0254e7955bcfc65398b5ae93", "name": "b3f3452d0254e7955bcfc65398b5ae93", "type": "electric_scooter", "fusion_lon": 0.0, "is_reserved": 0, "fusion_lat": 0.0, "lon": -77.04549366666667}, {"rental_uris": {"ios": "https://dc.lft.to/lastmile_qr_scan", "android": "https://dc.lft.to/lastmile_qr_scan"}, "lat": 38.903303666666666, "is_disabled": 0, "bike_id": "84f8c371421a9f5356861f0b518afd89", "name": "84f8c371421a9f5356861f0b518afd89", "type": "electric_scooter", "fusion_lon": 0.0, "is_reserved": 0, "fusion_lat": 0.0, "lon": -77.034549}, {"rental_uris": {"ios": "https://dc.lft.to/lastmile_qr_scan", "android": "https://dc.lft.to/lastmile_qr_scan"}, "lat": 38.944292, "is_disabled": 0, "bike_id": "2f9f0e5f3870d0a48e31252307397325", "name": "2f9f0e5f3870d0a48e31252307397325", "type": "electric_bike", "fusion_lon": 0.0, "is_reserved": 0, "fusion_lat": 0.0, "lon": -76.98738866666666}, {"rental_uris": {"ios": "https://dc.lft.to/lastmile_qr_scan", "android": "https://dc.lft.to/lastmile_qr_scan"}, "lat": 38.9560865, "is_disabled": 0, "bike_id": "d46519b599c82917bb71b14e4e86a194", "name": "d46519b599c82917bb71b14e4e86a194", "type": "electric_scooter", "fusion_lon": 0.0, "is_reserved": 0, "fusion_lat": 0.0, "lon": -77.02817}, {"rental_uris": {"ios": "https://dc.lft.to/lastmile_qr_scan", "android": "https://dc.lft.to/lastmile_qr_scan"}, "lat": 38.924064666666666, "is_disabled": 0, "bike_id": "4fa591bce5731d699a3dc426966fcc7c", "name": "4fa591bce5731d699a3dc426966fcc7c", "type": "electric_scooter", "fusion_lon": 0.0, "is_reserved": 0, "fusion_lat": 0.0, "lon": -77.05638383333333}, {"rental_uris": {"ios": "https://dc.lft.to/lastmile_qr_scan", "android": "https://dc.lft.to/lastmile_qr_scan"}, "lat": 38.90378233333333, "is_disabled": 0, "bike_id": "89151ee53212b15544492874cef5b7e2", "name": "89151ee53212b15544492874cef5b7e2", "type": "electric_scooter", "fusion_lon": 0.0, "is_reserved": 0, "fusion_lat": 0.0, "lon": -77.067581}, {"rental_uris": {"ios": "https://dc.lft.to/lastmile_qr_scan", "android": "https://dc.lft.to/lastmile_qr_scan"}, "lat": 38.901981, "is_disabled": 0, "bike_id": "0fe97335915a6643cce64cd5903ca777", "name": "0fe97335915a6643cce64cd5903ca777", "type": "electric_scooter", "fusion_lon": 0.0, "is_reserved": 0, "fusion_lat": 0.0, "lon": -77.0476095}, {"rental_uris": {"ios": "https://dc.lft.to/lastmile_qr_scan", "android": "https://dc.lft.to/lastmile_qr_scan"}, "lat": 38.828662, "is_disabled": 0, "bike_id": "6ce203bbb283efd05b419772a775b324", "name": "6ce203bbb283efd05b419772a775b324", "type": "electric_bike", "fusion_lon": 0.0, "is_reserved": 0, "fusion_lat": 0.0, "lon": -77.112282}, {"rental_uris": {"ios": "https://dc.lft.to/lastmile_qr_scan", "android": "https://dc.lft.to/lastmile_qr_scan"}, "lat": 38.95557566666667, "is_disabled": 0, "bike_id": "99d5761a9763ce29399090c99883a717", "name": "99d5761a9763ce29399090c99883a717", "type": "electric_bike", "fusion_lon": 0.0, "is_reserved": 0, "fusion_lat": 0.0, "lon": -76.93537133333334}, {"rental_uris": {"ios": "https://dc.lft.to/lastmile_qr_scan", "android": "https://dc.lft.to/lastmile_qr_scan"}, "lat": 38.90129783333333, "is_disabled": 0, "bike_id": "406f5ef9a3c2faf005fe0c6106241993", "name": "406f5ef9a3c2faf005fe0c6106241993", "type": "electric_scooter", "fusion_lon": 0.0, "is_reserved": 0, "fusion_lat": 0.0, "lon": -77.04889166666666}, {"rental_uris": {"ios": "https://dc.lft.to/lastmile_qr_scan", "android": "https://dc.lft.to/lastmile_qr_scan"}, "lat": 38.92086883333333, "is_disabled": 0, "bike_id": "13e585948efb7b532c37ffafd402ca6e", "name": "13e585948efb7b532c37ffafd402ca6e", "type": "electric_scooter", "fusion_lon": 0.0, "is_reserved": 0, "fusion_lat": 0.0, "lon": -77.0755965}, {"rental_uris": {"ios": "https://dc.lft.to/lastmile_qr_scan", "android": "https://dc.lft.to/lastmile_qr_scan"}, "lat": 38.87916883333333, "is_disabled": 0, "bike_id": "097e3a610363f830cf970ca2d268ee3b", "name": "097e3a610363f830cf970ca2d268ee3b", "type": "electric_scooter", "fusion_lon": 0.0, "is_reserved": 0, "fusion_lat": 0.0, "lon": -76.9916395}, {"rental_uris": {"ios": "https://dc.lft.to/lastmile_qr_scan", "android": "https://dc.lft.to/lastmile_qr_scan"}, "lat": 38.91976233333333, "is_disabled": 0, "bike_id": "bcfd9437cec105d710e58f1382156d97", "name": "bcfd9437cec105d710e58f1382156d97", "type": "electric_scooter", "fusion_lon": 0.0, "is_reserved": 0, "fusion_lat": 0.0, "lon": -77.01210216666666}, {"rental_uris": {"ios": "https://dc.lft.to/lastmile_qr_scan", "android": "https://dc.lft.to/lastmile_qr_scan"}, "lat": 38.957244, "is_disabled": 0, "bike_id": "b62880a82e8af00efe3db8d04e31134f", "name": "b62880a82e8af00efe3db8d04e31134f", "type": "electric_scooter", "fusion_lon": 0.0, "is_reserved": 0, "fusion_lat": 0.0, "lon": -77.035666}, {"rental_uris": {"ios": "https://dc.lft.to/lastmile_qr_scan", "android": "https://dc.lft.to/lastmile_qr_scan"}, "lat": 38.923345, "is_disabled": 0, "bike_id": "f413dce3b5b797d822a1639f7511ed1d", "name": "f413dce3b5b797d822a1639f7511ed1d", "type": "electric_scooter", "fusion_lon": 0.0, "is_reserved": 0, "fusion_lat": 0.0, "lon": -77.03613366666667}, {"rental_uris": {"ios": "https://dc.lft.to/lastmile_qr_scan", "android": "https://dc.lft.to/lastmile_qr_scan"}, "lat": 38.903747833333334, "is_disabled": 0, "bike_id": "0d0d4de139de63396df352f48e8f28d7", "name": "0d0d4de139de63396df352f48e8f28d7", "type": "electric_scooter", "fusion_lon": 0.0, "is_reserved": 0, "fusion_lat": 0.0, "lon": -77.02968916666667}, {"rental_uris": {"ios": "https://dc.lft.to/lastmile_qr_scan", "android": "https://dc.lft.to/lastmile_qr_scan"}, "lat": 39.05812983333333, "is_disabled": 0, "bike_id": "adf93667678cd1f2982e993e41ae5072", "name": "adf93667678cd1f2982e993e41ae5072", "type": "electric_bike", "fusion_lon": 0.0, "is_reserved": 0, "fusion_lat": 0.0, "lon": -77.12629716666666}, {"rental_uris": {"ios": "https://dc.lft.to/lastmile_qr_scan", "android": "https://dc.lft.to/lastmile_qr_scan"}, "lat": 38.857886666666666, "is_disabled": 0, "bike_id": "a0e7e136e4d4114d00e2861a22576bd8", "name": "a0e7e136e4d4114d00e2861a22576bd8", "type": "electric_bike", "fusion_lon": 0.0, "is_reserved": 0, "fusion_lat": 0.0, "lon": -76.987445}, {"rental_uris": {"ios": "https://dc.lft.to/lastmile_qr_scan", "android": "https://dc.lft.to/lastmile_qr_scan"}, "lat": 38.910381666666666, "is_disabled": 0, "bike_id": "91df5d8cd056ab9246a018553692b92e", "name": "91df5d8cd056ab9246a018553692b92e", "type": "electric_scooter", "fusion_lon": 0.0, "is_reserved": 0, "fusion_lat": 0.0, "lon": -77.03123716666667}, {"rental_uris": {"ios": "https://dc.lft.to/lastmile_qr_scan", "android": "https://dc.lft.to/lastmile_qr_scan"}, "lat": 38.844237166666666, "is_disabled": 0, "bike_id": "f14bf5fe5c6ea6d4b7844e154649b6b0", "name": "f14bf5fe5c6ea6d4b7844e154649b6b0", "type": "electric_scooter", "fusion_lon": 0.0, "is_reserved": 0, "fusion_lat": 0.0, "lon": -76.99831166666667}, {"rental_uris": {"ios": "https://dc.lft.to/lastmile_qr_scan", "android": "https://dc.lft.to/lastmile_qr_scan"}, "lat": 38.95588866666667, "is_disabled": 0, "bike_id": "8553c97854f6d16754a1e2e7a8008e10", "name": "8553c97854f6d16754a1e2e7a8008e10", "type": "electric_scooter", "fusion_lon": 0.0, "is_reserved": 0, "fusion_lat": 0.0, "lon": -77.03651366666666}, {"rental_uris": {"ios": "https://dc.lft.to/lastmile_qr_scan", "android": "https://dc.lft.to/lastmile_qr_scan"}, "lat": 38.916521333333336, "is_disabled": 0, "bike_id": "7ffcd1128693523d83e17343683abb6e", "name": "7ffcd1128693523d83e17343683abb6e", "type": "electric_scooter", "fusion_lon": 0.0, "is_reserved": 0, "fusion_lat": 0.0, "lon": -77.02277983333333}, {"rental_uris": {"ios": "https://dc.lft.to/lastmile_qr_scan", "android": "https://dc.lft.to/lastmile_qr_scan"}, "lat": 38.906504, "is_disabled": 0, "bike_id": "248a9c63817bb77e594544cec0870027", "name": "248a9c63817bb77e594544cec0870027", "type": "electric_scooter", "fusion_lon": 0.0, "is_reserved": 0, "fusion_lat": 0.0, "lon": -77.053387}, {"rental_uris": {"ios": "https://dc.lft.to/lastmile_qr_scan", "android": "https://dc.lft.to/lastmile_qr_scan"}, "lat": 38.93038633333333, "is_disabled": 0, "bike_id": "7082b5d332ed01a6e3bcf68f21d365ba", "name": "7082b5d332ed01a6e3bcf68f21d365ba", "type": "electric_scooter", "fusion_lon": 0.0, "is_reserved": 0, "fusion_lat": 0.0, "lon": -77.04138}, {"rental_uris": {"ios": "https://dc.lft.to/lastmile_qr_scan", "android": "https://dc.lft.to/lastmile_qr_scan"}, "lat": 38.892216166666664, "is_disabled": 0, "bike_id": "d81ba4cd6e36a6d71a065626e88162fc", "name": "d81ba4cd6e36a6d71a065626e88162fc", "type": "electric_scooter", "fusion_lon": 0.0, "is_reserved": 0, "fusion_lat": 0.0, "lon": -77.02963483333333}, {"rental_uris": {"ios": "https://dc.lft.to/lastmile_qr_scan", "android": "https://dc.lft.to/lastmile_qr_scan"}, "lat": 38.90361566666667, "is_disabled": 0, "bike_id": "c9a5095a6ae79ac7adfb0ffc4903df3f", "name": "c9a5095a6ae79ac7adfb0ffc4903df3f", "type": "electric_scooter", "fusion_lon": 0.0, "is_reserved": 0, "fusion_lat": 0.0, "lon": -77.04458966666667}, {"rental_uris": {"ios": "https://dc.lft.to/lastmile_qr_scan", "android": "https://dc.lft.to/lastmile_qr_scan"}, "lat": 38.99039466666667, "is_disabled": 0, "bike_id": "1eca6bc79b9afc8bcae7cfbdfc7dd066", "name": "1eca6bc79b9afc8bcae7cfbdfc7dd066", "type": "electric_bike", "fusion_lon": 0.0, "is_reserved": 0, "fusion_lat": 0.0, "lon": -77.06953483333334}, {"rental_uris": {"ios": "https://dc.lft.to/lastmile_qr_scan", "android": "https://dc.lft.to/lastmile_qr_scan"}, "lat": 38.87635783333333, "is_disabled": 0, "bike_id": "ee51c0fafe06d55bee0646d7ceca47c9", "name": "ee51c0fafe06d55bee0646d7ceca47c9", "type": "electric_scooter", "fusion_lon": 0.0, "is_reserved": 0, "fusion_lat": 0.0, "lon": -77.00383}, {"rental_uris": {"ios": "https://dc.lft.to/lastmile_qr_scan", "android": "https://dc.lft.to/lastmile_qr_scan"}, "lat": 38.893538666666664, "is_disabled": 0, "bike_id": "b71afbf5fb61db9e1bb50b170ac36436", "name": "b71afbf5fb61db9e1bb50b170ac36436", "type": "electric_scooter", "fusion_lon": 0.0, "is_reserved": 0, "fusion_lat": 0.0, "lon": -77.00334316666667}, {"rental_uris": {"ios": "https://dc.lft.to/lastmile_qr_scan", "android": "https://dc.lft.to/lastmile_qr_scan"}, "lat": 38.9056275, "is_disabled": 0, "bike_id": "bf1471a7cb4c2564f6a84b93825a97e1", "name": "bf1471a7cb4c2564f6a84b93825a97e1", "type": "electric_scooter", "fusion_lon": 0.0, "is_reserved": 0, "fusion_lat": 0.0, "lon": -76.9814485}, {"rental_uris": {"ios": "https://dc.lft.to/lastmile_qr_scan", "android": "https://dc.lft.to/lastmile_qr_scan"}, "lat": 38.928614, "is_disabled": 0, "bike_id": "d66be8c928b4ea0f4ce19b3af7ba413d", "name": "d66be8c928b4ea0f4ce19b3af7ba413d", "type": "electric_scooter", "fusion_lon": 0.0, "is_reserved": 0, "fusion_lat": 0.0, "lon": -77.034427}, {"rental_uris": {"ios": "https://dc.lft.to/lastmile_qr_scan", "android": "https://dc.lft.to/lastmile_qr_scan"}, "lat": 38.917224166666664, "is_disabled": 0, "bike_id": "651e09026048bf198271f885c901c1c2", "name": "651e09026048bf198271f885c901c1c2", "type": "electric_scooter", "fusion_lon": 0.0, "is_reserved": 0, "fusion_lat": 0.0, "lon": -77.027034}, {"rental_uris": {"ios": "https://dc.lft.to/lastmile_qr_scan", "android": "https://dc.lft.to/lastmile_qr_scan"}, "lat": 38.908676666666665, "is_disabled": 0, "bike_id": "9b0313c20a9e678d18fbb7bf2c2eba08", "name": "9b0313c20a9e678d18fbb7bf2c2eba08", "type": "electric_scooter", "fusion_lon": 0.0, "is_reserved": 0, "fusion_lat": 0.0, "lon": -77.03220616666667}, {"rental_uris": {"ios": "https://dc.lft.to/lastmile_qr_scan", "android": "https://dc.lft.to/lastmile_qr_scan"}, "lat": 38.90492833333333, "is_disabled": 0, "bike_id": "2dc9f04f56715ac04d2cec1d6c386a06", "name": "2dc9f04f56715ac04d2cec1d6c386a06", "type": "electric_scooter", "fusion_lon": 0.0, "is_reserved": 0, "fusion_lat": 0.0, "lon": -77.02963283333334}, {"rental_uris": {"ios": "https://dc.lft.to/lastmile_qr_scan", "android": "https://dc.lft.to/lastmile_qr_scan"}, "lat": 38.903316, "is_disabled": 0, "bike_id": "4a80a7d31e2c1bbeee045d55d8cc6367", "name": "4a80a7d31e2c1bbeee045d55d8cc6367", "type": "electric_scooter", "fusion_lon": 0.0, "is_reserved": 0, "fusion_lat": 0.0, "lon": -77.03823933333334}, {"rental_uris": {"ios": "https://dc.lft.to/lastmile_qr_scan", "android": "https://dc.lft.to/lastmile_qr_scan"}, "lat": 38.92639483333333, "is_disabled": 0, "bike_id": "e744b56235f936f97037a96439ebfa8f", "name": "e744b56235f936f97037a96439ebfa8f", "type": "electric_scooter", "fusion_lon": 0.0, "is_reserved": 0, "fusion_lat": 0.0, "lon": -77.0251795}, {"rental_uris": {"ios": "https://dc.lft.to/lastmile_qr_scan", "android": "https://dc.lft.to/lastmile_qr_scan"}, "lat": 38.89967883333333, "is_disabled": 0, "bike_id": "97df9f2ff62411f98b5a61f735113eb4", "name": "97df9f2ff62411f98b5a61f735113eb4", "type": "electric_scooter", "fusion_lon": 0.0, "is_reserved": 0, "fusion_lat": 0.0, "lon": -76.93759116666666}, {"rental_uris": {"ios": "https://dc.lft.to/lastmile_qr_scan", "android": "https://dc.lft.to/lastmile_qr_scan"}, "lat": 38.883236833333335, "is_disabled": 0, "bike_id": "bc4f4e7d584e0a3436fe039ff38dafe9", "name": "bc4f4e7d584e0a3436fe039ff38dafe9", "type": "electric_scooter", "fusion_lon": 0.0, "is_reserved": 0, "fusion_lat": 0.0, "lon": -77.01675183333333}, {"rental_uris": {"ios": "https://dc.lft.to/lastmile_qr_scan", "android": "https://dc.lft.to/lastmile_qr_scan"}, "lat": 38.90355066666667, "is_disabled": 0, "bike_id": "2f337d272300870b738b4733e24114f9", "name": "2f337d272300870b738b4733e24114f9", "type": "electric_scooter", "fusion_lon": 0.0, "is_reserved": 0, "fusion_lat": 0.0, "lon": -77.04460366666666}, {"rental_uris": {"ios": "https://dc.lft.to/lastmile_qr_scan", "android": "https://dc.lft.to/lastmile_qr_scan"}, "lat": 38.94643766666667, "is_disabled": 0, "bike_id": "3f392e6d2120df62836d7aabf8bf089f", "name": "3f392e6d2120df62836d7aabf8bf089f", "type": "electric_scooter", "fusion_lon": 0.0, "is_reserved": 0, "fusion_lat": 0.0, "lon": -77.030367}, {"rental_uris": {"ios": "https://dc.lft.to/lastmile_qr_scan", "android": "https://dc.lft.to/lastmile_qr_scan"}, "lat": 38.91688166666667, "is_disabled": 0, "bike_id": "923b675c2c75b50d83b99ec3aabaf9cf", "name": "923b675c2c75b50d83b99ec3aabaf9cf", "type": "electric_scooter", "fusion_lon": 0.0, "is_reserved": 0, "fusion_lat": 0.0, "lon": -77.034935}, {"rental_uris": {"ios": "https://dc.lft.to/lastmile_qr_scan", "android": "https://dc.lft.to/lastmile_qr_scan"}, "lat": 38.92910366666667, "is_disabled": 0, "bike_id": "679778766f259e06646b7a3fbc64e3ea", "name": "679778766f259e06646b7a3fbc64e3ea", "type": "electric_scooter", "fusion_lon": 0.0, "is_reserved": 0, "fusion_lat": 0.0, "lon": -77.03751066666666}, {"rental_uris": {"ios": "https://dc.lft.to/lastmile_qr_scan", "android": "https://dc.lft.to/lastmile_qr_scan"}, "lat": 38.901597333333335, "is_disabled": 0, "bike_id": "5e2bc6c644dfad2be3ea1133143625b6", "name": "5e2bc6c644dfad2be3ea1133143625b6", "type": "electric_scooter", "fusion_lon": 0.0, "is_reserved": 0, "fusion_lat": 0.0, "lon": -77.02286416666666}, {"rental_uris": {"ios": "https://dc.lft.to/lastmile_qr_scan", "android": "https://dc.lft.to/lastmile_qr_scan"}, "lat": 38.90364316666667, "is_disabled": 0, "bike_id": "408dc83b2cec8f5c565f1e2fd06e6517", "name": "408dc83b2cec8f5c565f1e2fd06e6517", "type": "electric_scooter", "fusion_lon": 0.0, "is_reserved": 0, "fusion_lat": 0.0, "lon": -77.02009933333333}, {"rental_uris": {"ios": "https://dc.lft.to/lastmile_qr_scan", "android": "https://dc.lft.to/lastmile_qr_scan"}, "lat": 38.89219833333333, "is_disabled": 0, "bike_id": "0d18e1815071bbc26485e07e5d9db2ac", "name": "0d18e1815071bbc26485e07e5d9db2ac", "type": "electric_scooter", "fusion_lon": 0.0, "is_reserved": 0, "fusion_lat": 0.0, "lon": -77.032269}, {"rental_uris": {"ios": "https://dc.lft.to/lastmile_qr_scan", "android": "https://dc.lft.to/lastmile_qr_scan"}, "lat": 38.9275395, "is_disabled": 0, "bike_id": "0e71eaff203b3a27b4925492a23b59cd", "name": "0e71eaff203b3a27b4925492a23b59cd", "type": "electric_scooter", "fusion_lon": 0.0, "is_reserved": 0, "fusion_lat": 0.0, "lon": -77.03300316666666}, {"rental_uris": {"ios": "https://dc.lft.to/lastmile_qr_scan", "android": "https://dc.lft.to/lastmile_qr_scan"}, "lat": 38.904451333333334, "is_disabled": 0, "bike_id": "46a1fbbbfb6f24a560262582f5e150e4", "name": "46a1fbbbfb6f24a560262582f5e150e4", "type": "electric_scooter", "fusion_lon": 0.0, "is_reserved": 0, "fusion_lat": 0.0, "lon": -77.06113433333333}, {"rental_uris": {"ios": "https://dc.lft.to/lastmile_qr_scan", "android": "https://dc.lft.to/lastmile_qr_scan"}, "lat": 38.866227333333335, "is_disabled": 0, "bike_id": "3b083a940dc48a6f04fd5c13b16f4326", "name": "3b083a940dc48a6f04fd5c13b16f4326", "type": "electric_bike", "fusion_lon": 0.0, "is_reserved": 0, "fusion_lat": 0.0, "lon": -76.945725}, {"rental_uris": {"ios": "https://dc.lft.to/lastmile_qr_scan", "android": "https://dc.lft.to/lastmile_qr_scan"}, "lat": 38.897058666666666, "is_disabled": 0, "bike_id": "7639008db6027710a3f5e5de0441c9fd", "name": "7639008db6027710a3f5e5de0441c9fd", "type": "electric_scooter", "fusion_lon": 0.0, "is_reserved": 0, "fusion_lat": 0.0, "lon": -77.02302366666666}, {"rental_uris": {"ios": "https://dc.lft.to/lastmile_qr_scan", "android": "https://dc.lft.to/lastmile_qr_scan"}, "lat": 38.91262666666667, "is_disabled": 0, "bike_id": "3fb505e338cabc60e8800241be842bb4", "name": "3fb505e338cabc60e8800241be842bb4", "type": "electric_scooter", "fusion_lon": 0.0, "is_reserved": 0, "fusion_lat": 0.0, "lon": -77.02671416666666}, {"rental_uris": {"ios": "https://dc.lft.to/lastmile_qr_scan", "android": "https://dc.lft.to/lastmile_qr_scan"}, "lat": 38.84119333333334, "is_disabled": 0, "bike_id": "4042f62ceac5371792d24a25cd89e07b", "name": "4042f62ceac5371792d24a25cd89e07b", "type": "electric_bike", "fusion_lon": 0.0, "is_reserved": 0, "fusion_lat": 0.0, "lon": -77.08958516666667}, {"rental_uris": {"ios": "https://dc.lft.to/lastmile_qr_scan", "android": "https://dc.lft.to/lastmile_qr_scan"}, "lat": 38.89619483333333, "is_disabled": 0, "bike_id": "5563b3db1d3d1983b735bbf451532da9", "name": "5563b3db1d3d1983b735bbf451532da9", "type": "electric_scooter", "fusion_lon": 0.0, "is_reserved": 0, "fusion_lat": 0.0, "lon": -76.9476165}, {"rental_uris": {"ios": "https://dc.lft.to/lastmile_qr_scan", "android": "https://dc.lft.to/lastmile_qr_scan"}, "lat": 38.90012266666667, "is_disabled": 0, "bike_id": "4c8fd7d82bc3657ef3a37766ca774f1b", "name": "4c8fd7d82bc3657ef3a37766ca774f1b", "type": "electric_scooter", "fusion_lon": 0.0, "is_reserved": 0, "fusion_lat": 0.0, "lon": -77.0016215}, {"rental_uris": {"ios": "https://dc.lft.to/lastmile_qr_scan", "android": "https://dc.lft.to/lastmile_qr_scan"}, "lat": 38.9508175, "is_disabled": 0, "bike_id": "0dae40473a5fe8ebcdfcad55ec258717", "name": "0dae40473a5fe8ebcdfcad55ec258717", "type": "electric_bike", "fusion_lon": 0.0, "is_reserved": 0, "fusion_lat": 0.0, "lon": -77.0122685}, {"rental_uris": {"ios": "https://dc.lft.to/lastmile_qr_scan", "android": "https://dc.lft.to/lastmile_qr_scan"}, "lat": 38.844245, "is_disabled": 0, "bike_id": "64252e206df40ed0adc4d4f4f3854413", "name": "64252e206df40ed0adc4d4f4f3854413", "type": "electric_scooter", "fusion_lon": 0.0, "is_reserved": 0, "fusion_lat": 0.0, "lon": -76.99783}, {"rental_uris": {"ios": "https://dc.lft.to/lastmile_qr_scan", "android": "https://dc.lft.to/lastmile_qr_scan"}, "lat": 38.9758795, "is_disabled": 0, "bike_id": "3c8412c8efcd873e2918b2d5de3a9449", "name": "3c8412c8efcd873e2918b2d5de3a9449", "type": "electric_bike", "fusion_lon": 0.0, "is_reserved": 0, "fusion_lat": 0.0, "lon": -77.0351325}, {"rental_uris": {"ios": "https://dc.lft.to/lastmile_qr_scan", "android": "https://dc.lft.to/lastmile_qr_scan"}, "lat": 38.88317833333333, "is_disabled": 0, "bike_id": "b1548086a589c9e270191b0c21314fe9", "name": "b1548086a589c9e270191b0c21314fe9", "type": "electric_scooter", "fusion_lon": 0.0, "is_reserved": 0, "fusion_lat": 0.0, "lon": -76.94945316666667}, {"rental_uris": {"ios": "https://dc.lft.to/lastmile_qr_scan", "android": "https://dc.lft.to/lastmile_qr_scan"}, "lat": 38.956473833333334, "is_disabled": 0, "bike_id": "f6bb5ba25a5e2ae66f077d63a275883c", "name": "f6bb5ba25a5e2ae66f077d63a275883c", "type": "electric_scooter", "fusion_lon": 0.0, "is_reserved": 0, "fusion_lat": 0.0, "lon": -77.032853}, {"rental_uris": {"ios": "https://dc.lft.to/lastmile_qr_scan", "android": "https://dc.lft.to/lastmile_qr_scan"}, "lat": 38.903108, "is_disabled": 0, "bike_id": "06fff95a1da14400bb76eefeb6fadb19", "name": "06fff95a1da14400bb76eefeb6fadb19", "type": "electric_scooter", "fusion_lon": 0.0, "is_reserved": 0, "fusion_lat": 0.0, "lon": -77.02129783333334}, {"rental_uris": {"ios": "https://dc.lft.to/lastmile_qr_scan", "android": "https://dc.lft.to/lastmile_qr_scan"}, "lat": 38.836060833333335, "is_disabled": 0, "bike_id": "0cf65d3d1bce5b7ae1487851ca892846", "name": "0cf65d3d1bce5b7ae1487851ca892846", "type": "electric_bike", "fusion_lon": 0.0, "is_reserved": 0, "fusion_lat": 0.0, "lon": -77.00370483333333}, {"rental_uris": {"ios": "https://dc.lft.to/lastmile_qr_scan", "android": "https://dc.lft.to/lastmile_qr_scan"}, "lat": 38.885982166666665, "is_disabled": 0, "bike_id": "3f34807ff73304c7bdb28415f5e2072b", "name": "3f34807ff73304c7bdb28415f5e2072b", "type": "electric_scooter", "fusion_lon": 0.0, "is_reserved": 0, "fusion_lat": 0.0, "lon": -76.99455316666666}, {"rental_uris": {"ios": "https://dc.lft.to/lastmile_qr_scan", "android": "https://dc.lft.to/lastmile_qr_scan"}, "lat": 38.898896, "is_disabled": 0, "bike_id": "23e7652197562d13b62322babb6f4769", "name": "23e7652197562d13b62322babb6f4769", "type": "electric_scooter", "fusion_lon": 0.0, "is_reserved": 0, "fusion_lat": 0.0, "lon": -77.04325233333333}, {"rental_uris": {"ios": "https://dc.lft.to/lastmile_qr_scan", "android": "https://dc.lft.to/lastmile_qr_scan"}, "lat": 38.940947333333334, "is_disabled": 0, "bike_id": "7e7858d818844e0b98caca951177b43e", "name": "7e7858d818844e0b98caca951177b43e", "type": "electric_scooter", "fusion_lon": 0.0, "is_reserved": 0, "fusion_lat": 0.0, "lon": -77.02509883333333}, {"rental_uris": {"ios": "https://dc.lft.to/lastmile_qr_scan", "android": "https://dc.lft.to/lastmile_qr_scan"}, "lat": 38.880795, "is_disabled": 0, "bike_id": "a1701c4a3effca6edf89db8084a713e3", "name": "a1701c4a3effca6edf89db8084a713e3", "type": "electric_scooter", "fusion_lon": 0.0, "is_reserved": 0, "fusion_lat": 0.0, "lon": -76.98509183333333}, {"rental_uris": {"ios": "https://dc.lft.to/lastmile_qr_scan", "android": "https://dc.lft.to/lastmile_qr_scan"}, "lat": 38.85620216666667, "is_disabled": 0, "bike_id": "7e97b23305aa9cd29f7e2066b6800ea7", "name": "7e97b23305aa9cd29f7e2066b6800ea7", "type": "electric_bike", "fusion_lon": 0.0, "is_reserved": 0, "fusion_lat": 0.0, "lon": -77.08543633333333}, {"rental_uris": {"ios": "https://dc.lft.to/lastmile_qr_scan", "android": "https://dc.lft.to/lastmile_qr_scan"},