{"data": {"bikes": [{"name": "c1787aa836535ba24eed2d3ca7a1f833", "lon": -77.02149416666667, "lat": 38.924634, "type": "electric_scooter", "is_disabled": 0, "rental_uris": {"android": "https://dc.lft.to/lastmile_qr_scan", "ios": "https://dc.lft.to/lastmile_qr_scan"}, "fusion_lon": 0.0, "bike_id": "c1787aa836535ba24eed2d3ca7a1f833", "fusion_lat": 0.0, "is_reserved": 0}, {"name": "64e413c0d714c9f1ff37a4df0a9f24a8", "lon": -76.99998883333333, "lat": 38.83322733333333, "type": "electric_bike", "is_disabled": 0, "rental_uris": {"android": "https://dc.lft.to/lastmile_qr_scan", "ios": "https://dc.lft.to/lastmile_qr_scan"}, "fusion_lon": 0.0, "bike_id": "64e413c0d714c9f1ff37a4df0a9f24a8", "fusion_lat": 0.0, "is_reserved": 0}, {"name": "5323e2b339e7be88780abfbbe556752e", "lon": -76.94958916666667, "lat": 38.8946105, "type": "electric_scooter", "is_disabled": 0, "rental_uris": {"android": "https://dc.lft.to/lastmile_qr_scan", "ios": "https://dc.lft.to/lastmile_qr_scan"}, "fusion_lon": 0.0, "bike_id": "5323e2b339e7be88780abfbbe556752e", "fusion_lat": 0.0, "is_reserved": 0}, {"name": "e54fd9b0b105c03fa672f3388e1d90f3", "lon": -77.18432866666667, "lat": 38.890615333333336, "type": "electric_bike", "is_disabled": 0, "rental_uris": {"android": "https://dc.lft.to/lastmile_qr_scan", "ios": "https://dc.lft.to/lastmile_qr_scan"}, "fusion_lon": 0.0, "bike_id": "e54fd9b0b105c03fa672f3388e1d90f3", "fusion_lat": 0.0, "is_reserved": 0}, {"name": "e795379ad92fc87e1a1082c4e077be83", "lon": -77.03997133333333, "lat": 38.93425716666667, "type": "electric_scooter", "is_disabled": 0, "rental_uris": {"android": "https://dc.lft.to/lastmile_qr_scan", "ios": "https://dc.lft.to/lastmile_qr_scan"}, "fusion_lon": 0.0, "bike_id": "e795379ad92fc87e1a1082c4e077be83", "fusion_lat": 0.0, "is_reserved": 0}, {"name": "49c185c3038c16b9efeb3450e7ea81e0", "lon": -76.9743035, "lat": 38.864216, "type": "electric_scooter", "is_disabled": 0, "rental_uris": {"android": "https://dc.lft.to/lastmile_qr_scan", "ios": "https://dc.lft.to/lastmile_qr_scan"}, "fusion_lon": 0.0, "bike_id": "49c185c3038c16b9efeb3450e7ea81e0", "fusion_lat": 0.0, "is_reserved": 0}, {"name": "11ee0dd7c7d49b38527f9e894802fdc1", "lon": -76.98707983333334, "lat": 38.86629216666667, "type": "electric_scooter", "is_disabled": 0, "rental_uris": {"android": "https://dc.lft.to/lastmile_qr_scan", "ios": "https://dc.lft.to/lastmile_qr_scan"}, "fusion_lon": 0.0, "bike_id": "11ee0dd7c7d49b38527f9e894802fdc1", "fusion_lat": 0.0, "is_reserved": 0}, {"name": "4ddd6f3616ce2849be1e43a41be3e556", "lon": -77.0601695, "lat": 38.903023833333336, "type": "electric_scooter", "is_disabled": 0, "rental_uris": {"android": "https://dc.lft.to/lastmile_qr_scan", "ios": "https://dc.lft.to/lastmile_qr_scan"}, "fusion_lon": 0.0, "bike_id": "4ddd6f3616ce2849be1e43a41be3e556", "fusion_lat": 0.0, "is_reserved": 0}, {"name": "8348d76cb432b120a1a02e7f695914fc", "lon": -76.998068, "lat": 38.819828, "type": "electric_bike", "is_disabled": 0, "rental_uris": {"android": "https://dc.lft.to/lastmile_qr_scan", "ios": "https://dc.lft.to/lastmile_qr_scan"}, "fusion_lon": 0.0, "bike_id": "8348d76cb432b120a1a02e7f695914fc", "fusion_lat": 0.0, "is_reserved": 0}, {"name": "057dc81bf773ba82883d373f2d3fe86a", "lon": -77.0232515, "lat": 38.878864, "type": "electric_scooter", "is_disabled": 0, "rental_uris": {"android": "https://dc.lft.to/lastmile_qr_scan", "ios": "https://dc.lft.to/lastmile_qr_scan"}, "fusion_lon": 0.0, "bike_id": "057dc81bf773ba82883d373f2d3fe86a", "fusion_lat": 0.0, "is_reserved": 0}, {"name": "4b89f79833d273a0fbd2dda360b85622", "lon": -77.020322, "lat": 38.91305933333334, "type": "electric_scooter", "is_disabled": 0, "rental_uris": {"android": "https://dc.lft.to/lastmile_qr_scan", "ios": "https://dc.lft.to/lastmile_qr_scan"}, "fusion_lon": 0.0, "bike_id": "4b89f79833d273a0fbd2dda360b85622", "fusion_lat": 0.0, "is_reserved": 0}, {"name": "4f9dd16ac74d5c352187e302be57a63d", "lon": -77.03785633333334, "lat": 38.925045833333336, "type": "electric_scooter", "is_disabled": 0, "rental_uris": {"android": "https://dc.lft.to/lastmile_qr_scan", "ios": "https://dc.lft.to/lastmile_qr_scan"}, "fusion_lon": 0.0, "bike_id": "4f9dd16ac74d5c352187e302be57a63d", "fusion_lat": 0.0, "is_reserved": 0}, {"name": "70566dd0167e32bd9ffb1fd7c95c3724", "lon": -77.03934333333333, "lat": 38.91252133333333, "type": "electric_scooter", "is_disabled": 0, "rental_uris": {"android": "https://dc.lft.to/lastmile_qr_scan", "ios": "https://dc.lft.to/lastmile_qr_scan"}, "fusion_lon": 0.0, "bike_id": "70566dd0167e32bd9ffb1fd7c95c3724", "fusion_lat": 0.0, "is_reserved": 0}, {"name": "798e75f8ae7b37b882ea2b36449703af", "lon": -77.06762116666667, "lat": 38.9515235, "type": "electric_bike", "is_disabled": 0, "rental_uris": {"android": "https://dc.lft.to/lastmile_qr_scan", "ios": "https://dc.lft.to/lastmile_qr_scan"}, "fusion_lon": 0.0, "bike_id": "798e75f8ae7b37b882ea2b36449703af", "fusion_lat": 0.0, "is_reserved": 0}, {"name": "3c1e6c6f4bd4dc7fb69e4054e6ca923d", "lon": -77.12935566666667, "lat": 38.865120833333336, "type": "electric_bike", "is_disabled": 0, "rental_uris": {"android": "https://dc.lft.to/lastmile_qr_scan", "ios": "https://dc.lft.to/lastmile_qr_scan"}, "fusion_lon": 0.0, "bike_id": "3c1e6c6f4bd4dc7fb69e4054e6ca923d", "fusion_lat": 0.0, "is_reserved": 0}, {"name": "8f4649ca55d616d25eb25ff9419c2ac4", "lon": -77.02798133333333, "lat": 38.960466833333335, "type": "electric_scooter", "is_disabled": 0, "rental_uris": {"android": "https://dc.lft.to/lastmile_qr_scan", "ios": "https://dc.lft.to/lastmile_qr_scan"}, "fusion_lon": 0.0, "bike_id": "8f4649ca55d616d25eb25ff9419c2ac4", "fusion_lat": 0.0, "is_reserved": 0}, {"name": "56c31fbb517d7b8855999727725ab713", "lon": -77.02573233333334, "lat": 38.895654666666665, "type": "electric_scooter", "is_disabled": 0, "rental_uris": {"android": "https://dc.lft.to/lastmile_qr_scan", "ios": "https://dc.lft.to/lastmile_qr_scan"}, "fusion_lon": 0.0, "bike_id": "56c31fbb517d7b8855999727725ab713", "fusion_lat": 0.0, "is_reserved": 0}, {"name": "5232f8fdfbd0912f5fa1a8d88fcff5fc", "lon": -77.03153816666666, "lat": 38.89531683333333, "type": "electric_scooter", "is_disabled": 0, "rental_uris": {"android": "https://dc.lft.to/lastmile_qr_scan", "ios": "https://dc.lft.to/lastmile_qr_scan"}, "fusion_lon": 0.0, "bike_id": "5232f8fdfbd0912f5fa1a8d88fcff5fc", "fusion_lat": 0.0, "is_reserved": 0}, {"name": "fc3b04bba0ea5a3d8089864b307a410c", "lon": -77.06351216666667, "lat": 38.944444833333336, "type": "electric_scooter", "is_disabled": 0, "rental_uris": {"android": "https://dc.lft.to/lastmile_qr_scan", "ios": "https://dc.lft.to/lastmile_qr_scan"}, "fusion_lon": 0.0, "bike_id": "fc3b04bba0ea5a3d8089864b307a410c", "fusion_lat": 0.0, "is_reserved": 0}, {"name": "98b4b7e6a6e4b059b183be2d04c1e04e", "lon": -77.03713, "lat": 38.9263105, "type": "electric_scooter", "is_disabled": 0, "rental_uris": {"android": "https://dc.lft.to/lastmile_qr_scan", "ios": "https://dc.lft.to/lastmile_qr_scan"}, "fusion_lon": 0.0, "bike_id": "98b4b7e6a6e4b059b183be2d04c1e04e", "fusion_lat": 0.0, "is_reserved": 0}, {"name": "05bbbd22469cbd5e9adaa7a551547f26", "lon": -77.00797016666667, "lat": 38.91266566666667, "type": "electric_scooter", "is_disabled": 0, "rental_uris": {"android": "https://dc.lft.to/lastmile_qr_scan", "ios": "https://dc.lft.to/lastmile_qr_scan"}, "fusion_lon": 0.0, "bike_id": "05bbbd22469cbd5e9adaa7a551547f26", "fusion_lat": 0.0, "is_reserved": 0}, {"name": "f6c9c95861bc3b72ab005a867162ba77", "lon": -77.04841233333333, "lat": 38.912639, "type": "electric_scooter", "is_disabled": 0, "rental_uris": {"android": "https://dc.lft.to/lastmile_qr_scan", "ios": "https://dc.lft.to/lastmile_qr_scan"}, "fusion_lon": 0.0, "bike_id": "f6c9c95861bc3b72ab005a867162ba77", "fusion_lat": 0.0, "is_reserved": 0}, {"name": "c285317ac55c660fd0d325d6cb7e024f", "lon": -77.026928, "lat": 38.9022735, "type": "electric_scooter", "is_disabled": 0, "rental_uris": {"android": "https://dc.lft.to/lastmile_qr_scan", "ios": "https://dc.lft.to/lastmile_qr_scan"}, "fusion_lon": 0.0, "bike_id": "c285317ac55c660fd0d325d6cb7e024f", "fusion_lat": 0.0, "is_reserved": 0}, {"name": "7bcc699997da4a2f7b0a08d352bda9b9", "lon": -76.9258725, "lat": 38.89352133333333, "type": "electric_scooter", "is_disabled": 0, "rental_uris": {"android": "https://dc.lft.to/lastmile_qr_scan", "ios": "https://dc.lft.to/lastmile_qr_scan"}, "fusion_lon": 0.0, "bike_id": "7bcc699997da4a2f7b0a08d352bda9b9", "fusion_lat": 0.0, "is_reserved": 0}, {"name": "2a69cd0946d11e17a7c20aba1a8fcd13", "lon": -77.0483515, "lat": 38.91485816666667, "type": "electric_scooter", "is_disabled": 0, "rental_uris": {"android": "https://dc.lft.to/lastmile_qr_scan", "ios": "https://dc.lft.to/lastmile_qr_scan"}, "fusion_lon": 0.0, "bike_id": "2a69cd0946d11e17a7c20aba1a8fcd13", "fusion_lat": 0.0, "is_reserved": 0}, {"name": "bb6fb09119501e93568e9680fd82701e", "lon": -77.034519, "lat": 38.9055855, "type": "electric_scooter", "is_disabled": 0, "rental_uris": {"android": "https://dc.lft.to/lastmile_qr_scan", "ios": "https://dc.lft.to/lastmile_qr_scan"}, "fusion_lon": 0.0, "bike_id": "bb6fb09119501e93568e9680fd82701e", "fusion_lat": 0.0, "is_reserved": 0}, {"name": "0f8f174018f8c73af152ae2880d47227", "lon": -77.03856783333333, "lat": 38.90765533333333, "type": "electric_scooter", "is_disabled": 0, "rental_uris": {"android": "https://dc.lft.to/lastmile_qr_scan", "ios": "https://dc.lft.to/lastmile_qr_scan"}, "fusion_lon": 0.0, "bike_id": "0f8f174018f8c73af152ae2880d47227", "fusion_lat": 0.0, "is_reserved": 0}, {"name": "4784379c3e859283174d5f68e8640761", "lon": -76.946528, "lat": 38.898239833333335, "type": "electric_scooter", "is_disabled": 0, "rental_uris": {"android": "https://dc.lft.to/lastmile_qr_scan", "ios": "https://dc.lft.to/lastmile_qr_scan"}, "fusion_lon": 0.0, "bike_id": "4784379c3e859283174d5f68e8640761", "fusion_lat": 0.0, "is_reserved": 0}, {"name": "4d9cb57b85603eeb4201595194a83529", "lon": -76.99966933333333, "lat": 38.908333999999996, "type": "electric_scooter", "is_disabled": 0, "rental_uris": {"android": "https://dc.lft.to/lastmile_qr_scan", "ios": "https://dc.lft.to/lastmile_qr_scan"}, "fusion_lon": 0.0, "bike_id": "4d9cb57b85603eeb4201595194a83529", "fusion_lat": 0.0, "is_reserved": 0}, {"name": "61154fe4349ed827e6f7aba0bf0a96d7", "lon": -77.00209966666667, "lat": 38.895174, "type": "electric_scooter", "is_disabled": 0, "rental_uris": {"android": "https://dc.lft.to/lastmile_qr_scan", "ios": "https://dc.lft.to/lastmile_qr_scan"}, "fusion_lon": 0.0, "bike_id": "61154fe4349ed827e6f7aba0bf0a96d7", "fusion_lat": 0.0, "is_reserved": 0}, {"name": "4221f8629722de00e7db56234bb54101", "lon": -77.02912933333333, "lat": 38.898128, "type": "electric_scooter", "is_disabled": 0, "rental_uris": {"android": "https://dc.lft.to/lastmile_qr_scan", "ios": "https://dc.lft.to/lastmile_qr_scan"}, "fusion_lon": 0.0, "bike_id": "4221f8629722de00e7db56234bb54101", "fusion_lat": 0.0, "is_reserved": 0}, {"name": "c5eb7f440d16022a210f5df18d7edf62", "lon": -77.017711, "lat": 38.9202995, "type": "electric_scooter", "is_disabled": 0, "rental_uris": {"android": "https://dc.lft.to/lastmile_qr_scan", "ios": "https://dc.lft.to/lastmile_qr_scan"}, "fusion_lon": 0.0, "bike_id": "c5eb7f440d16022a210f5df18d7edf62", "fusion_lat": 0.0, "is_reserved": 0}, {"name": "9bfa28db3b14e46001b3638913b54c09", "lon": -76.97222516666666, "lat": 38.900264166666666, "type": "electric_bike", "is_disabled": 0, "rental_uris": {"android": "https://dc.lft.to/lastmile_qr_scan", "ios": "https://dc.lft.to/lastmile_qr_scan"}, "fusion_lon": 0.0, "bike_id": "9bfa28db3b14e46001b3638913b54c09", "fusion_lat": 0.0, "is_reserved": 0}, {"name": "c60b84c3e87c6f90a99bbe35a4d75716", "lon": -77.031758, "lat": 38.91572766666667, "type": "electric_scooter", "is_disabled": 0, "rental_uris": {"android": "https://dc.lft.to/lastmile_qr_scan", "ios": "https://dc.lft.to/lastmile_qr_scan"}, "fusion_lon": 0.0, "bike_id": "c60b84c3e87c6f90a99bbe35a4d75716", "fusion_lat": 0.0, "is_reserved": 0}, {"name": "fb02d2686394c4f6f302d1da7a190268", "lon": -77.019794, "lat": 38.911627333333335, "type": "electric_scooter", "is_disabled": 0, "rental_uris": {"android": "https://dc.lft.to/lastmile_qr_scan", "ios": "https://dc.lft.to/lastmile_qr_scan"}, "fusion_lon": 0.0, "bike_id": "fb02d2686394c4f6f302d1da7a190268", "fusion_lat": 0.0, "is_reserved": 0}, {"name": "7fd5e0b21c0507ca5bdbc10a362bfd06", "lon": -77.03503516666666, "lat": 38.90020716666667, "type": "electric_scooter", "is_disabled": 0, "rental_uris": {"android": "https://dc.lft.to/lastmile_qr_scan", "ios": "https://dc.lft.to/lastmile_qr_scan"}, "fusion_lon": 0.0, "bike_id": "7fd5e0b21c0507ca5bdbc10a362bfd06", "fusion_lat": 0.0, "is_reserved": 0}, {"name": "dcdb176ea3e057abfd0def20c0281160", "lon": -77.00373566666667, "lat": 38.897245833333336, "type": "electric_scooter", "is_disabled": 0, "rental_uris": {"android": "https://dc.lft.to/lastmile_qr_scan", "ios": "https://dc.lft.to/lastmile_qr_scan"}, "fusion_lon": 0.0, "bike_id": "dcdb176ea3e057abfd0def20c0281160", "fusion_lat": 0.0, "is_reserved": 0}, {"name": "9974b4a84a35c0533b0ab2dca8260d6d", "lon": -77.02835866666666, "lat": 38.9247145, "type": "electric_scooter", "is_disabled": 0, "rental_uris": {"android": "https://dc.lft.to/lastmile_qr_scan", "ios": "https://dc.lft.to/lastmile_qr_scan"}, "fusion_lon": 0.0, "bike_id": "9974b4a84a35c0533b0ab2dca8260d6d", "fusion_lat": 0.0, "is_reserved": 0}, {"name": "ea845892245f48c31d4d40f13faf623e", "lon": -77.00403316666667, "lat": 38.877097, "type": "electric_scooter", "is_disabled": 0, "rental_uris": {"android": "https://dc.lft.to/lastmile_qr_scan", "ios": "https://dc.lft.to/lastmile_qr_scan"}, "fusion_lon": 0.0, "bike_id": "ea845892245f48c31d4d40f13faf623e", "fusion_lat": 0.0, "is_reserved": 0}, {"name": "04ca700ede291e65b04d14ea437da510", "lon": -77.039676, "lat": 38.90223966666667, "type": "electric_scooter", "is_disabled": 0, "rental_uris": {"android": "https://dc.lft.to/lastmile_qr_scan", "ios": "https://dc.lft.to/lastmile_qr_scan"}, "fusion_lon": 0.0, "bike_id": "04ca700ede291e65b04d14ea437da510", "fusion_lat": 0.0, "is_reserved": 0}, {"name": "f8372b920157756648cbe3f285478b55", "lon": -77.03964116666667, "lat": 38.9023465, "type": "electric_scooter", "is_disabled": 0, "rental_uris": {"android": "https://dc.lft.to/lastmile_qr_scan", "ios": "https://dc.lft.to/lastmile_qr_scan"}, "fusion_lon": 0.0, "bike_id": "f8372b920157756648cbe3f285478b55", "fusion_lat": 0.0, "is_reserved": 0}, {"name": "fa81fdff56c405fd4ced348bd8e4bcdf", "lon": -77.04227183333333, "lat": 38.911010833333336, "type": "electric_scooter", "is_disabled": 0, "rental_uris": {"android": "https://dc.lft.to/lastmile_qr_scan", "ios": "https://dc.lft.to/lastmile_qr_scan"}, "fusion_lon": 0.0, "bike_id": "fa81fdff56c405fd4ced348bd8e4bcdf", "fusion_lat": 0.0, "is_reserved": 0}, {"name": "e58a271ee4e493f3e327ae4cda2c6b9e", "lon": -77.03873366666667, "lat": 38.93259916666667, "type": "electric_scooter", "is_disabled": 0, "rental_uris": {"android": "https://dc.lft.to/lastmile_qr_scan", "ios": "https://dc.lft.to/lastmile_qr_scan"}, "fusion_lon": 0.0, "bike_id": "e58a271ee4e493f3e327ae4cda2c6b9e", "fusion_lat": 0.0, "is_reserved": 0}, {"name": "c6577d93e19b3054139c4f6ced545f38", "lon": -76.91064966666667, "lat": 39.0107485, "type": "electric_bike", "is_disabled": 0, "rental_uris": {"android": "https://dc.lft.to/lastmile_qr_scan", "ios": "https://dc.lft.to/lastmile_qr_scan"}, "fusion_lon": 0.0, "bike_id": "c6577d93e19b3054139c4f6ced545f38", "fusion_lat": 0.0, "is_reserved": 0}, {"name": "9c85e53cbc02d0f3d0b7a600affcc318", "lon": -76.99564766666667, "lat": 38.92015466666667, "type": "electric_scooter", "is_disabled": 0, "rental_uris": {"android": "https://dc.lft.to/lastmile_qr_scan", "ios": "https://dc.lft.to/lastmile_qr_scan"}, "fusion_lon": 0.0, "bike_id": "9c85e53cbc02d0f3d0b7a600affcc318", "fusion_lat": 0.0, "is_reserved": 0}, {"name": "6a497cbc5d0bdb54ebf63cc912a73ad7", "lon": -77.04430383333333, "lat": 38.9097675, "type": "electric_scooter", "is_disabled": 0, "rental_uris": {"android": "https://dc.lft.to/lastmile_qr_scan", "ios": "https://dc.lft.to/lastmile_qr_scan"}, "fusion_lon": 0.0, "bike_id": "6a497cbc5d0bdb54ebf63cc912a73ad7", "fusion_lat": 0.0, "is_reserved": 0}, {"name": "0d7bd16a382cf896887fb037bcbaf533", "lon": -77.06404816666667, "lat": 38.94435633333333, "type": "electric_scooter", "is_disabled": 0, "rental_uris": {"android": "https://dc.lft.to/lastmile_qr_scan", "ios": "https://dc.lft.to/lastmile_qr_scan"}, "fusion_lon": 0.0, "bike_id": "0d7bd16a382cf896887fb037bcbaf533", "fusion_lat": 0.0, "is_reserved": 0}, {"name": "0c9dd18800e51a9a64addeccfa7224dd", "lon": -77.02041233333334, "lat": 38.89480433333333, "type": "electric_scooter", "is_disabled": 0, "rental_uris": {"android": "https://dc.lft.to/lastmile_qr_scan", "ios": "https://dc.lft.to/lastmile_qr_scan"}, "fusion_lon": 0.0, "bike_id": "0c9dd18800e51a9a64addeccfa7224dd", "fusion_lat": 0.0, "is_reserved": 0}, {"name": "42191e960030b3a4d13c6fc5226dc509", "lon": -77.020865, "lat": 38.921127, "type": "electric_scooter", "is_disabled": 0, "rental_uris": {"android": "https://dc.lft.to/lastmile_qr_scan", "ios": "https://dc.lft.to/lastmile_qr_scan"}, "fusion_lon": 0.0, "bike_id": "42191e960030b3a4d13c6fc5226dc509", "fusion_lat": 0.0, "is_reserved": 0}, {"name": "83b0860cbd2eef78889c914c41a4cdd8", "lon": -77.02196783333333, "lat": 38.9015235, "type": "electric_scooter", "is_disabled": 0, "rental_uris": {"android": "https://dc.lft.to/lastmile_qr_scan", "ios": "https://dc.lft.to/lastmile_qr_scan"}, "fusion_lon": 0.0, "bike_id": "83b0860cbd2eef78889c914c41a4cdd8", "fusion_lat": 0.0, "is_reserved": 0}, {"name": "be54ec000fe6f7e27393aee927811844", "lon": -76.9397115, "lat": 38.893391, "type": "electric_scooter", "is_disabled": 0, "rental_uris": {"android": "https://dc.lft.to/lastmile_qr_scan", "ios": "https://dc.lft.to/lastmile_qr_scan"}, "fusion_lon": 0.0, "bike_id": "be54ec000fe6f7e27393aee927811844", "fusion_lat": 0.0, "is_reserved": 0}, {"name": "bf88734932fdc33c237f74d6280da8b6", "lon": -77.02200316666666, "lat": 38.91039116666666, "type": "electric_scooter", "is_disabled": 0, "rental_uris": {"android": "https://dc.lft.to/lastmile_qr_scan", "ios": "https://dc.lft.to/lastmile_qr_scan"}, "fusion_lon": 0.0, "bike_id": "bf88734932fdc33c237f74d6280da8b6", "fusion_lat": 0.0, "is_reserved": 0}, {"name": "32cbd21cb5614b61fd89005a0835e1a9", "lon": -77.0068225, "lat": 38.8716725, "type": "electric_scooter", "is_disabled": 0, "rental_uris": {"android": "https://dc.lft.to/lastmile_qr_scan", "ios": "https://dc.lft.to/lastmile_qr_scan"}, "fusion_lon": 0.0, "bike_id": "32cbd21cb5614b61fd89005a0835e1a9", "fusion_lat": 0.0, "is_reserved": 0}, {"name": "cea25d678cc64a7c42b84d81449e0d9c", "lon": -77.0070355, "lat": 38.905611666666665, "type": "electric_scooter", "is_disabled": 0, "rental_uris": {"android": "https://dc.lft.to/lastmile_qr_scan", "ios": "https://dc.lft.to/lastmile_qr_scan"}, "fusion_lon": 0.0, "bike_id": "cea25d678cc64a7c42b84d81449e0d9c", "fusion_lat": 0.0, "is_reserved": 0}, {"name": "9592241ffaa03aab2c6eda262169ef2a", "lon": -77.0237815, "lat": 38.90722133333333, "type": "electric_scooter", "is_disabled": 0, "rental_uris": {"android": "https://dc.lft.to/lastmile_qr_scan", "ios": "https://dc.lft.to/lastmile_qr_scan"}, "fusion_lon": 0.0, "bike_id": "9592241ffaa03aab2c6eda262169ef2a", "fusion_lat": 0.0, "is_reserved": 0}, {"name": "c0103c698e0a172cfcbd2c8a71bb2ef3", "lon": -77.0340475, "lat": 38.9226475, "type": "electric_scooter", "is_disabled": 0, "rental_uris": {"android": "https://dc.lft.to/lastmile_qr_scan", "ios": "https://dc.lft.to/lastmile_qr_scan"}, "fusion_lon": 0.0, "bike_id": "c0103c698e0a172cfcbd2c8a71bb2ef3", "fusion_lat": 0.0, "is_reserved": 0}, {"name": "f11fde8dea9bd8ccbb96808b0de7461e", "lon": -77.05744683333333, "lat": 38.933943666666664, "type": "electric_scooter", "is_disabled": 0, "rental_uris": {"android": "https://dc.lft.to/lastmile_qr_scan", "ios": "https://dc.lft.to/lastmile_qr_scan"}, "fusion_lon": 0.0, "bike_id": "f11fde8dea9bd8ccbb96808b0de7461e", "fusion_lat": 0.0, "is_reserved": 0}, {"name": "3ba3be869803cd6548ef2dc610be3b05", "lon": -77.03439183333333, "lat": 38.9285915, "type": "electric_scooter", "is_disabled": 0, "rental_uris": {"android": "https://dc.lft.to/lastmile_qr_scan", "ios": "https://dc.lft.to/lastmile_qr_scan"}, "fusion_lon": 0.0, "bike_id": "3ba3be869803cd6548ef2dc610be3b05", "fusion_lat": 0.0, "is_reserved": 0}, {"name": "a9711c3a429f9992059c5209bfe73c7f", "lon": -77.02332483333333, "lat": 38.91413133333333, "type": "electric_scooter", "is_disabled": 0, "rental_uris": {"android": "https://dc.lft.to/lastmile_qr_scan", "ios": "https://dc.lft.to/lastmile_qr_scan"}, "fusion_lon": 0.0, "bike_id": "a9711c3a429f9992059c5209bfe73c7f", "fusion_lat": 0.0, "is_reserved": 0}, {"name": "e6faa4c31f3b4d74df1071e2723ca72e", "lon": -77.00113816666666, "lat": 38.87373566666667, "type": "electric_scooter", "is_disabled": 0, "rental_uris": {"android": "https://dc.lft.to/lastmile_qr_scan", "ios": "https://dc.lft.to/lastmile_qr_scan"}, "fusion_lon": 0.0, "bike_id": "e6faa4c31f3b4d74df1071e2723ca72e", "fusion_lat": 0.0, "is_reserved": 0}, {"name": "4fadc6be70e936bc054d12cf189263a7", "lon": -77.02805933333333, "lat": 38.91756, "type": "electric_scooter", "is_disabled": 0, "rental_uris": {"android": "https://dc.lft.to/lastmile_qr_scan", "ios": "https://dc.lft.to/lastmile_qr_scan"}, "fusion_lon": 0.0, "bike_id": "4fadc6be70e936bc054d12cf189263a7", "fusion_lat": 0.0, "is_reserved": 0}, {"name": "6b4ebadbce9f688366eb659f4ff02867", "lon": -77.01741033333333, "lat": 38.9203325, "type": "electric_scooter", "is_disabled": 0, "rental_uris": {"android": "https://dc.lft.to/lastmile_qr_scan", "ios": "https://dc.lft.to/lastmile_qr_scan"}, "fusion_lon": 0.0, "bike_id": "6b4ebadbce9f688366eb659f4ff02867", "fusion_lat": 0.0, "is_reserved": 0}, {"name": "f334ce158517f23fba423db6dcce7bc4", "lon": -77.02698216666667, "lat": 38.90951116666667, "type": "electric_scooter", "is_disabled": 0, "rental_uris": {"android": "https://dc.lft.to/lastmile_qr_scan", "ios": "https://dc.lft.to/lastmile_qr_scan"}, "fusion_lon": 0.0, "bike_id": "f334ce158517f23fba423db6dcce7bc4", "fusion_lat": 0.0, "is_reserved": 0}, {"name": "9f38cc0110d2d56b52b6607d79b8057f", "lon": -77.03206316666666, "lat": 38.90111683333333, "type": "electric_scooter", "is_disabled": 0, "rental_uris": {"android": "https://dc.lft.to/lastmile_qr_scan", "ios": "https://dc.lft.to/lastmile_qr_scan"}, "fusion_lon": 0.0, "bike_id": "9f38cc0110d2d56b52b6607d79b8057f", "fusion_lat": 0.0, "is_reserved": 0}, {"name": "beb2ca87159cd134668f6082660a6ae5", "lon": -77.05135116666666, "lat": 38.9055745, "type": "electric_scooter", "is_disabled": 0, "rental_uris": {"android": "https://dc.lft.to/lastmile_qr_scan", "ios": "https://dc.lft.to/lastmile_qr_scan"}, "fusion_lon": 0.0, "bike_id": "beb2ca87159cd134668f6082660a6ae5", "fusion_lat": 0.0, "is_reserved": 0}, {"name": "4b1e265f9ff0c860afe3406de0a8e12a", "lon": -77.06932716666667, "lat": 38.95543266666667, "type": "electric_bike", "is_disabled": 0, "rental_uris": {"android": "https://dc.lft.to/lastmile_qr_scan", "ios": "https://dc.lft.to/lastmile_qr_scan"}, "fusion_lon": 0.0, "bike_id": "4b1e265f9ff0c860afe3406de0a8e12a", "fusion_lat": 0.0, "is_reserved": 0}, {"name": "c787bcc0731261f83ef44e9d95586db2", "lon": -77.07695733333334, "lat": 38.9941305, "type": "electric_bike", "is_disabled": 0, "rental_uris": {"android": "https://dc.lft.to/lastmile_qr_scan", "ios": "https://dc.lft.to/lastmile_qr_scan"}, "fusion_lon": 0.0, "bike_id": "c787bcc0731261f83ef44e9d95586db2", "fusion_lat": 0.0, "is_reserved": 0}, {"name": "53daf017b9975973d359bb1c1b12e8f7", "lon": -77.03996883333333, "lat": 38.934191166666665, "type": "electric_scooter", "is_disabled": 0, "rental_uris": {"android": "https://dc.lft.to/lastmile_qr_scan", "ios": "https://dc.lft.to/lastmile_qr_scan"}, "fusion_lon": 0.0, "bike_id": "53daf017b9975973d359bb1c1b12e8f7", "fusion_lat": 0.0, "is_reserved": 0}, {"name": "a28eb55e7269660d061abca366029561", "lon": -77.05972983333334, "lat": 38.92824433333333, "type": "electric_scooter", "is_disabled": 0, "rental_uris": {"android": "https://dc.lft.to/lastmile_qr_scan", "ios": "https://dc.lft.to/lastmile_qr_scan"}, "fusion_lon": 0.0, "bike_id": "a28eb55e7269660d061abca366029561", "fusion_lat": 0.0, "is_reserved": 0}, {"name": "e25ed148ec843e00b654fcbcb7aad60b", "lon": -77.02242116666666, "lat": 38.92262266666667, "type": "electric_scooter", "is_disabled": 0, "rental_uris": {"android": "https://dc.lft.to/lastmile_qr_scan", "ios": "https://dc.lft.to/lastmile_qr_scan"}, "fusion_lon": 0.0, "bike_id": "e25ed148ec843e00b654fcbcb7aad60b", "fusion_lat": 0.0, "is_reserved": 0}, {"name": "2449c9746a7b65e6d374c771b050cc8a", "lon": -77.00184283333333, "lat": 38.82215866666667, "type": "electric_scooter", "is_disabled": 0, "rental_uris": {"android": "https://dc.lft.to/lastmile_qr_scan", "ios": "https://dc.lft.to/lastmile_qr_scan"}, "fusion_lon": 0.0, "bike_id": "2449c9746a7b65e6d374c771b050cc8a", "fusion_lat": 0.0, "is_reserved": 0}, {"name": "180628dd3d59c5fedef40914bbbcaf0f", "lon": -77.033715, "lat": 38.92436816666667, "type": "electric_scooter", "is_disabled": 0, "rental_uris": {"android": "https://dc.lft.to/lastmile_qr_scan", "ios": "https://dc.lft.to/lastmile_qr_scan"}, "fusion_lon": 0.0, "bike_id": "180628dd3d59c5fedef40914bbbcaf0f", "fusion_lat": 0.0, "is_reserved": 0}, {"name": "8af17d583713e3206dff94c1de17c828", "lon": -77.02035833333333, "lat": 38.884970333333335, "type": "electric_scooter", "is_disabled": 0, "rental_uris": {"android": "https://dc.lft.to/lastmile_qr_scan", "ios": "https://dc.lft.to/lastmile_qr_scan"}, "fusion_lon": 0.0, "bike_id": "8af17d583713e3206dff94c1de17c828", "fusion_lat": 0.0, "is_reserved": 0}, {"name": "9d75962182cde7f1c05b46a8532edbf3", "lon": -77.03155666666666, "lat": 38.91692366666667, "type": "electric_scooter", "is_disabled": 0, "rental_uris": {"android": "https://dc.lft.to/lastmile_qr_scan", "ios": "https://dc.lft.to/lastmile_qr_scan"}, "fusion_lon": 0.0, "bike_id": "9d75962182cde7f1c05b46a8532edbf3", "fusion_lat": 0.0, "is_reserved": 0}, {"name": "369f427652c22d5d5893d502507f4f44", "lon": -76.98693766666666, "lat": 38.900138166666665, "type": "electric_scooter", "is_disabled": 0, "rental_uris": {"android": "https://dc.lft.to/lastmile_qr_scan", "ios": "https://dc.lft.to/lastmile_qr_scan"}, "fusion_lon": 0.0, "bike_id": "369f427652c22d5d5893d502507f4f44", "fusion_lat": 0.0, "is_reserved": 0}, {"name": "090dcefd91b007f12a511afb9095ed9d", "lon": -77.03170266666666, "lat": 38.916167333333334, "type": "electric_scooter", "is_disabled": 0, "rental_uris": {"android": "https://dc.lft.to/lastmile_qr_scan", "ios": "https://dc.lft.to/lastmile_qr_scan"}, "fusion_lon": 0.0, "bike_id": "090dcefd91b007f12a511afb9095ed9d", "fusion_lat": 0.0, "is_reserved": 0}, {"name": "26a8140865d4025c0eb1ee2e0125f226", "lon": -77.029621, "lat": 38.8966875, "type": "electric_scooter", "is_disabled": 0, "rental_uris": {"android": "https://dc.lft.to/lastmile_qr_scan", "ios": "https://dc.lft.to/lastmile_qr_scan"}, "fusion_lon": 0.0, "bike_id": "26a8140865d4025c0eb1ee2e0125f226", "fusion_lat": 0.0, "is_reserved": 0}, {"name": "2c412df49ecf16b4ca2f80afd282e27e", "lon": -77.02965766666667, "lat": 38.8987775, "type": "electric_scooter", "is_disabled": 0, "rental_uris": {"android": "https://dc.lft.to/lastmile_qr_scan", "ios": "https://dc.lft.to/lastmile_qr_scan"}, "fusion_lon": 0.0, "bike_id": "2c412df49ecf16b4ca2f80afd282e27e", "fusion_lat": 0.0, "is_reserved": 0}, {"name": "4dec59f158c49ed2e5688eed644644fc", "lon": -77.02970016666667, "lat": 38.91722216666667, "type": "electric_scooter", "is_disabled": 0, "rental_uris": {"android": "https://dc.lft.to/lastmile_qr_scan", "ios": "https://dc.lft.to/lastmile_qr_scan"}, "fusion_lon": 0.0, "bike_id": "4dec59f158c49ed2e5688eed644644fc", "fusion_lat": 0.0, "is_reserved": 0}, {"name": "72998c6c34ebf82f82b27fa04c8f0669", "lon": -76.93404816666667, "lat": 38.898919666666664, "type": "electric_scooter", "is_disabled": 0, "rental_uris": {"android": "https://dc.lft.to/lastmile_qr_scan", "ios": "https://dc.lft.to/lastmile_qr_scan"}, "fusion_lon": 0.0, "bike_id": "72998c6c34ebf82f82b27fa04c8f0669", "fusion_lat": 0.0, "is_reserved": 0}, {"name": "d5b5da68bc84d407203dac9b9946053a", "lon": -77.02195716666667, "lat": 38.90971433333333, "type": "electric_scooter", "is_disabled": 0, "rental_uris": {"android": "https://dc.lft.to/lastmile_qr_scan", "ios": "https://dc.lft.to/lastmile_qr_scan"}, "fusion_lon": 0.0, "bike_id": "d5b5da68bc84d407203dac9b9946053a", "fusion_lat": 0.0, "is_reserved": 0}, {"name": "7df99848492cbb041590c4a462e72a05", "lon": -77.02685983333333, "lat": 38.909931666666665, "type": "electric_scooter", "is_disabled": 0, "rental_uris": {"android": "https://dc.lft.to/lastmile_qr_scan", "ios": "https://dc.lft.to/lastmile_qr_scan"}, "fusion_lon": 0.0, "bike_id": "7df99848492cbb041590c4a462e72a05", "fusion_lat": 0.0, "is_reserved": 0}, {"name": "ea292db52274461dd2010a23b470eb0e", "lon": -77.08020733333333, "lat": 38.9478435, "type": "electric_scooter", "is_disabled": 0, "rental_uris": {"android": "https://dc.lft.to/lastmile_qr_scan", "ios": "https://dc.lft.to/lastmile_qr_scan"}, "fusion_lon": 0.0, "bike_id": "ea292db52274461dd2010a23b470eb0e", "fusion_lat": 0.0, "is_reserved": 0}, {"name": "b468cf07dbe1d9fedffa0bd3496ee3d3", "lon": -77.02407566666666, "lat": 38.941799833333334, "type": "electric_scooter", "is_disabled": 0, "rental_uris": {"android": "https://dc.lft.to/lastmile_qr_scan", "ios": "https://dc.lft.to/lastmile_qr_scan"}, "fusion_lon": 0.0, "bike_id": "b468cf07dbe1d9fedffa0bd3496ee3d3", "fusion_lat": 0.0, "is_reserved": 0}, {"name": "3d17a4f0139814824eddbc5bc42b9795", "lon": -76.999517, "lat": 38.908580666666666, "type": "electric_bike", "is_disabled": 0, "rental_uris": {"android": "https://dc.lft.to/lastmile_qr_scan", "ios": "https://dc.lft.to/lastmile_qr_scan"}, "fusion_lon": 0.0, "bike_id": "3d17a4f0139814824eddbc5bc42b9795", "fusion_lat": 0.0, "is_reserved": 0}, {"name": "8608279f1093c3aa77c934ba75e5f5a5", "lon": -77.0388465, "lat": 38.91843466666667, "type": "electric_scooter", "is_disabled": 0, "rental_uris": {"android": "https://dc.lft.to/lastmile_qr_scan", "ios": "https://dc.lft.to/lastmile_qr_scan"}, "fusion_lon": 0.0, "bike_id": "8608279f1093c3aa77c934ba75e5f5a5", "fusion_lat": 0.0, "is_reserved": 0}, {"name": "32289e9af39ffb5dcc4b7223236bd31a", "lon": -77.02207416666667, "lat": 38.892236, "type": "electric_scooter", "is_disabled": 0, "rental_uris": {"android": "https://dc.lft.to/lastmile_qr_scan", "ios": "https://dc.lft.to/lastmile_qr_scan"}, "fusion_lon": 0.0, "bike_id": "32289e9af39ffb5dcc4b7223236bd31a", "fusion_lat": 0.0, "is_reserved": 0}, {"name": "42b8d75111965a0a903350ef34942bd1", "lon": -77.03872716666666, "lat": 38.9326785, "type": "electric_scooter", "is_disabled": 0, "rental_uris": {"android": "https://dc.lft.to/lastmile_qr_scan", "ios": "https://dc.lft.to/lastmile_qr_scan"}, "fusion_lon": 0.0, "bike_id": "42b8d75111965a0a903350ef34942bd1", "fusion_lat": 0.0, "is_reserved": 0}, {"name": "055ab930b84daaa7bf36606251dd1a00", "lon": -77.03560883333333, "lat": 38.90133733333333, "type": "electric_scooter", "is_disabled": 0, "rental_uris": {"android": "https://dc.lft.to/lastmile_qr_scan", "ios": "https://dc.lft.to/lastmile_qr_scan"}, "fusion_lon": 0.0, "bike_id": "055ab930b84daaa7bf36606251dd1a00", "fusion_lat": 0.0, "is_reserved": 0}, {"name": "0d1c671a53b8799a7e5aff4812cd956a", "lon": -77.07267416666667, "lat": 38.908997666666664, "type": "electric_scooter", "is_disabled": 0, "rental_uris": {"android": "https://dc.lft.to/lastmile_qr_scan", "ios": "https://dc.lft.to/lastmile_qr_scan"}, "fusion_lon": 0.0, "bike_id": "0d1c671a53b8799a7e5aff4812cd956a", "fusion_lat": 0.0, "is_reserved": 0}, {"name": "ddba3473d9916df00696dc4186c0911d", "lon": -77.04735866666667, "lat": 38.89725166666667, "type": "electric_scooter", "is_disabled": 0, "rental_uris": {"android": "https://dc.lft.to/lastmile_qr_scan", "ios": "https://dc.lft.to/lastmile_qr_scan"}, "fusion_lon": 0.0, "bike_id": "ddba3473d9916df00696dc4186c0911d", "fusion_lat": 0.0, "is_reserved": 0}, {"name": "eae49b688842749a82fa35e8e2010cd2", "lon": -77.02981183333333, "lat": 38.931073166666664, "type": "electric_scooter", "is_disabled": 0, "rental_uris": {"android": "https://dc.lft.to/lastmile_qr_scan", "ios": "https://dc.lft.to/lastmile_qr_scan"}, "fusion_lon": 0.0, "bike_id": "eae49b688842749a82fa35e8e2010cd2", "fusion_lat": 0.0, "is_reserved": 0}, {"name": "d6ad8e612962a3d87afe7adbf308ba9a", "lon": -77.045113, "lat": 38.89603433333333, "type": "electric_scooter", "is_disabled": 0, "rental_uris": {"android": "https://dc.lft.to/lastmile_qr_scan", "ios": "https://dc.lft.to/lastmile_qr_scan"}, "fusion_lon": 0.0, "bike_id": "d6ad8e612962a3d87afe7adbf308ba9a", "fusion_lat": 0.0, "is_reserved": 0}, {"name": "cb9d2b0c896b51ccd88149dcc54604b5", "lon": -77.04372316666667, "lat": 38.89219883333333, "type": "electric_scooter", "is_disabled": 0, "rental_uris": {"android": "https://dc.lft.to/lastmile_qr_scan", "ios": "https://dc.lft.to/lastmile_qr_scan"}, "fusion_lon": 0.0, "bike_id": "cb9d2b0c896b51ccd88149dcc54604b5", "fusion_lat": 0.0, "is_reserved": 0}, {"name": "69469d4ee665b3f94bdb00cb730660dc", "lon": -76.94638316666666, "lat": 38.898577333333336, "type": "electric_scooter", "is_disabled": 0, "rental_uris": {"android": "https://dc.lft.to/lastmile_qr_scan", "ios": "https://dc.lft.to/lastmile_qr_scan"}, "fusion_lon": 0.0, "bike_id": "69469d4ee665b3f94bdb00cb730660dc", "fusion_lat": 0.0, "is_reserved": 0}, {"name": "5d81864a85828dd31288eb708bca8bf0", "lon": -77.02308666666667, "lat": 38.91772866666667, "type": "electric_scooter", "is_disabled": 0, "rental_uris": {"android": "https://dc.lft.to/lastmile_qr_scan", "ios": "https://dc.lft.to/lastmile_qr_scan"}, "fusion_lon": 0.0, "bike_id": "5d81864a85828dd31288eb708bca8bf0", "fusion_lat": 0.0, "is_reserved": 0}, {"name": "edf714b3742a87d4049e645c39338e15", "lon": -77.02712683333333, "lat": 38.896496166666665, "type": "electric_scooter", "is_disabled": 0, "rental_uris": {"android": "https://dc.lft.to/lastmile_qr_scan", "ios": "https://dc.lft.to/lastmile_qr_scan"}, "fusion_lon": 0.0, "bike_id": "edf714b3742a87d4049e645c39338e15", "fusion_lat": 0.0, "is_reserved": 0}, {"name": "6f49588f0177b9a048a612ad2f76eeb7", "lon": -76.97163566666667, "lat": 38.861321833333335, "type": "electric_scooter", "is_disabled": 0, "rental_uris": {"android": "https://dc.lft.to/lastmile_qr_scan", "ios": "https://dc.lft.to/lastmile_qr_scan"}, "fusion_lon": 0.0, "bike_id": "6f49588f0177b9a048a612ad2f76eeb7", "fusion_lat": 0.0, "is_reserved": 0}, {"name": "16b41b70c10c56ce3237a660e074aadc", "lon": -77.03213666666667, "lat": 38.92143266666667, "type": "electric_scooter", "is_disabled": 0, "rental_uris": {"android": "https://dc.lft.to/lastmile_qr_scan", "ios": "https://dc.lft.to/lastmile_qr_scan"}, "fusion_lon": 0.0, "bike_id": "16b41b70c10c56ce3237a660e074aadc", "fusion_lat": 0.0, "is_reserved": 0}, {"name": "d3ab81b102addd61971133e4ec581a41", "lon": -77.02832516666666, "lat": 38.898622, "type": "electric_scooter", "is_disabled": 0, "rental_uris": {"android": "https://dc.lft.to/lastmile_qr_scan", "ios": "https://dc.lft.to/lastmile_qr_scan"}, "fusion_lon": 0.0, "bike_id": "d3ab81b102addd61971133e4ec581a41", "fusion_lat": 0.0, "is_reserved": 0}, {"name": "7cb885285738b7c8e85ad5efaaeb7af9", "lon": -77.02225466666667, "lat": 38.912488, "type": "electric_scooter", "is_disabled": 0, "rental_uris": {"android": "https://dc.lft.to/lastmile_qr_scan", "ios": "https://dc.lft.to/lastmile_qr_scan"}, "fusion_lon": 0.0, "bike_id": "7cb885285738b7c8e85ad5efaaeb7af9", "fusion_lat": 0.0, "is_reserved": 0}, {"name": "949295f47783fed6a89d11918987c873", "lon": -77.12526, "lat": 39.05633, "type": "electric_bike", "is_disabled": 0, "rental_uris": {"android": "https://dc.lft.to/lastmile_qr_scan", "ios": "https://dc.lft.to/lastmile_qr_scan"}, "fusion_lon": 0.0, "bike_id": "949295f47783fed6a89d11918987c873", "fusion_lat": 0.0, "is_reserved": 0}, {"name": "41954e775933f9bc60cd45dd4cffa3f1", "lon": -77.002254, "lat": 38.92507533333333, "type": "electric_scooter", "is_disabled": 0, "rental_uris": {"android": "https://dc.lft.to/lastmile_qr_scan", "ios": "https://dc.lft.to/lastmile_qr_scan"}, "fusion_lon": 0.0, "bike_id": "41954e775933f9bc60cd45dd4cffa3f1", "fusion_lat": 0.0, "is_reserved": 0}, {"name": "6192fb50f7536358a10e15d95f320a85", "lon": -77.02225783333333, "lat": 38.90845066666667, "type": "electric_scooter", "is_disabled": 0, "rental_uris": {"android": "https://dc.lft.to/lastmile_qr_scan", "ios": "https://dc.lft.to/lastmile_qr_scan"}, "fusion_lon": 0.0, "bike_id": "6192fb50f7536358a10e15d95f320a85", "fusion_lat": 0.0, "is_reserved": 0}, {"name": "15b42e7407c00e81b081210f33dee77d", "lon": -77.02687283333333, "lat": 38.894626, "type": "electric_scooter", "is_disabled": 0, "rental_uris": {"android": "https://dc.lft.to/lastmile_qr_scan", "ios": "https://dc.lft.to/lastmile_qr_scan"}, "fusion_lon": 0.0, "bike_id": "15b42e7407c00e81b081210f33dee77d", "fusion_lat": 0.0, "is_reserved": 0}, {"name": "f7038871aef8fa8e096cade41d219e40", "lon": -77.047395, "lat": 38.8973235, "type": "electric_scooter", "is_disabled": 0, "rental_uris": {"android": "https://dc.lft.to/lastmile_qr_scan", "ios": "https://dc.lft.to/lastmile_qr_scan"}, "fusion_lon": 0.0, "bike_id": "f7038871aef8fa8e096cade41d219e40", "fusion_lat": 0.0, "is_reserved": 0}, {"name": "bd4147b4503cb759b1a13e42f05747de", "lon": -76.99550283333333, "lat": 38.90017566666667, "type": "electric_scooter", "is_disabled": 0, "rental_uris": {"android": "https://dc.lft.to/lastmile_qr_scan", "ios": "https://dc.lft.to/lastmile_qr_scan"}, "fusion_lon": 0.0, "bike_id": "bd4147b4503cb759b1a13e42f05747de", "fusion_lat": 0.0, "is_reserved": 0}, {"name": "d603aa5220de70ef48aff68f397bc838", "lon": -76.98356716666666, "lat": 38.894333333333336, "type": "electric_scooter", "is_disabled": 0, "rental_uris": {"android": "https://dc.lft.to/lastmile_qr_scan", "ios": "https://dc.lft.to/lastmile_qr_scan"}, "fusion_lon": 0.0, "bike_id": "d603aa5220de70ef48aff68f397bc838", "fusion_lat": 0.0, "is_reserved": 0}, {"name": "7b9416e1e7b26a766dbd81a138250bab", "lon": -77.038448, "lat": 38.91207033333333, "type": "electric_scooter", "is_disabled": 0, "rental_uris": {"android": "https://dc.lft.to/lastmile_qr_scan", "ios": "https://dc.lft.to/lastmile_qr_scan"}, "fusion_lon": 0.0, "bike_id": "7b9416e1e7b26a766dbd81a138250bab", "fusion_lat": 0.0, "is_reserved": 0}, {"name": "acb1a1df19c3863eca4bb3501bd76c04", "lon": -77.01958316666666, "lat": 38.8925025, "type": "electric_scooter", "is_disabled": 0, "rental_uris": {"android": "https://dc.lft.to/lastmile_qr_scan", "ios": "https://dc.lft.to/lastmile_qr_scan"}, "fusion_lon": 0.0, "bike_id": "acb1a1df19c3863eca4bb3501bd76c04", "fusion_lat": 0.0, "is_reserved": 0}, {"name": "c3760472769993a1c9631d28941a0ea7", "lon": -77.007954, "lat": 38.89711783333333, "type": "electric_scooter", "is_disabled": 0, "rental_uris": {"android": "https://dc.lft.to/lastmile_qr_scan", "ios": "https://dc.lft.to/lastmile_qr_scan"}, "fusion_lon": 0.0, "bike_id": "c3760472769993a1c9631d28941a0ea7", "fusion_lat": 0.0, "is_reserved": 0}, {"name": "7ce27860435efaf1c2a3be6904b037d2", "lon": -77.0307645, "lat": 38.89441016666667, "type": "electric_scooter", "is_disabled": 0, "rental_uris": {"android": "https://dc.lft.to/lastmile_qr_scan", "ios": "https://dc.lft.to/lastmile_qr_scan"}, "fusion_lon": 0.0, "bike_id": "7ce27860435efaf1c2a3be6904b037d2", "fusion_lat": 0.0, "is_reserved": 0}, {"name": "48287c663d0938bfb0d1aa6b9d1f22a1", "lon": -77.02425683333334, "lat": 38.92649683333333, "type": "electric_scooter", "is_disabled": 0, "rental_uris": {"android": "https://dc.lft.to/lastmile_qr_scan", "ios": "https://dc.lft.to/lastmile_qr_scan"}, "fusion_lon": 0.0, "bike_id": "48287c663d0938bfb0d1aa6b9d1f22a1", "fusion_lat": 0.0, "is_reserved": 0}, {"name": "5b60167005a5d48036ee51228f3f8587", "lon": -76.98421233333333, "lat": 38.855072666666665, "type": "electric_bike", "is_disabled": 0, "rental_uris": {"android": "https://dc.lft.to/lastmile_qr_scan", "ios": "https://dc.lft.to/lastmile_qr_scan"}, "fusion_lon": 0.0, "bike_id": "5b60167005a5d48036ee51228f3f8587", "fusion_lat": 0.0, "is_reserved": 0}, {"name": "e5f21da1dfa1203354908119b0650933", "lon": -77.02375666666667, "lat": 38.907259833333335, "type": "electric_scooter", "is_disabled": 0, "rental_uris": {"android": "https://dc.lft.to/lastmile_qr_scan", "ios": "https://dc.lft.to/lastmile_qr_scan"}, "fusion_lon": 0.0, "bike_id": "e5f21da1dfa1203354908119b0650933", "fusion_lat": 0.0, "is_reserved": 0}, {"name": "036276f6a9027e293761d806d8070b0b", "lon": -77.0240015, "lat": 38.9369905, "type": "electric_scooter", "is_disabled": 0, "rental_uris": {"android": "https://dc.lft.to/lastmile_qr_scan", "ios": "https://dc.lft.to/lastmile_qr_scan"}, "fusion_lon": 0.0, "bike_id": "036276f6a9027e293761d806d8070b0b", "fusion_lat": 0.0, "is_reserved": 0}, {"name": "2370745866afa3a2d625a1cde69595c8", "lon": -77.0806715, "lat": 39.05251716666667, "type": "electric_bike", "is_disabled": 0, "rental_uris": {"android": "https://dc.lft.to/lastmile_qr_scan", "ios": "https://dc.lft.to/lastmile_qr_scan"}, "fusion_lon": 0.0, "bike_id": "2370745866afa3a2d625a1cde69595c8", "fusion_lat": 0.0, "is_reserved": 0}, {"name": "3ba1e56237f34b7a67f700e3da222470", "lon": -77.02616333333333, "lat": 38.89638816666667, "type": "electric_scooter", "is_disabled": 0, "rental_uris": {"android": "https://dc.lft.to/lastmile_qr_scan", "ios": "https://dc.lft.to/lastmile_qr_scan"}, "fusion_lon": 0.0, "bike_id": "3ba1e56237f34b7a67f700e3da222470", "fusion_lat": 0.0, "is_reserved": 0}, {"name": "9a7747e12d2cab7d59f0fe01dfa2561b", "lon": -77.029529, "lat": 38.90262833333333, "type": "electric_scooter", "is_disabled": 0, "rental_uris": {"android": "https://dc.lft.to/lastmile_qr_scan", "ios": "https://dc.lft.to/lastmile_qr_scan"}, "fusion_lon": 0.0, "bike_id": "9a7747e12d2cab7d59f0fe01dfa2561b", "fusion_lat": 0.0, "is_reserved": 0}, {"name": "6a14779f3ff56c8ec09eb816e234137c", "lon": -77.04692416666667, "lat": 38.915759333333334, "type": "electric_scooter", "is_disabled": 0, "rental_uris": {"android": "https://dc.lft.to/lastmile_qr_scan", "ios": "https://dc.lft.to/lastmile_qr_scan"}, "fusion_lon": 0.0, "bike_id": "6a14779f3ff56c8ec09eb816e234137c", "fusion_lat": 0.0, "is_reserved": 0}, {"name": "e4e694430bdb25a2d6295f7e2c2b5203", "lon": -77.03329883333333, "lat": 38.89835633333333, "type": "electric_scooter", "is_disabled": 0, "rental_uris": {"android": "https://dc.lft.to/lastmile_qr_scan", "ios": "https://dc.lft.to/lastmile_qr_scan"}, "fusion_lon": 0.0, "bike_id": "e4e694430bdb25a2d6295f7e2c2b5203", "fusion_lat": 0.0, "is_reserved": 0}, {"name": "13ca3ba31c1a8175390ec75caf105b9b", "lon": -77.0461135, "lat": 38.916719666666665, "type": "electric_scooter", "is_disabled": 0, "rental_uris": {"android": "https://dc.lft.to/lastmile_qr_scan", "ios": "https://dc.lft.to/lastmile_qr_scan"}, "fusion_lon": 0.0, "bike_id": "13ca3ba31c1a8175390ec75caf105b9b", "fusion_lat": 0.0, "is_reserved": 0}, {"name": "a6236018b20bca3e4e12cea3268acbd6", "lon": -77.0362225, "lat": 38.93911516666667, "type": "electric_scooter", "is_disabled": 0, "rental_uris": {"android": "https://dc.lft.to/lastmile_qr_scan", "ios": "https://dc.lft.to/lastmile_qr_scan"}, "fusion_lon": 0.0, "bike_id": "a6236018b20bca3e4e12cea3268acbd6", "fusion_lat": 0.0, "is_reserved": 0}, {"name": "382d40e6ec4340cf9a234d7600f43560", "lon": -77.0396815, "lat": 38.89894483333333, "type": "electric_scooter", "is_disabled": 0, "rental_uris": {"android": "https://dc.lft.to/lastmile_qr_scan", "ios": "https://dc.lft.to/lastmile_qr_scan"}, "fusion_lon": 0.0, "bike_id": "382d40e6ec4340cf9a234d7600f43560", "fusion_lat": 0.0, "is_reserved": 0}, {"name": "d9419bcea13f7b80f852060b91dcea9d", "lon": -77.004846, "lat": 38.874626, "type": "electric_scooter", "is_disabled": 0, "rental_uris": {"android": "https://dc.lft.to/lastmile_qr_scan", "ios": "https://dc.lft.to/lastmile_qr_scan"}, "fusion_lon": 0.0, "bike_id": "d9419bcea13f7b80f852060b91dcea9d", "fusion_lat": 0.0, "is_reserved": 0}, {"name": "17f86fd5ea71edf13ba5f93112553912", "lon": -76.97029633333334, "lat": 38.873566333333336, "type": "electric_scooter", "is_disabled": 0, "rental_uris": {"android": "https://dc.lft.to/lastmile_qr_scan", "ios": "https://dc.lft.to/lastmile_qr_scan"}, "fusion_lon": 0.0, "bike_id": "17f86fd5ea71edf13ba5f93112553912", "fusion_lat": 0.0, "is_reserved": 0}, {"name": "f990c6dd192181b49c944ce89824b883", "lon": -77.03381133333333, "lat": 38.92534333333333, "type": "electric_scooter", "is_disabled": 0, "rental_uris": {"android": "https://dc.lft.to/lastmile_qr_scan", "ios": "https://dc.lft.to/lastmile_qr_scan"}, "fusion_lon": 0.0, "bike_id": "f990c6dd192181b49c944ce89824b883", "fusion_lat": 0.0, "is_reserved": 0}, {"name": "15ca394a194faa2ac40f009b2e295309", "lon": -77.01229166666667, "lat": 38.92884383333333, "type": "electric_scooter", "is_disabled": 0, "rental_uris": {"android": "https://dc.lft.to/lastmile_qr_scan", "ios": "https://dc.lft.to/lastmile_qr_scan"}, "fusion_lon": 0.0, "bike_id": "15ca394a194faa2ac40f009b2e295309", "fusion_lat": 0.0, "is_reserved": 0}, {"name": "ff3c6fcf4c540fea760111a76e50a832", "lon": -77.0471475, "lat": 38.920435, "type": "electric_scooter", "is_disabled": 0, "rental_uris": {"android": "https://dc.lft.to/lastmile_qr_scan", "ios": "https://dc.lft.to/lastmile_qr_scan"}, "fusion_lon": 0.0, "bike_id": "ff3c6fcf4c540fea760111a76e50a832", "fusion_lat": 0.0, "is_reserved": 0}, {"name": "72fcf933c1b275ec0258a2c51c6403da", "lon": -77.04243333333334, "lat": 38.92425266666667, "type": "electric_scooter", "is_disabled": 0, "rental_uris": {"android": "https://dc.lft.to/lastmile_qr_scan", "ios": "https://dc.lft.to/lastmile_qr_scan"}, "fusion_lon": 0.0, "bike_id": "72fcf933c1b275ec0258a2c51c6403da", "fusion_lat": 0.0, "is_reserved": 0}, {"name": "2b2abc69eccc641533c172e833adcc43", "lon": -77.031231, "lat": 38.905185, "type": "electric_scooter", "is_disabled": 0, "rental_uris": {"android": "https://dc.lft.to/lastmile_qr_scan", "ios": "https://dc.lft.to/lastmile_qr_scan"}, "fusion_lon": 0.0, "bike_id": "2b2abc69eccc641533c172e833adcc43", "fusion_lat": 0.0, "is_reserved": 0}, {"name": "557189664ae1baa1d161d93673cb1192", "lon": -77.01748583333334, "lat": 38.90251933333333, "type": "electric_scooter", "is_disabled": 0, "rental_uris": {"android": "https://dc.lft.to/lastmile_qr_scan", "ios": "https://dc.lft.to/lastmile_qr_scan"}, "fusion_lon": 0.0, "bike_id": "557189664ae1baa1d161d93673cb1192", "fusion_lat": 0.0, "is_reserved": 0}, {"name": "1631613942a75efbe6a8a7ee2176f159", "lon": -77.02580066666667, "lat": 38.887285166666665, "type": "electric_scooter", "is_disabled": 0, "rental_uris": {"android": "https://dc.lft.to/lastmile_qr_scan", "ios": "https://dc.lft.to/lastmile_qr_scan"}, "fusion_lon": 0.0, "bike_id": "1631613942a75efbe6a8a7ee2176f159", "fusion_lat": 0.0, "is_reserved": 0}, {"name": "0fcb73d4377347d53915dee6be33dbc9", "lon": -77.01967833333333, "lat": 38.878407, "type": "electric_scooter", "is_disabled": 0, "rental_uris": {"android": "https://dc.lft.to/lastmile_qr_scan", "ios": "https://dc.lft.to/lastmile_qr_scan"}, "fusion_lon": 0.0, "bike_id": "0fcb73d4377347d53915dee6be33dbc9", "fusion_lat": 0.0, "is_reserved": 0}, {"name": "c5f80ac2cb5ae5f1615c92fdb6889bd3", "lon": -77.00602516666666, "lat": 38.87477766666667, "type": "electric_scooter", "is_disabled": 0, "rental_uris": {"android": "https://dc.lft.to/lastmile_qr_scan", "ios": "https://dc.lft.to/lastmile_qr_scan"}, "fusion_lon": 0.0, "bike_id": "c5f80ac2cb5ae5f1615c92fdb6889bd3", "fusion_lat": 0.0, "is_reserved": 0}, {"name": "320130e79b07edb322b9aaaa04cf7484", "lon": -76.984323, "lat": 38.9057685, "type": "electric_scooter", "is_disabled": 0, "rental_uris": {"android": "https://dc.lft.to/lastmile_qr_scan", "ios": "https://dc.lft.to/lastmile_qr_scan"}, "fusion_lon": 0.0, "bike_id": "320130e79b07edb322b9aaaa04cf7484", "fusion_lat": 0.0, "is_reserved": 0}, {"name": "a09c2a3afd2e14d8c7ff94f22c82b945", "lon": -76.97338566666667, "lat": 38.8650695, "type": "electric_scooter", "is_disabled": 0, "rental_uris": {"android": "https://dc.lft.to/lastmile_qr_scan", "ios": "https://dc.lft.to/lastmile_qr_scan"}, "fusion_lon": 0.0, "bike_id": "a09c2a3afd2e14d8c7ff94f22c82b945", "fusion_lat": 0.0, "is_reserved": 0}, {"name": "931e1d9f049f364f691a1ca8b6534c23", "lon": -77.039322, "lat": 38.908427833333334, "type": "electric_scooter", "is_disabled": 0, "rental_uris": {"android": "https://dc.lft.to/lastmile_qr_scan", "ios": "https://dc.lft.to/lastmile_qr_scan"}, "fusion_lon": 0.0, "bike_id": "931e1d9f049f364f691a1ca8b6534c23", "fusion_lat": 0.0, "is_reserved": 0}, {"name": "9d934794a1e9e08f30a26f714b61a80f", "lon": -77.02717833333334, "lat": 38.92369383333333, "type": "electric_scooter", "is_disabled": 0, "rental_uris": {"android": "https://dc.lft.to/lastmile_qr_scan", "ios": "https://dc.lft.to/lastmile_qr_scan"}, "fusion_lon": 0.0, "bike_id": "9d934794a1e9e08f30a26f714b61a80f", "fusion_lat": 0.0, "is_reserved": 0}, {"name": "2aa20e892c44258931931dff3133a955", "lon": -76.95751466666667, "lat": 38.88419066666667, "type": "electric_scooter", "is_disabled": 0, "rental_uris": {"android": "https://dc.lft.to/lastmile_qr_scan", "ios": "https://dc.lft.to/lastmile_qr_scan"}, "fusion_lon": 0.0, "bike_id": "2aa20e892c44258931931dff3133a955", "fusion_lat": 0.0, "is_reserved": 0}, {"name": "4e485fc4f8b8fd711f140d606887f389", "lon": -77.03300716666666, "lat": 38.927404833333334, "type": "electric_scooter", "is_disabled": 0, "rental_uris": {"android": "https://dc.lft.to/lastmile_qr_scan", "ios": "https://dc.lft.to/lastmile_qr_scan"}, "fusion_lon": 0.0, "bike_id": "4e485fc4f8b8fd711f140d606887f389", "fusion_lat": 0.0, "is_reserved": 0}, {"name": "b9855dda196dac4a8c5436d0d0117412", "lon": -77.03196583333333, "lat": 38.909171, "type": "electric_scooter", "is_disabled": 0, "rental_uris": {"android": "https://dc.lft.to/lastmile_qr_scan", "ios": "https://dc.lft.to/lastmile_qr_scan"}, "fusion_lon": 0.0, "bike_id": "b9855dda196dac4a8c5436d0d0117412", "fusion_lat": 0.0, "is_reserved": 0}, {"name": "20189b36d11d54458bbe6cebe49d7ae2", "lon": -77.024128, "lat": 38.892201666666665, "type": "electric_scooter", "is_disabled": 0, "rental_uris": {"android": "https://dc.lft.to/lastmile_qr_scan", "ios": "https://dc.lft.to/lastmile_qr_scan"}, "fusion_lon": 0.0, "bike_id": "20189b36d11d54458bbe6cebe49d7ae2", "fusion_lat": 0.0, "is_reserved": 0}, {"name": "a388184e0bbe2f5cc9b4fb00e5f8cd33", "lon": -77.03815883333333, "lat": 38.9305585, "type": "electric_scooter", "is_disabled": 0, "rental_uris": {"android": "https://dc.lft.to/lastmile_qr_scan", "ios": "https://dc.lft.to/lastmile_qr_scan"}, "fusion_lon": 0.0, "bike_id": "a388184e0bbe2f5cc9b4fb00e5f8cd33", "fusion_lat": 0.0, "is_reserved": 0}, {"name": "ecae8de30d904d47cf4e0f0dc10ec845", "lon": -77.00487, "lat": 38.87463183333333, "type": "electric_scooter", "is_disabled": 0, "rental_uris": {"android": "https://dc.lft.to/lastmile_qr_scan", "ios": "https://dc.lft.to/lastmile_qr_scan"}, "fusion_lon": 0.0, "bike_id": "ecae8de30d904d47cf4e0f0dc10ec845", "fusion_lat": 0.0, "is_reserved": 0}, {"name": "ef98d9a70c205d8af41eb6af84ee3b53", "lon": -77.0273165, "lat": 38.951971, "type": "electric_scooter", "is_disabled": 0, "rental_uris": {"android": "https://dc.lft.to/lastmile_qr_scan", "ios": "https://dc.lft.to/lastmile_qr_scan"}, "fusion_lon": 0.0, "bike_id": "ef98d9a70c205d8af41eb6af84ee3b53", "fusion_lat": 0.0, "is_reserved": 0}, {"name": "91d2f70f2af61fc1e17381d074c9a362", "lon": -77.0221465, "lat": 38.92468066666667, "type": "electric_scooter", "is_disabled": 0, "rental_uris": {"android": "https://dc.lft.to/lastmile_qr_scan", "ios": "https://dc.lft.to/lastmile_qr_scan"}, "fusion_lon": 0.0, "bike_id": "91d2f70f2af61fc1e17381d074c9a362", "fusion_lat": 0.0, "is_reserved": 0}, {"name": "c0f9cf8b2890bb117e6d0d20ab05ecb0", "lon": -76.99996383333334, "lat": 38.87387966666667, "type": "electric_scooter", "is_disabled": 0, "rental_uris": {"android": "https://dc.lft.to/lastmile_qr_scan", "ios": "https://dc.lft.to/lastmile_qr_scan"}, "fusion_lon": 0.0, "bike_id": "c0f9cf8b2890bb117e6d0d20ab05ecb0", "fusion_lat": 0.0, "is_reserved": 0}, {"name": "84a44777853d94c7d1081d547f72e6d9", "lon": -77.07185966666667, "lat": 38.90906716666667, "type": "electric_scooter", "is_disabled": 0, "rental_uris": {"android": "https://dc.lft.to/lastmile_qr_scan", "ios": "https://dc.lft.to/lastmile_qr_scan"}, "fusion_lon": 0.0, "bike_id": "84a44777853d94c7d1081d547f72e6d9", "fusion_lat": 0.0, "is_reserved": 0}, {"name": "e01dabcc9a5682bef883b61fa4ae592d", "lon": -77.034408, "lat": 38.90289416666667, "type": "electric_scooter", "is_disabled": 0, "rental_uris": {"android": "https://dc.lft.to/lastmile_qr_scan", "ios": "https://dc.lft.to/lastmile_qr_scan"}, "fusion_lon": 0.0, "bike_id": "e01dabcc9a5682bef883b61fa4ae592d", "fusion_lat": 0.0, "is_reserved": 0}, {"name": "5bcf5c19ccbc4fe96f58a30b657972f2", "lon": -77.0322305, "lat": 38.91704033333333, "type": "electric_scooter", "is_disabled": 0, "rental_uris": {"android": "https://dc.lft.to/lastmile_qr_scan", "ios": "https://dc.lft.to/lastmile_qr_scan"}, "fusion_lon": 0.0, "bike_id": "5bcf5c19ccbc4fe96f58a30b657972f2", "fusion_lat": 0.0, "is_reserved": 0}, {"name": "c0c7ef0f72581a3ad68e02ea86d6b034", "lon": -77.02061, "lat": 38.9240685, "type": "electric_scooter", "is_disabled": 0, "rental_uris": {"android": "https://dc.lft.to/lastmile_qr_scan", "ios": "https://dc.lft.to/lastmile_qr_scan"}, "fusion_lon": 0.0, "bike_id": "c0c7ef0f72581a3ad68e02ea86d6b034", "fusion_lat": 0.0, "is_reserved": 0}, {"name": "d9f976d39345c59b364894d19477a493", "lon": -77.031764, "lat": 38.901031, "type": "electric_scooter", "is_disabled": 0, "rental_uris": {"android": "https://dc.lft.to/lastmile_qr_scan", "ios": "https://dc.lft.to/lastmile_qr_scan"}, "fusion_lon": 0.0, "bike_id": "d9f976d39345c59b364894d19477a493", "fusion_lat": 0.0, "is_reserved": 0}, {"name": "079c45aa31d98b7b5ce5563d9fd7c8da", "lon": -77.04519366666666, "lat": 38.92313166666667, "type": "electric_scooter", "is_disabled": 0, "rental_uris": {"android": "https://dc.lft.to/lastmile_qr_scan", "ios": "https://dc.lft.to/lastmile_qr_scan"}, "fusion_lon": 0.0, "bike_id": "079c45aa31d98b7b5ce5563d9fd7c8da", "fusion_lat": 0.0, "is_reserved": 0}, {"name": "ff0e0334f5aff82c2409b3e33b30eaa4", "lon": -77.03958183333333, "lat": 38.89242333333333, "type": "electric_scooter", "is_disabled": 0, "rental_uris": {"android": "https://dc.lft.to/lastmile_qr_scan", "ios": "https://dc.lft.to/lastmile_qr_scan"}, "fusion_lon": 0.0, "bike_id": "ff0e0334f5aff82c2409b3e33b30eaa4", "fusion_lat": 0.0, "is_reserved": 0}, {"name": "f8e9fa040699d7868efdaa678c474ae0", "lon": -76.9424825, "lat": 38.89302333333333, "type": "electric_scooter", "is_disabled": 0, "rental_uris": {"android": "https://dc.lft.to/lastmile_qr_scan", "ios": "https://dc.lft.to/lastmile_qr_scan"}, "fusion_lon": 0.0, "bike_id": "f8e9fa040699d7868efdaa678c474ae0", "fusion_lat": 0.0, "is_reserved": 0}, {"name": "752b40a36508f996650a80524783d835", "lon": -77.00218933333333, "lat": 38.95242566666667, "type": "electric_scooter", "is_disabled": 0, "rental_uris": {"android": "https://dc.lft.to/lastmile_qr_scan", "ios": "https://dc.lft.to/lastmile_qr_scan"}, "fusion_lon": 0.0, "bike_id": "752b40a36508f996650a80524783d835", "fusion_lat": 0.0, "is_reserved": 0}, {"name": "b780f224c03ba15a7fa279004e82d078", "lon": -77.08660183333333, "lat": 38.938559, "type": "electric_scooter", "is_disabled": 0, "rental_uris": {"android": "https://dc.lft.to/lastmile_qr_scan", "ios": "https://dc.lft.to/lastmile_qr_scan"}, "fusion_lon": 0.0, "bike_id": "b780f224c03ba15a7fa279004e82d078", "fusion_lat": 0.0, "is_reserved": 0}, {"name": "47ec432b19d821842b06064cae1eb49f", "lon": -77.0505305, "lat": 38.910743, "type": "electric_scooter", "is_disabled": 0, "rental_uris": {"android": "https://dc.lft.to/lastmile_qr_scan", "ios": "https://dc.lft.to/lastmile_qr_scan"}, "fusion_lon": 0.0, "bike_id": "47ec432b19d821842b06064cae1eb49f", "fusion_lat": 0.0, "is_reserved": 0}, {"name": "c7d566f721d0d597a6f63e86969a9124", "lon": -76.98540766666666, "lat": 38.866839666666664, "type": "electric_scooter", "is_disabled": 0, "rental_uris": {"android": "https://dc.lft.to/lastmile_qr_scan", "ios": "https://dc.lft.to/lastmile_qr_scan"}, "fusion_lon": 0.0, "bike_id": "c7d566f721d0d597a6f63e86969a9124", "fusion_lat": 0.0, "is_reserved": 0}, {"name": "5093beb0db37ae6d76cb15758c96c83c", "lon": -77.0204105, "lat": 38.92085616666667, "type": "electric_scooter", "is_disabled": 0, "rental_uris": {"android": "https://dc.lft.to/lastmile_qr_scan", "ios": "https://dc.lft.to/lastmile_qr_scan"}, "fusion_lon": 0.0, "bike_id": "5093beb0db37ae6d76cb15758c96c83c", "fusion_lat": 0.0, "is_reserved": 0}, {"name": "9d9290a15333611ca86aaf01dac1594c", "lon": -77.03204883333333, "lat": 38.892282333333334, "type": "electric_scooter", "is_disabled": 0, "rental_uris": {"android": "https://dc.lft.to/lastmile_qr_scan", "ios": "https://dc.lft.to/lastmile_qr_scan"}, "fusion_lon": 0.0, "bike_id": "9d9290a15333611ca86aaf01dac1594c", "fusion_lat": 0.0, "is_reserved": 0}, {"name": "9b0346dee6d9fe80ca64a3ebb1a922b0", "lon": -77.0400495, "lat": 38.90778916666667, "type": "electric_scooter", "is_disabled": 0, "rental_uris": {"android": "https://dc.lft.to/lastmile_qr_scan", "ios": "https://dc.lft.to/lastmile_qr_scan"}, "fusion_lon": 0.0, "bike_id": "9b0346dee6d9fe80ca64a3ebb1a922b0", "fusion_lat": 0.0, "is_reserved": 0}, {"name": "2c6159d83d3305184131875087c70dd0", "lon": -77.061962, "lat": 38.91845283333333, "type": "electric_scooter", "is_disabled": 0, "rental_uris": {"android": "https://dc.lft.to/lastmile_qr_scan", "ios": "https://dc.lft.to/lastmile_qr_scan"}, "fusion_lon": 0.0, "bike_id": "2c6159d83d3305184131875087c70dd0", "fusion_lat": 0.0, "is_reserved": 0}, {"name": "6e8f06686590aa52a148eaac39bbdcfb", "lon": -77.02232833333333, "lat": 38.89974566666667, "type": "electric_scooter", "is_disabled": 0, "rental_uris": {"android": "https://dc.lft.to/lastmile_qr_scan", "ios": "https://dc.lft.to/lastmile_qr_scan"}, "fusion_lon": 0.0, "bike_id": "6e8f06686590aa52a148eaac39bbdcfb", "fusion_lat": 0.0, "is_reserved": 0}, {"name": "e31d31146054b281f0942c87f287b302", "lon": -77.00200583333333, "lat": 38.94149133333333, "type": "electric_bike", "is_disabled": 0, "rental_uris": {"android": "https://dc.lft.to/lastmile_qr_scan", "ios": "https://dc.lft.to/lastmile_qr_scan"}, "fusion_lon": 0.0, "bike_id": "e31d31146054b281f0942c87f287b302", "fusion_lat": 0.0, "is_reserved": 0}, {"name": "ca92b1f0cf3d2ce7d307a5cf9a182eeb", "lon": -77.02341766666666, "lat": 38.94455683333333, "type": "electric_scooter", "is_disabled": 0, "rental_uris": {"android": "https://dc.lft.to/lastmile_qr_scan", "ios": "https://dc.lft.to/lastmile_qr_scan"}, "fusion_lon": 0.0, "bike_id": "ca92b1f0cf3d2ce7d307a5cf9a182eeb", "fusion_lat": 0.0, "is_reserved": 0}, {"name": "0c4da73521c4318f7bc0811fa0e882d3", "lon": -77.0434565, "lat": 38.90397183333333, "type": "electric_scooter", "is_disabled": 0, "rental_uris": {"android": "https://dc.lft.to/lastmile_qr_scan", "ios": "https://dc.lft.to/lastmile_qr_scan"}, "fusion_lon": 0.0, "bike_id": "0c4da73521c4318f7bc0811fa0e882d3", "fusion_lat": 0.0, "is_reserved": 0}, {"name": "b296c2fec42ecbb4bc512f05a3374c5b", "lon": -77.00197183333333, "lat": 38.902353166666664, "type": "electric_scooter", "is_disabled": 0, "rental_uris": {"android": "https://dc.lft.to/lastmile_qr_scan", "ios": "https://dc.lft.to/lastmile_qr_scan"}, "fusion_lon": 0.0, "bike_id": "b296c2fec42ecbb4bc512f05a3374c5b", "fusion_lat": 0.0, "is_reserved": 0}, {"name": "c407093cd4a6770d0385f3e8afb8bd63", "lon": -77.02812816666666, "lat": 38.909377666666664, "type": "electric_scooter", "is_disabled": 0, "rental_uris": {"android": "https://dc.lft.to/lastmile_qr_scan", "ios": "https://dc.lft.to/lastmile_qr_scan"}, "fusion_lon": 0.0, "bike_id": "c407093cd4a6770d0385f3e8afb8bd63", "fusion_lat": 0.0, "is_reserved": 0}, {"name": "80623d96dc4465767d50d1481756a277", "lon": -77.026695, "lat": 38.897114333333334, "type": "electric_scooter", "is_disabled": 0, "rental_uris": {"android": "https://dc.lft.to/lastmile_qr_scan", "ios": "https://dc.lft.to/lastmile_qr_scan"}, "fusion_lon": 0.0, "bike_id": "80623d96dc4465767d50d1481756a277", "fusion_lat": 0.0, "is_reserved": 0}, {"name": "c0ecbe6a1f3b64b7cc9011fa1ccd394b", "lon": -77.01179516666667, "lat": 38.90014333333333, "type": "electric_scooter", "is_disabled": 0, "rental_uris": {"android": "https://dc.lft.to/lastmile_qr_scan", "ios": "https://dc.lft.to/lastmile_qr_scan"}, "fusion_lon": 0.0, "bike_id": "c0ecbe6a1f3b64b7cc9011fa1ccd394b", "fusion_lat": 0.0, "is_reserved": 0}, {"name": "0f7915157077dc75ca5c679b350944a6", "lon": -77.01186133333333, "lat": 38.90029766666667, "type": "electric_scooter", "is_disabled": 0, "rental_uris": {"android": "https://dc.lft.to/lastmile_qr_scan", "ios": "https://dc.lft.to/lastmile_qr_scan"}, "fusion_lon": 0.0, "bike_id": "0f7915157077dc75ca5c679b350944a6", "fusion_lat": 0.0, "is_reserved": 0}, {"name": "8780497717ed3d3da3e4be9cb4da58ba", "lon": -77.017231, "lat": 38.94352383333333, "type": "electric_scooter", "is_disabled": 0, "rental_uris": {"android": "https://dc.lft.to/lastmile_qr_scan", "ios": "https://dc.lft.to/lastmile_qr_scan"}, "fusion_lon": 0.0, "bike_id": "8780497717ed3d3da3e4be9cb4da58ba", "fusion_lat": 0.0, "is_reserved": 0}, {"name": "211709d07f465b6a51689f3f80d68138", "lon": -77.03853333333333, "lat": 38.93224433333334, "type": "electric_scooter", "is_disabled": 0, "rental_uris": {"android": "https://dc.lft.to/lastmile_qr_scan", "ios": "https://dc.lft.to/lastmile_qr_scan"}, "fusion_lon": 0.0, "bike_id": "211709d07f465b6a51689f3f80d68138", "fusion_lat": 0.0, "is_reserved": 0}, {"name": "28b9e0fa4b57a27c32cc978f36c29268", "lon": -77.00605916666666, "lat": 38.91113083333333, "type": "electric_scooter", "is_disabled": 0, "rental_uris": {"android": "https://dc.lft.to/lastmile_qr_scan", "ios": "https://dc.lft.to/lastmile_qr_scan"}, "fusion_lon": 0.0, "bike_id": "28b9e0fa4b57a27c32cc978f36c29268", "fusion_lat": 0.0, "is_reserved": 0}, {"name": "04f079b563424455a7aca03508afc30b", "lon": -77.02238233333334, "lat": 38.922458666666664, "type": "electric_scooter", "is_disabled": 0, "rental_uris": {"android": "https://dc.lft.to/lastmile_qr_scan", "ios": "https://dc.lft.to/lastmile_qr_scan"}, "fusion_lon": 0.0, "bike_id": "04f079b563424455a7aca03508afc30b", "fusion_lat": 0.0, "is_reserved": 0}, {"name": "b3692614b4af8457281610cc62e05046", "lon": -77.051268, "lat": 38.92512716666667, "type": "electric_scooter", "is_disabled": 0, "rental_uris": {"android": "https://dc.lft.to/lastmile_qr_scan", "ios": "https://dc.lft.to/lastmile_qr_scan"}, "fusion_lon": 0.0, "bike_id": "b3692614b4af8457281610cc62e05046", "fusion_lat": 0.0, "is_reserved": 0}, {"name": "c3e69b4214f2108e3600b054335c9574", "lon": -77.03939633333333, "lat": 38.90825233333333, "type": "electric_scooter", "is_disabled": 0, "rental_uris": {"android": "https://dc.lft.to/lastmile_qr_scan", "ios": "https://dc.lft.to/lastmile_qr_scan"}, "fusion_lon": 0.0, "bike_id": "c3e69b4214f2108e3600b054335c9574", "fusion_lat": 0.0, "is_reserved": 0}, {"name": "c7e832f8904db602eb9617fc4ffd38d2", "lon": -76.989055, "lat": 38.90028233333334, "type": "electric_scooter", "is_disabled": 0, "rental_uris": {"android": "https://dc.lft.to/lastmile_qr_scan", "ios": "https://dc.lft.to/lastmile_qr_scan"}, "fusion_lon": 0.0, "bike_id": "c7e832f8904db602eb9617fc4ffd38d2", "fusion_lat": 0.0, "is_reserved": 0}, {"name": "17c1872394240d29a8d109d88a723fe5", "lon": -77.04262416666667, "lat": 38.907181, "type": "electric_scooter", "is_disabled": 0, "rental_uris": {"android": "https://dc.lft.to/lastmile_qr_scan", "ios": "https://dc.lft.to/lastmile_qr_scan"}, "fusion_lon": 0.0, "bike_id": "17c1872394240d29a8d109d88a723fe5", "fusion_lat": 0.0, "is_reserved": 0}, {"name": "eeecbd3d62acadee3ce48a6ced318148", "lon": -77.03204516666666, "lat": 38.927738833333336, "type": "electric_scooter", "is_disabled": 0, "rental_uris": {"android": "https://dc.lft.to/lastmile_qr_scan", "ios": "https://dc.lft.to/lastmile_qr_scan"}, "fusion_lon": 0.0, "bike_id": "eeecbd3d62acadee3ce48a6ced318148", "fusion_lat": 0.0, "is_reserved": 0}, {"name": "291c3ef7ce615a5d4bfb7e3eb8967d07", "lon": -77.01132983333333, "lat": 38.900058666666666, "type": "electric_scooter", "is_disabled": 0, "rental_uris": {"android": "https://dc.lft.to/lastmile_qr_scan", "ios": "https://dc.lft.to/lastmile_qr_scan"}, "fusion_lon": 0.0, "bike_id": "291c3ef7ce615a5d4bfb7e3eb8967d07", "fusion_lat": 0.0, "is_reserved": 0}, {"name": "bda891e56190eb132ed243bbb30b13bb", "lon": -77.00882116666666, "lat": 38.87671066666667, "type": "electric_scooter", "is_disabled": 0, "rental_uris": {"android": "https://dc.lft.to/lastmile_qr_scan", "ios": "https://dc.lft.to/lastmile_qr_scan"}, "fusion_lon": 0.0, "bike_id": "bda891e56190eb132ed243bbb30b13bb", "fusion_lat": 0.0, "is_reserved": 0}, {"name": "3c145948c8c508438dffd706171a6cfc", "lon": -77.0469135, "lat": 38.89828983333334, "type": "electric_bike", "is_disabled": 0, "rental_uris": {"android": "https://dc.lft.to/lastmile_qr_scan", "ios": "https://dc.lft.to/lastmile_qr_scan"}, "fusion_lon": 0.0, "bike_id": "3c145948c8c508438dffd706171a6cfc", "fusion_lat": 0.0, "is_reserved": 0}, {"name": "8ec63cb2e435e8bea7ae3f2553069722", "lon": -76.99405866666666, "lat": 38.91001033333333, "type": "electric_scooter", "is_disabled": 0, "rental_uris": {"android": "https://dc.lft.to/lastmile_qr_scan", "ios": "https://dc.lft.to/lastmile_qr_scan"}, "fusion_lon": 0.0, "bike_id": "8ec63cb2e435e8bea7ae3f2553069722", "fusion_lat": 0.0, "is_reserved": 0}, {"name": "475e17132679dca30a2f17305851e3d3", "lon": -77.034962, "lat": 38.91878533333333, "type": "electric_scooter", "is_disabled": 0, "rental_uris": {"android": "https://dc.lft.to/lastmile_qr_scan", "ios": "https://dc.lft.to/lastmile_qr_scan"}, "fusion_lon": 0.0, "bike_id": "475e17132679dca30a2f17305851e3d3", "fusion_lat": 0.0, "is_reserved": 0}, {"name": "2545ff6091525cfc1b5cc367c6236233", "lon": -76.99454666666666, "lat": 38.87760033333333, "type": "electric_scooter", "is_disabled": 0, "rental_uris": {"android": "https://dc.lft.to/lastmile_qr_scan", "ios": "https://dc.lft.to/lastmile_qr_scan"}, "fusion_lon": 0.0, "bike_id": "2545ff6091525cfc1b5cc367c6236233", "fusion_lat": 0.0, "is_reserved": 0}, {"name": "492535826164ac104d1a2e63e5831811", "lon": -77.036377, "lat": 38.916739666666665, "type": "electric_scooter", "is_disabled": 0, "rental_uris": {"android": "https://dc.lft.to/lastmile_qr_scan", "ios": "https://dc.lft.to/lastmile_qr_scan"}, "fusion_lon": 0.0, "bike_id": "492535826164ac104d1a2e63e5831811", "fusion_lat": 0.0, "is_reserved": 0}, {"name": "4eccb32d44d4544455b420e8af93e24c", "lon": -77.03446266666667, "lat": 38.917369666666666, "type": "electric_scooter", "is_disabled": 0, "rental_uris": {"android": "https://dc.lft.to/lastmile_qr_scan", "ios": "https://dc.lft.to/lastmile_qr_scan"}, "fusion_lon": 0.0, "bike_id": "4eccb32d44d4544455b420e8af93e24c", "fusion_lat": 0.0, "is_reserved": 0}, {"name": "408c9f53f997181221fc19cdda412f08", "lon": -77.046909, "lat": 38.89215016666667, "type": "electric_scooter", "is_disabled": 0, "rental_uris": {"android": "https://dc.lft.to/lastmile_qr_scan", "ios": "https://dc.lft.to/lastmile_qr_scan"}, "fusion_lon": 0.0, "bike_id": "408c9f53f997181221fc19cdda412f08", "fusion_lat": 0.0, "is_reserved": 0}, {"name": "09d27e1a69cd262cf456444d9b4fd6ab", "lon": -77.0216445, "lat": 38.919907333333335, "type": "electric_scooter", "is_disabled": 0, "rental_uris": {"android": "https://dc.lft.to/lastmile_qr_scan", "ios": "https://dc.lft.to/lastmile_qr_scan"}, "fusion_lon": 0.0, "bike_id": "09d27e1a69cd262cf456444d9b4fd6ab", "fusion_lat": 0.0, "is_reserved": 0}, {"name": "b87eb79dbc54fb653c20b59d02bfadf4", "lon": -77.00064516666667, "lat": 38.886739, "type": "electric_scooter", "is_disabled": 0, "rental_uris": {"android": "https://dc.lft.to/lastmile_qr_scan", "ios": "https://dc.lft.to/lastmile_qr_scan"}, "fusion_lon": 0.0, "bike_id": "b87eb79dbc54fb653c20b59d02bfadf4", "fusion_lat": 0.0, "is_reserved": 0}, {"name": "db9545d4a93bb0aebaee9bfdd46e7d9f", "lon": -76.94253583333334, "lat": 38.89844016666667, "type": "electric_scooter", "is_disabled": 0, "rental_uris": {"android": "https://dc.lft.to/lastmile_qr_scan", "ios": "https://dc.lft.to/lastmile_qr_scan"}, "fusion_lon": 0.0, "bike_id": "db9545d4a93bb0aebaee9bfdd46e7d9f", "fusion_lat": 0.0, "is_reserved": 0}, {"name": "5e1644acf8908c98d44307e1fa01b9d5", "lon": -77.046749, "lat": 38.90026866666667, "type": "electric_scooter", "is_disabled": 0, "rental_uris": {"android": "https://dc.lft.to/lastmile_qr_scan", "ios": "https://dc.lft.to/lastmile_qr_scan"}, "fusion_lon": 0.0, "bike_id": "5e1644acf8908c98d44307e1fa01b9d5", "fusion_lat": 0.0, "is_reserved": 0}, {"name": "2c659273139027cb0bb22fb312b7c1c4", "lon": -77.02819633333333, "lat": 38.8989755, "type": "electric_scooter", "is_disabled": 0, "rental_uris": {"android": "https://dc.lft.to/lastmile_qr_scan", "ios": "https://dc.lft.to/lastmile_qr_scan"}, "fusion_lon": 0.0, "bike_id": "2c659273139027cb0bb22fb312b7c1c4", "fusion_lat": 0.0, "is_reserved": 0}, {"name": "1421a1ee0606cf8ffecc76375da01deb", "lon": -77.02327766666667, "lat": 38.92869683333333, "type": "electric_scooter", "is_disabled": 0, "rental_uris": {"android": "https://dc.lft.to/lastmile_qr_scan", "ios": "https://dc.lft.to/lastmile_qr_scan"}, "fusion_lon": 0.0, "bike_id": "1421a1ee0606cf8ffecc76375da01deb", "fusion_lat": 0.0, "is_reserved": 0}, {"name": "54de7afd0d5a7e4a77fd5402485ad00b", "lon": -76.949835, "lat": 38.88455883333334, "type": "electric_scooter", "is_disabled": 0, "rental_uris": {"android": "https://dc.lft.to/lastmile_qr_scan", "ios": "https://dc.lft.to/lastmile_qr_scan"}, "fusion_lon": 0.0, "bike_id": "54de7afd0d5a7e4a77fd5402485ad00b", "fusion_lat": 0.0, "is_reserved": 0}, {"name": "e4b009b1d198f6f88c7099148fcc840b", "lon": -77.01675416666667, "lat": 38.92040466666667, "type": "electric_scooter", "is_disabled": 0, "rental_uris": {"android": "https://dc.lft.to/lastmile_qr_scan", "ios": "https://dc.lft.to/lastmile_qr_scan"}, "fusion_lon": 0.0, "bike_id": "e4b009b1d198f6f88c7099148fcc840b", "fusion_lat": 0.0, "is_reserved": 0}, {"name": "338f791e02d9a4c5782bc50e6813071b", "lon": -76.99810633333334, "lat": 38.93230366666667, "type": "electric_scooter", "is_disabled": 0, "rental_uris": {"android": "https://dc.lft.to/lastmile_qr_scan", "ios": "https://dc.lft.to/lastmile_qr_scan"}, "fusion_lon": 0.0, "bike_id": "338f791e02d9a4c5782bc50e6813071b", "fusion_lat": 0.0, "is_reserved": 0}, {"name": "3bdf658d3ac548d2cbd835a18efef64c", "lon": -77.0121665, "lat": 38.91185083333333, "type": "electric_scooter", "is_disabled": 0, "rental_uris": {"android": "https://dc.lft.to/lastmile_qr_scan", "ios": "https://dc.lft.to/lastmile_qr_scan"}, "fusion_lon": 0.0, "bike_id": "3bdf658d3ac548d2cbd835a18efef64c", "fusion_lat": 0.0, "is_reserved": 0}, {"name": "881f8cfcb96d7dd9c12826a17de0cf39", "lon": -77.074668, "lat": 38.90700616666667, "type": "electric_scooter", "is_disabled": 0, "rental_uris": {"android": "https://dc.lft.to/lastmile_qr_scan", "ios": "https://dc.lft.to/lastmile_qr_scan"}, "fusion_lon": 0.0, "bike_id": "881f8cfcb96d7dd9c12826a17de0cf39", "fusion_lat": 0.0, "is_reserved": 0}, {"name": "61a7954105c1c0596d1189eca8b5942a", "lon": -77.04510666666667, "lat": 38.9036895, "type": "electric_scooter", "is_disabled": 0, "rental_uris": {"android": "https://dc.lft.to/lastmile_qr_scan", "ios": "https://dc.lft.to/lastmile_qr_scan"}, "fusion_lon": 0.0, "bike_id": "61a7954105c1c0596d1189eca8b5942a", "fusion_lat": 0.0, "is_reserved": 0}, {"name": "b34120de00c88062aa1f0915662518a5", "lon": -77.01948, "lat": 38.92254883333333, "type": "electric_scooter", "is_disabled": 0, "rental_uris": {"android": "https://dc.lft.to/lastmile_qr_scan", "ios": "https://dc.lft.to/lastmile_qr_scan"}, "fusion_lon": 0.0, "bike_id": "b34120de00c88062aa1f0915662518a5", "fusion_lat": 0.0, "is_reserved": 0}, {"name": "7ef086235df9b6e7eaf787469371036a", "lon": -77.03652016666666, "lat": 38.909961, "type": "electric_scooter", "is_disabled": 0, "rental_uris": {"android": "https://dc.lft.to/lastmile_qr_scan", "ios": "https://dc.lft.to/lastmile_qr_scan"}, "fusion_lon": 0.0, "bike_id": "7ef086235df9b6e7eaf787469371036a", "fusion_lat": 0.0, "is_reserved": 0}, {"name": "daa464c23ec4241a41217df72147cbdf", "lon": -76.90733816666666, "lat": 38.896167166666665, "type": "electric_bike", "is_disabled": 0, "rental_uris": {"android": "https://dc.lft.to/lastmile_qr_scan", "ios": "https://dc.lft.to/lastmile_qr_scan"}, "fusion_lon": 0.0, "bike_id": "daa464c23ec4241a41217df72147cbdf", "fusion_lat": 0.0, "is_reserved": 0}, {"name": "b058da7aa4b7e07b5d85ac3395f06bce", "lon": -76.990724, "lat": 38.898108666666666, "type": "electric_bike", "is_disabled": 0, "rental_uris": {"android": "https://dc.lft.to/lastmile_qr_scan", "ios": "https://dc.lft.to/lastmile_qr_scan"}, "fusion_lon": 0.0, "bike_id": "b058da7aa4b7e07b5d85ac3395f06bce", "fusion_lat": 0.0, "is_reserved": 0}, {"name": "5b8e9e43fb44a9a4e12a2cc93d12ad71", "lon": -77.03338416666666, "lat": 38.89728683333333, "type": "electric_scooter", "is_disabled": 0, "rental_uris": {"android": "https://dc.lft.to/lastmile_qr_scan", "ios": "https://dc.lft.to/lastmile_qr_scan"}, "fusion_lon": 0.0, "bike_id": "5b8e9e43fb44a9a4e12a2cc93d12ad71", "fusion_lat": 0.0, "is_reserved": 0}, {"name": "a1428f26062d03ea42a3429612e59207", "lon": -77.03761533333333, "lat": 38.916857, "type": "electric_scooter", "is_disabled": 0, "rental_uris": {"android": "https://dc.lft.to/lastmile_qr_scan", "ios": "https://dc.lft.to/lastmile_qr_scan"}, "fusion_lon": 0.0, "bike_id": "a1428f26062d03ea42a3429612e59207", "fusion_lat": 0.0, "is_reserved": 0}, {"name": "c2b31752b08549750880c0fed12217a8", "lon": -77.024088, "lat": 38.92076866666667, "type": "electric_scooter", "is_disabled": 0, "rental_uris": {"android": "https://dc.lft.to/lastmile_qr_scan", "ios": "https://dc.lft.to/lastmile_qr_scan"}, "fusion_lon": 0.0, "bike_id": "c2b31752b08549750880c0fed12217a8", "fusion_lat": 0.0, "is_reserved": 0}, {"name": "2418fe62d216c3bac3d3402304ad6cb3", "lon": -77.21125483333333, "lat": 38.87488416666667, "type": "electric_bike", "is_disabled": 0, "rental_uris": {"android": "https://dc.lft.to/lastmile_qr_scan", "ios": "https://dc.lft.to/lastmile_qr_scan"}, "fusion_lon": 0.0, "bike_id": "2418fe62d216c3bac3d3402304ad6cb3", "fusion_lat": 0.0, "is_reserved": 0}, {"name": "2e23ba83e85ebc2732da3f08418c5d25", "lon": -77.02557983333334, "lat": 38.916331, "type": "electric_scooter", "is_disabled": 0, "rental_uris": {"android": "https://dc.lft.to/lastmile_qr_scan", "ios": "https://dc.lft.to/lastmile_qr_scan"}, "fusion_lon": 0.0, "bike_id": "2e23ba83e85ebc2732da3f08418c5d25", "fusion_lat": 0.0, "is_reserved": 0}, {"name": "f193b1db9a748643754542ce9265ee06", "lon": -76.937521, "lat": 38.89038866666667, "type": "electric_bike", "is_disabled": 0, "rental_uris": {"android": "https://dc.lft.to/lastmile_qr_scan", "ios": "https://dc.lft.to/lastmile_qr_scan"}, "fusion_lon": 0.0, "bike_id": "f193b1db9a748643754542ce9265ee06", "fusion_lat": 0.0, "is_reserved": 0}, {"name": "f7809d4c17ca97cc6278fd54e82b8400", "lon": -77.10696283333333, "lat": 38.87551333333333, "type": "electric_bike", "is_disabled": 0, "rental_uris": {"android": "https://dc.lft.to/lastmile_qr_scan", "ios": "https://dc.lft.to/lastmile_qr_scan"}, "fusion_lon": 0.0, "bike_id": "f7809d4c17ca97cc6278fd54e82b8400", "fusion_lat": 0.0, "is_reserved": 0}, {"name": "484b7590ec944ec903b4b3a872461dea", "lon": -77.02181816666666, "lat": 38.918801333333334, "type": "electric_scooter", "is_disabled": 0, "rental_uris": {"android": "https://dc.lft.to/lastmile_qr_scan", "ios": "https://dc.lft.to/lastmile_qr_scan"}, "fusion_lon": 0.0, "bike_id": "484b7590ec944ec903b4b3a872461dea", "fusion_lat": 0.0, "is_reserved": 0}, {"name": "220ca25c2694962a17a18d1687f45276", "lon": -77.0856385, "lat": 38.8742185, "type": "electric_bike", "is_disabled": 0, "rental_uris": {"android": "https://dc.lft.to/lastmile_qr_scan", "ios": "https://dc.lft.to/lastmile_qr_scan"}, "fusion_lon": 0.0, "bike_id": "220ca25c2694962a17a18d1687f45276", "fusion_lat": 0.0, "is_reserved": 0}, {"name": "55e108f17443a6987d2718dc0c1453a4", "lon": -76.96912383333333, "lat": 38.8460975, "type": "electric_bike", "is_disabled": 0, "rental_uris": {"android": "https://dc.lft.to/lastmile_qr_scan", "ios": "https://dc.lft.to/lastmile_qr_scan"}, "fusion_lon": 0.0, "bike_id": "55e108f17443a6987d2718dc0c1453a4", "fusion_lat": 0.0, "is_reserved": 0}, {"name": "d31e9f2994c555a7eb55df72273c6ece", "lon": -77.05753483333334, "lat": 38.9250145, "type": "electric_scooter", "is_disabled": 0, "rental_uris": {"android": "https://dc.lft.to/lastmile_qr_scan", "ios": "https://dc.lft.to/lastmile_qr_scan"}, "fusion_lon": 0.0, "bike_id": "d31e9f2994c555a7eb55df72273c6ece", "fusion_lat": 0.0, "is_reserved": 0}, {"name": "dfc288bf1db547ac585fe8bffba3050e", "lon": -77.024993, "lat": 38.89224133333333, "type": "electric_scooter", "is_disabled": 0, "rental_uris": {"android": "https://dc.lft.to/lastmile_qr_scan", "ios": "https://dc.lft.to/lastmile_qr_scan"}, "fusion_lon": 0.0, "bike_id": "dfc288bf1db547ac585fe8bffba3050e", "fusion_lat": 0.0, "is_reserved": 0}, {"name": "7b6742578634f849cad4000a17705c10", "lon": -76.985638, "lat": 38.866795, "type": "electric_scooter", "is_disabled": 0, "rental_uris": {"android": "https://dc.lft.to/lastmile_qr_scan", "ios": "https://dc.lft.to/lastmile_qr_scan"}, "fusion_lon": 0.0, "bike_id": "7b6742578634f849cad4000a17705c10", "fusion_lat": 0.0, "is_reserved": 0}, {"name": "6e11cbf0950253ef7c499f1c9005018f", "lon": -77.05025716666667, "lat": 38.92361066666667, "type": "electric_scooter", "is_disabled": 0, "rental_uris": {"android": "https://dc.lft.to/lastmile_qr_scan", "ios": "https://dc.lft.to/lastmile_qr_scan"}, "fusion_lon": 0.0, "bike_id": "6e11cbf0950253ef7c499f1c9005018f", "fusion_lat": 0.0, "is_reserved": 0}, {"name": "bb35728f32b2360df025703c03622590", "lon": -77.0220535, "lat": 38.89226933333333, "type": "electric_scooter", "is_disabled": 0, "rental_uris": {"android": "https://dc.lft.to/lastmile_qr_scan", "ios": "https://dc.lft.to/lastmile_qr_scan"}, "fusion_lon": 0.0, "bike_id": "bb35728f32b2360df025703c03622590", "fusion_lat": 0.0, "is_reserved": 0}, {"name": "761daf82f537c35dbb425a00df419bc1", "lon": -77.0041745, "lat": 38.87722733333333, "type": "electric_scooter", "is_disabled": 0, "rental_uris": {"android": "https://dc.lft.to/lastmile_qr_scan", "ios": "https://dc.lft.to/lastmile_qr_scan"}, "fusion_lon": 0.0, "bike_id": "761daf82f537c35dbb425a00df419bc1", "fusion_lat": 0.0, "is_reserved": 0}, {"name": "d7a1e17165ca58f7973ace53d2c89531", "lon": -76.99057783333333, "lat": 38.9368705, "type": "electric_bike", "is_disabled": 0, "rental_uris": {"android": "https://dc.lft.to/lastmile_qr_scan", "ios": "https://dc.lft.to/lastmile_qr_scan"}, "fusion_lon": 0.0, "bike_id": "d7a1e17165ca58f7973ace53d2c89531", "fusion_lat": 0.0, "is_reserved": 0}, {"name": "de0f627b066b787e4ce2cbfc4fd37d63", "lon": -77.02658916666667, "lat": 38.93092933333333, "type": "electric_scooter", "is_disabled": 0, "rental_uris": {"android": "https://dc.lft.to/lastmile_qr_scan", "ios": "https://dc.lft.to/lastmile_qr_scan"}, "fusion_lon": 0.0, "bike_id": "de0f627b066b787e4ce2cbfc4fd37d63", "fusion_lat": 0.0, "is_reserved": 0}, {"name": "2c7ee9d83ea1f5ce701d012e339fb922", "lon": -76.993699, "lat": 38.99090533333333, "type": "electric_bike", "is_disabled": 0, "rental_uris": {"android": "https://dc.lft.to/lastmile_qr_scan", "ios": "https://dc.lft.to/lastmile_qr_scan"}, "fusion_lon": 0.0, "bike_id": "2c7ee9d83ea1f5ce701d012e339fb922", "fusion_lat": 0.0, "is_reserved": 0}, {"name": "2cd22a85d459c101d86b74d04f342d45", "lon": -77.0278615, "lat": 38.93859466666667, "type": "electric_scooter", "is_disabled": 0, "rental_uris": {"android": "https://dc.lft.to/lastmile_qr_scan", "ios": "https://dc.lft.to/lastmile_qr_scan"}, "fusion_lon": 0.0, "bike_id": "2cd22a85d459c101d86b74d04f342d45", "fusion_lat": 0.0, "is_reserved": 0}, {"name": "baf55543c266ea8f98dc9678b17c124b", "lon": -76.98192633333333, "lat": 38.92061366666667, "type": "electric_scooter", "is_disabled": 0, "rental_uris": {"android": "https://dc.lft.to/lastmile_qr_scan", "ios": "https://dc.lft.to/lastmile_qr_scan"}, "fusion_lon": 0.0, "bike_id": "baf55543c266ea8f98dc9678b17c124b", "fusion_lat": 0.0, "is_reserved": 0}, {"name": "08bbd7d9c1153834f228fc82fc7aaac9", "lon": -77.0146135, "lat": 38.9750365, "type": "electric_scooter", "is_disabled": 0, "rental_uris": {"android": "https://dc.lft.to/lastmile_qr_scan", "ios": "https://dc.lft.to/lastmile_qr_scan"}, "fusion_lon": 0.0, "bike_id": "08bbd7d9c1153834f228fc82fc7aaac9", "fusion_lat": 0.0, "is_reserved": 0}, {"name": "bfd4ca45d6c57185b14224254986796c", "lon": -77.01384466666667, "lat": 38.8872625, "type": "electric_scooter", "is_disabled": 0, "rental_uris": {"android": "https://dc.lft.to/lastmile_qr_scan", "ios": "https://dc.lft.to/lastmile_qr_scan"}, "fusion_lon": 0.0, "bike_id": "bfd4ca45d6c57185b14224254986796c", "fusion_lat": 0.0, "is_reserved": 0}, {"name": "30f64fc82209a667ba352e59cbdcea55", "lon": -77.02482, "lat": 38.938740333333335, "type": "electric_scooter", "is_disabled": 0, "rental_uris": {"android": "https://dc.lft.to/lastmile_qr_scan", "ios": "https://dc.lft.to/lastmile_qr_scan"}, "fusion_lon": 0.0, "bike_id": "30f64fc82209a667ba352e59cbdcea55", "fusion_lat": 0.0, "is_reserved": 0}, {"name": "26ebdf77fdc6165e21d236278ac367fb", "lon": -77.01748116666667, "lat": 38.974956666666664, "type": "electric_bike", "is_disabled": 0, "rental_uris": {"android": "https://dc.lft.to/lastmile_qr_scan", "ios": "https://dc.lft.to/lastmile_qr_scan"}, "fusion_lon": 0.0, "bike_id": "26ebdf77fdc6165e21d236278ac367fb", "fusion_lat": 0.0, "is_reserved": 0}, {"name": "d371c2008bb8917a7b2d7996fa1cd253", "lon": -77.02490616666667, "lat": 38.94182966666666, "type": "electric_scooter", "is_disabled": 0, "rental_uris": {"android": "https://dc.lft.to/lastmile_qr_scan", "ios": "https://dc.lft.to/lastmile_qr_scan"}, "fusion_lon": 0.0, "bike_id": "d371c2008bb8917a7b2d7996fa1cd253", "fusion_lat": 0.0, "is_reserved": 0}, {"name": "17cd696d4152982937553e5ea00acd66", "lon": -77.02198583333333, "lat": 38.909750333333335, "type": "electric_scooter", "is_disabled": 0, "rental_uris": {"android": "https://dc.lft.to/lastmile_qr_scan", "ios": "https://dc.lft.to/lastmile_qr_scan"}, "fusion_lon": 0.0, "bike_id": "17cd696d4152982937553e5ea00acd66", "fusion_lat": 0.0, "is_reserved": 0}, {"name": "a08f4e88021ed0b489d1873672461560", "lon": -76.9867855, "lat": 38.893600666666664, "type": "electric_scooter", "is_disabled": 0, "rental_uris": {"android": "https://dc.lft.to/lastmile_qr_scan", "ios": "https://dc.lft.to/lastmile_qr_scan"}, "fusion_lon": 0.0, "bike_id": "a08f4e88021ed0b489d1873672461560", "fusion_lat": 0.0, "is_reserved": 0}, {"name": "d661c77fa1c93d94034fb517d535b75e", "lon": -77.00736566666667, "lat": 38.8984365, "type": "electric_scooter", "is_disabled": 0, "rental_uris": {"android": "https://dc.lft.to/lastmile_qr_scan", "ios": "https://dc.lft.to/lastmile_qr_scan"}, "fusion_lon": 0.0, "bike_id": "d661c77fa1c93d94034fb517d535b75e", "fusion_lat": 0.0, "is_reserved": 0}, {"name": "8c87587849014aad5ace1b2b72ca0e48", "lon": -77.0870245, "lat": 38.935172333333334, "type": "electric_scooter", "is_disabled": 0, "rental_uris": {"android": "https://dc.lft.to/lastmile_qr_scan", "ios": "https://dc.lft.to/lastmile_qr_scan"}, "fusion_lon": 0.0, "bike_id": "8c87587849014aad5ace1b2b72ca0e48", "fusion_lat": 0.0, "is_reserved": 0}, {"name": "dfe964821cd651eb4f46033bb8d92283", "lon": -77.00464016666666, "lat": 38.891545666666666, "type": "electric_bike", "is_disabled": 0, "rental_uris": {"android": "https://dc.lft.to/lastmile_qr_scan", "ios": "https://dc.lft.to/lastmile_qr_scan"}, "fusion_lon": 0.0, "bike_id": "dfe964821cd651eb4f46033bb8d92283", "fusion_lat": 0.0, "is_reserved": 0}, {"name": "edd98eed82954f691f0d1dba568f3d03", "lon": -77.00225366666666, "lat": 38.89479583333333, "type": "electric_scooter", "is_disabled": 0, "rental_uris": {"android": "https://dc.lft.to/lastmile_qr_scan", "ios": "https://dc.lft.to/lastmile_qr_scan"}, "fusion_lon": 0.0, "bike_id": "edd98eed82954f691f0d1dba568f3d03", "fusion_lat": 0.0, "is_reserved": 0}, {"name": "6ae2f062eb4cc9026c45fa1bce53faff", "lon": -76.98413533333333, "lat": 38.90816183333333, "type": "electric_scooter", "is_disabled": 0, "rental_uris": {"android": "https://dc.lft.to/lastmile_qr_scan", "ios": "https://dc.lft.to/lastmile_qr_scan"}, "fusion_lon": 0.0, "bike_id": "6ae2f062eb4cc9026c45fa1bce53faff", "fusion_lat": 0.0, "is_reserved": 0}, {"name": "bc00da0bbf5adf65c669ddd6195c3fac", "lon": -77.03786083333334, "lat": 38.92695666666667, "type": "electric_scooter", "is_disabled": 0, "rental_uris": {"android": "https://dc.lft.to/lastmile_qr_scan", "ios": "https://dc.lft.to/lastmile_qr_scan"}, "fusion_lon": 0.0, "bike_id": "bc00da0bbf5adf65c669ddd6195c3fac", "fusion_lat": 0.0, "is_reserved": 0}, {"name": "531e014dce207fce7ee1d703bb3b72a5", "lon": -77.02571633333334, "lat": 38.9204405, "type": "electric_scooter", "is_disabled": 0, "rental_uris": {"android": "https://dc.lft.to/lastmile_qr_scan", "ios": "https://dc.lft.to/lastmile_qr_scan"}, "fusion_lon": 0.0, "bike_id": "531e014dce207fce7ee1d703bb3b72a5", "fusion_lat": 0.0, "is_reserved": 0}, {"name": "7657baef8685a99e77d37ec080cd1d19", "lon": -76.9882355, "lat": 38.89078533333333, "type": "electric_scooter", "is_disabled": 0, "rental_uris": {"android": "https://dc.lft.to/lastmile_qr_scan", "ios": "https://dc.lft.to/lastmile_qr_scan"}, "fusion_lon": 0.0, "bike_id": "7657baef8685a99e77d37ec080cd1d19", "fusion_lat": 0.0, "is_reserved": 0}, {"name": "de9fd1b0ccf81c775cdab93f3b344f21", "lon": -76.99735383333334, "lat": 38.86152216666667, "type": "electric_scooter", "is_disabled": 0, "rental_uris": {"android": "https://dc.lft.to/lastmile_qr_scan", "ios": "https://dc.lft.to/lastmile_qr_scan"}, "fusion_lon": 0.0, "bike_id": "de9fd1b0ccf81c775cdab93f3b344f21", "fusion_lat": 0.0, "is_reserved": 0}, {"name": "d62bf5c66345a15dd0179e44924c3d43", "lon": -77.03999666666667, "lat": 38.904007, "type": "electric_scooter", "is_disabled": 0, "rental_uris": {"android": "https://dc.lft.to/lastmile_qr_scan", "ios": "https://dc.lft.to/lastmile_qr_scan"}, "fusion_lon": 0.0, "bike_id": "d62bf5c66345a15dd0179e44924c3d43", "fusion_lat": 0.0, "is_reserved": 0}, {"name": "991890fb6697af044e454923679bef21", "lon": -76.9414245, "lat": 38.901772666666666, "type": "electric_scooter", "is_disabled": 0, "rental_uris": {"android": "https://dc.lft.to/lastmile_qr_scan", "ios": "https://dc.lft.to/lastmile_qr_scan"}, "fusion_lon": 0.0, "bike_id": "991890fb6697af044e454923679bef21", "fusion_lat": 0.0, "is_reserved": 0}, {"name": "6f40429897835ddb40b0e047f17eccdd", "lon": -77.0365255, "lat": 38.901296333333335, "type": "electric_scooter", "is_disabled": 0, "rental_uris": {"android": "https://dc.lft.to/lastmile_qr_scan", "ios": "https://dc.lft.to/lastmile_qr_scan"}, "fusion_lon": 0.0, "bike_id": "6f40429897835ddb40b0e047f17eccdd", "fusion_lat": 0.0, "is_reserved": 0}, {"name": "aa26684ded1773d85f79609e69bd5ffc", "lon": -76.98644883333333, "lat": 38.919670833333335, "type": "electric_scooter", "is_disabled": 0, "rental_uris": {"android": "https://dc.lft.to/lastmile_qr_scan", "ios": "https://dc.lft.to/lastmile_qr_scan"}, "fusion_lon": 0.0, "bike_id": "aa26684ded1773d85f79609e69bd5ffc", "fusion_lat": 0.0, "is_reserved": 0}, {"name": "ee63b53238de07666240c22755bc31c4", "lon": -76.98229883333333, "lat": 38.864697166666666, "type": "electric_scooter", "is_disabled": 0, "rental_uris": {"android": "https://dc.lft.to/lastmile_qr_scan", "ios": "https://dc.lft.to/lastmile_qr_scan"}, "fusion_lon": 0.0, "bike_id": "ee63b53238de07666240c22755bc31c4", "fusion_lat": 0.0, "is_reserved": 0}, {"name": "7e7ccbfd1f2e6ff9b310c4db3e933bd9", "lon": -76.97639533333333, "lat": 38.88682033333333, "type": "electric_bike", "is_disabled": 0, "rental_uris": {"android": "https://dc.lft.to/lastmile_qr_scan", "ios": "https://dc.lft.to/lastmile_qr_scan"}, "fusion_lon": 0.0, "bike_id": "7e7ccbfd1f2e6ff9b310c4db3e933bd9", "fusion_lat": 0.0, "is_reserved": 0}, {"name": "1edb21146d8b25d42329f03df7c60cb5", "lon": -77.021771, "lat": 38.901846166666665, "type": "electric_scooter", "is_disabled": 0, "rental_uris": {"android": "https://dc.lft.to/lastmile_qr_scan", "ios": "https://dc.lft.to/lastmile_qr_scan"}, "fusion_lon": 0.0, "bike_id": "1edb21146d8b25d42329f03df7c60cb5", "fusion_lat": 0.0, "is_reserved": 0}, {"name": "3031f867891335e74bab1d289ca96893", "lon": -77.03141533333333, "lat": 38.91693566666667, "type": "electric_scooter", "is_disabled": 0, "rental_uris": {"android": "https://dc.lft.to/lastmile_qr_scan", "ios": "https://dc.lft.to/lastmile_qr_scan"}, "fusion_lon": 0.0, "bike_id": "3031f867891335e74bab1d289ca96893", "fusion_lat": 0.0, "is_reserved": 0}, {"name": "f5cca3fa13c20b0bac9637389e80ac9a", "lon": -77.025135, "lat": 38.92083066666667, "type": "electric_scooter", "is_disabled": 0, "rental_uris": {"android": "https://dc.lft.to/lastmile_qr_scan", "ios": "https://dc.lft.to/lastmile_qr_scan"}, "fusion_lon": 0.0, "bike_id": "f5cca3fa13c20b0bac9637389e80ac9a", "fusion_lat": 0.0, "is_reserved": 0}, {"name": "14f44dab11926c9c34fe05b942ccfb4b", "lon": -76.99070783333333, "lat": 38.94257866666667, "type": "electric_bike", "is_disabled": 0, "rental_uris": {"android": "https://dc.lft.to/lastmile_qr_scan", "ios": "https://dc.lft.to/lastmile_qr_scan"}, "fusion_lon": 0.0, "bike_id": "14f44dab11926c9c34fe05b942ccfb4b", "fusion_lat": 0.0, "is_reserved": 0}, {"name": "34c9b01a486e960eb937af4e25193829", "lon": -77.0365255, "lat": 38.92975783333333, "type": "electric_scooter", "is_disabled": 0, "rental_uris": {"android": "https://dc.lft.to/lastmile_qr_scan", "ios": "https://dc.lft.to/lastmile_qr_scan"}, "fusion_lon": 0.0, "bike_id": "34c9b01a486e960eb937af4e25193829", "fusion_lat": 0.0, "is_reserved": 0}, {"name": "b5df3e1cd2e7af10ec7506554b69afb3", "lon": -76.97545616666666, "lat": 38.903203166666664, "type": "electric_scooter", "is_disabled": 0, "rental_uris": {"android": "https://dc.lft.to/lastmile_qr_scan", "ios": "https://dc.lft.to/lastmile_qr_scan"}, "fusion_lon": 0.0, "bike_id": "b5df3e1cd2e7af10ec7506554b69afb3", "fusion_lat": 0.0, "is_reserved": 0}, {"name": "598567e304e8e4f931b94beee3a913b9", "lon": -76.98561616666667, "lat": 38.866809, "type": "electric_scooter", "is_disabled": 0, "rental_uris": {"android": "https://dc.lft.to/lastmile_qr_scan", "ios": "https://dc.lft.to/lastmile_qr_scan"}, "fusion_lon": 0.0, "bike_id": "598567e304e8e4f931b94beee3a913b9", "fusion_lat": 0.0, "is_reserved": 0}, {"name": "4578984b57b4cc45b46baa001f9fcab6", "lon": -77.00563333333334, "lat": 38.88503683333333, "type": "electric_scooter", "is_disabled": 0, "rental_uris": {"android": "https://dc.lft.to/lastmile_qr_scan", "ios": "https://dc.lft.to/lastmile_qr_scan"}, "fusion_lon": 0.0, "bike_id": "4578984b57b4cc45b46baa001f9fcab6", "fusion_lat": 0.0, "is_reserved": 0}, {"name": "92129159ca4dc686d038773ef77dba87", "lon": -77.01294583333333, "lat": 38.90060016666666, "type": "electric_bike", "is_disabled": 0, "rental_uris": {"android": "https://dc.lft.to/lastmile_qr_scan", "ios": "https://dc.lft.to/lastmile_qr_scan"}, "fusion_lon": 0.0, "bike_id": "92129159ca4dc686d038773ef77dba87", "fusion_lat": 0.0, "is_reserved": 0}, {"name": "91486385effe3d753325d9b91f3bad91", "lon": -77.04386616666666, "lat": 38.9235525, "type": "electric_scooter", "is_disabled": 0, "rental_uris": {"android": "https://dc.lft.to/lastmile_qr_scan", "ios": "https://dc.lft.to/lastmile_qr_scan"}, "fusion_lon": 0.0, "bike_id": "91486385effe3d753325d9b91f3bad91", "fusion_lat": 0.0, "is_reserved": 0}, {"name": "d20cdf843e01ce07b0831b7b26a4e412", "lon": -76.94638316666666, "lat": 38.89854966666667, "type": "electric_scooter", "is_disabled": 0, "rental_uris": {"android": "https://dc.lft.to/lastmile_qr_scan", "ios": "https://dc.lft.to/lastmile_qr_scan"}, "fusion_lon": 0.0, "bike_id": "d20cdf843e01ce07b0831b7b26a4e412", "fusion_lat": 0.0, "is_reserved": 0}, {"name": "7d84b39aa89d30e3be8a1743abce150e", "lon": -77.02304683333334, "lat": 38.926601833333336, "type": "electric_scooter", "is_disabled": 0, "rental_uris": {"android": "https://dc.lft.to/lastmile_qr_scan", "ios": "https://dc.lft.to/lastmile_qr_scan"}, "fusion_lon": 0.0, "bike_id": "7d84b39aa89d30e3be8a1743abce150e", "fusion_lat": 0.0, "is_reserved": 0}, {"name": "b183d1aef89bf1e9955fead0ee82cfc7", "lon": -77.0220665, "lat": 38.924663, "type": "electric_scooter", "is_disabled": 0, "rental_uris": {"android": "https://dc.lft.to/lastmile_qr_scan", "ios": "https://dc.lft.to/lastmile_qr_scan"}, "fusion_lon": 0.0, "bike_id": "b183d1aef89bf1e9955fead0ee82cfc7", "fusion_lat": 0.0, "is_reserved": 0}, {"name": "b54205ba498cc1e93ce6b03d7e4ecc0c", "lon": -77.04348466666667, "lat": 38.90365466666667, "type": "electric_scooter", "is_disabled": 0, "rental_uris": {"android": "https://dc.lft.to/lastmile_qr_scan", "ios": "https://dc.lft.to/lastmile_qr_scan"}, "fusion_lon": 0.0, "bike_id": "b54205ba498cc1e93ce6b03d7e4ecc0c", "fusion_lat": 0.0, "is_reserved": 0}, {"name": "794f342ad6d502eeec160f025e795636", "lon": -77.04192366666666, "lat": 38.90618166666667, "type": "electric_scooter", "is_disabled": 0, "rental_uris": {"android": "https://dc.lft.to/lastmile_qr_scan", "ios": "https://dc.lft.to/lastmile_qr_scan"}, "fusion_lon": 0.0, "bike_id": "794f342ad6d502eeec160f025e795636", "fusion_lat": 0.0, "is_reserved": 0}, {"name": "7bc12b92af9cd3936510d4765dc3e971", "lon": -76.98023566666667, "lat": 38.9009735, "type": "electric_scooter", "is_disabled": 0, "rental_uris": {"android": "https://dc.lft.to/lastmile_qr_scan", "ios": "https://dc.lft.to/lastmile_qr_scan"}, "fusion_lon": 0.0, "bike_id": "7bc12b92af9cd3936510d4765dc3e971", "fusion_lat": 0.0, "is_reserved": 0}, {"name": "bf9fc30b255f3a5a700ee9921fd23e0a", "lon": -77.04196, "lat": 38.892194333333336, "type": "electric_scooter", "is_disabled": 0, "rental_uris": {"android": "https://dc.lft.to/lastmile_qr_scan", "ios": "https://dc.lft.to/lastmile_qr_scan"}, "fusion_lon": 0.0, "bike_id": "bf9fc30b255f3a5a700ee9921fd23e0a", "fusion_lat": 0.0, "is_reserved": 0}, {"name": "4b2ec70a692c27c5468449b0211f7a06", "lon": -77.0434705, "lat": 38.905092333333336, "type": "electric_scooter", "is_disabled": 0, "rental_uris": {"android": "https://dc.lft.to/lastmile_qr_scan", "ios": "https://dc.lft.to/lastmile_qr_scan"}, "fusion_lon": 0.0, "bike_id": "4b2ec70a692c27c5468449b0211f7a06", "fusion_lat": 0.0, "is_reserved": 0}, {"name": "4a4dd9804af17d782fcf16022dd24c00", "lon": -77.03193033333334, "lat": 38.9036015, "type": "electric_scooter", "is_disabled": 0, "rental_uris": {"android": "https://dc.lft.to/lastmile_qr_scan", "ios": "https://dc.lft.to/lastmile_qr_scan"}, "fusion_lon": 0.0, "bike_id": "4a4dd9804af17d782fcf16022dd24c00", "fusion_lat": 0.0, "is_reserved": 0}, {"name": "31914c4e13418cc5073c148311df25f1", "lon": -77.0434375, "lat": 38.903939, "type": "electric_scooter", "is_disabled": 0, "rental_uris": {"android": "https://dc.lft.to/lastmile_qr_scan", "ios": "https://dc.lft.to/lastmile_qr_scan"}, "fusion_lon": 0.0, "bike_id": "31914c4e13418cc5073c148311df25f1", "fusion_lat": 0.0, "is_reserved": 0}, {"name": "736b4049bac437d5bd151db5eae6cd2d", "lon": -77.02695783333333, "lat": 38.89747283333333, "type": "electric_scooter", "is_disabled": 0, "rental_uris": {"android": "https://dc.lft.to/lastmile_qr_scan", "ios": "https://dc.lft.to/lastmile_qr_scan"}, "fusion_lon": 0.0, "bike_id": "736b4049bac437d5bd151db5eae6cd2d", "fusion_lat": 0.0, "is_reserved": 0}, {"name": "f0fe8b890ca0aed14eb0f36da3dbe858", "lon": -77.03058883333334, "lat": 38.90243566666667, "type": "electric_scooter", "is_disabled": 0, "rental_uris": {"android": "https://dc.lft.to/lastmile_qr_scan", "ios": "https://dc.lft.to/lastmile_qr_scan"}, "fusion_lon": 0.0, "bike_id": "f0fe8b890ca0aed14eb0f36da3dbe858", "fusion_lat": 0.0, "is_reserved": 0}, {"name": "d2c5ad79ea21fda7699f5efcc2b32207", "lon": -77.01066883333333, "lat": 38.9202535, "type": "electric_scooter", "is_disabled": 0, "rental_uris": {"android": "https://dc.lft.to/lastmile_qr_scan", "ios": "https://dc.lft.to/lastmile_qr_scan"}, "fusion_lon": 0.0, "bike_id": "d2c5ad79ea21fda7699f5efcc2b32207", "fusion_lat": 0.0, "is_reserved": 0}, {"name": "236770a8e803277594f92b46513d4452", "lon": -76.95416, "lat": 38.88998133333333, "type": "electric_scooter", "is_disabled": 0, "rental_uris": {"android": "https://dc.lft.to/lastmile_qr_scan", "ios": "https://dc.lft.to/lastmile_qr_scan"}, "fusion_lon": 0.0, "bike_id": "236770a8e803277594f92b46513d4452", "fusion_lat": 0.0, "is_reserved": 0}, {"name": "88e0a2f31018884ee1725b57da7670f6", "lon": -76.98109466666666, "lat": 38.914665666666664, "type": "electric_scooter", "is_disabled": 0, "rental_uris": {"android": "https://dc.lft.to/lastmile_qr_scan", "ios": "https://dc.lft.to/lastmile_qr_scan"}, "fusion_lon": 0.0, "bike_id": "88e0a2f31018884ee1725b57da7670f6", "fusion_lat": 0.0, "is_reserved": 0}, {"name": "7c31bbb988d4e9fa9b5a4920c33e1d7e", "lon": -77.04335283333333, "lat": 38.905251, "type": "electric_scooter", "is_disabled": 0, "rental_uris": {"android": "https://dc.lft.to/lastmile_qr_scan", "ios": "https://dc.lft.to/lastmile_qr_scan"}, "fusion_lon": 0.0, "bike_id": "7c31bbb988d4e9fa9b5a4920c33e1d7e", "fusion_lat": 0.0, "is_reserved": 0}, {"name": "90244c0269761b9722a75d898043e064", "lon": -77.03787416666667, "lat": 38.99671266666667, "type": "electric_bike", "is_disabled": 0, "rental_uris": {"android": "https://dc.lft.to/lastmile_qr_scan", "ios": "https://dc.lft.to/lastmile_qr_scan"}, "fusion_lon": 0.0, "bike_id": "90244c0269761b9722a75d898043e064", "fusion_lat": 0.0, "is_reserved": 0}, {"name": "1e8ba7c1c61b804d4d8547455b28ef85", "lon": -77.048711, "lat": 38.912325, "type": "electric_scooter", "is_disabled": 0, "rental_uris": {"android": "https://dc.lft.to/lastmile_qr_scan", "ios": "https://dc.lft.to/lastmile_qr_scan"}, "fusion_lon": 0.0, "bike_id": "1e8ba7c1c61b804d4d8547455b28ef85", "fusion_lat": 0.0, "is_reserved": 0}, {"name": "9a6f26c3ccc095893f0a28bdaf92407a", "lon": -77.04227233333333, "lat": 38.91103316666667, "type": "electric_scooter", "is_disabled": 0, "rental_uris": {"android": "https://dc.lft.to/lastmile_qr_scan", "ios": "https://dc.lft.to/lastmile_qr_scan"}, "fusion_lon": 0.0, "bike_id": "9a6f26c3ccc095893f0a28bdaf92407a", "fusion_lat": 0.0, "is_reserved": 0}, {"name": "58bc3832a2e1da5a0b64ee5892f967dc", "lon": -77.04672683333334, "lat": 38.89559533333333, "type": "electric_scooter", "is_disabled": 0, "rental_uris": {"android": "https://dc.lft.to/lastmile_qr_scan", "ios": "https://dc.lft.to/lastmile_qr_scan"}, "fusion_lon": 0.0, "bike_id": "58bc3832a2e1da5a0b64ee5892f967dc", "fusion_lat": 0.0, "is_reserved": 0}, {"name": "56d90d0a696cf9e1b3426e4ac5d1abd5", "lon": -77.02348383333333, "lat": 38.93525566666667, "type": "electric_scooter", "is_disabled": 0, "rental_uris": {"android": "https://dc.lft.to/lastmile_qr_scan", "ios": "https://dc.lft.to/lastmile_qr_scan"}, "fusion_lon": 0.0, "bike_id": "56d90d0a696cf9e1b3426e4ac5d1abd5", "fusion_lat": 0.0, "is_reserved": 0}, {"name": "b99d71eecf1f2e8a0287d4c64b2c3a60", "lon": -76.978578, "lat": 38.84465316666667, "type": "electric_bike", "is_disabled": 0, "rental_uris": {"android": "https://dc.lft.to/lastmile_qr_scan", "ios": "https://dc.lft.to/lastmile_qr_scan"}, "fusion_lon": 0.0, "bike_id": "b99d71eecf1f2e8a0287d4c64b2c3a60", "fusion_lat": 0.0, "is_reserved": 0},