{"data": {"bikes": [{"name": "eb73494811b531f1b1f45507892f4151", "fusion_lat": 0.0, "fusion_lon": 0.0, "bike_id": "eb73494811b531f1b1f45507892f4151", "rental_uris": {"ios": "https://dc.lft.to/lastmile_qr_scan", "android": "https://dc.lft.to/lastmile_qr_scan"}, "type": "electric_bike", "lat": 38.90982133333333, "is_disabled": 0, "lon": -76.997177, "is_reserved": 0}, {"name": "5afa236c1e3ae0ebcfe3bf468e1c4c78", "fusion_lat": 0.0, "fusion_lon": 0.0, "bike_id": "5afa236c1e3ae0ebcfe3bf468e1c4c78", "rental_uris": {"ios": "https://dc.lft.to/lastmile_qr_scan", "android": "https://dc.lft.to/lastmile_qr_scan"}, "type": "electric_scooter", "lat": 38.89472683333334, "is_disabled": 0, "lon": -77.00136583333334, "is_reserved": 0}, {"name": "4060a283ea5ddbb1e4f9dbf1836c4134", "fusion_lat": 0.0, "fusion_lon": 0.0, "bike_id": "4060a283ea5ddbb1e4f9dbf1836c4134", "rental_uris": {"ios": "https://dc.lft.to/lastmile_qr_scan", "android": "https://dc.lft.to/lastmile_qr_scan"}, "type": "electric_scooter", "lat": 38.87920033333333, "is_disabled": 0, "lon": -77.00583816666666, "is_reserved": 0}, {"name": "90f2ba58e076303867ad70e0b912fd3a", "fusion_lat": 0.0, "fusion_lon": 0.0, "bike_id": "90f2ba58e076303867ad70e0b912fd3a", "rental_uris": {"ios": "https://dc.lft.to/lastmile_qr_scan", "android": "https://dc.lft.to/lastmile_qr_scan"}, "type": "electric_scooter", "lat": 38.91723616666667, "is_disabled": 0, "lon": -77.03621083333333, "is_reserved": 0}, {"name": "edf8123fce375914c3257900ae7df633", "fusion_lat": 0.0, "fusion_lon": 0.0, "bike_id": "edf8123fce375914c3257900ae7df633", "rental_uris": {"ios": "https://dc.lft.to/lastmile_qr_scan", "android": "https://dc.lft.to/lastmile_qr_scan"}, "type": "electric_bike", "lat": 38.89046783333333, "is_disabled": 0, "lon": -76.9374205, "is_reserved": 0}, {"name": "85012f5c36213926633745cd802cfb3c", "fusion_lat": 0.0, "fusion_lon": 0.0, "bike_id": "85012f5c36213926633745cd802cfb3c", "rental_uris": {"ios": "https://dc.lft.to/lastmile_qr_scan", "android": "https://dc.lft.to/lastmile_qr_scan"}, "type": "electric_scooter", "lat": 38.87625833333333, "is_disabled": 0, "lon": -76.9653155, "is_reserved": 0}, {"name": "e8a6a3c1af77c892783928d7b579ccb6", "fusion_lat": 0.0, "fusion_lon": 0.0, "bike_id": "e8a6a3c1af77c892783928d7b579ccb6", "rental_uris": {"ios": "https://dc.lft.to/lastmile_qr_scan", "android": "https://dc.lft.to/lastmile_qr_scan"}, "type": "electric_scooter", "lat": 38.93238266666667, "is_disabled": 0, "lon": -77.03855033333333, "is_reserved": 0}, {"name": "20385516736eabab34edd7923b963fdb", "fusion_lat": 0.0, "fusion_lon": 0.0, "bike_id": "20385516736eabab34edd7923b963fdb", "rental_uris": {"ios": "https://dc.lft.to/lastmile_qr_scan", "android": "https://dc.lft.to/lastmile_qr_scan"}, "type": "electric_scooter", "lat": 38.9198775, "is_disabled": 0, "lon": -77.02505633333334, "is_reserved": 0}, {"name": "159ebf09110a80f216dfb91a04668b0e", "fusion_lat": 0.0, "fusion_lon": 0.0, "bike_id": "159ebf09110a80f216dfb91a04668b0e", "rental_uris": {"ios": "https://dc.lft.to/lastmile_qr_scan", "android": "https://dc.lft.to/lastmile_qr_scan"}, "type": "electric_scooter", "lat": 38.90963133333333, "is_disabled": 0, "lon": -77.02282066666666, "is_reserved": 0}, {"name": "96c1bd4dd6926665ccd7368c3ed14a2f", "fusion_lat": 0.0, "fusion_lon": 0.0, "bike_id": "96c1bd4dd6926665ccd7368c3ed14a2f", "rental_uris": {"ios": "https://dc.lft.to/lastmile_qr_scan", "android": "https://dc.lft.to/lastmile_qr_scan"}, "type": "electric_scooter", "lat": 38.90774733333333, "is_disabled": 0, "lon": -77.02807116666666, "is_reserved": 0}, {"name": "90bc7bbfee13e9cb55377ea55754ef76", "fusion_lat": 0.0, "fusion_lon": 0.0, "bike_id": "90bc7bbfee13e9cb55377ea55754ef76", "rental_uris": {"ios": "https://dc.lft.to/lastmile_qr_scan", "android": "https://dc.lft.to/lastmile_qr_scan"}, "type": "electric_scooter", "lat": 38.92576366666667, "is_disabled": 0, "lon": -76.99494883333334, "is_reserved": 0}, {"name": "37e5da5d333b19781e381570f260057b", "fusion_lat": 0.0, "fusion_lon": 0.0, "bike_id": "37e5da5d333b19781e381570f260057b", "rental_uris": {"ios": "https://dc.lft.to/lastmile_qr_scan", "android": "https://dc.lft.to/lastmile_qr_scan"}, "type": "electric_scooter", "lat": 38.892282333333334, "is_disabled": 0, "lon": -77.043712, "is_reserved": 0}, {"name": "c0f1a1e797f931d528e14d9081cc35a7", "fusion_lat": 0.0, "fusion_lon": 0.0, "bike_id": "c0f1a1e797f931d528e14d9081cc35a7", "rental_uris": {"ios": "https://dc.lft.to/lastmile_qr_scan", "android": "https://dc.lft.to/lastmile_qr_scan"}, "type": "electric_scooter", "lat": 38.91861033333333, "is_disabled": 0, "lon": -77.04453216666667, "is_reserved": 0}, {"name": "40521bd5e52e73cccf6a75f1a812daaa", "fusion_lat": 0.0, "fusion_lon": 0.0, "bike_id": "40521bd5e52e73cccf6a75f1a812daaa", "rental_uris": {"ios": "https://dc.lft.to/lastmile_qr_scan", "android": "https://dc.lft.to/lastmile_qr_scan"}, "type": "electric_scooter", "lat": 38.90219116666667, "is_disabled": 0, "lon": -77.0236305, "is_reserved": 0}, {"name": "c156938590ce7f1dc90df8472c0486f7", "fusion_lat": 0.0, "fusion_lon": 0.0, "bike_id": "c156938590ce7f1dc90df8472c0486f7", "rental_uris": {"ios": "https://dc.lft.to/lastmile_qr_scan", "android": "https://dc.lft.to/lastmile_qr_scan"}, "type": "electric_scooter", "lat": 38.89812033333333, "is_disabled": 0, "lon": -77.0294205, "is_reserved": 0}, {"name": "1b0608b27c0e7e2273cc56b02d7f258b", "fusion_lat": 0.0, "fusion_lon": 0.0, "bike_id": "1b0608b27c0e7e2273cc56b02d7f258b", "rental_uris": {"ios": "https://dc.lft.to/lastmile_qr_scan", "android": "https://dc.lft.to/lastmile_qr_scan"}, "type": "electric_scooter", "lat": 38.93636583333333, "is_disabled": 0, "lon": -77.0269495, "is_reserved": 0}, {"name": "eec26bad04e1b5f096d1ffe8d8a714f3", "fusion_lat": 0.0, "fusion_lon": 0.0, "bike_id": "eec26bad04e1b5f096d1ffe8d8a714f3", "rental_uris": {"ios": "https://dc.lft.to/lastmile_qr_scan", "android": "https://dc.lft.to/lastmile_qr_scan"}, "type": "electric_scooter", "lat": 38.90960883333333, "is_disabled": 0, "lon": -77.048622, "is_reserved": 0}, {"name": "2fc679478d64a10428f545b3cbb61568", "fusion_lat": 0.0, "fusion_lon": 0.0, "bike_id": "2fc679478d64a10428f545b3cbb61568", "rental_uris": {"ios": "https://dc.lft.to/lastmile_qr_scan", "android": "https://dc.lft.to/lastmile_qr_scan"}, "type": "electric_scooter", "lat": 38.90242833333333, "is_disabled": 0, "lon": -77.01909666666667, "is_reserved": 0}, {"name": "c6734bfe357b09d9f79310d728d5117d", "fusion_lat": 0.0, "fusion_lon": 0.0, "bike_id": "c6734bfe357b09d9f79310d728d5117d", "rental_uris": {"ios": "https://dc.lft.to/lastmile_qr_scan", "android": "https://dc.lft.to/lastmile_qr_scan"}, "type": "electric_scooter", "lat": 38.92153283333333, "is_disabled": 0, "lon": -77.038679, "is_reserved": 0}, {"name": "925eccd6447c7e76c312cc3e5fc94583", "fusion_lat": 0.0, "fusion_lon": 0.0, "bike_id": "925eccd6447c7e76c312cc3e5fc94583", "rental_uris": {"ios": "https://dc.lft.to/lastmile_qr_scan", "android": "https://dc.lft.to/lastmile_qr_scan"}, "type": "electric_scooter", "lat": 38.91883583333333, "is_disabled": 0, "lon": -77.04307733333333, "is_reserved": 0}, {"name": "53cbd69ce2b2761eb1a7c1d48b6f45a9", "fusion_lat": 0.0, "fusion_lon": 0.0, "bike_id": "53cbd69ce2b2761eb1a7c1d48b6f45a9", "rental_uris": {"ios": "https://dc.lft.to/lastmile_qr_scan", "android": "https://dc.lft.to/lastmile_qr_scan"}, "type": "electric_scooter", "lat": 38.90480083333333, "is_disabled": 0, "lon": -77.06218583333333, "is_reserved": 0}, {"name": "de05c970f7520296b8e23e91c5b9297f", "fusion_lat": 0.0, "fusion_lon": 0.0, "bike_id": "de05c970f7520296b8e23e91c5b9297f", "rental_uris": {"ios": "https://dc.lft.to/lastmile_qr_scan", "android": "https://dc.lft.to/lastmile_qr_scan"}, "type": "electric_scooter", "lat": 38.92527233333333, "is_disabled": 0, "lon": -77.04094783333333, "is_reserved": 0}, {"name": "66d3b24ec714977bacfa3ca2d772beef", "fusion_lat": 0.0, "fusion_lon": 0.0, "bike_id": "66d3b24ec714977bacfa3ca2d772beef", "rental_uris": {"ios": "https://dc.lft.to/lastmile_qr_scan", "android": "https://dc.lft.to/lastmile_qr_scan"}, "type": "electric_scooter", "lat": 38.9217405, "is_disabled": 0, "lon": -77.038295, "is_reserved": 0}, {"name": "3d1125c738ca3a99d9249413482726a5", "fusion_lat": 0.0, "fusion_lon": 0.0, "bike_id": "3d1125c738ca3a99d9249413482726a5", "rental_uris": {"ios": "https://dc.lft.to/lastmile_qr_scan", "android": "https://dc.lft.to/lastmile_qr_scan"}, "type": "electric_bike", "lat": 38.99403266666667, "is_disabled": 0, "lon": -77.02412633333333, "is_reserved": 0}, {"name": "4310bec667a95a43ac915366d0ad2782", "fusion_lat": 0.0, "fusion_lon": 0.0, "bike_id": "4310bec667a95a43ac915366d0ad2782", "rental_uris": {"ios": "https://dc.lft.to/lastmile_qr_scan", "android": "https://dc.lft.to/lastmile_qr_scan"}, "type": "electric_scooter", "lat": 38.90853633333333, "is_disabled": 0, "lon": -77.060818, "is_reserved": 0}, {"name": "0c49d837027a595683be5fb0bd1568a7", "fusion_lat": 0.0, "fusion_lon": 0.0, "bike_id": "0c49d837027a595683be5fb0bd1568a7", "rental_uris": {"ios": "https://dc.lft.to/lastmile_qr_scan", "android": "https://dc.lft.to/lastmile_qr_scan"}, "type": "electric_scooter", "lat": 38.89845183333333, "is_disabled": 0, "lon": -76.946317, "is_reserved": 0}, {"name": "6069c0995cb932995228c0277adf2c54", "fusion_lat": 0.0, "fusion_lon": 0.0, "bike_id": "6069c0995cb932995228c0277adf2c54", "rental_uris": {"ios": "https://dc.lft.to/lastmile_qr_scan", "android": "https://dc.lft.to/lastmile_qr_scan"}, "type": "electric_scooter", "lat": 38.906074, "is_disabled": 0, "lon": -77.04354216666667, "is_reserved": 0}, {"name": "318425a354a1122a5ed36eddd3c1b6f2", "fusion_lat": 0.0, "fusion_lon": 0.0, "bike_id": "318425a354a1122a5ed36eddd3c1b6f2", "rental_uris": {"ios": "https://dc.lft.to/lastmile_qr_scan", "android": "https://dc.lft.to/lastmile_qr_scan"}, "type": "electric_scooter", "lat": 38.864304833333335, "is_disabled": 0, "lon": -76.98993916666667, "is_reserved": 0}, {"name": "5c78c05563e69115f04c650eccd19f72", "fusion_lat": 0.0, "fusion_lon": 0.0, "bike_id": "5c78c05563e69115f04c650eccd19f72", "rental_uris": {"ios": "https://dc.lft.to/lastmile_qr_scan", "android": "https://dc.lft.to/lastmile_qr_scan"}, "type": "electric_scooter", "lat": 38.887488, "is_disabled": 0, "lon": -77.02227516666666, "is_reserved": 0}, {"name": "482326f62e45c54d1425a89ea3a0689f", "fusion_lat": 0.0, "fusion_lon": 0.0, "bike_id": "482326f62e45c54d1425a89ea3a0689f", "rental_uris": {"ios": "https://dc.lft.to/lastmile_qr_scan", "android": "https://dc.lft.to/lastmile_qr_scan"}, "type": "electric_scooter", "lat": 38.88585116666667, "is_disabled": 0, "lon": -77.03170666666666, "is_reserved": 0}, {"name": "9a02d762a3261889684c88de3eb269b7", "fusion_lat": 0.0, "fusion_lon": 0.0, "bike_id": "9a02d762a3261889684c88de3eb269b7", "rental_uris": {"ios": "https://dc.lft.to/lastmile_qr_scan", "android": "https://dc.lft.to/lastmile_qr_scan"}, "type": "electric_scooter", "lat": 38.92375083333334, "is_disabled": 0, "lon": -77.03128616666666, "is_reserved": 0}, {"name": "a433485392b3dc3cba5dbb9a66382990", "fusion_lat": 0.0, "fusion_lon": 0.0, "bike_id": "a433485392b3dc3cba5dbb9a66382990", "rental_uris": {"ios": "https://dc.lft.to/lastmile_qr_scan", "android": "https://dc.lft.to/lastmile_qr_scan"}, "type": "electric_bike", "lat": 38.95752616666667, "is_disabled": 0, "lon": -76.98021883333334, "is_reserved": 0}, {"name": "b242e68e1036602e9aa327b69e4b1506", "fusion_lat": 0.0, "fusion_lon": 0.0, "bike_id": "b242e68e1036602e9aa327b69e4b1506", "rental_uris": {"ios": "https://dc.lft.to/lastmile_qr_scan", "android": "https://dc.lft.to/lastmile_qr_scan"}, "type": "electric_scooter", "lat": 38.89732083333333, "is_disabled": 0, "lon": -76.99256566666666, "is_reserved": 0}, {"name": "1bd570684d7f5d3714e721d120293ceb", "fusion_lat": 0.0, "fusion_lon": 0.0, "bike_id": "1bd570684d7f5d3714e721d120293ceb", "rental_uris": {"ios": "https://dc.lft.to/lastmile_qr_scan", "android": "https://dc.lft.to/lastmile_qr_scan"}, "type": "electric_scooter", "lat": 38.9004675, "is_disabled": 0, "lon": -77.04415583333333, "is_reserved": 0}, {"name": "6a4916eab02a70ec30d85d28d35f4835", "fusion_lat": 0.0, "fusion_lon": 0.0, "bike_id": "6a4916eab02a70ec30d85d28d35f4835", "rental_uris": {"ios": "https://dc.lft.to/lastmile_qr_scan", "android": "https://dc.lft.to/lastmile_qr_scan"}, "type": "electric_scooter", "lat": 38.899437, "is_disabled": 0, "lon": -77.04348183333333, "is_reserved": 0}, {"name": "637d0a8cccf3fcde9447b025b864beba", "fusion_lat": 0.0, "fusion_lon": 0.0, "bike_id": "637d0a8cccf3fcde9447b025b864beba", "rental_uris": {"ios": "https://dc.lft.to/lastmile_qr_scan", "android": "https://dc.lft.to/lastmile_qr_scan"}, "type": "electric_scooter", "lat": 38.91554216666667, "is_disabled": 0, "lon": -77.0325495, "is_reserved": 0}, {"name": "f4cee006723189a550319a8304aa3687", "fusion_lat": 0.0, "fusion_lon": 0.0, "bike_id": "f4cee006723189a550319a8304aa3687", "rental_uris": {"ios": "https://dc.lft.to/lastmile_qr_scan", "android": "https://dc.lft.to/lastmile_qr_scan"}, "type": "electric_scooter", "lat": 38.91565633333333, "is_disabled": 0, "lon": -77.03273683333333, "is_reserved": 0}, {"name": "08ecea0b1feafaeca2bed2bba46c7b67", "fusion_lat": 0.0, "fusion_lon": 0.0, "bike_id": "08ecea0b1feafaeca2bed2bba46c7b67", "rental_uris": {"ios": "https://dc.lft.to/lastmile_qr_scan", "android": "https://dc.lft.to/lastmile_qr_scan"}, "type": "electric_bike", "lat": 38.903811833333336, "is_disabled": 0, "lon": -77.00016783333334, "is_reserved": 0}, {"name": "51852ec1ec755337fead1250bdd7680e", "fusion_lat": 0.0, "fusion_lon": 0.0, "bike_id": "51852ec1ec755337fead1250bdd7680e", "rental_uris": {"ios": "https://dc.lft.to/lastmile_qr_scan", "android": "https://dc.lft.to/lastmile_qr_scan"}, "type": "electric_scooter", "lat": 38.8971725, "is_disabled": 0, "lon": -77.00804633333334, "is_reserved": 0}, {"name": "e841f8e3c4dd777c16fc0c15c3186987", "fusion_lat": 0.0, "fusion_lon": 0.0, "bike_id": "e841f8e3c4dd777c16fc0c15c3186987", "rental_uris": {"ios": "https://dc.lft.to/lastmile_qr_scan", "android": "https://dc.lft.to/lastmile_qr_scan"}, "type": "electric_scooter", "lat": 38.9147975, "is_disabled": 0, "lon": -77.03217983333333, "is_reserved": 0}, {"name": "abed2abe8ab695597192f096754d6ce1", "fusion_lat": 0.0, "fusion_lon": 0.0, "bike_id": "abed2abe8ab695597192f096754d6ce1", "rental_uris": {"ios": "https://dc.lft.to/lastmile_qr_scan", "android": "https://dc.lft.to/lastmile_qr_scan"}, "type": "electric_scooter", "lat": 38.896172, "is_disabled": 0, "lon": -76.9963645, "is_reserved": 0}, {"name": "725ab927de68ac0c632510c923fbc521", "fusion_lat": 0.0, "fusion_lon": 0.0, "bike_id": "725ab927de68ac0c632510c923fbc521", "rental_uris": {"ios": "https://dc.lft.to/lastmile_qr_scan", "android": "https://dc.lft.to/lastmile_qr_scan"}, "type": "electric_scooter", "lat": 38.93253083333333, "is_disabled": 0, "lon": -77.0327775, "is_reserved": 0}, {"name": "12a86bdc2e014647df3107740c536603", "fusion_lat": 0.0, "fusion_lon": 0.0, "bike_id": "12a86bdc2e014647df3107740c536603", "rental_uris": {"ios": "https://dc.lft.to/lastmile_qr_scan", "android": "https://dc.lft.to/lastmile_qr_scan"}, "type": "electric_scooter", "lat": 38.901768833333335, "is_disabled": 0, "lon": -76.92826, "is_reserved": 0}, {"name": "204b785f27db021331ce458de7d15ffd", "fusion_lat": 0.0, "fusion_lon": 0.0, "bike_id": "204b785f27db021331ce458de7d15ffd", "rental_uris": {"ios": "https://dc.lft.to/lastmile_qr_scan", "android": "https://dc.lft.to/lastmile_qr_scan"}, "type": "electric_scooter", "lat": 38.92079116666667, "is_disabled": 0, "lon": -77.02519316666667, "is_reserved": 0}, {"name": "2f316ca960be3480f82188f07d582675", "fusion_lat": 0.0, "fusion_lon": 0.0, "bike_id": "2f316ca960be3480f82188f07d582675", "rental_uris": {"ios": "https://dc.lft.to/lastmile_qr_scan", "android": "https://dc.lft.to/lastmile_qr_scan"}, "type": "electric_scooter", "lat": 38.910754833333336, "is_disabled": 0, "lon": -77.00152166666666, "is_reserved": 0}, {"name": "a2e8250d92fd1276fb92695e9ac5ac39", "fusion_lat": 0.0, "fusion_lon": 0.0, "bike_id": "a2e8250d92fd1276fb92695e9ac5ac39", "rental_uris": {"ios": "https://dc.lft.to/lastmile_qr_scan", "android": "https://dc.lft.to/lastmile_qr_scan"}, "type": "electric_scooter", "lat": 38.899419333333334, "is_disabled": 0, "lon": -77.04617766666667, "is_reserved": 0}, {"name": "566b431f7d02ccb52a484a62db2b2b4c", "fusion_lat": 0.0, "fusion_lon": 0.0, "bike_id": "566b431f7d02ccb52a484a62db2b2b4c", "rental_uris": {"ios": "https://dc.lft.to/lastmile_qr_scan", "android": "https://dc.lft.to/lastmile_qr_scan"}, "type": "electric_bike", "lat": 38.902938666666664, "is_disabled": 0, "lon": -76.92932166666667, "is_reserved": 0}, {"name": "ac18c2a9cc7c6b1f7819e4fbe1ad97b8", "fusion_lat": 0.0, "fusion_lon": 0.0, "bike_id": "ac18c2a9cc7c6b1f7819e4fbe1ad97b8", "rental_uris": {"ios": "https://dc.lft.to/lastmile_qr_scan", "android": "https://dc.lft.to/lastmile_qr_scan"}, "type": "electric_scooter", "lat": 38.9761065, "is_disabled": 0, "lon": -77.0266625, "is_reserved": 0}, {"name": "667827cfbd6cb1372a7bbaa0e9ef6a4b", "fusion_lat": 0.0, "fusion_lon": 0.0, "bike_id": "667827cfbd6cb1372a7bbaa0e9ef6a4b", "rental_uris": {"ios": "https://dc.lft.to/lastmile_qr_scan", "android": "https://dc.lft.to/lastmile_qr_scan"}, "type": "electric_scooter", "lat": 38.9354245, "is_disabled": 0, "lon": -77.03098683333333, "is_reserved": 0}, {"name": "63a9defe70629db3080dcf4bd3c57196", "fusion_lat": 0.0, "fusion_lon": 0.0, "bike_id": "63a9defe70629db3080dcf4bd3c57196", "rental_uris": {"ios": "https://dc.lft.to/lastmile_qr_scan", "android": "https://dc.lft.to/lastmile_qr_scan"}, "type": "electric_scooter", "lat": 38.892049, "is_disabled": 0, "lon": -76.98794883333333, "is_reserved": 0}, {"name": "2c6f055c9fddace9232228463abb82ba", "fusion_lat": 0.0, "fusion_lon": 0.0, "bike_id": "2c6f055c9fddace9232228463abb82ba", "rental_uris": {"ios": "https://dc.lft.to/lastmile_qr_scan", "android": "https://dc.lft.to/lastmile_qr_scan"}, "type": "electric_scooter", "lat": 38.9236635, "is_disabled": 0, "lon": -77.03122783333333, "is_reserved": 0}, {"name": "5e8e27e28bc9243de85d091c8fe5bb28", "fusion_lat": 0.0, "fusion_lon": 0.0, "bike_id": "5e8e27e28bc9243de85d091c8fe5bb28", "rental_uris": {"ios": "https://dc.lft.to/lastmile_qr_scan", "android": "https://dc.lft.to/lastmile_qr_scan"}, "type": "electric_scooter", "lat": 38.9388075, "is_disabled": 0, "lon": -77.02484633333333, "is_reserved": 0}, {"name": "a77c4be5c6f38b7a644f833574a74f84", "fusion_lat": 0.0, "fusion_lon": 0.0, "bike_id": "a77c4be5c6f38b7a644f833574a74f84", "rental_uris": {"ios": "https://dc.lft.to/lastmile_qr_scan", "android": "https://dc.lft.to/lastmile_qr_scan"}, "type": "electric_scooter", "lat": 38.899097166666664, "is_disabled": 0, "lon": -76.9339215, "is_reserved": 0}, {"name": "8c2a4fb1a257ecc2a15d2597308263d3", "fusion_lat": 0.0, "fusion_lon": 0.0, "bike_id": "8c2a4fb1a257ecc2a15d2597308263d3", "rental_uris": {"ios": "https://dc.lft.to/lastmile_qr_scan", "android": "https://dc.lft.to/lastmile_qr_scan"}, "type": "electric_bike", "lat": 38.9185925, "is_disabled": 0, "lon": -76.96174783333333, "is_reserved": 0}, {"name": "a1b50687ea93aca087efbdcf62641101", "fusion_lat": 0.0, "fusion_lon": 0.0, "bike_id": "a1b50687ea93aca087efbdcf62641101", "rental_uris": {"ios": "https://dc.lft.to/lastmile_qr_scan", "android": "https://dc.lft.to/lastmile_qr_scan"}, "type": "electric_scooter", "lat": 38.88659233333333, "is_disabled": 0, "lon": -77.03391283333333, "is_reserved": 0}, {"name": "6643bcebb3ee136c24f50aa7af75851b", "fusion_lat": 0.0, "fusion_lon": 0.0, "bike_id": "6643bcebb3ee136c24f50aa7af75851b", "rental_uris": {"ios": "https://dc.lft.to/lastmile_qr_scan", "android": "https://dc.lft.to/lastmile_qr_scan"}, "type": "electric_scooter", "lat": 38.9205295, "is_disabled": 0, "lon": -76.99875066666667, "is_reserved": 0}, {"name": "99f7892a4bd7111b62add1de41a8a9fc", "fusion_lat": 0.0, "fusion_lon": 0.0, "bike_id": "99f7892a4bd7111b62add1de41a8a9fc", "rental_uris": {"ios": "https://dc.lft.to/lastmile_qr_scan", "android": "https://dc.lft.to/lastmile_qr_scan"}, "type": "electric_scooter", "lat": 38.909724, "is_disabled": 0, "lon": -77.03144433333334, "is_reserved": 0}, {"name": "263ae0de9a1015067d30c66ab805dcba", "fusion_lat": 0.0, "fusion_lon": 0.0, "bike_id": "263ae0de9a1015067d30c66ab805dcba", "rental_uris": {"ios": "https://dc.lft.to/lastmile_qr_scan", "android": "https://dc.lft.to/lastmile_qr_scan"}, "type": "electric_scooter", "lat": 38.90379, "is_disabled": 0, "lon": -77.02896616666666, "is_reserved": 0}, {"name": "0c32a360b9ec43fc7b3c898f9d61d351", "fusion_lat": 0.0, "fusion_lon": 0.0, "bike_id": "0c32a360b9ec43fc7b3c898f9d61d351", "rental_uris": {"ios": "https://dc.lft.to/lastmile_qr_scan", "android": "https://dc.lft.to/lastmile_qr_scan"}, "type": "electric_scooter", "lat": 38.92419616666667, "is_disabled": 0, "lon": -77.05637216666666, "is_reserved": 0}, {"name": "76baf8ab375f04334944c90da66010ce", "fusion_lat": 0.0, "fusion_lon": 0.0, "bike_id": "76baf8ab375f04334944c90da66010ce", "rental_uris": {"ios": "https://dc.lft.to/lastmile_qr_scan", "android": "https://dc.lft.to/lastmile_qr_scan"}, "type": "electric_bike", "lat": 38.837000833333335, "is_disabled": 0, "lon": -77.00582933333334, "is_reserved": 0}, {"name": "4715b9101b4e902ea096769b386e8268", "fusion_lat": 0.0, "fusion_lon": 0.0, "bike_id": "4715b9101b4e902ea096769b386e8268", "rental_uris": {"ios": "https://dc.lft.to/lastmile_qr_scan", "android": "https://dc.lft.to/lastmile_qr_scan"}, "type": "electric_scooter", "lat": 38.91950633333333, "is_disabled": 0, "lon": -77.04173866666666, "is_reserved": 0}, {"name": "4d271e330752e6cc1e5b0efdb4886113", "fusion_lat": 0.0, "fusion_lon": 0.0, "bike_id": "4d271e330752e6cc1e5b0efdb4886113", "rental_uris": {"ios": "https://dc.lft.to/lastmile_qr_scan", "android": "https://dc.lft.to/lastmile_qr_scan"}, "type": "electric_scooter", "lat": 38.903489, "is_disabled": 0, "lon": -77.02604033333333, "is_reserved": 0}, {"name": "15c4b632249cf27350a62a67b0b3eae8", "fusion_lat": 0.0, "fusion_lon": 0.0, "bike_id": "15c4b632249cf27350a62a67b0b3eae8", "rental_uris": {"ios": "https://dc.lft.to/lastmile_qr_scan", "android": "https://dc.lft.to/lastmile_qr_scan"}, "type": "electric_scooter", "lat": 38.91953783333334, "is_disabled": 0, "lon": -77.0417485, "is_reserved": 0}, {"name": "5c4b228d5ba822da91d124205e39d5ff", "fusion_lat": 0.0, "fusion_lon": 0.0, "bike_id": "5c4b228d5ba822da91d124205e39d5ff", "rental_uris": {"ios": "https://dc.lft.to/lastmile_qr_scan", "android": "https://dc.lft.to/lastmile_qr_scan"}, "type": "electric_scooter", "lat": 38.89228333333333, "is_disabled": 0, "lon": -77.04376283333333, "is_reserved": 0}, {"name": "2e97c884fd158a106e75315d6b6a67f7", "fusion_lat": 0.0, "fusion_lon": 0.0, "bike_id": "2e97c884fd158a106e75315d6b6a67f7", "rental_uris": {"ios": "https://dc.lft.to/lastmile_qr_scan", "android": "https://dc.lft.to/lastmile_qr_scan"}, "type": "electric_scooter", "lat": 38.915862, "is_disabled": 0, "lon": -77.04681316666667, "is_reserved": 0}, {"name": "08ad5c96cef67e82c20758fcfb3a57d7", "fusion_lat": 0.0, "fusion_lon": 0.0, "bike_id": "08ad5c96cef67e82c20758fcfb3a57d7", "rental_uris": {"ios": "https://dc.lft.to/lastmile_qr_scan", "android": "https://dc.lft.to/lastmile_qr_scan"}, "type": "electric_scooter", "lat": 38.9334165, "is_disabled": 0, "lon": -77.02624916666667, "is_reserved": 0}, {"name": "309877bdf455f0d6eb4eec745ad3dcc5", "fusion_lat": 0.0, "fusion_lon": 0.0, "bike_id": "309877bdf455f0d6eb4eec745ad3dcc5", "rental_uris": {"ios": "https://dc.lft.to/lastmile_qr_scan", "android": "https://dc.lft.to/lastmile_qr_scan"}, "type": "electric_scooter", "lat": 38.93880566666667, "is_disabled": 0, "lon": -77.02485033333333, "is_reserved": 0}, {"name": "65146a468bdb5fcb5ae7b6ef0b81f6d5", "fusion_lat": 0.0, "fusion_lon": 0.0, "bike_id": "65146a468bdb5fcb5ae7b6ef0b81f6d5", "rental_uris": {"ios": "https://dc.lft.to/lastmile_qr_scan", "android": "https://dc.lft.to/lastmile_qr_scan"}, "type": "electric_scooter", "lat": 38.899802, "is_disabled": 0, "lon": -77.04187183333333, "is_reserved": 0}, {"name": "d8287ef686b97c6dbdb04b961abfb891", "fusion_lat": 0.0, "fusion_lon": 0.0, "bike_id": "d8287ef686b97c6dbdb04b961abfb891", "rental_uris": {"ios": "https://dc.lft.to/lastmile_qr_scan", "android": "https://dc.lft.to/lastmile_qr_scan"}, "type": "electric_scooter", "lat": 38.91439883333334, "is_disabled": 0, "lon": -77.00909133333333, "is_reserved": 0}, {"name": "fbda8eb9dffc95f9589fff2cc23a8da0", "fusion_lat": 0.0, "fusion_lon": 0.0, "bike_id": "fbda8eb9dffc95f9589fff2cc23a8da0", "rental_uris": {"ios": "https://dc.lft.to/lastmile_qr_scan", "android": "https://dc.lft.to/lastmile_qr_scan"}, "type": "electric_bike", "lat": 38.9243635, "is_disabled": 0, "lon": -76.90758766666667, "is_reserved": 0}, {"name": "cc067f7cc2de899e135254eb9ecd05c5", "fusion_lat": 0.0, "fusion_lon": 0.0, "bike_id": "cc067f7cc2de899e135254eb9ecd05c5", "rental_uris": {"ios": "https://dc.lft.to/lastmile_qr_scan", "android": "https://dc.lft.to/lastmile_qr_scan"}, "type": "electric_scooter", "lat": 38.90582583333333, "is_disabled": 0, "lon": -77.00884033333334, "is_reserved": 0}, {"name": "f074a7792244e3c30dde3392398f330f", "fusion_lat": 0.0, "fusion_lon": 0.0, "bike_id": "f074a7792244e3c30dde3392398f330f", "rental_uris": {"ios": "https://dc.lft.to/lastmile_qr_scan", "android": "https://dc.lft.to/lastmile_qr_scan"}, "type": "electric_scooter", "lat": 38.91808283333334, "is_disabled": 0, "lon": -77.026844, "is_reserved": 0}, {"name": "4e84550f7aaabe37b0a417559b3e86a9", "fusion_lat": 0.0, "fusion_lon": 0.0, "bike_id": "4e84550f7aaabe37b0a417559b3e86a9", "rental_uris": {"ios": "https://dc.lft.to/lastmile_qr_scan", "android": "https://dc.lft.to/lastmile_qr_scan"}, "type": "electric_scooter", "lat": 38.927881, "is_disabled": 0, "lon": -77.02734716666667, "is_reserved": 0}, {"name": "e3e4437a4fc5c2e39ab2f7d85c40197e", "fusion_lat": 0.0, "fusion_lon": 0.0, "bike_id": "e3e4437a4fc5c2e39ab2f7d85c40197e", "rental_uris": {"ios": "https://dc.lft.to/lastmile_qr_scan", "android": "https://dc.lft.to/lastmile_qr_scan"}, "type": "electric_scooter", "lat": 38.89985333333333, "is_disabled": 0, "lon": -77.03333683333334, "is_reserved": 0}, {"name": "1cbc274ff7075ed69ef18e94a67ff16b", "fusion_lat": 0.0, "fusion_lon": 0.0, "bike_id": "1cbc274ff7075ed69ef18e94a67ff16b", "rental_uris": {"ios": "https://dc.lft.to/lastmile_qr_scan", "android": "https://dc.lft.to/lastmile_qr_scan"}, "type": "electric_scooter", "lat": 38.8745825, "is_disabled": 0, "lon": -77.00499166666667, "is_reserved": 0}, {"name": "64892c4d94509ca89321d7546e3b024a", "fusion_lat": 0.0, "fusion_lon": 0.0, "bike_id": "64892c4d94509ca89321d7546e3b024a", "rental_uris": {"ios": "https://dc.lft.to/lastmile_qr_scan", "android": "https://dc.lft.to/lastmile_qr_scan"}, "type": "electric_scooter", "lat": 38.92791783333333, "is_disabled": 0, "lon": -77.02728716666667, "is_reserved": 0}, {"name": "06661f2babe1358f81b3cc77b641fa1a", "fusion_lat": 0.0, "fusion_lon": 0.0, "bike_id": "06661f2babe1358f81b3cc77b641fa1a", "rental_uris": {"ios": "https://dc.lft.to/lastmile_qr_scan", "android": "https://dc.lft.to/lastmile_qr_scan"}, "type": "electric_scooter", "lat": 38.91706883333333, "is_disabled": 0, "lon": -77.03372133333333, "is_reserved": 0}, {"name": "ab1f495b964bbe1b0afa650efca5c11b", "fusion_lat": 0.0, "fusion_lon": 0.0, "bike_id": "ab1f495b964bbe1b0afa650efca5c11b", "rental_uris": {"ios": "https://dc.lft.to/lastmile_qr_scan", "android": "https://dc.lft.to/lastmile_qr_scan"}, "type": "electric_scooter", "lat": 38.89853466666667, "is_disabled": 0, "lon": -76.990294, "is_reserved": 0}, {"name": "9ccc87c120e83a9d7778ce6c8ff9a9d1", "fusion_lat": 0.0, "fusion_lon": 0.0, "bike_id": "9ccc87c120e83a9d7778ce6c8ff9a9d1", "rental_uris": {"ios": "https://dc.lft.to/lastmile_qr_scan", "android": "https://dc.lft.to/lastmile_qr_scan"}, "type": "electric_scooter", "lat": 38.927528, "is_disabled": 0, "lon": -77.05377933333334, "is_reserved": 0}, {"name": "043680c201a480b570c1b50c9a097081", "fusion_lat": 0.0, "fusion_lon": 0.0, "bike_id": "043680c201a480b570c1b50c9a097081", "rental_uris": {"ios": "https://dc.lft.to/lastmile_qr_scan", "android": "https://dc.lft.to/lastmile_qr_scan"}, "type": "electric_scooter", "lat": 38.913853, "is_disabled": 0, "lon": -77.01701616666666, "is_reserved": 0}, {"name": "c8c33383192cc5edca92e94a67b3575b", "fusion_lat": 0.0, "fusion_lon": 0.0, "bike_id": "c8c33383192cc5edca92e94a67b3575b", "rental_uris": {"ios": "https://dc.lft.to/lastmile_qr_scan", "android": "https://dc.lft.to/lastmile_qr_scan"}, "type": "electric_bike", "lat": 38.889678833333335, "is_disabled": 0, "lon": -76.94866516666667, "is_reserved": 0}, {"name": "510b39ec76d81b9418c2c3dc088af5f6", "fusion_lat": 0.0, "fusion_lon": 0.0, "bike_id": "510b39ec76d81b9418c2c3dc088af5f6", "rental_uris": {"ios": "https://dc.lft.to/lastmile_qr_scan", "android": "https://dc.lft.to/lastmile_qr_scan"}, "type": "electric_scooter", "lat": 38.907312166666664, "is_disabled": 0, "lon": -77.02369416666667, "is_reserved": 0}, {"name": "ca44f4ac586d9fc12864b4a6879a4c33", "fusion_lat": 0.0, "fusion_lon": 0.0, "bike_id": "ca44f4ac586d9fc12864b4a6879a4c33", "rental_uris": {"ios": "https://dc.lft.to/lastmile_qr_scan", "android": "https://dc.lft.to/lastmile_qr_scan"}, "type": "electric_scooter", "lat": 38.90141233333333, "is_disabled": 0, "lon": -77.01311966666667, "is_reserved": 0}, {"name": "b58e6fa08def11e4ff1f364b8525ffa2", "fusion_lat": 0.0, "fusion_lon": 0.0, "bike_id": "b58e6fa08def11e4ff1f364b8525ffa2", "rental_uris": {"ios": "https://dc.lft.to/lastmile_qr_scan", "android": "https://dc.lft.to/lastmile_qr_scan"}, "type": "electric_scooter", "lat": 38.902165333333336, "is_disabled": 0, "lon": -77.02371516666666, "is_reserved": 0}, {"name": "30ef838781783a98ca29bbeeb909fe47", "fusion_lat": 0.0, "fusion_lon": 0.0, "bike_id": "30ef838781783a98ca29bbeeb909fe47", "rental_uris": {"ios": "https://dc.lft.to/lastmile_qr_scan", "android": "https://dc.lft.to/lastmile_qr_scan"}, "type": "electric_scooter", "lat": 38.84433633333333, "is_disabled": 0, "lon": -76.9841325, "is_reserved": 0}, {"name": "d6d5a5279800c8ec187d2e67b5d53c5a", "fusion_lat": 0.0, "fusion_lon": 0.0, "bike_id": "d6d5a5279800c8ec187d2e67b5d53c5a", "rental_uris": {"ios": "https://dc.lft.to/lastmile_qr_scan", "android": "https://dc.lft.to/lastmile_qr_scan"}, "type": "electric_scooter", "lat": 38.92895583333333, "is_disabled": 0, "lon": -77.01670383333334, "is_reserved": 0}, {"name": "7f9817396cfffa9cb2a202d763d49d78", "fusion_lat": 0.0, "fusion_lon": 0.0, "bike_id": "7f9817396cfffa9cb2a202d763d49d78", "rental_uris": {"ios": "https://dc.lft.to/lastmile_qr_scan", "android": "https://dc.lft.to/lastmile_qr_scan"}, "type": "electric_bike", "lat": 38.8882615, "is_disabled": 0, "lon": -77.1274015, "is_reserved": 0}, {"name": "bfda8eb9596029001bb976e037226ce5", "fusion_lat": 0.0, "fusion_lon": 0.0, "bike_id": "bfda8eb9596029001bb976e037226ce5", "rental_uris": {"ios": "https://dc.lft.to/lastmile_qr_scan", "android": "https://dc.lft.to/lastmile_qr_scan"}, "type": "electric_bike", "lat": 38.97579183333333, "is_disabled": 0, "lon": -76.96388383333333, "is_reserved": 0}, {"name": "d52c007359b7e182029da1f63b6c6bed", "fusion_lat": 0.0, "fusion_lon": 0.0, "bike_id": "d52c007359b7e182029da1f63b6c6bed", "rental_uris": {"ios": "https://dc.lft.to/lastmile_qr_scan", "android": "https://dc.lft.to/lastmile_qr_scan"}, "type": "electric_bike", "lat": 38.9922825, "is_disabled": 0, "lon": -76.87775666666667, "is_reserved": 0}, {"name": "d150c19413d29b10342516ae38c5e5ea", "fusion_lat": 0.0, "fusion_lon": 0.0, "bike_id": "d150c19413d29b10342516ae38c5e5ea", "rental_uris": {"ios": "https://dc.lft.to/lastmile_qr_scan", "android": "https://dc.lft.to/lastmile_qr_scan"}, "type": "electric_scooter", "lat": 38.9021165, "is_disabled": 0, "lon": -77.02371516666666, "is_reserved": 0}, {"name": "91f083b585da18cf32b795291ee0ef86", "fusion_lat": 0.0, "fusion_lon": 0.0, "bike_id": "91f083b585da18cf32b795291ee0ef86", "rental_uris": {"ios": "https://dc.lft.to/lastmile_qr_scan", "android": "https://dc.lft.to/lastmile_qr_scan"}, "type": "electric_scooter", "lat": 38.907727666666666, "is_disabled": 0, "lon": -77.03250216666666, "is_reserved": 0}, {"name": "bc817b52a4583ccd1009720c87135f89", "fusion_lat": 0.0, "fusion_lon": 0.0, "bike_id": "bc817b52a4583ccd1009720c87135f89", "rental_uris": {"ios": "https://dc.lft.to/lastmile_qr_scan", "android": "https://dc.lft.to/lastmile_qr_scan"}, "type": "electric_scooter", "lat": 38.8925245, "is_disabled": 0, "lon": -77.02394066666666, "is_reserved": 0}, {"name": "fd98051bf8407aa5f8cb6ed1921fb34a", "fusion_lat": 0.0, "fusion_lon": 0.0, "bike_id": "fd98051bf8407aa5f8cb6ed1921fb34a", "rental_uris": {"ios": "https://dc.lft.to/lastmile_qr_scan", "android": "https://dc.lft.to/lastmile_qr_scan"}, "type": "electric_scooter", "lat": 38.887477833333335, "is_disabled": 0, "lon": -77.02224666666666, "is_reserved": 0}, {"name": "bf09c35b9758c687330da8aa17515a0c", "fusion_lat": 0.0, "fusion_lon": 0.0, "bike_id": "bf09c35b9758c687330da8aa17515a0c", "rental_uris": {"ios": "https://dc.lft.to/lastmile_qr_scan", "android": "https://dc.lft.to/lastmile_qr_scan"}, "type": "electric_scooter", "lat": 38.91690933333334, "is_disabled": 0, "lon": -77.02987, "is_reserved": 0}, {"name": "1714c60e6c503657834d698d4794f1b2", "fusion_lat": 0.0, "fusion_lon": 0.0, "bike_id": "1714c60e6c503657834d698d4794f1b2", "rental_uris": {"ios": "https://dc.lft.to/lastmile_qr_scan", "android": "https://dc.lft.to/lastmile_qr_scan"}, "type": "electric_bike", "lat": 38.97542333333333, "is_disabled": 0, "lon": -76.99531266666666, "is_reserved": 0}, {"name": "0558eca031dff8b8c133552411aa2f35", "fusion_lat": 0.0, "fusion_lon": 0.0, "bike_id": "0558eca031dff8b8c133552411aa2f35", "rental_uris": {"ios": "https://dc.lft.to/lastmile_qr_scan", "android": "https://dc.lft.to/lastmile_qr_scan"}, "type": "electric_scooter", "lat": 38.90883783333334, "is_disabled": 0, "lon": -77.03391916666666, "is_reserved": 0}, {"name": "33fe6706d55655dadf575ca23f7d9717", "fusion_lat": 0.0, "fusion_lon": 0.0, "bike_id": "33fe6706d55655dadf575ca23f7d9717", "rental_uris": {"ios": "https://dc.lft.to/lastmile_qr_scan", "android": "https://dc.lft.to/lastmile_qr_scan"}, "type": "electric_scooter", "lat": 38.913206333333335, "is_disabled": 0, "lon": -77.062509, "is_reserved": 0}, {"name": "f38e52a374ed9823b8e82d8be98791b5", "fusion_lat": 0.0, "fusion_lon": 0.0, "bike_id": "f38e52a374ed9823b8e82d8be98791b5", "rental_uris": {"ios": "https://dc.lft.to/lastmile_qr_scan", "android": "https://dc.lft.to/lastmile_qr_scan"}, "type": "electric_scooter", "lat": 38.887404333333336, "is_disabled": 0, "lon": -77.01537033333334, "is_reserved": 0}, {"name": "d244d02302ac8c38f89eb6922cd7ca86", "fusion_lat": 0.0, "fusion_lon": 0.0, "bike_id": "d244d02302ac8c38f89eb6922cd7ca86", "rental_uris": {"ios": "https://dc.lft.to/lastmile_qr_scan", "android": "https://dc.lft.to/lastmile_qr_scan"}, "type": "electric_bike", "lat": 38.8811005, "is_disabled": 0, "lon": -77.01771483333333, "is_reserved": 0}, {"name": "593de4dc7ad1eb08b00c82e7d6a83eb9", "fusion_lat": 0.0, "fusion_lon": 0.0, "bike_id": "593de4dc7ad1eb08b00c82e7d6a83eb9", "rental_uris": {"ios": "https://dc.lft.to/lastmile_qr_scan", "android": "https://dc.lft.to/lastmile_qr_scan"}, "type": "electric_scooter", "lat": 38.901358333333334, "is_disabled": 0, "lon": -77.041467, "is_reserved": 0}, {"name": "83ab3466335e33ccb4c394bf685c5655", "fusion_lat": 0.0, "fusion_lon": 0.0, "bike_id": "83ab3466335e33ccb4c394bf685c5655", "rental_uris": {"ios": "https://dc.lft.to/lastmile_qr_scan", "android": "https://dc.lft.to/lastmile_qr_scan"}, "type": "electric_scooter", "lat": 38.885481, "is_disabled": 0, "lon": -77.0059555, "is_reserved": 0}, {"name": "03b2271459cdb34fa7e0aa887bfdfe23", "fusion_lat": 0.0, "fusion_lon": 0.0, "bike_id": "03b2271459cdb34fa7e0aa887bfdfe23", "rental_uris": {"ios": "https://dc.lft.to/lastmile_qr_scan", "android": "https://dc.lft.to/lastmile_qr_scan"}, "type": "electric_scooter", "lat": 38.895394833333334, "is_disabled": 0, "lon": -77.01625116666666, "is_reserved": 0}, {"name": "32a3b731816c478db81b00b32bec613d", "fusion_lat": 0.0, "fusion_lon": 0.0, "bike_id": "32a3b731816c478db81b00b32bec613d", "rental_uris": {"ios": "https://dc.lft.to/lastmile_qr_scan", "android": "https://dc.lft.to/lastmile_qr_scan"}, "type": "electric_scooter", "lat": 38.90459633333333, "is_disabled": 0, "lon": -77.028183, "is_reserved": 0}, {"name": "ccc05e1d04e2aa0d0111e18e1e7976a3", "fusion_lat": 0.0, "fusion_lon": 0.0, "bike_id": "ccc05e1d04e2aa0d0111e18e1e7976a3", "rental_uris": {"ios": "https://dc.lft.to/lastmile_qr_scan", "android": "https://dc.lft.to/lastmile_qr_scan"}, "type": "electric_scooter", "lat": 38.8996385, "is_disabled": 0, "lon": -77.02964366666667, "is_reserved": 0}, {"name": "a7e7d344c06c8cec353504309163fee1", "fusion_lat": 0.0, "fusion_lon": 0.0, "bike_id": "a7e7d344c06c8cec353504309163fee1", "rental_uris": {"ios": "https://dc.lft.to/lastmile_qr_scan", "android": "https://dc.lft.to/lastmile_qr_scan"}, "type": "electric_scooter", "lat": 38.8983285, "is_disabled": 0, "lon": -76.94635466666666, "is_reserved": 0}, {"name": "05e17ba5cea4da0c2c2bc7ace0fb8299", "fusion_lat": 0.0, "fusion_lon": 0.0, "bike_id": "05e17ba5cea4da0c2c2bc7ace0fb8299", "rental_uris": {"ios": "https://dc.lft.to/lastmile_qr_scan", "android": "https://dc.lft.to/lastmile_qr_scan"}, "type": "electric_bike", "lat": 38.91590583333333, "is_disabled": 0, "lon": -76.97151366666667, "is_reserved": 0}, {"name": "b60b6c7662f07a86c0ab42b4e4d9179d", "fusion_lat": 0.0, "fusion_lon": 0.0, "bike_id": "b60b6c7662f07a86c0ab42b4e4d9179d", "rental_uris": {"ios": "https://dc.lft.to/lastmile_qr_scan", "android": "https://dc.lft.to/lastmile_qr_scan"}, "type": "electric_scooter", "lat": 38.92470316666667, "is_disabled": 0, "lon": -77.03940683333333, "is_reserved": 0}, {"name": "9e97042bd7326f3834746218b6b71004", "fusion_lat": 0.0, "fusion_lon": 0.0, "bike_id": "9e97042bd7326f3834746218b6b71004", "rental_uris": {"ios": "https://dc.lft.to/lastmile_qr_scan", "android": "https://dc.lft.to/lastmile_qr_scan"}, "type": "electric_bike", "lat": 38.869053, "is_disabled": 0, "lon": -77.13181566666667, "is_reserved": 0}, {"name": "4ac604ff95605f89469bd78d1a8e0444", "fusion_lat": 0.0, "fusion_lon": 0.0, "bike_id": "4ac604ff95605f89469bd78d1a8e0444", "rental_uris": {"ios": "https://dc.lft.to/lastmile_qr_scan", "android": "https://dc.lft.to/lastmile_qr_scan"}, "type": "electric_scooter", "lat": 38.90565633333333, "is_disabled": 0, "lon": -77.02201516666666, "is_reserved": 0}, {"name": "0444672d34a39aa723d392a0a007eaa1", "fusion_lat": 0.0, "fusion_lon": 0.0, "bike_id": "0444672d34a39aa723d392a0a007eaa1", "rental_uris": {"ios": "https://dc.lft.to/lastmile_qr_scan", "android": "https://dc.lft.to/lastmile_qr_scan"}, "type": "electric_scooter", "lat": 38.90393733333333, "is_disabled": 0, "lon": -77.02799333333333, "is_reserved": 0}, {"name": "08d5078b262bfb72826896fa3363109c", "fusion_lat": 0.0, "fusion_lon": 0.0, "bike_id": "08d5078b262bfb72826896fa3363109c", "rental_uris": {"ios": "https://dc.lft.to/lastmile_qr_scan", "android": "https://dc.lft.to/lastmile_qr_scan"}, "type": "electric_scooter", "lat": 38.88492683333333, "is_disabled": 0, "lon": -77.02067066666666, "is_reserved": 0}, {"name": "de3ca1910840f779af8122e12c7a0d1e", "fusion_lat": 0.0, "fusion_lon": 0.0, "bike_id": "de3ca1910840f779af8122e12c7a0d1e", "rental_uris": {"ios": "https://dc.lft.to/lastmile_qr_scan", "android": "https://dc.lft.to/lastmile_qr_scan"}, "type": "electric_scooter", "lat": 38.93871733333334, "is_disabled": 0, "lon": -77.03223983333334, "is_reserved": 0}, {"name": "f027d2ee1ea7a2b00deeeace9dcd6bcf", "fusion_lat": 0.0, "fusion_lon": 0.0, "bike_id": "f027d2ee1ea7a2b00deeeace9dcd6bcf", "rental_uris": {"ios": "https://dc.lft.to/lastmile_qr_scan", "android": "https://dc.lft.to/lastmile_qr_scan"}, "type": "electric_scooter", "lat": 38.929893, "is_disabled": 0, "lon": -77.0347385, "is_reserved": 0}, {"name": "65fde3f03a83e5ee7e2c2552b86068f1", "fusion_lat": 0.0, "fusion_lon": 0.0, "bike_id": "65fde3f03a83e5ee7e2c2552b86068f1", "rental_uris": {"ios": "https://dc.lft.to/lastmile_qr_scan", "android": "https://dc.lft.to/lastmile_qr_scan"}, "type": "electric_scooter", "lat": 38.922449, "is_disabled": 0, "lon": -77.03890666666666, "is_reserved": 0}, {"name": "4b567b43febe4c5fea2bd9dba5b3ab88", "fusion_lat": 0.0, "fusion_lon": 0.0, "bike_id": "4b567b43febe4c5fea2bd9dba5b3ab88", "rental_uris": {"ios": "https://dc.lft.to/lastmile_qr_scan", "android": "https://dc.lft.to/lastmile_qr_scan"}, "type": "electric_scooter", "lat": 38.902396333333336, "is_disabled": 0, "lon": -77.002012, "is_reserved": 0}, {"name": "6619cb10ed767bbad8a677e8cf4c4ab7", "fusion_lat": 0.0, "fusion_lon": 0.0, "bike_id": "6619cb10ed767bbad8a677e8cf4c4ab7", "rental_uris": {"ios": "https://dc.lft.to/lastmile_qr_scan", "android": "https://dc.lft.to/lastmile_qr_scan"}, "type": "electric_scooter", "lat": 38.90960333333334, "is_disabled": 0, "lon": -77.0445775, "is_reserved": 0}, {"name": "a4d4f57e559a22f4a10b885dc3532230", "fusion_lat": 0.0, "fusion_lon": 0.0, "bike_id": "a4d4f57e559a22f4a10b885dc3532230", "rental_uris": {"ios": "https://dc.lft.to/lastmile_qr_scan", "android": "https://dc.lft.to/lastmile_qr_scan"}, "type": "electric_bike", "lat": 38.97400483333333, "is_disabled": 0, "lon": -77.02494666666666, "is_reserved": 0}, {"name": "88dad904990fcc206ac754a6ab4cb533", "fusion_lat": 0.0, "fusion_lon": 0.0, "bike_id": "88dad904990fcc206ac754a6ab4cb533", "rental_uris": {"ios": "https://dc.lft.to/lastmile_qr_scan", "android": "https://dc.lft.to/lastmile_qr_scan"}, "type": "electric_scooter", "lat": 38.878957666666665, "is_disabled": 0, "lon": -76.93525166666667, "is_reserved": 0}, {"name": "43c7ce3e911473ce5040b8d4340423e4", "fusion_lat": 0.0, "fusion_lon": 0.0, "bike_id": "43c7ce3e911473ce5040b8d4340423e4", "rental_uris": {"ios": "https://dc.lft.to/lastmile_qr_scan", "android": "https://dc.lft.to/lastmile_qr_scan"}, "type": "electric_scooter", "lat": 38.90573933333334, "is_disabled": 0, "lon": -77.04342866666667, "is_reserved": 0}, {"name": "c365deea219b74bbcd446483032f6ffc", "fusion_lat": 0.0, "fusion_lon": 0.0, "bike_id": "c365deea219b74bbcd446483032f6ffc", "rental_uris": {"ios": "https://dc.lft.to/lastmile_qr_scan", "android": "https://dc.lft.to/lastmile_qr_scan"}, "type": "electric_scooter", "lat": 38.91693566666667, "is_disabled": 0, "lon": -77.035706, "is_reserved": 0}, {"name": "4e82b8c5578d2beacf3ef98e3dc0182e", "fusion_lat": 0.0, "fusion_lon": 0.0, "bike_id": "4e82b8c5578d2beacf3ef98e3dc0182e", "rental_uris": {"ios": "https://dc.lft.to/lastmile_qr_scan", "android": "https://dc.lft.to/lastmile_qr_scan"}, "type": "electric_scooter", "lat": 38.9073695, "is_disabled": 0, "lon": -76.93546183333333, "is_reserved": 0}, {"name": "4ea0f87273410972b688ac03d523f32d", "fusion_lat": 0.0, "fusion_lon": 0.0, "bike_id": "4ea0f87273410972b688ac03d523f32d", "rental_uris": {"ios": "https://dc.lft.to/lastmile_qr_scan", "android": "https://dc.lft.to/lastmile_qr_scan"}, "type": "electric_scooter", "lat": 38.91119333333333, "is_disabled": 0, "lon": -77.04331333333333, "is_reserved": 0}, {"name": "cc60ba5f88f31ab4dc84473e00c43943", "fusion_lat": 0.0, "fusion_lon": 0.0, "bike_id": "cc60ba5f88f31ab4dc84473e00c43943", "rental_uris": {"ios": "https://dc.lft.to/lastmile_qr_scan", "android": "https://dc.lft.to/lastmile_qr_scan"}, "type": "electric_scooter", "lat": 38.90850916666667, "is_disabled": 0, "lon": -77.02388533333334, "is_reserved": 0}, {"name": "db1e1b947ea8011ec7a48ed4bb6350d6", "fusion_lat": 0.0, "fusion_lon": 0.0, "bike_id": "db1e1b947ea8011ec7a48ed4bb6350d6", "rental_uris": {"ios": "https://dc.lft.to/lastmile_qr_scan", "android": "https://dc.lft.to/lastmile_qr_scan"}, "type": "electric_scooter", "lat": 38.91022616666667, "is_disabled": 0, "lon": -77.0319125, "is_reserved": 0}, {"name": "e9f264100c15e9a6f00d63c20ec462dc", "fusion_lat": 0.0, "fusion_lon": 0.0, "bike_id": "e9f264100c15e9a6f00d63c20ec462dc", "rental_uris": {"ios": "https://dc.lft.to/lastmile_qr_scan", "android": "https://dc.lft.to/lastmile_qr_scan"}, "type": "electric_scooter", "lat": 38.876295, "is_disabled": 0, "lon": -76.96524966666667, "is_reserved": 0}, {"name": "6629fefe5ccf9287752cffb176e82057", "fusion_lat": 0.0, "fusion_lon": 0.0, "bike_id": "6629fefe5ccf9287752cffb176e82057", "rental_uris": {"ios": "https://dc.lft.to/lastmile_qr_scan", "android": "https://dc.lft.to/lastmile_qr_scan"}, "type": "electric_scooter", "lat": 38.90790466666667, "is_disabled": 0, "lon": -77.04079366666667, "is_reserved": 0}, {"name": "a468f9081f9429c47e3a1c963cdb8556", "fusion_lat": 0.0, "fusion_lon": 0.0, "bike_id": "a468f9081f9429c47e3a1c963cdb8556", "rental_uris": {"ios": "https://dc.lft.to/lastmile_qr_scan", "android": "https://dc.lft.to/lastmile_qr_scan"}, "type": "electric_bike", "lat": 38.95088533333333, "is_disabled": 0, "lon": -76.96559916666666, "is_reserved": 0}, {"name": "9d654fe8e4d5bfbc0dad3341f3dc0dea", "fusion_lat": 0.0, "fusion_lon": 0.0, "bike_id": "9d654fe8e4d5bfbc0dad3341f3dc0dea", "rental_uris": {"ios": "https://dc.lft.to/lastmile_qr_scan", "android": "https://dc.lft.to/lastmile_qr_scan"}, "type": "electric_scooter", "lat": 38.917126333333336, "is_disabled": 0, "lon": -77.034753, "is_reserved": 0}, {"name": "ba205e4fbeee2868b81a39e8a3a5d5a5", "fusion_lat": 0.0, "fusion_lon": 0.0, "bike_id": "ba205e4fbeee2868b81a39e8a3a5d5a5", "rental_uris": {"ios": "https://dc.lft.to/lastmile_qr_scan", "android": "https://dc.lft.to/lastmile_qr_scan"}, "type": "electric_scooter", "lat": 38.916697, "is_disabled": 0, "lon": -77.038446, "is_reserved": 0}, {"name": "788def9ea593fed7255cdb068bb1b7b0", "fusion_lat": 0.0, "fusion_lon": 0.0, "bike_id": "788def9ea593fed7255cdb068bb1b7b0", "rental_uris": {"ios": "https://dc.lft.to/lastmile_qr_scan", "android": "https://dc.lft.to/lastmile_qr_scan"}, "type": "electric_scooter", "lat": 38.906380166666665, "is_disabled": 0, "lon": -77.03144933333333, "is_reserved": 0}, {"name": "6305fb75f32e7379e4389c52ec15cd7f", "fusion_lat": 0.0, "fusion_lon": 0.0, "bike_id": "6305fb75f32e7379e4389c52ec15cd7f", "rental_uris": {"ios": "https://dc.lft.to/lastmile_qr_scan", "android": "https://dc.lft.to/lastmile_qr_scan"}, "type": "electric_bike", "lat": 38.94891783333333, "is_disabled": 0, "lon": -76.96377133333333, "is_reserved": 0}, {"name": "3141456432f9756b17e737b4ab98046b", "fusion_lat": 0.0, "fusion_lon": 0.0, "bike_id": "3141456432f9756b17e737b4ab98046b", "rental_uris": {"ios": "https://dc.lft.to/lastmile_qr_scan", "android": "https://dc.lft.to/lastmile_qr_scan"}, "type": "electric_scooter", "lat": 38.92668583333333, "is_disabled": 0, "lon": -77.0150045, "is_reserved": 0}, {"name": "3c29b5a5a7592e6eef35b0ae63908ed5", "fusion_lat": 0.0, "fusion_lon": 0.0, "bike_id": "3c29b5a5a7592e6eef35b0ae63908ed5", "rental_uris": {"ios": "https://dc.lft.to/lastmile_qr_scan", "android": "https://dc.lft.to/lastmile_qr_scan"}, "type": "electric_scooter", "lat": 38.8650545, "is_disabled": 0, "lon": -76.9900345, "is_reserved": 0}, {"name": "cb1b35725f586fd76dc32807e7076a48", "fusion_lat": 0.0, "fusion_lon": 0.0, "bike_id": "cb1b35725f586fd76dc32807e7076a48", "rental_uris": {"ios": "https://dc.lft.to/lastmile_qr_scan", "android": "https://dc.lft.to/lastmile_qr_scan"}, "type": "electric_bike", "lat": 39.05270183333333, "is_disabled": 0, "lon": -77.043887, "is_reserved": 0}, {"name": "c17036d8d30a633bb7d041480681e5e5", "fusion_lat": 0.0, "fusion_lon": 0.0, "bike_id": "c17036d8d30a633bb7d041480681e5e5", "rental_uris": {"ios": "https://dc.lft.to/lastmile_qr_scan", "android": "https://dc.lft.to/lastmile_qr_scan"}, "type": "electric_scooter", "lat": 38.876619166666664, "is_disabled": 0, "lon": -77.009479, "is_reserved": 0}, {"name": "d1819b44c544e2f0f5288f7d4e54cad7", "fusion_lat": 0.0, "fusion_lon": 0.0, "bike_id": "d1819b44c544e2f0f5288f7d4e54cad7", "rental_uris": {"ios": "https://dc.lft.to/lastmile_qr_scan", "android": "https://dc.lft.to/lastmile_qr_scan"}, "type": "electric_scooter", "lat": 38.90296566666667, "is_disabled": 0, "lon": -77.021153, "is_reserved": 0}, {"name": "1bba2cac9c5aaac2c583d3f723a27d73", "fusion_lat": 0.0, "fusion_lon": 0.0, "bike_id": "1bba2cac9c5aaac2c583d3f723a27d73", "rental_uris": {"ios": "https://dc.lft.to/lastmile_qr_scan", "android": "https://dc.lft.to/lastmile_qr_scan"}, "type": "electric_scooter", "lat": 38.90970466666667, "is_disabled": 0, "lon": -77.039562, "is_reserved": 0}, {"name": "75dca97ac73d313a1e1bf45f22bea167", "fusion_lat": 0.0, "fusion_lon": 0.0, "bike_id": "75dca97ac73d313a1e1bf45f22bea167", "rental_uris": {"ios": "https://dc.lft.to/lastmile_qr_scan", "android": "https://dc.lft.to/lastmile_qr_scan"}, "type": "electric_scooter", "lat": 38.9272265, "is_disabled": 0, "lon": -77.022769, "is_reserved": 0}, {"name": "7eeae16cae7e9e5e221b0e58f42c31ff", "fusion_lat": 0.0, "fusion_lon": 0.0, "bike_id": "7eeae16cae7e9e5e221b0e58f42c31ff", "rental_uris": {"ios": "https://dc.lft.to/lastmile_qr_scan", "android": "https://dc.lft.to/lastmile_qr_scan"}, "type": "electric_scooter", "lat": 38.931924333333335, "is_disabled": 0, "lon": -77.02836183333334, "is_reserved": 0}, {"name": "b3f1931b323e8953aa9a36325375743a", "fusion_lat": 0.0, "fusion_lon": 0.0, "bike_id": "b3f1931b323e8953aa9a36325375743a", "rental_uris": {"ios": "https://dc.lft.to/lastmile_qr_scan", "android": "https://dc.lft.to/lastmile_qr_scan"}, "type": "electric_scooter", "lat": 38.90594933333333, "is_disabled": 0, "lon": -77.07012183333333, "is_reserved": 0}, {"name": "767636f8e4856cb141b5d3b68b51511c", "fusion_lat": 0.0, "fusion_lon": 0.0, "bike_id": "767636f8e4856cb141b5d3b68b51511c", "rental_uris": {"ios": "https://dc.lft.to/lastmile_qr_scan", "android": "https://dc.lft.to/lastmile_qr_scan"}, "type": "electric_scooter", "lat": 38.909531, "is_disabled": 0, "lon": -76.99215483333333, "is_reserved": 0}, {"name": "1cb6ac6c59877edd4b55d509c6385bd9", "fusion_lat": 0.0, "fusion_lon": 0.0, "bike_id": "1cb6ac6c59877edd4b55d509c6385bd9", "rental_uris": {"ios": "https://dc.lft.to/lastmile_qr_scan", "android": "https://dc.lft.to/lastmile_qr_scan"}, "type": "electric_scooter", "lat": 38.89782433333333, "is_disabled": 0, "lon": -76.97100816666666, "is_reserved": 0}, {"name": "a27064b508643aad478303e504da34c4", "fusion_lat": 0.0, "fusion_lon": 0.0, "bike_id": "a27064b508643aad478303e504da34c4", "rental_uris": {"ios": "https://dc.lft.to/lastmile_qr_scan", "android": "https://dc.lft.to/lastmile_qr_scan"}, "type": "electric_scooter", "lat": 38.895333, "is_disabled": 0, "lon": -77.00347383333333, "is_reserved": 0}, {"name": "39fe3df00a4b85412a3f49f7e056c389", "fusion_lat": 0.0, "fusion_lon": 0.0, "bike_id": "39fe3df00a4b85412a3f49f7e056c389", "rental_uris": {"ios": "https://dc.lft.to/lastmile_qr_scan", "android": "https://dc.lft.to/lastmile_qr_scan"}, "type": "electric_scooter", "lat": 38.899937333333334, "is_disabled": 0, "lon": -77.02715866666666, "is_reserved": 0}, {"name": "02aed16a7c34f43dd99654ee29a7d8f0", "fusion_lat": 0.0, "fusion_lon": 0.0, "bike_id": "02aed16a7c34f43dd99654ee29a7d8f0", "rental_uris": {"ios": "https://dc.lft.to/lastmile_qr_scan", "android": "https://dc.lft.to/lastmile_qr_scan"}, "type": "electric_scooter", "lat": 38.900906, "is_disabled": 0, "lon": -77.03946966666666, "is_reserved": 0}, {"name": "e6aefd284bb0a737ef5dd8ce7c6b1341", "fusion_lat": 0.0, "fusion_lon": 0.0, "bike_id": "e6aefd284bb0a737ef5dd8ce7c6b1341", "rental_uris": {"ios": "https://dc.lft.to/lastmile_qr_scan", "android": "https://dc.lft.to/lastmile_qr_scan"}, "type": "electric_scooter", "lat": 38.91753533333333, "is_disabled": 0, "lon": -77.04773233333333, "is_reserved": 0}, {"name": "ed903aaa2bac7076c66108683447120a", "fusion_lat": 0.0, "fusion_lon": 0.0, "bike_id": "ed903aaa2bac7076c66108683447120a", "rental_uris": {"ios": "https://dc.lft.to/lastmile_qr_scan", "android": "https://dc.lft.to/lastmile_qr_scan"}, "type": "electric_scooter", "lat": 38.91079716666667, "is_disabled": 0, "lon": -77.00148716666666, "is_reserved": 0}, {"name": "e7f287c97103ca807ccd8d8ceb858718", "fusion_lat": 0.0, "fusion_lon": 0.0, "bike_id": "e7f287c97103ca807ccd8d8ceb858718", "rental_uris": {"ios": "https://dc.lft.to/lastmile_qr_scan", "android": "https://dc.lft.to/lastmile_qr_scan"}, "type": "electric_scooter", "lat": 38.903703666666665, "is_disabled": 0, "lon": -77.03443566666667, "is_reserved": 0}, {"name": "4679993bbc463693557ec967b854b2a6", "fusion_lat": 0.0, "fusion_lon": 0.0, "bike_id": "4679993bbc463693557ec967b854b2a6", "rental_uris": {"ios": "https://dc.lft.to/lastmile_qr_scan", "android": "https://dc.lft.to/lastmile_qr_scan"}, "type": "electric_scooter", "lat": 38.9163755, "is_disabled": 0, "lon": -77.0505695, "is_reserved": 0}, {"name": "52e183e11917c83f5ff8ea0694f9d82e", "fusion_lat": 0.0, "fusion_lon": 0.0, "bike_id": "52e183e11917c83f5ff8ea0694f9d82e", "rental_uris": {"ios": "https://dc.lft.to/lastmile_qr_scan", "android": "https://dc.lft.to/lastmile_qr_scan"}, "type": "electric_scooter", "lat": 38.92196633333333, "is_disabled": 0, "lon": -76.99698166666667, "is_reserved": 0}, {"name": "0ab0519a5c3036b173611a6012477edc", "fusion_lat": 0.0, "fusion_lon": 0.0, "bike_id": "0ab0519a5c3036b173611a6012477edc", "rental_uris": {"ios": "https://dc.lft.to/lastmile_qr_scan", "android": "https://dc.lft.to/lastmile_qr_scan"}, "type": "electric_scooter", "lat": 38.8758675, "is_disabled": 0, "lon": -77.005912, "is_reserved": 0}, {"name": "2e128724514387e63d59cb807e7c4c53", "fusion_lat": 0.0, "fusion_lon": 0.0, "bike_id": "2e128724514387e63d59cb807e7c4c53", "rental_uris": {"ios": "https://dc.lft.to/lastmile_qr_scan", "android": "https://dc.lft.to/lastmile_qr_scan"}, "type": "electric_scooter", "lat": 38.9180765, "is_disabled": 0, "lon": -77.026635, "is_reserved": 0}, {"name": "cc58bd58f81edddae61caa4c70f9339a", "fusion_lat": 0.0, "fusion_lon": 0.0, "bike_id": "cc58bd58f81edddae61caa4c70f9339a", "rental_uris": {"ios": "https://dc.lft.to/lastmile_qr_scan", "android": "https://dc.lft.to/lastmile_qr_scan"}, "type": "electric_scooter", "lat": 38.931306666666664, "is_disabled": 0, "lon": -77.02364016666667, "is_reserved": 0}, {"name": "398ed95596e375b431f40590506f4f2b", "fusion_lat": 0.0, "fusion_lon": 0.0, "bike_id": "398ed95596e375b431f40590506f4f2b", "rental_uris": {"ios": "https://dc.lft.to/lastmile_qr_scan", "android": "https://dc.lft.to/lastmile_qr_scan"}, "type": "electric_scooter", "lat": 38.919882, "is_disabled": 0, "lon": -77.03306566666667, "is_reserved": 0}, {"name": "10c743a71817930fec7b9e43e76058eb", "fusion_lat": 0.0, "fusion_lon": 0.0, "bike_id": "10c743a71817930fec7b9e43e76058eb", "rental_uris": {"ios": "https://dc.lft.to/lastmile_qr_scan", "android": "https://dc.lft.to/lastmile_qr_scan"}, "type": "electric_bike", "lat": 38.999975, "is_disabled": 0, "lon": -76.91808083333333, "is_reserved": 0}, {"name": "7bda289149ea9703663f6375fec5570d", "fusion_lat": 0.0, "fusion_lon": 0.0, "bike_id": "7bda289149ea9703663f6375fec5570d", "rental_uris": {"ios": "https://dc.lft.to/lastmile_qr_scan", "android": "https://dc.lft.to/lastmile_qr_scan"}, "type": "electric_scooter", "lat": 38.9221595, "is_disabled": 0, "lon": -77.0366235, "is_reserved": 0}, {"name": "d8bbf325737d967a931d4e906c62e080", "fusion_lat": 0.0, "fusion_lon": 0.0, "bike_id": "d8bbf325737d967a931d4e906c62e080", "rental_uris": {"ios": "https://dc.lft.to/lastmile_qr_scan", "android": "https://dc.lft.to/lastmile_qr_scan"}, "type": "electric_scooter", "lat": 38.915717666666666, "is_disabled": 0, "lon": -77.002132, "is_reserved": 0}, {"name": "21bb4fd1bdef6e62e8195b265595045b", "fusion_lat": 0.0, "fusion_lon": 0.0, "bike_id": "21bb4fd1bdef6e62e8195b265595045b", "rental_uris": {"ios": "https://dc.lft.to/lastmile_qr_scan", "android": "https://dc.lft.to/lastmile_qr_scan"}, "type": "electric_scooter", "lat": 38.911186, "is_disabled": 0, "lon": -77.02236733333334, "is_reserved": 0}, {"name": "022cf2ac3bfa222a4b7644744dae1e75", "fusion_lat": 0.0, "fusion_lon": 0.0, "bike_id": "022cf2ac3bfa222a4b7644744dae1e75", "rental_uris": {"ios": "https://dc.lft.to/lastmile_qr_scan", "android": "https://dc.lft.to/lastmile_qr_scan"}, "type": "electric_scooter", "lat": 38.88748, "is_disabled": 0, "lon": -77.02125183333334, "is_reserved": 0}, {"name": "0dff95e0a3ee6c568c545ff66fde13a9", "fusion_lat": 0.0, "fusion_lon": 0.0, "bike_id": "0dff95e0a3ee6c568c545ff66fde13a9", "rental_uris": {"ios": "https://dc.lft.to/lastmile_qr_scan", "android": "https://dc.lft.to/lastmile_qr_scan"}, "type": "electric_scooter", "lat": 38.90406483333334, "is_disabled": 0, "lon": -76.990702, "is_reserved": 0}, {"name": "80c65604b92dd6f3b8e01f6cdcc1be99", "fusion_lat": 0.0, "fusion_lon": 0.0, "bike_id": "80c65604b92dd6f3b8e01f6cdcc1be99", "rental_uris": {"ios": "https://dc.lft.to/lastmile_qr_scan", "android": "https://dc.lft.to/lastmile_qr_scan"}, "type": "electric_bike", "lat": 38.905175166666666, "is_disabled": 0, "lon": -77.05678566666667, "is_reserved": 0}, {"name": "a430a029fcaa17b9758718bead0e7c20", "fusion_lat": 0.0, "fusion_lon": 0.0, "bike_id": "a430a029fcaa17b9758718bead0e7c20", "rental_uris": {"ios": "https://dc.lft.to/lastmile_qr_scan", "android": "https://dc.lft.to/lastmile_qr_scan"}, "type": "electric_scooter", "lat": 38.86359566666667, "is_disabled": 0, "lon": -76.99051716666666, "is_reserved": 0}, {"name": "df65bfa6c9a35f5302ab1382d276bed3", "fusion_lat": 0.0, "fusion_lon": 0.0, "bike_id": "df65bfa6c9a35f5302ab1382d276bed3", "rental_uris": {"ios": "https://dc.lft.to/lastmile_qr_scan", "android": "https://dc.lft.to/lastmile_qr_scan"}, "type": "electric_scooter", "lat": 38.904414333333335, "is_disabled": 0, "lon": -77.04356433333334, "is_reserved": 0}, {"name": "3215eeacc8df17336d2efe1c828e7d43", "fusion_lat": 0.0, "fusion_lon": 0.0, "bike_id": "3215eeacc8df17336d2efe1c828e7d43", "rental_uris": {"ios": "https://dc.lft.to/lastmile_qr_scan", "android": "https://dc.lft.to/lastmile_qr_scan"}, "type": "electric_scooter", "lat": 38.91577066666667, "is_disabled": 0, "lon": -77.03209133333333, "is_reserved": 0}, {"name": "c56b7b37db3b8d15bde60821c8fea673", "fusion_lat": 0.0, "fusion_lon": 0.0, "bike_id": "c56b7b37db3b8d15bde60821c8fea673", "rental_uris": {"ios": "https://dc.lft.to/lastmile_qr_scan", "android": "https://dc.lft.to/lastmile_qr_scan"}, "type": "electric_scooter", "lat": 38.90362066666667, "is_disabled": 0, "lon": -77.02090366666667, "is_reserved": 0}, {"name": "295a50f842704281914afcdef78613f9", "fusion_lat": 0.0, "fusion_lon": 0.0, "bike_id": "295a50f842704281914afcdef78613f9", "rental_uris": {"ios": "https://dc.lft.to/lastmile_qr_scan", "android": "https://dc.lft.to/lastmile_qr_scan"}, "type": "electric_bike", "lat": 38.8549335, "is_disabled": 0, "lon": -77.11524, "is_reserved": 0}, {"name": "2f2e7929b48c8abb1c1b564b987e1c3e", "fusion_lat": 0.0, "fusion_lon": 0.0, "bike_id": "2f2e7929b48c8abb1c1b564b987e1c3e", "rental_uris": {"ios": "https://dc.lft.to/lastmile_qr_scan", "android": "https://dc.lft.to/lastmile_qr_scan"}, "type": "electric_scooter", "lat": 38.974324833333334, "is_disabled": 0, "lon": -77.01517866666667, "is_reserved": 0}, {"name": "0955ca948ba79a1169702ff66a665ce2", "fusion_lat": 0.0, "fusion_lon": 0.0, "bike_id": "0955ca948ba79a1169702ff66a665ce2", "rental_uris": {"ios": "https://dc.lft.to/lastmile_qr_scan", "android": "https://dc.lft.to/lastmile_qr_scan"}, "type": "electric_scooter", "lat": 38.890139, "is_disabled": 0, "lon": -76.93743633333334, "is_reserved": 0}, {"name": "6244b22d604fc9dd410c7df45207bd9d", "fusion_lat": 0.0, "fusion_lon": 0.0, "bike_id": "6244b22d604fc9dd410c7df45207bd9d", "rental_uris": {"ios": "https://dc.lft.to/lastmile_qr_scan", "android": "https://dc.lft.to/lastmile_qr_scan"}, "type": "electric_scooter", "lat": 38.93109283333333, "is_disabled": 0, "lon": -77.01248783333334, "is_reserved": 0}, {"name": "c90bb03cd3420659393fda7e9886f5a0", "fusion_lat": 0.0, "fusion_lon": 0.0, "bike_id": "c90bb03cd3420659393fda7e9886f5a0", "rental_uris": {"ios": "https://dc.lft.to/lastmile_qr_scan", "android": "https://dc.lft.to/lastmile_qr_scan"}, "type": "electric_scooter", "lat": 38.90715433333333, "is_disabled": 0, "lon": -77.03445316666667, "is_reserved": 0}, {"name": "6e31ce608e69d29bb1ba12117541f6ce", "fusion_lat": 0.0, "fusion_lon": 0.0, "bike_id": "6e31ce608e69d29bb1ba12117541f6ce", "rental_uris": {"ios": "https://dc.lft.to/lastmile_qr_scan", "android": "https://dc.lft.to/lastmile_qr_scan"}, "type": "electric_scooter", "lat": 38.92157816666667, "is_disabled": 0, "lon": -77.03856166666667, "is_reserved": 0}, {"name": "4e92d65d9503f4690553a635c035d333", "fusion_lat": 0.0, "fusion_lon": 0.0, "bike_id": "4e92d65d9503f4690553a635c035d333", "rental_uris": {"ios": "https://dc.lft.to/lastmile_qr_scan", "android": "https://dc.lft.to/lastmile_qr_scan"}, "type": "electric_scooter", "lat": 38.930643, "is_disabled": 0, "lon": -77.0319375, "is_reserved": 0}, {"name": "152a6746c0f7f29001f38c3eddb79b36", "fusion_lat": 0.0, "fusion_lon": 0.0, "bike_id": "152a6746c0f7f29001f38c3eddb79b36", "rental_uris": {"ios": "https://dc.lft.to/lastmile_qr_scan", "android": "https://dc.lft.to/lastmile_qr_scan"}, "type": "electric_scooter", "lat": 38.926516, "is_disabled": 0, "lon": -77.03720383333334, "is_reserved": 0}, {"name": "43de46b47bbc7f6c7be84b3d8060fb2f", "fusion_lat": 0.0, "fusion_lon": 0.0, "bike_id": "43de46b47bbc7f6c7be84b3d8060fb2f", "rental_uris": {"ios": "https://dc.lft.to/lastmile_qr_scan", "android": "https://dc.lft.to/lastmile_qr_scan"}, "type": "electric_scooter", "lat": 38.89005366666667, "is_disabled": 0, "lon": -76.937351, "is_reserved": 0}, {"name": "33f6ba4a0d79329b3a7315eaf22cfc9d", "fusion_lat": 0.0, "fusion_lon": 0.0, "bike_id": "33f6ba4a0d79329b3a7315eaf22cfc9d", "rental_uris": {"ios": "https://dc.lft.to/lastmile_qr_scan", "android": "https://dc.lft.to/lastmile_qr_scan"}, "type": "electric_scooter", "lat": 38.8998265, "is_disabled": 0, "lon": -77.041911, "is_reserved": 0}, {"name": "affdc9048d28ed244974236b76b83fea", "fusion_lat": 0.0, "fusion_lon": 0.0, "bike_id": "affdc9048d28ed244974236b76b83fea", "rental_uris": {"ios": "https://dc.lft.to/lastmile_qr_scan", "android": "https://dc.lft.to/lastmile_qr_scan"}, "type": "electric_scooter", "lat": 38.9302795, "is_disabled": 0, "lon": -77.0380105, "is_reserved": 0}, {"name": "5d4e97cb7ca9780cabb2bffbc9d40c1a", "fusion_lat": 0.0, "fusion_lon": 0.0, "bike_id": "5d4e97cb7ca9780cabb2bffbc9d40c1a", "rental_uris": {"ios": "https://dc.lft.to/lastmile_qr_scan", "android": "https://dc.lft.to/lastmile_qr_scan"}, "type": "electric_scooter", "lat": 38.90716, "is_disabled": 0, "lon": -77.04399683333334, "is_reserved": 0}, {"name": "480dfe6c78dfe7878869d6e37891e26f", "fusion_lat": 0.0, "fusion_lon": 0.0, "bike_id": "480dfe6c78dfe7878869d6e37891e26f", "rental_uris": {"ios": "https://dc.lft.to/lastmile_qr_scan", "android": "https://dc.lft.to/lastmile_qr_scan"}, "type": "electric_scooter", "lat": 38.92822433333333, "is_disabled": 0, "lon": -77.01415616666667, "is_reserved": 0}, {"name": "31b5386aafa80051966654c3d7aa5b58", "fusion_lat": 0.0, "fusion_lon": 0.0, "bike_id": "31b5386aafa80051966654c3d7aa5b58", "rental_uris": {"ios": "https://dc.lft.to/lastmile_qr_scan", "android": "https://dc.lft.to/lastmile_qr_scan"}, "type": "electric_scooter", "lat": 38.861582, "is_disabled": 0, "lon": -76.98578366666666, "is_reserved": 0}, {"name": "8ea1927663aa21641ee581b6499a0067", "fusion_lat": 0.0, "fusion_lon": 0.0, "bike_id": "8ea1927663aa21641ee581b6499a0067", "rental_uris": {"ios": "https://dc.lft.to/lastmile_qr_scan", "android": "https://dc.lft.to/lastmile_qr_scan"}, "type": "electric_scooter", "lat": 38.876945166666665, "is_disabled": 0, "lon": -77.01787883333333, "is_reserved": 0}, {"name": "80352eba7d62c76adf829343ca302a97", "fusion_lat": 0.0, "fusion_lon": 0.0, "bike_id": "80352eba7d62c76adf829343ca302a97", "rental_uris": {"ios": "https://dc.lft.to/lastmile_qr_scan", "android": "https://dc.lft.to/lastmile_qr_scan"}, "type": "electric_scooter", "lat": 38.91842283333333, "is_disabled": 0, "lon": -76.9655075, "is_reserved": 0}, {"name": "031c2ba606eb99fdc89c34a36b07e58b", "fusion_lat": 0.0, "fusion_lon": 0.0, "bike_id": "031c2ba606eb99fdc89c34a36b07e58b", "rental_uris": {"ios": "https://dc.lft.to/lastmile_qr_scan", "android": "https://dc.lft.to/lastmile_qr_scan"}, "type": "electric_scooter", "lat": 38.90125166666667, "is_disabled": 0, "lon": -77.03057316666667, "is_reserved": 0}, {"name": "055fc529e06f0be668282d066c8cdf90", "fusion_lat": 0.0, "fusion_lon": 0.0, "bike_id": "055fc529e06f0be668282d066c8cdf90", "rental_uris": {"ios": "https://dc.lft.to/lastmile_qr_scan", "android": "https://dc.lft.to/lastmile_qr_scan"}, "type": "electric_scooter", "lat": 38.89393666666667, "is_disabled": 0, "lon": -76.94995833333333, "is_reserved": 0}, {"name": "09a0b807df196d702c7a70b51308485b", "fusion_lat": 0.0, "fusion_lon": 0.0, "bike_id": "09a0b807df196d702c7a70b51308485b", "rental_uris": {"ios": "https://dc.lft.to/lastmile_qr_scan", "android": "https://dc.lft.to/lastmile_qr_scan"}, "type": "electric_scooter", "lat": 38.92688733333333, "is_disabled": 0, "lon": -77.02307233333333, "is_reserved": 0}, {"name": "bea336f17fa391c1fe08ba49197ab0c0", "fusion_lat": 0.0, "fusion_lon": 0.0, "bike_id": "bea336f17fa391c1fe08ba49197ab0c0", "rental_uris": {"ios": "https://dc.lft.to/lastmile_qr_scan", "android": "https://dc.lft.to/lastmile_qr_scan"}, "type": "electric_scooter", "lat": 38.918403166666664, "is_disabled": 0, "lon": -77.041722, "is_reserved": 0}, {"name": "3e65c9f033af797e2bd2b534a19a5d34", "fusion_lat": 0.0, "fusion_lon": 0.0, "bike_id": "3e65c9f033af797e2bd2b534a19a5d34", "rental_uris": {"ios": "https://dc.lft.to/lastmile_qr_scan", "android": "https://dc.lft.to/lastmile_qr_scan"}, "type": "electric_bike", "lat": 38.85425683333333, "is_disabled": 0, "lon": -76.9094255, "is_reserved": 0}, {"name": "5ee0ab8d24a6a8906200a10ba53e0c68", "fusion_lat": 0.0, "fusion_lon": 0.0, "bike_id": "5ee0ab8d24a6a8906200a10ba53e0c68", "rental_uris": {"ios": "https://dc.lft.to/lastmile_qr_scan", "android": "https://dc.lft.to/lastmile_qr_scan"}, "type": "electric_scooter", "lat": 38.907212333333334, "is_disabled": 0, "lon": -77.0386065, "is_reserved": 0}, {"name": "f86e4b04a600c59e4a01800c96541574", "fusion_lat": 0.0, "fusion_lon": 0.0, "bike_id": "f86e4b04a600c59e4a01800c96541574", "rental_uris": {"ios": "https://dc.lft.to/lastmile_qr_scan", "android": "https://dc.lft.to/lastmile_qr_scan"}, "type": "electric_bike", "lat": 38.880107, "is_disabled": 0, "lon": -76.9159535, "is_reserved": 0}, {"name": "8dba5e7bc7e4b3d96c6df0c5b249af7b", "fusion_lat": 0.0, "fusion_lon": 0.0, "bike_id": "8dba5e7bc7e4b3d96c6df0c5b249af7b", "rental_uris": {"ios": "https://dc.lft.to/lastmile_qr_scan", "android": "https://dc.lft.to/lastmile_qr_scan"}, "type": "electric_scooter", "lat": 38.93867083333333, "is_disabled": 0, "lon": -77.02486533333334, "is_reserved": 0}, {"name": "186cebb1fcac8db6e4c929f7b1f1d59e", "fusion_lat": 0.0, "fusion_lon": 0.0, "bike_id": "186cebb1fcac8db6e4c929f7b1f1d59e", "rental_uris": {"ios": "https://dc.lft.to/lastmile_qr_scan", "android": "https://dc.lft.to/lastmile_qr_scan"}, "type": "electric_scooter", "lat": 38.9150055, "is_disabled": 0, "lon": -77.034422, "is_reserved": 0}, {"name": "406e5b9aab883e0da0d0a34eb703d9e2", "fusion_lat": 0.0, "fusion_lon": 0.0, "bike_id": "406e5b9aab883e0da0d0a34eb703d9e2", "rental_uris": {"ios": "https://dc.lft.to/lastmile_qr_scan", "android": "https://dc.lft.to/lastmile_qr_scan"}, "type": "electric_scooter", "lat": 38.8711275, "is_disabled": 0, "lon": -77.00768216666667, "is_reserved": 0}, {"name": "b18f4e77f029a8871f5c1534d720e6be", "fusion_lat": 0.0, "fusion_lon": 0.0, "bike_id": "b18f4e77f029a8871f5c1534d720e6be", "rental_uris": {"ios": "https://dc.lft.to/lastmile_qr_scan", "android": "https://dc.lft.to/lastmile_qr_scan"}, "type": "electric_scooter", "lat": 38.911724166666666, "is_disabled": 0, "lon": -77.03744733333333, "is_reserved": 0}, {"name": "2a7948bca731cc2a31d8500860568742", "fusion_lat": 0.0, "fusion_lon": 0.0, "bike_id": "2a7948bca731cc2a31d8500860568742", "rental_uris": {"ios": "https://dc.lft.to/lastmile_qr_scan", "android": "https://dc.lft.to/lastmile_qr_scan"}, "type": "electric_bike", "lat": 38.99453316666666, "is_disabled": 0, "lon": -76.90814833333333, "is_reserved": 0}, {"name": "288e2f795cdff67025a000e36d40672d", "fusion_lat": 0.0, "fusion_lon": 0.0, "bike_id": "288e2f795cdff67025a000e36d40672d", "rental_uris": {"ios": "https://dc.lft.to/lastmile_qr_scan", "android": "https://dc.lft.to/lastmile_qr_scan"}, "type": "electric_scooter", "lat": 38.882965166666665, "is_disabled": 0, "lon": -77.016336, "is_reserved": 0}, {"name": "ff4bedeec9a468f633bdec7a7a82cb31", "fusion_lat": 0.0, "fusion_lon": 0.0, "bike_id": "ff4bedeec9a468f633bdec7a7a82cb31", "rental_uris": {"ios": "https://dc.lft.to/lastmile_qr_scan", "android": "https://dc.lft.to/lastmile_qr_scan"}, "type": "electric_scooter", "lat": 38.870678166666664, "is_disabled": 0, "lon": -76.97984283333334, "is_reserved": 0}, {"name": "79b4b2e3ce4dc80cebbdcc5aee8ae24b", "fusion_lat": 0.0, "fusion_lon": 0.0, "bike_id": "79b4b2e3ce4dc80cebbdcc5aee8ae24b", "rental_uris": {"ios": "https://dc.lft.to/lastmile_qr_scan", "android": "https://dc.lft.to/lastmile_qr_scan"}, "type": "electric_scooter", "lat": 38.90138066666667, "is_disabled": 0, "lon": -76.95179816666666, "is_reserved": 0}, {"name": "1b0cc8684f3aa38cef041f0a9f1a42ae", "fusion_lat": 0.0, "fusion_lon": 0.0, "bike_id": "1b0cc8684f3aa38cef041f0a9f1a42ae", "rental_uris": {"ios": "https://dc.lft.to/lastmile_qr_scan", "android": "https://dc.lft.to/lastmile_qr_scan"}, "type": "electric_scooter", "lat": 38.90507016666667, "is_disabled": 0, "lon": -77.05791816666667, "is_reserved": 0}, {"name": "00eaf48900ad31c5a3378ed698e47dfd", "fusion_lat": 0.0, "fusion_lon": 0.0, "bike_id": "00eaf48900ad31c5a3378ed698e47dfd", "rental_uris": {"ios": "https://dc.lft.to/lastmile_qr_scan", "android": "https://dc.lft.to/lastmile_qr_scan"}, "type": "electric_scooter", "lat": 38.89863883333334, "is_disabled": 0, "lon": -77.03365816666667, "is_reserved": 0}, {"name": "d0d340e1cd2831a4df608a03e5e8283d", "fusion_lat": 0.0, "fusion_lon": 0.0, "bike_id": "d0d340e1cd2831a4df608a03e5e8283d", "rental_uris": {"ios": "https://dc.lft.to/lastmile_qr_scan", "android": "https://dc.lft.to/lastmile_qr_scan"}, "type": "electric_scooter", "lat": 38.9038105, "is_disabled": 0, "lon": -77.06287933333333, "is_reserved": 0}, {"name": "716adeb2aebea21eac763d255e3a55b8", "fusion_lat": 0.0, "fusion_lon": 0.0, "bike_id": "716adeb2aebea21eac763d255e3a55b8", "rental_uris": {"ios": "https://dc.lft.to/lastmile_qr_scan", "android": "https://dc.lft.to/lastmile_qr_scan"}, "type": "electric_scooter", "lat": 38.917389666666665, "is_disabled": 0, "lon": -77.0229455, "is_reserved": 0}, {"name": "4f494ee87981d222d17d770e654a6cc1", "fusion_lat": 0.0, "fusion_lon": 0.0, "bike_id": "4f494ee87981d222d17d770e654a6cc1", "rental_uris": {"ios": "https://dc.lft.to/lastmile_qr_scan", "android": "https://dc.lft.to/lastmile_qr_scan"}, "type": "electric_scooter", "lat": 38.90735983333333, "is_disabled": 0, "lon": -77.02600533333333, "is_reserved": 0}, {"name": "edb1dc476e3d04adb6f0cbe515265651", "fusion_lat": 0.0, "fusion_lon": 0.0, "bike_id": "edb1dc476e3d04adb6f0cbe515265651", "rental_uris": {"ios": "https://dc.lft.to/lastmile_qr_scan", "android": "https://dc.lft.to/lastmile_qr_scan"}, "type": "electric_scooter", "lat": 38.93569933333333, "is_disabled": 0, "lon": -77.02123416666667, "is_reserved": 0}, {"name": "b82863851c2ccca635cd19123458b72c", "fusion_lat": 0.0, "fusion_lon": 0.0, "bike_id": "b82863851c2ccca635cd19123458b72c", "rental_uris": {"ios": "https://dc.lft.to/lastmile_qr_scan", "android": "https://dc.lft.to/lastmile_qr_scan"}, "type": "electric_scooter", "lat": 38.9180725, "is_disabled": 0, "lon": -77.03801533333333, "is_reserved": 0}, {"name": "8fc7f3182567879655a4b52ce69c75dd", "fusion_lat": 0.0, "fusion_lon": 0.0, "bike_id": "8fc7f3182567879655a4b52ce69c75dd", "rental_uris": {"ios": "https://dc.lft.to/lastmile_qr_scan", "android": "https://dc.lft.to/lastmile_qr_scan"}, "type": "electric_scooter", "lat": 38.905336, "is_disabled": 0, "lon": -77.05003833333333, "is_reserved": 0}, {"name": "37150dd897c350b13b298c63698d2a01", "fusion_lat": 0.0, "fusion_lon": 0.0, "bike_id": "37150dd897c350b13b298c63698d2a01", "rental_uris": {"ios": "https://dc.lft.to/lastmile_qr_scan", "android": "https://dc.lft.to/lastmile_qr_scan"}, "type": "electric_scooter", "lat": 38.92915583333333, "is_disabled": 0, "lon": -77.03287883333333, "is_reserved": 0}, {"name": "a02c5080c39813fdc83b8a5d97d33bcd", "fusion_lat": 0.0, "fusion_lon": 0.0, "bike_id": "a02c5080c39813fdc83b8a5d97d33bcd", "rental_uris": {"ios": "https://dc.lft.to/lastmile_qr_scan", "android": "https://dc.lft.to/lastmile_qr_scan"}, "type": "electric_scooter", "lat": 38.94836, "is_disabled": 0, "lon": -77.02548166666666, "is_reserved": 0}, {"name": "fe6df3c8b77469046ba83194755cadd3", "fusion_lat": 0.0, "fusion_lon": 0.0, "bike_id": "fe6df3c8b77469046ba83194755cadd3", "rental_uris": {"ios": "https://dc.lft.to/lastmile_qr_scan", "android": "https://dc.lft.to/lastmile_qr_scan"}, "type": "electric_scooter", "lat": 38.92601616666666, "is_disabled": 0, "lon": -77.02158433333334, "is_reserved": 0}, {"name": "9821452b3114713d32f86981f8dab27e", "fusion_lat": 0.0, "fusion_lon": 0.0, "bike_id": "9821452b3114713d32f86981f8dab27e", "rental_uris": {"ios": "https://dc.lft.to/lastmile_qr_scan", "android": "https://dc.lft.to/lastmile_qr_scan"}, "type": "electric_scooter", "lat": 38.895295833333336, "is_disabled": 0, "lon": -77.01164216666666, "is_reserved": 0}, {"name": "222b256b3fe058ba058d5077f43e02b9", "fusion_lat": 0.0, "fusion_lon": 0.0, "bike_id": "222b256b3fe058ba058d5077f43e02b9", "rental_uris": {"ios": "https://dc.lft.to/lastmile_qr_scan", "android": "https://dc.lft.to/lastmile_qr_scan"}, "type": "electric_scooter", "lat": 38.921187833333335, "is_disabled": 0, "lon": -76.99391733333333, "is_reserved": 0}, {"name": "36e3c41b2d0a00485a1c4c082619a366", "fusion_lat": 0.0, "fusion_lon": 0.0, "bike_id": "36e3c41b2d0a00485a1c4c082619a366", "rental_uris": {"ios": "https://dc.lft.to/lastmile_qr_scan", "android": "https://dc.lft.to/lastmile_qr_scan"}, "type": "electric_scooter", "lat": 38.91101966666667, "is_disabled": 0, "lon": -77.00410383333333, "is_reserved": 0}, {"name": "4883a31b35eba037a201d9a3e8571116", "fusion_lat": 0.0, "fusion_lon": 0.0, "bike_id": "4883a31b35eba037a201d9a3e8571116", "rental_uris": {"ios": "https://dc.lft.to/lastmile_qr_scan", "android": "https://dc.lft.to/lastmile_qr_scan"}, "type": "electric_scooter", "lat": 38.956136, "is_disabled": 0, "lon": -77.03282716666666, "is_reserved": 0}, {"name": "225493cd16898b4a82ac53ea87a9b26e", "fusion_lat": 0.0, "fusion_lon": 0.0, "bike_id": "225493cd16898b4a82ac53ea87a9b26e", "rental_uris": {"ios": "https://dc.lft.to/lastmile_qr_scan", "android": "https://dc.lft.to/lastmile_qr_scan"}, "type": "electric_bike", "lat": 38.85779316666667, "is_disabled": 0, "lon": -76.98766683333334, "is_reserved": 0}, {"name": "62fe5b7777b1e7d42100d23424f9fd1a", "fusion_lat": 0.0, "fusion_lon": 0.0, "bike_id": "62fe5b7777b1e7d42100d23424f9fd1a", "rental_uris": {"ios": "https://dc.lft.to/lastmile_qr_scan", "android": "https://dc.lft.to/lastmile_qr_scan"}, "type": "electric_scooter", "lat": 38.918725, "is_disabled": 0, "lon": -77.04194433333333, "is_reserved": 0}, {"name": "30904e5d62d078fe6e39c1eee7265715", "fusion_lat": 0.0, "fusion_lon": 0.0, "bike_id": "30904e5d62d078fe6e39c1eee7265715", "rental_uris": {"ios": "https://dc.lft.to/lastmile_qr_scan", "android": "https://dc.lft.to/lastmile_qr_scan"}, "type": "electric_scooter", "lat": 38.894081166666666, "is_disabled": 0, "lon": -76.9324695, "is_reserved": 0}, {"name": "d4028f6110fbcd5b0830cf12fc66fa88", "fusion_lat": 0.0, "fusion_lon": 0.0, "bike_id": "d4028f6110fbcd5b0830cf12fc66fa88", "rental_uris": {"ios": "https://dc.lft.to/lastmile_qr_scan", "android": "https://dc.lft.to/lastmile_qr_scan"}, "type": "electric_scooter", "lat": 38.94191516666667, "is_disabled": 0, "lon": -77.03329116666667, "is_reserved": 0}, {"name": "62d5c76dce24ff62f8279139ff2afa39", "fusion_lat": 0.0, "fusion_lon": 0.0, "bike_id": "62d5c76dce24ff62f8279139ff2afa39", "rental_uris": {"ios": "https://dc.lft.to/lastmile_qr_scan", "android": "https://dc.lft.to/lastmile_qr_scan"}, "type": "electric_scooter", "lat": 38.908362333333336, "is_disabled": 0, "lon": -77.04883016666666, "is_reserved": 0}, {"name": "89a7fd584c58f403cc59af84bf21f798", "fusion_lat": 0.0, "fusion_lon": 0.0, "bike_id": "89a7fd584c58f403cc59af84bf21f798", "rental_uris": {"ios": "https://dc.lft.to/lastmile_qr_scan", "android": "https://dc.lft.to/lastmile_qr_scan"}, "type": "electric_bike", "lat": 38.966489833333334, "is_disabled": 0, "lon": -76.93020316666667, "is_reserved": 0}, {"name": "04cfd62efa38d0964caa0567fe1a6169", "fusion_lat": 0.0, "fusion_lon": 0.0, "bike_id": "04cfd62efa38d0964caa0567fe1a6169", "rental_uris": {"ios": "https://dc.lft.to/lastmile_qr_scan", "android": "https://dc.lft.to/lastmile_qr_scan"}, "type": "electric_scooter", "lat": 38.901443, "is_disabled": 0, "lon": -77.04057533333334, "is_reserved": 0}, {"name": "2fec0f893974b885fa26efe59f9f1428", "fusion_lat": 0.0, "fusion_lon": 0.0, "bike_id": "2fec0f893974b885fa26efe59f9f1428", "rental_uris": {"ios": "https://dc.lft.to/lastmile_qr_scan", "android": "https://dc.lft.to/lastmile_qr_scan"}, "type": "electric_scooter", "lat": 38.89814166666667, "is_disabled": 0, "lon": -77.04881866666666, "is_reserved": 0}, {"name": "8b2b4d19b21a0ac543e2bf95baf24be5", "fusion_lat": 0.0, "fusion_lon": 0.0, "bike_id": "8b2b4d19b21a0ac543e2bf95baf24be5", "rental_uris": {"ios": "https://dc.lft.to/lastmile_qr_scan", "android": "https://dc.lft.to/lastmile_qr_scan"}, "type": "electric_scooter", "lat": 38.886204, "is_disabled": 0, "lon": -77.02144783333334, "is_reserved": 0}, {"name": "0b38e9f5c0ce94ef6b106559332fdd2d", "fusion_lat": 0.0, "fusion_lon": 0.0, "bike_id": "0b38e9f5c0ce94ef6b106559332fdd2d", "rental_uris": {"ios": "https://dc.lft.to/lastmile_qr_scan", "android": "https://dc.lft.to/lastmile_qr_scan"}, "type": "electric_scooter", "lat": 38.92896566666667, "is_disabled": 0, "lon": -76.9847445, "is_reserved": 0}, {"name": "2585303a5d6f87d0597125aa205f1cd2", "fusion_lat": 0.0, "fusion_lon": 0.0, "bike_id": "2585303a5d6f87d0597125aa205f1cd2", "rental_uris": {"ios": "https://dc.lft.to/lastmile_qr_scan", "android": "https://dc.lft.to/lastmile_qr_scan"}, "type": "electric_scooter", "lat": 38.9167625, "is_disabled": 0, "lon": -77.04195766666666, "is_reserved": 0}, {"name": "e5f28a97b22323f4c1996769cebc3241", "fusion_lat": 0.0, "fusion_lon": 0.0, "bike_id": "e5f28a97b22323f4c1996769cebc3241", "rental_uris": {"ios": "https://dc.lft.to/lastmile_qr_scan", "android": "https://dc.lft.to/lastmile_qr_scan"}, "type": "electric_scooter", "lat": 38.901372, "is_disabled": 0, "lon": -77.04000916666666, "is_reserved": 0}, {"name": "eef3b60be9653606b8d5ba368a15c88f", "fusion_lat": 0.0, "fusion_lon": 0.0, "bike_id": "eef3b60be9653606b8d5ba368a15c88f", "rental_uris": {"ios": "https://dc.lft.to/lastmile_qr_scan", "android": "https://dc.lft.to/lastmile_qr_scan"}, "type": "electric_scooter", "lat": 38.899451166666665, "is_disabled": 0, "lon": -77.01681716666667, "is_reserved": 0}, {"name": "c3dee6a417dcdee348b176e2a9a950dd", "fusion_lat": 0.0, "fusion_lon": 0.0, "bike_id": "c3dee6a417dcdee348b176e2a9a950dd", "rental_uris": {"ios": "https://dc.lft.to/lastmile_qr_scan", "android": "https://dc.lft.to/lastmile_qr_scan"}, "type": "electric_scooter", "lat": 38.916932333333335, "is_disabled": 0, "lon": -77.03554983333333, "is_reserved": 0}, {"name": "97bd7ec44055887a89ceefaeef8aa40b", "fusion_lat": 0.0, "fusion_lon": 0.0, "bike_id": "97bd7ec44055887a89ceefaeef8aa40b", "rental_uris": {"ios": "https://dc.lft.to/lastmile_qr_scan", "android": "https://dc.lft.to/lastmile_qr_scan"}, "type": "electric_scooter", "lat": 38.91711433333333, "is_disabled": 0, "lon": -77.027189, "is_reserved": 0}, {"name": "115921a0821f9b216e786bbf9f543178", "fusion_lat": 0.0, "fusion_lon": 0.0, "bike_id": "115921a0821f9b216e786bbf9f543178", "rental_uris": {"ios": "https://dc.lft.to/lastmile_qr_scan", "android": "https://dc.lft.to/lastmile_qr_scan"}, "type": "electric_scooter", "lat": 38.899953, "is_disabled": 0, "lon": -77.01498316666667, "is_reserved": 0}, {"name": "82a2bdd94f35fa0df1d52c9503331b1e", "fusion_lat": 0.0, "fusion_lon": 0.0, "bike_id": "82a2bdd94f35fa0df1d52c9503331b1e", "rental_uris": {"ios": "https://dc.lft.to/lastmile_qr_scan", "android": "https://dc.lft.to/lastmile_qr_scan"}, "type": "electric_bike", "lat": 38.88190933333333, "is_disabled": 0, "lon": -77.11514366666667, "is_reserved": 0}, {"name": "51cddca14f20e07d3b6f4cec5c6e6a36", "fusion_lat": 0.0, "fusion_lon": 0.0, "bike_id": "51cddca14f20e07d3b6f4cec5c6e6a36", "rental_uris": {"ios": "https://dc.lft.to/lastmile_qr_scan", "android": "https://dc.lft.to/lastmile_qr_scan"}, "type": "electric_scooter", "lat": 38.8935535, "is_disabled": 0, "lon": -76.9847045, "is_reserved": 0}, {"name": "b4063fa0464e410573d6248206df1c37", "fusion_lat": 0.0, "fusion_lon": 0.0, "bike_id": "b4063fa0464e410573d6248206df1c37", "rental_uris": {"ios": "https://dc.lft.to/lastmile_qr_scan", "android": "https://dc.lft.to/lastmile_qr_scan"}, "type": "electric_scooter", "lat": 38.9051835, "is_disabled": 0, "lon": -77.06521216666667, "is_reserved": 0}, {"name": "453781ca758d15fd377dc2d0d76f9004", "fusion_lat": 0.0, "fusion_lon": 0.0, "bike_id": "453781ca758d15fd377dc2d0d76f9004", "rental_uris": {"ios": "https://dc.lft.to/lastmile_qr_scan", "android": "https://dc.lft.to/lastmile_qr_scan"}, "type": "electric_scooter", "lat": 38.901187, "is_disabled": 0, "lon": -76.99148966666667, "is_reserved": 0}, {"name": "15e7bc07b7be63a026e27ed7a4412471", "fusion_lat": 0.0, "fusion_lon": 0.0, "bike_id": "15e7bc07b7be63a026e27ed7a4412471", "rental_uris": {"ios": "https://dc.lft.to/lastmile_qr_scan", "android": "https://dc.lft.to/lastmile_qr_scan"}, "type": "electric_scooter", "lat": 38.91816333333333, "is_disabled": 0, "lon": -77.02475033333333, "is_reserved": 0}, {"name": "b20273816fe4aba36f255efe590dd202", "fusion_lat": 0.0, "fusion_lon": 0.0, "bike_id": "b20273816fe4aba36f255efe590dd202", "rental_uris": {"ios": "https://dc.lft.to/lastmile_qr_scan", "android": "https://dc.lft.to/lastmile_qr_scan"}, "type": "electric_scooter", "lat": 38.9080865, "is_disabled": 0, "lon": -77.03391, "is_reserved": 0}, {"name": "a63c782f6113ad56a35ab50efef8d88d", "fusion_lat": 0.0, "fusion_lon": 0.0, "bike_id": "a63c782f6113ad56a35ab50efef8d88d", "rental_uris": {"ios": "https://dc.lft.to/lastmile_qr_scan", "android": "https://dc.lft.to/lastmile_qr_scan"}, "type": "electric_scooter", "lat": 38.88427316666667, "is_disabled": 0, "lon": -77.02793866666667, "is_reserved": 0}, {"name": "c7ba3b045b4542a14823667f374de29c", "fusion_lat": 0.0, "fusion_lon": 0.0, "bike_id": "c7ba3b045b4542a14823667f374de29c", "rental_uris": {"ios": "https://dc.lft.to/lastmile_qr_scan", "android": "https://dc.lft.to/lastmile_qr_scan"}, "type": "electric_scooter", "lat": 38.90021733333333, "is_disabled": 0, "lon": -77.00694416666667, "is_reserved": 0}, {"name": "0773a485c6190c9bb097dbcb1a45c67c", "fusion_lat": 0.0, "fusion_lon": 0.0, "bike_id": "0773a485c6190c9bb097dbcb1a45c67c", "rental_uris": {"ios": "https://dc.lft.to/lastmile_qr_scan", "android": "https://dc.lft.to/lastmile_qr_scan"}, "type": "electric_scooter", "lat": 38.871736166666665, "is_disabled": 0, "lon": -77.0062745, "is_reserved": 0}, {"name": "fd1ac3a39dcdb8d710aad235c64bc06a", "fusion_lat": 0.0, "fusion_lon": 0.0, "bike_id": "fd1ac3a39dcdb8d710aad235c64bc06a", "rental_uris": {"ios": "https://dc.lft.to/lastmile_qr_scan", "android": "https://dc.lft.to/lastmile_qr_scan"}, "type": "electric_scooter", "lat": 38.921935166666664, "is_disabled": 0, "lon": -77.035043, "is_reserved": 0}, {"name": "2d575e67888c2f59783791600d8556e9", "fusion_lat": 0.0, "fusion_lon": 0.0, "bike_id": "2d575e67888c2f59783791600d8556e9", "rental_uris": {"ios": "https://dc.lft.to/lastmile_qr_scan", "android": "https://dc.lft.to/lastmile_qr_scan"}, "type": "electric_scooter", "lat": 38.90430966666667, "is_disabled": 0, "lon": -77.02610316666667, "is_reserved": 0}, {"name": "a2216c510c9ceb07aa50d2f4de061ec5", "fusion_lat": 0.0, "fusion_lon": 0.0, "bike_id": "a2216c510c9ceb07aa50d2f4de061ec5", "rental_uris": {"ios": "https://dc.lft.to/lastmile_qr_scan", "android": "https://dc.lft.to/lastmile_qr_scan"}, "type": "electric_scooter", "lat": 38.88701566666667, "is_disabled": 0, "lon": -76.95362533333333, "is_reserved": 0}, {"name": "70e098ecb2a1a04ce0e78a11efef30cd", "fusion_lat": 0.0, "fusion_lon": 0.0, "bike_id": "70e098ecb2a1a04ce0e78a11efef30cd", "rental_uris": {"ios": "https://dc.lft.to/lastmile_qr_scan", "android": "https://dc.lft.to/lastmile_qr_scan"}, "type": "electric_scooter", "lat": 38.905387833333336, "is_disabled": 0, "lon": -77.04997866666666, "is_reserved": 0}, {"name": "dd40c29d1c043f4192c375bee966ddb1", "fusion_lat": 0.0, "fusion_lon": 0.0, "bike_id": "dd40c29d1c043f4192c375bee966ddb1", "rental_uris": {"ios": "https://dc.lft.to/lastmile_qr_scan", "android": "https://dc.lft.to/lastmile_qr_scan"}, "type": "electric_scooter", "lat": 38.895247166666664, "is_disabled": 0, "lon": -76.948893, "is_reserved": 0}, {"name": "b59f48201087fb388ab22398ed20ab26", "fusion_lat": 0.0, "fusion_lon": 0.0, "bike_id": "b59f48201087fb388ab22398ed20ab26", "rental_uris": {"ios": "https://dc.lft.to/lastmile_qr_scan", "android": "https://dc.lft.to/lastmile_qr_scan"}, "type": "electric_scooter", "lat": 38.84294166666667, "is_disabled": 0, "lon": -76.99948216666667, "is_reserved": 0}, {"name": "a3ef949f3a378432038115b7e06e4b1e", "fusion_lat": 0.0, "fusion_lon": 0.0, "bike_id": "a3ef949f3a378432038115b7e06e4b1e", "rental_uris": {"ios": "https://dc.lft.to/lastmile_qr_scan", "android": "https://dc.lft.to/lastmile_qr_scan"}, "type": "electric_scooter", "lat": 38.86212283333333, "is_disabled": 0, "lon": -76.99477333333333, "is_reserved": 0}, {"name": "ae4824f086115bec6685e5ec92b9e80a", "fusion_lat": 0.0, "fusion_lon": 0.0, "bike_id": "ae4824f086115bec6685e5ec92b9e80a", "rental_uris": {"ios": "https://dc.lft.to/lastmile_qr_scan", "android": "https://dc.lft.to/lastmile_qr_scan"}, "type": "electric_scooter", "lat": 38.92149116666667, "is_disabled": 0, "lon": -77.02958966666667, "is_reserved": 0}, {"name": "79beacc60692e529fd3ec9282c6a8236", "fusion_lat": 0.0, "fusion_lon": 0.0, "bike_id": "79beacc60692e529fd3ec9282c6a8236", "rental_uris": {"ios": "https://dc.lft.to/lastmile_qr_scan", "android": "https://dc.lft.to/lastmile_qr_scan"}, "type": "electric_scooter", "lat": 38.9218165, "is_disabled": 0, "lon": -77.02659216666666, "is_reserved": 0}, {"name": "edad6f14424c27e7b4cd44bd4f68c1e4", "fusion_lat": 0.0, "fusion_lon": 0.0, "bike_id": "edad6f14424c27e7b4cd44bd4f68c1e4", "rental_uris": {"ios": "https://dc.lft.to/lastmile_qr_scan", "android": "https://dc.lft.to/lastmile_qr_scan"}, "type": "electric_scooter", "lat": 38.885359666666666, "is_disabled": 0, "lon": -76.9270285, "is_reserved": 0}, {"name": "dd77bdd17ef9f7a8332daed19f7bd478", "fusion_lat": 0.0, "fusion_lon": 0.0, "bike_id": "dd77bdd17ef9f7a8332daed19f7bd478", "rental_uris": {"ios": "https://dc.lft.to/lastmile_qr_scan", "android": "https://dc.lft.to/lastmile_qr_scan"}, "type": "electric_scooter", "lat": 38.933399, "is_disabled": 0, "lon": -77.0413245, "is_reserved": 0}, {"name": "ee79f81c057730bd384649e4621f2b3c", "fusion_lat": 0.0, "fusion_lon": 0.0, "bike_id": "ee79f81c057730bd384649e4621f2b3c", "rental_uris": {"ios": "https://dc.lft.to/lastmile_qr_scan", "android": "https://dc.lft.to/lastmile_qr_scan"}, "type": "electric_scooter", "lat": 38.86735866666667, "is_disabled": 0, "lon": -76.97936783333333, "is_reserved": 0}, {"name": "cdaea51f28aa5ec549a374f7e9c00a5a", "fusion_lat": 0.0, "fusion_lon": 0.0, "bike_id": "cdaea51f28aa5ec549a374f7e9c00a5a", "rental_uris": {"ios": "https://dc.lft.to/lastmile_qr_scan", "android": "https://dc.lft.to/lastmile_qr_scan"}, "type": "electric_scooter", "lat": 38.923179833333336, "is_disabled": 0, "lon": -77.04622433333333, "is_reserved": 0}, {"name": "9a5970ffbc5594471a3740cb74facfd7", "fusion_lat": 0.0, "fusion_lon": 0.0, "bike_id": "9a5970ffbc5594471a3740cb74facfd7", "rental_uris": {"ios": "https://dc.lft.to/lastmile_qr_scan", "android": "https://dc.lft.to/lastmile_qr_scan"}, "type": "electric_scooter", "lat": 38.915992333333335, "is_disabled": 0, "lon": -77.03853233333334, "is_reserved": 0}, {"name": "dcd03fdcf113d19ec1a374337761d95f", "fusion_lat": 0.0, "fusion_lon": 0.0, "bike_id": "dcd03fdcf113d19ec1a374337761d95f", "rental_uris": {"ios": "https://dc.lft.to/lastmile_qr_scan", "android": "https://dc.lft.to/lastmile_qr_scan"}, "type": "electric_scooter", "lat": 38.918245166666665, "is_disabled": 0, "lon": -77.01205883333333, "is_reserved": 0}, {"name": "2998e530d4c85b0aeff91148ffaea383", "fusion_lat": 0.0, "fusion_lon": 0.0, "bike_id": "2998e530d4c85b0aeff91148ffaea383", "rental_uris": {"ios": "https://dc.lft.to/lastmile_qr_scan", "android": "https://dc.lft.to/lastmile_qr_scan"}, "type": "electric_scooter", "lat": 38.93413566666667, "is_disabled": 0, "lon": -77.0427085, "is_reserved": 0}, {"name": "e1e559b38c3c13775c67cc584e176536", "fusion_lat": 0.0, "fusion_lon": 0.0, "bike_id": "e1e559b38c3c13775c67cc584e176536", "rental_uris": {"ios": "https://dc.lft.to/lastmile_qr_scan", "android": "https://dc.lft.to/lastmile_qr_scan"}, "type": "electric_scooter", "lat": 38.87174683333333, "is_disabled": 0, "lon": -77.00626166666666, "is_reserved": 0}, {"name": "e456ce395fed06dcfb5b88e41ab76375", "fusion_lat": 0.0, "fusion_lon": 0.0, "bike_id": "e456ce395fed06dcfb5b88e41ab76375", "rental_uris": {"ios": "https://dc.lft.to/lastmile_qr_scan", "android": "https://dc.lft.to/lastmile_qr_scan"}, "type": "electric_scooter", "lat": 38.907923333333336, "is_disabled": 0, "lon": -77.0498375, "is_reserved": 0}, {"name": "6211436b9d90a46df98a71faf682f0bb", "fusion_lat": 0.0, "fusion_lon": 0.0, "bike_id": "6211436b9d90a46df98a71faf682f0bb", "rental_uris": {"ios": "https://dc.lft.to/lastmile_qr_scan", "android": "https://dc.lft.to/lastmile_qr_scan"}, "type": "electric_scooter", "lat": 38.9209405, "is_disabled": 0, "lon": -77.02595483333333, "is_reserved": 0}, {"name": "88df09f347cb582d040d6fb2697381ca", "fusion_lat": 0.0, "fusion_lon": 0.0, "bike_id": "88df09f347cb582d040d6fb2697381ca", "rental_uris": {"ios": "https://dc.lft.to/lastmile_qr_scan", "android": "https://dc.lft.to/lastmile_qr_scan"}, "type": "electric_scooter", "lat": 38.877212666666665, "is_disabled": 0, "lon": -77.01685933333333, "is_reserved": 0}, {"name": "2071db77d5e11ce67a8c27918f5dafae", "fusion_lat": 0.0, "fusion_lon": 0.0, "bike_id": "2071db77d5e11ce67a8c27918f5dafae", "rental_uris": {"ios": "https://dc.lft.to/lastmile_qr_scan", "android": "https://dc.lft.to/lastmile_qr_scan"}, "type": "electric_bike", "lat": 38.906902333333335, "is_disabled": 0, "lon": -76.95197133333333, "is_reserved": 0}, {"name": "fce8984d30cf34df661c9529232cadce", "fusion_lat": 0.0, "fusion_lon": 0.0, "bike_id": "fce8984d30cf34df661c9529232cadce", "rental_uris": {"ios": "https://dc.lft.to/lastmile_qr_scan", "android": "https://dc.lft.to/lastmile_qr_scan"}, "type": "electric_scooter", "lat": 38.91183433333333, "is_disabled": 0, "lon": -77.00251216666666, "is_reserved": 0}, {"name": "9bc448f48a36e39b2774f4151e43b2e1", "fusion_lat": 0.0, "fusion_lon": 0.0, "bike_id": "9bc448f48a36e39b2774f4151e43b2e1", "rental_uris": {"ios": "https://dc.lft.to/lastmile_qr_scan", "android": "https://dc.lft.to/lastmile_qr_scan"}, "type": "electric_scooter", "lat": 38.882863666666665, "is_disabled": 0, "lon": -76.99502733333334, "is_reserved": 0}, {"name": "7cb6fde14018bdbdb5287404bd2d1c75", "fusion_lat": 0.0, "fusion_lon": 0.0, "bike_id": "7cb6fde14018bdbdb5287404bd2d1c75", "rental_uris": {"ios": "https://dc.lft.to/lastmile_qr_scan", "android": "https://dc.lft.to/lastmile_qr_scan"}, "type": "electric_scooter", "lat": 38.91520416666667, "is_disabled": 0, "lon": -76.9835045, "is_reserved": 0}, {"name": "98c4912d50b33d0cf6a2dfd787ae4431", "fusion_lat": 0.0, "fusion_lon": 0.0, "bike_id": "98c4912d50b33d0cf6a2dfd787ae4431", "rental_uris": {"ios": "https://dc.lft.to/lastmile_qr_scan", "android": "https://dc.lft.to/lastmile_qr_scan"}, "type": "electric_scooter", "lat": 38.88451833333333, "is_disabled": 0, "lon": -76.95096683333334, "is_reserved": 0}, {"name": "e3f86ad6d06a471b21f41fd6e4c42ae8", "fusion_lat": 0.0, "fusion_lon": 0.0, "bike_id": "e3f86ad6d06a471b21f41fd6e4c42ae8", "rental_uris": {"ios": "https://dc.lft.to/lastmile_qr_scan", "android": "https://dc.lft.to/lastmile_qr_scan"}, "type": "electric_scooter", "lat": 38.903689166666666, "is_disabled": 0, "lon": -77.0346155, "is_reserved": 0}, {"name": "d47da3765bcb312b14b352b47158d6f3", "fusion_lat": 0.0, "fusion_lon": 0.0, "bike_id": "d47da3765bcb312b14b352b47158d6f3", "rental_uris": {"ios": "https://dc.lft.to/lastmile_qr_scan", "android": "https://dc.lft.to/lastmile_qr_scan"}, "type": "electric_scooter", "lat": 38.937765, "is_disabled": 0, "lon": -77.03264633333333, "is_reserved": 0}, {"name": "ec331336bdb1287ecfbdccfd1c325d25", "fusion_lat": 0.0, "fusion_lon": 0.0, "bike_id": "ec331336bdb1287ecfbdccfd1c325d25", "rental_uris": {"ios": "https://dc.lft.to/lastmile_qr_scan", "android": "https://dc.lft.to/lastmile_qr_scan"}, "type": "electric_scooter", "lat": 38.919859833333334, "is_disabled": 0, "lon": -77.04183766666667, "is_reserved": 0}, {"name": "e8abb223b7c46472f6a88e39ee145b6b", "fusion_lat": 0.0, "fusion_lon": 0.0, "bike_id": "e8abb223b7c46472f6a88e39ee145b6b", "rental_uris": {"ios": "https://dc.lft.to/lastmile_qr_scan", "android": "https://dc.lft.to/lastmile_qr_scan"}, "type": "electric_scooter", "lat": 38.91549966666667, "is_disabled": 0, "lon": -77.02230366666667, "is_reserved": 0}, {"name": "da71229a70958ff2214a7bf1b22fff4a", "fusion_lat": 0.0, "fusion_lon": 0.0, "bike_id": "da71229a70958ff2214a7bf1b22fff4a", "rental_uris": {"ios": "https://dc.lft.to/lastmile_qr_scan", "android": "https://dc.lft.to/lastmile_qr_scan"}, "type": "electric_scooter", "lat": 38.91229516666667, "is_disabled": 0, "lon": -77.03194016666667, "is_reserved": 0}, {"name": "c8abb62623facbc1efc69cab39dc09bb", "fusion_lat": 0.0, "fusion_lon": 0.0, "bike_id": "c8abb62623facbc1efc69cab39dc09bb", "rental_uris": {"ios": "https://dc.lft.to/lastmile_qr_scan", "android": "https://dc.lft.to/lastmile_qr_scan"}, "type": "electric_scooter", "lat": 38.9083065, "is_disabled": 0, "lon": -77.04169316666666, "is_reserved": 0}, {"name": "f30898d46140424c4f1be0f9841818cd", "fusion_lat": 0.0, "fusion_lon": 0.0, "bike_id": "f30898d46140424c4f1be0f9841818cd", "rental_uris": {"ios": "https://dc.lft.to/lastmile_qr_scan", "android": "https://dc.lft.to/lastmile_qr_scan"}, "type": "electric_scooter", "lat": 38.87479833333333, "is_disabled": 0, "lon": -77.01234283333334, "is_reserved": 0}, {"name": "5cfbf510bd967d3de79c35f4fc13ae92", "fusion_lat": 0.0, "fusion_lon": 0.0, "bike_id": "5cfbf510bd967d3de79c35f4fc13ae92", "rental_uris": {"ios": "https://dc.lft.to/lastmile_qr_scan", "android": "https://dc.lft.to/lastmile_qr_scan"}, "type": "electric_scooter", "lat": 38.953090333333336, "is_disabled": 0, "lon": -77.036008, "is_reserved": 0}, {"name": "1bb0cced08cb0bd7dc815bf3e0dcc783", "fusion_lat": 0.0, "fusion_lon": 0.0, "bike_id": "1bb0cced08cb0bd7dc815bf3e0dcc783", "rental_uris": {"ios": "https://dc.lft.to/lastmile_qr_scan", "android": "https://dc.lft.to/lastmile_qr_scan"}, "type": "electric_scooter", "lat": 38.898445833333334, "is_disabled": 0, "lon": -76.94633866666666, "is_reserved": 0}, {"name": "41c3f20d37c5469c961152ddbaf326d3", "fusion_lat": 0.0, "fusion_lon": 0.0, "bike_id": "41c3f20d37c5469c961152ddbaf326d3", "rental_uris": {"ios": "https://dc.lft.to/lastmile_qr_scan", "android": "https://dc.lft.to/lastmile_qr_scan"}, "type": "electric_scooter", "lat": 38.893064333333335, "is_disabled": 0, "lon": -77.012326, "is_reserved": 0}, {"name": "86c7e82c85c27b7836a43be5f0916ebe", "fusion_lat": 0.0, "fusion_lon": 0.0, "bike_id": "86c7e82c85c27b7836a43be5f0916ebe", "rental_uris": {"ios": "https://dc.lft.to/lastmile_qr_scan", "android": "https://dc.lft.to/lastmile_qr_scan"}, "type": "electric_scooter", "lat": 38.9328145, "is_disabled": 0, "lon": -77.029766, "is_reserved": 0}, {"name": "6a9eac1382f287f2285fac317a8cc0f8", "fusion_lat": 0.0, "fusion_lon": 0.0, "bike_id": "6a9eac1382f287f2285fac317a8cc0f8", "rental_uris": {"ios": "https://dc.lft.to/lastmile_qr_scan", "android": "https://dc.lft.to/lastmile_qr_scan"}, "type": "electric_scooter", "lat": 38.8996315, "is_disabled": 0, "lon": -77.04612533333334, "is_reserved": 0}, {"name": "cb794f6966f59beeb9f5cee292886475", "fusion_lat": 0.0, "fusion_lon": 0.0, "bike_id": "cb794f6966f59beeb9f5cee292886475", "rental_uris": {"ios": "https://dc.lft.to/lastmile_qr_scan", "android": "https://dc.lft.to/lastmile_qr_scan"}, "type": "electric_scooter", "lat": 38.93423533333333, "is_disabled": 0, "lon": -77.04142816666666, "is_reserved": 0}, {"name": "19a6eaed62e934e5c010c449a54fd5cd", "fusion_lat": 0.0, "fusion_lon": 0.0, "bike_id": "19a6eaed62e934e5c010c449a54fd5cd", "rental_uris": {"ios": "https://dc.lft.to/lastmile_qr_scan", "android": "https://dc.lft.to/lastmile_qr_scan"}, "type": "electric_scooter", "lat": 38.93148083333333, "is_disabled": 0, "lon": -77.03451983333333, "is_reserved": 0}, {"name": "885061a03a3641a96eada54f10b0d283", "fusion_lat": 0.0, "fusion_lon": 0.0, "bike_id": "885061a03a3641a96eada54f10b0d283", "rental_uris": {"ios": "https://dc.lft.to/lastmile_qr_scan", "android": "https://dc.lft.to/lastmile_qr_scan"}, "type": "electric_scooter", "lat": 38.904339666666665, "is_disabled": 0, "lon": -77.04354216666667, "is_reserved": 0}, {"name": "1e3e620929c441c9bbc52578fdb054fc", "fusion_lat": 0.0, "fusion_lon": 0.0, "bike_id": "1e3e620929c441c9bbc52578fdb054fc", "rental_uris": {"ios": "https://dc.lft.to/lastmile_qr_scan", "android": "https://dc.lft.to/lastmile_qr_scan"}, "type": "electric_bike", "lat": 38.893342833333335, "is_disabled": 0, "lon": -77.124041, "is_reserved": 0}, {"name": "3217401e5af73bcd89c71fdfa69415cc", "fusion_lat": 0.0, "fusion_lon": 0.0, "bike_id": "3217401e5af73bcd89c71fdfa69415cc", "rental_uris": {"ios": "https://dc.lft.to/lastmile_qr_scan", "android": "https://dc.lft.to/lastmile_qr_scan"}, "type": "electric_scooter", "lat": 38.908738, "is_disabled": 0, "lon": -77.04337683333334, "is_reserved": 0}, {"name": "bcaf628ddf617fc527b4c5b0c4bf78d9", "fusion_lat": 0.0, "fusion_lon": 0.0, "bike_id": "bcaf628ddf617fc527b4c5b0c4bf78d9", "rental_uris": {"ios": "https://dc.lft.to/lastmile_qr_scan", "android": "https://dc.lft.to/lastmile_qr_scan"}, "type": "electric_scooter", "lat": 38.90392416666667, "is_disabled": 0, "lon": -77.02805716666667, "is_reserved": 0}, {"name": "6a7d7cb5717e96dd711e9071efc534be", "fusion_lat": 0.0, "fusion_lon": 0.0, "bike_id": "6a7d7cb5717e96dd711e9071efc534be", "rental_uris": {"ios": "https://dc.lft.to/lastmile_qr_scan", "android": "https://dc.lft.to/lastmile_qr_scan"}, "type": "electric_scooter", "lat": 38.920005, "is_disabled": 0, "lon": -77.0239895, "is_reserved": 0}, {"name": "672c9298ffea9343215f7d77c2e3bfab", "fusion_lat": 0.0, "fusion_lon": 0.0, "bike_id": "672c9298ffea9343215f7d77c2e3bfab", "rental_uris": {"ios": "https://dc.lft.to/lastmile_qr_scan", "android": "https://dc.lft.to/lastmile_qr_scan"}, "type": "electric_scooter", "lat": 38.8981745, "is_disabled": 0, "lon": -77.02918983333333, "is_reserved": 0}, {"name": "6b0f7c7bb24aa8e7aa7df0d129ca1677", "fusion_lat": 0.0, "fusion_lon": 0.0, "bike_id": "6b0f7c7bb24aa8e7aa7df0d129ca1677", "rental_uris": {"ios": "https://dc.lft.to/lastmile_qr_scan", "android": "https://dc.lft.to/lastmile_qr_scan"}, "type": "electric_scooter", "lat": 38.9224955, "is_disabled": 0, "lon": -77.04130616666667, "is_reserved": 0},