{"data": {"bikes": [{"name": "e00767742dcf2ee2b41c9e06bb24b18a", "lon": -77.03208916666667, "lat": 38.917836333333334, "type": "electric_scooter", "fusion_lon": 0.0, "is_reserved": 0, "bike_id": "e00767742dcf2ee2b41c9e06bb24b18a", "fusion_lat": 0.0, "is_disabled": 0, "rental_uris": {"ios": "https://dc.lft.to/lastmile_qr_scan", "android": "https://dc.lft.to/lastmile_qr_scan"}}, {"name": "b58dbc6d86676729ecff48e8f2e11998", "lon": -77.03909383333334, "lat": 38.918320333333334, "type": "electric_scooter", "fusion_lon": 0.0, "is_reserved": 0, "bike_id": "b58dbc6d86676729ecff48e8f2e11998", "fusion_lat": 0.0, "is_disabled": 0, "rental_uris": {"ios": "https://dc.lft.to/lastmile_qr_scan", "android": "https://dc.lft.to/lastmile_qr_scan"}}, {"name": "d77fcc14575abd5ceb74e999bc030c0c", "lon": -76.96528433333333, "lat": 38.8763, "type": "electric_scooter", "fusion_lon": 0.0, "is_reserved": 0, "bike_id": "d77fcc14575abd5ceb74e999bc030c0c", "fusion_lat": 0.0, "is_disabled": 0, "rental_uris": {"ios": "https://dc.lft.to/lastmile_qr_scan", "android": "https://dc.lft.to/lastmile_qr_scan"}}, {"name": "1638044ae1f7e13ab0e5d149ea32e1c9", "lon": -77.03875666666667, "lat": 38.93428216666667, "type": "electric_scooter", "fusion_lon": 0.0, "is_reserved": 0, "bike_id": "1638044ae1f7e13ab0e5d149ea32e1c9", "fusion_lat": 0.0, "is_disabled": 0, "rental_uris": {"ios": "https://dc.lft.to/lastmile_qr_scan", "android": "https://dc.lft.to/lastmile_qr_scan"}}, {"name": "27aa75db9b8eacb487251915ae2dd739", "lon": -77.03935366666667, "lat": 38.91761066666667, "type": "electric_scooter", "fusion_lon": 0.0, "is_reserved": 0, "bike_id": "27aa75db9b8eacb487251915ae2dd739", "fusion_lat": 0.0, "is_disabled": 0, "rental_uris": {"ios": "https://dc.lft.to/lastmile_qr_scan", "android": "https://dc.lft.to/lastmile_qr_scan"}}, {"name": "de41845d6d4a04e699e49075e84778fe", "lon": -77.01237916666666, "lat": 38.89843533333333, "type": "electric_scooter", "fusion_lon": 0.0, "is_reserved": 0, "bike_id": "de41845d6d4a04e699e49075e84778fe", "fusion_lat": 0.0, "is_disabled": 0, "rental_uris": {"ios": "https://dc.lft.to/lastmile_qr_scan", "android": "https://dc.lft.to/lastmile_qr_scan"}}, {"name": "d785aefcbdd48f66e4fd643e183d733e", "lon": -77.02954483333333, "lat": 38.928584666666666, "type": "electric_scooter", "fusion_lon": 0.0, "is_reserved": 0, "bike_id": "d785aefcbdd48f66e4fd643e183d733e", "fusion_lat": 0.0, "is_disabled": 0, "rental_uris": {"ios": "https://dc.lft.to/lastmile_qr_scan", "android": "https://dc.lft.to/lastmile_qr_scan"}}, {"name": "80289ff5064fe957c1f633e635acf7ae", "lon": -77.0354885, "lat": 38.917130666666665, "type": "electric_scooter", "fusion_lon": 0.0, "is_reserved": 0, "bike_id": "80289ff5064fe957c1f633e635acf7ae", "fusion_lat": 0.0, "is_disabled": 0, "rental_uris": {"ios": "https://dc.lft.to/lastmile_qr_scan", "android": "https://dc.lft.to/lastmile_qr_scan"}}, {"name": "fe93025fb3ab6591f651a6e53601d2c5", "lon": -77.04357066666667, "lat": 38.910469, "type": "electric_scooter", "fusion_lon": 0.0, "is_reserved": 0, "bike_id": "fe93025fb3ab6591f651a6e53601d2c5", "fusion_lat": 0.0, "is_disabled": 0, "rental_uris": {"ios": "https://dc.lft.to/lastmile_qr_scan", "android": "https://dc.lft.to/lastmile_qr_scan"}}, {"name": "786b49327373a525a1c3e3bfeeda4719", "lon": -77.03344383333334, "lat": 38.91709133333333, "type": "electric_scooter", "fusion_lon": 0.0, "is_reserved": 0, "bike_id": "786b49327373a525a1c3e3bfeeda4719", "fusion_lat": 0.0, "is_disabled": 0, "rental_uris": {"ios": "https://dc.lft.to/lastmile_qr_scan", "android": "https://dc.lft.to/lastmile_qr_scan"}}, {"name": "7ecda4d8edb2c75290b58db9d935a5b3", "lon": -77.04025016666667, "lat": 38.900058, "type": "electric_scooter", "fusion_lon": 0.0, "is_reserved": 0, "bike_id": "7ecda4d8edb2c75290b58db9d935a5b3", "fusion_lat": 0.0, "is_disabled": 0, "rental_uris": {"ios": "https://dc.lft.to/lastmile_qr_scan", "android": "https://dc.lft.to/lastmile_qr_scan"}}, {"name": "42d4e1e6eeae387c6be6cfe85dfe8efe", "lon": -77.02996066666667, "lat": 38.902743666666666, "type": "electric_scooter", "fusion_lon": 0.0, "is_reserved": 0, "bike_id": "42d4e1e6eeae387c6be6cfe85dfe8efe", "fusion_lat": 0.0, "is_disabled": 0, "rental_uris": {"ios": "https://dc.lft.to/lastmile_qr_scan", "android": "https://dc.lft.to/lastmile_qr_scan"}}, {"name": "3d31c865e50dc4940f7c0e9c494e00fe", "lon": -77.0616485, "lat": 38.90519416666667, "type": "electric_bike", "fusion_lon": 0.0, "is_reserved": 0, "bike_id": "3d31c865e50dc4940f7c0e9c494e00fe", "fusion_lat": 0.0, "is_disabled": 0, "rental_uris": {"ios": "https://dc.lft.to/lastmile_qr_scan", "android": "https://dc.lft.to/lastmile_qr_scan"}}, {"name": "55810064ead95498b69184a23cc53aad", "lon": -77.03261033333334, "lat": 38.938893, "type": "electric_scooter", "fusion_lon": 0.0, "is_reserved": 0, "bike_id": "55810064ead95498b69184a23cc53aad", "fusion_lat": 0.0, "is_disabled": 0, "rental_uris": {"ios": "https://dc.lft.to/lastmile_qr_scan", "android": "https://dc.lft.to/lastmile_qr_scan"}}, {"name": "c606a7bfef21a91710982c593d213796", "lon": -77.0521435, "lat": 38.92481216666667, "type": "electric_scooter", "fusion_lon": 0.0, "is_reserved": 0, "bike_id": "c606a7bfef21a91710982c593d213796", "fusion_lat": 0.0, "is_disabled": 0, "rental_uris": {"ios": "https://dc.lft.to/lastmile_qr_scan", "android": "https://dc.lft.to/lastmile_qr_scan"}}, {"name": "c11a8bcc69a37eb368143d9e604e6fc8", "lon": -76.9937255, "lat": 38.971878, "type": "electric_bike", "fusion_lon": 0.0, "is_reserved": 0, "bike_id": "c11a8bcc69a37eb368143d9e604e6fc8", "fusion_lat": 0.0, "is_disabled": 0, "rental_uris": {"ios": "https://dc.lft.to/lastmile_qr_scan", "android": "https://dc.lft.to/lastmile_qr_scan"}}, {"name": "16a12323980c61926bd7a504de6b8688", "lon": -77.07332216666667, "lat": 38.9261, "type": "electric_scooter", "fusion_lon": 0.0, "is_reserved": 0, "bike_id": "16a12323980c61926bd7a504de6b8688", "fusion_lat": 0.0, "is_disabled": 0, "rental_uris": {"ios": "https://dc.lft.to/lastmile_qr_scan", "android": "https://dc.lft.to/lastmile_qr_scan"}}, {"name": "53003136530348abedbad38c3677fe05", "lon": -77.0248695, "lat": 38.9375685, "type": "electric_scooter", "fusion_lon": 0.0, "is_reserved": 0, "bike_id": "53003136530348abedbad38c3677fe05", "fusion_lat": 0.0, "is_disabled": 0, "rental_uris": {"ios": "https://dc.lft.to/lastmile_qr_scan", "android": "https://dc.lft.to/lastmile_qr_scan"}}, {"name": "f7063baaec0881841cea9de993a3888c", "lon": -77.05742066666667, "lat": 38.933896833333336, "type": "electric_scooter", "fusion_lon": 0.0, "is_reserved": 0, "bike_id": "f7063baaec0881841cea9de993a3888c", "fusion_lat": 0.0, "is_disabled": 0, "rental_uris": {"ios": "https://dc.lft.to/lastmile_qr_scan", "android": "https://dc.lft.to/lastmile_qr_scan"}}, {"name": "a6ec57c6c08538f411ed2fd2bb3e41d5", "lon": -77.05143566666666, "lat": 38.90587216666667, "type": "electric_scooter", "fusion_lon": 0.0, "is_reserved": 0, "bike_id": "a6ec57c6c08538f411ed2fd2bb3e41d5", "fusion_lat": 0.0, "is_disabled": 0, "rental_uris": {"ios": "https://dc.lft.to/lastmile_qr_scan", "android": "https://dc.lft.to/lastmile_qr_scan"}}, {"name": "f2c8862a8ce03052614d54b17ed00c75", "lon": -76.94877416666667, "lat": 38.895515, "type": "electric_scooter", "fusion_lon": 0.0, "is_reserved": 0, "bike_id": "f2c8862a8ce03052614d54b17ed00c75", "fusion_lat": 0.0, "is_disabled": 0, "rental_uris": {"ios": "https://dc.lft.to/lastmile_qr_scan", "android": "https://dc.lft.to/lastmile_qr_scan"}}, {"name": "3946e53d0746cea5efcb8b1867e67487", "lon": -77.0451445, "lat": 38.89224016666667, "type": "electric_scooter", "fusion_lon": 0.0, "is_reserved": 0, "bike_id": "3946e53d0746cea5efcb8b1867e67487", "fusion_lat": 0.0, "is_disabled": 0, "rental_uris": {"ios": "https://dc.lft.to/lastmile_qr_scan", "android": "https://dc.lft.to/lastmile_qr_scan"}}, {"name": "49bbe08b218239137c123a6f287bd91a", "lon": -77.02683, "lat": 38.912659166666664, "type": "electric_scooter", "fusion_lon": 0.0, "is_reserved": 0, "bike_id": "49bbe08b218239137c123a6f287bd91a", "fusion_lat": 0.0, "is_disabled": 0, "rental_uris": {"ios": "https://dc.lft.to/lastmile_qr_scan", "android": "https://dc.lft.to/lastmile_qr_scan"}}, {"name": "0c2bb978d9e0e82e45d8cf6e18c70a7e", "lon": -77.03213083333333, "lat": 38.91782933333333, "type": "electric_scooter", "fusion_lon": 0.0, "is_reserved": 0, "bike_id": "0c2bb978d9e0e82e45d8cf6e18c70a7e", "fusion_lat": 0.0, "is_disabled": 0, "rental_uris": {"ios": "https://dc.lft.to/lastmile_qr_scan", "android": "https://dc.lft.to/lastmile_qr_scan"}}, {"name": "32fef50da106a5dcd8730eb66657fd2f", "lon": -77.02986266666667, "lat": 38.923767833333336, "type": "electric_scooter", "fusion_lon": 0.0, "is_reserved": 0, "bike_id": "32fef50da106a5dcd8730eb66657fd2f", "fusion_lat": 0.0, "is_disabled": 0, "rental_uris": {"ios": "https://dc.lft.to/lastmile_qr_scan", "android": "https://dc.lft.to/lastmile_qr_scan"}}, {"name": "e6aef90280f41655b960896fed94638f", "lon": -77.03856866666666, "lat": 38.903829333333334, "type": "electric_scooter", "fusion_lon": 0.0, "is_reserved": 0, "bike_id": "e6aef90280f41655b960896fed94638f", "fusion_lat": 0.0, "is_disabled": 0, "rental_uris": {"ios": "https://dc.lft.to/lastmile_qr_scan", "android": "https://dc.lft.to/lastmile_qr_scan"}}, {"name": "188aeb04bd819fa5bf6463276ff40b25", "lon": -77.01834283333334, "lat": 38.942040166666665, "type": "electric_scooter", "fusion_lon": 0.0, "is_reserved": 0, "bike_id": "188aeb04bd819fa5bf6463276ff40b25", "fusion_lat": 0.0, "is_disabled": 0, "rental_uris": {"ios": "https://dc.lft.to/lastmile_qr_scan", "android": "https://dc.lft.to/lastmile_qr_scan"}}, {"name": "49c44c77794ed792fe8055e5435abe4f", "lon": -76.98373, "lat": 38.915406, "type": "electric_scooter", "fusion_lon": 0.0, "is_reserved": 0, "bike_id": "49c44c77794ed792fe8055e5435abe4f", "fusion_lat": 0.0, "is_disabled": 0, "rental_uris": {"ios": "https://dc.lft.to/lastmile_qr_scan", "android": "https://dc.lft.to/lastmile_qr_scan"}}, {"name": "9a9d7d3258deaf5dde18e8636edf1385", "lon": -77.03905366666666, "lat": 38.918307, "type": "electric_scooter", "fusion_lon": 0.0, "is_reserved": 0, "bike_id": "9a9d7d3258deaf5dde18e8636edf1385", "fusion_lat": 0.0, "is_disabled": 0, "rental_uris": {"ios": "https://dc.lft.to/lastmile_qr_scan", "android": "https://dc.lft.to/lastmile_qr_scan"}}, {"name": "1b123b2c7b07eaa6bb4ad732656cae9d", "lon": -77.0313065, "lat": 38.91925466666667, "type": "electric_scooter", "fusion_lon": 0.0, "is_reserved": 0, "bike_id": "1b123b2c7b07eaa6bb4ad732656cae9d", "fusion_lat": 0.0, "is_disabled": 0, "rental_uris": {"ios": "https://dc.lft.to/lastmile_qr_scan", "android": "https://dc.lft.to/lastmile_qr_scan"}}, {"name": "22fbb6e82807d4f79df9f161ff9482c7", "lon": -77.03737266666667, "lat": 38.926914833333335, "type": "electric_scooter", "fusion_lon": 0.0, "is_reserved": 0, "bike_id": "22fbb6e82807d4f79df9f161ff9482c7", "fusion_lat": 0.0, "is_disabled": 0, "rental_uris": {"ios": "https://dc.lft.to/lastmile_qr_scan", "android": "https://dc.lft.to/lastmile_qr_scan"}}, {"name": "a02c8c93461e88b347e5592714092cac", "lon": -77.03956766666667, "lat": 38.930653166666666, "type": "electric_scooter", "fusion_lon": 0.0, "is_reserved": 0, "bike_id": "a02c8c93461e88b347e5592714092cac", "fusion_lat": 0.0, "is_disabled": 0, "rental_uris": {"ios": "https://dc.lft.to/lastmile_qr_scan", "android": "https://dc.lft.to/lastmile_qr_scan"}}, {"name": "7d8755b034e4ab445f2a2d48e241586c", "lon": -76.99648416666666, "lat": 38.988291333333336, "type": "electric_bike", "fusion_lon": 0.0, "is_reserved": 0, "bike_id": "7d8755b034e4ab445f2a2d48e241586c", "fusion_lat": 0.0, "is_disabled": 0, "rental_uris": {"ios": "https://dc.lft.to/lastmile_qr_scan", "android": "https://dc.lft.to/lastmile_qr_scan"}}, {"name": "3b78d50f1820d0765068e06fb04161f7", "lon": -77.02000433333333, "lat": 38.88595733333333, "type": "electric_scooter", "fusion_lon": 0.0, "is_reserved": 0, "bike_id": "3b78d50f1820d0765068e06fb04161f7", "fusion_lat": 0.0, "is_disabled": 0, "rental_uris": {"ios": "https://dc.lft.to/lastmile_qr_scan", "android": "https://dc.lft.to/lastmile_qr_scan"}}, {"name": "c5e0afc58d4440e0b82e3c710526279a", "lon": -77.05224133333333, "lat": 38.90319733333333, "type": "electric_scooter", "fusion_lon": 0.0, "is_reserved": 0, "bike_id": "c5e0afc58d4440e0b82e3c710526279a", "fusion_lat": 0.0, "is_disabled": 0, "rental_uris": {"ios": "https://dc.lft.to/lastmile_qr_scan", "android": "https://dc.lft.to/lastmile_qr_scan"}}, {"name": "ff72f2a7a03787270210a25aace8c3d6", "lon": -77.04468633333333, "lat": 38.9001165, "type": "electric_scooter", "fusion_lon": 0.0, "is_reserved": 0, "bike_id": "ff72f2a7a03787270210a25aace8c3d6", "fusion_lat": 0.0, "is_disabled": 0, "rental_uris": {"ios": "https://dc.lft.to/lastmile_qr_scan", "android": "https://dc.lft.to/lastmile_qr_scan"}}, {"name": "418b4dc9c45dcd624eef51ef40eb0b27", "lon": -76.99504816666666, "lat": 38.909809, "type": "electric_scooter", "fusion_lon": 0.0, "is_reserved": 0, "bike_id": "418b4dc9c45dcd624eef51ef40eb0b27", "fusion_lat": 0.0, "is_disabled": 0, "rental_uris": {"ios": "https://dc.lft.to/lastmile_qr_scan", "android": "https://dc.lft.to/lastmile_qr_scan"}}, {"name": "5a02fbd7018e3709183139325dbcdbae", "lon": -77.03438983333334, "lat": 38.90512433333333, "type": "electric_bike", "fusion_lon": 0.0, "is_reserved": 0, "bike_id": "5a02fbd7018e3709183139325dbcdbae", "fusion_lat": 0.0, "is_disabled": 0, "rental_uris": {"ios": "https://dc.lft.to/lastmile_qr_scan", "android": "https://dc.lft.to/lastmile_qr_scan"}}, {"name": "0a7da6ce5427a8b8f4bb0e969b145af8", "lon": -77.03209016666666, "lat": 38.895926, "type": "electric_scooter", "fusion_lon": 0.0, "is_reserved": 0, "bike_id": "0a7da6ce5427a8b8f4bb0e969b145af8", "fusion_lat": 0.0, "is_disabled": 0, "rental_uris": {"ios": "https://dc.lft.to/lastmile_qr_scan", "android": "https://dc.lft.to/lastmile_qr_scan"}}, {"name": "4eb749a8834ec8dd32843297b0aee55f", "lon": -77.05857816666666, "lat": 38.936088166666664, "type": "electric_scooter", "fusion_lon": 0.0, "is_reserved": 0, "bike_id": "4eb749a8834ec8dd32843297b0aee55f", "fusion_lat": 0.0, "is_disabled": 0, "rental_uris": {"ios": "https://dc.lft.to/lastmile_qr_scan", "android": "https://dc.lft.to/lastmile_qr_scan"}}, {"name": "c527db26392c5d6e3fa4d9ffcd7b159e", "lon": -77.007395, "lat": 38.898398666666665, "type": "electric_scooter", "fusion_lon": 0.0, "is_reserved": 0, "bike_id": "c527db26392c5d6e3fa4d9ffcd7b159e", "fusion_lat": 0.0, "is_disabled": 0, "rental_uris": {"ios": "https://dc.lft.to/lastmile_qr_scan", "android": "https://dc.lft.to/lastmile_qr_scan"}}, {"name": "53ea30e5fadc4d386ae1f66ad64c68ce", "lon": -77.03263133333333, "lat": 38.9388155, "type": "electric_scooter", "fusion_lon": 0.0, "is_reserved": 0, "bike_id": "53ea30e5fadc4d386ae1f66ad64c68ce", "fusion_lat": 0.0, "is_disabled": 0, "rental_uris": {"ios": "https://dc.lft.to/lastmile_qr_scan", "android": "https://dc.lft.to/lastmile_qr_scan"}}, {"name": "43cea8d44c15f985efabe58d59c42b5a", "lon": -77.0757935, "lat": 38.938655, "type": "electric_scooter", "fusion_lon": 0.0, "is_reserved": 0, "bike_id": "43cea8d44c15f985efabe58d59c42b5a", "fusion_lat": 0.0, "is_disabled": 0, "rental_uris": {"ios": "https://dc.lft.to/lastmile_qr_scan", "android": "https://dc.lft.to/lastmile_qr_scan"}}, {"name": "ac7613da6273d340373c90d0fb38248c", "lon": -77.052562, "lat": 38.923783, "type": "electric_scooter", "fusion_lon": 0.0, "is_reserved": 0, "bike_id": "ac7613da6273d340373c90d0fb38248c", "fusion_lat": 0.0, "is_disabled": 0, "rental_uris": {"ios": "https://dc.lft.to/lastmile_qr_scan", "android": "https://dc.lft.to/lastmile_qr_scan"}}, {"name": "62649adaea3714d54005f1b7b03e661f", "lon": -77.0222895, "lat": 38.89911033333333, "type": "electric_scooter", "fusion_lon": 0.0, "is_reserved": 0, "bike_id": "62649adaea3714d54005f1b7b03e661f", "fusion_lat": 0.0, "is_disabled": 0, "rental_uris": {"ios": "https://dc.lft.to/lastmile_qr_scan", "android": "https://dc.lft.to/lastmile_qr_scan"}}, {"name": "49c7dc5360b2b28594eb7f05b75d08be", "lon": -77.037038, "lat": 38.927755166666664, "type": "electric_scooter", "fusion_lon": 0.0, "is_reserved": 0, "bike_id": "49c7dc5360b2b28594eb7f05b75d08be", "fusion_lat": 0.0, "is_disabled": 0, "rental_uris": {"ios": "https://dc.lft.to/lastmile_qr_scan", "android": "https://dc.lft.to/lastmile_qr_scan"}}, {"name": "2a3bd5373a15e56bfa25192957bd9445", "lon": -77.0307755, "lat": 38.90424633333333, "type": "electric_scooter", "fusion_lon": 0.0, "is_reserved": 0, "bike_id": "2a3bd5373a15e56bfa25192957bd9445", "fusion_lat": 0.0, "is_disabled": 0, "rental_uris": {"ios": "https://dc.lft.to/lastmile_qr_scan", "android": "https://dc.lft.to/lastmile_qr_scan"}}, {"name": "1ebad0e18525ad3165c9c402313289c9", "lon": -77.01593733333333, "lat": 38.949405666666664, "type": "electric_scooter", "fusion_lon": 0.0, "is_reserved": 0, "bike_id": "1ebad0e18525ad3165c9c402313289c9", "fusion_lat": 0.0, "is_disabled": 0, "rental_uris": {"ios": "https://dc.lft.to/lastmile_qr_scan", "android": "https://dc.lft.to/lastmile_qr_scan"}}, {"name": "b1bede611363feeed550f3f6e0361895", "lon": -77.027831, "lat": 38.9007415, "type": "electric_scooter", "fusion_lon": 0.0, "is_reserved": 0, "bike_id": "b1bede611363feeed550f3f6e0361895", "fusion_lat": 0.0, "is_disabled": 0, "rental_uris": {"ios": "https://dc.lft.to/lastmile_qr_scan", "android": "https://dc.lft.to/lastmile_qr_scan"}}, {"name": "ae4aa26fe001fe2103deb1e229c52a7e", "lon": -77.0005785, "lat": 38.89168383333333, "type": "electric_scooter", "fusion_lon": 0.0, "is_reserved": 0, "bike_id": "ae4aa26fe001fe2103deb1e229c52a7e", "fusion_lat": 0.0, "is_disabled": 0, "rental_uris": {"ios": "https://dc.lft.to/lastmile_qr_scan", "android": "https://dc.lft.to/lastmile_qr_scan"}}, {"name": "59899e211ca5aeba798fa1c254bc0b87", "lon": -77.05119616666667, "lat": 38.923457166666665, "type": "electric_scooter", "fusion_lon": 0.0, "is_reserved": 0, "bike_id": "59899e211ca5aeba798fa1c254bc0b87", "fusion_lat": 0.0, "is_disabled": 0, "rental_uris": {"ios": "https://dc.lft.to/lastmile_qr_scan", "android": "https://dc.lft.to/lastmile_qr_scan"}}, {"name": "0a49f595460257b9245ce0200c4ffa4b", "lon": -77.02429866666667, "lat": 38.9027915, "type": "electric_scooter", "fusion_lon": 0.0, "is_reserved": 0, "bike_id": "0a49f595460257b9245ce0200c4ffa4b", "fusion_lat": 0.0, "is_disabled": 0, "rental_uris": {"ios": "https://dc.lft.to/lastmile_qr_scan", "android": "https://dc.lft.to/lastmile_qr_scan"}}, {"name": "1d69cffd5738037489c066ae138c9a7e", "lon": -77.009338, "lat": 38.89984716666667, "type": "electric_scooter", "fusion_lon": 0.0, "is_reserved": 0, "bike_id": "1d69cffd5738037489c066ae138c9a7e", "fusion_lat": 0.0, "is_disabled": 0, "rental_uris": {"ios": "https://dc.lft.to/lastmile_qr_scan", "android": "https://dc.lft.to/lastmile_qr_scan"}}, {"name": "5c77a47e3a6044af05ee7a474deda9f4", "lon": -76.99864716666667, "lat": 38.900271333333336, "type": "electric_scooter", "fusion_lon": 0.0, "is_reserved": 0, "bike_id": "5c77a47e3a6044af05ee7a474deda9f4", "fusion_lat": 0.0, "is_disabled": 0, "rental_uris": {"ios": "https://dc.lft.to/lastmile_qr_scan", "android": "https://dc.lft.to/lastmile_qr_scan"}}, {"name": "c35308d4d5829fcd0337863f3ffab866", "lon": -76.9810885, "lat": 38.87732616666667, "type": "electric_bike", "fusion_lon": 0.0, "is_reserved": 0, "bike_id": "c35308d4d5829fcd0337863f3ffab866", "fusion_lat": 0.0, "is_disabled": 0, "rental_uris": {"ios": "https://dc.lft.to/lastmile_qr_scan", "android": "https://dc.lft.to/lastmile_qr_scan"}}, {"name": "8dd41883386b267ecbfc9d0576e20579", "lon": -77.03256316666666, "lat": 38.9373835, "type": "electric_scooter", "fusion_lon": 0.0, "is_reserved": 0, "bike_id": "8dd41883386b267ecbfc9d0576e20579", "fusion_lat": 0.0, "is_disabled": 0, "rental_uris": {"ios": "https://dc.lft.to/lastmile_qr_scan", "android": "https://dc.lft.to/lastmile_qr_scan"}}, {"name": "1e22c4a45c817d0cc8058841885c2d40", "lon": -77.005943, "lat": 38.87554166666666, "type": "electric_scooter", "fusion_lon": 0.0, "is_reserved": 0, "bike_id": "1e22c4a45c817d0cc8058841885c2d40", "fusion_lat": 0.0, "is_disabled": 0, "rental_uris": {"ios": "https://dc.lft.to/lastmile_qr_scan", "android": "https://dc.lft.to/lastmile_qr_scan"}}, {"name": "216635df2647e34ccf8ede70d23cf803", "lon": -76.99347116666667, "lat": 38.91485183333333, "type": "electric_scooter", "fusion_lon": 0.0, "is_reserved": 0, "bike_id": "216635df2647e34ccf8ede70d23cf803", "fusion_lat": 0.0, "is_disabled": 0, "rental_uris": {"ios": "https://dc.lft.to/lastmile_qr_scan", "android": "https://dc.lft.to/lastmile_qr_scan"}}, {"name": "9d85d1167d5389e461127164762459a6", "lon": -77.0444185, "lat": 38.90361516666667, "type": "electric_scooter", "fusion_lon": 0.0, "is_reserved": 0, "bike_id": "9d85d1167d5389e461127164762459a6", "fusion_lat": 0.0, "is_disabled": 0, "rental_uris": {"ios": "https://dc.lft.to/lastmile_qr_scan", "android": "https://dc.lft.to/lastmile_qr_scan"}}, {"name": "aa637dc94e9dda773b824f41efaa350e", "lon": -77.067086, "lat": 38.950635166666665, "type": "electric_scooter", "fusion_lon": 0.0, "is_reserved": 0, "bike_id": "aa637dc94e9dda773b824f41efaa350e", "fusion_lat": 0.0, "is_disabled": 0, "rental_uris": {"ios": "https://dc.lft.to/lastmile_qr_scan", "android": "https://dc.lft.to/lastmile_qr_scan"}}, {"name": "79cb750ebb462ad682925c2caa93b62a", "lon": -77.04806683333334, "lat": 38.900505, "type": "electric_scooter", "fusion_lon": 0.0, "is_reserved": 0, "bike_id": "79cb750ebb462ad682925c2caa93b62a", "fusion_lat": 0.0, "is_disabled": 0, "rental_uris": {"ios": "https://dc.lft.to/lastmile_qr_scan", "android": "https://dc.lft.to/lastmile_qr_scan"}}, {"name": "6a5a87f87be92cad15f63b7a8eb8db67", "lon": -77.0435145, "lat": 38.905218166666664, "type": "electric_scooter", "fusion_lon": 0.0, "is_reserved": 0, "bike_id": "6a5a87f87be92cad15f63b7a8eb8db67", "fusion_lat": 0.0, "is_disabled": 0, "rental_uris": {"ios": "https://dc.lft.to/lastmile_qr_scan", "android": "https://dc.lft.to/lastmile_qr_scan"}}, {"name": "2470b315787095ea32de74b245d54558", "lon": -77.038264, "lat": 38.92471, "type": "electric_scooter", "fusion_lon": 0.0, "is_reserved": 0, "bike_id": "2470b315787095ea32de74b245d54558", "fusion_lat": 0.0, "is_disabled": 0, "rental_uris": {"ios": "https://dc.lft.to/lastmile_qr_scan", "android": "https://dc.lft.to/lastmile_qr_scan"}}, {"name": "782a357a6e1f09c39f9906bd0159e2f4", "lon": -77.18742, "lat": 38.89353883333333, "type": "electric_bike", "fusion_lon": 0.0, "is_reserved": 0, "bike_id": "782a357a6e1f09c39f9906bd0159e2f4", "fusion_lat": 0.0, "is_disabled": 0, "rental_uris": {"ios": "https://dc.lft.to/lastmile_qr_scan", "android": "https://dc.lft.to/lastmile_qr_scan"}}, {"name": "071568d0040b025f44152a47ec7cc01b", "lon": -77.034902, "lat": 38.924800833333336, "type": "electric_scooter", "fusion_lon": 0.0, "is_reserved": 0, "bike_id": "071568d0040b025f44152a47ec7cc01b", "fusion_lat": 0.0, "is_disabled": 0, "rental_uris": {"ios": "https://dc.lft.to/lastmile_qr_scan", "android": "https://dc.lft.to/lastmile_qr_scan"}}, {"name": "60f7f301e4ac8b08714ffde77229e8dc", "lon": -77.0439395, "lat": 38.911076333333334, "type": "electric_scooter", "fusion_lon": 0.0, "is_reserved": 0, "bike_id": "60f7f301e4ac8b08714ffde77229e8dc", "fusion_lat": 0.0, "is_disabled": 0, "rental_uris": {"ios": "https://dc.lft.to/lastmile_qr_scan", "android": "https://dc.lft.to/lastmile_qr_scan"}}, {"name": "9607aae7325836d3c4d28666c998fcb7", "lon": -77.03368633333334, "lat": 38.935894, "type": "electric_scooter", "fusion_lon": 0.0, "is_reserved": 0, "bike_id": "9607aae7325836d3c4d28666c998fcb7", "fusion_lat": 0.0, "is_disabled": 0, "rental_uris": {"ios": "https://dc.lft.to/lastmile_qr_scan", "android": "https://dc.lft.to/lastmile_qr_scan"}}, {"name": "eae87b8a761ac95552b2f1adfac4c1d4", "lon": -77.029629, "lat": 38.923305, "type": "electric_scooter", "fusion_lon": 0.0, "is_reserved": 0, "bike_id": "eae87b8a761ac95552b2f1adfac4c1d4", "fusion_lat": 0.0, "is_disabled": 0, "rental_uris": {"ios": "https://dc.lft.to/lastmile_qr_scan", "android": "https://dc.lft.to/lastmile_qr_scan"}}, {"name": "336fc505639477c4e1b3b09a76cff3f8", "lon": -76.97474233333334, "lat": 38.86587983333333, "type": "electric_scooter", "fusion_lon": 0.0, "is_reserved": 0, "bike_id": "336fc505639477c4e1b3b09a76cff3f8", "fusion_lat": 0.0, "is_disabled": 0, "rental_uris": {"ios": "https://dc.lft.to/lastmile_qr_scan", "android": "https://dc.lft.to/lastmile_qr_scan"}}, {"name": "9b542811e7ee2f32e68365a6a50bae37", "lon": -77.00757183333333, "lat": 38.910268, "type": "electric_scooter", "fusion_lon": 0.0, "is_reserved": 0, "bike_id": "9b542811e7ee2f32e68365a6a50bae37", "fusion_lat": 0.0, "is_disabled": 0, "rental_uris": {"ios": "https://dc.lft.to/lastmile_qr_scan", "android": "https://dc.lft.to/lastmile_qr_scan"}}, {"name": "5efb9d97b351dd7105348936d0497f6c", "lon": -77.0387085, "lat": 38.92154766666667, "type": "electric_scooter", "fusion_lon": 0.0, "is_reserved": 0, "bike_id": "5efb9d97b351dd7105348936d0497f6c", "fusion_lat": 0.0, "is_disabled": 0, "rental_uris": {"ios": "https://dc.lft.to/lastmile_qr_scan", "android": "https://dc.lft.to/lastmile_qr_scan"}}, {"name": "a00b05d26ba3136a841e36f122c0aefe", "lon": -77.04346333333334, "lat": 38.92350666666667, "type": "electric_scooter", "fusion_lon": 0.0, "is_reserved": 0, "bike_id": "a00b05d26ba3136a841e36f122c0aefe", "fusion_lat": 0.0, "is_disabled": 0, "rental_uris": {"ios": "https://dc.lft.to/lastmile_qr_scan", "android": "https://dc.lft.to/lastmile_qr_scan"}}, {"name": "f0dc2acfa86c4ac3ebd1e5196e4d2756", "lon": -77.01544016666666, "lat": 38.885731166666666, "type": "electric_scooter", "fusion_lon": 0.0, "is_reserved": 0, "bike_id": "f0dc2acfa86c4ac3ebd1e5196e4d2756", "fusion_lat": 0.0, "is_disabled": 0, "rental_uris": {"ios": "https://dc.lft.to/lastmile_qr_scan", "android": "https://dc.lft.to/lastmile_qr_scan"}}, {"name": "6045a7b9bff52d1ee2f3cb2690a88e0c", "lon": -77.00795866666667, "lat": 38.949220833333335, "type": "electric_bike", "fusion_lon": 0.0, "is_reserved": 0, "bike_id": "6045a7b9bff52d1ee2f3cb2690a88e0c", "fusion_lat": 0.0, "is_disabled": 0, "rental_uris": {"ios": "https://dc.lft.to/lastmile_qr_scan", "android": "https://dc.lft.to/lastmile_qr_scan"}}, {"name": "93aef158cb1ab03f43961f80bfda6538", "lon": -77.06285466666667, "lat": 38.964996, "type": "electric_scooter", "fusion_lon": 0.0, "is_reserved": 0, "bike_id": "93aef158cb1ab03f43961f80bfda6538", "fusion_lat": 0.0, "is_disabled": 0, "rental_uris": {"ios": "https://dc.lft.to/lastmile_qr_scan", "android": "https://dc.lft.to/lastmile_qr_scan"}}, {"name": "1b02b7044d361572a155feaaf96957ce", "lon": -77.04366033333334, "lat": 38.892215666666665, "type": "electric_scooter", "fusion_lon": 0.0, "is_reserved": 0, "bike_id": "1b02b7044d361572a155feaaf96957ce", "fusion_lat": 0.0, "is_disabled": 0, "rental_uris": {"ios": "https://dc.lft.to/lastmile_qr_scan", "android": "https://dc.lft.to/lastmile_qr_scan"}}, {"name": "00fee33464e404272f2c0bdd9e284e8d", "lon": -77.02959516666667, "lat": 38.905302666666664, "type": "electric_scooter", "fusion_lon": 0.0, "is_reserved": 0, "bike_id": "00fee33464e404272f2c0bdd9e284e8d", "fusion_lat": 0.0, "is_disabled": 0, "rental_uris": {"ios": "https://dc.lft.to/lastmile_qr_scan", "android": "https://dc.lft.to/lastmile_qr_scan"}}, {"name": "7cbebd5173301b9959e219a398835c60", "lon": -77.0350455, "lat": 38.9170445, "type": "electric_scooter", "fusion_lon": 0.0, "is_reserved": 0, "bike_id": "7cbebd5173301b9959e219a398835c60", "fusion_lat": 0.0, "is_disabled": 0, "rental_uris": {"ios": "https://dc.lft.to/lastmile_qr_scan", "android": "https://dc.lft.to/lastmile_qr_scan"}}, {"name": "ddf15c734fef318f79e7e1cbe069a192", "lon": -77.05012016666667, "lat": 38.90624233333333, "type": "electric_scooter", "fusion_lon": 0.0, "is_reserved": 0, "bike_id": "ddf15c734fef318f79e7e1cbe069a192", "fusion_lat": 0.0, "is_disabled": 0, "rental_uris": {"ios": "https://dc.lft.to/lastmile_qr_scan", "android": "https://dc.lft.to/lastmile_qr_scan"}}, {"name": "8dfc30b46464d220f1ca59d22ad22632", "lon": -77.02189783333333, "lat": 38.90830866666667, "type": "electric_scooter", "fusion_lon": 0.0, "is_reserved": 0, "bike_id": "8dfc30b46464d220f1ca59d22ad22632", "fusion_lat": 0.0, "is_disabled": 0, "rental_uris": {"ios": "https://dc.lft.to/lastmile_qr_scan", "android": "https://dc.lft.to/lastmile_qr_scan"}}, {"name": "48e5f87d0bbd1d8a531f2960876fc418", "lon": -77.04688216666666, "lat": 39.023942166666664, "type": "electric_bike", "fusion_lon": 0.0, "is_reserved": 0, "bike_id": "48e5f87d0bbd1d8a531f2960876fc418", "fusion_lat": 0.0, "is_disabled": 0, "rental_uris": {"ios": "https://dc.lft.to/lastmile_qr_scan", "android": "https://dc.lft.to/lastmile_qr_scan"}}, {"name": "e50d1b13edfec91c99380ea756db8072", "lon": -77.03648983333333, "lat": 38.92340216666667, "type": "electric_scooter", "fusion_lon": 0.0, "is_reserved": 0, "bike_id": "e50d1b13edfec91c99380ea756db8072", "fusion_lat": 0.0, "is_disabled": 0, "rental_uris": {"ios": "https://dc.lft.to/lastmile_qr_scan", "android": "https://dc.lft.to/lastmile_qr_scan"}}, {"name": "f8b33c907b467d4cc71d28fb5f9843cf", "lon": -77.04602966666667, "lat": 38.902762833333334, "type": "electric_scooter", "fusion_lon": 0.0, "is_reserved": 0, "bike_id": "f8b33c907b467d4cc71d28fb5f9843cf", "fusion_lat": 0.0, "is_disabled": 0, "rental_uris": {"ios": "https://dc.lft.to/lastmile_qr_scan", "android": "https://dc.lft.to/lastmile_qr_scan"}}, {"name": "0ac6dcc0dcdff869407f61dcc1da312b", "lon": -77.00194866666666, "lat": 38.902461333333335, "type": "electric_scooter", "fusion_lon": 0.0, "is_reserved": 0, "bike_id": "0ac6dcc0dcdff869407f61dcc1da312b", "fusion_lat": 0.0, "is_disabled": 0, "rental_uris": {"ios": "https://dc.lft.to/lastmile_qr_scan", "android": "https://dc.lft.to/lastmile_qr_scan"}}, {"name": "f743eff5cefa8c7674aacf9a05344efa", "lon": -77.01209833333333, "lat": 38.87090033333333, "type": "electric_scooter", "fusion_lon": 0.0, "is_reserved": 0, "bike_id": "f743eff5cefa8c7674aacf9a05344efa", "fusion_lat": 0.0, "is_disabled": 0, "rental_uris": {"ios": "https://dc.lft.to/lastmile_qr_scan", "android": "https://dc.lft.to/lastmile_qr_scan"}}, {"name": "6be5ba3a450b3ed59eba625ecd5c7cbb", "lon": -77.03698216666666, "lat": 38.93562033333333, "type": "electric_bike", "fusion_lon": 0.0, "is_reserved": 0, "bike_id": "6be5ba3a450b3ed59eba625ecd5c7cbb", "fusion_lat": 0.0, "is_disabled": 0, "rental_uris": {"ios": "https://dc.lft.to/lastmile_qr_scan", "android": "https://dc.lft.to/lastmile_qr_scan"}}, {"name": "8b3b1c6c4dcda6b0a9070f5b0b76d0b9", "lon": -77.02163416666667, "lat": 38.9261595, "type": "electric_scooter", "fusion_lon": 0.0, "is_reserved": 0, "bike_id": "8b3b1c6c4dcda6b0a9070f5b0b76d0b9", "fusion_lat": 0.0, "is_disabled": 0, "rental_uris": {"ios": "https://dc.lft.to/lastmile_qr_scan", "android": "https://dc.lft.to/lastmile_qr_scan"}}, {"name": "bbdebcceb7ec1e48934cbeea75686d82", "lon": -76.99694716666667, "lat": 38.884258333333335, "type": "electric_scooter", "fusion_lon": 0.0, "is_reserved": 0, "bike_id": "bbdebcceb7ec1e48934cbeea75686d82", "fusion_lat": 0.0, "is_disabled": 0, "rental_uris": {"ios": "https://dc.lft.to/lastmile_qr_scan", "android": "https://dc.lft.to/lastmile_qr_scan"}}, {"name": "52585aaf0eb4810e7bdfb608edaf3a9a", "lon": -77.04265683333334, "lat": 38.9098595, "type": "electric_scooter", "fusion_lon": 0.0, "is_reserved": 0, "bike_id": "52585aaf0eb4810e7bdfb608edaf3a9a", "fusion_lat": 0.0, "is_disabled": 0, "rental_uris": {"ios": "https://dc.lft.to/lastmile_qr_scan", "android": "https://dc.lft.to/lastmile_qr_scan"}}, {"name": "5473d764b0245abafb27c4b4dfbe5532", "lon": -77.0175155, "lat": 38.887433333333334, "type": "electric_scooter", "fusion_lon": 0.0, "is_reserved": 0, "bike_id": "5473d764b0245abafb27c4b4dfbe5532", "fusion_lat": 0.0, "is_disabled": 0, "rental_uris": {"ios": "https://dc.lft.to/lastmile_qr_scan", "android": "https://dc.lft.to/lastmile_qr_scan"}}, {"name": "5bcd78be9ff8d9bb08bcd963c2cf1ac7", "lon": -77.03956716666667, "lat": 38.902611, "type": "electric_scooter", "fusion_lon": 0.0, "is_reserved": 0, "bike_id": "5bcd78be9ff8d9bb08bcd963c2cf1ac7", "fusion_lat": 0.0, "is_disabled": 0, "rental_uris": {"ios": "https://dc.lft.to/lastmile_qr_scan", "android": "https://dc.lft.to/lastmile_qr_scan"}}, {"name": "93f499cd57f0f010dfe67f71a085ef17", "lon": -77.027111, "lat": 38.906711333333334, "type": "electric_scooter", "fusion_lon": 0.0, "is_reserved": 0, "bike_id": "93f499cd57f0f010dfe67f71a085ef17", "fusion_lat": 0.0, "is_disabled": 0, "rental_uris": {"ios": "https://dc.lft.to/lastmile_qr_scan", "android": "https://dc.lft.to/lastmile_qr_scan"}}, {"name": "1ac9988333abb05089cd8ee6d1bed369", "lon": -76.98714883333334, "lat": 38.86628316666667, "type": "electric_scooter", "fusion_lon": 0.0, "is_reserved": 0, "bike_id": "1ac9988333abb05089cd8ee6d1bed369", "fusion_lat": 0.0, "is_disabled": 0, "rental_uris": {"ios": "https://dc.lft.to/lastmile_qr_scan", "android": "https://dc.lft.to/lastmile_qr_scan"}}, {"name": "46a653755410f690e383dc19d3972a5f", "lon": -77.0434545, "lat": 38.90797416666667, "type": "electric_scooter", "fusion_lon": 0.0, "is_reserved": 0, "bike_id": "46a653755410f690e383dc19d3972a5f", "fusion_lat": 0.0, "is_disabled": 0, "rental_uris": {"ios": "https://dc.lft.to/lastmile_qr_scan", "android": "https://dc.lft.to/lastmile_qr_scan"}}, {"name": "75ed2e1765d3fdabb464fbe3615aec8b", "lon": -77.02637316666667, "lat": 38.904262, "type": "electric_scooter", "fusion_lon": 0.0, "is_reserved": 0, "bike_id": "75ed2e1765d3fdabb464fbe3615aec8b", "fusion_lat": 0.0, "is_disabled": 0, "rental_uris": {"ios": "https://dc.lft.to/lastmile_qr_scan", "android": "https://dc.lft.to/lastmile_qr_scan"}}, {"name": "3cca34c4fa84dadee4c6235ef21c1c4c", "lon": -77.03369816666667, "lat": 38.9028155, "type": "electric_scooter", "fusion_lon": 0.0, "is_reserved": 0, "bike_id": "3cca34c4fa84dadee4c6235ef21c1c4c", "fusion_lat": 0.0, "is_disabled": 0, "rental_uris": {"ios": "https://dc.lft.to/lastmile_qr_scan", "android": "https://dc.lft.to/lastmile_qr_scan"}}, {"name": "6b9935295c28491caf95e436382d52a8", "lon": -77.01984866666666, "lat": 38.950300666666664, "type": "electric_scooter", "fusion_lon": 0.0, "is_reserved": 0, "bike_id": "6b9935295c28491caf95e436382d52a8", "fusion_lat": 0.0, "is_disabled": 0, "rental_uris": {"ios": "https://dc.lft.to/lastmile_qr_scan", "android": "https://dc.lft.to/lastmile_qr_scan"}}, {"name": "cd428010c5cbbd86eae7fd3cf7cf7ef8", "lon": -76.94877283333334, "lat": 38.895504, "type": "electric_scooter", "fusion_lon": 0.0, "is_reserved": 0, "bike_id": "cd428010c5cbbd86eae7fd3cf7cf7ef8", "fusion_lat": 0.0, "is_disabled": 0, "rental_uris": {"ios": "https://dc.lft.to/lastmile_qr_scan", "android": "https://dc.lft.to/lastmile_qr_scan"}}, {"name": "f290ce1b96547818f92995279d0ecb01", "lon": -77.0692335, "lat": 38.907761666666666, "type": "electric_scooter", "fusion_lon": 0.0, "is_reserved": 0, "bike_id": "f290ce1b96547818f92995279d0ecb01", "fusion_lat": 0.0, "is_disabled": 0, "rental_uris": {"ios": "https://dc.lft.to/lastmile_qr_scan", "android": "https://dc.lft.to/lastmile_qr_scan"}}, {"name": "9d8321e8d290ad643d1895793dec25c8", "lon": -77.04652783333333, "lat": 38.91592133333333, "type": "electric_scooter", "fusion_lon": 0.0, "is_reserved": 0, "bike_id": "9d8321e8d290ad643d1895793dec25c8", "fusion_lat": 0.0, "is_disabled": 0, "rental_uris": {"ios": "https://dc.lft.to/lastmile_qr_scan", "android": "https://dc.lft.to/lastmile_qr_scan"}}, {"name": "c42406b5d8fe7f69462b0da090d0be09", "lon": -77.02809833333333, "lat": 38.88179383333333, "type": "electric_scooter", "fusion_lon": 0.0, "is_reserved": 0, "bike_id": "c42406b5d8fe7f69462b0da090d0be09", "fusion_lat": 0.0, "is_disabled": 0, "rental_uris": {"ios": "https://dc.lft.to/lastmile_qr_scan", "android": "https://dc.lft.to/lastmile_qr_scan"}}, {"name": "29cfaf63a5705d2c6d572c2e400d34f4", "lon": -77.03090866666666, "lat": 38.931694666666665, "type": "electric_scooter", "fusion_lon": 0.0, "is_reserved": 0, "bike_id": "29cfaf63a5705d2c6d572c2e400d34f4", "fusion_lat": 0.0, "is_disabled": 0, "rental_uris": {"ios": "https://dc.lft.to/lastmile_qr_scan", "android": "https://dc.lft.to/lastmile_qr_scan"}}, {"name": "f21f5aac6faf63b38038be938a58d3cb", "lon": -76.99518516666667, "lat": 38.896097166666664, "type": "electric_scooter", "fusion_lon": 0.0, "is_reserved": 0, "bike_id": "f21f5aac6faf63b38038be938a58d3cb", "fusion_lat": 0.0, "is_disabled": 0, "rental_uris": {"ios": "https://dc.lft.to/lastmile_qr_scan", "android": "https://dc.lft.to/lastmile_qr_scan"}}, {"name": "d45ad4f43c138b29b084ccb5c97c8daf", "lon": -77.03547166666667, "lat": 38.90777033333333, "type": "electric_scooter", "fusion_lon": 0.0, "is_reserved": 0, "bike_id": "d45ad4f43c138b29b084ccb5c97c8daf", "fusion_lat": 0.0, "is_disabled": 0, "rental_uris": {"ios": "https://dc.lft.to/lastmile_qr_scan", "android": "https://dc.lft.to/lastmile_qr_scan"}}, {"name": "378501040a8cbe8b149d5575c02a14fe", "lon": -77.03257483333333, "lat": 38.927602666666665, "type": "electric_scooter", "fusion_lon": 0.0, "is_reserved": 0, "bike_id": "378501040a8cbe8b149d5575c02a14fe", "fusion_lat": 0.0, "is_disabled": 0, "rental_uris": {"ios": "https://dc.lft.to/lastmile_qr_scan", "android": "https://dc.lft.to/lastmile_qr_scan"}}, {"name": "1ae45bacb5864fd4e66f5bf2308df515", "lon": -77.02898583333334, "lat": 38.887468166666665, "type": "electric_scooter", "fusion_lon": 0.0, "is_reserved": 0, "bike_id": "1ae45bacb5864fd4e66f5bf2308df515", "fusion_lat": 0.0, "is_disabled": 0, "rental_uris": {"ios": "https://dc.lft.to/lastmile_qr_scan", "android": "https://dc.lft.to/lastmile_qr_scan"}}, {"name": "a8406dade53fe9a18e73074d4fba55e2", "lon": -77.0471055, "lat": 38.92200066666667, "type": "electric_scooter", "fusion_lon": 0.0, "is_reserved": 0, "bike_id": "a8406dade53fe9a18e73074d4fba55e2", "fusion_lat": 0.0, "is_disabled": 0, "rental_uris": {"ios": "https://dc.lft.to/lastmile_qr_scan", "android": "https://dc.lft.to/lastmile_qr_scan"}}, {"name": "3b29a7b0499582f2aa479cb6c56c108e", "lon": -77.02181016666667, "lat": 38.91686133333333, "type": "electric_scooter", "fusion_lon": 0.0, "is_reserved": 0, "bike_id": "3b29a7b0499582f2aa479cb6c56c108e", "fusion_lat": 0.0, "is_disabled": 0, "rental_uris": {"ios": "https://dc.lft.to/lastmile_qr_scan", "android": "https://dc.lft.to/lastmile_qr_scan"}}, {"name": "d75e1a84ad27302630ce29d95ca83ffc", "lon": -77.01160783333333, "lat": 38.89657033333334, "type": "electric_scooter", "fusion_lon": 0.0, "is_reserved": 0, "bike_id": "d75e1a84ad27302630ce29d95ca83ffc", "fusion_lat": 0.0, "is_disabled": 0, "rental_uris": {"ios": "https://dc.lft.to/lastmile_qr_scan", "android": "https://dc.lft.to/lastmile_qr_scan"}}, {"name": "4e896527bae87c44e0e9d342557ff981", "lon": -77.00339083333333, "lat": 38.889895833333334, "type": "electric_scooter", "fusion_lon": 0.0, "is_reserved": 0, "bike_id": "4e896527bae87c44e0e9d342557ff981", "fusion_lat": 0.0, "is_disabled": 0, "rental_uris": {"ios": "https://dc.lft.to/lastmile_qr_scan", "android": "https://dc.lft.to/lastmile_qr_scan"}}, {"name": "64084538fff68466c6363fc2fcf8d3b4", "lon": -77.0465, "lat": 38.905562, "type": "electric_scooter", "fusion_lon": 0.0, "is_reserved": 0, "bike_id": "64084538fff68466c6363fc2fcf8d3b4", "fusion_lat": 0.0, "is_disabled": 0, "rental_uris": {"ios": "https://dc.lft.to/lastmile_qr_scan", "android": "https://dc.lft.to/lastmile_qr_scan"}}, {"name": "0b337a82e28d88cc6695a996d9509764", "lon": -77.0449635, "lat": 38.903708333333334, "type": "electric_scooter", "fusion_lon": 0.0, "is_reserved": 0, "bike_id": "0b337a82e28d88cc6695a996d9509764", "fusion_lat": 0.0, "is_disabled": 0, "rental_uris": {"ios": "https://dc.lft.to/lastmile_qr_scan", "android": "https://dc.lft.to/lastmile_qr_scan"}}, {"name": "e9c936145f13c89b57ebfb46690767bb", "lon": -76.93737533333334, "lat": 38.890183, "type": "electric_scooter", "fusion_lon": 0.0, "is_reserved": 0, "bike_id": "e9c936145f13c89b57ebfb46690767bb", "fusion_lat": 0.0, "is_disabled": 0, "rental_uris": {"ios": "https://dc.lft.to/lastmile_qr_scan", "android": "https://dc.lft.to/lastmile_qr_scan"}}, {"name": "c71244c3af9db073cbe51c4729bc03f4", "lon": -77.04696833333334, "lat": 38.91579266666667, "type": "electric_scooter", "fusion_lon": 0.0, "is_reserved": 0, "bike_id": "c71244c3af9db073cbe51c4729bc03f4", "fusion_lat": 0.0, "is_disabled": 0, "rental_uris": {"ios": "https://dc.lft.to/lastmile_qr_scan", "android": "https://dc.lft.to/lastmile_qr_scan"}}, {"name": "36e0e994a2923bc1b39ca132a553f18c", "lon": -77.01758733333334, "lat": 38.8768725, "type": "electric_scooter", "fusion_lon": 0.0, "is_reserved": 0, "bike_id": "36e0e994a2923bc1b39ca132a553f18c", "fusion_lat": 0.0, "is_disabled": 0, "rental_uris": {"ios": "https://dc.lft.to/lastmile_qr_scan", "android": "https://dc.lft.to/lastmile_qr_scan"}}, {"name": "4e34b9fa3235afac9958c4bd339cffff", "lon": -77.03122716666667, "lat": 38.91562616666667, "type": "electric_scooter", "fusion_lon": 0.0, "is_reserved": 0, "bike_id": "4e34b9fa3235afac9958c4bd339cffff", "fusion_lat": 0.0, "is_disabled": 0, "rental_uris": {"ios": "https://dc.lft.to/lastmile_qr_scan", "android": "https://dc.lft.to/lastmile_qr_scan"}}, {"name": "1372c996c5cf064026ba692e280e743d", "lon": -77.01405466666667, "lat": 38.8874745, "type": "electric_scooter", "fusion_lon": 0.0, "is_reserved": 0, "bike_id": "1372c996c5cf064026ba692e280e743d", "fusion_lat": 0.0, "is_disabled": 0, "rental_uris": {"ios": "https://dc.lft.to/lastmile_qr_scan", "android": "https://dc.lft.to/lastmile_qr_scan"}}, {"name": "28137ca9132130beb2a6f63944382a3c", "lon": -77.03764783333334, "lat": 38.916906, "type": "electric_scooter", "fusion_lon": 0.0, "is_reserved": 0, "bike_id": "28137ca9132130beb2a6f63944382a3c", "fusion_lat": 0.0, "is_disabled": 0, "rental_uris": {"ios": "https://dc.lft.to/lastmile_qr_scan", "android": "https://dc.lft.to/lastmile_qr_scan"}}, {"name": "9dfe99770ce087b3a2fe0faaa99f84f7", "lon": -77.04183033333334, "lat": 38.89222633333333, "type": "electric_scooter", "fusion_lon": 0.0, "is_reserved": 0, "bike_id": "9dfe99770ce087b3a2fe0faaa99f84f7", "fusion_lat": 0.0, "is_disabled": 0, "rental_uris": {"ios": "https://dc.lft.to/lastmile_qr_scan", "android": "https://dc.lft.to/lastmile_qr_scan"}}, {"name": "6918e3cb8eb62371850947434e46d3b0", "lon": -77.0294415, "lat": 38.9207565, "type": "electric_scooter", "fusion_lon": 0.0, "is_reserved": 0, "bike_id": "6918e3cb8eb62371850947434e46d3b0", "fusion_lat": 0.0, "is_disabled": 0, "rental_uris": {"ios": "https://dc.lft.to/lastmile_qr_scan", "android": "https://dc.lft.to/lastmile_qr_scan"}}, {"name": "718f46d73a4a59c73f334732257411e7", "lon": -77.036479, "lat": 38.903820833333334, "type": "electric_scooter", "fusion_lon": 0.0, "is_reserved": 0, "bike_id": "718f46d73a4a59c73f334732257411e7", "fusion_lat": 0.0, "is_disabled": 0, "rental_uris": {"ios": "https://dc.lft.to/lastmile_qr_scan", "android": "https://dc.lft.to/lastmile_qr_scan"}}, {"name": "2205cd022f76a0fae8927d7dfb8da37d", "lon": -77.02680566666666, "lat": 38.90242716666667, "type": "electric_scooter", "fusion_lon": 0.0, "is_reserved": 0, "bike_id": "2205cd022f76a0fae8927d7dfb8da37d", "fusion_lat": 0.0, "is_disabled": 0, "rental_uris": {"ios": "https://dc.lft.to/lastmile_qr_scan", "android": "https://dc.lft.to/lastmile_qr_scan"}}, {"name": "b51c52013ae4b9d41e09a8a0532a307b", "lon": -76.99312533333334, "lat": 38.900248833333336, "type": "electric_scooter", "fusion_lon": 0.0, "is_reserved": 0, "bike_id": "b51c52013ae4b9d41e09a8a0532a307b", "fusion_lat": 0.0, "is_disabled": 0, "rental_uris": {"ios": "https://dc.lft.to/lastmile_qr_scan", "android": "https://dc.lft.to/lastmile_qr_scan"}}, {"name": "75849cf039400d24f6b436ef587b4e8a", "lon": -77.09453583333334, "lat": 38.8861535, "type": "electric_bike", "fusion_lon": 0.0, "is_reserved": 0, "bike_id": "75849cf039400d24f6b436ef587b4e8a", "fusion_lat": 0.0, "is_disabled": 0, "rental_uris": {"ios": "https://dc.lft.to/lastmile_qr_scan", "android": "https://dc.lft.to/lastmile_qr_scan"}}, {"name": "80a6c6abacadac58d6363cff04f7f614", "lon": -76.93751966666666, "lat": 38.89047033333333, "type": "electric_scooter", "fusion_lon": 0.0, "is_reserved": 0, "bike_id": "80a6c6abacadac58d6363cff04f7f614", "fusion_lat": 0.0, "is_disabled": 0, "rental_uris": {"ios": "https://dc.lft.to/lastmile_qr_scan", "android": "https://dc.lft.to/lastmile_qr_scan"}}, {"name": "4e5068fbce723b3c1eb87bfcef678d29", "lon": -77.03873233333333, "lat": 38.932641, "type": "electric_scooter", "fusion_lon": 0.0, "is_reserved": 0, "bike_id": "4e5068fbce723b3c1eb87bfcef678d29", "fusion_lat": 0.0, "is_disabled": 0, "rental_uris": {"ios": "https://dc.lft.to/lastmile_qr_scan", "android": "https://dc.lft.to/lastmile_qr_scan"}}, {"name": "13c1951bb27d8fcaa2cda9dbbbca8e8b", "lon": -77.03229066666667, "lat": 38.896735166666666, "type": "electric_scooter", "fusion_lon": 0.0, "is_reserved": 0, "bike_id": "13c1951bb27d8fcaa2cda9dbbbca8e8b", "fusion_lat": 0.0, "is_disabled": 0, "rental_uris": {"ios": "https://dc.lft.to/lastmile_qr_scan", "android": "https://dc.lft.to/lastmile_qr_scan"}}, {"name": "74f32b2d873b758a3490cde4bb48de1d", "lon": -77.0376475, "lat": 38.92916833333334, "type": "electric_scooter", "fusion_lon": 0.0, "is_reserved": 0, "bike_id": "74f32b2d873b758a3490cde4bb48de1d", "fusion_lat": 0.0, "is_disabled": 0, "rental_uris": {"ios": "https://dc.lft.to/lastmile_qr_scan", "android": "https://dc.lft.to/lastmile_qr_scan"}}, {"name": "5f4f3cb55218c1057f5c99f3b2772043", "lon": -77.0219735, "lat": 38.898704333333335, "type": "electric_scooter", "fusion_lon": 0.0, "is_reserved": 0, "bike_id": "5f4f3cb55218c1057f5c99f3b2772043", "fusion_lat": 0.0, "is_disabled": 0, "rental_uris": {"ios": "https://dc.lft.to/lastmile_qr_scan", "android": "https://dc.lft.to/lastmile_qr_scan"}}, {"name": "4ceb619005c6e0e473b59188429d3454", "lon": -77.00777516666666, "lat": 38.907484833333335, "type": "electric_scooter", "fusion_lon": 0.0, "is_reserved": 0, "bike_id": "4ceb619005c6e0e473b59188429d3454", "fusion_lat": 0.0, "is_disabled": 0, "rental_uris": {"ios": "https://dc.lft.to/lastmile_qr_scan", "android": "https://dc.lft.to/lastmile_qr_scan"}}, {"name": "c7150c51acfb5e087da655c469620781", "lon": -77.043348, "lat": 38.91793966666667, "type": "electric_scooter", "fusion_lon": 0.0, "is_reserved": 0, "bike_id": "c7150c51acfb5e087da655c469620781", "fusion_lat": 0.0, "is_disabled": 0, "rental_uris": {"ios": "https://dc.lft.to/lastmile_qr_scan", "android": "https://dc.lft.to/lastmile_qr_scan"}}, {"name": "e8a4b4daf381544514272c15813e6916", "lon": -77.07307133333333, "lat": 38.864846, "type": "electric_bike", "fusion_lon": 0.0, "is_reserved": 0, "bike_id": "e8a4b4daf381544514272c15813e6916", "fusion_lat": 0.0, "is_disabled": 0, "rental_uris": {"ios": "https://dc.lft.to/lastmile_qr_scan", "android": "https://dc.lft.to/lastmile_qr_scan"}}, {"name": "89f58151ecdb40153a456ea16853cdfc", "lon": -77.01494933333333, "lat": 38.917567, "type": "electric_scooter", "fusion_lon": 0.0, "is_reserved": 0, "bike_id": "89f58151ecdb40153a456ea16853cdfc", "fusion_lat": 0.0, "is_disabled": 0, "rental_uris": {"ios": "https://dc.lft.to/lastmile_qr_scan", "android": "https://dc.lft.to/lastmile_qr_scan"}}, {"name": "00e7e2d74362e82c5442c48368e2fed7", "lon": -76.99777533333334, "lat": 38.8442965, "type": "electric_scooter", "fusion_lon": 0.0, "is_reserved": 0, "bike_id": "00e7e2d74362e82c5442c48368e2fed7", "fusion_lat": 0.0, "is_disabled": 0, "rental_uris": {"ios": "https://dc.lft.to/lastmile_qr_scan", "android": "https://dc.lft.to/lastmile_qr_scan"}}, {"name": "87b0b9b8ec7e0dc9eaef04fbf61c742d", "lon": -77.01233616666667, "lat": 38.93106133333333, "type": "electric_scooter", "fusion_lon": 0.0, "is_reserved": 0, "bike_id": "87b0b9b8ec7e0dc9eaef04fbf61c742d", "fusion_lat": 0.0, "is_disabled": 0, "rental_uris": {"ios": "https://dc.lft.to/lastmile_qr_scan", "android": "https://dc.lft.to/lastmile_qr_scan"}}, {"name": "74b200ccffca1c97bf50b8a62c0a4896", "lon": -77.02089016666666, "lat": 38.9213595, "type": "electric_scooter", "fusion_lon": 0.0, "is_reserved": 0, "bike_id": "74b200ccffca1c97bf50b8a62c0a4896", "fusion_lat": 0.0, "is_disabled": 0, "rental_uris": {"ios": "https://dc.lft.to/lastmile_qr_scan", "android": "https://dc.lft.to/lastmile_qr_scan"}}, {"name": "87e1d2a3bbf7a07cce754926f51451d3", "lon": -76.9744475, "lat": 38.90444033333333, "type": "electric_scooter", "fusion_lon": 0.0, "is_reserved": 0, "bike_id": "87e1d2a3bbf7a07cce754926f51451d3", "fusion_lat": 0.0, "is_disabled": 0, "rental_uris": {"ios": "https://dc.lft.to/lastmile_qr_scan", "android": "https://dc.lft.to/lastmile_qr_scan"}}, {"name": "fcde5be5680f6a9308b20ca07d9f3ecf", "lon": -76.94379216666667, "lat": 38.89327733333333, "type": "electric_scooter", "fusion_lon": 0.0, "is_reserved": 0, "bike_id": "fcde5be5680f6a9308b20ca07d9f3ecf", "fusion_lat": 0.0, "is_disabled": 0, "rental_uris": {"ios": "https://dc.lft.to/lastmile_qr_scan", "android": "https://dc.lft.to/lastmile_qr_scan"}}, {"name": "9eca49b8096647e0560414a0c8542b0b", "lon": -76.94962316666667, "lat": 38.894377166666665, "type": "electric_scooter", "fusion_lon": 0.0, "is_reserved": 0, "bike_id": "9eca49b8096647e0560414a0c8542b0b", "fusion_lat": 0.0, "is_disabled": 0, "rental_uris": {"ios": "https://dc.lft.to/lastmile_qr_scan", "android": "https://dc.lft.to/lastmile_qr_scan"}}, {"name": "e3754209db49a2bfeba02ae470565786", "lon": -76.97828816666667, "lat": 38.843725666666664, "type": "electric_bike", "fusion_lon": 0.0, "is_reserved": 0, "bike_id": "e3754209db49a2bfeba02ae470565786", "fusion_lat": 0.0, "is_disabled": 0, "rental_uris": {"ios": "https://dc.lft.to/lastmile_qr_scan", "android": "https://dc.lft.to/lastmile_qr_scan"}}, {"name": "ded86eb3aeac21583b387e00e70a7b24", "lon": -77.02914866666667, "lat": 38.8985645, "type": "electric_scooter", "fusion_lon": 0.0, "is_reserved": 0, "bike_id": "ded86eb3aeac21583b387e00e70a7b24", "fusion_lat": 0.0, "is_disabled": 0, "rental_uris": {"ios": "https://dc.lft.to/lastmile_qr_scan", "android": "https://dc.lft.to/lastmile_qr_scan"}}, {"name": "0aa2dbd1e9202669ed45e928962e411f", "lon": -77.02468616666667, "lat": 38.93299316666667, "type": "electric_scooter", "fusion_lon": 0.0, "is_reserved": 0, "bike_id": "0aa2dbd1e9202669ed45e928962e411f", "fusion_lat": 0.0, "is_disabled": 0, "rental_uris": {"ios": "https://dc.lft.to/lastmile_qr_scan", "android": "https://dc.lft.to/lastmile_qr_scan"}}, {"name": "e7847b9d8bbe184939c6e58b54191252", "lon": -77.013444, "lat": 38.89916683333333, "type": "electric_scooter", "fusion_lon": 0.0, "is_reserved": 0, "bike_id": "e7847b9d8bbe184939c6e58b54191252", "fusion_lat": 0.0, "is_disabled": 0, "rental_uris": {"ios": "https://dc.lft.to/lastmile_qr_scan", "android": "https://dc.lft.to/lastmile_qr_scan"}}, {"name": "67e597ad65862cd4c04103ad699f5bd9", "lon": -77.03647183333334, "lat": 38.91244116666667, "type": "electric_scooter", "fusion_lon": 0.0, "is_reserved": 0, "bike_id": "67e597ad65862cd4c04103ad699f5bd9", "fusion_lat": 0.0, "is_disabled": 0, "rental_uris": {"ios": "https://dc.lft.to/lastmile_qr_scan", "android": "https://dc.lft.to/lastmile_qr_scan"}}, {"name": "449cb75d37d3514eb7be612e28ac4e0e", "lon": -77.04554333333333, "lat": 38.917668666666664, "type": "electric_scooter", "fusion_lon": 0.0, "is_reserved": 0, "bike_id": "449cb75d37d3514eb7be612e28ac4e0e", "fusion_lat": 0.0, "is_disabled": 0, "rental_uris": {"ios": "https://dc.lft.to/lastmile_qr_scan", "android": "https://dc.lft.to/lastmile_qr_scan"}}, {"name": "eef333502899a94ab31cc7381d4c7af0", "lon": -77.0415825, "lat": 38.91955033333333, "type": "electric_scooter", "fusion_lon": 0.0, "is_reserved": 0, "bike_id": "eef333502899a94ab31cc7381d4c7af0", "fusion_lat": 0.0, "is_disabled": 0, "rental_uris": {"ios": "https://dc.lft.to/lastmile_qr_scan", "android": "https://dc.lft.to/lastmile_qr_scan"}}, {"name": "651eb503c6c717b2c5c6af8f12db94ff", "lon": -77.00921116666666, "lat": 38.895631, "type": "electric_scooter", "fusion_lon": 0.0, "is_reserved": 0, "bike_id": "651eb503c6c717b2c5c6af8f12db94ff", "fusion_lat": 0.0, "is_disabled": 0, "rental_uris": {"ios": "https://dc.lft.to/lastmile_qr_scan", "android": "https://dc.lft.to/lastmile_qr_scan"}}, {"name": "a035874d82fe28c167e9a21923a95693", "lon": -77.0410755, "lat": 38.92799633333333, "type": "electric_scooter", "fusion_lon": 0.0, "is_reserved": 0, "bike_id": "a035874d82fe28c167e9a21923a95693", "fusion_lat": 0.0, "is_disabled": 0, "rental_uris": {"ios": "https://dc.lft.to/lastmile_qr_scan", "android": "https://dc.lft.to/lastmile_qr_scan"}}, {"name": "911dd884934287b45e53fc9234502b14", "lon": -77.023844, "lat": 38.91967666666667, "type": "electric_scooter", "fusion_lon": 0.0, "is_reserved": 0, "bike_id": "911dd884934287b45e53fc9234502b14", "fusion_lat": 0.0, "is_disabled": 0, "rental_uris": {"ios": "https://dc.lft.to/lastmile_qr_scan", "android": "https://dc.lft.to/lastmile_qr_scan"}}, {"name": "cb292eba7ad285a4776aeecaf3b7265c", "lon": -77.04477183333333, "lat": 38.90878583333333, "type": "electric_scooter", "fusion_lon": 0.0, "is_reserved": 0, "bike_id": "cb292eba7ad285a4776aeecaf3b7265c", "fusion_lat": 0.0, "is_disabled": 0, "rental_uris": {"ios": "https://dc.lft.to/lastmile_qr_scan", "android": "https://dc.lft.to/lastmile_qr_scan"}}, {"name": "f89f7cdd694ea119cff7063ec4fb0c44", "lon": -77.024072, "lat": 38.8925715, "type": "electric_scooter", "fusion_lon": 0.0, "is_reserved": 0, "bike_id": "f89f7cdd694ea119cff7063ec4fb0c44", "fusion_lat": 0.0, "is_disabled": 0, "rental_uris": {"ios": "https://dc.lft.to/lastmile_qr_scan", "android": "https://dc.lft.to/lastmile_qr_scan"}}, {"name": "bdbe1119d2f7521070c719f8e30ddb9a", "lon": -77.03353866666667, "lat": 38.907175333333335, "type": "electric_scooter", "fusion_lon": 0.0, "is_reserved": 0, "bike_id": "bdbe1119d2f7521070c719f8e30ddb9a", "fusion_lat": 0.0, "is_disabled": 0, "rental_uris": {"ios": "https://dc.lft.to/lastmile_qr_scan", "android": "https://dc.lft.to/lastmile_qr_scan"}}, {"name": "96354be177787177eb46f237138e84ee", "lon": -77.02443, "lat": 38.92348666666667, "type": "electric_scooter", "fusion_lon": 0.0, "is_reserved": 0, "bike_id": "96354be177787177eb46f237138e84ee", "fusion_lat": 0.0, "is_disabled": 0, "rental_uris": {"ios": "https://dc.lft.to/lastmile_qr_scan", "android": "https://dc.lft.to/lastmile_qr_scan"}}, {"name": "b52b5a8514c9e1f5ea8b64f45cc4bab3", "lon": -77.02327783333334, "lat": 38.9360295, "type": "electric_scooter", "fusion_lon": 0.0, "is_reserved": 0, "bike_id": "b52b5a8514c9e1f5ea8b64f45cc4bab3", "fusion_lat": 0.0, "is_disabled": 0, "rental_uris": {"ios": "https://dc.lft.to/lastmile_qr_scan", "android": "https://dc.lft.to/lastmile_qr_scan"}}, {"name": "21eb702e5619528d06a7bf9387d1a16f", "lon": -77.02949666666666, "lat": 38.90500933333333, "type": "electric_scooter", "fusion_lon": 0.0, "is_reserved": 0, "bike_id": "21eb702e5619528d06a7bf9387d1a16f", "fusion_lat": 0.0, "is_disabled": 0, "rental_uris": {"ios": "https://dc.lft.to/lastmile_qr_scan", "android": "https://dc.lft.to/lastmile_qr_scan"}}, {"name": "ef5a319831f099c058cb45cf742d729e", "lon": -77.03444016666667, "lat": 38.908164166666666, "type": "electric_scooter", "fusion_lon": 0.0, "is_reserved": 0, "bike_id": "ef5a319831f099c058cb45cf742d729e", "fusion_lat": 0.0, "is_disabled": 0, "rental_uris": {"ios": "https://dc.lft.to/lastmile_qr_scan", "android": "https://dc.lft.to/lastmile_qr_scan"}}, {"name": "1e33aba85c854b9f1b93db5b93f45785", "lon": -77.02297466666667, "lat": 38.92809033333333, "type": "electric_scooter", "fusion_lon": 0.0, "is_reserved": 0, "bike_id": "1e33aba85c854b9f1b93db5b93f45785", "fusion_lat": 0.0, "is_disabled": 0, "rental_uris": {"ios": "https://dc.lft.to/lastmile_qr_scan", "android": "https://dc.lft.to/lastmile_qr_scan"}}, {"name": "f37aaa6bbfb1ca645450ae0bf34ca1ef", "lon": -77.0428, "lat": 38.90856133333333, "type": "electric_scooter", "fusion_lon": 0.0, "is_reserved": 0, "bike_id": "f37aaa6bbfb1ca645450ae0bf34ca1ef", "fusion_lat": 0.0, "is_disabled": 0, "rental_uris": {"ios": "https://dc.lft.to/lastmile_qr_scan", "android": "https://dc.lft.to/lastmile_qr_scan"}}, {"name": "252cfbc30a7845c205224fca14233a00", "lon": -77.027262, "lat": 38.89499983333333, "type": "electric_scooter", "fusion_lon": 0.0, "is_reserved": 0, "bike_id": "252cfbc30a7845c205224fca14233a00", "fusion_lat": 0.0, "is_disabled": 0, "rental_uris": {"ios": "https://dc.lft.to/lastmile_qr_scan", "android": "https://dc.lft.to/lastmile_qr_scan"}}, {"name": "8b913fdfbecb69095b5167f1ce9bb7fa", "lon": -77.01026766666666, "lat": 38.91707483333333, "type": "electric_scooter", "fusion_lon": 0.0, "is_reserved": 0, "bike_id": "8b913fdfbecb69095b5167f1ce9bb7fa", "fusion_lat": 0.0, "is_disabled": 0, "rental_uris": {"ios": "https://dc.lft.to/lastmile_qr_scan", "android": "https://dc.lft.to/lastmile_qr_scan"}}, {"name": "3944276d36eff088dd586753398deda1", "lon": -77.034365, "lat": 38.90976366666666, "type": "electric_scooter", "fusion_lon": 0.0, "is_reserved": 0, "bike_id": "3944276d36eff088dd586753398deda1", "fusion_lat": 0.0, "is_disabled": 0, "rental_uris": {"ios": "https://dc.lft.to/lastmile_qr_scan", "android": "https://dc.lft.to/lastmile_qr_scan"}}, {"name": "565a76f221839fa6ff091c38eb541905", "lon": -77.03187566666666, "lat": 38.921179333333335, "type": "electric_scooter", "fusion_lon": 0.0, "is_reserved": 0, "bike_id": "565a76f221839fa6ff091c38eb541905", "fusion_lat": 0.0, "is_disabled": 0, "rental_uris": {"ios": "https://dc.lft.to/lastmile_qr_scan", "android": "https://dc.lft.to/lastmile_qr_scan"}}, {"name": "b57895ac589ff9846ef98f2019ea0064", "lon": -77.04648433333334, "lat": 38.905586, "type": "electric_scooter", "fusion_lon": 0.0, "is_reserved": 0, "bike_id": "b57895ac589ff9846ef98f2019ea0064", "fusion_lat": 0.0, "is_disabled": 0, "rental_uris": {"ios": "https://dc.lft.to/lastmile_qr_scan", "android": "https://dc.lft.to/lastmile_qr_scan"}}, {"name": "981134afa5f1dd57e943b59ca169d649", "lon": -77.04714966666667, "lat": 38.90949633333334, "type": "electric_scooter", "fusion_lon": 0.0, "is_reserved": 0, "bike_id": "981134afa5f1dd57e943b59ca169d649", "fusion_lat": 0.0, "is_disabled": 0, "rental_uris": {"ios": "https://dc.lft.to/lastmile_qr_scan", "android": "https://dc.lft.to/lastmile_qr_scan"}}, {"name": "8741ce18b219b1be15ecd96d07265722", "lon": -76.9912765, "lat": 38.86201666666667, "type": "electric_scooter", "fusion_lon": 0.0, "is_reserved": 0, "bike_id": "8741ce18b219b1be15ecd96d07265722", "fusion_lat": 0.0, "is_disabled": 0, "rental_uris": {"ios": "https://dc.lft.to/lastmile_qr_scan", "android": "https://dc.lft.to/lastmile_qr_scan"}}, {"name": "8f1d7c8002e88d6d8abe1645fa99ede1", "lon": -77.04512033333333, "lat": 38.903806333333335, "type": "electric_scooter", "fusion_lon": 0.0, "is_reserved": 0, "bike_id": "8f1d7c8002e88d6d8abe1645fa99ede1", "fusion_lat": 0.0, "is_disabled": 0, "rental_uris": {"ios": "https://dc.lft.to/lastmile_qr_scan", "android": "https://dc.lft.to/lastmile_qr_scan"}}, {"name": "bdd70e06ee5576b37695e506499d7a66", "lon": -77.04185, "lat": 38.892894166666665, "type": "electric_scooter", "fusion_lon": 0.0, "is_reserved": 0, "bike_id": "bdd70e06ee5576b37695e506499d7a66", "fusion_lat": 0.0, "is_disabled": 0, "rental_uris": {"ios": "https://dc.lft.to/lastmile_qr_scan", "android": "https://dc.lft.to/lastmile_qr_scan"}}, {"name": "94015d62bb498e201e35dd6f29357cde", "lon": -77.0248925, "lat": 38.94182433333334, "type": "electric_scooter", "fusion_lon": 0.0, "is_reserved": 0, "bike_id": "94015d62bb498e201e35dd6f29357cde", "fusion_lat": 0.0, "is_disabled": 0, "rental_uris": {"ios": "https://dc.lft.to/lastmile_qr_scan", "android": "https://dc.lft.to/lastmile_qr_scan"}}, {"name": "d891270347031d4d7c9d5e6fe37c05dc", "lon": -77.04569983333333, "lat": 38.9057615, "type": "electric_scooter", "fusion_lon": 0.0, "is_reserved": 0, "bike_id": "d891270347031d4d7c9d5e6fe37c05dc", "fusion_lat": 0.0, "is_disabled": 0, "rental_uris": {"ios": "https://dc.lft.to/lastmile_qr_scan", "android": "https://dc.lft.to/lastmile_qr_scan"}}, {"name": "8ad7e1f4b0191825c6539810c2801315", "lon": -77.03659983333333, "lat": 38.91240066666667, "type": "electric_scooter", "fusion_lon": 0.0, "is_reserved": 0, "bike_id": "8ad7e1f4b0191825c6539810c2801315", "fusion_lat": 0.0, "is_disabled": 0, "rental_uris": {"ios": "https://dc.lft.to/lastmile_qr_scan", "android": "https://dc.lft.to/lastmile_qr_scan"}}, {"name": "eb06f2540c4fecae51434d0205204f86", "lon": -77.03282966666667, "lat": 38.8985855, "type": "electric_scooter", "fusion_lon": 0.0, "is_reserved": 0, "bike_id": "eb06f2540c4fecae51434d0205204f86", "fusion_lat": 0.0, "is_disabled": 0, "rental_uris": {"ios": "https://dc.lft.to/lastmile_qr_scan", "android": "https://dc.lft.to/lastmile_qr_scan"}}, {"name": "165de6946a103530cba950413507cf92", "lon": -77.02880016666667, "lat": 38.928198333333334, "type": "electric_scooter", "fusion_lon": 0.0, "is_reserved": 0, "bike_id": "165de6946a103530cba950413507cf92", "fusion_lat": 0.0, "is_disabled": 0, "rental_uris": {"ios": "https://dc.lft.to/lastmile_qr_scan", "android": "https://dc.lft.to/lastmile_qr_scan"}}, {"name": "288338ba0c1dfec48bfa5d12b434121e", "lon": -77.032892, "lat": 38.920597, "type": "electric_scooter", "fusion_lon": 0.0, "is_reserved": 0, "bike_id": "288338ba0c1dfec48bfa5d12b434121e", "fusion_lat": 0.0, "is_disabled": 0, "rental_uris": {"ios": "https://dc.lft.to/lastmile_qr_scan", "android": "https://dc.lft.to/lastmile_qr_scan"}}, {"name": "622f055c1898d9888682043be32752eb", "lon": -77.0315955, "lat": 38.99944566666667, "type": "electric_bike", "fusion_lon": 0.0, "is_reserved": 0, "bike_id": "622f055c1898d9888682043be32752eb", "fusion_lat": 0.0, "is_disabled": 0, "rental_uris": {"ios": "https://dc.lft.to/lastmile_qr_scan", "android": "https://dc.lft.to/lastmile_qr_scan"}}, {"name": "e3cad32302d267468076ca3c42140739", "lon": -77.041573, "lat": 38.91835433333333, "type": "electric_scooter", "fusion_lon": 0.0, "is_reserved": 0, "bike_id": "e3cad32302d267468076ca3c42140739", "fusion_lat": 0.0, "is_disabled": 0, "rental_uris": {"ios": "https://dc.lft.to/lastmile_qr_scan", "android": "https://dc.lft.to/lastmile_qr_scan"}}, {"name": "7e89e330a460d4349c260a5acc7ec5b3", "lon": -77.0412545, "lat": 38.934029833333334, "type": "electric_scooter", "fusion_lon": 0.0, "is_reserved": 0, "bike_id": "7e89e330a460d4349c260a5acc7ec5b3", "fusion_lat": 0.0, "is_disabled": 0, "rental_uris": {"ios": "https://dc.lft.to/lastmile_qr_scan", "android": "https://dc.lft.to/lastmile_qr_scan"}}, {"name": "10a1379074d914ce05b4ed6170c89a73", "lon": -77.0237045, "lat": 38.91740383333333, "type": "electric_scooter", "fusion_lon": 0.0, "is_reserved": 0, "bike_id": "10a1379074d914ce05b4ed6170c89a73", "fusion_lat": 0.0, "is_disabled": 0, "rental_uris": {"ios": "https://dc.lft.to/lastmile_qr_scan", "android": "https://dc.lft.to/lastmile_qr_scan"}}, {"name": "536f3678f6153ded59c3fb6c6eb2cfbf", "lon": -77.03853383333333, "lat": 38.903614166666664, "type": "electric_scooter", "fusion_lon": 0.0, "is_reserved": 0, "bike_id": "536f3678f6153ded59c3fb6c6eb2cfbf", "fusion_lat": 0.0, "is_disabled": 0, "rental_uris": {"ios": "https://dc.lft.to/lastmile_qr_scan", "android": "https://dc.lft.to/lastmile_qr_scan"}}, {"name": "6bd7ccd9478ef25d0bc22e6214d76806", "lon": -77.0473905, "lat": 38.9165985, "type": "electric_scooter", "fusion_lon": 0.0, "is_reserved": 0, "bike_id": "6bd7ccd9478ef25d0bc22e6214d76806", "fusion_lat": 0.0, "is_disabled": 0, "rental_uris": {"ios": "https://dc.lft.to/lastmile_qr_scan", "android": "https://dc.lft.to/lastmile_qr_scan"}}, {"name": "8b0a304f3918c6fe7db43f06d0154a07", "lon": -77.03659533333334, "lat": 38.90917483333333, "type": "electric_scooter", "fusion_lon": 0.0, "is_reserved": 0, "bike_id": "8b0a304f3918c6fe7db43f06d0154a07", "fusion_lat": 0.0, "is_disabled": 0, "rental_uris": {"ios": "https://dc.lft.to/lastmile_qr_scan", "android": "https://dc.lft.to/lastmile_qr_scan"}}, {"name": "754bf2f136e409315d694f0caf6e00ef", "lon": -77.00762683333333, "lat": 38.91028033333333, "type": "electric_scooter", "fusion_lon": 0.0, "is_reserved": 0, "bike_id": "754bf2f136e409315d694f0caf6e00ef", "fusion_lat": 0.0, "is_disabled": 0, "rental_uris": {"ios": "https://dc.lft.to/lastmile_qr_scan", "android": "https://dc.lft.to/lastmile_qr_scan"}}, {"name": "eb18962b71009c0ac2c295bf1fbbc511", "lon": -76.99032783333334, "lat": 38.898547666666666, "type": "electric_scooter", "fusion_lon": 0.0, "is_reserved": 0, "bike_id": "eb18962b71009c0ac2c295bf1fbbc511", "fusion_lat": 0.0, "is_disabled": 0, "rental_uris": {"ios": "https://dc.lft.to/lastmile_qr_scan", "android": "https://dc.lft.to/lastmile_qr_scan"}}, {"name": "d937c619d2a5c87fa77a623b0d1a6cd6", "lon": -77.02288966666667, "lat": 38.89713916666667, "type": "electric_scooter", "fusion_lon": 0.0, "is_reserved": 0, "bike_id": "d937c619d2a5c87fa77a623b0d1a6cd6", "fusion_lat": 0.0, "is_disabled": 0, "rental_uris": {"ios": "https://dc.lft.to/lastmile_qr_scan", "android": "https://dc.lft.to/lastmile_qr_scan"}}, {"name": "84dbffc91c61f3c0fb892e06530786d4", "lon": -77.00744316666666, "lat": 38.898454666666666, "type": "electric_scooter", "fusion_lon": 0.0, "is_reserved": 0, "bike_id": "84dbffc91c61f3c0fb892e06530786d4", "fusion_lat": 0.0, "is_disabled": 0, "rental_uris": {"ios": "https://dc.lft.to/lastmile_qr_scan", "android": "https://dc.lft.to/lastmile_qr_scan"}}, {"name": "ece89276cb80dd6293c25f05d3fdb0c2", "lon": -77.00605133333333, "lat": 38.87552566666667, "type": "electric_scooter", "fusion_lon": 0.0, "is_reserved": 0, "bike_id": "ece89276cb80dd6293c25f05d3fdb0c2", "fusion_lat": 0.0, "is_disabled": 0, "rental_uris": {"ios": "https://dc.lft.to/lastmile_qr_scan", "android": "https://dc.lft.to/lastmile_qr_scan"}}, {"name": "ba900c53ef7874a789b8644c820bc7a5", "lon": -77.044653, "lat": 38.911164666666664, "type": "electric_scooter", "fusion_lon": 0.0, "is_reserved": 0, "bike_id": "ba900c53ef7874a789b8644c820bc7a5", "fusion_lat": 0.0, "is_disabled": 0, "rental_uris": {"ios": "https://dc.lft.to/lastmile_qr_scan", "android": "https://dc.lft.to/lastmile_qr_scan"}}, {"name": "e32c6dbd3012673d76d2bffde2048e10", "lon": -77.03514633333333, "lat": 38.962050166666664, "type": "electric_bike", "fusion_lon": 0.0, "is_reserved": 0, "bike_id": "e32c6dbd3012673d76d2bffde2048e10", "fusion_lat": 0.0, "is_disabled": 0, "rental_uris": {"ios": "https://dc.lft.to/lastmile_qr_scan", "android": "https://dc.lft.to/lastmile_qr_scan"}}, {"name": "6229e18015da5d93c8a9c50a7026ddbe", "lon": -77.0727115, "lat": 38.93483616666666, "type": "electric_scooter", "fusion_lon": 0.0, "is_reserved": 0, "bike_id": "6229e18015da5d93c8a9c50a7026ddbe", "fusion_lat": 0.0, "is_disabled": 0, "rental_uris": {"ios": "https://dc.lft.to/lastmile_qr_scan", "android": "https://dc.lft.to/lastmile_qr_scan"}}, {"name": "7b922d81c061d39af3db85c0cd0eb753", "lon": -77.01818033333333, "lat": 38.92369266666667, "type": "electric_scooter", "fusion_lon": 0.0, "is_reserved": 0, "bike_id": "7b922d81c061d39af3db85c0cd0eb753", "fusion_lat": 0.0, "is_disabled": 0, "rental_uris": {"ios": "https://dc.lft.to/lastmile_qr_scan", "android": "https://dc.lft.to/lastmile_qr_scan"}}, {"name": "7438444768cb8e72706057a2ba9f4a4a", "lon": -77.0300255, "lat": 38.9027375, "type": "electric_bike", "fusion_lon": 0.0, "is_reserved": 0, "bike_id": "7438444768cb8e72706057a2ba9f4a4a", "fusion_lat": 0.0, "is_disabled": 0, "rental_uris": {"ios": "https://dc.lft.to/lastmile_qr_scan", "android": "https://dc.lft.to/lastmile_qr_scan"}}, {"name": "ab7e3b85fb3884c2ba2f0e0c2f937fa7", "lon": -77.03622633333333, "lat": 38.9285505, "type": "electric_scooter", "fusion_lon": 0.0, "is_reserved": 0, "bike_id": "ab7e3b85fb3884c2ba2f0e0c2f937fa7", "fusion_lat": 0.0, "is_disabled": 0, "rental_uris": {"ios": "https://dc.lft.to/lastmile_qr_scan", "android": "https://dc.lft.to/lastmile_qr_scan"}}, {"name": "73e843a3180980e670683ad6cd464a55", "lon": -77.03486716666667, "lat": 38.900610666666665, "type": "electric_scooter", "fusion_lon": 0.0, "is_reserved": 0, "bike_id": "73e843a3180980e670683ad6cd464a55", "fusion_lat": 0.0, "is_disabled": 0, "rental_uris": {"ios": "https://dc.lft.to/lastmile_qr_scan", "android": "https://dc.lft.to/lastmile_qr_scan"}}, {"name": "b741642289993a213a302456218e11d2", "lon": -77.04578683333334, "lat": 38.913304333333336, "type": "electric_scooter", "fusion_lon": 0.0, "is_reserved": 0, "bike_id": "b741642289993a213a302456218e11d2", "fusion_lat": 0.0, "is_disabled": 0, "rental_uris": {"ios": "https://dc.lft.to/lastmile_qr_scan", "android": "https://dc.lft.to/lastmile_qr_scan"}}, {"name": "84100fa7873e3d21895bbe9133f1b5eb", "lon": -77.07272366666666, "lat": 38.9348815, "type": "electric_scooter", "fusion_lon": 0.0, "is_reserved": 0, "bike_id": "84100fa7873e3d21895bbe9133f1b5eb", "fusion_lat": 0.0, "is_disabled": 0, "rental_uris": {"ios": "https://dc.lft.to/lastmile_qr_scan", "android": "https://dc.lft.to/lastmile_qr_scan"}}, {"name": "592b61a4b509f2c7b74c714a62b7f640", "lon": -77.01804233333333, "lat": 38.91418133333333, "type": "electric_scooter", "fusion_lon": 0.0, "is_reserved": 0, "bike_id": "592b61a4b509f2c7b74c714a62b7f640", "fusion_lat": 0.0, "is_disabled": 0, "rental_uris": {"ios": "https://dc.lft.to/lastmile_qr_scan", "android": "https://dc.lft.to/lastmile_qr_scan"}}, {"name": "5eec6f1c6fc7d04447edfad5e925ce5b", "lon": -77.04555716666667, "lat": 38.896137833333334, "type": "electric_scooter", "fusion_lon": 0.0, "is_reserved": 0, "bike_id": "5eec6f1c6fc7d04447edfad5e925ce5b", "fusion_lat": 0.0, "is_disabled": 0, "rental_uris": {"ios": "https://dc.lft.to/lastmile_qr_scan", "android": "https://dc.lft.to/lastmile_qr_scan"}}, {"name": "6631fc1499db2221855313111623f9ba", "lon": -77.015798, "lat": 38.885026333333336, "type": "electric_scooter", "fusion_lon": 0.0, "is_reserved": 0, "bike_id": "6631fc1499db2221855313111623f9ba", "fusion_lat": 0.0, "is_disabled": 0, "rental_uris": {"ios": "https://dc.lft.to/lastmile_qr_scan", "android": "https://dc.lft.to/lastmile_qr_scan"}}, {"name": "c2530e7e14f1f3db46449b6afddd1a8a", "lon": -77.02766166666666, "lat": 38.95428116666667, "type": "electric_scooter", "fusion_lon": 0.0, "is_reserved": 0, "bike_id": "c2530e7e14f1f3db46449b6afddd1a8a", "fusion_lat": 0.0, "is_disabled": 0, "rental_uris": {"ios": "https://dc.lft.to/lastmile_qr_scan", "android": "https://dc.lft.to/lastmile_qr_scan"}}, {"name": "ac2a553410afc5fea5ff38c58cd22b78", "lon": -77.05004666666666, "lat": 38.89232483333333, "type": "electric_scooter", "fusion_lon": 0.0, "is_reserved": 0, "bike_id": "ac2a553410afc5fea5ff38c58cd22b78", "fusion_lat": 0.0, "is_disabled": 0, "rental_uris": {"ios": "https://dc.lft.to/lastmile_qr_scan", "android": "https://dc.lft.to/lastmile_qr_scan"}}, {"name": "2966f62fae21c8657889705c7e455bae", "lon": -76.93357116666667, "lat": 38.89898016666667, "type": "electric_scooter", "fusion_lon": 0.0, "is_reserved": 0, "bike_id": "2966f62fae21c8657889705c7e455bae", "fusion_lat": 0.0, "is_disabled": 0, "rental_uris": {"ios": "https://dc.lft.to/lastmile_qr_scan", "android": "https://dc.lft.to/lastmile_qr_scan"}}, {"name": "1b58937df0352e943196de4817d7d16d", "lon": -76.9961955, "lat": 38.900378833333335, "type": "electric_scooter", "fusion_lon": 0.0, "is_reserved": 0, "bike_id": "1b58937df0352e943196de4817d7d16d", "fusion_lat": 0.0, "is_disabled": 0, "rental_uris": {"ios": "https://dc.lft.to/lastmile_qr_scan", "android": "https://dc.lft.to/lastmile_qr_scan"}}, {"name": "c92562bd59c5c2a2d1bf8903d4fd9ba6", "lon": -77.01996633333333, "lat": 38.96628283333333, "type": "electric_scooter", "fusion_lon": 0.0, "is_reserved": 0, "bike_id": "c92562bd59c5c2a2d1bf8903d4fd9ba6", "fusion_lat": 0.0, "is_disabled": 0, "rental_uris": {"ios": "https://dc.lft.to/lastmile_qr_scan", "android": "https://dc.lft.to/lastmile_qr_scan"}}, {"name": "d7f3b6b6006792d2bdcef849076fc416", "lon": -77.00486383333333, "lat": 38.874787166666664, "type": "electric_scooter", "fusion_lon": 0.0, "is_reserved": 0, "bike_id": "d7f3b6b6006792d2bdcef849076fc416", "fusion_lat": 0.0, "is_disabled": 0, "rental_uris": {"ios": "https://dc.lft.to/lastmile_qr_scan", "android": "https://dc.lft.to/lastmile_qr_scan"}}, {"name": "916243380d1068d10acfb30e80cf79c8", "lon": -77.03337183333333, "lat": 38.898242333333336, "type": "electric_scooter", "fusion_lon": 0.0, "is_reserved": 0, "bike_id": "916243380d1068d10acfb30e80cf79c8", "fusion_lat": 0.0, "is_disabled": 0, "rental_uris": {"ios": "https://dc.lft.to/lastmile_qr_scan", "android": "https://dc.lft.to/lastmile_qr_scan"}}, {"name": "29b33b07b2b45e9bff75c6b94b59bd0c", "lon": -77.032226, "lat": 38.896828666666664, "type": "electric_scooter", "fusion_lon": 0.0, "is_reserved": 0, "bike_id": "29b33b07b2b45e9bff75c6b94b59bd0c", "fusion_lat": 0.0, "is_disabled": 0, "rental_uris": {"ios": "https://dc.lft.to/lastmile_qr_scan", "android": "https://dc.lft.to/lastmile_qr_scan"}}, {"name": "bb74913d515b0efecf859887fa0aeaf9", "lon": -76.97426633333333, "lat": 38.90449483333333, "type": "electric_scooter", "fusion_lon": 0.0, "is_reserved": 0, "bike_id": "bb74913d515b0efecf859887fa0aeaf9", "fusion_lat": 0.0, "is_disabled": 0, "rental_uris": {"ios": "https://dc.lft.to/lastmile_qr_scan", "android": "https://dc.lft.to/lastmile_qr_scan"}}, {"name": "a74ee800fce448fe3c6ab7f663aa9296", "lon": -77.0286845, "lat": 39.037510166666664, "type": "electric_scooter", "fusion_lon": 0.0, "is_reserved": 0, "bike_id": "a74ee800fce448fe3c6ab7f663aa9296", "fusion_lat": 0.0, "is_disabled": 0, "rental_uris": {"ios": "https://dc.lft.to/lastmile_qr_scan", "android": "https://dc.lft.to/lastmile_qr_scan"}}, {"name": "d54a1c8503397542e22bf84accc66011", "lon": -76.97478066666666, "lat": 38.903554166666666, "type": "electric_scooter", "fusion_lon": 0.0, "is_reserved": 0, "bike_id": "d54a1c8503397542e22bf84accc66011", "fusion_lat": 0.0, "is_disabled": 0, "rental_uris": {"ios": "https://dc.lft.to/lastmile_qr_scan", "android": "https://dc.lft.to/lastmile_qr_scan"}}, {"name": "c615f2dd773c0d089038782c0ffeb81b", "lon": -77.026932, "lat": 38.908744666666664, "type": "electric_scooter", "fusion_lon": 0.0, "is_reserved": 0, "bike_id": "c615f2dd773c0d089038782c0ffeb81b", "fusion_lat": 0.0, "is_disabled": 0, "rental_uris": {"ios": "https://dc.lft.to/lastmile_qr_scan", "android": "https://dc.lft.to/lastmile_qr_scan"}}, {"name": "0b77f09dd4a5ecb132ac6d3a8b41505b", "lon": -77.0025545, "lat": 38.908897, "type": "electric_scooter", "fusion_lon": 0.0, "is_reserved": 0, "bike_id": "0b77f09dd4a5ecb132ac6d3a8b41505b", "fusion_lat": 0.0, "is_disabled": 0, "rental_uris": {"ios": "https://dc.lft.to/lastmile_qr_scan", "android": "https://dc.lft.to/lastmile_qr_scan"}}, {"name": "3024809e0a61cce94f7404dcdf109c71", "lon": -77.05809716666667, "lat": 38.9350685, "type": "electric_scooter", "fusion_lon": 0.0, "is_reserved": 0, "bike_id": "3024809e0a61cce94f7404dcdf109c71", "fusion_lat": 0.0, "is_disabled": 0, "rental_uris": {"ios": "https://dc.lft.to/lastmile_qr_scan", "android": "https://dc.lft.to/lastmile_qr_scan"}}, {"name": "52a74f15301733e7759524e32484e1bf", "lon": -76.98839416666667, "lat": 38.900449333333334, "type": "electric_scooter", "fusion_lon": 0.0, "is_reserved": 0, "bike_id": "52a74f15301733e7759524e32484e1bf", "fusion_lat": 0.0, "is_disabled": 0, "rental_uris": {"ios": "https://dc.lft.to/lastmile_qr_scan", "android": "https://dc.lft.to/lastmile_qr_scan"}}, {"name": "5472b405c5197f85baafd6bd465de4ea", "lon": -77.02333633333333, "lat": 38.92479183333333, "type": "electric_scooter", "fusion_lon": 0.0, "is_reserved": 0, "bike_id": "5472b405c5197f85baafd6bd465de4ea", "fusion_lat": 0.0, "is_disabled": 0, "rental_uris": {"ios": "https://dc.lft.to/lastmile_qr_scan", "android": "https://dc.lft.to/lastmile_qr_scan"}}, {"name": "0b74e7aac6a57ca0bde107fb4e2ef4bc", "lon": -77.09484416666666, "lat": 39.0304915, "type": "electric_bike", "fusion_lon": 0.0, "is_reserved": 0, "bike_id": "0b74e7aac6a57ca0bde107fb4e2ef4bc", "fusion_lat": 0.0, "is_disabled": 0, "rental_uris": {"ios": "https://dc.lft.to/lastmile_qr_scan", "android": "https://dc.lft.to/lastmile_qr_scan"}}, {"name": "c18fabb0da661c58b0f2a85beaffc843", "lon": -77.01184783333333, "lat": 38.900193333333334, "type": "electric_scooter", "fusion_lon": 0.0, "is_reserved": 0, "bike_id": "c18fabb0da661c58b0f2a85beaffc843", "fusion_lat": 0.0, "is_disabled": 0, "rental_uris": {"ios": "https://dc.lft.to/lastmile_qr_scan", "android": "https://dc.lft.to/lastmile_qr_scan"}}, {"name": "24856713862c1b29dd36db3b6ccd1600", "lon": -77.03818283333334, "lat": 38.930989333333336, "type": "electric_scooter", "fusion_lon": 0.0, "is_reserved": 0, "bike_id": "24856713862c1b29dd36db3b6ccd1600", "fusion_lat": 0.0, "is_disabled": 0, "rental_uris": {"ios": "https://dc.lft.to/lastmile_qr_scan", "android": "https://dc.lft.to/lastmile_qr_scan"}}, {"name": "adc03da420ac2eeab8a903eefd91424d", "lon": -77.04883233333334, "lat": 38.91561766666667, "type": "electric_scooter", "fusion_lon": 0.0, "is_reserved": 0, "bike_id": "adc03da420ac2eeab8a903eefd91424d", "fusion_lat": 0.0, "is_disabled": 0, "rental_uris": {"ios": "https://dc.lft.to/lastmile_qr_scan", "android": "https://dc.lft.to/lastmile_qr_scan"}}, {"name": "fb4a97d79f74c77ca2f8080737253708", "lon": -77.027165, "lat": 38.9182305, "type": "electric_scooter", "fusion_lon": 0.0, "is_reserved": 0, "bike_id": "fb4a97d79f74c77ca2f8080737253708", "fusion_lat": 0.0, "is_disabled": 0, "rental_uris": {"ios": "https://dc.lft.to/lastmile_qr_scan", "android": "https://dc.lft.to/lastmile_qr_scan"}}, {"name": "c888667af2c9e4765a5908997998d4c9", "lon": -77.00678366666666, "lat": 38.900142833333334, "type": "electric_scooter", "fusion_lon": 0.0, "is_reserved": 0, "bike_id": "c888667af2c9e4765a5908997998d4c9", "fusion_lat": 0.0, "is_disabled": 0, "rental_uris": {"ios": "https://dc.lft.to/lastmile_qr_scan", "android": "https://dc.lft.to/lastmile_qr_scan"}}, {"name": "82083a698f65176c0e4d464974bed03e", "lon": -77.04250666666667, "lat": 38.920641, "type": "electric_scooter", "fusion_lon": 0.0, "is_reserved": 0, "bike_id": "82083a698f65176c0e4d464974bed03e", "fusion_lat": 0.0, "is_disabled": 0, "rental_uris": {"ios": "https://dc.lft.to/lastmile_qr_scan", "android": "https://dc.lft.to/lastmile_qr_scan"}}, {"name": "735df8ac72cf3a0bfe20e2c915aea14b", "lon": -77.035315, "lat": 38.90148816666667, "type": "electric_scooter", "fusion_lon": 0.0, "is_reserved": 0, "bike_id": "735df8ac72cf3a0bfe20e2c915aea14b", "fusion_lat": 0.0, "is_disabled": 0, "rental_uris": {"ios": "https://dc.lft.to/lastmile_qr_scan", "android": "https://dc.lft.to/lastmile_qr_scan"}}, {"name": "5231f09d496cbd74dcccc289baa6ad4e", "lon": -77.04602416666667, "lat": 38.91920616666667, "type": "electric_scooter", "fusion_lon": 0.0, "is_reserved": 0, "bike_id": "5231f09d496cbd74dcccc289baa6ad4e", "fusion_lat": 0.0, "is_disabled": 0, "rental_uris": {"ios": "https://dc.lft.to/lastmile_qr_scan", "android": "https://dc.lft.to/lastmile_qr_scan"}}, {"name": "ed5daa46f8cba9a89210e44e15c7a732", "lon": -77.04667366666666, "lat": 38.904235, "type": "electric_scooter", "fusion_lon": 0.0, "is_reserved": 0, "bike_id": "ed5daa46f8cba9a89210e44e15c7a732", "fusion_lat": 0.0, "is_disabled": 0, "rental_uris": {"ios": "https://dc.lft.to/lastmile_qr_scan", "android": "https://dc.lft.to/lastmile_qr_scan"}}, {"name": "6d19bd96bfc24f15e04a15b684efac3e", "lon": -77.03055533333334, "lat": 38.92376266666667, "type": "electric_scooter", "fusion_lon": 0.0, "is_reserved": 0, "bike_id": "6d19bd96bfc24f15e04a15b684efac3e", "fusion_lat": 0.0, "is_disabled": 0, "rental_uris": {"ios": "https://dc.lft.to/lastmile_qr_scan", "android": "https://dc.lft.to/lastmile_qr_scan"}}, {"name": "fc75159f700be1a0126b6dcd6166e194", "lon": -77.0827885, "lat": 38.93016933333333, "type": "electric_scooter", "fusion_lon": 0.0, "is_reserved": 0, "bike_id": "fc75159f700be1a0126b6dcd6166e194", "fusion_lat": 0.0, "is_disabled": 0, "rental_uris": {"ios": "https://dc.lft.to/lastmile_qr_scan", "android": "https://dc.lft.to/lastmile_qr_scan"}}, {"name": "d112886d9942c5eb3c7498300f9458b0", "lon": -77.0294835, "lat": 38.9156465, "type": "electric_scooter", "fusion_lon": 0.0, "is_reserved": 0, "bike_id": "d112886d9942c5eb3c7498300f9458b0", "fusion_lat": 0.0, "is_disabled": 0, "rental_uris": {"ios": "https://dc.lft.to/lastmile_qr_scan", "android": "https://dc.lft.to/lastmile_qr_scan"}}, {"name": "e165ca0c24d738f68203eb186162abab", "lon": -77.022007, "lat": 38.90201416666667, "type": "electric_scooter", "fusion_lon": 0.0, "is_reserved": 0, "bike_id": "e165ca0c24d738f68203eb186162abab", "fusion_lat": 0.0, "is_disabled": 0, "rental_uris": {"ios": "https://dc.lft.to/lastmile_qr_scan", "android": "https://dc.lft.to/lastmile_qr_scan"}}, {"name": "a1dd8d02d23f189956a85a1dc0aefb60", "lon": -77.03274816666666, "lat": 38.93254966666667, "type": "electric_scooter", "fusion_lon": 0.0, "is_reserved": 0, "bike_id": "a1dd8d02d23f189956a85a1dc0aefb60", "fusion_lat": 0.0, "is_disabled": 0, "rental_uris": {"ios": "https://dc.lft.to/lastmile_qr_scan", "android": "https://dc.lft.to/lastmile_qr_scan"}}, {"name": "485de59462f483f97bd6ac2c451bee24", "lon": -77.043409, "lat": 38.906284166666666, "type": "electric_scooter", "fusion_lon": 0.0, "is_reserved": 0, "bike_id": "485de59462f483f97bd6ac2c451bee24", "fusion_lat": 0.0, "is_disabled": 0, "rental_uris": {"ios": "https://dc.lft.to/lastmile_qr_scan", "android": "https://dc.lft.to/lastmile_qr_scan"}}, {"name": "950b93003863ec598d221b871c93f0c4", "lon": -77.07269266666667, "lat": 38.934808333333336, "type": "electric_scooter", "fusion_lon": 0.0, "is_reserved": 0, "bike_id": "950b93003863ec598d221b871c93f0c4", "fusion_lat": 0.0, "is_disabled": 0, "rental_uris": {"ios": "https://dc.lft.to/lastmile_qr_scan", "android": "https://dc.lft.to/lastmile_qr_scan"}}, {"name": "72d8bb3cac9a34741f3f6df371daec2f", "lon": -77.02160366666666, "lat": 38.92612616666667, "type": "electric_scooter", "fusion_lon": 0.0, "is_reserved": 0, "bike_id": "72d8bb3cac9a34741f3f6df371daec2f", "fusion_lat": 0.0, "is_disabled": 0, "rental_uris": {"ios": "https://dc.lft.to/lastmile_qr_scan", "android": "https://dc.lft.to/lastmile_qr_scan"}}, {"name": "ad8abec262da0d35625334e02b23881a", "lon": -77.03466416666667, "lat": 38.92061833333333, "type": "electric_scooter", "fusion_lon": 0.0, "is_reserved": 0, "bike_id": "ad8abec262da0d35625334e02b23881a", "fusion_lat": 0.0, "is_disabled": 0, "rental_uris": {"ios": "https://dc.lft.to/lastmile_qr_scan", "android": "https://dc.lft.to/lastmile_qr_scan"}}, {"name": "1a52685d4133f3e20386dd5e729ee5ef", "lon": -76.95019316666666, "lat": 38.89389416666667, "type": "electric_scooter", "fusion_lon": 0.0, "is_reserved": 0, "bike_id": "1a52685d4133f3e20386dd5e729ee5ef", "fusion_lat": 0.0, "is_disabled": 0, "rental_uris": {"ios": "https://dc.lft.to/lastmile_qr_scan", "android": "https://dc.lft.to/lastmile_qr_scan"}}, {"name": "de306d416b83361e3b9b96285ca40f20", "lon": -77.027156, "lat": 38.9245945, "type": "electric_scooter", "fusion_lon": 0.0, "is_reserved": 0, "bike_id": "de306d416b83361e3b9b96285ca40f20", "fusion_lat": 0.0, "is_disabled": 0, "rental_uris": {"ios": "https://dc.lft.to/lastmile_qr_scan", "android": "https://dc.lft.to/lastmile_qr_scan"}}, {"name": "ff99f7947e41f9ed7fe813ebcece8ec8", "lon": -77.03606483333333, "lat": 38.9280405, "type": "electric_scooter", "fusion_lon": 0.0, "is_reserved": 0, "bike_id": "ff99f7947e41f9ed7fe813ebcece8ec8", "fusion_lat": 0.0, "is_disabled": 0, "rental_uris": {"ios": "https://dc.lft.to/lastmile_qr_scan", "android": "https://dc.lft.to/lastmile_qr_scan"}}, {"name": "9c08a9f79695cca986339831bb74cfbb", "lon": -76.93368766666667, "lat": 38.899144666666665, "type": "electric_scooter", "fusion_lon": 0.0, "is_reserved": 0, "bike_id": "9c08a9f79695cca986339831bb74cfbb", "fusion_lat": 0.0, "is_disabled": 0, "rental_uris": {"ios": "https://dc.lft.to/lastmile_qr_scan", "android": "https://dc.lft.to/lastmile_qr_scan"}}, {"name": "c1e89cb77060a2886a89b5b0f87a624a", "lon": -77.016518, "lat": 38.88114133333333, "type": "electric_scooter", "fusion_lon": 0.0, "is_reserved": 0, "bike_id": "c1e89cb77060a2886a89b5b0f87a624a", "fusion_lat": 0.0, "is_disabled": 0, "rental_uris": {"ios": "https://dc.lft.to/lastmile_qr_scan", "android": "https://dc.lft.to/lastmile_qr_scan"}}, {"name": "5a1be29e5f6c35e85210e3238c5dfe90", "lon": -77.0327015, "lat": 38.928409333333335, "type": "electric_scooter", "fusion_lon": 0.0, "is_reserved": 0, "bike_id": "5a1be29e5f6c35e85210e3238c5dfe90", "fusion_lat": 0.0, "is_disabled": 0, "rental_uris": {"ios": "https://dc.lft.to/lastmile_qr_scan", "android": "https://dc.lft.to/lastmile_qr_scan"}}, {"name": "53fd994c7fcee80be881753f97fb90cc", "lon": -76.99716366666667, "lat": 38.89999866666667, "type": "electric_scooter", "fusion_lon": 0.0, "is_reserved": 0, "bike_id": "53fd994c7fcee80be881753f97fb90cc", "fusion_lat": 0.0, "is_disabled": 0, "rental_uris": {"ios": "https://dc.lft.to/lastmile_qr_scan", "android": "https://dc.lft.to/lastmile_qr_scan"}}, {"name": "0bee0328558749aad85dc8db9e71d4c3", "lon": -77.02721833333334, "lat": 38.940898833333335, "type": "electric_scooter", "fusion_lon": 0.0, "is_reserved": 0, "bike_id": "0bee0328558749aad85dc8db9e71d4c3", "fusion_lat": 0.0, "is_disabled": 0, "rental_uris": {"ios": "https://dc.lft.to/lastmile_qr_scan", "android": "https://dc.lft.to/lastmile_qr_scan"}}, {"name": "ff8d94ea594e2f952115b2af5cbb19f8", "lon": -76.999555, "lat": 38.925505333333334, "type": "electric_bike", "fusion_lon": 0.0, "is_reserved": 0, "bike_id": "ff8d94ea594e2f952115b2af5cbb19f8", "fusion_lat": 0.0, "is_disabled": 0, "rental_uris": {"ios": "https://dc.lft.to/lastmile_qr_scan", "android": "https://dc.lft.to/lastmile_qr_scan"}}, {"name": "0af2d48ec920b6fa0789e543889ebc1c", "lon": -77.03781733333334, "lat": 38.92479866666667, "type": "electric_scooter", "fusion_lon": 0.0, "is_reserved": 0, "bike_id": "0af2d48ec920b6fa0789e543889ebc1c", "fusion_lat": 0.0, "is_disabled": 0, "rental_uris": {"ios": "https://dc.lft.to/lastmile_qr_scan", "android": "https://dc.lft.to/lastmile_qr_scan"}}, {"name": "5904a31828ef8ce1351cc2c7cbe97c11", "lon": -77.034103, "lat": 38.9204065, "type": "electric_scooter", "fusion_lon": 0.0, "is_reserved": 0, "bike_id": "5904a31828ef8ce1351cc2c7cbe97c11", "fusion_lat": 0.0, "is_disabled": 0, "rental_uris": {"ios": "https://dc.lft.to/lastmile_qr_scan", "android": "https://dc.lft.to/lastmile_qr_scan"}}, {"name": "99852c7d718f2a9f49687cc6e2361851", "lon": -77.1009055, "lat": 38.959576166666665, "type": "electric_bike", "fusion_lon": 0.0, "is_reserved": 0, "bike_id": "99852c7d718f2a9f49687cc6e2361851", "fusion_lat": 0.0, "is_disabled": 0, "rental_uris": {"ios": "https://dc.lft.to/lastmile_qr_scan", "android": "https://dc.lft.to/lastmile_qr_scan"}}, {"name": "6f26eada8ae9a39f7acaaac43cc3b8f6", "lon": -77.032155, "lat": 38.936172666666664, "type": "electric_scooter", "fusion_lon": 0.0, "is_reserved": 0, "bike_id": "6f26eada8ae9a39f7acaaac43cc3b8f6", "fusion_lat": 0.0, "is_disabled": 0, "rental_uris": {"ios": "https://dc.lft.to/lastmile_qr_scan", "android": "https://dc.lft.to/lastmile_qr_scan"}}, {"name": "edd133fd288f7a5741b22df049db0ffe", "lon": -77.05507816666666, "lat": 38.93658766666667, "type": "electric_scooter", "fusion_lon": 0.0, "is_reserved": 0, "bike_id": "edd133fd288f7a5741b22df049db0ffe", "fusion_lat": 0.0, "is_disabled": 0, "rental_uris": {"ios": "https://dc.lft.to/lastmile_qr_scan", "android": "https://dc.lft.to/lastmile_qr_scan"}}, {"name": "bf0c1d03338f13f3b59753b26f2b241f", "lon": -77.0515865, "lat": 38.9037775, "type": "electric_scooter", "fusion_lon": 0.0, "is_reserved": 0, "bike_id": "bf0c1d03338f13f3b59753b26f2b241f", "fusion_lat": 0.0, "is_disabled": 0, "rental_uris": {"ios": "https://dc.lft.to/lastmile_qr_scan", "android": "https://dc.lft.to/lastmile_qr_scan"}}, {"name": "f83cd7603a4e2c98cfb4c1eb3ab870ca", "lon": -77.07407766666667, "lat": 38.92909133333333, "type": "electric_scooter", "fusion_lon": 0.0, "is_reserved": 0, "bike_id": "f83cd7603a4e2c98cfb4c1eb3ab870ca", "fusion_lat": 0.0, "is_disabled": 0, "rental_uris": {"ios": "https://dc.lft.to/lastmile_qr_scan", "android": "https://dc.lft.to/lastmile_qr_scan"}}, {"name": "ca3a97201fe766aa74d6cf4a184dda88", "lon": -77.11758033333334, "lat": 39.049090666666665, "type": "electric_bike", "fusion_lon": 0.0, "is_reserved": 0, "bike_id": "ca3a97201fe766aa74d6cf4a184dda88", "fusion_lat": 0.0, "is_disabled": 0, "rental_uris": {"ios": "https://dc.lft.to/lastmile_qr_scan", "android": "https://dc.lft.to/lastmile_qr_scan"}}, {"name": "aeeb232ffadf7d15f51f2832d259def0", "lon": -77.0430835, "lat": 38.8810885, "type": "electric_scooter", "fusion_lon": 0.0, "is_reserved": 0, "bike_id": "aeeb232ffadf7d15f51f2832d259def0", "fusion_lat": 0.0, "is_disabled": 0, "rental_uris": {"ios": "https://dc.lft.to/lastmile_qr_scan", "android": "https://dc.lft.to/lastmile_qr_scan"}}, {"name": "82fc6f1b82ada239cc56de1f0d559f97", "lon": -77.0310545, "lat": 38.89463383333333, "type": "electric_scooter", "fusion_lon": 0.0, "is_reserved": 0, "bike_id": "82fc6f1b82ada239cc56de1f0d559f97", "fusion_lat": 0.0, "is_disabled": 0, "rental_uris": {"ios": "https://dc.lft.to/lastmile_qr_scan", "android": "https://dc.lft.to/lastmile_qr_scan"}}, {"name": "95f3afc5ac6d7cc0d686c46adf3ee52d", "lon": -77.0517355, "lat": 38.90316766666667, "type": "electric_scooter", "fusion_lon": 0.0, "is_reserved": 0, "bike_id": "95f3afc5ac6d7cc0d686c46adf3ee52d", "fusion_lat": 0.0, "is_disabled": 0, "rental_uris": {"ios": "https://dc.lft.to/lastmile_qr_scan", "android": "https://dc.lft.to/lastmile_qr_scan"}}, {"name": "82020458a16aa5f19839591e720b8f18", "lon": -76.99633083333333, "lat": 38.88502833333333, "type": "electric_scooter", "fusion_lon": 0.0, "is_reserved": 0, "bike_id": "82020458a16aa5f19839591e720b8f18", "fusion_lat": 0.0, "is_disabled": 0, "rental_uris": {"ios": "https://dc.lft.to/lastmile_qr_scan", "android": "https://dc.lft.to/lastmile_qr_scan"}}, {"name": "6b3851c5df8c14b847fca54e90c942a1", "lon": -76.971872, "lat": 38.917890666666665, "type": "electric_bike", "fusion_lon": 0.0, "is_reserved": 0, "bike_id": "6b3851c5df8c14b847fca54e90c942a1", "fusion_lat": 0.0, "is_disabled": 0, "rental_uris": {"ios": "https://dc.lft.to/lastmile_qr_scan", "android": "https://dc.lft.to/lastmile_qr_scan"}}, {"name": "3701f784b2b4d3ce69c3487c2e9f95a7", "lon": -77.13145583333333, "lat": 38.8616705, "type": "electric_bike", "fusion_lon": 0.0, "is_reserved": 0, "bike_id": "3701f784b2b4d3ce69c3487c2e9f95a7", "fusion_lat": 0.0, "is_disabled": 0, "rental_uris": {"ios": "https://dc.lft.to/lastmile_qr_scan", "android": "https://dc.lft.to/lastmile_qr_scan"}}, {"name": "5a1abc54f2ff2337449b0b4a8c998809", "lon": -77.04772633333333, "lat": 38.90144266666667, "type": "electric_scooter", "fusion_lon": 0.0, "is_reserved": 0, "bike_id": "5a1abc54f2ff2337449b0b4a8c998809", "fusion_lat": 0.0, "is_disabled": 0, "rental_uris": {"ios": "https://dc.lft.to/lastmile_qr_scan", "android": "https://dc.lft.to/lastmile_qr_scan"}}, {"name": "fa78a9dbe9bc329d64e26a0c17815b75", "lon": -76.99913583333333, "lat": 38.92458533333333, "type": "electric_scooter", "fusion_lon": 0.0, "is_reserved": 0, "bike_id": "fa78a9dbe9bc329d64e26a0c17815b75", "fusion_lat": 0.0, "is_disabled": 0, "rental_uris": {"ios": "https://dc.lft.to/lastmile_qr_scan", "android": "https://dc.lft.to/lastmile_qr_scan"}}, {"name": "0d885bace2255165510a98fb1907a5cd", "lon": -77.01912216666666, "lat": 38.923655833333335, "type": "electric_scooter", "fusion_lon": 0.0, "is_reserved": 0, "bike_id": "0d885bace2255165510a98fb1907a5cd", "fusion_lat": 0.0, "is_disabled": 0, "rental_uris": {"ios": "https://dc.lft.to/lastmile_qr_scan", "android": "https://dc.lft.to/lastmile_qr_scan"}}, {"name": "80dc212e004336fdb26ead197e045231", "lon": -77.10713516666667, "lat": 38.85537816666667, "type": "electric_bike", "fusion_lon": 0.0, "is_reserved": 0, "bike_id": "80dc212e004336fdb26ead197e045231", "fusion_lat": 0.0, "is_disabled": 0, "rental_uris": {"ios": "https://dc.lft.to/lastmile_qr_scan", "android": "https://dc.lft.to/lastmile_qr_scan"}}, {"name": "e58fa8105c9b6198401ca63ef99aa998", "lon": -77.02794633333333, "lat": 38.9308345, "type": "electric_scooter", "fusion_lon": 0.0, "is_reserved": 0, "bike_id": "e58fa8105c9b6198401ca63ef99aa998", "fusion_lat": 0.0, "is_disabled": 0, "rental_uris": {"ios": "https://dc.lft.to/lastmile_qr_scan", "android": "https://dc.lft.to/lastmile_qr_scan"}}, {"name": "351054e58d7dd475d8fea91b3dde8039", "lon": -77.007694, "lat": 38.9267235, "type": "electric_scooter", "fusion_lon": 0.0, "is_reserved": 0, "bike_id": "351054e58d7dd475d8fea91b3dde8039", "fusion_lat": 0.0, "is_disabled": 0, "rental_uris": {"ios": "https://dc.lft.to/lastmile_qr_scan", "android": "https://dc.lft.to/lastmile_qr_scan"}}, {"name": "e5b3854528df5896387d21ef8186e876", "lon": -76.98993283333333, "lat": 38.864988, "type": "electric_scooter", "fusion_lon": 0.0, "is_reserved": 0, "bike_id": "e5b3854528df5896387d21ef8186e876", "fusion_lat": 0.0, "is_disabled": 0, "rental_uris": {"ios": "https://dc.lft.to/lastmile_qr_scan", "android": "https://dc.lft.to/lastmile_qr_scan"}}, {"name": "b837f6ec7e5ef1b01eb6a4573979f462", "lon": -77.02165216666667, "lat": 38.89731366666667, "type": "electric_scooter", "fusion_lon": 0.0, "is_reserved": 0, "bike_id": "b837f6ec7e5ef1b01eb6a4573979f462", "fusion_lat": 0.0, "is_disabled": 0, "rental_uris": {"ios": "https://dc.lft.to/lastmile_qr_scan", "android": "https://dc.lft.to/lastmile_qr_scan"}}, {"name": "bb4a8ef4ed1a770064ad52d44d58065e", "lon": -77.02283133333333, "lat": 38.91686833333333, "type": "electric_scooter", "fusion_lon": 0.0, "is_reserved": 0, "bike_id": "bb4a8ef4ed1a770064ad52d44d58065e", "fusion_lat": 0.0, "is_disabled": 0, "rental_uris": {"ios": "https://dc.lft.to/lastmile_qr_scan", "android": "https://dc.lft.to/lastmile_qr_scan"}}, {"name": "fc19c24ec478f5ff8cfdf0f414d826e5", "lon": -77.02983283333333, "lat": 38.90730466666667, "type": "electric_scooter", "fusion_lon": 0.0, "is_reserved": 0, "bike_id": "fc19c24ec478f5ff8cfdf0f414d826e5", "fusion_lat": 0.0, "is_disabled": 0, "rental_uris": {"ios": "https://dc.lft.to/lastmile_qr_scan", "android": "https://dc.lft.to/lastmile_qr_scan"}}, {"name": "c1ecb929e74ed37da3dd1234f2329a89", "lon": -77.05511016666667, "lat": 38.899599333333335, "type": "electric_scooter", "fusion_lon": 0.0, "is_reserved": 0, "bike_id": "c1ecb929e74ed37da3dd1234f2329a89", "fusion_lat": 0.0, "is_disabled": 0, "rental_uris": {"ios": "https://dc.lft.to/lastmile_qr_scan", "android": "https://dc.lft.to/lastmile_qr_scan"}}, {"name": "7575b32229cc0b8269c3ce4b627ec8cf", "lon": -77.027157, "lat": 38.9369975, "type": "electric_scooter", "fusion_lon": 0.0, "is_reserved": 0, "bike_id": "7575b32229cc0b8269c3ce4b627ec8cf", "fusion_lat": 0.0, "is_disabled": 0, "rental_uris": {"ios": "https://dc.lft.to/lastmile_qr_scan", "android": "https://dc.lft.to/lastmile_qr_scan"}}, {"name": "7ec63b2f8acc82f03e5712a90af90ba4", "lon": -77.03539916666666, "lat": 38.923263666666664, "type": "electric_scooter", "fusion_lon": 0.0, "is_reserved": 0, "bike_id": "7ec63b2f8acc82f03e5712a90af90ba4", "fusion_lat": 0.0, "is_disabled": 0, "rental_uris": {"ios": "https://dc.lft.to/lastmile_qr_scan", "android": "https://dc.lft.to/lastmile_qr_scan"}}, {"name": "959d1867fc68967de1354328a51148b3", "lon": -77.02719783333333, "lat": 38.89873983333333, "type": "electric_scooter", "fusion_lon": 0.0, "is_reserved": 0, "bike_id": "959d1867fc68967de1354328a51148b3", "fusion_lat": 0.0, "is_disabled": 0, "rental_uris": {"ios": "https://dc.lft.to/lastmile_qr_scan", "android": "https://dc.lft.to/lastmile_qr_scan"}}, {"name": "e7d8b605143916d633dd668bc26a67cc", "lon": -77.04191683333333, "lat": 38.920220666666665, "type": "electric_scooter", "fusion_lon": 0.0, "is_reserved": 0, "bike_id": "e7d8b605143916d633dd668bc26a67cc", "fusion_lat": 0.0, "is_disabled": 0, "rental_uris": {"ios": "https://dc.lft.to/lastmile_qr_scan", "android": "https://dc.lft.to/lastmile_qr_scan"}}, {"name": "f680a4dd229474d31a460c6950a2d9fa", "lon": -77.0273855, "lat": 38.928520666666664, "type": "electric_scooter", "fusion_lon": 0.0, "is_reserved": 0, "bike_id": "f680a4dd229474d31a460c6950a2d9fa", "fusion_lat": 0.0, "is_disabled": 0, "rental_uris": {"ios": "https://dc.lft.to/lastmile_qr_scan", "android": "https://dc.lft.to/lastmile_qr_scan"}}, {"name": "0e7da697070811b42597018173a76f04", "lon": -77.00873483333334, "lat": 38.876504, "type": "electric_scooter", "fusion_lon": 0.0, "is_reserved": 0, "bike_id": "0e7da697070811b42597018173a76f04", "fusion_lat": 0.0, "is_disabled": 0, "rental_uris": {"ios": "https://dc.lft.to/lastmile_qr_scan", "android": "https://dc.lft.to/lastmile_qr_scan"}}, {"name": "08d2f2c33d3fa2f6980c4f68af462c80", "lon": -77.00092016666666, "lat": 38.92027516666667, "type": "electric_scooter", "fusion_lon": 0.0, "is_reserved": 0, "bike_id": "08d2f2c33d3fa2f6980c4f68af462c80", "fusion_lat": 0.0, "is_disabled": 0, "rental_uris": {"ios": "https://dc.lft.to/lastmile_qr_scan", "android": "https://dc.lft.to/lastmile_qr_scan"}}, {"name": "fa4fd953078cc73d48eef47dab653bf1", "lon": -77.001498, "lat": 38.87401666666667, "type": "electric_scooter", "fusion_lon": 0.0, "is_reserved": 0, "bike_id": "fa4fd953078cc73d48eef47dab653bf1", "fusion_lat": 0.0, "is_disabled": 0, "rental_uris": {"ios": "https://dc.lft.to/lastmile_qr_scan", "android": "https://dc.lft.to/lastmile_qr_scan"}}, {"name": "af316e1fca4384e61343362cef8b7e79", "lon": -77.02319516666667, "lat": 38.94092233333333, "type": "electric_scooter", "fusion_lon": 0.0, "is_reserved": 0, "bike_id": "af316e1fca4384e61343362cef8b7e79", "fusion_lat": 0.0, "is_disabled": 0, "rental_uris": {"ios": "https://dc.lft.to/lastmile_qr_scan", "android": "https://dc.lft.to/lastmile_qr_scan"}}, {"name": "85b9bec2bdf5f6b47269fc0fe91db90f", "lon": -76.90707483333334, "lat": 38.89596133333333, "type": "electric_bike", "fusion_lon": 0.0, "is_reserved": 0, "bike_id": "85b9bec2bdf5f6b47269fc0fe91db90f", "fusion_lat": 0.0, "is_disabled": 0, "rental_uris": {"ios": "https://dc.lft.to/lastmile_qr_scan", "android": "https://dc.lft.to/lastmile_qr_scan"}}, {"name": "f60d7547bfae4003f893fab28890d903", "lon": -77.01985016666667, "lat": 38.922714666666664, "type": "electric_bike", "fusion_lon": 0.0, "is_reserved": 0, "bike_id": "f60d7547bfae4003f893fab28890d903", "fusion_lat": 0.0, "is_disabled": 0, "rental_uris": {"ios": "https://dc.lft.to/lastmile_qr_scan", "android": "https://dc.lft.to/lastmile_qr_scan"}}, {"name": "e87a03e696b2c9ed95e86aaa17cb2dae", "lon": -76.9981555, "lat": 38.84429433333333, "type": "electric_scooter", "fusion_lon": 0.0, "is_reserved": 0, "bike_id": "e87a03e696b2c9ed95e86aaa17cb2dae", "fusion_lat": 0.0, "is_disabled": 0, "rental_uris": {"ios": "https://dc.lft.to/lastmile_qr_scan", "android": "https://dc.lft.to/lastmile_qr_scan"}}, {"name": "b1f17b89ffcec1423f57e92e0d887d39", "lon": -77.04340266666667, "lat": 38.90765283333333, "type": "electric_scooter", "fusion_lon": 0.0, "is_reserved": 0, "bike_id": "b1f17b89ffcec1423f57e92e0d887d39", "fusion_lat": 0.0, "is_disabled": 0, "rental_uris": {"ios": "https://dc.lft.to/lastmile_qr_scan", "android": "https://dc.lft.to/lastmile_qr_scan"}}, {"name": "d0e7ee16005c89fe566aa03f172f2555", "lon": -77.05415966666666, "lat": 38.92790516666667, "type": "electric_scooter", "fusion_lon": 0.0, "is_reserved": 0, "bike_id": "d0e7ee16005c89fe566aa03f172f2555", "fusion_lat": 0.0, "is_disabled": 0, "rental_uris": {"ios": "https://dc.lft.to/lastmile_qr_scan", "android": "https://dc.lft.to/lastmile_qr_scan"}}, {"name": "f863b5fa975594030af2799497a05335", "lon": -77.03439716666666, "lat": 38.91801, "type": "electric_scooter", "fusion_lon": 0.0, "is_reserved": 0, "bike_id": "f863b5fa975594030af2799497a05335", "fusion_lat": 0.0, "is_disabled": 0, "rental_uris": {"ios": "https://dc.lft.to/lastmile_qr_scan", "android": "https://dc.lft.to/lastmile_qr_scan"}},