{"data": {"bikes": [{"name": "81f7ad2bac1448173c2045fa3162b35d", "lon": -77.04199016666666, "lat": 38.907442833333334, "type": "electric_scooter", "fusion_lon": 0.0, "is_reserved": 0, "bike_id": "81f7ad2bac1448173c2045fa3162b35d", "fusion_lat": 0.0, "is_disabled": 0, "rental_uris": {"ios": "https://dc.lft.to/lastmile_qr_scan", "android": "https://dc.lft.to/lastmile_qr_scan"}}, {"name": "792c5d3c78b3ec10ed969ee869094a26", "lon": -77.03662716666666, "lat": 38.92290466666667, "type": "electric_scooter", "fusion_lon": 0.0, "is_reserved": 0, "bike_id": "792c5d3c78b3ec10ed969ee869094a26", "fusion_lat": 0.0, "is_disabled": 0, "rental_uris": {"ios": "https://dc.lft.to/lastmile_qr_scan", "android": "https://dc.lft.to/lastmile_qr_scan"}}, {"name": "53cd98058bb0265b104c2f94579ffd80", "lon": -77.08396583333334, "lat": 38.908057, "type": "electric_scooter", "fusion_lon": 0.0, "is_reserved": 0, "bike_id": "53cd98058bb0265b104c2f94579ffd80", "fusion_lat": 0.0, "is_disabled": 0, "rental_uris": {"ios": "https://dc.lft.to/lastmile_qr_scan", "android": "https://dc.lft.to/lastmile_qr_scan"}}, {"name": "1915690d1fc42feddc9c9e14d031f340", "lon": -77.04208583333333, "lat": 38.9334505, "type": "electric_bike", "fusion_lon": 0.0, "is_reserved": 0, "bike_id": "1915690d1fc42feddc9c9e14d031f340", "fusion_lat": 0.0, "is_disabled": 0, "rental_uris": {"ios": "https://dc.lft.to/lastmile_qr_scan", "android": "https://dc.lft.to/lastmile_qr_scan"}}, {"name": "879b8efe842af6cba2eacc231f929ea6", "lon": -76.94934, "lat": 38.8934505, "type": "electric_scooter", "fusion_lon": 0.0, "is_reserved": 0, "bike_id": "879b8efe842af6cba2eacc231f929ea6", "fusion_lat": 0.0, "is_disabled": 0, "rental_uris": {"ios": "https://dc.lft.to/lastmile_qr_scan", "android": "https://dc.lft.to/lastmile_qr_scan"}}, {"name": "a2b14779b9edde576ee3b9bbd4fb40b0", "lon": -76.99775700000001, "lat": 38.86212483333333, "type": "electric_bike", "fusion_lon": 0.0, "is_reserved": 0, "bike_id": "a2b14779b9edde576ee3b9bbd4fb40b0", "fusion_lat": 0.0, "is_disabled": 0, "rental_uris": {"ios": "https://dc.lft.to/lastmile_qr_scan", "android": "https://dc.lft.to/lastmile_qr_scan"}}, {"name": "ba636a0e1397538dee933559c011809f", "lon": -76.99837266666667, "lat": 38.88474466666667, "type": "electric_scooter", "fusion_lon": 0.0, "is_reserved": 0, "bike_id": "ba636a0e1397538dee933559c011809f", "fusion_lat": 0.0, "is_disabled": 0, "rental_uris": {"ios": "https://dc.lft.to/lastmile_qr_scan", "android": "https://dc.lft.to/lastmile_qr_scan"}}, {"name": "94a86e4e04c5daf164323a07b8f48448", "lon": -77.034783, "lat": 38.906093, "type": "electric_scooter", "fusion_lon": 0.0, "is_reserved": 0, "bike_id": "94a86e4e04c5daf164323a07b8f48448", "fusion_lat": 0.0, "is_disabled": 0, "rental_uris": {"ios": "https://dc.lft.to/lastmile_qr_scan", "android": "https://dc.lft.to/lastmile_qr_scan"}}, {"name": "c02e1841079ecd2ece8cdb09b1a4b35d", "lon": -77.04747166666667, "lat": 38.900734166666666, "type": "electric_scooter", "fusion_lon": 0.0, "is_reserved": 0, "bike_id": "c02e1841079ecd2ece8cdb09b1a4b35d", "fusion_lat": 0.0, "is_disabled": 0, "rental_uris": {"ios": "https://dc.lft.to/lastmile_qr_scan", "android": "https://dc.lft.to/lastmile_qr_scan"}}, {"name": "9f978cb3db52379268ea1ebeb595fb96", "lon": -76.96911533333333, "lat": 38.846154, "type": "electric_bike", "fusion_lon": 0.0, "is_reserved": 0, "bike_id": "9f978cb3db52379268ea1ebeb595fb96", "fusion_lat": 0.0, "is_disabled": 0, "rental_uris": {"ios": "https://dc.lft.to/lastmile_qr_scan", "android": "https://dc.lft.to/lastmile_qr_scan"}}, {"name": "e693314ceda66d44b9770ea58f815c3b", "lon": -77.0272665, "lat": 38.90477966666667, "type": "electric_scooter", "fusion_lon": 0.0, "is_reserved": 0, "bike_id": "e693314ceda66d44b9770ea58f815c3b", "fusion_lat": 0.0, "is_disabled": 0, "rental_uris": {"ios": "https://dc.lft.to/lastmile_qr_scan", "android": "https://dc.lft.to/lastmile_qr_scan"}}, {"name": "599bb1092ba1b19941706be1cc9f7cbe", "lon": -77.04487433333334, "lat": 38.8428865, "type": "electric_bike", "fusion_lon": 0.0, "is_reserved": 0, "bike_id": "599bb1092ba1b19941706be1cc9f7cbe", "fusion_lat": 0.0, "is_disabled": 0, "rental_uris": {"ios": "https://dc.lft.to/lastmile_qr_scan", "android": "https://dc.lft.to/lastmile_qr_scan"}}, {"name": "851e87eb803f3d487bfe4d6a32af9a7b", "lon": -77.03101683333334, "lat": 38.95075933333333, "type": "electric_scooter", "fusion_lon": 0.0, "is_reserved": 0, "bike_id": "851e87eb803f3d487bfe4d6a32af9a7b", "fusion_lat": 0.0, "is_disabled": 0, "rental_uris": {"ios": "https://dc.lft.to/lastmile_qr_scan", "android": "https://dc.lft.to/lastmile_qr_scan"}}, {"name": "5c00a9df9c16577387e18b1860f7998c", "lon": -76.93367833333333, "lat": 38.89912266666666, "type": "electric_scooter", "fusion_lon": 0.0, "is_reserved": 0, "bike_id": "5c00a9df9c16577387e18b1860f7998c", "fusion_lat": 0.0, "is_disabled": 0, "rental_uris": {"ios": "https://dc.lft.to/lastmile_qr_scan", "android": "https://dc.lft.to/lastmile_qr_scan"}}, {"name": "a5724cbd1e697cebce9b5c445afdd090", "lon": -77.06330466666667, "lat": 38.944221666666664, "type": "electric_scooter", "fusion_lon": 0.0, "is_reserved": 0, "bike_id": "a5724cbd1e697cebce9b5c445afdd090", "fusion_lat": 0.0, "is_disabled": 0, "rental_uris": {"ios": "https://dc.lft.to/lastmile_qr_scan", "android": "https://dc.lft.to/lastmile_qr_scan"}}, {"name": "f1aeed9f7f8c3592b879cfc84ee035d6", "lon": -77.120794, "lat": 38.8543005, "type": "electric_bike", "fusion_lon": 0.0, "is_reserved": 0, "bike_id": "f1aeed9f7f8c3592b879cfc84ee035d6", "fusion_lat": 0.0, "is_disabled": 0, "rental_uris": {"ios": "https://dc.lft.to/lastmile_qr_scan", "android": "https://dc.lft.to/lastmile_qr_scan"}}, {"name": "9cbe16c19c603d97aa19a5fdc5406644", "lon": -77.04360133333333, "lat": 38.898488, "type": "electric_scooter", "fusion_lon": 0.0, "is_reserved": 0, "bike_id": "9cbe16c19c603d97aa19a5fdc5406644", "fusion_lat": 0.0, "is_disabled": 0, "rental_uris": {"ios": "https://dc.lft.to/lastmile_qr_scan", "android": "https://dc.lft.to/lastmile_qr_scan"}}, {"name": "13f34a6fa53280cc5faf88d96eab828d", "lon": -77.0424525, "lat": 38.92066766666667, "type": "electric_scooter", "fusion_lon": 0.0, "is_reserved": 0, "bike_id": "13f34a6fa53280cc5faf88d96eab828d", "fusion_lat": 0.0, "is_disabled": 0, "rental_uris": {"ios": "https://dc.lft.to/lastmile_qr_scan", "android": "https://dc.lft.to/lastmile_qr_scan"}}, {"name": "dadc3f409b73793ce117afb3a8695b77", "lon": -76.95407566666667, "lat": 38.89006966666667, "type": "electric_bike", "fusion_lon": 0.0, "is_reserved": 0, "bike_id": "dadc3f409b73793ce117afb3a8695b77", "fusion_lat": 0.0, "is_disabled": 0, "rental_uris": {"ios": "https://dc.lft.to/lastmile_qr_scan", "android": "https://dc.lft.to/lastmile_qr_scan"}}, {"name": "5169098367f45c57a7df8d6d825e93b7", "lon": -77.0414715, "lat": 38.90613366666667, "type": "electric_bike", "fusion_lon": 0.0, "is_reserved": 0, "bike_id": "5169098367f45c57a7df8d6d825e93b7", "fusion_lat": 0.0, "is_disabled": 0, "rental_uris": {"ios": "https://dc.lft.to/lastmile_qr_scan", "android": "https://dc.lft.to/lastmile_qr_scan"}}, {"name": "bfbdd0fe583b851c361eea3987cc99e8", "lon": -76.99068466666667, "lat": 38.863596666666666, "type": "electric_scooter", "fusion_lon": 0.0, "is_reserved": 0, "bike_id": "bfbdd0fe583b851c361eea3987cc99e8", "fusion_lat": 0.0, "is_disabled": 0, "rental_uris": {"ios": "https://dc.lft.to/lastmile_qr_scan", "android": "https://dc.lft.to/lastmile_qr_scan"}}, {"name": "534307949f5be09a31588c4334109fa1", "lon": -77.02132033333334, "lat": 38.9242395, "type": "electric_scooter", "fusion_lon": 0.0, "is_reserved": 0, "bike_id": "534307949f5be09a31588c4334109fa1", "fusion_lat": 0.0, "is_disabled": 0, "rental_uris": {"ios": "https://dc.lft.to/lastmile_qr_scan", "android": "https://dc.lft.to/lastmile_qr_scan"}}, {"name": "131bcc3851cc1870459bb94f2dc0fd92", "lon": -76.99028983333334, "lat": 38.902956333333336, "type": "electric_scooter", "fusion_lon": 0.0, "is_reserved": 0, "bike_id": "131bcc3851cc1870459bb94f2dc0fd92", "fusion_lat": 0.0, "is_disabled": 0, "rental_uris": {"ios": "https://dc.lft.to/lastmile_qr_scan", "android": "https://dc.lft.to/lastmile_qr_scan"}}, {"name": "0c664981a11509f24b7776da4913e07f", "lon": -77.07261566666666, "lat": 38.93518366666667, "type": "electric_scooter", "fusion_lon": 0.0, "is_reserved": 0, "bike_id": "0c664981a11509f24b7776da4913e07f", "fusion_lat": 0.0, "is_disabled": 0, "rental_uris": {"ios": "https://dc.lft.to/lastmile_qr_scan", "android": "https://dc.lft.to/lastmile_qr_scan"}}, {"name": "ce8dd9529c074c261cc91ddcebfb4353", "lon": -76.98249766666666, "lat": 38.90454916666667, "type": "electric_scooter", "fusion_lon": 0.0, "is_reserved": 0, "bike_id": "ce8dd9529c074c261cc91ddcebfb4353", "fusion_lat": 0.0, "is_disabled": 0, "rental_uris": {"ios": "https://dc.lft.to/lastmile_qr_scan", "android": "https://dc.lft.to/lastmile_qr_scan"}}, {"name": "ab3119c3a661eeb647a7ca368e4d2331", "lon": -77.08580566666667, "lat": 38.844276666666666, "type": "electric_bike", "fusion_lon": 0.0, "is_reserved": 0, "bike_id": "ab3119c3a661eeb647a7ca368e4d2331", "fusion_lat": 0.0, "is_disabled": 0, "rental_uris": {"ios": "https://dc.lft.to/lastmile_qr_scan", "android": "https://dc.lft.to/lastmile_qr_scan"}}, {"name": "392b7f8fc9876e810ac999d46e308c97", "lon": -77.02518133333334, "lat": 38.9148645, "type": "electric_scooter", "fusion_lon": 0.0, "is_reserved": 0, "bike_id": "392b7f8fc9876e810ac999d46e308c97", "fusion_lat": 0.0, "is_disabled": 0, "rental_uris": {"ios": "https://dc.lft.to/lastmile_qr_scan", "android": "https://dc.lft.to/lastmile_qr_scan"}}, {"name": "08d84f2242eb4429b9d6bf9a0d55e6cd", "lon": -76.94957366666667, "lat": 38.89438616666666, "type": "electric_scooter", "fusion_lon": 0.0, "is_reserved": 0, "bike_id": "08d84f2242eb4429b9d6bf9a0d55e6cd", "fusion_lat": 0.0, "is_disabled": 0, "rental_uris": {"ios": "https://dc.lft.to/lastmile_qr_scan", "android": "https://dc.lft.to/lastmile_qr_scan"}}, {"name": "97a875f76338ad08d059bc879c259036", "lon": -76.97419966666666, "lat": 38.90404633333333, "type": "electric_scooter", "fusion_lon": 0.0, "is_reserved": 0, "bike_id": "97a875f76338ad08d059bc879c259036", "fusion_lat": 0.0, "is_disabled": 0, "rental_uris": {"ios": "https://dc.lft.to/lastmile_qr_scan", "android": "https://dc.lft.to/lastmile_qr_scan"}}, {"name": "a6bbcf25868d1b8ad7b5cd99dbf9451d", "lon": -77.03707183333333, "lat": 38.939745333333335, "type": "electric_scooter", "fusion_lon": 0.0, "is_reserved": 0, "bike_id": "a6bbcf25868d1b8ad7b5cd99dbf9451d", "fusion_lat": 0.0, "is_disabled": 0, "rental_uris": {"ios": "https://dc.lft.to/lastmile_qr_scan", "android": "https://dc.lft.to/lastmile_qr_scan"}}, {"name": "54ab63a5204d9de16952c327500e549b", "lon": -77.04333383333334, "lat": 38.917896166666665, "type": "electric_scooter", "fusion_lon": 0.0, "is_reserved": 0, "bike_id": "54ab63a5204d9de16952c327500e549b", "fusion_lat": 0.0, "is_disabled": 0, "rental_uris": {"ios": "https://dc.lft.to/lastmile_qr_scan", "android": "https://dc.lft.to/lastmile_qr_scan"}}, {"name": "dec8dbf4e9592ce510421157d2c6d848", "lon": -76.93753583333333, "lat": 38.89047566666667, "type": "electric_scooter", "fusion_lon": 0.0, "is_reserved": 0, "bike_id": "dec8dbf4e9592ce510421157d2c6d848", "fusion_lat": 0.0, "is_disabled": 0, "rental_uris": {"ios": "https://dc.lft.to/lastmile_qr_scan", "android": "https://dc.lft.to/lastmile_qr_scan"}}, {"name": "53599e7e4b02d276ec1eccd6b9397455", "lon": -76.978243, "lat": 38.8437285, "type": "electric_bike", "fusion_lon": 0.0, "is_reserved": 0, "bike_id": "53599e7e4b02d276ec1eccd6b9397455", "fusion_lat": 0.0, "is_disabled": 0, "rental_uris": {"ios": "https://dc.lft.to/lastmile_qr_scan", "android": "https://dc.lft.to/lastmile_qr_scan"}}, {"name": "e926fb9a35a135a40aa1af07a52a8576", "lon": -77.03231266666667, "lat": 38.896813, "type": "electric_scooter", "fusion_lon": 0.0, "is_reserved": 0, "bike_id": "e926fb9a35a135a40aa1af07a52a8576", "fusion_lat": 0.0, "is_disabled": 0, "rental_uris": {"ios": "https://dc.lft.to/lastmile_qr_scan", "android": "https://dc.lft.to/lastmile_qr_scan"}}, {"name": "dedebf93d7a11ffa07802adef124c443", "lon": -77.01233433333333, "lat": 38.9310715, "type": "electric_scooter", "fusion_lon": 0.0, "is_reserved": 0, "bike_id": "dedebf93d7a11ffa07802adef124c443", "fusion_lat": 0.0, "is_disabled": 0, "rental_uris": {"ios": "https://dc.lft.to/lastmile_qr_scan", "android": "https://dc.lft.to/lastmile_qr_scan"}}, {"name": "435ad32c4905d9bd3a210222b6ce603a", "lon": -77.03867366666667, "lat": 38.93267316666667, "type": "electric_scooter", "fusion_lon": 0.0, "is_reserved": 0, "bike_id": "435ad32c4905d9bd3a210222b6ce603a", "fusion_lat": 0.0, "is_disabled": 0, "rental_uris": {"ios": "https://dc.lft.to/lastmile_qr_scan", "android": "https://dc.lft.to/lastmile_qr_scan"}}, {"name": "24b161d90d061c2a02956b5ef99e411e", "lon": -77.0076285, "lat": 38.907128666666665, "type": "electric_scooter", "fusion_lon": 0.0, "is_reserved": 0, "bike_id": "24b161d90d061c2a02956b5ef99e411e", "fusion_lat": 0.0, "is_disabled": 0, "rental_uris": {"ios": "https://dc.lft.to/lastmile_qr_scan", "android": "https://dc.lft.to/lastmile_qr_scan"}}, {"name": "545a5b813d26cd29ae420bede1680471", "lon": -76.94380666666666, "lat": 38.893294, "type": "electric_scooter", "fusion_lon": 0.0, "is_reserved": 0, "bike_id": "545a5b813d26cd29ae420bede1680471", "fusion_lat": 0.0, "is_disabled": 0, "rental_uris": {"ios": "https://dc.lft.to/lastmile_qr_scan", "android": "https://dc.lft.to/lastmile_qr_scan"}}, {"name": "4a0d73f53a042f7f2089b5a4e02ef053", "lon": -77.02193383333334, "lat": 38.89867666666667, "type": "electric_scooter", "fusion_lon": 0.0, "is_reserved": 0, "bike_id": "4a0d73f53a042f7f2089b5a4e02ef053", "fusion_lat": 0.0, "is_disabled": 0, "rental_uris": {"ios": "https://dc.lft.to/lastmile_qr_scan", "android": "https://dc.lft.to/lastmile_qr_scan"}}, {"name": "1b809772031ad6790fd44208dc2e5b1b", "lon": -76.9977335, "lat": 38.8443195, "type": "electric_scooter", "fusion_lon": 0.0, "is_reserved": 0, "bike_id": "1b809772031ad6790fd44208dc2e5b1b", "fusion_lat": 0.0, "is_disabled": 0, "rental_uris": {"ios": "https://dc.lft.to/lastmile_qr_scan", "android": "https://dc.lft.to/lastmile_qr_scan"}}, {"name": "69a4cef55fe3bc694b6600ccb9771a12", "lon": -77.07306916666667, "lat": 38.86488283333333, "type": "electric_bike", "fusion_lon": 0.0, "is_reserved": 0, "bike_id": "69a4cef55fe3bc694b6600ccb9771a12", "fusion_lat": 0.0, "is_disabled": 0, "rental_uris": {"ios": "https://dc.lft.to/lastmile_qr_scan", "android": "https://dc.lft.to/lastmile_qr_scan"}}, {"name": "52118fcf30ff64af27a37b3f857e1da8", "lon": -77.021831, "lat": 38.91979, "type": "electric_scooter", "fusion_lon": 0.0, "is_reserved": 0, "bike_id": "52118fcf30ff64af27a37b3f857e1da8", "fusion_lat": 0.0, "is_disabled": 0, "rental_uris": {"ios": "https://dc.lft.to/lastmile_qr_scan", "android": "https://dc.lft.to/lastmile_qr_scan"}}, {"name": "17de4c8a92097e59c0cf41cdd0bf8ff9", "lon": -77.02077633333333, "lat": 38.921344833333336, "type": "electric_scooter", "fusion_lon": 0.0, "is_reserved": 0, "bike_id": "17de4c8a92097e59c0cf41cdd0bf8ff9", "fusion_lat": 0.0, "is_disabled": 0, "rental_uris": {"ios": "https://dc.lft.to/lastmile_qr_scan", "android": "https://dc.lft.to/lastmile_qr_scan"}}, {"name": "8de1022c2d032ed2acd55da09826eedf", "lon": -76.93193816666667, "lat": 38.89881533333333, "type": "electric_scooter", "fusion_lon": 0.0, "is_reserved": 0, "bike_id": "8de1022c2d032ed2acd55da09826eedf", "fusion_lat": 0.0, "is_disabled": 0, "rental_uris": {"ios": "https://dc.lft.to/lastmile_qr_scan", "android": "https://dc.lft.to/lastmile_qr_scan"}}, {"name": "0ebc1b549fbd23a54aa606f713ff665d", "lon": -77.03387366666666, "lat": 38.88661333333334, "type": "electric_bike", "fusion_lon": 0.0, "is_reserved": 0, "bike_id": "0ebc1b549fbd23a54aa606f713ff665d", "fusion_lat": 0.0, "is_disabled": 0, "rental_uris": {"ios": "https://dc.lft.to/lastmile_qr_scan", "android": "https://dc.lft.to/lastmile_qr_scan"}}, {"name": "ea127f7343951f3b8454084b875ef08c", "lon": -77.05135666666666, "lat": 38.90535766666667, "type": "electric_scooter", "fusion_lon": 0.0, "is_reserved": 0, "bike_id": "ea127f7343951f3b8454084b875ef08c", "fusion_lat": 0.0, "is_disabled": 0, "rental_uris": {"ios": "https://dc.lft.to/lastmile_qr_scan", "android": "https://dc.lft.to/lastmile_qr_scan"}}, {"name": "8e3d2d498e78a703d0351e0c7be216ee", "lon": -77.044781, "lat": 38.92245283333333, "type": "electric_scooter", "fusion_lon": 0.0, "is_reserved": 0, "bike_id": "8e3d2d498e78a703d0351e0c7be216ee", "fusion_lat": 0.0, "is_disabled": 0, "rental_uris": {"ios": "https://dc.lft.to/lastmile_qr_scan", "android": "https://dc.lft.to/lastmile_qr_scan"}}, {"name": "99cc24f8b20f4c1f1113f171d940778c", "lon": -77.03250583333333, "lat": 38.90293966666667, "type": "electric_scooter", "fusion_lon": 0.0, "is_reserved": 0, "bike_id": "99cc24f8b20f4c1f1113f171d940778c", "fusion_lat": 0.0, "is_disabled": 0, "rental_uris": {"ios": "https://dc.lft.to/lastmile_qr_scan", "android": "https://dc.lft.to/lastmile_qr_scan"}}, {"name": "21bc0ad458ace9b0085b361dc51c69b9", "lon": -76.98539666666667, "lat": 38.91452066666667, "type": "electric_scooter", "fusion_lon": 0.0, "is_reserved": 0, "bike_id": "21bc0ad458ace9b0085b361dc51c69b9", "fusion_lat": 0.0, "is_disabled": 0, "rental_uris": {"ios": "https://dc.lft.to/lastmile_qr_scan", "android": "https://dc.lft.to/lastmile_qr_scan"}}, {"name": "28f5c887d49d6427b93202122f6a81a3", "lon": -77.0447725, "lat": 38.918729, "type": "electric_scooter", "fusion_lon": 0.0, "is_reserved": 0, "bike_id": "28f5c887d49d6427b93202122f6a81a3", "fusion_lat": 0.0, "is_disabled": 0, "rental_uris": {"ios": "https://dc.lft.to/lastmile_qr_scan", "android": "https://dc.lft.to/lastmile_qr_scan"}}, {"name": "4b59ec8e444cd6ec5fbb679c57d83db0", "lon": -77.04490783333334, "lat": 38.900100333333334, "type": "electric_scooter", "fusion_lon": 0.0, "is_reserved": 0, "bike_id": "4b59ec8e444cd6ec5fbb679c57d83db0", "fusion_lat": 0.0, "is_disabled": 0, "rental_uris": {"ios": "https://dc.lft.to/lastmile_qr_scan", "android": "https://dc.lft.to/lastmile_qr_scan"}}, {"name": "8c0a0c83d783ded47e34901114048220", "lon": -76.98519833333333, "lat": 38.86671616666667, "type": "electric_scooter", "fusion_lon": 0.0, "is_reserved": 0, "bike_id": "8c0a0c83d783ded47e34901114048220", "fusion_lat": 0.0, "is_disabled": 0, "rental_uris": {"ios": "https://dc.lft.to/lastmile_qr_scan", "android": "https://dc.lft.to/lastmile_qr_scan"}}, {"name": "2d533b6517bb697f542db12a0e561c3a", "lon": -77.063677, "lat": 38.905157, "type": "electric_scooter", "fusion_lon": 0.0, "is_reserved": 0, "bike_id": "2d533b6517bb697f542db12a0e561c3a", "fusion_lat": 0.0, "is_disabled": 0, "rental_uris": {"ios": "https://dc.lft.to/lastmile_qr_scan", "android": "https://dc.lft.to/lastmile_qr_scan"}}, {"name": "e6d34fa879478e8600570444c1d2405e", "lon": -76.93545, "lat": 38.955625, "type": "electric_bike", "fusion_lon": 0.0, "is_reserved": 0, "bike_id": "e6d34fa879478e8600570444c1d2405e", "fusion_lat": 0.0, "is_disabled": 0, "rental_uris": {"ios": "https://dc.lft.to/lastmile_qr_scan", "android": "https://dc.lft.to/lastmile_qr_scan"}}, {"name": "86f813ae0052d9adf738b6c158fef619", "lon": -77.01498783333334, "lat": 38.89323066666667, "type": "electric_scooter", "fusion_lon": 0.0, "is_reserved": 0, "bike_id": "86f813ae0052d9adf738b6c158fef619", "fusion_lat": 0.0, "is_disabled": 0, "rental_uris": {"ios": "https://dc.lft.to/lastmile_qr_scan", "android": "https://dc.lft.to/lastmile_qr_scan"}}, {"name": "ff93f8e6a09c19d21f817f2b904e4612", "lon": -77.04369516666667, "lat": 38.925762166666665, "type": "electric_scooter", "fusion_lon": 0.0, "is_reserved": 0, "bike_id": "ff93f8e6a09c19d21f817f2b904e4612", "fusion_lat": 0.0, "is_disabled": 0, "rental_uris": {"ios": "https://dc.lft.to/lastmile_qr_scan", "android": "https://dc.lft.to/lastmile_qr_scan"}}, {"name": "e26a75b0593353271f6e1cf866d6dba6", "lon": -77.034802, "lat": 38.9327725, "type": "electric_scooter", "fusion_lon": 0.0, "is_reserved": 0, "bike_id": "e26a75b0593353271f6e1cf866d6dba6", "fusion_lat": 0.0, "is_disabled": 0, "rental_uris": {"ios": "https://dc.lft.to/lastmile_qr_scan", "android": "https://dc.lft.to/lastmile_qr_scan"}}, {"name": "ebc253cd9a355b6d4cdd48496b977470", "lon": -77.0542945, "lat": 38.92351816666667, "type": "electric_scooter", "fusion_lon": 0.0, "is_reserved": 0, "bike_id": "ebc253cd9a355b6d4cdd48496b977470", "fusion_lat": 0.0, "is_disabled": 0, "rental_uris": {"ios": "https://dc.lft.to/lastmile_qr_scan", "android": "https://dc.lft.to/lastmile_qr_scan"}}, {"name": "47af85368859a6eddfd23ec5eadff6d0", "lon": -77.03466483333334, "lat": 38.9170705, "type": "electric_scooter", "fusion_lon": 0.0, "is_reserved": 0, "bike_id": "47af85368859a6eddfd23ec5eadff6d0", "fusion_lat": 0.0, "is_disabled": 0, "rental_uris": {"ios": "https://dc.lft.to/lastmile_qr_scan", "android": "https://dc.lft.to/lastmile_qr_scan"}}, {"name": "cb0398d976934875e12d13cfd08ba61e", "lon": -77.03147633333333, "lat": 38.92962033333333, "type": "electric_scooter", "fusion_lon": 0.0, "is_reserved": 0, "bike_id": "cb0398d976934875e12d13cfd08ba61e", "fusion_lat": 0.0, "is_disabled": 0, "rental_uris": {"ios": "https://dc.lft.to/lastmile_qr_scan", "android": "https://dc.lft.to/lastmile_qr_scan"}}, {"name": "d8712212d9e7f0a28f7fa15150986392", "lon": -77.02744166666666, "lat": 38.924110666666664, "type": "electric_scooter", "fusion_lon": 0.0, "is_reserved": 0, "bike_id": "d8712212d9e7f0a28f7fa15150986392", "fusion_lat": 0.0, "is_disabled": 0, "rental_uris": {"ios": "https://dc.lft.to/lastmile_qr_scan", "android": "https://dc.lft.to/lastmile_qr_scan"}}, {"name": "13163d83307e18cf04f6daa2f6ce8f20", "lon": -77.01900566666667, "lat": 38.91381716666667, "type": "electric_scooter", "fusion_lon": 0.0, "is_reserved": 0, "bike_id": "13163d83307e18cf04f6daa2f6ce8f20", "fusion_lat": 0.0, "is_disabled": 0, "rental_uris": {"ios": "https://dc.lft.to/lastmile_qr_scan", "android": "https://dc.lft.to/lastmile_qr_scan"}}, {"name": "bacf5ec8188e353de97a7451207d5479", "lon": -77.0297015, "lat": 38.92421483333333, "type": "electric_scooter", "fusion_lon": 0.0, "is_reserved": 0, "bike_id": "bacf5ec8188e353de97a7451207d5479", "fusion_lat": 0.0, "is_disabled": 0, "rental_uris": {"ios": "https://dc.lft.to/lastmile_qr_scan", "android": "https://dc.lft.to/lastmile_qr_scan"}}, {"name": "53f97e8e0d0b055859190bc7bac21d8e", "lon": -77.07163833333334, "lat": 38.907789333333334, "type": "electric_scooter", "fusion_lon": 0.0, "is_reserved": 0, "bike_id": "53f97e8e0d0b055859190bc7bac21d8e", "fusion_lat": 0.0, "is_disabled": 0, "rental_uris": {"ios": "https://dc.lft.to/lastmile_qr_scan", "android": "https://dc.lft.to/lastmile_qr_scan"}}, {"name": "6c7547ae5a9d84b2199713595ce16c94", "lon": -77.03764733333334, "lat": 38.916917166666664, "type": "electric_scooter", "fusion_lon": 0.0, "is_reserved": 0, "bike_id": "6c7547ae5a9d84b2199713595ce16c94", "fusion_lat": 0.0, "is_disabled": 0, "rental_uris": {"ios": "https://dc.lft.to/lastmile_qr_scan", "android": "https://dc.lft.to/lastmile_qr_scan"}}, {"name": "fc48b8308cec86f1f5fcc6b2377d491f", "lon": -77.02733183333333, "lat": 38.9276735, "type": "electric_scooter", "fusion_lon": 0.0, "is_reserved": 0, "bike_id": "fc48b8308cec86f1f5fcc6b2377d491f", "fusion_lat": 0.0, "is_disabled": 0, "rental_uris": {"ios": "https://dc.lft.to/lastmile_qr_scan", "android": "https://dc.lft.to/lastmile_qr_scan"}}, {"name": "0eea379e7e0d3483d800da8d2af80e7f", "lon": -77.04236383333334, "lat": 38.90648083333333, "type": "electric_scooter", "fusion_lon": 0.0, "is_reserved": 0, "bike_id": "0eea379e7e0d3483d800da8d2af80e7f", "fusion_lat": 0.0, "is_disabled": 0, "rental_uris": {"ios": "https://dc.lft.to/lastmile_qr_scan", "android": "https://dc.lft.to/lastmile_qr_scan"}}, {"name": "25821eb7bf1834d97f696b8ca23e8100", "lon": -77.0228415, "lat": 38.89507366666667, "type": "electric_scooter", "fusion_lon": 0.0, "is_reserved": 0, "bike_id": "25821eb7bf1834d97f696b8ca23e8100", "fusion_lat": 0.0, "is_disabled": 0, "rental_uris": {"ios": "https://dc.lft.to/lastmile_qr_scan", "android": "https://dc.lft.to/lastmile_qr_scan"}}, {"name": "2b431f6ca4ea1f0c60a77e313045afea", "lon": -77.01395516666666, "lat": 38.9181615, "type": "electric_scooter", "fusion_lon": 0.0, "is_reserved": 0, "bike_id": "2b431f6ca4ea1f0c60a77e313045afea", "fusion_lat": 0.0, "is_disabled": 0, "rental_uris": {"ios": "https://dc.lft.to/lastmile_qr_scan", "android": "https://dc.lft.to/lastmile_qr_scan"}}, {"name": "239ab8bf78985ac9b14bf785eb09cc6f", "lon": -77.02204233333333, "lat": 38.905845, "type": "electric_scooter", "fusion_lon": 0.0, "is_reserved": 0, "bike_id": "239ab8bf78985ac9b14bf785eb09cc6f", "fusion_lat": 0.0, "is_disabled": 0, "rental_uris": {"ios": "https://dc.lft.to/lastmile_qr_scan", "android": "https://dc.lft.to/lastmile_qr_scan"}}, {"name": "65d33f7fcc896cdd1d83fac9c75cd6bd", "lon": -77.04684783333333, "lat": 38.90179366666667, "type": "electric_scooter", "fusion_lon": 0.0, "is_reserved": 0, "bike_id": "65d33f7fcc896cdd1d83fac9c75cd6bd", "fusion_lat": 0.0, "is_disabled": 0, "rental_uris": {"ios": "https://dc.lft.to/lastmile_qr_scan", "android": "https://dc.lft.to/lastmile_qr_scan"}}, {"name": "52562c2c2eb8c7dd5c11e2d7fbd83c65", "lon": -77.039198, "lat": 38.903566833333336, "type": "electric_scooter", "fusion_lon": 0.0, "is_reserved": 0, "bike_id": "52562c2c2eb8c7dd5c11e2d7fbd83c65", "fusion_lat": 0.0, "is_disabled": 0, "rental_uris": {"ios": "https://dc.lft.to/lastmile_qr_scan", "android": "https://dc.lft.to/lastmile_qr_scan"}}, {"name": "e3be3bd3d7a1b1fe053ce71d992bd3ac", "lon": -76.98989316666666, "lat": 38.863916333333336, "type": "electric_bike", "fusion_lon": 0.0, "is_reserved": 0, "bike_id": "e3be3bd3d7a1b1fe053ce71d992bd3ac", "fusion_lat": 0.0, "is_disabled": 0, "rental_uris": {"ios": "https://dc.lft.to/lastmile_qr_scan", "android": "https://dc.lft.to/lastmile_qr_scan"}}, {"name": "b1b07572bfb2648cbbe88a8f651a3cb3", "lon": -77.058816, "lat": 38.9430425, "type": "electric_scooter", "fusion_lon": 0.0, "is_reserved": 0, "bike_id": "b1b07572bfb2648cbbe88a8f651a3cb3", "fusion_lat": 0.0, "is_disabled": 0, "rental_uris": {"ios": "https://dc.lft.to/lastmile_qr_scan", "android": "https://dc.lft.to/lastmile_qr_scan"}}, {"name": "fc4094089efe8395837a700f7c350ab8", "lon": -77.02289216666667, "lat": 38.91611733333333, "type": "electric_bike", "fusion_lon": 0.0, "is_reserved": 0, "bike_id": "fc4094089efe8395837a700f7c350ab8", "fusion_lat": 0.0, "is_disabled": 0, "rental_uris": {"ios": "https://dc.lft.to/lastmile_qr_scan", "android": "https://dc.lft.to/lastmile_qr_scan"}}, {"name": "c987eb8a7eec05226c4b98fef44297f8", "lon": -77.02762416666667, "lat": 38.95429566666667, "type": "electric_scooter", "fusion_lon": 0.0, "is_reserved": 0, "bike_id": "c987eb8a7eec05226c4b98fef44297f8", "fusion_lat": 0.0, "is_disabled": 0, "rental_uris": {"ios": "https://dc.lft.to/lastmile_qr_scan", "android": "https://dc.lft.to/lastmile_qr_scan"}}, {"name": "c002d21289f206eccd20a892b1af89bf", "lon": -76.937339, "lat": 38.890171333333335, "type": "electric_scooter", "fusion_lon": 0.0, "is_reserved": 0, "bike_id": "c002d21289f206eccd20a892b1af89bf", "fusion_lat": 0.0, "is_disabled": 0, "rental_uris": {"ios": "https://dc.lft.to/lastmile_qr_scan", "android": "https://dc.lft.to/lastmile_qr_scan"}}, {"name": "230cfe710b86f43853915e8db6577bc4", "lon": -77.023978, "lat": 38.909918166666664, "type": "electric_scooter", "fusion_lon": 0.0, "is_reserved": 0, "bike_id": "230cfe710b86f43853915e8db6577bc4", "fusion_lat": 0.0, "is_disabled": 0, "rental_uris": {"ios": "https://dc.lft.to/lastmile_qr_scan", "android": "https://dc.lft.to/lastmile_qr_scan"}}, {"name": "661ce99cafb3e551e4d43d5c81d2df40", "lon": -76.99078816666666, "lat": 38.862386666666666, "type": "electric_bike", "fusion_lon": 0.0, "is_reserved": 0, "bike_id": "661ce99cafb3e551e4d43d5c81d2df40", "fusion_lat": 0.0, "is_disabled": 0, "rental_uris": {"ios": "https://dc.lft.to/lastmile_qr_scan", "android": "https://dc.lft.to/lastmile_qr_scan"}}, {"name": "3da27bf2ea6e7362595bcf6dcd16dfd2", "lon": -77.046142, "lat": 38.90274316666667, "type": "electric_scooter", "fusion_lon": 0.0, "is_reserved": 0, "bike_id": "3da27bf2ea6e7362595bcf6dcd16dfd2", "fusion_lat": 0.0, "is_disabled": 0, "rental_uris": {"ios": "https://dc.lft.to/lastmile_qr_scan", "android": "https://dc.lft.to/lastmile_qr_scan"}}, {"name": "67576fefa1cfd97830c70bb7bcacc7b9", "lon": -77.03302666666667, "lat": 38.95635, "type": "electric_scooter", "fusion_lon": 0.0, "is_reserved": 0, "bike_id": "67576fefa1cfd97830c70bb7bcacc7b9", "fusion_lat": 0.0, "is_disabled": 0, "rental_uris": {"ios": "https://dc.lft.to/lastmile_qr_scan", "android": "https://dc.lft.to/lastmile_qr_scan"}}, {"name": "2088edf0a90dc25dab3ea86cdcb58d17", "lon": -77.02945066666666, "lat": 38.90528116666667, "type": "electric_scooter", "fusion_lon": 0.0, "is_reserved": 0, "bike_id": "2088edf0a90dc25dab3ea86cdcb58d17", "fusion_lat": 0.0, "is_disabled": 0, "rental_uris": {"ios": "https://dc.lft.to/lastmile_qr_scan", "android": "https://dc.lft.to/lastmile_qr_scan"}}, {"name": "c6d4914dd5fb3dc7ffe9fd142ad6f92b", "lon": -76.996067, "lat": 38.88554166666667, "type": "electric_scooter", "fusion_lon": 0.0, "is_reserved": 0, "bike_id": "c6d4914dd5fb3dc7ffe9fd142ad6f92b", "fusion_lat": 0.0, "is_disabled": 0, "rental_uris": {"ios": "https://dc.lft.to/lastmile_qr_scan", "android": "https://dc.lft.to/lastmile_qr_scan"}}, {"name": "6a2061867e5db608cc9697cefde07a0e", "lon": -77.03191216666667, "lat": 38.9110155, "type": "electric_scooter", "fusion_lon": 0.0, "is_reserved": 0, "bike_id": "6a2061867e5db608cc9697cefde07a0e", "fusion_lat": 0.0, "is_disabled": 0, "rental_uris": {"ios": "https://dc.lft.to/lastmile_qr_scan", "android": "https://dc.lft.to/lastmile_qr_scan"}}, {"name": "1333d99b6d778957c36cf36fb7d06bc1", "lon": -77.01795616666666, "lat": 38.87677216666667, "type": "electric_scooter", "fusion_lon": 0.0, "is_reserved": 0, "bike_id": "1333d99b6d778957c36cf36fb7d06bc1", "fusion_lat": 0.0, "is_disabled": 0, "rental_uris": {"ios": "https://dc.lft.to/lastmile_qr_scan", "android": "https://dc.lft.to/lastmile_qr_scan"}}, {"name": "3bd346dd1ba829e65473d5aebdda9a46", "lon": -77.0723365, "lat": 38.94008066666667, "type": "electric_scooter", "fusion_lon": 0.0, "is_reserved": 0, "bike_id": "3bd346dd1ba829e65473d5aebdda9a46", "fusion_lat": 0.0, "is_disabled": 0, "rental_uris": {"ios": "https://dc.lft.to/lastmile_qr_scan", "android": "https://dc.lft.to/lastmile_qr_scan"}}, {"name": "9913675cca482715d8357fe527e022b9", "lon": -76.98380216666666, "lat": 38.861208, "type": "electric_scooter", "fusion_lon": 0.0, "is_reserved": 0, "bike_id": "9913675cca482715d8357fe527e022b9", "fusion_lat": 0.0, "is_disabled": 0, "rental_uris": {"ios": "https://dc.lft.to/lastmile_qr_scan", "android": "https://dc.lft.to/lastmile_qr_scan"}}, {"name": "a3a26f2f6c020d44aa09e0500c1c0ca4", "lon": -77.02811883333334, "lat": 38.960842, "type": "electric_scooter", "fusion_lon": 0.0, "is_reserved": 0, "bike_id": "a3a26f2f6c020d44aa09e0500c1c0ca4", "fusion_lat": 0.0, "is_disabled": 0, "rental_uris": {"ios": "https://dc.lft.to/lastmile_qr_scan", "android": "https://dc.lft.to/lastmile_qr_scan"}}, {"name": "c3df01e09dc1e9ed3a282a06b3478feb", "lon": -76.99522333333333, "lat": 38.89546966666666, "type": "electric_scooter", "fusion_lon": 0.0, "is_reserved": 0, "bike_id": "c3df01e09dc1e9ed3a282a06b3478feb", "fusion_lat": 0.0, "is_disabled": 0, "rental_uris": {"ios": "https://dc.lft.to/lastmile_qr_scan", "android": "https://dc.lft.to/lastmile_qr_scan"}}, {"name": "c9b465f1d619b5c2af68325aa494cf5e", "lon": -76.96049483333333, "lat": 38.88404583333333, "type": "electric_bike", "fusion_lon": 0.0, "is_reserved": 0, "bike_id": "c9b465f1d619b5c2af68325aa494cf5e", "fusion_lat": 0.0, "is_disabled": 0, "rental_uris": {"ios": "https://dc.lft.to/lastmile_qr_scan", "android": "https://dc.lft.to/lastmile_qr_scan"}}, {"name": "dc341d477d2f8f1f6395b594b1e75182", "lon": -77.001996, "lat": 38.90799466666667, "type": "electric_bike", "fusion_lon": 0.0, "is_reserved": 0, "bike_id": "dc341d477d2f8f1f6395b594b1e75182", "fusion_lat": 0.0, "is_disabled": 0, "rental_uris": {"ios": "https://dc.lft.to/lastmile_qr_scan", "android": "https://dc.lft.to/lastmile_qr_scan"}}, {"name": "31bdf60c412a46c5becd86cc3ae407be", "lon": -77.0091735, "lat": 38.9023555, "type": "electric_scooter", "fusion_lon": 0.0, "is_reserved": 0, "bike_id": "31bdf60c412a46c5becd86cc3ae407be", "fusion_lat": 0.0, "is_disabled": 0, "rental_uris": {"ios": "https://dc.lft.to/lastmile_qr_scan", "android": "https://dc.lft.to/lastmile_qr_scan"}}, {"name": "90141a1187c6b42d29bb1296e63c0b5c", "lon": -77.00485933333333, "lat": 38.896969666666664, "type": "electric_scooter", "fusion_lon": 0.0, "is_reserved": 0, "bike_id": "90141a1187c6b42d29bb1296e63c0b5c", "fusion_lat": 0.0, "is_disabled": 0, "rental_uris": {"ios": "https://dc.lft.to/lastmile_qr_scan", "android": "https://dc.lft.to/lastmile_qr_scan"}}, {"name": "ef6253541bebb86fc2d08516b2abb9cf", "lon": -77.00606816666667, "lat": 38.90558633333333, "type": "electric_scooter", "fusion_lon": 0.0, "is_reserved": 0, "bike_id": "ef6253541bebb86fc2d08516b2abb9cf", "fusion_lat": 0.0, "is_disabled": 0, "rental_uris": {"ios": "https://dc.lft.to/lastmile_qr_scan", "android": "https://dc.lft.to/lastmile_qr_scan"}}, {"name": "9fb1adc5f9ea579fe23b8405344058b4", "lon": -76.985072, "lat": 38.910678, "type": "electric_scooter", "fusion_lon": 0.0, "is_reserved": 0, "bike_id": "9fb1adc5f9ea579fe23b8405344058b4", "fusion_lat": 0.0, "is_disabled": 0, "rental_uris": {"ios": "https://dc.lft.to/lastmile_qr_scan", "android": "https://dc.lft.to/lastmile_qr_scan"}}, {"name": "48cfa3c32a093c2d1ed2baef17109823", "lon": -77.01272383333334, "lat": 38.89747716666667, "type": "electric_scooter", "fusion_lon": 0.0, "is_reserved": 0, "bike_id": "48cfa3c32a093c2d1ed2baef17109823", "fusion_lat": 0.0, "is_disabled": 0, "rental_uris": {"ios": "https://dc.lft.to/lastmile_qr_scan", "android": "https://dc.lft.to/lastmile_qr_scan"}}, {"name": "08da649680138f0013bb709ccd07ca07", "lon": -76.95660883333333, "lat": 38.8941365, "type": "electric_scooter", "fusion_lon": 0.0, "is_reserved": 0, "bike_id": "08da649680138f0013bb709ccd07ca07", "fusion_lat": 0.0, "is_disabled": 0, "rental_uris": {"ios": "https://dc.lft.to/lastmile_qr_scan", "android": "https://dc.lft.to/lastmile_qr_scan"}}, {"name": "f7469f9219d004a88cb9f2805c33a9ad", "lon": -77.03338583333333, "lat": 38.897465833333335, "type": "electric_scooter", "fusion_lon": 0.0, "is_reserved": 0, "bike_id": "f7469f9219d004a88cb9f2805c33a9ad", "fusion_lat": 0.0, "is_disabled": 0, "rental_uris": {"ios": "https://dc.lft.to/lastmile_qr_scan", "android": "https://dc.lft.to/lastmile_qr_scan"}}, {"name": "a8d964ebe93ca3e0049c09d148ff4bd7", "lon": -76.96779216666667, "lat": 38.8592745, "type": "electric_scooter", "fusion_lon": 0.0, "is_reserved": 0, "bike_id": "a8d964ebe93ca3e0049c09d148ff4bd7", "fusion_lat": 0.0, "is_disabled": 0, "rental_uris": {"ios": "https://dc.lft.to/lastmile_qr_scan", "android": "https://dc.lft.to/lastmile_qr_scan"}}, {"name": "f906fb613f1504f1ab7f5f01b0ae1b4c", "lon": -77.03189133333333, "lat": 38.91352333333333, "type": "electric_scooter", "fusion_lon": 0.0, "is_reserved": 0, "bike_id": "f906fb613f1504f1ab7f5f01b0ae1b4c", "fusion_lat": 0.0, "is_disabled": 0, "rental_uris": {"ios": "https://dc.lft.to/lastmile_qr_scan", "android": "https://dc.lft.to/lastmile_qr_scan"}}, {"name": "f207b6e81dc4141518f44b23b5550ae7", "lon": -77.0300135, "lat": 38.90274566666667, "type": "electric_scooter", "fusion_lon": 0.0, "is_reserved": 0, "bike_id": "f207b6e81dc4141518f44b23b5550ae7", "fusion_lat": 0.0, "is_disabled": 0, "rental_uris": {"ios": "https://dc.lft.to/lastmile_qr_scan", "android": "https://dc.lft.to/lastmile_qr_scan"}}, {"name": "5b20931ed20acd3f521c17baa3b1aa65", "lon": -77.0403025, "lat": 38.900725666666666, "type": "electric_scooter", "fusion_lon": 0.0, "is_reserved": 0, "bike_id": "5b20931ed20acd3f521c17baa3b1aa65", "fusion_lat": 0.0, "is_disabled": 0, "rental_uris": {"ios": "https://dc.lft.to/lastmile_qr_scan", "android": "https://dc.lft.to/lastmile_qr_scan"}}, {"name": "5954b1fa83d00dc69dcc7dd74139c4ab", "lon": -77.039098, "lat": 38.91833716666667, "type": "electric_scooter", "fusion_lon": 0.0, "is_reserved": 0, "bike_id": "5954b1fa83d00dc69dcc7dd74139c4ab", "fusion_lat": 0.0, "is_disabled": 0, "rental_uris": {"ios": "https://dc.lft.to/lastmile_qr_scan", "android": "https://dc.lft.to/lastmile_qr_scan"}}, {"name": "0194f34e4e7b8cb7b3896af129ade523", "lon": -77.032043, "lat": 38.9178835, "type": "electric_scooter", "fusion_lon": 0.0, "is_reserved": 0, "bike_id": "0194f34e4e7b8cb7b3896af129ade523", "fusion_lat": 0.0, "is_disabled": 0, "rental_uris": {"ios": "https://dc.lft.to/lastmile_qr_scan", "android": "https://dc.lft.to/lastmile_qr_scan"}}, {"name": "13f3fca9c4443dbca3f997603b5c2984", "lon": -77.03873433333334, "lat": 38.934286666666665, "type": "electric_scooter", "fusion_lon": 0.0, "is_reserved": 0, "bike_id": "13f3fca9c4443dbca3f997603b5c2984", "fusion_lat": 0.0, "is_disabled": 0, "rental_uris": {"ios": "https://dc.lft.to/lastmile_qr_scan", "android": "https://dc.lft.to/lastmile_qr_scan"}}, {"name": "8deb015a3c8fb2950b2cd5793052d8bd", "lon": -76.96528883333333, "lat": 38.8763, "type": "electric_scooter", "fusion_lon": 0.0, "is_reserved": 0, "bike_id": "8deb015a3c8fb2950b2cd5793052d8bd", "fusion_lat": 0.0, "is_disabled": 0, "rental_uris": {"ios": "https://dc.lft.to/lastmile_qr_scan", "android": "https://dc.lft.to/lastmile_qr_scan"}}, {"name": "6b52a42610b50e903151c3a7565a768f", "lon": -77.01234966666667, "lat": 38.89846816666667, "type": "electric_scooter", "fusion_lon": 0.0, "is_reserved": 0, "bike_id": "6b52a42610b50e903151c3a7565a768f", "fusion_lat": 0.0, "is_disabled": 0, "rental_uris": {"ios": "https://dc.lft.to/lastmile_qr_scan", "android": "https://dc.lft.to/lastmile_qr_scan"}}, {"name": "6d37776950797bea72a0cb6067d611c8", "lon": -77.03631533333333, "lat": 38.9097165, "type": "electric_scooter", "fusion_lon": 0.0, "is_reserved": 0, "bike_id": "6d37776950797bea72a0cb6067d611c8", "fusion_lat": 0.0, "is_disabled": 0, "rental_uris": {"ios": "https://dc.lft.to/lastmile_qr_scan", "android": "https://dc.lft.to/lastmile_qr_scan"}}, {"name": "78903dd1efaab2a3c7f733ef8e0dd778", "lon": -77.0393305, "lat": 38.91763916666667, "type": "electric_scooter", "fusion_lon": 0.0, "is_reserved": 0, "bike_id": "78903dd1efaab2a3c7f733ef8e0dd778", "fusion_lat": 0.0, "is_disabled": 0, "rental_uris": {"ios": "https://dc.lft.to/lastmile_qr_scan", "android": "https://dc.lft.to/lastmile_qr_scan"}}, {"name": "023c72c85a8c46934fc9ff6284d3899a", "lon": -77.02950616666666, "lat": 38.928582, "type": "electric_scooter", "fusion_lon": 0.0, "is_reserved": 0, "bike_id": "023c72c85a8c46934fc9ff6284d3899a", "fusion_lat": 0.0, "is_disabled": 0, "rental_uris": {"ios": "https://dc.lft.to/lastmile_qr_scan", "android": "https://dc.lft.to/lastmile_qr_scan"}}, {"name": "d826d567e5ac964abd0d4f48f1207b39", "lon": -77.033455, "lat": 38.91715083333333, "type": "electric_scooter", "fusion_lon": 0.0, "is_reserved": 0, "bike_id": "d826d567e5ac964abd0d4f48f1207b39", "fusion_lat": 0.0, "is_disabled": 0, "rental_uris": {"ios": "https://dc.lft.to/lastmile_qr_scan", "android": "https://dc.lft.to/lastmile_qr_scan"}}, {"name": "cafc14e1220186eeae6dfdd25eef8861", "lon": -77.04393316666666, "lat": 38.91724766666667, "type": "electric_scooter", "fusion_lon": 0.0, "is_reserved": 0, "bike_id": "cafc14e1220186eeae6dfdd25eef8861", "fusion_lat": 0.0, "is_disabled": 0, "rental_uris": {"ios": "https://dc.lft.to/lastmile_qr_scan", "android": "https://dc.lft.to/lastmile_qr_scan"}}, {"name": "973acd015575ad56718eda83a10cb36a", "lon": -77.0208095, "lat": 38.88496766666667, "type": "electric_bike", "fusion_lon": 0.0, "is_reserved": 0, "bike_id": "973acd015575ad56718eda83a10cb36a", "fusion_lat": 0.0, "is_disabled": 0, "rental_uris": {"ios": "https://dc.lft.to/lastmile_qr_scan", "android": "https://dc.lft.to/lastmile_qr_scan"}}, {"name": "da5eff89891e03b6a212a78d16c6b3bc", "lon": -77.0049305, "lat": 38.90726033333333, "type": "electric_scooter", "fusion_lon": 0.0, "is_reserved": 0, "bike_id": "da5eff89891e03b6a212a78d16c6b3bc", "fusion_lat": 0.0, "is_disabled": 0, "rental_uris": {"ios": "https://dc.lft.to/lastmile_qr_scan", "android": "https://dc.lft.to/lastmile_qr_scan"}}, {"name": "4dd2578947b01ea7b948283e847e9702", "lon": -77.061672, "lat": 38.9130675, "type": "electric_scooter", "fusion_lon": 0.0, "is_reserved": 0, "bike_id": "4dd2578947b01ea7b948283e847e9702", "fusion_lat": 0.0, "is_disabled": 0, "rental_uris": {"ios": "https://dc.lft.to/lastmile_qr_scan", "android": "https://dc.lft.to/lastmile_qr_scan"}}, {"name": "db700a231fffb0984fc1d8ea9aa1317c", "lon": -77.05864333333334, "lat": 38.935539, "type": "electric_bike", "fusion_lon": 0.0, "is_reserved": 0, "bike_id": "db700a231fffb0984fc1d8ea9aa1317c", "fusion_lat": 0.0, "is_disabled": 0, "rental_uris": {"ios": "https://dc.lft.to/lastmile_qr_scan", "android": "https://dc.lft.to/lastmile_qr_scan"}}, {"name": "47bdabafe688b037ae9a3281f7eb2e0d", "lon": -77.07265966666667, "lat": 38.93480183333333, "type": "electric_scooter", "fusion_lon": 0.0, "is_reserved": 0, "bike_id": "47bdabafe688b037ae9a3281f7eb2e0d", "fusion_lat": 0.0, "is_disabled": 0, "rental_uris": {"ios": "https://dc.lft.to/lastmile_qr_scan", "android": "https://dc.lft.to/lastmile_qr_scan"}}, {"name": "997eb38aec8bdc82d1d82c8a6b62037c", "lon": -77.04358416666666, "lat": 38.90632816666667, "type": "electric_scooter", "fusion_lon": 0.0, "is_reserved": 0, "bike_id": "997eb38aec8bdc82d1d82c8a6b62037c", "fusion_lat": 0.0, "is_disabled": 0, "rental_uris": {"ios": "https://dc.lft.to/lastmile_qr_scan", "android": "https://dc.lft.to/lastmile_qr_scan"}}, {"name": "8107def50f7b1a2040c183735e4cb7fa", "lon": -77.031782, "lat": 38.89748766666666, "type": "electric_scooter", "fusion_lon": 0.0, "is_reserved": 0, "bike_id": "8107def50f7b1a2040c183735e4cb7fa", "fusion_lat": 0.0, "is_disabled": 0, "rental_uris": {"ios": "https://dc.lft.to/lastmile_qr_scan", "android": "https://dc.lft.to/lastmile_qr_scan"}}, {"name": "a981c8edd9080f95626f8e716851c43f", "lon": -77.035301, "lat": 38.901166333333336, "type": "electric_scooter", "fusion_lon": 0.0, "is_reserved": 0, "bike_id": "a981c8edd9080f95626f8e716851c43f", "fusion_lat": 0.0, "is_disabled": 0, "rental_uris": {"ios": "https://dc.lft.to/lastmile_qr_scan", "android": "https://dc.lft.to/lastmile_qr_scan"}}, {"name": "6a826dabe49688b5bebf34604795d32c", "lon": -77.0304175, "lat": 38.923846, "type": "electric_scooter", "fusion_lon": 0.0, "is_reserved": 0, "bike_id": "6a826dabe49688b5bebf34604795d32c", "fusion_lat": 0.0, "is_disabled": 0, "rental_uris": {"ios": "https://dc.lft.to/lastmile_qr_scan", "android": "https://dc.lft.to/lastmile_qr_scan"}}, {"name": "a06805f5e92cfe408c02a038bb22de49", "lon": -77.04653283333333, "lat": 38.9043105, "type": "electric_scooter", "fusion_lon": 0.0, "is_reserved": 0, "bike_id": "a06805f5e92cfe408c02a038bb22de49", "fusion_lat": 0.0, "is_disabled": 0, "rental_uris": {"ios": "https://dc.lft.to/lastmile_qr_scan", "android": "https://dc.lft.to/lastmile_qr_scan"}}, {"name": "1febb5f717e73ba7e978085cbe60d0d2", "lon": -77.04243033333333, "lat": 38.92065733333333, "type": "electric_scooter", "fusion_lon": 0.0, "is_reserved": 0, "bike_id": "1febb5f717e73ba7e978085cbe60d0d2", "fusion_lat": 0.0, "is_disabled": 0, "rental_uris": {"ios": "https://dc.lft.to/lastmile_qr_scan", "android": "https://dc.lft.to/lastmile_qr_scan"}}, {"name": "b586d59a7e6cb825bf789eda751134c2", "lon": -77.04598116666666, "lat": 38.91929533333333, "type": "electric_scooter", "fusion_lon": 0.0, "is_reserved": 0, "bike_id": "b586d59a7e6cb825bf789eda751134c2", "fusion_lat": 0.0, "is_disabled": 0, "rental_uris": {"ios": "https://dc.lft.to/lastmile_qr_scan", "android": "https://dc.lft.to/lastmile_qr_scan"}}, {"name": "1fa7603ea2527d58949cfaa94ca28a61", "lon": -77.08661233333333, "lat": 38.93474833333333, "type": "electric_scooter", "fusion_lon": 0.0, "is_reserved": 0, "bike_id": "1fa7603ea2527d58949cfaa94ca28a61", "fusion_lat": 0.0, "is_disabled": 0, "rental_uris": {"ios": "https://dc.lft.to/lastmile_qr_scan", "android": "https://dc.lft.to/lastmile_qr_scan"}}, {"name": "36cc4e8af922fe2e36eaadb0d010b885", "lon": -77.0076005, "lat": 38.8985175, "type": "electric_scooter", "fusion_lon": 0.0, "is_reserved": 0, "bike_id": "36cc4e8af922fe2e36eaadb0d010b885", "fusion_lat": 0.0, "is_disabled": 0, "rental_uris": {"ios": "https://dc.lft.to/lastmile_qr_scan", "android": "https://dc.lft.to/lastmile_qr_scan"}}, {"name": "fc3ccd628e8c522bd998834447712198", "lon": -77.11240183333334, "lat": 38.85645366666667, "type": "electric_bike", "fusion_lon": 0.0, "is_reserved": 0, "bike_id": "fc3ccd628e8c522bd998834447712198", "fusion_lat": 0.0, "is_disabled": 0, "rental_uris": {"ios": "https://dc.lft.to/lastmile_qr_scan", "android": "https://dc.lft.to/lastmile_qr_scan"}}, {"name": "d004d30b1bf3a0ef38da863120a51207", "lon": -77.04656733333333, "lat": 38.90557333333334, "type": "electric_scooter", "fusion_lon": 0.0, "is_reserved": 0, "bike_id": "d004d30b1bf3a0ef38da863120a51207", "fusion_lat": 0.0, "is_disabled": 0, "rental_uris": {"ios": "https://dc.lft.to/lastmile_qr_scan", "android": "https://dc.lft.to/lastmile_qr_scan"}}, {"name": "cb9bb2496753ffd4e12929d9d71bbf8a", "lon": -77.12729616666667, "lat": 38.895603, "type": "electric_bike", "fusion_lon": 0.0, "is_reserved": 0, "bike_id": "cb9bb2496753ffd4e12929d9d71bbf8a", "fusion_lat": 0.0, "is_disabled": 0, "rental_uris": {"ios": "https://dc.lft.to/lastmile_qr_scan", "android": "https://dc.lft.to/lastmile_qr_scan"}}, {"name": "3f11d9f1793ab69e7f58e10854b814f3", "lon": -77.02596033333333, "lat": 38.916942, "type": "electric_scooter", "fusion_lon": 0.0, "is_reserved": 0, "bike_id": "3f11d9f1793ab69e7f58e10854b814f3", "fusion_lat": 0.0, "is_disabled": 0, "rental_uris": {"ios": "https://dc.lft.to/lastmile_qr_scan", "android": "https://dc.lft.to/lastmile_qr_scan"}}, {"name": "adc1441b5b392c2e3830b1fbc44841f4", "lon": -76.93194216666667, "lat": 38.89881616666667, "type": "electric_scooter", "fusion_lon": 0.0, "is_reserved": 0, "bike_id": "adc1441b5b392c2e3830b1fbc44841f4", "fusion_lat": 0.0, "is_disabled": 0, "rental_uris": {"ios": "https://dc.lft.to/lastmile_qr_scan", "android": "https://dc.lft.to/lastmile_qr_scan"}}, {"name": "ff97deb61024959fd2ec004728f2baf3", "lon": -77.026955, "lat": 38.92879166666667, "type": "electric_scooter", "fusion_lon": 0.0, "is_reserved": 0, "bike_id": "ff97deb61024959fd2ec004728f2baf3", "fusion_lat": 0.0, "is_disabled": 0, "rental_uris": {"ios": "https://dc.lft.to/lastmile_qr_scan", "android": "https://dc.lft.to/lastmile_qr_scan"}}, {"name": "5cc776fe837f1c9ae9fcdf85c3cf55cb", "lon": -77.029497, "lat": 38.899391, "type": "electric_scooter", "fusion_lon": 0.0, "is_reserved": 0, "bike_id": "5cc776fe837f1c9ae9fcdf85c3cf55cb", "fusion_lat": 0.0, "is_disabled": 0, "rental_uris": {"ios": "https://dc.lft.to/lastmile_qr_scan", "android": "https://dc.lft.to/lastmile_qr_scan"}}, {"name": "60aa3ed211aa425c7654e6ab0a7ea3ab", "lon": -76.99900083333333, "lat": 38.948141666666665, "type": "electric_scooter", "fusion_lon": 0.0, "is_reserved": 0, "bike_id": "60aa3ed211aa425c7654e6ab0a7ea3ab", "fusion_lat": 0.0, "is_disabled": 0, "rental_uris": {"ios": "https://dc.lft.to/lastmile_qr_scan", "android": "https://dc.lft.to/lastmile_qr_scan"}}, {"name": "21cea120725458faa4a6fa1262f31071", "lon": -77.02298133333333, "lat": 38.91611916666667, "type": "electric_scooter", "fusion_lon": 0.0, "is_reserved": 0, "bike_id": "21cea120725458faa4a6fa1262f31071", "fusion_lat": 0.0, "is_disabled": 0, "rental_uris": {"ios": "https://dc.lft.to/lastmile_qr_scan", "android": "https://dc.lft.to/lastmile_qr_scan"}}, {"name": "833d32776261d008dcb264c125d9e625", "lon": -77.0325985, "lat": 38.93526116666666, "type": "electric_scooter", "fusion_lon": 0.0, "is_reserved": 0, "bike_id": "833d32776261d008dcb264c125d9e625", "fusion_lat": 0.0, "is_disabled": 0, "rental_uris": {"ios": "https://dc.lft.to/lastmile_qr_scan", "android": "https://dc.lft.to/lastmile_qr_scan"}}, {"name": "0eacd6f3ddf2bc5f537d34f831736e2b", "lon": -77.07021399999999, "lat": 38.906383166666664, "type": "electric_scooter", "fusion_lon": 0.0, "is_reserved": 0, "bike_id": "0eacd6f3ddf2bc5f537d34f831736e2b", "fusion_lat": 0.0, "is_disabled": 0, "rental_uris": {"ios": "https://dc.lft.to/lastmile_qr_scan", "android": "https://dc.lft.to/lastmile_qr_scan"}}, {"name": "924c2af5355e370ce167a6bd256e12c8", "lon": -77.03638066666667, "lat": 38.927453666666665, "type": "electric_scooter", "fusion_lon": 0.0, "is_reserved": 0, "bike_id": "924c2af5355e370ce167a6bd256e12c8", "fusion_lat": 0.0, "is_disabled": 0, "rental_uris": {"ios": "https://dc.lft.to/lastmile_qr_scan", "android": "https://dc.lft.to/lastmile_qr_scan"}}, {"name": "3b17c6d9081a06c035598c544242a624", "lon": -77.043073, "lat": 38.918853666666664, "type": "electric_scooter", "fusion_lon": 0.0, "is_reserved": 0, "bike_id": "3b17c6d9081a06c035598c544242a624", "fusion_lat": 0.0, "is_disabled": 0, "rental_uris": {"ios": "https://dc.lft.to/lastmile_qr_scan", "android": "https://dc.lft.to/lastmile_qr_scan"}}, {"name": "6bd91d3fde9c0f11140f776c19c0280e", "lon": -77.03442733333333, "lat": 38.90810483333333, "type": "electric_scooter", "fusion_lon": 0.0, "is_reserved": 0, "bike_id": "6bd91d3fde9c0f11140f776c19c0280e", "fusion_lat": 0.0, "is_disabled": 0, "rental_uris": {"ios": "https://dc.lft.to/lastmile_qr_scan", "android": "https://dc.lft.to/lastmile_qr_scan"}}, {"name": "6e74dae28ccdae36ca5b4fefb6cbaec2", "lon": -77.03439983333334, "lat": 38.9080995, "type": "electric_scooter", "fusion_lon": 0.0, "is_reserved": 0, "bike_id": "6e74dae28ccdae36ca5b4fefb6cbaec2", "fusion_lat": 0.0, "is_disabled": 0, "rental_uris": {"ios": "https://dc.lft.to/lastmile_qr_scan", "android": "https://dc.lft.to/lastmile_qr_scan"}}, {"name": "0f7bd1b47b0633e87941095cc5452152", "lon": -76.98116916666666, "lat": 38.914602333333335, "type": "electric_bike", "fusion_lon": 0.0, "is_reserved": 0, "bike_id": "0f7bd1b47b0633e87941095cc5452152", "fusion_lat": 0.0, "is_disabled": 0, "rental_uris": {"ios": "https://dc.lft.to/lastmile_qr_scan", "android": "https://dc.lft.to/lastmile_qr_scan"}}, {"name": "5eea9612321d1cd1be6522809bfac2b0", "lon": -77.0324475, "lat": 38.9616015, "type": "electric_scooter", "fusion_lon": 0.0, "is_reserved": 0, "bike_id": "5eea9612321d1cd1be6522809bfac2b0", "fusion_lat": 0.0, "is_disabled": 0, "rental_uris": {"ios": "https://dc.lft.to/lastmile_qr_scan", "android": "https://dc.lft.to/lastmile_qr_scan"}}, {"name": "4ff30ef9fe921550e4b26acd82ab1bb3", "lon": -77.04167983333333, "lat": 38.918228166666665, "type": "electric_scooter", "fusion_lon": 0.0, "is_reserved": 0, "bike_id": "4ff30ef9fe921550e4b26acd82ab1bb3", "fusion_lat": 0.0, "is_disabled": 0, "rental_uris": {"ios": "https://dc.lft.to/lastmile_qr_scan", "android": "https://dc.lft.to/lastmile_qr_scan"}}, {"name": "571e55d88652175592377d04dda86cea", "lon": -77.02163733333333, "lat": 38.883335833333334, "type": "electric_scooter", "fusion_lon": 0.0, "is_reserved": 0, "bike_id": "571e55d88652175592377d04dda86cea", "fusion_lat": 0.0, "is_disabled": 0, "rental_uris": {"ios": "https://dc.lft.to/lastmile_qr_scan", "android": "https://dc.lft.to/lastmile_qr_scan"}}, {"name": "5cb2253b74f365ad96ed1223ecb5a4f3", "lon": -77.04347133333333, "lat": 38.90808116666667, "type": "electric_scooter", "fusion_lon": 0.0, "is_reserved": 0, "bike_id": "5cb2253b74f365ad96ed1223ecb5a4f3", "fusion_lat": 0.0, "is_disabled": 0, "rental_uris": {"ios": "https://dc.lft.to/lastmile_qr_scan", "android": "https://dc.lft.to/lastmile_qr_scan"}}, {"name": "8c3fdcb40fa33388000d70dc9be79bb3", "lon": -77.028077, "lat": 38.90471183333333, "type": "electric_scooter", "fusion_lon": 0.0, "is_reserved": 0, "bike_id": "8c3fdcb40fa33388000d70dc9be79bb3", "fusion_lat": 0.0, "is_disabled": 0, "rental_uris": {"ios": "https://dc.lft.to/lastmile_qr_scan", "android": "https://dc.lft.to/lastmile_qr_scan"}}, {"name": "138a1b7b8945b0ba87359ae6d3f55dcb", "lon": -77.23318683333333, "lat": 38.87288133333333, "type": "electric_bike", "fusion_lon": 0.0, "is_reserved": 0, "bike_id": "138a1b7b8945b0ba87359ae6d3f55dcb", "fusion_lat": 0.0, "is_disabled": 0, "rental_uris": {"ios": "https://dc.lft.to/lastmile_qr_scan", "android": "https://dc.lft.to/lastmile_qr_scan"}}, {"name": "abba01c15b9c369ae9be0a0e5f7fad4b", "lon": -77.02297466666667, "lat": 38.917929666666666, "type": "electric_scooter", "fusion_lon": 0.0, "is_reserved": 0, "bike_id": "abba01c15b9c369ae9be0a0e5f7fad4b", "fusion_lat": 0.0, "is_disabled": 0, "rental_uris": {"ios": "https://dc.lft.to/lastmile_qr_scan", "android": "https://dc.lft.to/lastmile_qr_scan"}}, {"name": "bb62d68f474e04dbe3151d86fe0c5527", "lon": -77.04480816666667, "lat": 38.924237, "type": "electric_scooter", "fusion_lon": 0.0, "is_reserved": 0, "bike_id": "bb62d68f474e04dbe3151d86fe0c5527", "fusion_lat": 0.0, "is_disabled": 0, "rental_uris": {"ios": "https://dc.lft.to/lastmile_qr_scan", "android": "https://dc.lft.to/lastmile_qr_scan"}}, {"name": "148673c5dba66183842619e15b79ec78", "lon": -77.044359, "lat": 38.9110385, "type": "electric_scooter", "fusion_lon": 0.0, "is_reserved": 0, "bike_id": "148673c5dba66183842619e15b79ec78", "fusion_lat": 0.0, "is_disabled": 0, "rental_uris": {"ios": "https://dc.lft.to/lastmile_qr_scan", "android": "https://dc.lft.to/lastmile_qr_scan"}}, {"name": "118558a56c25437a6436038a36745622", "lon": -76.98374416666667, "lat": 38.91325116666667, "type": "electric_bike", "fusion_lon": 0.0, "is_reserved": 0, "bike_id": "118558a56c25437a6436038a36745622", "fusion_lat": 0.0, "is_disabled": 0, "rental_uris": {"ios": "https://dc.lft.to/lastmile_qr_scan", "android": "https://dc.lft.to/lastmile_qr_scan"}}, {"name": "060c95bc6be7f516131f85e79a5782e7", "lon": -77.03123366666667, "lat": 38.916968833333335, "type": "electric_scooter", "fusion_lon": 0.0, "is_reserved": 0, "bike_id": "060c95bc6be7f516131f85e79a5782e7", "fusion_lat": 0.0, "is_disabled": 0, "rental_uris": {"ios": "https://dc.lft.to/lastmile_qr_scan", "android": "https://dc.lft.to/lastmile_qr_scan"}}, {"name": "55fc3591e15928f6ab8de7aef7140226", "lon": -77.02801016666666, "lat": 38.91222916666667, "type": "electric_scooter", "fusion_lon": 0.0, "is_reserved": 0, "bike_id": "55fc3591e15928f6ab8de7aef7140226", "fusion_lat": 0.0, "is_disabled": 0, "rental_uris": {"ios": "https://dc.lft.to/lastmile_qr_scan", "android": "https://dc.lft.to/lastmile_qr_scan"}}, {"name": "fce1f81cb75449cd60ec18d5bb60cfcf", "lon": -77.0432475, "lat": 38.892276, "type": "electric_scooter", "fusion_lon": 0.0, "is_reserved": 0, "bike_id": "fce1f81cb75449cd60ec18d5bb60cfcf", "fusion_lat": 0.0, "is_disabled": 0, "rental_uris": {"ios": "https://dc.lft.to/lastmile_qr_scan", "android": "https://dc.lft.to/lastmile_qr_scan"}}, {"name": "a2ee750c43b2a207108d79566c29c18b", "lon": -76.937552, "lat": 38.89050116666667, "type": "electric_scooter", "fusion_lon": 0.0, "is_reserved": 0, "bike_id": "a2ee750c43b2a207108d79566c29c18b", "fusion_lat": 0.0, "is_disabled": 0, "rental_uris": {"ios": "https://dc.lft.to/lastmile_qr_scan", "android": "https://dc.lft.to/lastmile_qr_scan"}}, {"name": "3be06fc6db47fe49fbbf0d6fb3a31601", "lon": -76.98529233333333, "lat": 38.85372733333333, "type": "electric_scooter", "fusion_lon": 0.0, "is_reserved": 0, "bike_id": "3be06fc6db47fe49fbbf0d6fb3a31601", "fusion_lat": 0.0, "is_disabled": 0, "rental_uris": {"ios": "https://dc.lft.to/lastmile_qr_scan", "android": "https://dc.lft.to/lastmile_qr_scan"}}, {"name": "ff6e24cb0747a631a0d984d46cc58a5e", "lon": -77.00721916666667, "lat": 38.88497316666667, "type": "electric_scooter", "fusion_lon": 0.0, "is_reserved": 0, "bike_id": "ff6e24cb0747a631a0d984d46cc58a5e", "fusion_lat": 0.0, "is_disabled": 0, "rental_uris": {"ios": "https://dc.lft.to/lastmile_qr_scan", "android": "https://dc.lft.to/lastmile_qr_scan"}}, {"name": "bedd8edc12a27665fe9316b853ff893c", "lon": -76.98436316666667, "lat": 38.8552445, "type": "electric_bike", "fusion_lon": 0.0, "is_reserved": 0, "bike_id": "bedd8edc12a27665fe9316b853ff893c", "fusion_lat": 0.0, "is_disabled": 0, "rental_uris": {"ios": "https://dc.lft.to/lastmile_qr_scan", "android": "https://dc.lft.to/lastmile_qr_scan"}}, {"name": "7e8be1f440d5c39e2f1dcccbc1f279ae", "lon": -77.04514566666667, "lat": 38.902766666666665, "type": "electric_scooter", "fusion_lon": 0.0, "is_reserved": 0, "bike_id": "7e8be1f440d5c39e2f1dcccbc1f279ae", "fusion_lat": 0.0, "is_disabled": 0, "rental_uris": {"ios": "https://dc.lft.to/lastmile_qr_scan", "android": "https://dc.lft.to/lastmile_qr_scan"}}, {"name": "e7f1215929db7dc8423a7a8e1a874c04", "lon": -77.02391166666666, "lat": 38.916286166666666, "type": "electric_scooter", "fusion_lon": 0.0, "is_reserved": 0, "bike_id": "e7f1215929db7dc8423a7a8e1a874c04", "fusion_lat": 0.0, "is_disabled": 0, "rental_uris": {"ios": "https://dc.lft.to/lastmile_qr_scan", "android": "https://dc.lft.to/lastmile_qr_scan"}}, {"name": "0480b08ffff7bdd764eb3ec59db278fb", "lon": -77.063564, "lat": 38.94446283333333, "type": "electric_scooter", "fusion_lon": 0.0, "is_reserved": 0, "bike_id": "0480b08ffff7bdd764eb3ec59db278fb", "fusion_lat": 0.0, "is_disabled": 0, "rental_uris": {"ios": "https://dc.lft.to/lastmile_qr_scan", "android": "https://dc.lft.to/lastmile_qr_scan"}}, {"name": "ade1be76eaa29b9d029a43e36ae32c94", "lon": -77.0281395, "lat": 38.923641333333336, "type": "electric_scooter", "fusion_lon": 0.0, "is_reserved": 0, "bike_id": "ade1be76eaa29b9d029a43e36ae32c94", "fusion_lat": 0.0, "is_disabled": 0, "rental_uris": {"ios": "https://dc.lft.to/lastmile_qr_scan", "android": "https://dc.lft.to/lastmile_qr_scan"}}, {"name": "98b622ad0017d6e1eb734084c4da2447", "lon": -77.02293133333333, "lat": 38.918373833333334, "type": "electric_scooter", "fusion_lon": 0.0, "is_reserved": 0, "bike_id": "98b622ad0017d6e1eb734084c4da2447", "fusion_lat": 0.0, "is_disabled": 0, "rental_uris": {"ios": "https://dc.lft.to/lastmile_qr_scan", "android": "https://dc.lft.to/lastmile_qr_scan"}}, {"name": "b965ce83883222ec8eaad3d9e0dad06e", "lon": -77.04311166666666, "lat": 38.9288855, "type": "electric_bike", "fusion_lon": 0.0, "is_reserved": 0, "bike_id": "b965ce83883222ec8eaad3d9e0dad06e", "fusion_lat": 0.0, "is_disabled": 0, "rental_uris": {"ios": "https://dc.lft.to/lastmile_qr_scan", "android": "https://dc.lft.to/lastmile_qr_scan"}}, {"name": "1948fdf04fa9068c84684eee5f869550", "lon": -77.0686215, "lat": 38.80578216666667, "type": "electric_bike", "fusion_lon": 0.0, "is_reserved": 0, "bike_id": "1948fdf04fa9068c84684eee5f869550", "fusion_lat": 0.0, "is_disabled": 0, "rental_uris": {"ios": "https://dc.lft.to/lastmile_qr_scan", "android": "https://dc.lft.to/lastmile_qr_scan"}}, {"name": "0b5130bb98b427eb9ad631015d5ce68f", "lon": -76.89537683333333, "lat": 38.945520333333334, "type": "electric_bike", "fusion_lon": 0.0, "is_reserved": 0, "bike_id": "0b5130bb98b427eb9ad631015d5ce68f", "fusion_lat": 0.0, "is_disabled": 0, "rental_uris": {"ios": "https://dc.lft.to/lastmile_qr_scan", "android": "https://dc.lft.to/lastmile_qr_scan"}}, {"name": "f92d510ce76024d92e1a51b4d156d584", "lon": -77.032557, "lat": 38.9397535, "type": "electric_scooter", "fusion_lon": 0.0, "is_reserved": 0, "bike_id": "f92d510ce76024d92e1a51b4d156d584", "fusion_lat": 0.0, "is_disabled": 0, "rental_uris": {"ios": "https://dc.lft.to/lastmile_qr_scan", "android": "https://dc.lft.to/lastmile_qr_scan"}}, {"name": "8c836782e9f2d5c82f56ce9a98ced91a", "lon": -77.03330433333333, "lat": 38.89842866666667, "type": "electric_scooter", "fusion_lon": 0.0, "is_reserved": 0, "bike_id": "8c836782e9f2d5c82f56ce9a98ced91a", "fusion_lat": 0.0, "is_disabled": 0, "rental_uris": {"ios": "https://dc.lft.to/lastmile_qr_scan", "android": "https://dc.lft.to/lastmile_qr_scan"}}, {"name": "1fc9a0165d1734a2e7e447534b6fedff", "lon": -77.0413475, "lat": 38.893566666666665, "type": "electric_scooter", "fusion_lon": 0.0, "is_reserved": 0, "bike_id": "1fc9a0165d1734a2e7e447534b6fedff", "fusion_lat": 0.0, "is_disabled": 0, "rental_uris": {"ios": "https://dc.lft.to/lastmile_qr_scan", "android": "https://dc.lft.to/lastmile_qr_scan"}}, {"name": "9ed5a62f08b920eed9d7fa1b3b879305", "lon": -77.01673716666667, "lat": 38.8812415, "type": "electric_scooter", "fusion_lon": 0.0, "is_reserved": 0, "bike_id": "9ed5a62f08b920eed9d7fa1b3b879305", "fusion_lat": 0.0, "is_disabled": 0, "rental_uris": {"ios": "https://dc.lft.to/lastmile_qr_scan", "android": "https://dc.lft.to/lastmile_qr_scan"}}, {"name": "990ccb06947ae9ef4d6e3e17ee0d403f", "lon": -77.04498183333334, "lat": 38.901436, "type": "electric_scooter", "fusion_lon": 0.0, "is_reserved": 0, "bike_id": "990ccb06947ae9ef4d6e3e17ee0d403f", "fusion_lat": 0.0, "is_disabled": 0, "rental_uris": {"ios": "https://dc.lft.to/lastmile_qr_scan", "android": "https://dc.lft.to/lastmile_qr_scan"}}, {"name": "e87f613c3b6f6f4cfb42a5d3600ca196", "lon": -77.04628383333333, "lat": 38.919496333333335, "type": "electric_scooter", "fusion_lon": 0.0, "is_reserved": 0, "bike_id": "e87f613c3b6f6f4cfb42a5d3600ca196", "fusion_lat": 0.0, "is_disabled": 0, "rental_uris": {"ios": "https://dc.lft.to/lastmile_qr_scan", "android": "https://dc.lft.to/lastmile_qr_scan"}}, {"name": "5f390a01dc8d0257567b2d1654eb1e55", "lon": -76.9372875, "lat": 38.8901625, "type": "electric_scooter", "fusion_lon": 0.0, "is_reserved": 0, "bike_id": "5f390a01dc8d0257567b2d1654eb1e55", "fusion_lat": 0.0, "is_disabled": 0, "rental_uris": {"ios": "https://dc.lft.to/lastmile_qr_scan", "android": "https://dc.lft.to/lastmile_qr_scan"}}, {"name": "c9147ade090d04d40e85b3efc400bd75", "lon": -77.06330516666667, "lat": 38.944271, "type": "electric_scooter", "fusion_lon": 0.0, "is_reserved": 0, "bike_id": "c9147ade090d04d40e85b3efc400bd75", "fusion_lat": 0.0, "is_disabled": 0, "rental_uris": {"ios": "https://dc.lft.to/lastmile_qr_scan", "android": "https://dc.lft.to/lastmile_qr_scan"}}, {"name": "217440c2a4be3d33b01a8ea0c6023457", "lon": -77.01051383333333, "lat": 38.89844883333333, "type": "electric_scooter", "fusion_lon": 0.0, "is_reserved": 0, "bike_id": "217440c2a4be3d33b01a8ea0c6023457", "fusion_lat": 0.0, "is_disabled": 0, "rental_uris": {"ios": "https://dc.lft.to/lastmile_qr_scan", "android": "https://dc.lft.to/lastmile_qr_scan"}}, {"name": "37234da9595d538a4b6b25b8a0a61378", "lon": -77.02730433333333, "lat": 38.940853833333335, "type": "electric_scooter", "fusion_lon": 0.0, "is_reserved": 0, "bike_id": "37234da9595d538a4b6b25b8a0a61378", "fusion_lat": 0.0, "is_disabled": 0, "rental_uris": {"ios": "https://dc.lft.to/lastmile_qr_scan", "android": "https://dc.lft.to/lastmile_qr_scan"}}, {"name": "e3f97067871326fdc4014fdc3abbfd8c", "lon": -77.041802, "lat": 38.89290283333333, "type": "electric_scooter", "fusion_lon": 0.0, "is_reserved": 0, "bike_id": "e3f97067871326fdc4014fdc3abbfd8c", "fusion_lat": 0.0, "is_disabled": 0, "rental_uris": {"ios": "https://dc.lft.to/lastmile_qr_scan", "android": "https://dc.lft.to/lastmile_qr_scan"}}, {"name": "097355de28154dd34dbf551c65d3a296", "lon": -77.02491366666666, "lat": 38.941846, "type": "electric_scooter", "fusion_lon": 0.0, "is_reserved": 0, "bike_id": "097355de28154dd34dbf551c65d3a296", "fusion_lat": 0.0, "is_disabled": 0, "rental_uris": {"ios": "https://dc.lft.to/lastmile_qr_scan", "android": "https://dc.lft.to/lastmile_qr_scan"}}, {"name": "632bcc956a823edef47b052ac79554f9", "lon": -77.03452616666667, "lat": 38.90816733333333, "type": "electric_scooter", "fusion_lon": 0.0, "is_reserved": 0, "bike_id": "632bcc956a823edef47b052ac79554f9", "fusion_lat": 0.0, "is_disabled": 0, "rental_uris": {"ios": "https://dc.lft.to/lastmile_qr_scan", "android": "https://dc.lft.to/lastmile_qr_scan"}}, {"name": "fa1046eb7eefce1949a972bb5e626d9a", "lon": -77.02295616666666, "lat": 38.9280825, "type": "electric_scooter", "fusion_lon": 0.0, "is_reserved": 0, "bike_id": "fa1046eb7eefce1949a972bb5e626d9a", "fusion_lat": 0.0, "is_disabled": 0, "rental_uris": {"ios": "https://dc.lft.to/lastmile_qr_scan", "android": "https://dc.lft.to/lastmile_qr_scan"}}, {"name": "70620e846f6919531236065a5a4b2e25", "lon": -77.0427645, "lat": 38.9086395, "type": "electric_scooter", "fusion_lon": 0.0, "is_reserved": 0, "bike_id": "70620e846f6919531236065a5a4b2e25", "fusion_lat": 0.0, "is_disabled": 0, "rental_uris": {"ios": "https://dc.lft.to/lastmile_qr_scan", "android": "https://dc.lft.to/lastmile_qr_scan"}}, {"name": "6d620ee8227266a98279cee9a4f140fa", "lon": -77.0272455, "lat": 38.89494416666667, "type": "electric_scooter", "fusion_lon": 0.0, "is_reserved": 0, "bike_id": "6d620ee8227266a98279cee9a4f140fa", "fusion_lat": 0.0, "is_disabled": 0, "rental_uris": {"ios": "https://dc.lft.to/lastmile_qr_scan", "android": "https://dc.lft.to/lastmile_qr_scan"}}, {"name": "e8a8818ba5d3f1d24cc2add6a90567bc", "lon": -77.04712433333333, "lat": 38.909584333333335, "type": "electric_scooter", "fusion_lon": 0.0, "is_reserved": 0, "bike_id": "e8a8818ba5d3f1d24cc2add6a90567bc", "fusion_lat": 0.0, "is_disabled": 0, "rental_uris": {"ios": "https://dc.lft.to/lastmile_qr_scan", "android": "https://dc.lft.to/lastmile_qr_scan"}}, {"name": "f4bb6b576e841ba901ff43d570b14d86", "lon": -77.0396285, "lat": 38.905649833333335, "type": "electric_scooter", "fusion_lon": 0.0, "is_reserved": 0, "bike_id": "f4bb6b576e841ba901ff43d570b14d86", "fusion_lat": 0.0, "is_disabled": 0, "rental_uris": {"ios": "https://dc.lft.to/lastmile_qr_scan", "android": "https://dc.lft.to/lastmile_qr_scan"}}, {"name": "f2d4f2debf74c4d5c067bcc3489ecd46", "lon": -77.01022816666666, "lat": 38.917088666666665, "type": "electric_scooter", "fusion_lon": 0.0, "is_reserved": 0, "bike_id": "f2d4f2debf74c4d5c067bcc3489ecd46", "fusion_lat": 0.0, "is_disabled": 0, "rental_uris": {"ios": "https://dc.lft.to/lastmile_qr_scan", "android": "https://dc.lft.to/lastmile_qr_scan"}}, {"name": "b30f6794bf0c267372c2278ca2193665", "lon": -77.02866283333333, "lat": 38.8982475, "type": "electric_scooter", "fusion_lon": 0.0, "is_reserved": 0, "bike_id": "b30f6794bf0c267372c2278ca2193665", "fusion_lat": 0.0, "is_disabled": 0, "rental_uris": {"ios": "https://dc.lft.to/lastmile_qr_scan", "android": "https://dc.lft.to/lastmile_qr_scan"}}, {"name": "59a9db8cfc897fe309759bd2a3e2ac14", "lon": -77.04503316666667, "lat": 38.903808833333336, "type": "electric_scooter", "fusion_lon": 0.0, "is_reserved": 0, "bike_id": "59a9db8cfc897fe309759bd2a3e2ac14", "fusion_lat": 0.0, "is_disabled": 0, "rental_uris": {"ios": "https://dc.lft.to/lastmile_qr_scan", "android": "https://dc.lft.to/lastmile_qr_scan"}}, {"name": "6b7ea836d1b22db22575c6021da34ace", "lon": -77.01694283333333, "lat": 38.9750295, "type": "electric_scooter", "fusion_lon": 0.0, "is_reserved": 0, "bike_id": "6b7ea836d1b22db22575c6021da34ace", "fusion_lat": 0.0, "is_disabled": 0, "rental_uris": {"ios": "https://dc.lft.to/lastmile_qr_scan", "android": "https://dc.lft.to/lastmile_qr_scan"}}, {"name": "bba02dcde15dd3e2fda63b7668d7f54e", "lon": -77.0466245, "lat": 38.904014333333336, "type": "electric_scooter", "fusion_lon": 0.0, "is_reserved": 0, "bike_id": "bba02dcde15dd3e2fda63b7668d7f54e", "fusion_lat": 0.0, "is_disabled": 0, "rental_uris": {"ios": "https://dc.lft.to/lastmile_qr_scan", "android": "https://dc.lft.to/lastmile_qr_scan"}}, {"name": "8a1c177d48d7f6649a18de7ee9f831fa", "lon": -77.04647333333334, "lat": 39.054965, "type": "electric_bike", "fusion_lon": 0.0, "is_reserved": 0, "bike_id": "8a1c177d48d7f6649a18de7ee9f831fa", "fusion_lat": 0.0, "is_disabled": 0, "rental_uris": {"ios": "https://dc.lft.to/lastmile_qr_scan", "android": "https://dc.lft.to/lastmile_qr_scan"}}, {"name": "74e147f3810133a46410315a78b7f3d7", "lon": -77.0055435, "lat": 38.87658066666667, "type": "electric_scooter", "fusion_lon": 0.0, "is_reserved": 0, "bike_id": "74e147f3810133a46410315a78b7f3d7", "fusion_lat": 0.0, "is_disabled": 0, "rental_uris": {"ios": "https://dc.lft.to/lastmile_qr_scan", "android": "https://dc.lft.to/lastmile_qr_scan"}}, {"name": "1aa33c6ac3add8bcb9d117f0059d5d39", "lon": -77.04727216666667, "lat": 38.91341966666667, "type": "electric_scooter", "fusion_lon": 0.0, "is_reserved": 0, "bike_id": "1aa33c6ac3add8bcb9d117f0059d5d39", "fusion_lat": 0.0, "is_disabled": 0, "rental_uris": {"ios": "https://dc.lft.to/lastmile_qr_scan", "android": "https://dc.lft.to/lastmile_qr_scan"}}, {"name": "d17cad2a75971372644498f37a25d55e", "lon": -77.02884916666666, "lat": 38.9988015, "type": "electric_bike", "fusion_lon": 0.0, "is_reserved": 0, "bike_id": "d17cad2a75971372644498f37a25d55e", "fusion_lat": 0.0, "is_disabled": 0, "rental_uris": {"ios": "https://dc.lft.to/lastmile_qr_scan", "android": "https://dc.lft.to/lastmile_qr_scan"}}, {"name": "78065347c1231d1cc812f4c64d7bb7d8", "lon": -77.02384, "lat": 38.9196245, "type": "electric_scooter", "fusion_lon": 0.0, "is_reserved": 0, "bike_id": "78065347c1231d1cc812f4c64d7bb7d8", "fusion_lat": 0.0, "is_disabled": 0, "rental_uris": {"ios": "https://dc.lft.to/lastmile_qr_scan", "android": "https://dc.lft.to/lastmile_qr_scan"}}, {"name": "aed609a64b27ed643d37b3cc2646cbb9", "lon": -77.01757666666667, "lat": 38.8769035, "type": "electric_scooter", "fusion_lon": 0.0, "is_reserved": 0, "bike_id": "aed609a64b27ed643d37b3cc2646cbb9", "fusion_lat": 0.0, "is_disabled": 0, "rental_uris": {"ios": "https://dc.lft.to/lastmile_qr_scan", "android": "https://dc.lft.to/lastmile_qr_scan"}}, {"name": "2cb17f6afa57859f51dd495060023e09", "lon": -76.97350333333333, "lat": 38.849624, "type": "electric_scooter", "fusion_lon": 0.0, "is_reserved": 0, "bike_id": "2cb17f6afa57859f51dd495060023e09", "fusion_lat": 0.0, "is_disabled": 0, "rental_uris": {"ios": "https://dc.lft.to/lastmile_qr_scan", "android": "https://dc.lft.to/lastmile_qr_scan"}}, {"name": "d4d2b544336770f0529e03c7995f72f7", "lon": -76.96835516666667, "lat": 38.943230166666666, "type": "electric_bike", "fusion_lon": 0.0, "is_reserved": 0, "bike_id": "d4d2b544336770f0529e03c7995f72f7", "fusion_lat": 0.0, "is_disabled": 0, "rental_uris": {"ios": "https://dc.lft.to/lastmile_qr_scan", "android": "https://dc.lft.to/lastmile_qr_scan"}}, {"name": "f552a6fb2a219fa84623de2526c42cf8", "lon": -76.95655233333333, "lat": 38.89611766666667, "type": "electric_scooter", "fusion_lon": 0.0, "is_reserved": 0, "bike_id": "f552a6fb2a219fa84623de2526c42cf8", "fusion_lat": 0.0, "is_disabled": 0, "rental_uris": {"ios": "https://dc.lft.to/lastmile_qr_scan", "android": "https://dc.lft.to/lastmile_qr_scan"}}, {"name": "a4f6e0e27a0a1b097151b353b2e9795d", "lon": -77.05751766666667, "lat": 38.925046333333334, "type": "electric_scooter", "fusion_lon": 0.0, "is_reserved": 0, "bike_id": "a4f6e0e27a0a1b097151b353b2e9795d", "fusion_lat": 0.0, "is_disabled": 0, "rental_uris": {"ios": "https://dc.lft.to/lastmile_qr_scan", "android": "https://dc.lft.to/lastmile_qr_scan"}}, {"name": "fb370371c7536defe32ebd89bf600873", "lon": -77.0012065, "lat": 38.90504333333333, "type": "electric_scooter", "fusion_lon": 0.0, "is_reserved": 0, "bike_id": "fb370371c7536defe32ebd89bf600873", "fusion_lat": 0.0, "is_disabled": 0, "rental_uris": {"ios": "https://dc.lft.to/lastmile_qr_scan", "android": "https://dc.lft.to/lastmile_qr_scan"}}, {"name": "67e555e71b11564b3007633161816e23", "lon": -77.027352, "lat": 38.903391666666664, "type": "electric_scooter", "fusion_lon": 0.0, "is_reserved": 0, "bike_id": "67e555e71b11564b3007633161816e23", "fusion_lat": 0.0, "is_disabled": 0, "rental_uris": {"ios": "https://dc.lft.to/lastmile_qr_scan", "android": "https://dc.lft.to/lastmile_qr_scan"}}, {"name": "7d7ebe1c86c9ce6a2609afdfc33e3655", "lon": -77.02983733333333, "lat": 38.89641066666667, "type": "electric_scooter", "fusion_lon": 0.0, "is_reserved": 0, "bike_id": "7d7ebe1c86c9ce6a2609afdfc33e3655", "fusion_lat": 0.0, "is_disabled": 0, "rental_uris": {"ios": "https://dc.lft.to/lastmile_qr_scan", "android": "https://dc.lft.to/lastmile_qr_scan"}}, {"name": "ade77984bfe7b76c6d371d3e05a28384", "lon": -77.0303085, "lat": 38.89833383333333, "type": "electric_scooter", "fusion_lon": 0.0, "is_reserved": 0, "bike_id": "ade77984bfe7b76c6d371d3e05a28384", "fusion_lat": 0.0, "is_disabled": 0, "rental_uris": {"ios": "https://dc.lft.to/lastmile_qr_scan", "android": "https://dc.lft.to/lastmile_qr_scan"}}, {"name": "e1e1e5b06ede6f458c8b1d9a0dcdf2a6", "lon": -77.04981616666667, "lat": 39.062972333333335, "type": "electric_bike", "fusion_lon": 0.0, "is_reserved": 0, "bike_id": "e1e1e5b06ede6f458c8b1d9a0dcdf2a6", "fusion_lat": 0.0, "is_disabled": 0, "rental_uris": {"ios": "https://dc.lft.to/lastmile_qr_scan", "android": "https://dc.lft.to/lastmile_qr_scan"}}, {"name": "a5f98cf31080be1c6bdb1e0a618ea9e9", "lon": -77.04329916666667, "lat": 38.89228516666667, "type": "electric_scooter", "fusion_lon": 0.0, "is_reserved": 0, "bike_id": "a5f98cf31080be1c6bdb1e0a618ea9e9", "fusion_lat": 0.0, "is_disabled": 0, "rental_uris": {"ios": "https://dc.lft.to/lastmile_qr_scan", "android": "https://dc.lft.to/lastmile_qr_scan"}}, {"name": "072973c0c36de69b5474ea560f9554c7", "lon": -76.94622366666667, "lat": 38.832376333333336, "type": "electric_bike", "fusion_lon": 0.0, "is_reserved": 0, "bike_id": "072973c0c36de69b5474ea560f9554c7", "fusion_lat": 0.0, "is_disabled": 0, "rental_uris": {"ios": "https://dc.lft.to/lastmile_qr_scan", "android": "https://dc.lft.to/lastmile_qr_scan"}}, {"name": "83405c1b5d8e2023da54769d996c7835", "lon": -77.03815833333333, "lat": 38.905906333333334, "type": "electric_scooter", "fusion_lon": 0.0, "is_reserved": 0, "bike_id": "83405c1b5d8e2023da54769d996c7835", "fusion_lat": 0.0, "is_disabled": 0, "rental_uris": {"ios": "https://dc.lft.to/lastmile_qr_scan", "android": "https://dc.lft.to/lastmile_qr_scan"}}, {"name": "144445b75540ca17fb2c7239fc0617b8", "lon": -76.966234, "lat": 38.871050333333336, "type": "electric_scooter", "fusion_lon": 0.0, "is_reserved": 0, "bike_id": "144445b75540ca17fb2c7239fc0617b8", "fusion_lat": 0.0, "is_disabled": 0, "rental_uris": {"ios": "https://dc.lft.to/lastmile_qr_scan", "android": "https://dc.lft.to/lastmile_qr_scan"}}, {"name": "a937f24b32d7d1e7c1facbcdfac98bbd", "lon": -77.0328755, "lat": 38.956385833333336, "type": "electric_scooter", "fusion_lon": 0.0, "is_reserved": 0, "bike_id": "a937f24b32d7d1e7c1facbcdfac98bbd", "fusion_lat": 0.0, "is_disabled": 0, "rental_uris": {"ios": "https://dc.lft.to/lastmile_qr_scan", "android": "https://dc.lft.to/lastmile_qr_scan"}}, {"name": "1f4557a7277e5adf52e4a7b34ec75b42", "lon": -77.02595333333333, "lat": 38.9169605, "type": "electric_scooter", "fusion_lon": 0.0, "is_reserved": 0, "bike_id": "1f4557a7277e5adf52e4a7b34ec75b42", "fusion_lat": 0.0, "is_disabled": 0, "rental_uris": {"ios": "https://dc.lft.to/lastmile_qr_scan", "android": "https://dc.lft.to/lastmile_qr_scan"}}, {"name": "3b7ab46c89accf207ceebf946c2413cb", "lon": -76.94246383333333, "lat": 38.8967605, "type": "electric_scooter", "fusion_lon": 0.0, "is_reserved": 0, "bike_id": "3b7ab46c89accf207ceebf946c2413cb", "fusion_lat": 0.0, "is_disabled": 0, "rental_uris": {"ios": "https://dc.lft.to/lastmile_qr_scan", "android": "https://dc.lft.to/lastmile_qr_scan"}}, {"name": "436c06341f961227570f9d96dac8c0fc", "lon": -77.00922983333334, "lat": 38.91338583333334, "type": "electric_scooter", "fusion_lon": 0.0, "is_reserved": 0, "bike_id": "436c06341f961227570f9d96dac8c0fc", "fusion_lat": 0.0, "is_disabled": 0, "rental_uris": {"ios": "https://dc.lft.to/lastmile_qr_scan", "android": "https://dc.lft.to/lastmile_qr_scan"}}, {"name": "f26acb02c458672dfdf10fd24dee5e68", "lon": -77.06165883333334, "lat": 38.90527183333333, "type": "electric_bike", "fusion_lon": 0.0, "is_reserved": 0, "bike_id": "f26acb02c458672dfdf10fd24dee5e68", "fusion_lat": 0.0, "is_disabled": 0, "rental_uris": {"ios": "https://dc.lft.to/lastmile_qr_scan", "android": "https://dc.lft.to/lastmile_qr_scan"}}, {"name": "799b9008a395c3976c59a2dc52a2e7b2", "lon": -77.05740183333333, "lat": 38.933896, "type": "electric_scooter", "fusion_lon": 0.0, "is_reserved": 0, "bike_id": "799b9008a395c3976c59a2dc52a2e7b2", "fusion_lat": 0.0, "is_disabled": 0, "rental_uris": {"ios": "https://dc.lft.to/lastmile_qr_scan", "android": "https://dc.lft.to/lastmile_qr_scan"}}, {"name": "42bc580b4369d24a4162f43cc03fa969", "lon": -77.052091, "lat": 38.92484833333334, "type": "electric_scooter", "fusion_lon": 0.0, "is_reserved": 0, "bike_id": "42bc580b4369d24a4162f43cc03fa969", "fusion_lat": 0.0, "is_disabled": 0, "rental_uris": {"ios": "https://dc.lft.to/lastmile_qr_scan", "android": "https://dc.lft.to/lastmile_qr_scan"}}, {"name": "28b2c366547da24f6cdad2acd4f9ff29", "lon": -76.9488065, "lat": 38.895496, "type": "electric_scooter", "fusion_lon": 0.0, "is_reserved": 0, "bike_id": "28b2c366547da24f6cdad2acd4f9ff29", "fusion_lat": 0.0, "is_disabled": 0, "rental_uris": {"ios": "https://dc.lft.to/lastmile_qr_scan", "android": "https://dc.lft.to/lastmile_qr_scan"}}, {"name": "1914647db3b416ed2f4455c2b28fb21d", "lon": -76.99374066666667, "lat": 38.97181833333333, "type": "electric_bike", "fusion_lon": 0.0, "is_reserved": 0, "bike_id": "1914647db3b416ed2f4455c2b28fb21d", "fusion_lat": 0.0, "is_disabled": 0, "rental_uris": {"ios": "https://dc.lft.to/lastmile_qr_scan", "android": "https://dc.lft.to/lastmile_qr_scan"}}, {"name": "af29f015b98c9c569b886978d481d154", "lon": -77.07330466666667, "lat": 38.92611483333334, "type": "electric_scooter", "fusion_lon": 0.0, "is_reserved": 0, "bike_id": "af29f015b98c9c569b886978d481d154", "fusion_lat": 0.0, "is_disabled": 0, "rental_uris": {"ios": "https://dc.lft.to/lastmile_qr_scan", "android": "https://dc.lft.to/lastmile_qr_scan"}}, {"name": "f4114e805913f7fa587ad5ab1b5b72bb", "lon": -77.02487516666666, "lat": 38.93753983333333, "type": "electric_scooter", "fusion_lon": 0.0, "is_reserved": 0, "bike_id": "f4114e805913f7fa587ad5ab1b5b72bb", "fusion_lat": 0.0, "is_disabled": 0, "rental_uris": {"ios": "https://dc.lft.to/lastmile_qr_scan", "android": "https://dc.lft.to/lastmile_qr_scan"}}, {"name": "dba9967b62a8150ee1b0b3321188373e", "lon": -77.03259333333334, "lat": 38.9389005, "type": "electric_scooter", "fusion_lon": 0.0, "is_reserved": 0, "bike_id": "dba9967b62a8150ee1b0b3321188373e", "fusion_lat": 0.0, "is_disabled": 0, "rental_uris": {"ios": "https://dc.lft.to/lastmile_qr_scan", "android": "https://dc.lft.to/lastmile_qr_scan"}}, {"name": "7aa249f55e428e4d00168905b7f97949", "lon": -77.03960866666667, "lat": 38.89834583333333, "type": "electric_scooter", "fusion_lon": 0.0, "is_reserved": 0, "bike_id": "7aa249f55e428e4d00168905b7f97949", "fusion_lat": 0.0, "is_disabled": 0, "rental_uris": {"ios": "https://dc.lft.to/lastmile_qr_scan", "android": "https://dc.lft.to/lastmile_qr_scan"}}, {"name": "1dc603ed41114b4768ef0d88e3a42426", "lon": -77.07419233333333, "lat": 38.91304, "type": "electric_scooter", "fusion_lon": 0.0, "is_reserved": 0, "bike_id": "1dc603ed41114b4768ef0d88e3a42426", "fusion_lat": 0.0, "is_disabled": 0, "rental_uris": {"ios": "https://dc.lft.to/lastmile_qr_scan", "android": "https://dc.lft.to/lastmile_qr_scan"}}, {"name": "2fae77a2e48dbafbb320b5bb66966302", "lon": -77.04228783333333, "lat": 38.90736916666667, "type": "electric_scooter", "fusion_lon": 0.0, "is_reserved": 0, "bike_id": "2fae77a2e48dbafbb320b5bb66966302", "fusion_lat": 0.0, "is_disabled": 0, "rental_uris": {"ios": "https://dc.lft.to/lastmile_qr_scan", "android": "https://dc.lft.to/lastmile_qr_scan"}}, {"name": "7e179d42d862377e22b4a75624158761", "lon": -77.04682583333333, "lat": 38.900329666666664, "type": "electric_scooter", "fusion_lon": 0.0, "is_reserved": 0, "bike_id": "7e179d42d862377e22b4a75624158761", "fusion_lat": 0.0, "is_disabled": 0, "rental_uris": {"ios": "https://dc.lft.to/lastmile_qr_scan", "android": "https://dc.lft.to/lastmile_qr_scan"}}, {"name": "caeb3d367b1efbe2fcbaac193c722786", "lon": -77.040111, "lat": 38.90438616666667, "type": "electric_scooter", "fusion_lon": 0.0, "is_reserved": 0, "bike_id": "caeb3d367b1efbe2fcbaac193c722786", "fusion_lat": 0.0, "is_disabled": 0, "rental_uris": {"ios": "https://dc.lft.to/lastmile_qr_scan", "android": "https://dc.lft.to/lastmile_qr_scan"}}, {"name": "1853efff8f7552e55dba320c7466215c", "lon": -77.02637333333334, "lat": 38.8968405, "type": "electric_scooter", "fusion_lon": 0.0, "is_reserved": 0, "bike_id": "1853efff8f7552e55dba320c7466215c", "fusion_lat": 0.0, "is_disabled": 0, "rental_uris": {"ios": "https://dc.lft.to/lastmile_qr_scan", "android": "https://dc.lft.to/lastmile_qr_scan"}}, {"name": "41bc02f95dc0274760d096622d6a68c5", "lon": -76.9361525, "lat": 38.8866805, "type": "electric_scooter", "fusion_lon": 0.0, "is_reserved": 0, "bike_id": "41bc02f95dc0274760d096622d6a68c5", "fusion_lat": 0.0, "is_disabled": 0, "rental_uris": {"ios": "https://dc.lft.to/lastmile_qr_scan", "android": "https://dc.lft.to/lastmile_qr_scan"}}, {"name": "d7fa8e6a051e10fead180513437bd46e", "lon": -76.9463185, "lat": 38.89842016666667, "type": "electric_scooter", "fusion_lon": 0.0, "is_reserved": 0, "bike_id": "d7fa8e6a051e10fead180513437bd46e", "fusion_lat": 0.0, "is_disabled": 0, "rental_uris": {"ios": "https://dc.lft.to/lastmile_qr_scan", "android": "https://dc.lft.to/lastmile_qr_scan"}}, {"name": "bcf6f73526ce3d7d859482f5bf5e717c", "lon": -77.02497883333334, "lat": 38.93049633333333, "type": "electric_scooter", "fusion_lon": 0.0, "is_reserved": 0, "bike_id": "bcf6f73526ce3d7d859482f5bf5e717c", "fusion_lat": 0.0, "is_disabled": 0, "rental_uris": {"ios": "https://dc.lft.to/lastmile_qr_scan", "android": "https://dc.lft.to/lastmile_qr_scan"}}, {"name": "3f102ddb2a36bc6c80b0e95a396eb7ba", "lon": -77.07442583333334, "lat": 38.91266183333333, "type": "electric_bike", "fusion_lon": 0.0, "is_reserved": 0, "bike_id": "3f102ddb2a36bc6c80b0e95a396eb7ba", "fusion_lat": 0.0, "is_disabled": 0, "rental_uris": {"ios": "https://dc.lft.to/lastmile_qr_scan", "android": "https://dc.lft.to/lastmile_qr_scan"}}, {"name": "d893bd308cec0aa83a98a5f2d35f7679", "lon": -77.04554616666667, "lat": 38.9242405, "type": "electric_scooter", "fusion_lon": 0.0, "is_reserved": 0, "bike_id": "d893bd308cec0aa83a98a5f2d35f7679", "fusion_lat": 0.0, "is_disabled": 0, "rental_uris": {"ios": "https://dc.lft.to/lastmile_qr_scan", "android": "https://dc.lft.to/lastmile_qr_scan"}}, {"name": "fbc59a843f4610ed6a766139e87c8916", "lon": -77.00635366666667, "lat": 38.832765, "type": "electric_scooter", "fusion_lon": 0.0, "is_reserved": 0, "bike_id": "fbc59a843f4610ed6a766139e87c8916", "fusion_lat": 0.0, "is_disabled": 0, "rental_uris": {"ios": "https://dc.lft.to/lastmile_qr_scan", "android": "https://dc.lft.to/lastmile_qr_scan"}}, {"name": "8348e1feef44a8ea6d87d9ba7c558138", "lon": -76.9840045, "lat": 38.866980166666664, "type": "electric_scooter", "fusion_lon": 0.0, "is_reserved": 0, "bike_id": "8348e1feef44a8ea6d87d9ba7c558138", "fusion_lat": 0.0, "is_disabled": 0, "rental_uris": {"ios": "https://dc.lft.to/lastmile_qr_scan", "android": "https://dc.lft.to/lastmile_qr_scan"}}, {"name": "adf1c0f0a0f79af7dbd3c4b90d6d7ebb", "lon": -77.04334316666667, "lat": 38.90214233333333, "type": "electric_scooter", "fusion_lon": 0.0, "is_reserved": 0, "bike_id": "adf1c0f0a0f79af7dbd3c4b90d6d7ebb", "fusion_lat": 0.0, "is_disabled": 0, "rental_uris": {"ios": "https://dc.lft.to/lastmile_qr_scan", "android": "https://dc.lft.to/lastmile_qr_scan"}}, {"name": "b4fcce9e1642010ac59bad77db51a630", "lon": -77.02576633333334, "lat": 38.920293, "type": "electric_scooter", "fusion_lon": 0.0, "is_reserved": 0, "bike_id": "b4fcce9e1642010ac59bad77db51a630", "fusion_lat": 0.0, "is_disabled": 0, "rental_uris": {"ios": "https://dc.lft.to/lastmile_qr_scan", "android": "https://dc.lft.to/lastmile_qr_scan"}}, {"name": "a729eb62aa5790497bed113fd27f17c8", "lon": -77.0327005, "lat": 38.902928, "type": "electric_scooter", "fusion_lon": 0.0, "is_reserved": 0, "bike_id": "a729eb62aa5790497bed113fd27f17c8", "fusion_lat": 0.0, "is_disabled": 0, "rental_uris": {"ios": "https://dc.lft.to/lastmile_qr_scan", "android": "https://dc.lft.to/lastmile_qr_scan"}}, {"name": "1624b452c14d9a945f760b23292de484", "lon": -77.00379183333334, "lat": 38.8360805, "type": "electric_bike", "fusion_lon": 0.0, "is_reserved": 0, "bike_id": "1624b452c14d9a945f760b23292de484", "fusion_lat": 0.0, "is_disabled": 0, "rental_uris": {"ios": "https://dc.lft.to/lastmile_qr_scan", "android": "https://dc.lft.to/lastmile_qr_scan"}}, {"name": "2d61ddf351dca61b7cf92f435813d9d3", "lon": -77.02491466666666, "lat": 38.941884, "type": "electric_scooter", "fusion_lon": 0.0, "is_reserved": 0, "bike_id": "2d61ddf351dca61b7cf92f435813d9d3", "fusion_lat": 0.0, "is_disabled": 0, "rental_uris": {"ios": "https://dc.lft.to/lastmile_qr_scan", "android": "https://dc.lft.to/lastmile_qr_scan"}}, {"name": "b4b4d38b4f8799fa4e4dcca0d89253c6", "lon": -77.04301866666667, "lat": 38.923395166666666, "type": "electric_scooter", "fusion_lon": 0.0, "is_reserved": 0, "bike_id": "b4b4d38b4f8799fa4e4dcca0d89253c6", "fusion_lat": 0.0, "is_disabled": 0, "rental_uris": {"ios": "https://dc.lft.to/lastmile_qr_scan", "android": "https://dc.lft.to/lastmile_qr_scan"}}, {"name": "48cc2249fed70b2f5b9d08d986886f2c", "lon": -76.98240066666666, "lat": 38.953303166666664, "type": "electric_bike", "fusion_lon": 0.0, "is_reserved": 0, "bike_id": "48cc2249fed70b2f5b9d08d986886f2c", "fusion_lat": 0.0, "is_disabled": 0, "rental_uris": {"ios": "https://dc.lft.to/lastmile_qr_scan", "android": "https://dc.lft.to/lastmile_qr_scan"}}, {"name": "85960b7762db71350dd04daa4cbf6e4b", "lon": -77.04635333333333, "lat": 38.9193145, "type": "electric_scooter", "fusion_lon": 0.0, "is_reserved": 0, "bike_id": "85960b7762db71350dd04daa4cbf6e4b", "fusion_lat": 0.0, "is_disabled": 0, "rental_uris": {"ios": "https://dc.lft.to/lastmile_qr_scan", "android": "https://dc.lft.to/lastmile_qr_scan"}}, {"name": "7f7b790f3b62704f993de7a47ec7ac8e", "lon": -77.04144033333333, "lat": 38.93072866666667, "type": "electric_scooter", "fusion_lon": 0.0, "is_reserved": 0, "bike_id": "7f7b790f3b62704f993de7a47ec7ac8e", "fusion_lat": 0.0, "is_disabled": 0, "rental_uris": {"ios": "https://dc.lft.to/lastmile_qr_scan", "android": "https://dc.lft.to/lastmile_qr_scan"}}, {"name": "958acda2b0cfb0aca4db43a5a7d349cb", "lon": -76.98301133333334, "lat": 38.905263, "type": "electric_scooter", "fusion_lon": 0.0, "is_reserved": 0, "bike_id": "958acda2b0cfb0aca4db43a5a7d349cb", "fusion_lat": 0.0, "is_disabled": 0, "rental_uris": {"ios": "https://dc.lft.to/lastmile_qr_scan", "android": "https://dc.lft.to/lastmile_qr_scan"}}, {"name": "0fbd12ded288132047251216b7fe43e6", "lon": -77.014024, "lat": 38.88121233333333, "type": "electric_scooter", "fusion_lon": 0.0, "is_reserved": 0, "bike_id": "0fbd12ded288132047251216b7fe43e6", "fusion_lat": 0.0, "is_disabled": 0, "rental_uris": {"ios": "https://dc.lft.to/lastmile_qr_scan", "android": "https://dc.lft.to/lastmile_qr_scan"}}, {"name": "83bc61f9e78772dffa3e3dd8e74adcf1", "lon": -77.03591816666666, "lat": 38.93935783333333, "type": "electric_scooter", "fusion_lon": 0.0, "is_reserved": 0, "bike_id": "83bc61f9e78772dffa3e3dd8e74adcf1", "fusion_lat": 0.0, "is_disabled": 0, "rental_uris": {"ios": "https://dc.lft.to/lastmile_qr_scan", "android": "https://dc.lft.to/lastmile_qr_scan"}}, {"name": "1a4c7bf8b268e57cc228eb5a7d096b3a", "lon": -76.99620633333333, "lat": 38.886336666666665, "type": "electric_scooter", "fusion_lon": 0.0, "is_reserved": 0, "bike_id": "1a4c7bf8b268e57cc228eb5a7d096b3a", "fusion_lat": 0.0, "is_disabled": 0, "rental_uris": {"ios": "https://dc.lft.to/lastmile_qr_scan", "android": "https://dc.lft.to/lastmile_qr_scan"}}, {"name": "2260bbf552b30950ecff82781704ba0e", "lon": -77.025631, "lat": 38.92479133333333, "type": "electric_scooter", "fusion_lon": 0.0, "is_reserved": 0, "bike_id": "2260bbf552b30950ecff82781704ba0e", "fusion_lat": 0.0, "is_disabled": 0, "rental_uris": {"ios": "https://dc.lft.to/lastmile_qr_scan", "android": "https://dc.lft.to/lastmile_qr_scan"}}, {"name": "836cf24366c318e39c26969fafee4a0a", "lon": -77.03151216666667, "lat": 38.9035545, "type": "electric_scooter", "fusion_lon": 0.0, "is_reserved": 0, "bike_id": "836cf24366c318e39c26969fafee4a0a", "fusion_lat": 0.0, "is_disabled": 0, "rental_uris": {"ios": "https://dc.lft.to/lastmile_qr_scan", "android": "https://dc.lft.to/lastmile_qr_scan"}}, {"name": "ea9dcc0ff1a5df46bc1b5b46ee542323", "lon": -77.03856216666667, "lat": 38.932007166666665, "type": "electric_scooter", "fusion_lon": 0.0, "is_reserved": 0, "bike_id": "ea9dcc0ff1a5df46bc1b5b46ee542323", "fusion_lat": 0.0, "is_disabled": 0, "rental_uris": {"ios": "https://dc.lft.to/lastmile_qr_scan", "android": "https://dc.lft.to/lastmile_qr_scan"}}, {"name": "45707c5d56895e0b2861beb3912d1c54", "lon": -77.0255305, "lat": 38.9248, "type": "electric_scooter", "fusion_lon": 0.0, "is_reserved": 0, "bike_id": "45707c5d56895e0b2861beb3912d1c54", "fusion_lat": 0.0, "is_disabled": 0, "rental_uris": {"ios": "https://dc.lft.to/lastmile_qr_scan", "android": "https://dc.lft.to/lastmile_qr_scan"}}, {"name": "967e970aea66f8ce0568e364cfdfebe3", "lon": -77.02222583333334, "lat": 38.89224216666667, "type": "electric_scooter", "fusion_lon": 0.0, "is_reserved": 0, "bike_id": "967e970aea66f8ce0568e364cfdfebe3", "fusion_lat": 0.0, "is_disabled": 0, "rental_uris": {"ios": "https://dc.lft.to/lastmile_qr_scan", "android": "https://dc.lft.to/lastmile_qr_scan"}}, {"name": "f085ba454fd2658f4522bacc428458bc", "lon": -77.03843433333333, "lat": 38.912139833333335, "type": "electric_scooter", "fusion_lon": 0.0, "is_reserved": 0, "bike_id": "f085ba454fd2658f4522bacc428458bc", "fusion_lat": 0.0, "is_disabled": 0, "rental_uris": {"ios": "https://dc.lft.to/lastmile_qr_scan", "android": "https://dc.lft.to/lastmile_qr_scan"}}, {"name": "90eaa8b432d66110ca10877152f86601", "lon": -77.02592616666666, "lat": 38.88345, "type": "electric_scooter", "fusion_lon": 0.0, "is_reserved": 0, "bike_id": "90eaa8b432d66110ca10877152f86601", "fusion_lat": 0.0, "is_disabled": 0, "rental_uris": {"ios": "https://dc.lft.to/lastmile_qr_scan", "android": "https://dc.lft.to/lastmile_qr_scan"}}, {"name": "6cb74441eb884cbdfa4220a1fd9679c8", "lon": -77.03214366666667, "lat": 38.9171155, "type": "electric_scooter", "fusion_lon": 0.0, "is_reserved": 0, "bike_id": "6cb74441eb884cbdfa4220a1fd9679c8", "fusion_lat": 0.0, "is_disabled": 0, "rental_uris": {"ios": "https://dc.lft.to/lastmile_qr_scan", "android": "https://dc.lft.to/lastmile_qr_scan"}}, {"name": "0b055f537beef3eb5ef99de66e89bf1f", "lon": -77.0270115, "lat": 38.90669116666667, "type": "electric_scooter", "fusion_lon": 0.0, "is_reserved": 0, "bike_id": "0b055f537beef3eb5ef99de66e89bf1f", "fusion_lat": 0.0, "is_disabled": 0, "rental_uris": {"ios": "https://dc.lft.to/lastmile_qr_scan", "android": "https://dc.lft.to/lastmile_qr_scan"}}, {"name": "9187de0bf2895be135a4987c0b2b89c1", "lon": -77.00326066666666, "lat": 38.8921775, "type": "electric_scooter", "fusion_lon": 0.0, "is_reserved": 0, "bike_id": "9187de0bf2895be135a4987c0b2b89c1", "fusion_lat": 0.0, "is_disabled": 0, "rental_uris": {"ios": "https://dc.lft.to/lastmile_qr_scan", "android": "https://dc.lft.to/lastmile_qr_scan"}}, {"name": "71409e6465e335d4615168f554d68cbc", "lon": -77.02252033333333, "lat": 38.927434, "type": "electric_scooter", "fusion_lon": 0.0, "is_reserved": 0, "bike_id": "71409e6465e335d4615168f554d68cbc", "fusion_lat": 0.0, "is_disabled": 0, "rental_uris": {"ios": "https://dc.lft.to/lastmile_qr_scan", "android": "https://dc.lft.to/lastmile_qr_scan"}}, {"name": "c8533af415e617120b6f07508837b7b9", "lon": -77.04038616666666, "lat": 38.91285516666667, "type": "electric_scooter", "fusion_lon": 0.0, "is_reserved": 0, "bike_id": "c8533af415e617120b6f07508837b7b9", "fusion_lat": 0.0, "is_disabled": 0, "rental_uris": {"ios": "https://dc.lft.to/lastmile_qr_scan", "android": "https://dc.lft.to/lastmile_qr_scan"}}, {"name": "27a00a735b2c07a52bfcf17c02db751a", "lon": -77.04131283333334, "lat": 38.93086316666667, "type": "electric_bike", "fusion_lon": 0.0, "is_reserved": 0, "bike_id": "27a00a735b2c07a52bfcf17c02db751a", "fusion_lat": 0.0, "is_disabled": 0, "rental_uris": {"ios": "https://dc.lft.to/lastmile_qr_scan", "android": "https://dc.lft.to/lastmile_qr_scan"}}, {"name": "d79eaf046884a69fd3b6866adf141e60", "lon": -77.0057235, "lat": 38.8857885, "type": "electric_scooter", "fusion_lon": 0.0, "is_reserved": 0, "bike_id": "d79eaf046884a69fd3b6866adf141e60", "fusion_lat": 0.0, "is_disabled": 0, "rental_uris": {"ios": "https://dc.lft.to/lastmile_qr_scan", "android": "https://dc.lft.to/lastmile_qr_scan"}}, {"name": "f237e56a88a09379368f0c114dd8785c", "lon": -77.12480666666667, "lat": 38.85392783333333, "type": "electric_bike", "fusion_lon": 0.0, "is_reserved": 0, "bike_id": "f237e56a88a09379368f0c114dd8785c", "fusion_lat": 0.0, "is_disabled": 0, "rental_uris": {"ios": "https://dc.lft.to/lastmile_qr_scan", "android": "https://dc.lft.to/lastmile_qr_scan"}}, {"name": "d8eee5298cab559735f908f6620d5179", "lon": -77.02680766666667, "lat": 38.912688833333334, "type": "electric_scooter", "fusion_lon": 0.0, "is_reserved": 0, "bike_id": "d8eee5298cab559735f908f6620d5179", "fusion_lat": 0.0, "is_disabled": 0, "rental_uris": {"ios": "https://dc.lft.to/lastmile_qr_scan", "android": "https://dc.lft.to/lastmile_qr_scan"}}, {"name": "61dadf53410d6cc9ec117908a1784843", "lon": -77.00761266666666, "lat": 38.8260045, "type": "electric_scooter", "fusion_lon": 0.0, "is_reserved": 0, "bike_id": "61dadf53410d6cc9ec117908a1784843", "fusion_lat": 0.0, "is_disabled": 0, "rental_uris": {"ios": "https://dc.lft.to/lastmile_qr_scan", "android": "https://dc.lft.to/lastmile_qr_scan"}}, {"name": "f946d767022f6e9538fee6640b85c047", "lon": -77.05207, "lat": 38.92474766666667, "type": "electric_scooter", "fusion_lon": 0.0, "is_reserved": 0, "bike_id": "f946d767022f6e9538fee6640b85c047", "fusion_lat": 0.0, "is_disabled": 0, "rental_uris": {"ios": "https://dc.lft.to/lastmile_qr_scan", "android": "https://dc.lft.to/lastmile_qr_scan"}}, {"name": "15d1fde494646d0c5f8d812f89abec1b", "lon": -77.04350566666666, "lat": 38.9052455, "type": "electric_scooter", "fusion_lon": 0.0, "is_reserved": 0, "bike_id": "15d1fde494646d0c5f8d812f89abec1b", "fusion_lat": 0.0, "is_disabled": 0, "rental_uris": {"ios": "https://dc.lft.to/lastmile_qr_scan", "android": "https://dc.lft.to/lastmile_qr_scan"}}, {"name": "e3466211c28bf8f4aabc7339abca7c95", "lon": -77.074307, "lat": 38.9994825, "type": "electric_bike", "fusion_lon": 0.0, "is_reserved": 0, "bike_id": "e3466211c28bf8f4aabc7339abca7c95", "fusion_lat": 0.0, "is_disabled": 0, "rental_uris": {"ios": "https://dc.lft.to/lastmile_qr_scan", "android": "https://dc.lft.to/lastmile_qr_scan"}}, {"name": "ecce024ac830392909c8cca47f52b671", "lon": -76.9753345, "lat": 38.84015183333333, "type": "electric_bike", "fusion_lon": 0.0, "is_reserved": 0, "bike_id": "ecce024ac830392909c8cca47f52b671", "fusion_lat": 0.0, "is_disabled": 0, "rental_uris": {"ios": "https://dc.lft.to/lastmile_qr_scan", "android": "https://dc.lft.to/lastmile_qr_scan"}}, {"name": "3ddefb536512bdad2da7190c6732d008", "lon": -76.987125, "lat": 38.8662775, "type": "electric_scooter", "fusion_lon": 0.0, "is_reserved": 0, "bike_id": "3ddefb536512bdad2da7190c6732d008", "fusion_lat": 0.0, "is_disabled": 0, "rental_uris": {"ios": "https://dc.lft.to/lastmile_qr_scan", "android": "https://dc.lft.to/lastmile_qr_scan"}}, {"name": "931051975a3c14ab9ee5e422f14e11b6", "lon": -77.02432283333333, "lat": 38.92731116666667, "type": "electric_scooter", "fusion_lon": 0.0, "is_reserved": 0, "bike_id": "931051975a3c14ab9ee5e422f14e11b6", "fusion_lat": 0.0, "is_disabled": 0, "rental_uris": {"ios": "https://dc.lft.to/lastmile_qr_scan", "android": "https://dc.lft.to/lastmile_qr_scan"}}, {"name": "405096f6cf371d9244026a472763586f", "lon": -77.032084, "lat": 38.895305666666665, "type": "electric_scooter", "fusion_lon": 0.0, "is_reserved": 0, "bike_id": "405096f6cf371d9244026a472763586f", "fusion_lat": 0.0, "is_disabled": 0, "rental_uris": {"ios": "https://dc.lft.to/lastmile_qr_scan", "android": "https://dc.lft.to/lastmile_qr_scan"}}, {"name": "60b688cb47a81633a1eed06dbb135ec8", "lon": -77.04827116666667, "lat": 38.911076, "type": "electric_scooter", "fusion_lon": 0.0, "is_reserved": 0, "bike_id": "60b688cb47a81633a1eed06dbb135ec8", "fusion_lat": 0.0, "is_disabled": 0, "rental_uris": {"ios": "https://dc.lft.to/lastmile_qr_scan", "android": "https://dc.lft.to/lastmile_qr_scan"}}, {"name": "a7db1cf9fb81929555345e55837e3d52", "lon": -77.0249995, "lat": 38.906393666666666, "type": "electric_scooter", "fusion_lon": 0.0, "is_reserved": 0, "bike_id": "a7db1cf9fb81929555345e55837e3d52", "fusion_lat": 0.0, "is_disabled": 0, "rental_uris": {"ios": "https://dc.lft.to/lastmile_qr_scan", "android": "https://dc.lft.to/lastmile_qr_scan"}}, {"name": "db8bb803c350c283d85f5214ffa21152", "lon": -76.99547083333333, "lat": 38.86257666666667, "type": "electric_scooter", "fusion_lon": 0.0, "is_reserved": 0, "bike_id": "db8bb803c350c283d85f5214ffa21152", "fusion_lat": 0.0, "is_disabled": 0, "rental_uris": {"ios": "https://dc.lft.to/lastmile_qr_scan", "android": "https://dc.lft.to/lastmile_qr_scan"}}, {"name": "02f94388a4433856389320923003e7bf", "lon": -77.00197033333333, "lat": 38.902389666666664, "type": "electric_scooter", "fusion_lon": 0.0, "is_reserved": 0, "bike_id": "02f94388a4433856389320923003e7bf", "fusion_lat": 0.0, "is_disabled": 0, "rental_uris": {"ios": "https://dc.lft.to/lastmile_qr_scan", "android": "https://dc.lft.to/lastmile_qr_scan"}}, {"name": "e360e163ba660a6d7b1574b920d15a38", "lon": -77.09524783333333, "lat": 38.83812666666667, "type": "electric_bike", "fusion_lon": 0.0, "is_reserved": 0, "bike_id": "e360e163ba660a6d7b1574b920d15a38", "fusion_lat": 0.0, "is_disabled": 0, "rental_uris": {"ios": "https://dc.lft.to/lastmile_qr_scan", "android": "https://dc.lft.to/lastmile_qr_scan"}}, {"name": "3ffa43dd8082b947f563af186656cf8c", "lon": -77.0108525, "lat": 38.895171833333336, "type": "electric_scooter", "fusion_lon": 0.0, "is_reserved": 0, "bike_id": "3ffa43dd8082b947f563af186656cf8c", "fusion_lat": 0.0, "is_disabled": 0, "rental_uris": {"ios": "https://dc.lft.to/lastmile_qr_scan", "android": "https://dc.lft.to/lastmile_qr_scan"}}, {"name": "4f3f4aa8b71fa593ee0813ed919d685b", "lon": -77.043328, "lat": 38.9037135, "type": "electric_scooter", "fusion_lon": 0.0, "is_reserved": 0, "bike_id": "4f3f4aa8b71fa593ee0813ed919d685b", "fusion_lat": 0.0, "is_disabled": 0, "rental_uris": {"ios": "https://dc.lft.to/lastmile_qr_scan", "android": "https://dc.lft.to/lastmile_qr_scan"}}, {"name": "c74f30a10d73b35f4a39de15cb6ac589", "lon": -77.04168716666666, "lat": 38.9194105, "type": "electric_scooter", "fusion_lon": 0.0, "is_reserved": 0, "bike_id": "c74f30a10d73b35f4a39de15cb6ac589", "fusion_lat": 0.0, "is_disabled": 0, "rental_uris": {"ios": "https://dc.lft.to/lastmile_qr_scan", "android": "https://dc.lft.to/lastmile_qr_scan"}}, {"name": "4c465de45fa4fb51bd69baf9dab4bdb2", "lon": -77.2279665, "lat": 38.91014066666666, "type": "electric_bike", "fusion_lon": 0.0, "is_reserved": 0, "bike_id": "4c465de45fa4fb51bd69baf9dab4bdb2", "fusion_lat": 0.0, "is_disabled": 0, "rental_uris": {"ios": "https://dc.lft.to/lastmile_qr_scan", "android": "https://dc.lft.to/lastmile_qr_scan"}}, {"name": "82e44b86b6a2d80f49ef74fed8ee04fe", "lon": -77.04086033333333, "lat": 38.91055516666667, "type": "electric_scooter", "fusion_lon": 0.0, "is_reserved": 0, "bike_id": "82e44b86b6a2d80f49ef74fed8ee04fe", "fusion_lat": 0.0, "is_disabled": 0, "rental_uris": {"ios": "https://dc.lft.to/lastmile_qr_scan", "android": "https://dc.lft.to/lastmile_qr_scan"}}, {"name": "ed63fee9834dd5bb7e7581275362f560", "lon": -76.99612683333334, "lat": 38.900374, "type": "electric_scooter", "fusion_lon": 0.0, "is_reserved": 0, "bike_id": "ed63fee9834dd5bb7e7581275362f560", "fusion_lat": 0.0, "is_disabled": 0, "rental_uris": {"ios": "https://dc.lft.to/lastmile_qr_scan", "android": "https://dc.lft.to/lastmile_qr_scan"}},