{"data": {"bikes": [{"bike_id": "cda3f29e805682bd763ee80f47ddb65a", "type": "electric_scooter", "is_disabled": 0, "lat": 38.934092666666665, "rental_uris": {"ios": "https://dc.lft.to/lastmile_qr_scan", "android": "https://dc.lft.to/lastmile_qr_scan"}, "is_reserved": 0, "fusion_lon": 0.0, "fusion_lat": 0.0, "lon": -77.04149, "name": "cda3f29e805682bd763ee80f47ddb65a"}, {"bike_id": "4b595c5fe7d776ce163baa8079022dd0", "type": "electric_scooter", "is_disabled": 0, "lat": 38.944495, "rental_uris": {"ios": "https://dc.lft.to/lastmile_qr_scan", "android": "https://dc.lft.to/lastmile_qr_scan"}, "is_reserved": 0, "fusion_lon": 0.0, "fusion_lat": 0.0, "lon": -77.06354066666667, "name": "4b595c5fe7d776ce163baa8079022dd0"}, {"bike_id": "01cac17f2cf943dc4a32420c1fee342b", "type": "electric_scooter", "is_disabled": 0, "lat": 38.90474583333334, "rental_uris": {"ios": "https://dc.lft.to/lastmile_qr_scan", "android": "https://dc.lft.to/lastmile_qr_scan"}, "is_reserved": 0, "fusion_lon": 0.0, "fusion_lat": 0.0, "lon": -76.9761185, "name": "01cac17f2cf943dc4a32420c1fee342b"}, {"bike_id": "eb32ea9db184ea31cc9522ef95587bd2", "type": "electric_scooter", "is_disabled": 0, "lat": 38.90012933333333, "rental_uris": {"ios": "https://dc.lft.to/lastmile_qr_scan", "android": "https://dc.lft.to/lastmile_qr_scan"}, "is_reserved": 0, "fusion_lon": 0.0, "fusion_lat": 0.0, "lon": -77.003796, "name": "eb32ea9db184ea31cc9522ef95587bd2"}, {"bike_id": "6b28528f63c680e82e67c89401ceacc2", "type": "electric_scooter", "is_disabled": 0, "lat": 38.90486933333333, "rental_uris": {"ios": "https://dc.lft.to/lastmile_qr_scan", "android": "https://dc.lft.to/lastmile_qr_scan"}, "is_reserved": 0, "fusion_lon": 0.0, "fusion_lat": 0.0, "lon": -77.05731516666667, "name": "6b28528f63c680e82e67c89401ceacc2"}, {"bike_id": "5ad44f65e1857a2848f072e3134cf49f", "type": "electric_scooter", "is_disabled": 0, "lat": 38.92248083333333, "rental_uris": {"ios": "https://dc.lft.to/lastmile_qr_scan", "android": "https://dc.lft.to/lastmile_qr_scan"}, "is_reserved": 0, "fusion_lon": 0.0, "fusion_lat": 0.0, "lon": -77.04205083333333, "name": "5ad44f65e1857a2848f072e3134cf49f"}, {"bike_id": "f0ed229d16d19d345cf354c905336c34", "type": "electric_bike", "is_disabled": 0, "lat": 38.882420833333335, "rental_uris": {"ios": "https://dc.lft.to/lastmile_qr_scan", "android": "https://dc.lft.to/lastmile_qr_scan"}, "is_reserved": 0, "fusion_lon": 0.0, "fusion_lat": 0.0, "lon": -76.96259033333334, "name": "f0ed229d16d19d345cf354c905336c34"}, {"bike_id": "008e192311a9704c151cd00e565746e9", "type": "electric_bike", "is_disabled": 0, "lat": 38.932244833333336, "rental_uris": {"ios": "https://dc.lft.to/lastmile_qr_scan", "android": "https://dc.lft.to/lastmile_qr_scan"}, "is_reserved": 0, "fusion_lon": 0.0, "fusion_lat": 0.0, "lon": -77.18122383333333, "name": "008e192311a9704c151cd00e565746e9"}, {"bike_id": "4c1bb406dd37aec713d7a5532d6327ba", "type": "electric_bike", "is_disabled": 0, "lat": 38.9344105, "rental_uris": {"ios": "https://dc.lft.to/lastmile_qr_scan", "android": "https://dc.lft.to/lastmile_qr_scan"}, "is_reserved": 0, "fusion_lon": 0.0, "fusion_lat": 0.0, "lon": -77.041216, "name": "4c1bb406dd37aec713d7a5532d6327ba"}, {"bike_id": "6434ae33833b9824481e957587d858b0", "type": "electric_scooter", "is_disabled": 0, "lat": 38.92951883333333, "rental_uris": {"ios": "https://dc.lft.to/lastmile_qr_scan", "android": "https://dc.lft.to/lastmile_qr_scan"}, "is_reserved": 0, "fusion_lon": 0.0, "fusion_lat": 0.0, "lon": -77.044057, "name": "6434ae33833b9824481e957587d858b0"}, {"bike_id": "d39d6d8f6cc26a3333a9e86ffdcd0655", "type": "electric_scooter", "is_disabled": 0, "lat": 38.934589333333335, "rental_uris": {"ios": "https://dc.lft.to/lastmile_qr_scan", "android": "https://dc.lft.to/lastmile_qr_scan"}, "is_reserved": 0, "fusion_lon": 0.0, "fusion_lat": 0.0, "lon": -77.02794916666667, "name": "d39d6d8f6cc26a3333a9e86ffdcd0655"}, {"bike_id": "487698124623e38be66d45815b9ab23f", "type": "electric_scooter", "is_disabled": 0, "lat": 38.87173133333334, "rental_uris": {"ios": "https://dc.lft.to/lastmile_qr_scan", "android": "https://dc.lft.to/lastmile_qr_scan"}, "is_reserved": 0, "fusion_lon": 0.0, "fusion_lat": 0.0, "lon": -77.00608783333334, "name": "487698124623e38be66d45815b9ab23f"}, {"bike_id": "6c92d7435523c23e419d0878f41085b7", "type": "electric_scooter", "is_disabled": 0, "lat": 38.914335, "rental_uris": {"ios": "https://dc.lft.to/lastmile_qr_scan", "android": "https://dc.lft.to/lastmile_qr_scan"}, "is_reserved": 0, "fusion_lon": 0.0, "fusion_lat": 0.0, "lon": -77.0322515, "name": "6c92d7435523c23e419d0878f41085b7"}, {"bike_id": "d98178b4d32a5d132956b8beec0246b7", "type": "electric_scooter", "is_disabled": 0, "lat": 38.913037, "rental_uris": {"ios": "https://dc.lft.to/lastmile_qr_scan", "android": "https://dc.lft.to/lastmile_qr_scan"}, "is_reserved": 0, "fusion_lon": 0.0, "fusion_lat": 0.0, "lon": -77.01693866666666, "name": "d98178b4d32a5d132956b8beec0246b7"}, {"bike_id": "f6682dfec8e1f638439f63ee15c6fc6e", "type": "electric_scooter", "is_disabled": 0, "lat": 38.932028, "rental_uris": {"ios": "https://dc.lft.to/lastmile_qr_scan", "android": "https://dc.lft.to/lastmile_qr_scan"}, "is_reserved": 0, "fusion_lon": 0.0, "fusion_lat": 0.0, "lon": -77.02400833333333, "name": "f6682dfec8e1f638439f63ee15c6fc6e"}, {"bike_id": "f296b550f19c657608cd2264a86da017", "type": "electric_scooter", "is_disabled": 0, "lat": 38.91649566666667, "rental_uris": {"ios": "https://dc.lft.to/lastmile_qr_scan", "android": "https://dc.lft.to/lastmile_qr_scan"}, "is_reserved": 0, "fusion_lon": 0.0, "fusion_lat": 0.0, "lon": -77.02286483333333, "name": "f296b550f19c657608cd2264a86da017"}, {"bike_id": "bd81b6a2ccc298ec98007c9d265885be", "type": "electric_scooter", "is_disabled": 0, "lat": 38.928930333333334, "rental_uris": {"ios": "https://dc.lft.to/lastmile_qr_scan", "android": "https://dc.lft.to/lastmile_qr_scan"}, "is_reserved": 0, "fusion_lon": 0.0, "fusion_lat": 0.0, "lon": -77.032824, "name": "bd81b6a2ccc298ec98007c9d265885be"}, {"bike_id": "9d1f70333a02a16ca0512fe867bd1dc4", "type": "electric_scooter", "is_disabled": 0, "lat": 38.902811166666666, "rental_uris": {"ios": "https://dc.lft.to/lastmile_qr_scan", "android": "https://dc.lft.to/lastmile_qr_scan"}, "is_reserved": 0, "fusion_lon": 0.0, "fusion_lat": 0.0, "lon": -77.00324483333333, "name": "9d1f70333a02a16ca0512fe867bd1dc4"}, {"bike_id": "e4090af84c4a78d95cffc6d32ee4e63c", "type": "electric_bike", "is_disabled": 0, "lat": 38.86340416666667, "rental_uris": {"ios": "https://dc.lft.to/lastmile_qr_scan", "android": "https://dc.lft.to/lastmile_qr_scan"}, "is_reserved": 0, "fusion_lon": 0.0, "fusion_lat": 0.0, "lon": -76.987395, "name": "e4090af84c4a78d95cffc6d32ee4e63c"}, {"bike_id": "1eb9d85b882f56001282baa4cdf18a2e", "type": "electric_scooter", "is_disabled": 0, "lat": 38.8998585, "rental_uris": {"ios": "https://dc.lft.to/lastmile_qr_scan", "android": "https://dc.lft.to/lastmile_qr_scan"}, "is_reserved": 0, "fusion_lon": 0.0, "fusion_lat": 0.0, "lon": -76.949997, "name": "1eb9d85b882f56001282baa4cdf18a2e"}, {"bike_id": "41789ef199c9025f9e34b0393611488f", "type": "electric_scooter", "is_disabled": 0, "lat": 38.85897816666667, "rental_uris": {"ios": "https://dc.lft.to/lastmile_qr_scan", "android": "https://dc.lft.to/lastmile_qr_scan"}, "is_reserved": 0, "fusion_lon": 0.0, "fusion_lat": 0.0, "lon": -76.9972865, "name": "41789ef199c9025f9e34b0393611488f"}, {"bike_id": "4f1533f35a49deb0e6e16ac72f215efc", "type": "electric_scooter", "is_disabled": 0, "lat": 38.9217765, "rental_uris": {"ios": "https://dc.lft.to/lastmile_qr_scan", "android": "https://dc.lft.to/lastmile_qr_scan"}, "is_reserved": 0, "fusion_lon": 0.0, "fusion_lat": 0.0, "lon": -76.997926, "name": "4f1533f35a49deb0e6e16ac72f215efc"}, {"bike_id": "1910e015c7ccbb8fb7cec69b643c4c61", "type": "electric_scooter", "is_disabled": 0, "lat": 38.893473, "rental_uris": {"ios": "https://dc.lft.to/lastmile_qr_scan", "android": "https://dc.lft.to/lastmile_qr_scan"}, "is_reserved": 0, "fusion_lon": 0.0, "fusion_lat": 0.0, "lon": -76.99379466666667, "name": "1910e015c7ccbb8fb7cec69b643c4c61"}, {"bike_id": "c259fab825f7de277ed353d373ddeded", "type": "electric_scooter", "is_disabled": 0, "lat": 38.901602, "rental_uris": {"ios": "https://dc.lft.to/lastmile_qr_scan", "android": "https://dc.lft.to/lastmile_qr_scan"}, "is_reserved": 0, "fusion_lon": 0.0, "fusion_lat": 0.0, "lon": -77.02578766666667, "name": "c259fab825f7de277ed353d373ddeded"}, {"bike_id": "0ede82a7a43ec30ee5839ac2f0213011", "type": "electric_scooter", "is_disabled": 0, "lat": 38.9106025, "rental_uris": {"ios": "https://dc.lft.to/lastmile_qr_scan", "android": "https://dc.lft.to/lastmile_qr_scan"}, "is_reserved": 0, "fusion_lon": 0.0, "fusion_lat": 0.0, "lon": -77.05462933333334, "name": "0ede82a7a43ec30ee5839ac2f0213011"}, {"bike_id": "70b05945885fe6807fc0755ceb59abdf", "type": "electric_scooter", "is_disabled": 0, "lat": 38.93774633333334, "rental_uris": {"ios": "https://dc.lft.to/lastmile_qr_scan", "android": "https://dc.lft.to/lastmile_qr_scan"}, "is_reserved": 0, "fusion_lon": 0.0, "fusion_lat": 0.0, "lon": -77.01971433333334, "name": "70b05945885fe6807fc0755ceb59abdf"}, {"bike_id": "6d3a1c59b216e20d1711334eed54290d", "type": "electric_scooter", "is_disabled": 0, "lat": 38.92473283333333, "rental_uris": {"ios": "https://dc.lft.to/lastmile_qr_scan", "android": "https://dc.lft.to/lastmile_qr_scan"}, "is_reserved": 0, "fusion_lon": 0.0, "fusion_lat": 0.0, "lon": -77.0283805, "name": "6d3a1c59b216e20d1711334eed54290d"}, {"bike_id": "2ae95c4b4761bfb3fc6e411a28c4280e", "type": "electric_scooter", "is_disabled": 0, "lat": 38.923292333333336, "rental_uris": {"ios": "https://dc.lft.to/lastmile_qr_scan", "android": "https://dc.lft.to/lastmile_qr_scan"}, "is_reserved": 0, "fusion_lon": 0.0, "fusion_lat": 0.0, "lon": -77.05607083333334, "name": "2ae95c4b4761bfb3fc6e411a28c4280e"}, {"bike_id": "de51b687ef9771c9a51676a041f16ced", "type": "electric_scooter", "is_disabled": 0, "lat": 38.9002395, "rental_uris": {"ios": "https://dc.lft.to/lastmile_qr_scan", "android": "https://dc.lft.to/lastmile_qr_scan"}, "is_reserved": 0, "fusion_lon": 0.0, "fusion_lat": 0.0, "lon": -76.99907083333333, "name": "de51b687ef9771c9a51676a041f16ced"}, {"bike_id": "1d4182908c17eaaa2969b32a45e53d44", "type": "electric_scooter", "is_disabled": 0, "lat": 38.92470816666667, "rental_uris": {"ios": "https://dc.lft.to/lastmile_qr_scan", "android": "https://dc.lft.to/lastmile_qr_scan"}, "is_reserved": 0, "fusion_lon": 0.0, "fusion_lat": 0.0, "lon": -77.02247883333334, "name": "1d4182908c17eaaa2969b32a45e53d44"}, {"bike_id": "932e2c582e94747f9ebe500c9f01e874", "type": "electric_scooter", "is_disabled": 0, "lat": 38.91554466666667, "rental_uris": {"ios": "https://dc.lft.to/lastmile_qr_scan", "android": "https://dc.lft.to/lastmile_qr_scan"}, "is_reserved": 0, "fusion_lon": 0.0, "fusion_lat": 0.0, "lon": -77.04507933333333, "name": "932e2c582e94747f9ebe500c9f01e874"}, {"bike_id": "6bd7c9adc4c93e1ce76a4b8546a8021e", "type": "electric_scooter", "is_disabled": 0, "lat": 38.86474783333333, "rental_uris": {"ios": "https://dc.lft.to/lastmile_qr_scan", "android": "https://dc.lft.to/lastmile_qr_scan"}, "is_reserved": 0, "fusion_lon": 0.0, "fusion_lat": 0.0, "lon": -76.977416, "name": "6bd7c9adc4c93e1ce76a4b8546a8021e"}, {"bike_id": "1b1bfb04f4e32fe843017a8cb4f7c04c", "type": "electric_scooter", "is_disabled": 0, "lat": 38.935469833333336, "rental_uris": {"ios": "https://dc.lft.to/lastmile_qr_scan", "android": "https://dc.lft.to/lastmile_qr_scan"}, "is_reserved": 0, "fusion_lon": 0.0, "fusion_lat": 0.0, "lon": -77.05863533333333, "name": "1b1bfb04f4e32fe843017a8cb4f7c04c"}, {"bike_id": "4e9d8f8731983bf5c42682a0e471e839", "type": "electric_bike", "is_disabled": 0, "lat": 38.96957616666667, "rental_uris": {"ios": "https://dc.lft.to/lastmile_qr_scan", "android": "https://dc.lft.to/lastmile_qr_scan"}, "is_reserved": 0, "fusion_lon": 0.0, "fusion_lat": 0.0, "lon": -76.95749983333333, "name": "4e9d8f8731983bf5c42682a0e471e839"}, {"bike_id": "3f4eddbf885119df5f7f72687acc2922", "type": "electric_scooter", "is_disabled": 0, "lat": 38.883017833333334, "rental_uris": {"ios": "https://dc.lft.to/lastmile_qr_scan", "android": "https://dc.lft.to/lastmile_qr_scan"}, "is_reserved": 0, "fusion_lon": 0.0, "fusion_lat": 0.0, "lon": -76.9485535, "name": "3f4eddbf885119df5f7f72687acc2922"}, {"bike_id": "b75f16d29f269094a697805aea2ea974", "type": "electric_scooter", "is_disabled": 0, "lat": 38.890008333333334, "rental_uris": {"ios": "https://dc.lft.to/lastmile_qr_scan", "android": "https://dc.lft.to/lastmile_qr_scan"}, "is_reserved": 0, "fusion_lon": 0.0, "fusion_lat": 0.0, "lon": -76.93743833333333, "name": "b75f16d29f269094a697805aea2ea974"}, {"bike_id": "cdf5fa84d5f8773db316cc3a4c66d7b4", "type": "electric_scooter", "is_disabled": 0, "lat": 38.935308166666665, "rental_uris": {"ios": "https://dc.lft.to/lastmile_qr_scan", "android": "https://dc.lft.to/lastmile_qr_scan"}, "is_reserved": 0, "fusion_lon": 0.0, "fusion_lat": 0.0, "lon": -77.02349066666666, "name": "cdf5fa84d5f8773db316cc3a4c66d7b4"}, {"bike_id": "81cbe77a6fcee1f7ece9792100a1a604", "type": "electric_scooter", "is_disabled": 0, "lat": 38.9300655, "rental_uris": {"ios": "https://dc.lft.to/lastmile_qr_scan", "android": "https://dc.lft.to/lastmile_qr_scan"}, "is_reserved": 0, "fusion_lon": 0.0, "fusion_lat": 0.0, "lon": -77.01432566666666, "name": "81cbe77a6fcee1f7ece9792100a1a604"}, {"bike_id": "b02364bb3b6b2ed8ba5ed524914654b3", "type": "electric_scooter", "is_disabled": 0, "lat": 38.909767, "rental_uris": {"ios": "https://dc.lft.to/lastmile_qr_scan", "android": "https://dc.lft.to/lastmile_qr_scan"}, "is_reserved": 0, "fusion_lon": 0.0, "fusion_lat": 0.0, "lon": -77.04871683333333, "name": "b02364bb3b6b2ed8ba5ed524914654b3"}, {"bike_id": "ac1f78be5a84d5b24d94519624cf8175", "type": "electric_scooter", "is_disabled": 0, "lat": 38.91706416666667, "rental_uris": {"ios": "https://dc.lft.to/lastmile_qr_scan", "android": "https://dc.lft.to/lastmile_qr_scan"}, "is_reserved": 0, "fusion_lon": 0.0, "fusion_lat": 0.0, "lon": -77.02413416666667, "name": "ac1f78be5a84d5b24d94519624cf8175"}, {"bike_id": "02c8c9f9685e3c9402c4ccb57240a0f6", "type": "electric_bike", "is_disabled": 0, "lat": 39.05790966666667, "rental_uris": {"ios": "https://dc.lft.to/lastmile_qr_scan", "android": "https://dc.lft.to/lastmile_qr_scan"}, "is_reserved": 0, "fusion_lon": 0.0, "fusion_lat": 0.0, "lon": -77.15019983333333, "name": "02c8c9f9685e3c9402c4ccb57240a0f6"}, {"bike_id": "8ad8d4f03687671e35dedbdb1167558e", "type": "electric_scooter", "is_disabled": 0, "lat": 38.912635333333334, "rental_uris": {"ios": "https://dc.lft.to/lastmile_qr_scan", "android": "https://dc.lft.to/lastmile_qr_scan"}, "is_reserved": 0, "fusion_lon": 0.0, "fusion_lat": 0.0, "lon": -77.04740066666666, "name": "8ad8d4f03687671e35dedbdb1167558e"}, {"bike_id": "bd950b75cff4fcfaf527b2406f757f3b", "type": "electric_scooter", "is_disabled": 0, "lat": 38.871151166666664, "rental_uris": {"ios": "https://dc.lft.to/lastmile_qr_scan", "android": "https://dc.lft.to/lastmile_qr_scan"}, "is_reserved": 0, "fusion_lon": 0.0, "fusion_lat": 0.0, "lon": -76.98234733333334, "name": "bd950b75cff4fcfaf527b2406f757f3b"}, {"bike_id": "fb12a25f3009d7da48658b0341c8b592", "type": "electric_scooter", "is_disabled": 0, "lat": 38.900635, "rental_uris": {"ios": "https://dc.lft.to/lastmile_qr_scan", "android": "https://dc.lft.to/lastmile_qr_scan"}, "is_reserved": 0, "fusion_lon": 0.0, "fusion_lat": 0.0, "lon": -76.93476866666667, "name": "fb12a25f3009d7da48658b0341c8b592"}, {"bike_id": "b0a2a47ff77460221791330bb03966fe", "type": "electric_scooter", "is_disabled": 0, "lat": 38.903225166666665, "rental_uris": {"ios": "https://dc.lft.to/lastmile_qr_scan", "android": "https://dc.lft.to/lastmile_qr_scan"}, "is_reserved": 0, "fusion_lon": 0.0, "fusion_lat": 0.0, "lon": -76.99433366666666, "name": "b0a2a47ff77460221791330bb03966fe"}, {"bike_id": "863455c916313f257296cd0c92306377", "type": "electric_scooter", "is_disabled": 0, "lat": 38.9068255, "rental_uris": {"ios": "https://dc.lft.to/lastmile_qr_scan", "android": "https://dc.lft.to/lastmile_qr_scan"}, "is_reserved": 0, "fusion_lon": 0.0, "fusion_lat": 0.0, "lon": -77.02700983333334, "name": "863455c916313f257296cd0c92306377"}, {"bike_id": "1397aff06dec24bb96696bd451291508", "type": "electric_scooter", "is_disabled": 0, "lat": 38.85701316666667, "rental_uris": {"ios": "https://dc.lft.to/lastmile_qr_scan", "android": "https://dc.lft.to/lastmile_qr_scan"}, "is_reserved": 0, "fusion_lon": 0.0, "fusion_lat": 0.0, "lon": -76.9896835, "name": "1397aff06dec24bb96696bd451291508"}, {"bike_id": "49c7e8b8ceb76dbd3e3e26f2ebb38b19", "type": "electric_scooter", "is_disabled": 0, "lat": 38.8443805, "rental_uris": {"ios": "https://dc.lft.to/lastmile_qr_scan", "android": "https://dc.lft.to/lastmile_qr_scan"}, "is_reserved": 0, "fusion_lon": 0.0, "fusion_lat": 0.0, "lon": -76.98747733333333, "name": "49c7e8b8ceb76dbd3e3e26f2ebb38b19"}, {"bike_id": "263ab9f2d58cafdd1651765a47212515", "type": "electric_scooter", "is_disabled": 0, "lat": 38.91863683333333, "rental_uris": {"ios": "https://dc.lft.to/lastmile_qr_scan", "android": "https://dc.lft.to/lastmile_qr_scan"}, "is_reserved": 0, "fusion_lon": 0.0, "fusion_lat": 0.0, "lon": -77.04195666666666, "name": "263ab9f2d58cafdd1651765a47212515"}, {"bike_id": "43e8b3171edef9c22196db5e9204a1fe", "type": "electric_scooter", "is_disabled": 0, "lat": 38.88425433333333, "rental_uris": {"ios": "https://dc.lft.to/lastmile_qr_scan", "android": "https://dc.lft.to/lastmile_qr_scan"}, "is_reserved": 0, "fusion_lon": 0.0, "fusion_lat": 0.0, "lon": -76.9575015, "name": "43e8b3171edef9c22196db5e9204a1fe"}, {"bike_id": "474ac44c77929df61176d58c1c8eee57", "type": "electric_scooter", "is_disabled": 0, "lat": 38.907225833333335, "rental_uris": {"ios": "https://dc.lft.to/lastmile_qr_scan", "android": "https://dc.lft.to/lastmile_qr_scan"}, "is_reserved": 0, "fusion_lon": 0.0, "fusion_lat": 0.0, "lon": -77.01471483333333, "name": "474ac44c77929df61176d58c1c8eee57"}, {"bike_id": "742791bb8b8283e2aa906756333f4702", "type": "electric_scooter", "is_disabled": 0, "lat": 38.935359166666665, "rental_uris": {"ios": "https://dc.lft.to/lastmile_qr_scan", "android": "https://dc.lft.to/lastmile_qr_scan"}, "is_reserved": 0, "fusion_lon": 0.0, "fusion_lat": 0.0, "lon": -77.023568, "name": "742791bb8b8283e2aa906756333f4702"}, {"bike_id": "a59754b4afc14a7da16f8f635e97808c", "type": "electric_scooter", "is_disabled": 0, "lat": 38.916599833333336, "rental_uris": {"ios": "https://dc.lft.to/lastmile_qr_scan", "android": "https://dc.lft.to/lastmile_qr_scan"}, "is_reserved": 0, "fusion_lon": 0.0, "fusion_lat": 0.0, "lon": -77.0269985, "name": "a59754b4afc14a7da16f8f635e97808c"}, {"bike_id": "abc0a14c721979c7539c50c9f22fbb3b", "type": "electric_scooter", "is_disabled": 0, "lat": 38.920785333333335, "rental_uris": {"ios": "https://dc.lft.to/lastmile_qr_scan", "android": "https://dc.lft.to/lastmile_qr_scan"}, "is_reserved": 0, "fusion_lon": 0.0, "fusion_lat": 0.0, "lon": -77.0230425, "name": "abc0a14c721979c7539c50c9f22fbb3b"}, {"bike_id": "b54dc5e7af4f600d9b6fb5a6fd4c890d", "type": "electric_scooter", "is_disabled": 0, "lat": 38.92664, "rental_uris": {"ios": "https://dc.lft.to/lastmile_qr_scan", "android": "https://dc.lft.to/lastmile_qr_scan"}, "is_reserved": 0, "fusion_lon": 0.0, "fusion_lat": 0.0, "lon": -77.01469016666667, "name": "b54dc5e7af4f600d9b6fb5a6fd4c890d"}, {"bike_id": "8e5a3fc2487f9f9fb358e2dcc678df43", "type": "electric_scooter", "is_disabled": 0, "lat": 38.90908683333333, "rental_uris": {"ios": "https://dc.lft.to/lastmile_qr_scan", "android": "https://dc.lft.to/lastmile_qr_scan"}, "is_reserved": 0, "fusion_lon": 0.0, "fusion_lat": 0.0, "lon": -77.042093, "name": "8e5a3fc2487f9f9fb358e2dcc678df43"}, {"bike_id": "8053295c870c37efe5ba75040116761d", "type": "electric_scooter", "is_disabled": 0, "lat": 38.914682666666664, "rental_uris": {"ios": "https://dc.lft.to/lastmile_qr_scan", "android": "https://dc.lft.to/lastmile_qr_scan"}, "is_reserved": 0, "fusion_lon": 0.0, "fusion_lat": 0.0, "lon": -77.03208566666666, "name": "8053295c870c37efe5ba75040116761d"}, {"bike_id": "74dcd7d07298ff12adeb08291f4dde18", "type": "electric_scooter", "is_disabled": 0, "lat": 38.903291833333334, "rental_uris": {"ios": "https://dc.lft.to/lastmile_qr_scan", "android": "https://dc.lft.to/lastmile_qr_scan"}, "is_reserved": 0, "fusion_lon": 0.0, "fusion_lat": 0.0, "lon": -77.028816, "name": "74dcd7d07298ff12adeb08291f4dde18"}, {"bike_id": "4d6994229569c0229db1594fb02eeafe", "type": "electric_scooter", "is_disabled": 0, "lat": 38.911897, "rental_uris": {"ios": "https://dc.lft.to/lastmile_qr_scan", "android": "https://dc.lft.to/lastmile_qr_scan"}, "is_reserved": 0, "fusion_lon": 0.0, "fusion_lat": 0.0, "lon": -77.03474116666666, "name": "4d6994229569c0229db1594fb02eeafe"}, {"bike_id": "e3e14e2fa5a328f874ae2f5464924a95", "type": "electric_scooter", "is_disabled": 0, "lat": 38.89220733333333, "rental_uris": {"ios": "https://dc.lft.to/lastmile_qr_scan", "android": "https://dc.lft.to/lastmile_qr_scan"}, "is_reserved": 0, "fusion_lon": 0.0, "fusion_lat": 0.0, "lon": -77.02629866666666, "name": "e3e14e2fa5a328f874ae2f5464924a95"}, {"bike_id": "f0cab478c1dec94e4350b44d686ea9e9", "type": "electric_scooter", "is_disabled": 0, "lat": 38.895979, "rental_uris": {"ios": "https://dc.lft.to/lastmile_qr_scan", "android": "https://dc.lft.to/lastmile_qr_scan"}, "is_reserved": 0, "fusion_lon": 0.0, "fusion_lat": 0.0, "lon": -77.00504933333333, "name": "f0cab478c1dec94e4350b44d686ea9e9"}, {"bike_id": "4dac7ae550bc56adb8c7a3737c674934", "type": "electric_scooter", "is_disabled": 0, "lat": 38.9028665, "rental_uris": {"ios": "https://dc.lft.to/lastmile_qr_scan", "android": "https://dc.lft.to/lastmile_qr_scan"}, "is_reserved": 0, "fusion_lon": 0.0, "fusion_lat": 0.0, "lon": -76.990418, "name": "4dac7ae550bc56adb8c7a3737c674934"}, {"bike_id": "1d2899baa5827daee8039e3da27b97c1", "type": "electric_scooter", "is_disabled": 0, "lat": 38.9268085, "rental_uris": {"ios": "https://dc.lft.to/lastmile_qr_scan", "android": "https://dc.lft.to/lastmile_qr_scan"}, "is_reserved": 0, "fusion_lon": 0.0, "fusion_lat": 0.0, "lon": -77.03779133333333, "name": "1d2899baa5827daee8039e3da27b97c1"}, {"bike_id": "008e7c3e71596271cbffbfde8a110e9d", "type": "electric_scooter", "is_disabled": 0, "lat": 38.9275475, "rental_uris": {"ios": "https://dc.lft.to/lastmile_qr_scan", "android": "https://dc.lft.to/lastmile_qr_scan"}, "is_reserved": 0, "fusion_lon": 0.0, "fusion_lat": 0.0, "lon": -77.02537683333334, "name": "008e7c3e71596271cbffbfde8a110e9d"}, {"bike_id": "eadd4d6df1ce9f2cc6837783fcb9f1d2", "type": "electric_scooter", "is_disabled": 0, "lat": 38.9429205, "rental_uris": {"ios": "https://dc.lft.to/lastmile_qr_scan", "android": "https://dc.lft.to/lastmile_qr_scan"}, "is_reserved": 0, "fusion_lon": 0.0, "fusion_lat": 0.0, "lon": -77.02171633333333, "name": "eadd4d6df1ce9f2cc6837783fcb9f1d2"}, {"bike_id": "285578b9fde3a35cb1bd966a9903c4b6", "type": "electric_scooter", "is_disabled": 0, "lat": 38.93668516666666, "rental_uris": {"ios": "https://dc.lft.to/lastmile_qr_scan", "android": "https://dc.lft.to/lastmile_qr_scan"}, "is_reserved": 0, "fusion_lon": 0.0, "fusion_lat": 0.0, "lon": -77.0359625, "name": "285578b9fde3a35cb1bd966a9903c4b6"}, {"bike_id": "6a033898d4a4f35a34a22807d4debc9a", "type": "electric_bike", "is_disabled": 0, "lat": 38.85345916666667, "rental_uris": {"ios": "https://dc.lft.to/lastmile_qr_scan", "android": "https://dc.lft.to/lastmile_qr_scan"}, "is_reserved": 0, "fusion_lon": 0.0, "fusion_lat": 0.0, "lon": -77.13474316666667, "name": "6a033898d4a4f35a34a22807d4debc9a"}, {"bike_id": "3f57356e4cd4509e07650328c13b467e", "type": "electric_scooter", "is_disabled": 0, "lat": 38.928355833333335, "rental_uris": {"ios": "https://dc.lft.to/lastmile_qr_scan", "android": "https://dc.lft.to/lastmile_qr_scan"}, "is_reserved": 0, "fusion_lon": 0.0, "fusion_lat": 0.0, "lon": -77.03267516666666, "name": "3f57356e4cd4509e07650328c13b467e"}, {"bike_id": "30e823494e44a568495cc4c9dfea242a", "type": "electric_scooter", "is_disabled": 0, "lat": 38.914111, "rental_uris": {"ios": "https://dc.lft.to/lastmile_qr_scan", "android": "https://dc.lft.to/lastmile_qr_scan"}, "is_reserved": 0, "fusion_lon": 0.0, "fusion_lat": 0.0, "lon": -77.03030833333334, "name": "30e823494e44a568495cc4c9dfea242a"}, {"bike_id": "1242d2b50fa54113832ecaaf3c4d9979", "type": "electric_scooter", "is_disabled": 0, "lat": 38.909531666666666, "rental_uris": {"ios": "https://dc.lft.to/lastmile_qr_scan", "android": "https://dc.lft.to/lastmile_qr_scan"}, "is_reserved": 0, "fusion_lon": 0.0, "fusion_lat": 0.0, "lon": -77.03049016666667, "name": "1242d2b50fa54113832ecaaf3c4d9979"}, {"bike_id": "a882050e2926722f47902b88cc845c7e", "type": "electric_scooter", "is_disabled": 0, "lat": 38.9078015, "rental_uris": {"ios": "https://dc.lft.to/lastmile_qr_scan", "android": "https://dc.lft.to/lastmile_qr_scan"}, "is_reserved": 0, "fusion_lon": 0.0, "fusion_lat": 0.0, "lon": -77.0659635, "name": "a882050e2926722f47902b88cc845c7e"}, {"bike_id": "03710d9606728637e886548f14a7b55f", "type": "electric_scooter", "is_disabled": 0, "lat": 38.91948083333333, "rental_uris": {"ios": "https://dc.lft.to/lastmile_qr_scan", "android": "https://dc.lft.to/lastmile_qr_scan"}, "is_reserved": 0, "fusion_lon": 0.0, "fusion_lat": 0.0, "lon": -77.025045, "name": "03710d9606728637e886548f14a7b55f"}, {"bike_id": "f1c043b721bdff8a6ed0b47fb8341182", "type": "electric_scooter", "is_disabled": 0, "lat": 38.92014566666667, "rental_uris": {"ios": "https://dc.lft.to/lastmile_qr_scan", "android": "https://dc.lft.to/lastmile_qr_scan"}, "is_reserved": 0, "fusion_lon": 0.0, "fusion_lat": 0.0, "lon": -77.03146833333334, "name": "f1c043b721bdff8a6ed0b47fb8341182"}, {"bike_id": "c03961d6e5f07ba4efe012d8a52ef4f4", "type": "electric_scooter", "is_disabled": 0, "lat": 38.92824133333333, "rental_uris": {"ios": "https://dc.lft.to/lastmile_qr_scan", "android": "https://dc.lft.to/lastmile_qr_scan"}, "is_reserved": 0, "fusion_lon": 0.0, "fusion_lat": 0.0, "lon": -77.0225635, "name": "c03961d6e5f07ba4efe012d8a52ef4f4"}, {"bike_id": "c260af74db707c4bc0cdb341e7e0833b", "type": "electric_scooter", "is_disabled": 0, "lat": 38.914251166666666, "rental_uris": {"ios": "https://dc.lft.to/lastmile_qr_scan", "android": "https://dc.lft.to/lastmile_qr_scan"}, "is_reserved": 0, "fusion_lon": 0.0, "fusion_lat": 0.0, "lon": -77.03598516666666, "name": "c260af74db707c4bc0cdb341e7e0833b"}, {"bike_id": "686392ffdca9df34adc32a6ec308fa9e", "type": "electric_scooter", "is_disabled": 0, "lat": 38.928757166666664, "rental_uris": {"ios": "https://dc.lft.to/lastmile_qr_scan", "android": "https://dc.lft.to/lastmile_qr_scan"}, "is_reserved": 0, "fusion_lon": 0.0, "fusion_lat": 0.0, "lon": -77.03441483333333, "name": "686392ffdca9df34adc32a6ec308fa9e"}, {"bike_id": "7dcb65184c3d2f3e210b5706ec449c09", "type": "electric_scooter", "is_disabled": 0, "lat": 38.9296055, "rental_uris": {"ios": "https://dc.lft.to/lastmile_qr_scan", "android": "https://dc.lft.to/lastmile_qr_scan"}, "is_reserved": 0, "fusion_lon": 0.0, "fusion_lat": 0.0, "lon": -77.03255816666666, "name": "7dcb65184c3d2f3e210b5706ec449c09"}, {"bike_id": "f4e2364f81e2d28b7633af996480665f", "type": "electric_scooter", "is_disabled": 0, "lat": 38.90523566666667, "rental_uris": {"ios": "https://dc.lft.to/lastmile_qr_scan", "android": "https://dc.lft.to/lastmile_qr_scan"}, "is_reserved": 0, "fusion_lon": 0.0, "fusion_lat": 0.0, "lon": -77.0623465, "name": "f4e2364f81e2d28b7633af996480665f"}, {"bike_id": "c80d62997a2cab3d58acfe20bcc81e51", "type": "electric_scooter", "is_disabled": 0, "lat": 38.900893333333336, "rental_uris": {"ios": "https://dc.lft.to/lastmile_qr_scan", "android": "https://dc.lft.to/lastmile_qr_scan"}, "is_reserved": 0, "fusion_lon": 0.0, "fusion_lat": 0.0, "lon": -77.050373, "name": "c80d62997a2cab3d58acfe20bcc81e51"}, {"bike_id": "03f110b305086a3c872e99d5e8e0bef2", "type": "electric_scooter", "is_disabled": 0, "lat": 38.92668366666667, "rental_uris": {"ios": "https://dc.lft.to/lastmile_qr_scan", "android": "https://dc.lft.to/lastmile_qr_scan"}, "is_reserved": 0, "fusion_lon": 0.0, "fusion_lat": 0.0, "lon": -77.01470833333333, "name": "03f110b305086a3c872e99d5e8e0bef2"}, {"bike_id": "b7495b8994ec2f0e275f3802d7a23c11", "type": "electric_scooter", "is_disabled": 0, "lat": 38.9068325, "rental_uris": {"ios": "https://dc.lft.to/lastmile_qr_scan", "android": "https://dc.lft.to/lastmile_qr_scan"}, "is_reserved": 0, "fusion_lon": 0.0, "fusion_lat": 0.0, "lon": -77.02693633333334, "name": "b7495b8994ec2f0e275f3802d7a23c11"}, {"bike_id": "d81ad5bce502395dec14d12fcc0ea9ec", "type": "electric_scooter", "is_disabled": 0, "lat": 38.84318066666667, "rental_uris": {"ios": "https://dc.lft.to/lastmile_qr_scan", "android": "https://dc.lft.to/lastmile_qr_scan"}, "is_reserved": 0, "fusion_lon": 0.0, "fusion_lat": 0.0, "lon": -76.99934766666667, "name": "d81ad5bce502395dec14d12fcc0ea9ec"}, {"bike_id": "e474731578cb9146336a818d43204067", "type": "electric_bike", "is_disabled": 0, "lat": 38.857664166666666, "rental_uris": {"ios": "https://dc.lft.to/lastmile_qr_scan", "android": "https://dc.lft.to/lastmile_qr_scan"}, "is_reserved": 0, "fusion_lon": 0.0, "fusion_lat": 0.0, "lon": -76.98757766666667, "name": "e474731578cb9146336a818d43204067"}, {"bike_id": "8e65c7bdc318290aa043ea3cb189d4bb", "type": "electric_scooter", "is_disabled": 0, "lat": 38.93657266666666, "rental_uris": {"ios": "https://dc.lft.to/lastmile_qr_scan", "android": "https://dc.lft.to/lastmile_qr_scan"}, "is_reserved": 0, "fusion_lon": 0.0, "fusion_lat": 0.0, "lon": -77.05495833333333, "name": "8e65c7bdc318290aa043ea3cb189d4bb"}, {"bike_id": "459707b3dc49c90833abfd131a69b2e3", "type": "electric_scooter", "is_disabled": 0, "lat": 38.900607666666666, "rental_uris": {"ios": "https://dc.lft.to/lastmile_qr_scan", "android": "https://dc.lft.to/lastmile_qr_scan"}, "is_reserved": 0, "fusion_lon": 0.0, "fusion_lat": 0.0, "lon": -77.03651083333334, "name": "459707b3dc49c90833abfd131a69b2e3"}, {"bike_id": "c8b0284f1e9da61f38f6a330b453ec08", "type": "electric_bike", "is_disabled": 0, "lat": 38.94667283333333, "rental_uris": {"ios": "https://dc.lft.to/lastmile_qr_scan", "android": "https://dc.lft.to/lastmile_qr_scan"}, "is_reserved": 0, "fusion_lon": 0.0, "fusion_lat": 0.0, "lon": -76.956722, "name": "c8b0284f1e9da61f38f6a330b453ec08"}, {"bike_id": "aac30503b89a05f9bcbb6925e8e5defe", "type": "electric_scooter", "is_disabled": 0, "lat": 38.97223666666667, "rental_uris": {"ios": "https://dc.lft.to/lastmile_qr_scan", "android": "https://dc.lft.to/lastmile_qr_scan"}, "is_reserved": 0, "fusion_lon": 0.0, "fusion_lat": 0.0, "lon": -77.02688066666667, "name": "aac30503b89a05f9bcbb6925e8e5defe"}, {"bike_id": "90fe1206fb59c2583084a8ced29f44ba", "type": "electric_bike", "is_disabled": 0, "lat": 38.9571125, "rental_uris": {"ios": "https://dc.lft.to/lastmile_qr_scan", "android": "https://dc.lft.to/lastmile_qr_scan"}, "is_reserved": 0, "fusion_lon": 0.0, "fusion_lat": 0.0, "lon": -77.00282733333333, "name": "90fe1206fb59c2583084a8ced29f44ba"}, {"bike_id": "3d60b9579886e1cad722f733bc6d8410", "type": "electric_scooter", "is_disabled": 0, "lat": 38.9036735, "rental_uris": {"ios": "https://dc.lft.to/lastmile_qr_scan", "android": "https://dc.lft.to/lastmile_qr_scan"}, "is_reserved": 0, "fusion_lon": 0.0, "fusion_lat": 0.0, "lon": -77.03869633333333, "name": "3d60b9579886e1cad722f733bc6d8410"}, {"bike_id": "56e2fbd234ea4b4d2fe90c9ea997e336", "type": "electric_scooter", "is_disabled": 0, "lat": 38.9237255, "rental_uris": {"ios": "https://dc.lft.to/lastmile_qr_scan", "android": "https://dc.lft.to/lastmile_qr_scan"}, "is_reserved": 0, "fusion_lon": 0.0, "fusion_lat": 0.0, "lon": -77.05246616666666, "name": "56e2fbd234ea4b4d2fe90c9ea997e336"}, {"bike_id": "c12325cee76cb1888f349d59458dfa9f", "type": "electric_bike", "is_disabled": 0, "lat": 38.9245505, "rental_uris": {"ios": "https://dc.lft.to/lastmile_qr_scan", "android": "https://dc.lft.to/lastmile_qr_scan"}, "is_reserved": 0, "fusion_lon": 0.0, "fusion_lat": 0.0, "lon": -77.22566516666667, "name": "c12325cee76cb1888f349d59458dfa9f"}, {"bike_id": "75678b1d8ce4066a8ee92524f5217b68", "type": "electric_scooter", "is_disabled": 0, "lat": 38.912479833333336, "rental_uris": {"ios": "https://dc.lft.to/lastmile_qr_scan", "android": "https://dc.lft.to/lastmile_qr_scan"}, "is_reserved": 0, "fusion_lon": 0.0, "fusion_lat": 0.0, "lon": -77.0319915, "name": "75678b1d8ce4066a8ee92524f5217b68"}, {"bike_id": "c361d39a526eca7ed77603d130e4ec69", "type": "electric_scooter", "is_disabled": 0, "lat": 38.906327166666664, "rental_uris": {"ios": "https://dc.lft.to/lastmile_qr_scan", "android": "https://dc.lft.to/lastmile_qr_scan"}, "is_reserved": 0, "fusion_lon": 0.0, "fusion_lat": 0.0, "lon": -77.01005783333333, "name": "c361d39a526eca7ed77603d130e4ec69"}, {"bike_id": "4d000cebf2401120df6082565088932a", "type": "electric_scooter", "is_disabled": 0, "lat": 38.92316866666667, "rental_uris": {"ios": "https://dc.lft.to/lastmile_qr_scan", "android": "https://dc.lft.to/lastmile_qr_scan"}, "is_reserved": 0, "fusion_lon": 0.0, "fusion_lat": 0.0, "lon": -77.04209833333333, "name": "4d000cebf2401120df6082565088932a"}, {"bike_id": "a4bcea0d3d8a93f8aa2b16e8aabe170a", "type": "electric_scooter", "is_disabled": 0, "lat": 38.911185, "rental_uris": {"ios": "https://dc.lft.to/lastmile_qr_scan", "android": "https://dc.lft.to/lastmile_qr_scan"}, "is_reserved": 0, "fusion_lon": 0.0, "fusion_lat": 0.0, "lon": -77.039214, "name": "a4bcea0d3d8a93f8aa2b16e8aabe170a"}, {"bike_id": "01cf93c717cdd47ecb7f955f3507d214", "type": "electric_scooter", "is_disabled": 0, "lat": 38.9352815, "rental_uris": {"ios": "https://dc.lft.to/lastmile_qr_scan", "android": "https://dc.lft.to/lastmile_qr_scan"}, "is_reserved": 0, "fusion_lon": 0.0, "fusion_lat": 0.0, "lon": -77.0296565, "name": "01cf93c717cdd47ecb7f955f3507d214"}, {"bike_id": "ca982fa1ef2a5e60ec9c46dc32c83b21", "type": "electric_scooter", "is_disabled": 0, "lat": 38.892768, "rental_uris": {"ios": "https://dc.lft.to/lastmile_qr_scan", "android": "https://dc.lft.to/lastmile_qr_scan"}, "is_reserved": 0, "fusion_lon": 0.0, "fusion_lat": 0.0, "lon": -77.02449483333334, "name": "ca982fa1ef2a5e60ec9c46dc32c83b21"}, {"bike_id": "11fc9efbe84195cabed654857cfc4a44", "type": "electric_scooter", "is_disabled": 0, "lat": 38.9196015, "rental_uris": {"ios": "https://dc.lft.to/lastmile_qr_scan", "android": "https://dc.lft.to/lastmile_qr_scan"}, "is_reserved": 0, "fusion_lon": 0.0, "fusion_lat": 0.0, "lon": -77.042399, "name": "11fc9efbe84195cabed654857cfc4a44"}, {"bike_id": "77dc6760fd54534b6dea3b81436396df", "type": "electric_scooter", "is_disabled": 0, "lat": 38.8825505, "rental_uris": {"ios": "https://dc.lft.to/lastmile_qr_scan", "android": "https://dc.lft.to/lastmile_qr_scan"}, "is_reserved": 0, "fusion_lon": 0.0, "fusion_lat": 0.0, "lon": -76.995104, "name": "77dc6760fd54534b6dea3b81436396df"}, {"bike_id": "01fdbcfa356fda38b5bed22401633ad0", "type": "electric_scooter", "is_disabled": 0, "lat": 38.9223925, "rental_uris": {"ios": "https://dc.lft.to/lastmile_qr_scan", "android": "https://dc.lft.to/lastmile_qr_scan"}, "is_reserved": 0, "fusion_lon": 0.0, "fusion_lat": 0.0, "lon": -76.9753535, "name": "01fdbcfa356fda38b5bed22401633ad0"}, {"bike_id": "992814961a2a8f0cb707e6e555c2cf96", "type": "electric_scooter", "is_disabled": 0, "lat": 38.909041, "rental_uris": {"ios": "https://dc.lft.to/lastmile_qr_scan", "android": "https://dc.lft.to/lastmile_qr_scan"}, "is_reserved": 0, "fusion_lon": 0.0, "fusion_lat": 0.0, "lon": -77.0318965, "name": "992814961a2a8f0cb707e6e555c2cf96"}, {"bike_id": "f619616dc44d70421a263df2156ea56a", "type": "electric_bike", "is_disabled": 0, "lat": 39.05106333333333, "rental_uris": {"ios": "https://dc.lft.to/lastmile_qr_scan", "android": "https://dc.lft.to/lastmile_qr_scan"}, "is_reserved": 0, "fusion_lon": 0.0, "fusion_lat": 0.0, "lon": -77.11735866666666, "name": "f619616dc44d70421a263df2156ea56a"}, {"bike_id": "db8a3ff8a8d9b72209450d908fd4e63b", "type": "electric_scooter", "is_disabled": 0, "lat": 38.87656533333333, "rental_uris": {"ios": "https://dc.lft.to/lastmile_qr_scan", "android": "https://dc.lft.to/lastmile_qr_scan"}, "is_reserved": 0, "fusion_lon": 0.0, "fusion_lat": 0.0, "lon": -76.99642333333334, "name": "db8a3ff8a8d9b72209450d908fd4e63b"}, {"bike_id": "e04faced94e7267745363eb40c8b5b35", "type": "electric_scooter", "is_disabled": 0, "lat": 38.93314816666667, "rental_uris": {"ios": "https://dc.lft.to/lastmile_qr_scan", "android": "https://dc.lft.to/lastmile_qr_scan"}, "is_reserved": 0, "fusion_lon": 0.0, "fusion_lat": 0.0, "lon": -77.027498, "name": "e04faced94e7267745363eb40c8b5b35"}, {"bike_id": "4dab932eea7f6557b07b2bfc908e5f1c", "type": "electric_scooter", "is_disabled": 0, "lat": 38.921010833333334, "rental_uris": {"ios": "https://dc.lft.to/lastmile_qr_scan", "android": "https://dc.lft.to/lastmile_qr_scan"}, "is_reserved": 0, "fusion_lon": 0.0, "fusion_lat": 0.0, "lon": -77.01689333333333, "name": "4dab932eea7f6557b07b2bfc908e5f1c"}, {"bike_id": "c685e0236954e2962c4137e3ef1b9af8", "type": "electric_scooter", "is_disabled": 0, "lat": 38.901952, "rental_uris": {"ios": "https://dc.lft.to/lastmile_qr_scan", "android": "https://dc.lft.to/lastmile_qr_scan"}, "is_reserved": 0, "fusion_lon": 0.0, "fusion_lat": 0.0, "lon": -76.9884695, "name": "c685e0236954e2962c4137e3ef1b9af8"}, {"bike_id": "0fe8331ab8109fbf9fce08f14f1dcb0f", "type": "electric_scooter", "is_disabled": 0, "lat": 38.91039683333333, "rental_uris": {"ios": "https://dc.lft.to/lastmile_qr_scan", "android": "https://dc.lft.to/lastmile_qr_scan"}, "is_reserved": 0, "fusion_lon": 0.0, "fusion_lat": 0.0, "lon": -77.04358433333333, "name": "0fe8331ab8109fbf9fce08f14f1dcb0f"}, {"bike_id": "2c43eec1286df1301c638dbfa2102692", "type": "electric_scooter", "is_disabled": 0, "lat": 38.89418366666666, "rental_uris": {"ios": "https://dc.lft.to/lastmile_qr_scan", "android": "https://dc.lft.to/lastmile_qr_scan"}, "is_reserved": 0, "fusion_lon": 0.0, "fusion_lat": 0.0, "lon": -77.03188283333333, "name": "2c43eec1286df1301c638dbfa2102692"}, {"bike_id": "3cfa865741bcd3d748799f17400aa5c7", "type": "electric_scooter", "is_disabled": 0, "lat": 38.875820166666664, "rental_uris": {"ios": "https://dc.lft.to/lastmile_qr_scan", "android": "https://dc.lft.to/lastmile_qr_scan"}, "is_reserved": 0, "fusion_lon": 0.0, "fusion_lat": 0.0, "lon": -77.01275266666667, "name": "3cfa865741bcd3d748799f17400aa5c7"}, {"bike_id": "b3e8488a9d6050dbad5c1747e8b7528c", "type": "electric_scooter", "is_disabled": 0, "lat": 38.89528983333334, "rental_uris": {"ios": "https://dc.lft.to/lastmile_qr_scan", "android": "https://dc.lft.to/lastmile_qr_scan"}, "is_reserved": 0, "fusion_lon": 0.0, "fusion_lat": 0.0, "lon": -77.03348933333334, "name": "b3e8488a9d6050dbad5c1747e8b7528c"}, {"bike_id": "65a3d2f6f94e4013da95225164f5dbd7", "type": "electric_scooter", "is_disabled": 0, "lat": 38.90185983333333, "rental_uris": {"ios": "https://dc.lft.to/lastmile_qr_scan", "android": "https://dc.lft.to/lastmile_qr_scan"}, "is_reserved": 0, "fusion_lon": 0.0, "fusion_lat": 0.0, "lon": -77.03393933333334, "name": "65a3d2f6f94e4013da95225164f5dbd7"}, {"bike_id": "70c96041c665136de9ada03e4fed656e", "type": "electric_scooter", "is_disabled": 0, "lat": 38.90038916666666, "rental_uris": {"ios": "https://dc.lft.to/lastmile_qr_scan", "android": "https://dc.lft.to/lastmile_qr_scan"}, "is_reserved": 0, "fusion_lon": 0.0, "fusion_lat": 0.0, "lon": -77.01403483333333, "name": "70c96041c665136de9ada03e4fed656e"}, {"bike_id": "ff33af1f9afc0f6bd465203b6606653f", "type": "electric_scooter", "is_disabled": 0, "lat": 38.9196995, "rental_uris": {"ios": "https://dc.lft.to/lastmile_qr_scan", "android": "https://dc.lft.to/lastmile_qr_scan"}, "is_reserved": 0, "fusion_lon": 0.0, "fusion_lat": 0.0, "lon": -77.03945733333333, "name": "ff33af1f9afc0f6bd465203b6606653f"}, {"bike_id": "4cc2c5e5c420f0343c42d6dc8ba87a96", "type": "electric_scooter", "is_disabled": 0, "lat": 38.8973815, "rental_uris": {"ios": "https://dc.lft.to/lastmile_qr_scan", "android": "https://dc.lft.to/lastmile_qr_scan"}, "is_reserved": 0, "fusion_lon": 0.0, "fusion_lat": 0.0, "lon": -76.94721266666667, "name": "4cc2c5e5c420f0343c42d6dc8ba87a96"}, {"bike_id": "db50e9d505279dedb9b2ccb76771ecde", "type": "electric_scooter", "is_disabled": 0, "lat": 38.900512166666665, "rental_uris": {"ios": "https://dc.lft.to/lastmile_qr_scan", "android": "https://dc.lft.to/lastmile_qr_scan"}, "is_reserved": 0, "fusion_lon": 0.0, "fusion_lat": 0.0, "lon": -77.034962, "name": "db50e9d505279dedb9b2ccb76771ecde"}, {"bike_id": "a1263de0f2deb79393db517e380a619d", "type": "electric_scooter", "is_disabled": 0, "lat": 38.92591316666667, "rental_uris": {"ios": "https://dc.lft.to/lastmile_qr_scan", "android": "https://dc.lft.to/lastmile_qr_scan"}, "is_reserved": 0, "fusion_lon": 0.0, "fusion_lat": 0.0, "lon": -77.03753133333333, "name": "a1263de0f2deb79393db517e380a619d"}, {"bike_id": "4f62863641e815da0d6c4cfbc6576959", "type": "electric_scooter", "is_disabled": 0, "lat": 38.906519, "rental_uris": {"ios": "https://dc.lft.to/lastmile_qr_scan", "android": "https://dc.lft.to/lastmile_qr_scan"}, "is_reserved": 0, "fusion_lon": 0.0, "fusion_lat": 0.0, "lon": -77.014593, "name": "4f62863641e815da0d6c4cfbc6576959"}, {"bike_id": "4ef348ff76eeb6d1a30160e76dcf1c8e", "type": "electric_scooter", "is_disabled": 0, "lat": 38.906761333333336, "rental_uris": {"ios": "https://dc.lft.to/lastmile_qr_scan", "android": "https://dc.lft.to/lastmile_qr_scan"}, "is_reserved": 0, "fusion_lon": 0.0, "fusion_lat": 0.0, "lon": -77.0717095, "name": "4ef348ff76eeb6d1a30160e76dcf1c8e"}, {"bike_id": "898cd8bca39d5ba98488429b2bf9167f", "type": "electric_scooter", "is_disabled": 0, "lat": 38.907362166666665, "rental_uris": {"ios": "https://dc.lft.to/lastmile_qr_scan", "android": "https://dc.lft.to/lastmile_qr_scan"}, "is_reserved": 0, "fusion_lon": 0.0, "fusion_lat": 0.0, "lon": -77.02944133333334, "name": "898cd8bca39d5ba98488429b2bf9167f"}, {"bike_id": "28ec4d4dbf0b8202d0ec9cbc095a9251", "type": "electric_scooter", "is_disabled": 0, "lat": 38.965632166666666, "rental_uris": {"ios": "https://dc.lft.to/lastmile_qr_scan", "android": "https://dc.lft.to/lastmile_qr_scan"}, "is_reserved": 0, "fusion_lon": 0.0, "fusion_lat": 0.0, "lon": -77.02770383333333, "name": "28ec4d4dbf0b8202d0ec9cbc095a9251"}, {"bike_id": "910acdc63834b70764aaac30105454a0", "type": "electric_scooter", "is_disabled": 0, "lat": 38.90332883333333, "rental_uris": {"ios": "https://dc.lft.to/lastmile_qr_scan", "android": "https://dc.lft.to/lastmile_qr_scan"}, "is_reserved": 0, "fusion_lon": 0.0, "fusion_lat": 0.0, "lon": -77.06927783333333, "name": "910acdc63834b70764aaac30105454a0"}, {"bike_id": "c6312cce6d269a3b7b4abe82a1e9db25", "type": "electric_scooter", "is_disabled": 0, "lat": 38.98433166666667, "rental_uris": {"ios": "https://dc.lft.to/lastmile_qr_scan", "android": "https://dc.lft.to/lastmile_qr_scan"}, "is_reserved": 0, "fusion_lon": 0.0, "fusion_lat": 0.0, "lon": -77.0266595, "name": "c6312cce6d269a3b7b4abe82a1e9db25"}, {"bike_id": "bc32eb15ad9652632502e0b710b92812", "type": "electric_scooter", "is_disabled": 0, "lat": 38.86250233333333, "rental_uris": {"ios": "https://dc.lft.to/lastmile_qr_scan", "android": "https://dc.lft.to/lastmile_qr_scan"}, "is_reserved": 0, "fusion_lon": 0.0, "fusion_lat": 0.0, "lon": -76.9950325, "name": "bc32eb15ad9652632502e0b710b92812"}, {"bike_id": "0bab119548f0f27467d6f572c162b5da", "type": "electric_scooter", "is_disabled": 0, "lat": 38.87650283333333, "rental_uris": {"ios": "https://dc.lft.to/lastmile_qr_scan", "android": "https://dc.lft.to/lastmile_qr_scan"}, "is_reserved": 0, "fusion_lon": 0.0, "fusion_lat": 0.0, "lon": -76.96507966666667, "name": "0bab119548f0f27467d6f572c162b5da"}, {"bike_id": "ffe0b031caa7a415a0ad258a929b843d", "type": "electric_scooter", "is_disabled": 0, "lat": 38.882536333333334, "rental_uris": {"ios": "https://dc.lft.to/lastmile_qr_scan", "android": "https://dc.lft.to/lastmile_qr_scan"}, "is_reserved": 0, "fusion_lon": 0.0, "fusion_lat": 0.0, "lon": -76.9951385, "name": "ffe0b031caa7a415a0ad258a929b843d"}, {"bike_id": "c8b31385204999e5f3b38b5d576411b1", "type": "electric_scooter", "is_disabled": 0, "lat": 38.86651883333333, "rental_uris": {"ios": "https://dc.lft.to/lastmile_qr_scan", "android": "https://dc.lft.to/lastmile_qr_scan"}, "is_reserved": 0, "fusion_lon": 0.0, "fusion_lat": 0.0, "lon": -76.988814, "name": "c8b31385204999e5f3b38b5d576411b1"}, {"bike_id": "6b97049af54d94a301ae5e84e15ab93e", "type": "electric_scooter", "is_disabled": 0, "lat": 38.90746816666667, "rental_uris": {"ios": "https://dc.lft.to/lastmile_qr_scan", "android": "https://dc.lft.to/lastmile_qr_scan"}, "is_reserved": 0, "fusion_lon": 0.0, "fusion_lat": 0.0, "lon": -77.0009855, "name": "6b97049af54d94a301ae5e84e15ab93e"}, {"bike_id": "8700423d64bf5da06ac73d1273e9d376", "type": "electric_scooter", "is_disabled": 0, "lat": 38.9274815, "rental_uris": {"ios": "https://dc.lft.to/lastmile_qr_scan", "android": "https://dc.lft.to/lastmile_qr_scan"}, "is_reserved": 0, "fusion_lon": 0.0, "fusion_lat": 0.0, "lon": -77.0059435, "name": "8700423d64bf5da06ac73d1273e9d376"}, {"bike_id": "fda2250465f4545258613412b6feb6d7", "type": "electric_scooter", "is_disabled": 0, "lat": 38.92069083333333, "rental_uris": {"ios": "https://dc.lft.to/lastmile_qr_scan", "android": "https://dc.lft.to/lastmile_qr_scan"}, "is_reserved": 0, "fusion_lon": 0.0, "fusion_lat": 0.0, "lon": -77.02543066666667, "name": "fda2250465f4545258613412b6feb6d7"}, {"bike_id": "2f30a9e1fbf1df8baa5f7e1af6e75f09", "type": "electric_scooter", "is_disabled": 0, "lat": 38.905658833333334, "rental_uris": {"ios": "https://dc.lft.to/lastmile_qr_scan", "android": "https://dc.lft.to/lastmile_qr_scan"}, "is_reserved": 0, "fusion_lon": 0.0, "fusion_lat": 0.0, "lon": -77.04613183333333, "name": "2f30a9e1fbf1df8baa5f7e1af6e75f09"}, {"bike_id": "51798cb1cb50c8e3b5d96fca3a08e9db", "type": "electric_scooter", "is_disabled": 0, "lat": 38.913319333333334, "rental_uris": {"ios": "https://dc.lft.to/lastmile_qr_scan", "android": "https://dc.lft.to/lastmile_qr_scan"}, "is_reserved": 0, "fusion_lon": 0.0, "fusion_lat": 0.0, "lon": -77.01971383333333, "name": "51798cb1cb50c8e3b5d96fca3a08e9db"}, {"bike_id": "368297a9cdecc0fc6880b14d5fa50c93", "type": "electric_scooter", "is_disabled": 0, "lat": 38.876295166666665, "rental_uris": {"ios": "https://dc.lft.to/lastmile_qr_scan", "android": "https://dc.lft.to/lastmile_qr_scan"}, "is_reserved": 0, "fusion_lon": 0.0, "fusion_lat": 0.0, "lon": -76.96527016666667, "name": "368297a9cdecc0fc6880b14d5fa50c93"}, {"bike_id": "cc55080e2944a9d610b655f7b625e92f", "type": "electric_scooter", "is_disabled": 0, "lat": 38.89805833333333, "rental_uris": {"ios": "https://dc.lft.to/lastmile_qr_scan", "android": "https://dc.lft.to/lastmile_qr_scan"}, "is_reserved": 0, "fusion_lon": 0.0, "fusion_lat": 0.0, "lon": -77.029219, "name": "cc55080e2944a9d610b655f7b625e92f"}, {"bike_id": "b9fd9afa96942dceccc71041e2512681", "type": "electric_scooter", "is_disabled": 0, "lat": 38.87082483333333, "rental_uris": {"ios": "https://dc.lft.to/lastmile_qr_scan", "android": "https://dc.lft.to/lastmile_qr_scan"}, "is_reserved": 0, "fusion_lon": 0.0, "fusion_lat": 0.0, "lon": -77.01186016666666, "name": "b9fd9afa96942dceccc71041e2512681"}, {"bike_id": "ecc70377b77a89dd96ccc05af6077109", "type": "electric_scooter", "is_disabled": 0, "lat": 38.931971833333336, "rental_uris": {"ios": "https://dc.lft.to/lastmile_qr_scan", "android": "https://dc.lft.to/lastmile_qr_scan"}, "is_reserved": 0, "fusion_lon": 0.0, "fusion_lat": 0.0, "lon": -77.01963516666666, "name": "ecc70377b77a89dd96ccc05af6077109"}, {"bike_id": "b9e1338f702cbdcad7555cfcbf2341c1", "type": "electric_scooter", "is_disabled": 0, "lat": 38.9225805, "rental_uris": {"ios": "https://dc.lft.to/lastmile_qr_scan", "android": "https://dc.lft.to/lastmile_qr_scan"}, "is_reserved": 0, "fusion_lon": 0.0, "fusion_lat": 0.0, "lon": -77.03401816666667, "name": "b9e1338f702cbdcad7555cfcbf2341c1"}, {"bike_id": "50b515f8ea9785cf3ef1b2dab4abc7f4", "type": "electric_scooter", "is_disabled": 0, "lat": 38.941023333333334, "rental_uris": {"ios": "https://dc.lft.to/lastmile_qr_scan", "android": "https://dc.lft.to/lastmile_qr_scan"}, "is_reserved": 0, "fusion_lon": 0.0, "fusion_lat": 0.0, "lon": -77.02522733333333, "name": "50b515f8ea9785cf3ef1b2dab4abc7f4"}, {"bike_id": "8441b6ba2fcf52424a8dbdbba80671dd", "type": "electric_scooter", "is_disabled": 0, "lat": 38.91241183333333, "rental_uris": {"ios": "https://dc.lft.to/lastmile_qr_scan", "android": "https://dc.lft.to/lastmile_qr_scan"}, "is_reserved": 0, "fusion_lon": 0.0, "fusion_lat": 0.0, "lon": -77.0011965, "name": "8441b6ba2fcf52424a8dbdbba80671dd"}, {"bike_id": "9fec5c3624a1739aa5781c97d0b91d3c", "type": "electric_scooter", "is_disabled": 0, "lat": 38.911112833333334, "rental_uris": {"ios": "https://dc.lft.to/lastmile_qr_scan", "android": "https://dc.lft.to/lastmile_qr_scan"}, "is_reserved": 0, "fusion_lon": 0.0, "fusion_lat": 0.0, "lon": -77.04972933333333, "name": "9fec5c3624a1739aa5781c97d0b91d3c"}, {"bike_id": "10024bc7f27880d922466d343dab5d37", "type": "electric_bike", "is_disabled": 0, "lat": 38.87098016666667, "rental_uris": {"ios": "https://dc.lft.to/lastmile_qr_scan", "android": "https://dc.lft.to/lastmile_qr_scan"}, "is_reserved": 0, "fusion_lon": 0.0, "fusion_lat": 0.0, "lon": -77.012149, "name": "10024bc7f27880d922466d343dab5d37"}, {"bike_id": "252c1124c2fdc35bc57d2302462ab418", "type": "electric_scooter", "is_disabled": 0, "lat": 38.90561866666667, "rental_uris": {"ios": "https://dc.lft.to/lastmile_qr_scan", "android": "https://dc.lft.to/lastmile_qr_scan"}, "is_reserved": 0, "fusion_lon": 0.0, "fusion_lat": 0.0, "lon": -77.00625383333333, "name": "252c1124c2fdc35bc57d2302462ab418"}, {"bike_id": "d22e2466715a37c9edc9cc75f26bef4c", "type": "electric_scooter", "is_disabled": 0, "lat": 38.90412466666667, "rental_uris": {"ios": "https://dc.lft.to/lastmile_qr_scan", "android": "https://dc.lft.to/lastmile_qr_scan"}, "is_reserved": 0, "fusion_lon": 0.0, "fusion_lat": 0.0, "lon": -76.97332733333333, "name": "d22e2466715a37c9edc9cc75f26bef4c"}, {"bike_id": "d7e69009166c938b2159050ccb6a94c4", "type": "electric_scooter", "is_disabled": 0, "lat": 38.9070895, "rental_uris": {"ios": "https://dc.lft.to/lastmile_qr_scan", "android": "https://dc.lft.to/lastmile_qr_scan"}, "is_reserved": 0, "fusion_lon": 0.0, "fusion_lat": 0.0, "lon": -77.03811433333334, "name": "d7e69009166c938b2159050ccb6a94c4"}, {"bike_id": "d567f03655da5653e43efdecf76f39a9", "type": "electric_scooter", "is_disabled": 0, "lat": 38.919207666666665, "rental_uris": {"ios": "https://dc.lft.to/lastmile_qr_scan", "android": "https://dc.lft.to/lastmile_qr_scan"}, "is_reserved": 0, "fusion_lon": 0.0, "fusion_lat": 0.0, "lon": -77.041732, "name": "d567f03655da5653e43efdecf76f39a9"}, {"bike_id": "32d2b1a78e05995a11aa760f7808d5d8", "type": "electric_bike", "is_disabled": 0, "lat": 38.8589585, "rental_uris": {"ios": "https://dc.lft.to/lastmile_qr_scan", "android": "https://dc.lft.to/lastmile_qr_scan"}, "is_reserved": 0, "fusion_lon": 0.0, "fusion_lat": 0.0, "lon": -77.1186885, "name": "32d2b1a78e05995a11aa760f7808d5d8"}, {"bike_id": "f4f63d32e0b6d70ec02411d863506af4", "type": "electric_scooter", "is_disabled": 0, "lat": 38.91534383333333, "rental_uris": {"ios": "https://dc.lft.to/lastmile_qr_scan", "android": "https://dc.lft.to/lastmile_qr_scan"}, "is_reserved": 0, "fusion_lon": 0.0, "fusion_lat": 0.0, "lon": -77.03205416666667, "name": "f4f63d32e0b6d70ec02411d863506af4"}, {"bike_id": "b664ee08ae98a5762204c544dde929ea", "type": "electric_scooter", "is_disabled": 0, "lat": 38.8791505, "rental_uris": {"ios": "https://dc.lft.to/lastmile_qr_scan", "android": "https://dc.lft.to/lastmile_qr_scan"}, "is_reserved": 0, "fusion_lon": 0.0, "fusion_lat": 0.0, "lon": -77.007782, "name": "b664ee08ae98a5762204c544dde929ea"}, {"bike_id": "cb52a6c9c018824f89e8b4904102f069", "type": "electric_scooter", "is_disabled": 0, "lat": 38.90504266666667, "rental_uris": {"ios": "https://dc.lft.to/lastmile_qr_scan", "android": "https://dc.lft.to/lastmile_qr_scan"}, "is_reserved": 0, "fusion_lon": 0.0, "fusion_lat": 0.0, "lon": -76.98983266666667, "name": "cb52a6c9c018824f89e8b4904102f069"}, {"bike_id": "ad2f05bd5d57b276b490b6b974f5199e", "type": "electric_scooter", "is_disabled": 0, "lat": 38.919099, "rental_uris": {"ios": "https://dc.lft.to/lastmile_qr_scan", "android": "https://dc.lft.to/lastmile_qr_scan"}, "is_reserved": 0, "fusion_lon": 0.0, "fusion_lat": 0.0, "lon": -77.04154183333333, "name": "ad2f05bd5d57b276b490b6b974f5199e"}, {"bike_id": "f23c536846bea1bda2e123256f906379", "type": "electric_scooter", "is_disabled": 0, "lat": 38.899627333333335, "rental_uris": {"ios": "https://dc.lft.to/lastmile_qr_scan", "android": "https://dc.lft.to/lastmile_qr_scan"}, "is_reserved": 0, "fusion_lon": 0.0, "fusion_lat": 0.0, "lon": -76.98299766666666, "name": "f23c536846bea1bda2e123256f906379"}, {"bike_id": "89efe5b42992ba596a85baa6d2499d02", "type": "electric_bike", "is_disabled": 0, "lat": 38.957872, "rental_uris": {"ios": "https://dc.lft.to/lastmile_qr_scan", "android": "https://dc.lft.to/lastmile_qr_scan"}, "is_reserved": 0, "fusion_lon": 0.0, "fusion_lat": 0.0, "lon": -77.0200735, "name": "89efe5b42992ba596a85baa6d2499d02"}, {"bike_id": "a66ba7cb8994ec1e4b03be0b3a5bbb91", "type": "electric_scooter", "is_disabled": 0, "lat": 38.90236516666667, "rental_uris": {"ios": "https://dc.lft.to/lastmile_qr_scan", "android": "https://dc.lft.to/lastmile_qr_scan"}, "is_reserved": 0, "fusion_lon": 0.0, "fusion_lat": 0.0, "lon": -77.00202883333333, "name": "a66ba7cb8994ec1e4b03be0b3a5bbb91"}, {"bike_id": "d10b5826774c69df870aceec94e5c198", "type": "electric_scooter", "is_disabled": 0, "lat": 38.8845575, "rental_uris": {"ios": "https://dc.lft.to/lastmile_qr_scan", "android": "https://dc.lft.to/lastmile_qr_scan"}, "is_reserved": 0, "fusion_lon": 0.0, "fusion_lat": 0.0, "lon": -76.95101033333333, "name": "d10b5826774c69df870aceec94e5c198"}, {"bike_id": "93b413155dccba3b14aa513276d2e042", "type": "electric_scooter", "is_disabled": 0, "lat": 38.94553883333333, "rental_uris": {"ios": "https://dc.lft.to/lastmile_qr_scan", "android": "https://dc.lft.to/lastmile_qr_scan"}, "is_reserved": 0, "fusion_lon": 0.0, "fusion_lat": 0.0, "lon": -77.0711835, "name": "93b413155dccba3b14aa513276d2e042"}, {"bike_id": "1ecd9538b3840d68e5bc1a345e3d84dc", "type": "electric_bike", "is_disabled": 0, "lat": 38.8788115, "rental_uris": {"ios": "https://dc.lft.to/lastmile_qr_scan", "android": "https://dc.lft.to/lastmile_qr_scan"}, "is_reserved": 0, "fusion_lon": 0.0, "fusion_lat": 0.0, "lon": -77.09612116666666, "name": "1ecd9538b3840d68e5bc1a345e3d84dc"}, {"bike_id": "3d513c6495d15c06a888f3a61522899d", "type": "electric_scooter", "is_disabled": 0, "lat": 38.90270316666667, "rental_uris": {"ios": "https://dc.lft.to/lastmile_qr_scan", "android": "https://dc.lft.to/lastmile_qr_scan"}, "is_reserved": 0, "fusion_lon": 0.0, "fusion_lat": 0.0, "lon": -77.003275, "name": "3d513c6495d15c06a888f3a61522899d"}, {"bike_id": "4d0b9d1ca9e993c663c47ca8e581fc34", "type": "electric_scooter", "is_disabled": 0, "lat": 38.91781866666667, "rental_uris": {"ios": "https://dc.lft.to/lastmile_qr_scan", "android": "https://dc.lft.to/lastmile_qr_scan"}, "is_reserved": 0, "fusion_lon": 0.0, "fusion_lat": 0.0, "lon": -77.0410585, "name": "4d0b9d1ca9e993c663c47ca8e581fc34"}, {"bike_id": "63d2ff0e6f71227f6dedebd609312f6e", "type": "electric_scooter", "is_disabled": 0, "lat": 38.9308845, "rental_uris": {"ios": "https://dc.lft.to/lastmile_qr_scan", "android": "https://dc.lft.to/lastmile_qr_scan"}, "is_reserved": 0, "fusion_lon": 0.0, "fusion_lat": 0.0, "lon": -77.03445683333334, "name": "63d2ff0e6f71227f6dedebd609312f6e"}, {"bike_id": "c82c70e0583c9b8b9a7b9da61af6313b", "type": "electric_scooter", "is_disabled": 0, "lat": 38.904936166666666, "rental_uris": {"ios": "https://dc.lft.to/lastmile_qr_scan", "android": "https://dc.lft.to/lastmile_qr_scan"}, "is_reserved": 0, "fusion_lon": 0.0, "fusion_lat": 0.0, "lon": -77.01998366666666, "name": "c82c70e0583c9b8b9a7b9da61af6313b"}, {"bike_id": "44d8afb99c17620be0b9b5403f93b134", "type": "electric_scooter", "is_disabled": 0, "lat": 38.91035216666667, "rental_uris": {"ios": "https://dc.lft.to/lastmile_qr_scan", "android": "https://dc.lft.to/lastmile_qr_scan"}, "is_reserved": 0, "fusion_lon": 0.0, "fusion_lat": 0.0, "lon": -77.03835433333333, "name": "44d8afb99c17620be0b9b5403f93b134"}, {"bike_id": "b168443004cd05805ef7b56185347ce4", "type": "electric_scooter", "is_disabled": 0, "lat": 38.91572883333333, "rental_uris": {"ios": "https://dc.lft.to/lastmile_qr_scan", "android": "https://dc.lft.to/lastmile_qr_scan"}, "is_reserved": 0, "fusion_lon": 0.0, "fusion_lat": 0.0, "lon": -77.02002483333334, "name": "b168443004cd05805ef7b56185347ce4"}, {"bike_id": "a1c816b9518f6dfe77eb395ea3ff426b", "type": "electric_scooter", "is_disabled": 0, "lat": 38.900439166666665, "rental_uris": {"ios": "https://dc.lft.to/lastmile_qr_scan", "android": "https://dc.lft.to/lastmile_qr_scan"}, "is_reserved": 0, "fusion_lon": 0.0, "fusion_lat": 0.0, "lon": -77.03322933333334, "name": "a1c816b9518f6dfe77eb395ea3ff426b"}, {"bike_id": "9db71639c6c44d7a4e4d2e3830b8283f", "type": "electric_scooter", "is_disabled": 0, "lat": 38.93426216666667, "rental_uris": {"ios": "https://dc.lft.to/lastmile_qr_scan", "android": "https://dc.lft.to/lastmile_qr_scan"}, "is_reserved": 0, "fusion_lon": 0.0, "fusion_lat": 0.0, "lon": -77.04002433333333, "name": "9db71639c6c44d7a4e4d2e3830b8283f"}, {"bike_id": "67fef29532bbc3f8544e7f0c242dc177", "type": "electric_scooter", "is_disabled": 0, "lat": 38.914131166666664, "rental_uris": {"ios": "https://dc.lft.to/lastmile_qr_scan", "android": "https://dc.lft.to/lastmile_qr_scan"}, "is_reserved": 0, "fusion_lon": 0.0, "fusion_lat": 0.0, "lon": -77.03239333333333, "name": "67fef29532bbc3f8544e7f0c242dc177"}, {"bike_id": "f4653cb715984fecd4a63ea84087be0b", "type": "electric_scooter", "is_disabled": 0, "lat": 38.9085155, "rental_uris": {"ios": "https://dc.lft.to/lastmile_qr_scan", "android": "https://dc.lft.to/lastmile_qr_scan"}, "is_reserved": 0, "fusion_lon": 0.0, "fusion_lat": 0.0, "lon": -76.997975, "name": "f4653cb715984fecd4a63ea84087be0b"}, {"bike_id": "fefc4b2e5b3686ea3a63ca4f47c455eb", "type": "electric_scooter", "is_disabled": 0, "lat": 38.900397166666664, "rental_uris": {"ios": "https://dc.lft.to/lastmile_qr_scan", "android": "https://dc.lft.to/lastmile_qr_scan"}, "is_reserved": 0, "fusion_lon": 0.0, "fusion_lat": 0.0, "lon": -77.0129085, "name": "fefc4b2e5b3686ea3a63ca4f47c455eb"}, {"bike_id": "8d8c43d512f7ef08990f64a007fc20f2", "type": "electric_scooter", "is_disabled": 0, "lat": 38.906259, "rental_uris": {"ios": "https://dc.lft.to/lastmile_qr_scan", "android": "https://dc.lft.to/lastmile_qr_scan"}, "is_reserved": 0, "fusion_lon": 0.0, "fusion_lat": 0.0, "lon": -77.0556155, "name": "8d8c43d512f7ef08990f64a007fc20f2"}, {"bike_id": "13da396814dc5b37afc79b2e477cb847", "type": "electric_scooter", "is_disabled": 0, "lat": 38.899097833333336, "rental_uris": {"ios": "https://dc.lft.to/lastmile_qr_scan", "android": "https://dc.lft.to/lastmile_qr_scan"}, "is_reserved": 0, "fusion_lon": 0.0, "fusion_lat": 0.0, "lon": -76.933793, "name": "13da396814dc5b37afc79b2e477cb847"}, {"bike_id": "e6162d5dad550a484863c36ee3818bdf", "type": "electric_scooter", "is_disabled": 0, "lat": 38.907295500000004, "rental_uris": {"ios": "https://dc.lft.to/lastmile_qr_scan", "android": "https://dc.lft.to/lastmile_qr_scan"}, "is_reserved": 0, "fusion_lon": 0.0, "fusion_lat": 0.0, "lon": -77.04324166666666, "name": "e6162d5dad550a484863c36ee3818bdf"}, {"bike_id": "d0586f54799f3a8197b10cd75ab572fa", "type": "electric_scooter", "is_disabled": 0, "lat": 38.910699, "rental_uris": {"ios": "https://dc.lft.to/lastmile_qr_scan", "android": "https://dc.lft.to/lastmile_qr_scan"}, "is_reserved": 0, "fusion_lon": 0.0, "fusion_lat": 0.0, "lon": -77.0273135, "name": "d0586f54799f3a8197b10cd75ab572fa"}, {"bike_id": "a370d789e808e9dd74af0613ac0651bf", "type": "electric_scooter", "is_disabled": 0, "lat": 38.90824516666667, "rental_uris": {"ios": "https://dc.lft.to/lastmile_qr_scan", "android": "https://dc.lft.to/lastmile_qr_scan"}, "is_reserved": 0, "fusion_lon": 0.0, "fusion_lat": 0.0, "lon": -77.06373333333333, "name": "a370d789e808e9dd74af0613ac0651bf"}, {"bike_id": "dc06f81dfd298195be4d10434ded862e", "type": "electric_scooter", "is_disabled": 0, "lat": 38.9168675, "rental_uris": {"ios": "https://dc.lft.to/lastmile_qr_scan", "android": "https://dc.lft.to/lastmile_qr_scan"}, "is_reserved": 0, "fusion_lon": 0.0, "fusion_lat": 0.0, "lon": -77.03157166666666, "name": "dc06f81dfd298195be4d10434ded862e"}, {"bike_id": "ed80d4f0d20fd410058c4a6bc79ecb7c", "type": "electric_scooter", "is_disabled": 0, "lat": 38.921449, "rental_uris": {"ios": "https://dc.lft.to/lastmile_qr_scan", "android": "https://dc.lft.to/lastmile_qr_scan"}, "is_reserved": 0, "fusion_lon": 0.0, "fusion_lat": 0.0, "lon": -77.017992, "name": "ed80d4f0d20fd410058c4a6bc79ecb7c"}, {"bike_id": "e84860ab024e134481913f20ca272229", "type": "electric_scooter", "is_disabled": 0, "lat": 38.923786, "rental_uris": {"ios": "https://dc.lft.to/lastmile_qr_scan", "android": "https://dc.lft.to/lastmile_qr_scan"}, "is_reserved": 0, "fusion_lon": 0.0, "fusion_lat": 0.0, "lon": -77.04113716666667, "name": "e84860ab024e134481913f20ca272229"}, {"bike_id": "108d4c1919f38c0118b3bba848484329", "type": "electric_scooter", "is_disabled": 0, "lat": 38.917022333333335, "rental_uris": {"ios": "https://dc.lft.to/lastmile_qr_scan", "android": "https://dc.lft.to/lastmile_qr_scan"}, "is_reserved": 0, "fusion_lon": 0.0, "fusion_lat": 0.0, "lon": -77.010191, "name": "108d4c1919f38c0118b3bba848484329"}, {"bike_id": "3fe50e32e9ccc0332dced8bb8ba5dbd5", "type": "electric_scooter", "is_disabled": 0, "lat": 38.920287, "rental_uris": {"ios": "https://dc.lft.to/lastmile_qr_scan", "android": "https://dc.lft.to/lastmile_qr_scan"}, "is_reserved": 0, "fusion_lon": 0.0, "fusion_lat": 0.0, "lon": -77.03126316666666, "name": "3fe50e32e9ccc0332dced8bb8ba5dbd5"}, {"bike_id": "f76430c86f3ea872504e490085c1224a", "type": "electric_scooter", "is_disabled": 0, "lat": 38.937312666666664, "rental_uris": {"ios": "https://dc.lft.to/lastmile_qr_scan", "android": "https://dc.lft.to/lastmile_qr_scan"}, "is_reserved": 0, "fusion_lon": 0.0, "fusion_lat": 0.0, "lon": -77.03299233333334, "name": "f76430c86f3ea872504e490085c1224a"}, {"bike_id": "f89e3f8a12a261054f0e370b34430130", "type": "electric_bike", "is_disabled": 0, "lat": 38.939713166666664, "rental_uris": {"ios": "https://dc.lft.to/lastmile_qr_scan", "android": "https://dc.lft.to/lastmile_qr_scan"}, "is_reserved": 0, "fusion_lon": 0.0, "fusion_lat": 0.0, "lon": -77.05255416666667, "name": "f89e3f8a12a261054f0e370b34430130"}, {"bike_id": "65768e8dcf64455b47d4826f90cf50b8", "type": "electric_scooter", "is_disabled": 0, "lat": 38.905092333333336, "rental_uris": {"ios": "https://dc.lft.to/lastmile_qr_scan", "android": "https://dc.lft.to/lastmile_qr_scan"}, "is_reserved": 0, "fusion_lon": 0.0, "fusion_lat": 0.0, "lon": -77.06201833333333, "name": "65768e8dcf64455b47d4826f90cf50b8"}, {"bike_id": "1f2dfd625a42f63f5f5421f25b5dc621", "type": "electric_scooter", "is_disabled": 0, "lat": 38.93793733333333, "rental_uris": {"ios": "https://dc.lft.to/lastmile_qr_scan", "android": "https://dc.lft.to/lastmile_qr_scan"}, "is_reserved": 0, "fusion_lon": 0.0, "fusion_lat": 0.0, "lon": -77.032948, "name": "1f2dfd625a42f63f5f5421f25b5dc621"}, {"bike_id": "137300e805fa02309ac652de13335226", "type": "electric_scooter", "is_disabled": 0, "lat": 38.938481333333335, "rental_uris": {"ios": "https://dc.lft.to/lastmile_qr_scan", "android": "https://dc.lft.to/lastmile_qr_scan"}, "is_reserved": 0, "fusion_lon": 0.0, "fusion_lat": 0.0, "lon": -77.03259383333334, "name": "137300e805fa02309ac652de13335226"}, {"bike_id": "c26542b777a595434f6cad4fc5990597", "type": "electric_scooter", "is_disabled": 0, "lat": 38.909074333333336, "rental_uris": {"ios": "https://dc.lft.to/lastmile_qr_scan", "android": "https://dc.lft.to/lastmile_qr_scan"}, "is_reserved": 0, "fusion_lon": 0.0, "fusion_lat": 0.0, "lon": -77.03185416666666, "name": "c26542b777a595434f6cad4fc5990597"}, {"bike_id": "ce67762786eae2eb39621bd875072cb5", "type": "electric_scooter", "is_disabled": 0, "lat": 38.89877166666667, "rental_uris": {"ios": "https://dc.lft.to/lastmile_qr_scan", "android": "https://dc.lft.to/lastmile_qr_scan"}, "is_reserved": 0, "fusion_lon": 0.0, "fusion_lat": 0.0, "lon": -76.93188116666667, "name": "ce67762786eae2eb39621bd875072cb5"}, {"bike_id": "e4940dda81afb0412695aee0cc25c196", "type": "electric_scooter", "is_disabled": 0, "lat": 38.906832, "rental_uris": {"ios": "https://dc.lft.to/lastmile_qr_scan", "android": "https://dc.lft.to/lastmile_qr_scan"}, "is_reserved": 0, "fusion_lon": 0.0, "fusion_lat": 0.0, "lon": -77.02697983333333, "name": "e4940dda81afb0412695aee0cc25c196"}, {"bike_id": "54b79f428b5bfb9ee40047ad5cc3a235", "type": "electric_scooter", "is_disabled": 0, "lat": 38.94178183333333, "rental_uris": {"ios": "https://dc.lft.to/lastmile_qr_scan", "android": "https://dc.lft.to/lastmile_qr_scan"}, "is_reserved": 0, "fusion_lon": 0.0, "fusion_lat": 0.0, "lon": -77.02889183333333, "name": "54b79f428b5bfb9ee40047ad5cc3a235"}, {"bike_id": "20e1e4e44c245bb2d75f6e5381cfc241", "type": "electric_scooter", "is_disabled": 0, "lat": 38.92262316666667, "rental_uris": {"ios": "https://dc.lft.to/lastmile_qr_scan", "android": "https://dc.lft.to/lastmile_qr_scan"}, "is_reserved": 0, "fusion_lon": 0.0, "fusion_lat": 0.0, "lon": -77.00047883333333, "name": "20e1e4e44c245bb2d75f6e5381cfc241"}, {"bike_id": "4b4f84faa10380f345a685816a2d2e4a", "type": "electric_scooter", "is_disabled": 0, "lat": 38.90212733333333, "rental_uris": {"ios": "https://dc.lft.to/lastmile_qr_scan", "android": "https://dc.lft.to/lastmile_qr_scan"}, "is_reserved": 0, "fusion_lon": 0.0, "fusion_lat": 0.0, "lon": -77.02319183333333, "name": "4b4f84faa10380f345a685816a2d2e4a"}, {"bike_id": "83ef143cf898b2f5020d6ea32eaf89ab", "type": "electric_scooter", "is_disabled": 0, "lat": 38.90010383333333, "rental_uris": {"ios": "https://dc.lft.to/lastmile_qr_scan", "android": "https://dc.lft.to/lastmile_qr_scan"}, "is_reserved": 0, "fusion_lon": 0.0, "fusion_lat": 0.0, "lon": -77.044911, "name": "83ef143cf898b2f5020d6ea32eaf89ab"}, {"bike_id": "c861687aac207520828214a5f76b1d71", "type": "electric_bike", "is_disabled": 0, "lat": 38.861953666666665, "rental_uris": {"ios": "https://dc.lft.to/lastmile_qr_scan", "android": "https://dc.lft.to/lastmile_qr_scan"}, "is_reserved": 0, "fusion_lon": 0.0, "fusion_lat": 0.0, "lon": -76.94806133333333, "name": "c861687aac207520828214a5f76b1d71"}, {"bike_id": "d55497fc73aa914853a4c4349dbf025d", "type": "electric_scooter", "is_disabled": 0, "lat": 38.88213283333333, "rental_uris": {"ios": "https://dc.lft.to/lastmile_qr_scan", "android": "https://dc.lft.to/lastmile_qr_scan"}, "is_reserved": 0, "fusion_lon": 0.0, "fusion_lat": 0.0, "lon": -76.98921833333333, "name": "d55497fc73aa914853a4c4349dbf025d"}, {"bike_id": "441c124d3379fab91d71d507fc0b5bce", "type": "electric_scooter", "is_disabled": 0, "lat": 38.955338166666664, "rental_uris": {"ios": "https://dc.lft.to/lastmile_qr_scan", "android": "https://dc.lft.to/lastmile_qr_scan"}, "is_reserved": 0, "fusion_lon": 0.0, "fusion_lat": 0.0, "lon": -77.02778233333333, "name": "441c124d3379fab91d71d507fc0b5bce"}, {"bike_id": "d8937ee0c0ea4a5f46ae7e0fb7be65d9", "type": "electric_bike", "is_disabled": 0, "lat": 38.8381175, "rental_uris": {"ios": "https://dc.lft.to/lastmile_qr_scan", "android": "https://dc.lft.to/lastmile_qr_scan"}, "is_reserved": 0, "fusion_lon": 0.0, "fusion_lat": 0.0, "lon": -77.09525433333333, "name": "d8937ee0c0ea4a5f46ae7e0fb7be65d9"}, {"bike_id": "e1584b4e41c274b4ca3eecd81da8d351", "type": "electric_scooter", "is_disabled": 0, "lat": 38.929122666666665, "rental_uris": {"ios": "https://dc.lft.to/lastmile_qr_scan", "android": "https://dc.lft.to/lastmile_qr_scan"}, "is_reserved": 0, "fusion_lon": 0.0, "fusion_lat": 0.0, "lon": -77.03185066666667, "name": "e1584b4e41c274b4ca3eecd81da8d351"}, {"bike_id": "3c07657219885ba5cf5634073d54fb01", "type": "electric_scooter", "is_disabled": 0, "lat": 38.90527066666667, "rental_uris": {"ios": "https://dc.lft.to/lastmile_qr_scan", "android": "https://dc.lft.to/lastmile_qr_scan"}, "is_reserved": 0, "fusion_lon": 0.0, "fusion_lat": 0.0, "lon": -77.04861266666667, "name": "3c07657219885ba5cf5634073d54fb01"}, {"bike_id": "df0173ee3078f26e323fcbf8120e7397", "type": "electric_scooter", "is_disabled": 0, "lat": 38.868885, "rental_uris": {"ios": "https://dc.lft.to/lastmile_qr_scan", "android": "https://dc.lft.to/lastmile_qr_scan"}, "is_reserved": 0, "fusion_lon": 0.0, "fusion_lat": 0.0, "lon": -76.984468, "name": "df0173ee3078f26e323fcbf8120e7397"}, {"bike_id": "088b0f7ba96bdcca82aca8b6a70832c2", "type": "electric_scooter", "is_disabled": 0, "lat": 38.92870933333333, "rental_uris": {"ios": "https://dc.lft.to/lastmile_qr_scan", "android": "https://dc.lft.to/lastmile_qr_scan"}, "is_reserved": 0, "fusion_lon": 0.0, "fusion_lat": 0.0, "lon": -77.03358916666667, "name": "088b0f7ba96bdcca82aca8b6a70832c2"}, {"bike_id": "5ccf2294cbd0d3978cce71b232c5fba1", "type": "electric_scooter", "is_disabled": 0, "lat": 38.96548533333333, "rental_uris": {"ios": "https://dc.lft.to/lastmile_qr_scan", "android": "https://dc.lft.to/lastmile_qr_scan"}, "is_reserved": 0, "fusion_lon": 0.0, "fusion_lat": 0.0, "lon": -77.036294, "name": "5ccf2294cbd0d3978cce71b232c5fba1"}, {"bike_id": "e9128492385f94f3fca892f6c75cfe7f", "type": "electric_scooter", "is_disabled": 0, "lat": 38.900589833333335, "rental_uris": {"ios": "https://dc.lft.to/lastmile_qr_scan", "android": "https://dc.lft.to/lastmile_qr_scan"}, "is_reserved": 0, "fusion_lon": 0.0, "fusion_lat": 0.0, "lon": -77.0513525, "name": "e9128492385f94f3fca892f6c75cfe7f"}, {"bike_id": "19e66aa69ceb9857b68eb8bd6bfccba0", "type": "electric_scooter", "is_disabled": 0, "lat": 38.86694966666666, "rental_uris": {"ios": "https://dc.lft.to/lastmile_qr_scan", "android": "https://dc.lft.to/lastmile_qr_scan"}, "is_reserved": 0, "fusion_lon": 0.0, "fusion_lat": 0.0, "lon": -76.985656, "name": "19e66aa69ceb9857b68eb8bd6bfccba0"}, {"bike_id": "98e933c8b87cd8053abba161ba28d68b", "type": "electric_scooter", "is_disabled": 0, "lat": 38.9254595, "rental_uris": {"ios": "https://dc.lft.to/lastmile_qr_scan", "android": "https://dc.lft.to/lastmile_qr_scan"}, "is_reserved": 0, "fusion_lon": 0.0, "fusion_lat": 0.0, "lon": -77.03356383333333, "name": "98e933c8b87cd8053abba161ba28d68b"}, {"bike_id": "d43beb18d644b8345fa65a3a1c69c5c2", "type": "electric_scooter", "is_disabled": 0, "lat": 38.90073433333333, "rental_uris": {"ios": "https://dc.lft.to/lastmile_qr_scan", "android": "https://dc.lft.to/lastmile_qr_scan"}, "is_reserved": 0, "fusion_lon": 0.0, "fusion_lat": 0.0, "lon": -77.019092, "name": "d43beb18d644b8345fa65a3a1c69c5c2"}, {"bike_id": "abd7039df349dc673ee41dca38aa922e", "type": "electric_scooter", "is_disabled": 0, "lat": 38.915003, "rental_uris": {"ios": "https://dc.lft.to/lastmile_qr_scan", "android": "https://dc.lft.to/lastmile_qr_scan"}, "is_reserved": 0, "fusion_lon": 0.0, "fusion_lat": 0.0, "lon": -77.0227905, "name": "abd7039df349dc673ee41dca38aa922e"}, {"bike_id": "34d230b5eb14b84c0ec4a037bd5ded98", "type": "electric_bike", "is_disabled": 0, "lat": 38.848478166666666, "rental_uris": {"ios": "https://dc.lft.to/lastmile_qr_scan", "android": "https://dc.lft.to/lastmile_qr_scan"}, "is_reserved": 0, "fusion_lon": 0.0, "fusion_lat": 0.0, "lon": -77.07908466666666, "name": "34d230b5eb14b84c0ec4a037bd5ded98"}, {"bike_id": "5fd34991b5c89d2686f5fd7a4b538e3c", "type": "electric_scooter", "is_disabled": 0, "lat": 38.8949645, "rental_uris": {"ios": "https://dc.lft.to/lastmile_qr_scan", "android": "https://dc.lft.to/lastmile_qr_scan"}, "is_reserved": 0, "fusion_lon": 0.0, "fusion_lat": 0.0, "lon": -76.93484883333333, "name": "5fd34991b5c89d2686f5fd7a4b538e3c"}, {"bike_id": "6fe69d28ab508a755acb35882837157d", "type": "electric_scooter", "is_disabled": 0, "lat": 38.9433405, "rental_uris": {"ios": "https://dc.lft.to/lastmile_qr_scan", "android": "https://dc.lft.to/lastmile_qr_scan"}, "is_reserved": 0, "fusion_lon": 0.0, "fusion_lat": 0.0, "lon": -77.06138983333334, "name": "6fe69d28ab508a755acb35882837157d"}, {"bike_id": "dc81beb2616b05abfb80950823b59f3e", "type": "electric_scooter", "is_disabled": 0, "lat": 38.9084885, "rental_uris": {"ios": "https://dc.lft.to/lastmile_qr_scan", "android": "https://dc.lft.to/lastmile_qr_scan"}, "is_reserved": 0, "fusion_lon": 0.0, "fusion_lat": 0.0, "lon": -77.02378383333334, "name": "dc81beb2616b05abfb80950823b59f3e"}, {"bike_id": "b185fbc3e1326c6796d19ee72d2a293c", "type": "electric_bike", "is_disabled": 0, "lat": 38.942592166666664, "rental_uris": {"ios": "https://dc.lft.to/lastmile_qr_scan", "android": "https://dc.lft.to/lastmile_qr_scan"}, "is_reserved": 0, "fusion_lon": 0.0, "fusion_lat": 0.0, "lon": -76.99072116666666, "name": "b185fbc3e1326c6796d19ee72d2a293c"}, {"bike_id": "b5e3265ac9a011cfe4e25a1b8257d5b4", "type": "electric_scooter", "is_disabled": 0, "lat": 38.951256, "rental_uris": {"ios": "https://dc.lft.to/lastmile_qr_scan", "android": "https://dc.lft.to/lastmile_qr_scan"}, "is_reserved": 0, "fusion_lon": 0.0, "fusion_lat": 0.0, "lon": -77.01438483333334, "name": "b5e3265ac9a011cfe4e25a1b8257d5b4"}, {"bike_id": "40a6a489b7a741acc1a7434e685f3790", "type": "electric_scooter", "is_disabled": 0, "lat": 38.8893255, "rental_uris": {"ios": "https://dc.lft.to/lastmile_qr_scan", "android": "https://dc.lft.to/lastmile_qr_scan"}, "is_reserved": 0, "fusion_lon": 0.0, "fusion_lat": 0.0, "lon": -76.93578416666666, "name": "40a6a489b7a741acc1a7434e685f3790"}, {"bike_id": "1a6eae3e7caec3a6ed03485766fabe27", "type": "electric_scooter", "is_disabled": 0, "lat": 38.902085, "rental_uris": {"ios": "https://dc.lft.to/lastmile_qr_scan", "android": "https://dc.lft.to/lastmile_qr_scan"}, "is_reserved": 0, "fusion_lon": 0.0, "fusion_lat": 0.0, "lon": -77.06122116666667, "name": "1a6eae3e7caec3a6ed03485766fabe27"}, {"bike_id": "ff70dbc6565f98a9a25f3b2ac3c31dda", "type": "electric_scooter", "is_disabled": 0, "lat": 38.909749833333336, "rental_uris": {"ios": "https://dc.lft.to/lastmile_qr_scan", "android": "https://dc.lft.to/lastmile_qr_scan"}, "is_reserved": 0, "fusion_lon": 0.0, "fusion_lat": 0.0, "lon": -77.04876083333333, "name": "ff70dbc6565f98a9a25f3b2ac3c31dda"}, {"bike_id": "d3d3696bcac75c064f5ed6a02946dada", "type": "electric_scooter", "is_disabled": 0, "lat": 38.90585166666666, "rental_uris": {"ios": "https://dc.lft.to/lastmile_qr_scan", "android": "https://dc.lft.to/lastmile_qr_scan"}, "is_reserved": 0, "fusion_lon": 0.0, "fusion_lat": 0.0, "lon": -77.03471783333333, "name": "d3d3696bcac75c064f5ed6a02946dada"}, {"bike_id": "254853cf921a4f318837c102fa849148", "type": "electric_scooter", "is_disabled": 0, "lat": 38.846431333333335, "rental_uris": {"ios": "https://dc.lft.to/lastmile_qr_scan", "android": "https://dc.lft.to/lastmile_qr_scan"}, "is_reserved": 0, "fusion_lon": 0.0, "fusion_lat": 0.0, "lon": -76.99133933333333, "name": "254853cf921a4f318837c102fa849148"}, {"bike_id": "c079f39aab5d2838b2f31a924bd9f156", "type": "electric_scooter", "is_disabled": 0, "lat": 38.903376333333334, "rental_uris": {"ios": "https://dc.lft.to/lastmile_qr_scan", "android": "https://dc.lft.to/lastmile_qr_scan"}, "is_reserved": 0, "fusion_lon": 0.0, "fusion_lat": 0.0, "lon": -77.04324716666666, "name": "c079f39aab5d2838b2f31a924bd9f156"}, {"bike_id": "01b7fdbf96232df0c2e32877d5f689ba", "type": "electric_scooter", "is_disabled": 0, "lat": 38.93289133333333, "rental_uris": {"ios": "https://dc.lft.to/lastmile_qr_scan", "android": "https://dc.lft.to/lastmile_qr_scan"}, "is_reserved": 0, "fusion_lon": 0.0, "fusion_lat": 0.0, "lon": -77.035347, "name": "01b7fdbf96232df0c2e32877d5f689ba"}, {"bike_id": "2cd4e54d0194559faaa518d70ef30bb0", "type": "electric_scooter", "is_disabled": 0, "lat": 38.90725233333333, "rental_uris": {"ios": "https://dc.lft.to/lastmile_qr_scan", "android": "https://dc.lft.to/lastmile_qr_scan"}, "is_reserved": 0, "fusion_lon": 0.0, "fusion_lat": 0.0, "lon": -77.04323966666666, "name": "2cd4e54d0194559faaa518d70ef30bb0"}, {"bike_id": "444c95f7a3ae8beeaa0dc0b12501dd94", "type": "electric_bike", "is_disabled": 0, "lat": 39.04305683333333, "rental_uris": {"ios": "https://dc.lft.to/lastmile_qr_scan", "android": "https://dc.lft.to/lastmile_qr_scan"}, "is_reserved": 0, "fusion_lon": 0.0, "fusion_lat": 0.0, "lon": -77.05160566666666, "name": "444c95f7a3ae8beeaa0dc0b12501dd94"}, {"bike_id": "fa6750ec54c907af89129f043c96b4cc", "type": "electric_scooter", "is_disabled": 0, "lat": 38.91405433333333, "rental_uris": {"ios": "https://dc.lft.to/lastmile_qr_scan", "android": "https://dc.lft.to/lastmile_qr_scan"}, "is_reserved": 0, "fusion_lon": 0.0, "fusion_lat": 0.0, "lon": -77.0317625, "name": "fa6750ec54c907af89129f043c96b4cc"}, {"bike_id": "42d25984d92f53e129a0b1eb2fc9782e", "type": "electric_scooter", "is_disabled": 0, "lat": 38.8936125, "rental_uris": {"ios": "https://dc.lft.to/lastmile_qr_scan", "android": "https://dc.lft.to/lastmile_qr_scan"}, "is_reserved": 0, "fusion_lon": 0.0, "fusion_lat": 0.0, "lon": -76.9493845, "name": "42d25984d92f53e129a0b1eb2fc9782e"}, {"bike_id": "a671b43689f638fcf200afe1130dc23d", "type": "electric_scooter", "is_disabled": 0, "lat": 38.92271383333333, "rental_uris": {"ios": "https://dc.lft.to/lastmile_qr_scan", "android": "https://dc.lft.to/lastmile_qr_scan"}, "is_reserved": 0, "fusion_lon": 0.0, "fusion_lat": 0.0, "lon": -77.04237716666667, "name": "a671b43689f638fcf200afe1130dc23d"}, {"bike_id": "d7a0f7bf17f7c6971761f246336a9ff2", "type": "electric_scooter", "is_disabled": 0, "lat": 38.91581816666667, "rental_uris": {"ios": "https://dc.lft.to/lastmile_qr_scan", "android": "https://dc.lft.to/lastmile_qr_scan"}, "is_reserved": 0, "fusion_lon": 0.0, "fusion_lat": 0.0, "lon": -77.050216, "name": "d7a0f7bf17f7c6971761f246336a9ff2"}, {"bike_id": "3f6f5b8642d478949f97ec3a947decdb", "type": "electric_scooter", "is_disabled": 0, "lat": 38.92791733333333, "rental_uris": {"ios": "https://dc.lft.to/lastmile_qr_scan", "android": "https://dc.lft.to/lastmile_qr_scan"}, "is_reserved": 0, "fusion_lon": 0.0, "fusion_lat": 0.0, "lon": -77.03207783333333, "name": "3f6f5b8642d478949f97ec3a947decdb"}, {"bike_id": "9410e3935d539a3ab67754b40f170c3e", "type": "electric_scooter", "is_disabled": 0, "lat": 38.92004433333334, "rental_uris": {"ios": "https://dc.lft.to/lastmile_qr_scan", "android": "https://dc.lft.to/lastmile_qr_scan"}, "is_reserved": 0, "fusion_lon": 0.0, "fusion_lat": 0.0, "lon": -77.0418695, "name": "9410e3935d539a3ab67754b40f170c3e"}, {"bike_id": "ffbd5f265b47af9c9d032e24cb1d4798", "type": "electric_scooter", "is_disabled": 0, "lat": 38.90366016666667, "rental_uris": {"ios": "https://dc.lft.to/lastmile_qr_scan", "android": "https://dc.lft.to/lastmile_qr_scan"}, "is_reserved": 0, "fusion_lon": 0.0, "fusion_lat": 0.0, "lon": -76.99944616666667, "name": "ffbd5f265b47af9c9d032e24cb1d4798"}, {"bike_id": "d935eec2441bc6a6a1905645d9503f9c", "type": "electric_scooter", "is_disabled": 0, "lat": 38.91811366666667, "rental_uris": {"ios": "https://dc.lft.to/lastmile_qr_scan", "android": "https://dc.lft.to/lastmile_qr_scan"}, "is_reserved": 0, "fusion_lon": 0.0, "fusion_lat": 0.0, "lon": -77.02475283333334, "name": "d935eec2441bc6a6a1905645d9503f9c"}, {"bike_id": "ed6abfef9de0ac47f0e908d53e94bfc2", "type": "electric_bike", "is_disabled": 0, "lat": 38.82380166666667, "rental_uris": {"ios": "https://dc.lft.to/lastmile_qr_scan", "android": "https://dc.lft.to/lastmile_qr_scan"}, "is_reserved": 0, "fusion_lon": 0.0, "fusion_lat": 0.0, "lon": -77.00228516666667, "name": "ed6abfef9de0ac47f0e908d53e94bfc2"}, {"bike_id": "9f242a963e72aa485e26f0825ff4f24b", "type": "electric_scooter", "is_disabled": 0, "lat": 38.9106155, "rental_uris": {"ios": "https://dc.lft.to/lastmile_qr_scan", "android": "https://dc.lft.to/lastmile_qr_scan"}, "is_reserved": 0, "fusion_lon": 0.0, "fusion_lat": 0.0, "lon": -77.04161833333333, "name": "9f242a963e72aa485e26f0825ff4f24b"}, {"bike_id": "6626c6b71c647bf496bf3b16c726c83c", "type": "electric_scooter", "is_disabled": 0, "lat": 38.87161483333333, "rental_uris": {"ios": "https://dc.lft.to/lastmile_qr_scan", "android": "https://dc.lft.to/lastmile_qr_scan"}, "is_reserved": 0, "fusion_lon": 0.0, "fusion_lat": 0.0, "lon": -77.01353883333333, "name": "6626c6b71c647bf496bf3b16c726c83c"}, {"bike_id": "3bc67f06e3c70a4e76a360594d383dee", "type": "electric_scooter", "is_disabled": 0, "lat": 38.888557166666665, "rental_uris": {"ios": "https://dc.lft.to/lastmile_qr_scan", "android": "https://dc.lft.to/lastmile_qr_scan"}, "is_reserved": 0, "fusion_lon": 0.0, "fusion_lat": 0.0, "lon": -77.00051183333333, "name": "3bc67f06e3c70a4e76a360594d383dee"}, {"bike_id": "2828ff992302e5ebbf6136fd9d8af665", "type": "electric_scooter", "is_disabled": 0, "lat": 38.890854833333336, "rental_uris": {"ios": "https://dc.lft.to/lastmile_qr_scan", "android": "https://dc.lft.to/lastmile_qr_scan"}, "is_reserved": 0, "fusion_lon": 0.0, "fusion_lat": 0.0, "lon": -77.0404285, "name": "2828ff992302e5ebbf6136fd9d8af665"}, {"bike_id": "893ad763a505e1345ddeea646f4ac960", "type": "electric_scooter", "is_disabled": 0, "lat": 38.903462166666664, "rental_uris": {"ios": "https://dc.lft.to/lastmile_qr_scan", "android": "https://dc.lft.to/lastmile_qr_scan"}, "is_reserved": 0, "fusion_lon": 0.0, "fusion_lat": 0.0, "lon": -77.06025316666667, "name": "893ad763a505e1345ddeea646f4ac960"}, {"bike_id": "f8d303dc8641b845cad5b22ab6d1ece6", "type": "electric_scooter", "is_disabled": 0, "lat": 38.91420083333333, "rental_uris": {"ios": "https://dc.lft.to/lastmile_qr_scan", "android": "https://dc.lft.to/lastmile_qr_scan"}, "is_reserved": 0, "fusion_lon": 0.0, "fusion_lat": 0.0, "lon": -77.02181466666667, "name": "f8d303dc8641b845cad5b22ab6d1ece6"}, {"bike_id": "79add80f65933fad16cd610e8d4ad06b", "type": "electric_scooter", "is_disabled": 0, "lat": 38.8637055, "rental_uris": {"ios": "https://dc.lft.to/lastmile_qr_scan", "android": "https://dc.lft.to/lastmile_qr_scan"}, "is_reserved": 0, "fusion_lon": 0.0, "fusion_lat": 0.0, "lon": -76.990603, "name": "79add80f65933fad16cd610e8d4ad06b"}, {"bike_id": "38c89ddaf9edafae915e2a94c16c5f04", "type": "electric_scooter", "is_disabled": 0, "lat": 38.86686566666667, "rental_uris": {"ios": "https://dc.lft.to/lastmile_qr_scan", "android": "https://dc.lft.to/lastmile_qr_scan"}, "is_reserved": 0, "fusion_lon": 0.0, "fusion_lat": 0.0, "lon": -76.98557666666666, "name": "38c89ddaf9edafae915e2a94c16c5f04"}, {"bike_id": "b566c5dc4e94e7aaafe2110e98f0182b", "type": "electric_scooter", "is_disabled": 0, "lat": 38.878376833333334, "rental_uris": {"ios": "https://dc.lft.to/lastmile_qr_scan", "android": "https://dc.lft.to/lastmile_qr_scan"}, "is_reserved": 0, "fusion_lon": 0.0, "fusion_lat": 0.0, "lon": -77.00606466666666, "name": "b566c5dc4e94e7aaafe2110e98f0182b"}, {"bike_id": "52e03c8487b23a5ae284f8b975074349", "type": "electric_scooter", "is_disabled": 0, "lat": 38.908460833333336, "rental_uris": {"ios": "https://dc.lft.to/lastmile_qr_scan", "android": "https://dc.lft.to/lastmile_qr_scan"}, "is_reserved": 0, "fusion_lon": 0.0, "fusion_lat": 0.0, "lon": -76.99800066666667, "name": "52e03c8487b23a5ae284f8b975074349"}, {"bike_id": "51f461a010bc287c0c4dca13e981d8fe", "type": "electric_scooter", "is_disabled": 0, "lat": 38.9191125, "rental_uris": {"ios": "https://dc.lft.to/lastmile_qr_scan", "android": "https://dc.lft.to/lastmile_qr_scan"}, "is_reserved": 0, "fusion_lon": 0.0, "fusion_lat": 0.0, "lon": -77.04249866666666, "name": "51f461a010bc287c0c4dca13e981d8fe"}, {"bike_id": "5e3453dc3671669442563aa73983ae5a", "type": "electric_scooter", "is_disabled": 0, "lat": 38.920353666666664, "rental_uris": {"ios": "https://dc.lft.to/lastmile_qr_scan", "android": "https://dc.lft.to/lastmile_qr_scan"}, "is_reserved": 0, "fusion_lon": 0.0, "fusion_lat": 0.0, "lon": -77.03136883333333, "name": "5e3453dc3671669442563aa73983ae5a"}, {"bike_id": "333629b750cd36e7b3d29cfd2bc6e6be", "type": "electric_scooter", "is_disabled": 0, "lat": 38.898406, "rental_uris": {"ios": "https://dc.lft.to/lastmile_qr_scan", "android": "https://dc.lft.to/lastmile_qr_scan"}, "is_reserved": 0, "fusion_lon": 0.0, "fusion_lat": 0.0, "lon": -76.94633666666667, "name": "333629b750cd36e7b3d29cfd2bc6e6be"}, {"bike_id": "7e6f47a6060a158377ac12f3ef2b87fd", "type": "electric_scooter", "is_disabled": 0, "lat": 38.896285166666665, "rental_uris": {"ios": "https://dc.lft.to/lastmile_qr_scan", "android": "https://dc.lft.to/lastmile_qr_scan"}, "is_reserved": 0, "fusion_lon": 0.0, "fusion_lat": 0.0, "lon": -77.03294666666666, "name": "7e6f47a6060a158377ac12f3ef2b87fd"}, {"bike_id": "1b489ece219999d9ea18866ddae51d67", "type": "electric_bike", "is_disabled": 0, "lat": 38.956390666666664, "rental_uris": {"ios": "https://dc.lft.to/lastmile_qr_scan", "android": "https://dc.lft.to/lastmile_qr_scan"}, "is_reserved": 0, "fusion_lon": 0.0, "fusion_lat": 0.0, "lon": -76.997945, "name": "1b489ece219999d9ea18866ddae51d67"}, {"bike_id": "80d87a14d072c35fb8cb23d2b97d2af1", "type": "electric_scooter", "is_disabled": 0, "lat": 38.900748, "rental_uris": {"ios": "https://dc.lft.to/lastmile_qr_scan", "android": "https://dc.lft.to/lastmile_qr_scan"}, "is_reserved": 0, "fusion_lon": 0.0, "fusion_lat": 0.0, "lon": -77.02469883333333, "name": "80d87a14d072c35fb8cb23d2b97d2af1"}, {"bike_id": "de722af8bbb8eb352dec7c22aeda825b", "type": "electric_scooter", "is_disabled": 0, "lat": 38.9235065, "rental_uris": {"ios": "https://dc.lft.to/lastmile_qr_scan", "android": "https://dc.lft.to/lastmile_qr_scan"}, "is_reserved": 0, "fusion_lon": 0.0, "fusion_lat": 0.0, "lon": -77.04136733333333, "name": "de722af8bbb8eb352dec7c22aeda825b"}, {"bike_id": "f886004487d4923a689d148adda9b386", "type": "electric_scooter", "is_disabled": 0, "lat": 38.9208525, "rental_uris": {"ios": "https://dc.lft.to/lastmile_qr_scan", "android": "https://dc.lft.to/lastmile_qr_scan"}, "is_reserved": 0, "fusion_lon": 0.0, "fusion_lat": 0.0, "lon": -77.00441783333333, "name": "f886004487d4923a689d148adda9b386"}, {"bike_id": "753a7a2b4522fcb319d6f1b93bba7a21", "type": "electric_scooter", "is_disabled": 0, "lat": 38.93889733333334, "rental_uris": {"ios": "https://dc.lft.to/lastmile_qr_scan", "android": "https://dc.lft.to/lastmile_qr_scan"}, "is_reserved": 0, "fusion_lon": 0.0, "fusion_lat": 0.0, "lon": -77.0282355, "name": "753a7a2b4522fcb319d6f1b93bba7a21"}, {"bike_id": "a88dc57ac25a97bc6d5044b51f15e0e2", "type": "electric_scooter", "is_disabled": 0, "lat": 38.92246883333333, "rental_uris": {"ios": "https://dc.lft.to/lastmile_qr_scan", "android": "https://dc.lft.to/lastmile_qr_scan"}, "is_reserved": 0, "fusion_lon": 0.0, "fusion_lat": 0.0, "lon": -77.03082233333333, "name": "a88dc57ac25a97bc6d5044b51f15e0e2"}, {"bike_id": "954355440ca26c4cd88402c283e6d669", "type": "electric_scooter", "is_disabled": 0, "lat": 38.911139166666665, "rental_uris": {"ios": "https://dc.lft.to/lastmile_qr_scan", "android": "https://dc.lft.to/lastmile_qr_scan"}, "is_reserved": 0, "fusion_lon": 0.0, "fusion_lat": 0.0, "lon": -77.0100415, "name": "954355440ca26c4cd88402c283e6d669"}, {"bike_id": "9bf01244808fea951dfdd6f0aabde9db", "type": "electric_scooter", "is_disabled": 0, "lat": 38.9025055, "rental_uris": {"ios": "https://dc.lft.to/lastmile_qr_scan", "android": "https://dc.lft.to/lastmile_qr_scan"}, "is_reserved": 0, "fusion_lon": 0.0, "fusion_lat": 0.0, "lon": -77.0348165, "name": "9bf01244808fea951dfdd6f0aabde9db"}, {"bike_id": "6289dab11f046d48a72682b3dc5ca13c", "type": "electric_scooter", "is_disabled": 0, "lat": 38.9227985, "rental_uris": {"ios": "https://dc.lft.to/lastmile_qr_scan", "android": "https://dc.lft.to/lastmile_qr_scan"}, "is_reserved": 0, "fusion_lon": 0.0, "fusion_lat": 0.0, "lon": -77.02241666666667, "name": "6289dab11f046d48a72682b3dc5ca13c"}, {"bike_id": "15711e7a29a554435b34509d9927d57c", "type": "electric_bike", "is_disabled": 0, "lat": 39.0136925, "rental_uris": {"ios": "https://dc.lft.to/lastmile_qr_scan", "android": "https://dc.lft.to/lastmile_qr_scan"}, "is_reserved": 0, "fusion_lon": 0.0, "fusion_lat": 0.0, "lon": -76.92137183333334, "name": "15711e7a29a554435b34509d9927d57c"}, {"bike_id": "50d3dbbed63a61bc36a4880832e44a99", "type": "electric_scooter", "is_disabled": 0, "lat": 38.91570683333333, "rental_uris": {"ios": "https://dc.lft.to/lastmile_qr_scan", "android": "https://dc.lft.to/lastmile_qr_scan"}, "is_reserved": 0, "fusion_lon": 0.0, "fusion_lat": 0.0, "lon": -77.0316375, "name": "50d3dbbed63a61bc36a4880832e44a99"}, {"bike_id": "1b7de6551cf0ca85499d1b04061d02e1", "type": "electric_scooter", "is_disabled": 0, "lat": 38.90059183333334, "rental_uris": {"ios": "https://dc.lft.to/lastmile_qr_scan", "android": "https://dc.lft.to/lastmile_qr_scan"}, "is_reserved": 0, "fusion_lon": 0.0, "fusion_lat": 0.0, "lon": -77.03649483333334, "name": "1b7de6551cf0ca85499d1b04061d02e1"}, {"bike_id": "05878b877500d3f5de110a0f5dae1de5", "type": "electric_bike", "is_disabled": 0, "lat": 39.039897833333335, "rental_uris": {"ios": "https://dc.lft.to/lastmile_qr_scan", "android": "https://dc.lft.to/lastmile_qr_scan"}, "is_reserved": 0, "fusion_lon": 0.0, "fusion_lat": 0.0, "lon": -76.999235, "name": "05878b877500d3f5de110a0f5dae1de5"}, {"bike_id": "136520c02874d54a56b7a5515962dca4", "type": "electric_scooter", "is_disabled": 0, "lat": 38.908131, "rental_uris": {"ios": "https://dc.lft.to/lastmile_qr_scan", "android": "https://dc.lft.to/lastmile_qr_scan"}, "is_reserved": 0, "fusion_lon": 0.0, "fusion_lat": 0.0, "lon": -77.0435065, "name": "136520c02874d54a56b7a5515962dca4"}, {"bike_id": "d9e859891daa07e692de712f9ee946b7", "type": "electric_scooter", "is_disabled": 0, "lat": 38.90697616666667, "rental_uris": {"ios": "https://dc.lft.to/lastmile_qr_scan", "android": "https://dc.lft.to/lastmile_qr_scan"}, "is_reserved": 0, "fusion_lon": 0.0, "fusion_lat": 0.0, "lon": -77.038109, "name": "d9e859891daa07e692de712f9ee946b7"}, {"bike_id": "8ca1ca83109ef5ce0beea110f195781b", "type": "electric_scooter", "is_disabled": 0, "lat": 38.902601, "rental_uris": {"ios": "https://dc.lft.to/lastmile_qr_scan", "android": "https://dc.lft.to/lastmile_qr_scan"}, "is_reserved": 0, "fusion_lon": 0.0, "fusion_lat": 0.0, "lon": -76.97549766666667, "name": "8ca1ca83109ef5ce0beea110f195781b"}, {"bike_id": "c9f747604d87353e19b857aa4758e6e2", "type": "electric_scooter", "is_disabled": 0, "lat": 38.922168166666665, "rental_uris": {"ios": "https://dc.lft.to/lastmile_qr_scan", "android": "https://dc.lft.to/lastmile_qr_scan"}, "is_reserved": 0, "fusion_lon": 0.0, "fusion_lat": 0.0, "lon": -77.03454416666666, "name": "c9f747604d87353e19b857aa4758e6e2"}, {"bike_id": "fc7c90fa63e4e028fba69a9ebc79356d", "type": "electric_scooter", "is_disabled": 0, "lat": 38.904916, "rental_uris": {"ios": "https://dc.lft.to/lastmile_qr_scan", "android": "https://dc.lft.to/lastmile_qr_scan"}, "is_reserved": 0, "fusion_lon": 0.0, "fusion_lat": 0.0, "lon": -76.98684216666666, "name": "fc7c90fa63e4e028fba69a9ebc79356d"}, {"bike_id": "1a8d1355b6f492b773d43003d4191fbe", "type": "electric_scooter", "is_disabled": 0, "lat": 38.897322833333334, "rental_uris": {"ios": "https://dc.lft.to/lastmile_qr_scan", "android": "https://dc.lft.to/lastmile_qr_scan"}, "is_reserved": 0, "fusion_lon": 0.0, "fusion_lat": 0.0, "lon": -77.054765, "name": "1a8d1355b6f492b773d43003d4191fbe"}, {"bike_id": "587736788657e826bf8438f28c1390f1", "type": "electric_scooter", "is_disabled": 0, "lat": 38.89987883333333, "rental_uris": {"ios": "https://dc.lft.to/lastmile_qr_scan", "android": "https://dc.lft.to/lastmile_qr_scan"}, "is_reserved": 0, "fusion_lon": 0.0, "fusion_lat": 0.0, "lon": -76.98826033333333, "name": "587736788657e826bf8438f28c1390f1"}, {"bike_id": "a69176f1e9b95cecfcd62f526317b3f3", "type": "electric_scooter", "is_disabled": 0, "lat": 38.961403, "rental_uris": {"ios": "https://dc.lft.to/lastmile_qr_scan", "android": "https://dc.lft.to/lastmile_qr_scan"}, "is_reserved": 0, "fusion_lon": 0.0, "fusion_lat": 0.0, "lon": -77.0299265, "name": "a69176f1e9b95cecfcd62f526317b3f3"}, {"bike_id": "e5965f233bb5f695ff6ce96e3c76dcb0", "type": "electric_bike", "is_disabled": 0, "lat": 38.92898366666667, "rental_uris": {"ios": "https://dc.lft.to/lastmile_qr_scan", "android": "https://dc.lft.to/lastmile_qr_scan"}, "is_reserved": 0, "fusion_lon": 0.0, "fusion_lat": 0.0, "lon": -77.03254683333333, "name": "e5965f233bb5f695ff6ce96e3c76dcb0"}, {"bike_id": "c9b159d1c9b5b90695f9cf6fabd4fdf4", "type": "electric_scooter", "is_disabled": 0, "lat": 38.9053025, "rental_uris": {"ios": "https://dc.lft.to/lastmile_qr_scan", "android": "https://dc.lft.to/lastmile_qr_scan"}, "is_reserved": 0, "fusion_lon": 0.0, "fusion_lat": 0.0, "lon": -77.04575466666667, "name": "c9b159d1c9b5b90695f9cf6fabd4fdf4"}, {"bike_id": "aa75757a33d97e591a6254e092ab471b", "type": "electric_scooter", "is_disabled": 0, "lat": 38.9291255, "rental_uris": {"ios": "https://dc.lft.to/lastmile_qr_scan", "android": "https://dc.lft.to/lastmile_qr_scan"}, "is_reserved": 0, "fusion_lon": 0.0, "fusion_lat": 0.0, "lon": -77.02091516666667, "name": "aa75757a33d97e591a6254e092ab471b"}, {"bike_id": "4410992478ccd10febcce8ed6249eacc", "type": "electric_scooter", "is_disabled": 0, "lat": 38.920801, "rental_uris": {"ios": "https://dc.lft.to/lastmile_qr_scan", "android": "https://dc.lft.to/lastmile_qr_scan"}, "is_reserved": 0, "fusion_lon": 0.0, "fusion_lat": 0.0, "lon": -77.023683, "name": "4410992478ccd10febcce8ed6249eacc"}, {"bike_id": "6a76852b6cb626dffb985d93197155e5", "type": "electric_scooter", "is_disabled": 0, "lat": 38.89882566666667, "rental_uris": {"ios": "https://dc.lft.to/lastmile_qr_scan", "android": "https://dc.lft.to/lastmile_qr_scan"}, "is_reserved": 0, "fusion_lon": 0.0, "fusion_lat": 0.0, "lon": -76.93177566666667, "name": "6a76852b6cb626dffb985d93197155e5"}, {"bike_id": "81f92f6e977aa687476a99cab4a494f2", "type": "electric_scooter", "is_disabled": 0, "lat": 38.913264166666664, "rental_uris": {"ios": "https://dc.lft.to/lastmile_qr_scan", "android": "https://dc.lft.to/lastmile_qr_scan"}, "is_reserved": 0, "fusion_lon": 0.0, "fusion_lat": 0.0, "lon": -77.04730983333333, "name": "81f92f6e977aa687476a99cab4a494f2"}, {"bike_id": "ab06770c5fe12d81e5c1ae490e19f349", "type": "electric_scooter", "is_disabled": 0, "lat": 38.8998025, "rental_uris": {"ios": "https://dc.lft.to/lastmile_qr_scan", "android": "https://dc.lft.to/lastmile_qr_scan"}, "is_reserved": 0, "fusion_lon": 0.0, "fusion_lat": 0.0, "lon": -77.00659566666667, "name": "ab06770c5fe12d81e5c1ae490e19f349"}, {"bike_id": "f714cce02a8566caed26e5990081f004", "type": "electric_scooter", "is_disabled": 0, "lat": 38.9441365, "rental_uris": {"ios": "https://dc.lft.to/lastmile_qr_scan", "android": "https://dc.lft.to/lastmile_qr_scan"}, "is_reserved": 0, "fusion_lon": 0.0, "fusion_lat": 0.0, "lon": -77.063231, "name": "f714cce02a8566caed26e5990081f004"}, {"bike_id": "51d11276475fbc75f308116fac3a10f6", "type": "electric_scooter", "is_disabled": 0, "lat": 38.90567583333333, "rental_uris": {"ios": "https://dc.lft.to/lastmile_qr_scan", "android": "https://dc.lft.to/lastmile_qr_scan"}, "is_reserved": 0, "fusion_lon": 0.0, "fusion_lat": 0.0, "lon": -77.0049865, "name": "51d11276475fbc75f308116fac3a10f6"}, {"bike_id": "cdfcdfbf524bbdca831f9b7d4a84fd8c", "type": "electric_scooter", "is_disabled": 0, "lat": 38.924250666666666, "rental_uris": {"ios": "https://dc.lft.to/lastmile_qr_scan", "android": "https://dc.lft.to/lastmile_qr_scan"}, "is_reserved": 0, "fusion_lon": 0.0, "fusion_lat": 0.0, "lon": -77.029659, "name": "cdfcdfbf524bbdca831f9b7d4a84fd8c"}, {"bike_id": "af0a126a02f761ee831907b848b69d64", "type": "electric_scooter", "is_disabled": 0, "lat": 38.9048965, "rental_uris": {"ios": "https://dc.lft.to/lastmile_qr_scan", "android": "https://dc.lft.to/lastmile_qr_scan"}, "is_reserved": 0, "fusion_lon": 0.0, "fusion_lat": 0.0, "lon": -77.028237, "name": "af0a126a02f761ee831907b848b69d64"}, {"bike_id": "f30cea29565f7e311558e5e939e5b97a", "type": "electric_scooter", "is_disabled": 0, "lat": 38.916759666666664, "rental_uris": {"ios": "https://dc.lft.to/lastmile_qr_scan", "android": "https://dc.lft.to/lastmile_qr_scan"}, "is_reserved": 0, "fusion_lon": 0.0, "fusion_lat": 0.0, "lon": -77.02966166666667, "name": "f30cea29565f7e311558e5e939e5b97a"}, {"bike_id": "155a306a772308e8ba2b6de8dfa2dc19", "type": "electric_scooter", "is_disabled": 0, "lat": 38.907302666666666, "rental_uris": {"ios": "https://dc.lft.to/lastmile_qr_scan", "android": "https://dc.lft.to/lastmile_qr_scan"}, "is_reserved": 0, "fusion_lon": 0.0, "fusion_lat": 0.0, "lon": -77.04325666666666, "name": "155a306a772308e8ba2b6de8dfa2dc19"}, {"bike_id": "f3c281b0ba0bd6197e824fe2feb4e745", "type": "electric_scooter", "is_disabled": 0, "lat": 38.902847, "rental_uris": {"ios": "https://dc.lft.to/lastmile_qr_scan", "android": "https://dc.lft.to/lastmile_qr_scan"}, "is_reserved": 0, "fusion_lon": 0.0, "fusion_lat": 0.0, "lon": -77.0033365, "name": "f3c281b0ba0bd6197e824fe2feb4e745"}, {"bike_id": "ee9f691262e0fa6670d5d1d7a63fbbf5", "type": "electric_scooter", "is_disabled": 0, "lat": 38.898891666666664, "rental_uris": {"ios": "https://dc.lft.to/lastmile_qr_scan", "android": "https://dc.lft.to/lastmile_qr_scan"}, "is_reserved": 0, "fusion_lon": 0.0, "fusion_lat": 0.0, "lon": -76.93177033333333, "name": "ee9f691262e0fa6670d5d1d7a63fbbf5"}, {"bike_id": "f21e03b4af90f697f09ffcbdaa439993", "type": "electric_scooter", "is_disabled": 0, "lat": 38.9081675, "rental_uris": {"ios": "https://dc.lft.to/lastmile_qr_scan", "android": "https://dc.lft.to/lastmile_qr_scan"}, "is_reserved": 0, "fusion_lon": 0.0, "fusion_lat": 0.0, "lon": -77.0637455, "name": "f21e03b4af90f697f09ffcbdaa439993"}, {"bike_id": "3c1342863f11cb708de3755a651f658d", "type": "electric_bike", "is_disabled": 0, "lat": 38.809073166666664, "rental_uris": {"ios": "https://dc.lft.to/lastmile_qr_scan", "android": "https://dc.lft.to/lastmile_qr_scan"}, "is_reserved": 0, "fusion_lon": 0.0, "fusion_lat": 0.0, "lon": -77.08659683333333, "name": "3c1342863f11cb708de3755a651f658d"}, {"bike_id": "df077c0838aa75633a974e0491d1d76b", "type": "electric_scooter", "is_disabled": 0, "lat": 38.90678316666666, "rental_uris": {"ios": "https://dc.lft.to/lastmile_qr_scan", "android": "https://dc.lft.to/lastmile_qr_scan"}, "is_reserved": 0, "fusion_lon": 0.0, "fusion_lat": 0.0, "lon": -77.05327833333334, "name": "df077c0838aa75633a974e0491d1d76b"}, {"bike_id": "8adf12fb3212a8aae58a220afb964c09", "type": "electric_scooter", "is_disabled": 0, "lat": 38.90141466666667, "rental_uris": {"ios": "https://dc.lft.to/lastmile_qr_scan", "android": "https://dc.lft.to/lastmile_qr_scan"}, "is_reserved": 0, "fusion_lon": 0.0, "fusion_lat": 0.0, "lon": -77.01521366666667, "name": "8adf12fb3212a8aae58a220afb964c09"}, {"bike_id": "138735040921508da1406cc8e1a5a760", "type": "electric_scooter", "is_disabled": 0, "lat": 38.92852966666667, "rental_uris": {"ios": "https://dc.lft.to/lastmile_qr_scan", "android": "https://dc.lft.to/lastmile_qr_scan"}, "is_reserved": 0, "fusion_lon": 0.0, "fusion_lat": 0.0, "lon": -77.019443, "name": "138735040921508da1406cc8e1a5a760"}, {"bike_id": "da112d9acf0b655df670a87c592b8371", "type": "electric_scooter", "is_disabled": 0, "lat": 38.9208495, "rental_uris": {"ios": "https://dc.lft.to/lastmile_qr_scan", "android": "https://dc.lft.to/lastmile_qr_scan"}, "is_reserved": 0, "fusion_lon": 0.0, "fusion_lat": 0.0, "lon": -77.02534966666667, "name": "da112d9acf0b655df670a87c592b8371"},