{"data": {"bikes": [{"lat": 38.900219, "is_disabled": 0, "type": "electric_scooter", "lon": -76.99837133333334, "bike_id": "870d49a94196977d9994ce1acb152122", "fusion_lat": 0.0, "name": "870d49a94196977d9994ce1acb152122", "is_reserved": 0, "rental_uris": {"android": "https://dc.lft.to/lastmile_qr_scan", "ios": "https://dc.lft.to/lastmile_qr_scan"}, "fusion_lon": 0.0}, {"lat": 38.9498935, "is_disabled": 0, "type": "electric_bike", "lon": -77.0296135, "bike_id": "305020857c926f69ba6892f41c3d8bd6", "fusion_lat": 0.0, "name": "305020857c926f69ba6892f41c3d8bd6", "is_reserved": 0, "rental_uris": {"android": "https://dc.lft.to/lastmile_qr_scan", "ios": "https://dc.lft.to/lastmile_qr_scan"}, "fusion_lon": 0.0}, {"lat": 38.91141833333333, "is_disabled": 0, "type": "electric_scooter", "lon": -77.01883233333334, "bike_id": "96bd301e8788884339de0cb342c069c9", "fusion_lat": 0.0, "name": "96bd301e8788884339de0cb342c069c9", "is_reserved": 0, "rental_uris": {"android": "https://dc.lft.to/lastmile_qr_scan", "ios": "https://dc.lft.to/lastmile_qr_scan"}, "fusion_lon": 0.0}, {"lat": 38.93086366666667, "is_disabled": 0, "type": "electric_scooter", "lon": -77.02563783333333, "bike_id": "e264e618d25e41b4f6d7739a206e071f", "fusion_lat": 0.0, "name": "e264e618d25e41b4f6d7739a206e071f", "is_reserved": 0, "rental_uris": {"android": "https://dc.lft.to/lastmile_qr_scan", "ios": "https://dc.lft.to/lastmile_qr_scan"}, "fusion_lon": 0.0}, {"lat": 38.969333666666664, "is_disabled": 0, "type": "electric_bike", "lon": -77.02621366666666, "bike_id": "d0e4f17582d7f565be4b7ed0f42fb33f", "fusion_lat": 0.0, "name": "d0e4f17582d7f565be4b7ed0f42fb33f", "is_reserved": 0, "rental_uris": {"android": "https://dc.lft.to/lastmile_qr_scan", "ios": "https://dc.lft.to/lastmile_qr_scan"}, "fusion_lon": 0.0}, {"lat": 38.916030166666665, "is_disabled": 0, "type": "electric_scooter", "lon": -77.04512016666666, "bike_id": "a0023f5dcba30a33c5b68920145425fb", "fusion_lat": 0.0, "name": "a0023f5dcba30a33c5b68920145425fb", "is_reserved": 0, "rental_uris": {"android": "https://dc.lft.to/lastmile_qr_scan", "ios": "https://dc.lft.to/lastmile_qr_scan"}, "fusion_lon": 0.0}, {"lat": 38.87376, "is_disabled": 0, "type": "electric_bike", "lon": -77.11800116666667, "bike_id": "44270b82ad46dc2fbe98de378c79f8f7", "fusion_lat": 0.0, "name": "44270b82ad46dc2fbe98de378c79f8f7", "is_reserved": 0, "rental_uris": {"android": "https://dc.lft.to/lastmile_qr_scan", "ios": "https://dc.lft.to/lastmile_qr_scan"}, "fusion_lon": 0.0}, {"lat": 38.89834333333334, "is_disabled": 0, "type": "electric_scooter", "lon": -76.9310125, "bike_id": "e1b64e609349b6bcd1db2a5159f79b2f", "fusion_lat": 0.0, "name": "e1b64e609349b6bcd1db2a5159f79b2f", "is_reserved": 0, "rental_uris": {"android": "https://dc.lft.to/lastmile_qr_scan", "ios": "https://dc.lft.to/lastmile_qr_scan"}, "fusion_lon": 0.0}, {"lat": 38.90557183333333, "is_disabled": 0, "type": "electric_scooter", "lon": -77.02487183333334, "bike_id": "381fcfdb55eb31a3ef1678925afb0819", "fusion_lat": 0.0, "name": "381fcfdb55eb31a3ef1678925afb0819", "is_reserved": 0, "rental_uris": {"android": "https://dc.lft.to/lastmile_qr_scan", "ios": "https://dc.lft.to/lastmile_qr_scan"}, "fusion_lon": 0.0}, {"lat": 38.90680316666667, "is_disabled": 0, "type": "electric_scooter", "lon": -77.037642, "bike_id": "b4a8c2ad266b0b4107fb6c00305a8553", "fusion_lat": 0.0, "name": "b4a8c2ad266b0b4107fb6c00305a8553", "is_reserved": 0, "rental_uris": {"android": "https://dc.lft.to/lastmile_qr_scan", "ios": "https://dc.lft.to/lastmile_qr_scan"}, "fusion_lon": 0.0}, {"lat": 38.896242666666666, "is_disabled": 0, "type": "electric_scooter", "lon": -77.03163983333333, "bike_id": "8186d9b5b64dae416c0119879051a517", "fusion_lat": 0.0, "name": "8186d9b5b64dae416c0119879051a517", "is_reserved": 0, "rental_uris": {"android": "https://dc.lft.to/lastmile_qr_scan", "ios": "https://dc.lft.to/lastmile_qr_scan"}, "fusion_lon": 0.0}, {"lat": 38.9210865, "is_disabled": 0, "type": "electric_scooter", "lon": -77.04361116666666, "bike_id": "3038d12fab72bf85dbcee5d46fe1a2f3", "fusion_lat": 0.0, "name": "3038d12fab72bf85dbcee5d46fe1a2f3", "is_reserved": 0, "rental_uris": {"android": "https://dc.lft.to/lastmile_qr_scan", "ios": "https://dc.lft.to/lastmile_qr_scan"}, "fusion_lon": 0.0}, {"lat": 38.947917, "is_disabled": 0, "type": "electric_scooter", "lon": -77.02172233333333, "bike_id": "fb6591623e896a8dcca2798dbc790f1d", "fusion_lat": 0.0, "name": "fb6591623e896a8dcca2798dbc790f1d", "is_reserved": 0, "rental_uris": {"android": "https://dc.lft.to/lastmile_qr_scan", "ios": "https://dc.lft.to/lastmile_qr_scan"}, "fusion_lon": 0.0}, {"lat": 38.90978166666667, "is_disabled": 0, "type": "electric_scooter", "lon": -77.03445066666667, "bike_id": "603a0d21743940c83b7b15fb63c78c74", "fusion_lat": 0.0, "name": "603a0d21743940c83b7b15fb63c78c74", "is_reserved": 0, "rental_uris": {"android": "https://dc.lft.to/lastmile_qr_scan", "ios": "https://dc.lft.to/lastmile_qr_scan"}, "fusion_lon": 0.0}, {"lat": 38.90111983333333, "is_disabled": 0, "type": "electric_scooter", "lon": -76.9962305, "bike_id": "54c67cbc4f94eac056abeb8c20cdcbc1", "fusion_lat": 0.0, "name": "54c67cbc4f94eac056abeb8c20cdcbc1", "is_reserved": 0, "rental_uris": {"android": "https://dc.lft.to/lastmile_qr_scan", "ios": "https://dc.lft.to/lastmile_qr_scan"}, "fusion_lon": 0.0}, {"lat": 38.92183033333333, "is_disabled": 0, "type": "electric_scooter", "lon": -77.047103, "bike_id": "0b9e7b665dbb6d6ef2c51df69734f312", "fusion_lat": 0.0, "name": "0b9e7b665dbb6d6ef2c51df69734f312", "is_reserved": 0, "rental_uris": {"android": "https://dc.lft.to/lastmile_qr_scan", "ios": "https://dc.lft.to/lastmile_qr_scan"}, "fusion_lon": 0.0}, {"lat": 38.9029615, "is_disabled": 0, "type": "electric_scooter", "lon": -77.04005316666667, "bike_id": "d5a87326afaae7ef86a48903161f30ea", "fusion_lat": 0.0, "name": "d5a87326afaae7ef86a48903161f30ea", "is_reserved": 0, "rental_uris": {"android": "https://dc.lft.to/lastmile_qr_scan", "ios": "https://dc.lft.to/lastmile_qr_scan"}, "fusion_lon": 0.0}, {"lat": 38.92464783333333, "is_disabled": 0, "type": "electric_scooter", "lon": -77.03912133333333, "bike_id": "c08ad42d646436ad5a1e16b03746aa74", "fusion_lat": 0.0, "name": "c08ad42d646436ad5a1e16b03746aa74", "is_reserved": 0, "rental_uris": {"android": "https://dc.lft.to/lastmile_qr_scan", "ios": "https://dc.lft.to/lastmile_qr_scan"}, "fusion_lon": 0.0}, {"lat": 38.93743583333333, "is_disabled": 0, "type": "electric_scooter", "lon": -77.03473, "bike_id": "69a675ac4b9cf4496748ece14ab55af3", "fusion_lat": 0.0, "name": "69a675ac4b9cf4496748ece14ab55af3", "is_reserved": 0, "rental_uris": {"android": "https://dc.lft.to/lastmile_qr_scan", "ios": "https://dc.lft.to/lastmile_qr_scan"}, "fusion_lon": 0.0}, {"lat": 38.909560166666665, "is_disabled": 0, "type": "electric_scooter", "lon": -77.02278666666666, "bike_id": "dc36a001c3bd72db010f6fe46edab375", "fusion_lat": 0.0, "name": "dc36a001c3bd72db010f6fe46edab375", "is_reserved": 0, "rental_uris": {"android": "https://dc.lft.to/lastmile_qr_scan", "ios": "https://dc.lft.to/lastmile_qr_scan"}, "fusion_lon": 0.0}, {"lat": 38.89720916666667, "is_disabled": 0, "type": "electric_scooter", "lon": -77.0471385, "bike_id": "86cbba698d51d85010977a956d8032ad", "fusion_lat": 0.0, "name": "86cbba698d51d85010977a956d8032ad", "is_reserved": 0, "rental_uris": {"android": "https://dc.lft.to/lastmile_qr_scan", "ios": "https://dc.lft.to/lastmile_qr_scan"}, "fusion_lon": 0.0}, {"lat": 38.892218166666666, "is_disabled": 0, "type": "electric_scooter", "lon": -77.03162533333334, "bike_id": "b1eaef63155886b35c210d38df3212ea", "fusion_lat": 0.0, "name": "b1eaef63155886b35c210d38df3212ea", "is_reserved": 0, "rental_uris": {"android": "https://dc.lft.to/lastmile_qr_scan", "ios": "https://dc.lft.to/lastmile_qr_scan"}, "fusion_lon": 0.0}, {"lat": 38.885753, "is_disabled": 0, "type": "electric_scooter", "lon": -76.919118, "bike_id": "8a68656f417a17076ff57c9166dc06fb", "fusion_lat": 0.0, "name": "8a68656f417a17076ff57c9166dc06fb", "is_reserved": 0, "rental_uris": {"android": "https://dc.lft.to/lastmile_qr_scan", "ios": "https://dc.lft.to/lastmile_qr_scan"}, "fusion_lon": 0.0}, {"lat": 38.9275295, "is_disabled": 0, "type": "electric_scooter", "lon": -77.0242375, "bike_id": "baa44a83117ce92c4ba06e2f666138ac", "fusion_lat": 0.0, "name": "baa44a83117ce92c4ba06e2f666138ac", "is_reserved": 0, "rental_uris": {"android": "https://dc.lft.to/lastmile_qr_scan", "ios": "https://dc.lft.to/lastmile_qr_scan"}, "fusion_lon": 0.0}, {"lat": 38.90364133333333, "is_disabled": 0, "type": "electric_scooter", "lon": -77.04504016666667, "bike_id": "1969f75dec6994432d564feebd5dfe2e", "fusion_lat": 0.0, "name": "1969f75dec6994432d564feebd5dfe2e", "is_reserved": 0, "rental_uris": {"android": "https://dc.lft.to/lastmile_qr_scan", "ios": "https://dc.lft.to/lastmile_qr_scan"}, "fusion_lon": 0.0}, {"lat": 38.9101375, "is_disabled": 0, "type": "electric_scooter", "lon": -77.0343955, "bike_id": "b5fb3271d978fed229c6bf99c4e314d8", "fusion_lat": 0.0, "name": "b5fb3271d978fed229c6bf99c4e314d8", "is_reserved": 0, "rental_uris": {"android": "https://dc.lft.to/lastmile_qr_scan", "ios": "https://dc.lft.to/lastmile_qr_scan"}, "fusion_lon": 0.0}, {"lat": 38.90242766666667, "is_disabled": 0, "type": "electric_scooter", "lon": -77.04517283333334, "bike_id": "3f8cf0cbb47af3461d196006714052d3", "fusion_lat": 0.0, "name": "3f8cf0cbb47af3461d196006714052d3", "is_reserved": 0, "rental_uris": {"android": "https://dc.lft.to/lastmile_qr_scan", "ios": "https://dc.lft.to/lastmile_qr_scan"}, "fusion_lon": 0.0}, {"lat": 38.89071833333333, "is_disabled": 0, "type": "electric_scooter", "lon": -76.98835783333334, "bike_id": "b1d0f4739ae6e1291537b232b0dbfe14", "fusion_lat": 0.0, "name": "b1d0f4739ae6e1291537b232b0dbfe14", "is_reserved": 0, "rental_uris": {"android": "https://dc.lft.to/lastmile_qr_scan", "ios": "https://dc.lft.to/lastmile_qr_scan"}, "fusion_lon": 0.0}, {"lat": 38.91118933333333, "is_disabled": 0, "type": "electric_scooter", "lon": -77.04358616666667, "bike_id": "b485b3ea3b2dcfce8939fa4df7f877ce", "fusion_lat": 0.0, "name": "b485b3ea3b2dcfce8939fa4df7f877ce", "is_reserved": 0, "rental_uris": {"android": "https://dc.lft.to/lastmile_qr_scan", "ios": "https://dc.lft.to/lastmile_qr_scan"}, "fusion_lon": 0.0}, {"lat": 38.85711416666667, "is_disabled": 0, "type": "electric_scooter", "lon": -76.9867105, "bike_id": "cdcbdec62550fa75d03a7794c1a1e936", "fusion_lat": 0.0, "name": "cdcbdec62550fa75d03a7794c1a1e936", "is_reserved": 0, "rental_uris": {"android": "https://dc.lft.to/lastmile_qr_scan", "ios": "https://dc.lft.to/lastmile_qr_scan"}, "fusion_lon": 0.0}, {"lat": 38.9454855, "is_disabled": 0, "type": "electric_bike", "lon": -76.89536733333334, "bike_id": "b9a029a2c659cd6e7a330ea542310a4b", "fusion_lat": 0.0, "name": "b9a029a2c659cd6e7a330ea542310a4b", "is_reserved": 0, "rental_uris": {"android": "https://dc.lft.to/lastmile_qr_scan", "ios": "https://dc.lft.to/lastmile_qr_scan"}, "fusion_lon": 0.0}, {"lat": 38.85196116666667, "is_disabled": 0, "type": "electric_scooter", "lon": -76.97632, "bike_id": "928d4a4b45d4e72d9b351500294b2080", "fusion_lat": 0.0, "name": "928d4a4b45d4e72d9b351500294b2080", "is_reserved": 0, "rental_uris": {"android": "https://dc.lft.to/lastmile_qr_scan", "ios": "https://dc.lft.to/lastmile_qr_scan"}, "fusion_lon": 0.0}, {"lat": 38.93652383333333, "is_disabled": 0, "type": "electric_bike", "lon": -76.95216016666667, "bike_id": "52790941d1a81b0066e6e0424a83ae2d", "fusion_lat": 0.0, "name": "52790941d1a81b0066e6e0424a83ae2d", "is_reserved": 0, "rental_uris": {"android": "https://dc.lft.to/lastmile_qr_scan", "ios": "https://dc.lft.to/lastmile_qr_scan"}, "fusion_lon": 0.0}, {"lat": 38.90568366666667, "is_disabled": 0, "type": "electric_scooter", "lon": -77.03415466666667, "bike_id": "aedc94c5116e7bdd66d9fe15db8dccfa", "fusion_lat": 0.0, "name": "aedc94c5116e7bdd66d9fe15db8dccfa", "is_reserved": 0, "rental_uris": {"android": "https://dc.lft.to/lastmile_qr_scan", "ios": "https://dc.lft.to/lastmile_qr_scan"}, "fusion_lon": 0.0}, {"lat": 39.034284, "is_disabled": 0, "type": "electric_bike", "lon": -77.04302566666667, "bike_id": "defc1de0914a68274794126a9791363e", "fusion_lat": 0.0, "name": "defc1de0914a68274794126a9791363e", "is_reserved": 0, "rental_uris": {"android": "https://dc.lft.to/lastmile_qr_scan", "ios": "https://dc.lft.to/lastmile_qr_scan"}, "fusion_lon": 0.0}, {"lat": 38.899791, "is_disabled": 0, "type": "electric_scooter", "lon": -77.046483, "bike_id": "0038435d9bab25f78c28718ebc9f5a51", "fusion_lat": 0.0, "name": "0038435d9bab25f78c28718ebc9f5a51", "is_reserved": 0, "rental_uris": {"android": "https://dc.lft.to/lastmile_qr_scan", "ios": "https://dc.lft.to/lastmile_qr_scan"}, "fusion_lon": 0.0}, {"lat": 38.93690566666667, "is_disabled": 0, "type": "electric_scooter", "lon": -77.024141, "bike_id": "79e93b2c4d55ba16b2bd7c428e517d69", "fusion_lat": 0.0, "name": "79e93b2c4d55ba16b2bd7c428e517d69", "is_reserved": 0, "rental_uris": {"android": "https://dc.lft.to/lastmile_qr_scan", "ios": "https://dc.lft.to/lastmile_qr_scan"}, "fusion_lon": 0.0}, {"lat": 38.908761, "is_disabled": 0, "type": "electric_scooter", "lon": -77.043658, "bike_id": "92625f4aa1128cd65e11e3d74c849d9a", "fusion_lat": 0.0, "name": "92625f4aa1128cd65e11e3d74c849d9a", "is_reserved": 0, "rental_uris": {"android": "https://dc.lft.to/lastmile_qr_scan", "ios": "https://dc.lft.to/lastmile_qr_scan"}, "fusion_lon": 0.0}, {"lat": 38.90971583333334, "is_disabled": 0, "type": "electric_scooter", "lon": -77.04622083333334, "bike_id": "624f55735317b9883100fda3b3bf0c41", "fusion_lat": 0.0, "name": "624f55735317b9883100fda3b3bf0c41", "is_reserved": 0, "rental_uris": {"android": "https://dc.lft.to/lastmile_qr_scan", "ios": "https://dc.lft.to/lastmile_qr_scan"}, "fusion_lon": 0.0}, {"lat": 38.925848, "is_disabled": 0, "type": "electric_scooter", "lon": -77.04410583333333, "bike_id": "d8da42d9187da0da106ace6f70c3bc61", "fusion_lat": 0.0, "name": "d8da42d9187da0da106ace6f70c3bc61", "is_reserved": 0, "rental_uris": {"android": "https://dc.lft.to/lastmile_qr_scan", "ios": "https://dc.lft.to/lastmile_qr_scan"}, "fusion_lon": 0.0}, {"lat": 38.84432416666667, "is_disabled": 0, "type": "electric_scooter", "lon": -76.99660433333334, "bike_id": "c54eff1391c7ba31b7a2cc502f214dec", "fusion_lat": 0.0, "name": "c54eff1391c7ba31b7a2cc502f214dec", "is_reserved": 0, "rental_uris": {"android": "https://dc.lft.to/lastmile_qr_scan", "ios": "https://dc.lft.to/lastmile_qr_scan"}, "fusion_lon": 0.0}, {"lat": 38.90783833333333, "is_disabled": 0, "type": "electric_scooter", "lon": -77.04283183333334, "bike_id": "c9fa4473789ad9e6fef0ebb39ec29b57", "fusion_lat": 0.0, "name": "c9fa4473789ad9e6fef0ebb39ec29b57", "is_reserved": 0, "rental_uris": {"android": "https://dc.lft.to/lastmile_qr_scan", "ios": "https://dc.lft.to/lastmile_qr_scan"}, "fusion_lon": 0.0}, {"lat": 38.8921715, "is_disabled": 0, "type": "electric_scooter", "lon": -77.02780266666667, "bike_id": "05194cf3aeafb360a8bbfa6285ee3163", "fusion_lat": 0.0, "name": "05194cf3aeafb360a8bbfa6285ee3163", "is_reserved": 0, "rental_uris": {"android": "https://dc.lft.to/lastmile_qr_scan", "ios": "https://dc.lft.to/lastmile_qr_scan"}, "fusion_lon": 0.0}, {"lat": 38.927546666666665, "is_disabled": 0, "type": "electric_scooter", "lon": -77.03274, "bike_id": "a299b0e8365439f919e80298f28728b1", "fusion_lat": 0.0, "name": "a299b0e8365439f919e80298f28728b1", "is_reserved": 0, "rental_uris": {"android": "https://dc.lft.to/lastmile_qr_scan", "ios": "https://dc.lft.to/lastmile_qr_scan"}, "fusion_lon": 0.0}, {"lat": 38.89724183333333, "is_disabled": 0, "type": "electric_scooter", "lon": -77.02165983333333, "bike_id": "d8b18a46bc9b8057725715d7a9afc6ff", "fusion_lat": 0.0, "name": "d8b18a46bc9b8057725715d7a9afc6ff", "is_reserved": 0, "rental_uris": {"android": "https://dc.lft.to/lastmile_qr_scan", "ios": "https://dc.lft.to/lastmile_qr_scan"}, "fusion_lon": 0.0}, {"lat": 38.893567166666664, "is_disabled": 0, "type": "electric_scooter", "lon": -77.0414665, "bike_id": "99ebdb514b74cc6cc2e3ebe68fdcb15c", "fusion_lat": 0.0, "name": "99ebdb514b74cc6cc2e3ebe68fdcb15c", "is_reserved": 0, "rental_uris": {"android": "https://dc.lft.to/lastmile_qr_scan", "ios": "https://dc.lft.to/lastmile_qr_scan"}, "fusion_lon": 0.0}, {"lat": 38.905187, "is_disabled": 0, "type": "electric_scooter", "lon": -77.06190133333334, "bike_id": "cc750ea72adb69616bd01fbb1d12978a", "fusion_lat": 0.0, "name": "cc750ea72adb69616bd01fbb1d12978a", "is_reserved": 0, "rental_uris": {"android": "https://dc.lft.to/lastmile_qr_scan", "ios": "https://dc.lft.to/lastmile_qr_scan"}, "fusion_lon": 0.0}, {"lat": 38.890043666666664, "is_disabled": 0, "type": "electric_scooter", "lon": -76.9374655, "bike_id": "7b6e202bbacd34d8b5589420c709bd4a", "fusion_lat": 0.0, "name": "7b6e202bbacd34d8b5589420c709bd4a", "is_reserved": 0, "rental_uris": {"android": "https://dc.lft.to/lastmile_qr_scan", "ios": "https://dc.lft.to/lastmile_qr_scan"}, "fusion_lon": 0.0}, {"lat": 38.9208915, "is_disabled": 0, "type": "electric_scooter", "lon": -77.01730666666667, "bike_id": "48c8aa8e3f123e20de0030887f9fc0f6", "fusion_lat": 0.0, "name": "48c8aa8e3f123e20de0030887f9fc0f6", "is_reserved": 0, "rental_uris": {"android": "https://dc.lft.to/lastmile_qr_scan", "ios": "https://dc.lft.to/lastmile_qr_scan"}, "fusion_lon": 0.0}, {"lat": 38.9192505, "is_disabled": 0, "type": "electric_scooter", "lon": -77.02418983333334, "bike_id": "76ed4ffaccef561a8a22a97bd365fe41", "fusion_lat": 0.0, "name": "76ed4ffaccef561a8a22a97bd365fe41", "is_reserved": 0, "rental_uris": {"android": "https://dc.lft.to/lastmile_qr_scan", "ios": "https://dc.lft.to/lastmile_qr_scan"}, "fusion_lon": 0.0}, {"lat": 38.92989166666667, "is_disabled": 0, "type": "electric_scooter", "lon": -77.03640383333334, "bike_id": "086226fec3182c5d7133ba5e3676f621", "fusion_lat": 0.0, "name": "086226fec3182c5d7133ba5e3676f621", "is_reserved": 0, "rental_uris": {"android": "https://dc.lft.to/lastmile_qr_scan", "ios": "https://dc.lft.to/lastmile_qr_scan"}, "fusion_lon": 0.0}, {"lat": 38.910114666666665, "is_disabled": 0, "type": "electric_scooter", "lon": -76.99390733333334, "bike_id": "611d03fdcc80414f66ab5cdd35826dc9", "fusion_lat": 0.0, "name": "611d03fdcc80414f66ab5cdd35826dc9", "is_reserved": 0, "rental_uris": {"android": "https://dc.lft.to/lastmile_qr_scan", "ios": "https://dc.lft.to/lastmile_qr_scan"}, "fusion_lon": 0.0}, {"lat": 38.91699166666667, "is_disabled": 0, "type": "electric_scooter", "lon": -77.03128566666666, "bike_id": "fc2ad4530448515dd738aceb37423048", "fusion_lat": 0.0, "name": "fc2ad4530448515dd738aceb37423048", "is_reserved": 0, "rental_uris": {"android": "https://dc.lft.to/lastmile_qr_scan", "ios": "https://dc.lft.to/lastmile_qr_scan"}, "fusion_lon": 0.0}, {"lat": 38.90108266666667, "is_disabled": 0, "type": "electric_scooter", "lon": -76.9954995, "bike_id": "c5d70ab803889c0e3732a0f6f9e67305", "fusion_lat": 0.0, "name": "c5d70ab803889c0e3732a0f6f9e67305", "is_reserved": 0, "rental_uris": {"android": "https://dc.lft.to/lastmile_qr_scan", "ios": "https://dc.lft.to/lastmile_qr_scan"}, "fusion_lon": 0.0}, {"lat": 38.899173166666664, "is_disabled": 0, "type": "electric_scooter", "lon": -77.032477, "bike_id": "cbc4258bb3b2c971c9bcba80d1d22ab7", "fusion_lat": 0.0, "name": "cbc4258bb3b2c971c9bcba80d1d22ab7", "is_reserved": 0, "rental_uris": {"android": "https://dc.lft.to/lastmile_qr_scan", "ios": "https://dc.lft.to/lastmile_qr_scan"}, "fusion_lon": 0.0}, {"lat": 38.911396833333335, "is_disabled": 0, "type": "electric_scooter", "lon": -77.02690966666667, "bike_id": "14632d68960edb529333c4f74ac235de", "fusion_lat": 0.0, "name": "14632d68960edb529333c4f74ac235de", "is_reserved": 0, "rental_uris": {"android": "https://dc.lft.to/lastmile_qr_scan", "ios": "https://dc.lft.to/lastmile_qr_scan"}, "fusion_lon": 0.0}, {"lat": 38.9166835, "is_disabled": 0, "type": "electric_scooter", "lon": -77.027135, "bike_id": "16b925cea7814a7e30210cac59a6aac5", "fusion_lat": 0.0, "name": "16b925cea7814a7e30210cac59a6aac5", "is_reserved": 0, "rental_uris": {"android": "https://dc.lft.to/lastmile_qr_scan", "ios": "https://dc.lft.to/lastmile_qr_scan"}, "fusion_lon": 0.0}, {"lat": 38.904181, "is_disabled": 0, "type": "electric_scooter", "lon": -77.06889833333334, "bike_id": "86f1b7b52d490fcdae85d006b1951d4d", "fusion_lat": 0.0, "name": "86f1b7b52d490fcdae85d006b1951d4d", "is_reserved": 0, "rental_uris": {"android": "https://dc.lft.to/lastmile_qr_scan", "ios": "https://dc.lft.to/lastmile_qr_scan"}, "fusion_lon": 0.0}, {"lat": 38.900408166666665, "is_disabled": 0, "type": "electric_scooter", "lon": -77.00183683333333, "bike_id": "5fb080d3c2f294ef4dd7b41fe16a0316", "fusion_lat": 0.0, "name": "5fb080d3c2f294ef4dd7b41fe16a0316", "is_reserved": 0, "rental_uris": {"android": "https://dc.lft.to/lastmile_qr_scan", "ios": "https://dc.lft.to/lastmile_qr_scan"}, "fusion_lon": 0.0}, {"lat": 38.8873945, "is_disabled": 0, "type": "electric_scooter", "lon": -77.01533483333333, "bike_id": "13a531a89554759981b4ed3049dad084", "fusion_lat": 0.0, "name": "13a531a89554759981b4ed3049dad084", "is_reserved": 0, "rental_uris": {"android": "https://dc.lft.to/lastmile_qr_scan", "ios": "https://dc.lft.to/lastmile_qr_scan"}, "fusion_lon": 0.0}, {"lat": 38.895633833333335, "is_disabled": 0, "type": "electric_bike", "lon": -77.12728433333334, "bike_id": "1fecf46311eba9b572438c3e258d98df", "fusion_lat": 0.0, "name": "1fecf46311eba9b572438c3e258d98df", "is_reserved": 0, "rental_uris": {"android": "https://dc.lft.to/lastmile_qr_scan", "ios": "https://dc.lft.to/lastmile_qr_scan"}, "fusion_lon": 0.0}, {"lat": 38.92079316666667, "is_disabled": 0, "type": "electric_scooter", "lon": -77.0364035, "bike_id": "4d54305e7f26306bafa66a2762678741", "fusion_lat": 0.0, "name": "4d54305e7f26306bafa66a2762678741", "is_reserved": 0, "rental_uris": {"android": "https://dc.lft.to/lastmile_qr_scan", "ios": "https://dc.lft.to/lastmile_qr_scan"}, "fusion_lon": 0.0}, {"lat": 38.90244333333333, "is_disabled": 0, "type": "electric_scooter", "lon": -77.0434405, "bike_id": "75f67ac1ae731a687cf100ed2cc287ba", "fusion_lat": 0.0, "name": "75f67ac1ae731a687cf100ed2cc287ba", "is_reserved": 0, "rental_uris": {"android": "https://dc.lft.to/lastmile_qr_scan", "ios": "https://dc.lft.to/lastmile_qr_scan"}, "fusion_lon": 0.0}, {"lat": 38.8961015, "is_disabled": 0, "type": "electric_scooter", "lon": -77.04543983333333, "bike_id": "e5999612f681dd8313bd48561ac4d317", "fusion_lat": 0.0, "name": "e5999612f681dd8313bd48561ac4d317", "is_reserved": 0, "rental_uris": {"android": "https://dc.lft.to/lastmile_qr_scan", "ios": "https://dc.lft.to/lastmile_qr_scan"}, "fusion_lon": 0.0}, {"lat": 38.91904483333333, "is_disabled": 0, "type": "electric_scooter", "lon": -77.04421616666667, "bike_id": "d7f7f5dd2244a2010cc279b6abd0d97f", "fusion_lat": 0.0, "name": "d7f7f5dd2244a2010cc279b6abd0d97f", "is_reserved": 0, "rental_uris": {"android": "https://dc.lft.to/lastmile_qr_scan", "ios": "https://dc.lft.to/lastmile_qr_scan"}, "fusion_lon": 0.0}, {"lat": 38.92340566666667, "is_disabled": 0, "type": "electric_scooter", "lon": -77.035187, "bike_id": "52ac520ff3a1cf5c1747c9fdba1e66c2", "fusion_lat": 0.0, "name": "52ac520ff3a1cf5c1747c9fdba1e66c2", "is_reserved": 0, "rental_uris": {"android": "https://dc.lft.to/lastmile_qr_scan", "ios": "https://dc.lft.to/lastmile_qr_scan"}, "fusion_lon": 0.0}, {"lat": 38.902085, "is_disabled": 0, "type": "electric_scooter", "lon": -77.02523733333334, "bike_id": "de5084311f0fffe1de2559cc7f07cecc", "fusion_lat": 0.0, "name": "de5084311f0fffe1de2559cc7f07cecc", "is_reserved": 0, "rental_uris": {"android": "https://dc.lft.to/lastmile_qr_scan", "ios": "https://dc.lft.to/lastmile_qr_scan"}, "fusion_lon": 0.0}, {"lat": 38.916765833333336, "is_disabled": 0, "type": "electric_scooter", "lon": -77.02717616666666, "bike_id": "44976e5c412fc4005746ce7a89758d60", "fusion_lat": 0.0, "name": "44976e5c412fc4005746ce7a89758d60", "is_reserved": 0, "rental_uris": {"android": "https://dc.lft.to/lastmile_qr_scan", "ios": "https://dc.lft.to/lastmile_qr_scan"}, "fusion_lon": 0.0}, {"lat": 38.90306616666667, "is_disabled": 0, "type": "electric_scooter", "lon": -77.0119235, "bike_id": "38159ec722988daa9f7f0c085de426e6", "fusion_lat": 0.0, "name": "38159ec722988daa9f7f0c085de426e6", "is_reserved": 0, "rental_uris": {"android": "https://dc.lft.to/lastmile_qr_scan", "ios": "https://dc.lft.to/lastmile_qr_scan"}, "fusion_lon": 0.0}, {"lat": 38.90671283333333, "is_disabled": 0, "type": "electric_scooter", "lon": -77.0382615, "bike_id": "6ecb21aa7196a5ba73531bad60c560c0", "fusion_lat": 0.0, "name": "6ecb21aa7196a5ba73531bad60c560c0", "is_reserved": 0, "rental_uris": {"android": "https://dc.lft.to/lastmile_qr_scan", "ios": "https://dc.lft.to/lastmile_qr_scan"}, "fusion_lon": 0.0}, {"lat": 38.929916166666665, "is_disabled": 0, "type": "electric_scooter", "lon": -77.02632483333333, "bike_id": "869acd2e7480f82c905cd0900394cd9c", "fusion_lat": 0.0, "name": "869acd2e7480f82c905cd0900394cd9c", "is_reserved": 0, "rental_uris": {"android": "https://dc.lft.to/lastmile_qr_scan", "ios": "https://dc.lft.to/lastmile_qr_scan"}, "fusion_lon": 0.0}, {"lat": 38.91564666666667, "is_disabled": 0, "type": "electric_scooter", "lon": -77.020075, "bike_id": "c67ab3ff3904822325b88b4fa2df35d9", "fusion_lat": 0.0, "name": "c67ab3ff3904822325b88b4fa2df35d9", "is_reserved": 0, "rental_uris": {"android": "https://dc.lft.to/lastmile_qr_scan", "ios": "https://dc.lft.to/lastmile_qr_scan"}, "fusion_lon": 0.0}, {"lat": 38.89969, "is_disabled": 0, "type": "electric_scooter", "lon": -76.9273535, "bike_id": "11039f14241130ba9bc7df4608585e16", "fusion_lat": 0.0, "name": "11039f14241130ba9bc7df4608585e16", "is_reserved": 0, "rental_uris": {"android": "https://dc.lft.to/lastmile_qr_scan", "ios": "https://dc.lft.to/lastmile_qr_scan"}, "fusion_lon": 0.0}, {"lat": 38.8843075, "is_disabled": 0, "type": "electric_scooter", "lon": -76.95757116666667, "bike_id": "7a3972652c454b4cd9d0c3bd2ba9ae40", "fusion_lat": 0.0, "name": "7a3972652c454b4cd9d0c3bd2ba9ae40", "is_reserved": 0, "rental_uris": {"android": "https://dc.lft.to/lastmile_qr_scan", "ios": "https://dc.lft.to/lastmile_qr_scan"}, "fusion_lon": 0.0}, {"lat": 38.9073975, "is_disabled": 0, "type": "electric_scooter", "lon": -77.027169, "bike_id": "a6673ac576252b58bb2155000ac7984c", "fusion_lat": 0.0, "name": "a6673ac576252b58bb2155000ac7984c", "is_reserved": 0, "rental_uris": {"android": "https://dc.lft.to/lastmile_qr_scan", "ios": "https://dc.lft.to/lastmile_qr_scan"}, "fusion_lon": 0.0}, {"lat": 38.90269266666667, "is_disabled": 0, "type": "electric_scooter", "lon": -77.03842816666666, "bike_id": "e5429d2aa48d38268fa2d8484fbd586e", "fusion_lat": 0.0, "name": "e5429d2aa48d38268fa2d8484fbd586e", "is_reserved": 0, "rental_uris": {"android": "https://dc.lft.to/lastmile_qr_scan", "ios": "https://dc.lft.to/lastmile_qr_scan"}, "fusion_lon": 0.0}, {"lat": 38.8998635, "is_disabled": 0, "type": "electric_scooter", "lon": -77.03166383333334, "bike_id": "fd3feb139c6eaa822f197cc0cf611ac9", "fusion_lat": 0.0, "name": "fd3feb139c6eaa822f197cc0cf611ac9", "is_reserved": 0, "rental_uris": {"android": "https://dc.lft.to/lastmile_qr_scan", "ios": "https://dc.lft.to/lastmile_qr_scan"}, "fusion_lon": 0.0}, {"lat": 38.894861, "is_disabled": 0, "type": "electric_scooter", "lon": -77.00226733333334, "bike_id": "586654777ccea6085559c6e4cd31fdfb", "fusion_lat": 0.0, "name": "586654777ccea6085559c6e4cd31fdfb", "is_reserved": 0, "rental_uris": {"android": "https://dc.lft.to/lastmile_qr_scan", "ios": "https://dc.lft.to/lastmile_qr_scan"}, "fusion_lon": 0.0}, {"lat": 38.886268, "is_disabled": 0, "type": "electric_scooter", "lon": -76.95518366666667, "bike_id": "fa5eb1526949945661600d556a0e682b", "fusion_lat": 0.0, "name": "fa5eb1526949945661600d556a0e682b", "is_reserved": 0, "rental_uris": {"android": "https://dc.lft.to/lastmile_qr_scan", "ios": "https://dc.lft.to/lastmile_qr_scan"}, "fusion_lon": 0.0}, {"lat": 38.92167383333334, "is_disabled": 0, "type": "electric_scooter", "lon": -77.04011083333333, "bike_id": "33059252a0945315dc448413bf894c21", "fusion_lat": 0.0, "name": "33059252a0945315dc448413bf894c21", "is_reserved": 0, "rental_uris": {"android": "https://dc.lft.to/lastmile_qr_scan", "ios": "https://dc.lft.to/lastmile_qr_scan"}, "fusion_lon": 0.0}, {"lat": 38.89227433333333, "is_disabled": 0, "type": "electric_scooter", "lon": -77.03336816666666, "bike_id": "d8497fb902eb91368de773dadae92213", "fusion_lat": 0.0, "name": "d8497fb902eb91368de773dadae92213", "is_reserved": 0, "rental_uris": {"android": "https://dc.lft.to/lastmile_qr_scan", "ios": "https://dc.lft.to/lastmile_qr_scan"}, "fusion_lon": 0.0}, {"lat": 38.91561216666667, "is_disabled": 0, "type": "electric_scooter", "lon": -77.038544, "bike_id": "9fd9d80bd20385e9e736f895b3abd5af", "fusion_lat": 0.0, "name": "9fd9d80bd20385e9e736f895b3abd5af", "is_reserved": 0, "rental_uris": {"android": "https://dc.lft.to/lastmile_qr_scan", "ios": "https://dc.lft.to/lastmile_qr_scan"}, "fusion_lon": 0.0}, {"lat": 38.92256033333334, "is_disabled": 0, "type": "electric_scooter", "lon": -77.01937633333333, "bike_id": "64ee47214def1f21b493272920461b57", "fusion_lat": 0.0, "name": "64ee47214def1f21b493272920461b57", "is_reserved": 0, "rental_uris": {"android": "https://dc.lft.to/lastmile_qr_scan", "ios": "https://dc.lft.to/lastmile_qr_scan"}, "fusion_lon": 0.0}, {"lat": 38.982219666666666, "is_disabled": 0, "type": "electric_scooter", "lon": -77.02639616666667, "bike_id": "3139fc7817da8b56f30956485baf61d6", "fusion_lat": 0.0, "name": "3139fc7817da8b56f30956485baf61d6", "is_reserved": 0, "rental_uris": {"android": "https://dc.lft.to/lastmile_qr_scan", "ios": "https://dc.lft.to/lastmile_qr_scan"}, "fusion_lon": 0.0}, {"lat": 38.91731583333333, "is_disabled": 0, "type": "electric_scooter", "lon": -77.03641833333333, "bike_id": "978f14fea902d7c49e5944524937c41c", "fusion_lat": 0.0, "name": "978f14fea902d7c49e5944524937c41c", "is_reserved": 0, "rental_uris": {"android": "https://dc.lft.to/lastmile_qr_scan", "ios": "https://dc.lft.to/lastmile_qr_scan"}, "fusion_lon": 0.0}, {"lat": 38.90977733333333, "is_disabled": 0, "type": "electric_scooter", "lon": -77.03182883333334, "bike_id": "3bd35ba95bb85fd23b4881b06697d1bf", "fusion_lat": 0.0, "name": "3bd35ba95bb85fd23b4881b06697d1bf", "is_reserved": 0, "rental_uris": {"android": "https://dc.lft.to/lastmile_qr_scan", "ios": "https://dc.lft.to/lastmile_qr_scan"}, "fusion_lon": 0.0}, {"lat": 38.902819666666666, "is_disabled": 0, "type": "electric_scooter", "lon": -77.03640083333333, "bike_id": "66bfefca3c14f2019020bddd695e7376", "fusion_lat": 0.0, "name": "66bfefca3c14f2019020bddd695e7376", "is_reserved": 0, "rental_uris": {"android": "https://dc.lft.to/lastmile_qr_scan", "ios": "https://dc.lft.to/lastmile_qr_scan"}, "fusion_lon": 0.0}, {"lat": 38.917192666666665, "is_disabled": 0, "type": "electric_scooter", "lon": -77.03925033333333, "bike_id": "5b5fac976989f6b9a288339ee169cae0", "fusion_lat": 0.0, "name": "5b5fac976989f6b9a288339ee169cae0", "is_reserved": 0, "rental_uris": {"android": "https://dc.lft.to/lastmile_qr_scan", "ios": "https://dc.lft.to/lastmile_qr_scan"}, "fusion_lon": 0.0}, {"lat": 38.9247675, "is_disabled": 0, "type": "electric_scooter", "lon": -77.0347895, "bike_id": "6fbec972f98f9af770ce689e69c231b4", "fusion_lat": 0.0, "name": "6fbec972f98f9af770ce689e69c231b4", "is_reserved": 0, "rental_uris": {"android": "https://dc.lft.to/lastmile_qr_scan", "ios": "https://dc.lft.to/lastmile_qr_scan"}, "fusion_lon": 0.0}, {"lat": 38.91482533333333, "is_disabled": 0, "type": "electric_scooter", "lon": -77.02183683333334, "bike_id": "6ff6ad5083c82bb0c0cd33b2e789d11c", "fusion_lat": 0.0, "name": "6ff6ad5083c82bb0c0cd33b2e789d11c", "is_reserved": 0, "rental_uris": {"android": "https://dc.lft.to/lastmile_qr_scan", "ios": "https://dc.lft.to/lastmile_qr_scan"}, "fusion_lon": 0.0}, {"lat": 38.912643833333334, "is_disabled": 0, "type": "electric_scooter", "lon": -77.0387725, "bike_id": "6efcf041dd8417936b525acb4360ae32", "fusion_lat": 0.0, "name": "6efcf041dd8417936b525acb4360ae32", "is_reserved": 0, "rental_uris": {"android": "https://dc.lft.to/lastmile_qr_scan", "ios": "https://dc.lft.to/lastmile_qr_scan"}, "fusion_lon": 0.0}, {"lat": 38.9261915, "is_disabled": 0, "type": "electric_scooter", "lon": -77.04192933333333, "bike_id": "96bd9597b34f7a5b7d245b392e503f9b", "fusion_lat": 0.0, "name": "96bd9597b34f7a5b7d245b392e503f9b", "is_reserved": 0, "rental_uris": {"android": "https://dc.lft.to/lastmile_qr_scan", "ios": "https://dc.lft.to/lastmile_qr_scan"}, "fusion_lon": 0.0}, {"lat": 38.9374865, "is_disabled": 0, "type": "electric_scooter", "lon": -77.03452833333333, "bike_id": "571bad98f02d9d9430551a94075e13b2", "fusion_lat": 0.0, "name": "571bad98f02d9d9430551a94075e13b2", "is_reserved": 0, "rental_uris": {"android": "https://dc.lft.to/lastmile_qr_scan", "ios": "https://dc.lft.to/lastmile_qr_scan"}, "fusion_lon": 0.0}, {"lat": 38.90752033333333, "is_disabled": 0, "type": "electric_scooter", "lon": -76.99906883333334, "bike_id": "982151a835009928f67679d1b2244b5d", "fusion_lat": 0.0, "name": "982151a835009928f67679d1b2244b5d", "is_reserved": 0, "rental_uris": {"android": "https://dc.lft.to/lastmile_qr_scan", "ios": "https://dc.lft.to/lastmile_qr_scan"}, "fusion_lon": 0.0}, {"lat": 38.896090666666666, "is_disabled": 0, "type": "electric_scooter", "lon": -77.04492066666667, "bike_id": "c9c6cfc862e26c09db9e7a1ea2e8053d", "fusion_lat": 0.0, "name": "c9c6cfc862e26c09db9e7a1ea2e8053d", "is_reserved": 0, "rental_uris": {"android": "https://dc.lft.to/lastmile_qr_scan", "ios": "https://dc.lft.to/lastmile_qr_scan"}, "fusion_lon": 0.0}, {"lat": 38.94400016666667, "is_disabled": 0, "type": "electric_scooter", "lon": -77.06235583333333, "bike_id": "c66edb289fe25901493fc73fd8d0c730", "fusion_lat": 0.0, "name": "c66edb289fe25901493fc73fd8d0c730", "is_reserved": 0, "rental_uris": {"android": "https://dc.lft.to/lastmile_qr_scan", "ios": "https://dc.lft.to/lastmile_qr_scan"}, "fusion_lon": 0.0}, {"lat": 38.9271675, "is_disabled": 0, "type": "electric_bike", "lon": -77.02960416666667, "bike_id": "b368c3ddfc93fc67ad0461ccdb68c13d", "fusion_lat": 0.0, "name": "b368c3ddfc93fc67ad0461ccdb68c13d", "is_reserved": 0, "rental_uris": {"android": "https://dc.lft.to/lastmile_qr_scan", "ios": "https://dc.lft.to/lastmile_qr_scan"}, "fusion_lon": 0.0}, {"lat": 38.894958833333334, "is_disabled": 0, "type": "electric_scooter", "lon": -77.00208583333334, "bike_id": "4d762ff40655d2314d0f7ae5ed4d5c55", "fusion_lat": 0.0, "name": "4d762ff40655d2314d0f7ae5ed4d5c55", "is_reserved": 0, "rental_uris": {"android": "https://dc.lft.to/lastmile_qr_scan", "ios": "https://dc.lft.to/lastmile_qr_scan"}, "fusion_lon": 0.0}, {"lat": 38.91689783333333, "is_disabled": 0, "type": "electric_scooter", "lon": -77.02951, "bike_id": "f7ccf1b1028423ee553a8a5fe17c204e", "fusion_lat": 0.0, "name": "f7ccf1b1028423ee553a8a5fe17c204e", "is_reserved": 0, "rental_uris": {"android": "https://dc.lft.to/lastmile_qr_scan", "ios": "https://dc.lft.to/lastmile_qr_scan"}, "fusion_lon": 0.0}, {"lat": 38.899829, "is_disabled": 0, "type": "electric_scooter", "lon": -77.02171333333334, "bike_id": "d19d073882bad18d7642678deb274cb1", "fusion_lat": 0.0, "name": "d19d073882bad18d7642678deb274cb1", "is_reserved": 0, "rental_uris": {"android": "https://dc.lft.to/lastmile_qr_scan", "ios": "https://dc.lft.to/lastmile_qr_scan"}, "fusion_lon": 0.0}, {"lat": 38.884522, "is_disabled": 0, "type": "electric_scooter", "lon": -77.00057783333334, "bike_id": "c9875df1af2e1b63d72b60c79b412110", "fusion_lat": 0.0, "name": "c9875df1af2e1b63d72b60c79b412110", "is_reserved": 0, "rental_uris": {"android": "https://dc.lft.to/lastmile_qr_scan", "ios": "https://dc.lft.to/lastmile_qr_scan"}, "fusion_lon": 0.0}, {"lat": 38.922087, "is_disabled": 0, "type": "electric_scooter", "lon": -77.03776983333333, "bike_id": "84a3c3da94684eaa339d0bac12c86dae", "fusion_lat": 0.0, "name": "84a3c3da94684eaa339d0bac12c86dae", "is_reserved": 0, "rental_uris": {"android": "https://dc.lft.to/lastmile_qr_scan", "ios": "https://dc.lft.to/lastmile_qr_scan"}, "fusion_lon": 0.0}, {"lat": 38.905250333333335, "is_disabled": 0, "type": "electric_scooter", "lon": -77.06449933333333, "bike_id": "5d695f7f25af707840b862b6468fd811", "fusion_lat": 0.0, "name": "5d695f7f25af707840b862b6468fd811", "is_reserved": 0, "rental_uris": {"android": "https://dc.lft.to/lastmile_qr_scan", "ios": "https://dc.lft.to/lastmile_qr_scan"}, "fusion_lon": 0.0}, {"lat": 38.89389933333333, "is_disabled": 0, "type": "electric_scooter", "lon": -76.94995316666666, "bike_id": "30e207de366677226a5c47cf6f7f1cca", "fusion_lat": 0.0, "name": "30e207de366677226a5c47cf6f7f1cca", "is_reserved": 0, "rental_uris": {"android": "https://dc.lft.to/lastmile_qr_scan", "ios": "https://dc.lft.to/lastmile_qr_scan"}, "fusion_lon": 0.0}, {"lat": 38.8669925, "is_disabled": 0, "type": "electric_scooter", "lon": -76.98715116666666, "bike_id": "6d57a0427cf2d82839ee6b0257d0b34f", "fusion_lat": 0.0, "name": "6d57a0427cf2d82839ee6b0257d0b34f", "is_reserved": 0, "rental_uris": {"android": "https://dc.lft.to/lastmile_qr_scan", "ios": "https://dc.lft.to/lastmile_qr_scan"}, "fusion_lon": 0.0}, {"lat": 38.92868, "is_disabled": 0, "type": "electric_scooter", "lon": -76.990303, "bike_id": "beba5a74e2d08b21329689206fb5360e", "fusion_lat": 0.0, "name": "beba5a74e2d08b21329689206fb5360e", "is_reserved": 0, "rental_uris": {"android": "https://dc.lft.to/lastmile_qr_scan", "ios": "https://dc.lft.to/lastmile_qr_scan"}, "fusion_lon": 0.0}, {"lat": 38.910779166666664, "is_disabled": 0, "type": "electric_scooter", "lon": -77.0209945, "bike_id": "c3f998471405a919c7857949013f4d98", "fusion_lat": 0.0, "name": "c3f998471405a919c7857949013f4d98", "is_reserved": 0, "rental_uris": {"android": "https://dc.lft.to/lastmile_qr_scan", "ios": "https://dc.lft.to/lastmile_qr_scan"}, "fusion_lon": 0.0}, {"lat": 38.89569916666667, "is_disabled": 0, "type": "electric_scooter", "lon": -76.93046366666667, "bike_id": "d4110c04dc38d2b437cbccd68f5af8df", "fusion_lat": 0.0, "name": "d4110c04dc38d2b437cbccd68f5af8df", "is_reserved": 0, "rental_uris": {"android": "https://dc.lft.to/lastmile_qr_scan", "ios": "https://dc.lft.to/lastmile_qr_scan"}, "fusion_lon": 0.0}, {"lat": 38.9336855, "is_disabled": 0, "type": "electric_scooter", "lon": -77.05737833333333, "bike_id": "e59108f8650cfda1950a4a53315b1504", "fusion_lat": 0.0, "name": "e59108f8650cfda1950a4a53315b1504", "is_reserved": 0, "rental_uris": {"android": "https://dc.lft.to/lastmile_qr_scan", "ios": "https://dc.lft.to/lastmile_qr_scan"}, "fusion_lon": 0.0}, {"lat": 38.912844166666666, "is_disabled": 0, "type": "electric_scooter", "lon": -77.0450975, "bike_id": "faba45ab1750f99a8554bd6a2bcae473", "fusion_lat": 0.0, "name": "faba45ab1750f99a8554bd6a2bcae473", "is_reserved": 0, "rental_uris": {"android": "https://dc.lft.to/lastmile_qr_scan", "ios": "https://dc.lft.to/lastmile_qr_scan"}, "fusion_lon": 0.0}, {"lat": 38.9395765, "is_disabled": 0, "type": "electric_bike", "lon": -77.36098983333333, "bike_id": "de48b660324c779b1ae2874c2e647e8e", "fusion_lat": 0.0, "name": "de48b660324c779b1ae2874c2e647e8e", "is_reserved": 0, "rental_uris": {"android": "https://dc.lft.to/lastmile_qr_scan", "ios": "https://dc.lft.to/lastmile_qr_scan"}, "fusion_lon": 0.0}, {"lat": 38.989953, "is_disabled": 0, "type": "electric_bike", "lon": -77.00432916666666, "bike_id": "0aaf509e0c34f66b27f67718afea3a30", "fusion_lat": 0.0, "name": "0aaf509e0c34f66b27f67718afea3a30", "is_reserved": 0, "rental_uris": {"android": "https://dc.lft.to/lastmile_qr_scan", "ios": "https://dc.lft.to/lastmile_qr_scan"}, "fusion_lon": 0.0}, {"lat": 38.89223883333333, "is_disabled": 0, "type": "electric_scooter", "lon": -77.04862116666666, "bike_id": "b27c7933fe6a5d928d7032eaf9c9c9b4", "fusion_lat": 0.0, "name": "b27c7933fe6a5d928d7032eaf9c9c9b4", "is_reserved": 0, "rental_uris": {"android": "https://dc.lft.to/lastmile_qr_scan", "ios": "https://dc.lft.to/lastmile_qr_scan"}, "fusion_lon": 0.0}, {"lat": 38.9360025, "is_disabled": 0, "type": "electric_scooter", "lon": -77.03756466666667, "bike_id": "aeef0fe6e35b716e187eb6343d65ac26", "fusion_lat": 0.0, "name": "aeef0fe6e35b716e187eb6343d65ac26", "is_reserved": 0, "rental_uris": {"android": "https://dc.lft.to/lastmile_qr_scan", "ios": "https://dc.lft.to/lastmile_qr_scan"}, "fusion_lon": 0.0}, {"lat": 38.893895666666666, "is_disabled": 0, "type": "electric_scooter", "lon": -76.94999316666667, "bike_id": "f311cd48d766280b9a9487af60982119", "fusion_lat": 0.0, "name": "f311cd48d766280b9a9487af60982119", "is_reserved": 0, "rental_uris": {"android": "https://dc.lft.to/lastmile_qr_scan", "ios": "https://dc.lft.to/lastmile_qr_scan"}, "fusion_lon": 0.0}, {"lat": 38.9026985, "is_disabled": 0, "type": "electric_scooter", "lon": -77.03843683333334, "bike_id": "7c1d5c87f19d2f6ebc91376b5254b6e9", "fusion_lat": 0.0, "name": "7c1d5c87f19d2f6ebc91376b5254b6e9", "is_reserved": 0, "rental_uris": {"android": "https://dc.lft.to/lastmile_qr_scan", "ios": "https://dc.lft.to/lastmile_qr_scan"}, "fusion_lon": 0.0}, {"lat": 38.917682, "is_disabled": 0, "type": "electric_scooter", "lon": -77.03186516666666, "bike_id": "60b0e1a11f6b70600d6b42b9248b618a", "fusion_lat": 0.0, "name": "60b0e1a11f6b70600d6b42b9248b618a", "is_reserved": 0, "rental_uris": {"android": "https://dc.lft.to/lastmile_qr_scan", "ios": "https://dc.lft.to/lastmile_qr_scan"}, "fusion_lon": 0.0}, {"lat": 38.9528255, "is_disabled": 0, "type": "electric_bike", "lon": -76.94604633333333, "bike_id": "2a6338b30ee8332f1aae6ef98160103b", "fusion_lat": 0.0, "name": "2a6338b30ee8332f1aae6ef98160103b", "is_reserved": 0, "rental_uris": {"android": "https://dc.lft.to/lastmile_qr_scan", "ios": "https://dc.lft.to/lastmile_qr_scan"}, "fusion_lon": 0.0}, {"lat": 38.899031, "is_disabled": 0, "type": "electric_scooter", "lon": -76.93353733333333, "bike_id": "54f4a47a994e657f1332f161ec239a08", "fusion_lat": 0.0, "name": "54f4a47a994e657f1332f161ec239a08", "is_reserved": 0, "rental_uris": {"android": "https://dc.lft.to/lastmile_qr_scan", "ios": "https://dc.lft.to/lastmile_qr_scan"}, "fusion_lon": 0.0}, {"lat": 38.90346533333334, "is_disabled": 0, "type": "electric_scooter", "lon": -77.04457716666667, "bike_id": "7e6b8cd99fe2da312e580deea51bfd49", "fusion_lat": 0.0, "name": "7e6b8cd99fe2da312e580deea51bfd49", "is_reserved": 0, "rental_uris": {"android": "https://dc.lft.to/lastmile_qr_scan", "ios": "https://dc.lft.to/lastmile_qr_scan"}, "fusion_lon": 0.0}, {"lat": 38.923654666666664, "is_disabled": 0, "type": "electric_scooter", "lon": -77.0313125, "bike_id": "f3ed3e33d02964c345a75ec9067aac1f", "fusion_lat": 0.0, "name": "f3ed3e33d02964c345a75ec9067aac1f", "is_reserved": 0, "rental_uris": {"android": "https://dc.lft.to/lastmile_qr_scan", "ios": "https://dc.lft.to/lastmile_qr_scan"}, "fusion_lon": 0.0}, {"lat": 38.90771433333333, "is_disabled": 0, "type": "electric_scooter", "lon": -76.98309316666666, "bike_id": "97f492e8adf74159f3f61eb6b6cbff95", "fusion_lat": 0.0, "name": "97f492e8adf74159f3f61eb6b6cbff95", "is_reserved": 0, "rental_uris": {"android": "https://dc.lft.to/lastmile_qr_scan", "ios": "https://dc.lft.to/lastmile_qr_scan"}, "fusion_lon": 0.0}, {"lat": 38.859285666666665, "is_disabled": 0, "type": "electric_scooter", "lon": -76.99704816666667, "bike_id": "6815a9b18ee167e2eac33deaf316feee", "fusion_lat": 0.0, "name": "6815a9b18ee167e2eac33deaf316feee", "is_reserved": 0, "rental_uris": {"android": "https://dc.lft.to/lastmile_qr_scan", "ios": "https://dc.lft.to/lastmile_qr_scan"}, "fusion_lon": 0.0}, {"lat": 38.921519333333336, "is_disabled": 0, "type": "electric_scooter", "lon": -77.035163, "bike_id": "db048b3b1115e863d1a244fa414e4b1e", "fusion_lat": 0.0, "name": "db048b3b1115e863d1a244fa414e4b1e", "is_reserved": 0, "rental_uris": {"android": "https://dc.lft.to/lastmile_qr_scan", "ios": "https://dc.lft.to/lastmile_qr_scan"}, "fusion_lon": 0.0}, {"lat": 38.95553566666667, "is_disabled": 0, "type": "electric_scooter", "lon": -77.02227516666666, "bike_id": "738cd6332265ac2f490d4d0d5a1d345c", "fusion_lat": 0.0, "name": "738cd6332265ac2f490d4d0d5a1d345c", "is_reserved": 0, "rental_uris": {"android": "https://dc.lft.to/lastmile_qr_scan", "ios": "https://dc.lft.to/lastmile_qr_scan"}, "fusion_lon": 0.0}, {"lat": 38.874074666666665, "is_disabled": 0, "type": "electric_bike", "lon": -76.96575733333333, "bike_id": "1efaaa6fbbb55a5ba8312163bcc1f8d1", "fusion_lat": 0.0, "name": "1efaaa6fbbb55a5ba8312163bcc1f8d1", "is_reserved": 0, "rental_uris": {"android": "https://dc.lft.to/lastmile_qr_scan", "ios": "https://dc.lft.to/lastmile_qr_scan"}, "fusion_lon": 0.0}, {"lat": 38.840269166666666, "is_disabled": 0, "type": "electric_bike", "lon": -76.97586616666666, "bike_id": "3d702785b428450c45fb44a515b717f9", "fusion_lat": 0.0, "name": "3d702785b428450c45fb44a515b717f9", "is_reserved": 0, "rental_uris": {"android": "https://dc.lft.to/lastmile_qr_scan", "ios": "https://dc.lft.to/lastmile_qr_scan"}, "fusion_lon": 0.0}, {"lat": 38.887419, "is_disabled": 0, "type": "electric_scooter", "lon": -76.9836035, "bike_id": "4c3ad3729696ee40cc7f790dff5cd02b", "fusion_lat": 0.0, "name": "4c3ad3729696ee40cc7f790dff5cd02b", "is_reserved": 0, "rental_uris": {"android": "https://dc.lft.to/lastmile_qr_scan", "ios": "https://dc.lft.to/lastmile_qr_scan"}, "fusion_lon": 0.0}, {"lat": 38.866967833333334, "is_disabled": 0, "type": "electric_scooter", "lon": -76.98709133333334, "bike_id": "3bc4f338406270b8a8fdd2178f76df87", "fusion_lat": 0.0, "name": "3bc4f338406270b8a8fdd2178f76df87", "is_reserved": 0, "rental_uris": {"android": "https://dc.lft.to/lastmile_qr_scan", "ios": "https://dc.lft.to/lastmile_qr_scan"}, "fusion_lon": 0.0}, {"lat": 38.935265, "is_disabled": 0, "type": "electric_scooter", "lon": -77.07273933333333, "bike_id": "cf403a610583aeb74e9ee0e1886b29b4", "fusion_lat": 0.0, "name": "cf403a610583aeb74e9ee0e1886b29b4", "is_reserved": 0, "rental_uris": {"android": "https://dc.lft.to/lastmile_qr_scan", "ios": "https://dc.lft.to/lastmile_qr_scan"}, "fusion_lon": 0.0}, {"lat": 38.89532633333334, "is_disabled": 0, "type": "electric_scooter", "lon": -76.94892816666666, "bike_id": "ce2c3f9908f2b28f0a07af35a3d31361", "fusion_lat": 0.0, "name": "ce2c3f9908f2b28f0a07af35a3d31361", "is_reserved": 0, "rental_uris": {"android": "https://dc.lft.to/lastmile_qr_scan", "ios": "https://dc.lft.to/lastmile_qr_scan"}, "fusion_lon": 0.0}, {"lat": 38.905606666666664, "is_disabled": 0, "type": "electric_scooter", "lon": -77.01679233333333, "bike_id": "3aadaa75287c1f51f3862e10431680a1", "fusion_lat": 0.0, "name": "3aadaa75287c1f51f3862e10431680a1", "is_reserved": 0, "rental_uris": {"android": "https://dc.lft.to/lastmile_qr_scan", "ios": "https://dc.lft.to/lastmile_qr_scan"}, "fusion_lon": 0.0}, {"lat": 38.890479166666665, "is_disabled": 0, "type": "electric_scooter", "lon": -76.93748766666667, "bike_id": "9bdabdce85e7d1edae128d91ba121b9e", "fusion_lat": 0.0, "name": "9bdabdce85e7d1edae128d91ba121b9e", "is_reserved": 0, "rental_uris": {"android": "https://dc.lft.to/lastmile_qr_scan", "ios": "https://dc.lft.to/lastmile_qr_scan"}, "fusion_lon": 0.0}, {"lat": 38.90294883333333, "is_disabled": 0, "type": "electric_scooter", "lon": -77.05816266666666, "bike_id": "52f9b1529868b4fbbb2c99a92ff644f7", "fusion_lat": 0.0, "name": "52f9b1529868b4fbbb2c99a92ff644f7", "is_reserved": 0, "rental_uris": {"android": "https://dc.lft.to/lastmile_qr_scan", "ios": "https://dc.lft.to/lastmile_qr_scan"}, "fusion_lon": 0.0}, {"lat": 38.956330666666666, "is_disabled": 0, "type": "electric_bike", "lon": -77.01959516666666, "bike_id": "de04c854805baf16f5bfcaa44d3f1129", "fusion_lat": 0.0, "name": "de04c854805baf16f5bfcaa44d3f1129", "is_reserved": 0, "rental_uris": {"android": "https://dc.lft.to/lastmile_qr_scan", "ios": "https://dc.lft.to/lastmile_qr_scan"}, "fusion_lon": 0.0}, {"lat": 38.90943383333333, "is_disabled": 0, "type": "electric_scooter", "lon": -76.9896345, "bike_id": "bee516c07a49608b0a469e359b39e6f8", "fusion_lat": 0.0, "name": "bee516c07a49608b0a469e359b39e6f8", "is_reserved": 0, "rental_uris": {"android": "https://dc.lft.to/lastmile_qr_scan", "ios": "https://dc.lft.to/lastmile_qr_scan"}, "fusion_lon": 0.0}, {"lat": 38.90358833333333, "is_disabled": 0, "type": "electric_scooter", "lon": -77.011048, "bike_id": "7952b2bae3d04d1acff0745b7ddcac77", "fusion_lat": 0.0, "name": "7952b2bae3d04d1acff0745b7ddcac77", "is_reserved": 0, "rental_uris": {"android": "https://dc.lft.to/lastmile_qr_scan", "ios": "https://dc.lft.to/lastmile_qr_scan"}, "fusion_lon": 0.0}, {"lat": 38.9007955, "is_disabled": 0, "type": "electric_scooter", "lon": -77.02710933333333, "bike_id": "1f7b52dd774c0b0e12cbab950cb44772", "fusion_lat": 0.0, "name": "1f7b52dd774c0b0e12cbab950cb44772", "is_reserved": 0, "rental_uris": {"android": "https://dc.lft.to/lastmile_qr_scan", "ios": "https://dc.lft.to/lastmile_qr_scan"}, "fusion_lon": 0.0}, {"lat": 38.908162, "is_disabled": 0, "type": "electric_scooter", "lon": -77.04502566666666, "bike_id": "162031e1d1c004da6d28f2d220a54d7e", "fusion_lat": 0.0, "name": "162031e1d1c004da6d28f2d220a54d7e", "is_reserved": 0, "rental_uris": {"android": "https://dc.lft.to/lastmile_qr_scan", "ios": "https://dc.lft.to/lastmile_qr_scan"}, "fusion_lon": 0.0}, {"lat": 38.93082066666667, "is_disabled": 0, "type": "electric_scooter", "lon": -77.037488, "bike_id": "73c1d881b7bc1050c2d105d307697788", "fusion_lat": 0.0, "name": "73c1d881b7bc1050c2d105d307697788", "is_reserved": 0, "rental_uris": {"android": "https://dc.lft.to/lastmile_qr_scan", "ios": "https://dc.lft.to/lastmile_qr_scan"}, "fusion_lon": 0.0}, {"lat": 38.9085895, "is_disabled": 0, "type": "electric_scooter", "lon": -77.04350433333333, "bike_id": "395e622e98a46f529da16932f7dc1ccc", "fusion_lat": 0.0, "name": "395e622e98a46f529da16932f7dc1ccc", "is_reserved": 0, "rental_uris": {"android": "https://dc.lft.to/lastmile_qr_scan", "ios": "https://dc.lft.to/lastmile_qr_scan"}, "fusion_lon": 0.0}, {"lat": 38.92745216666667, "is_disabled": 0, "type": "electric_scooter", "lon": -77.03423616666667, "bike_id": "2b087207981d6e982389ecd0887431ba", "fusion_lat": 0.0, "name": "2b087207981d6e982389ecd0887431ba", "is_reserved": 0, "rental_uris": {"android": "https://dc.lft.to/lastmile_qr_scan", "ios": "https://dc.lft.to/lastmile_qr_scan"}, "fusion_lon": 0.0}, {"lat": 38.9110945, "is_disabled": 0, "type": "electric_scooter", "lon": -77.04482533333334, "bike_id": "cc0735b895562804c0e856e052d50dd6", "fusion_lat": 0.0, "name": "cc0735b895562804c0e856e052d50dd6", "is_reserved": 0, "rental_uris": {"android": "https://dc.lft.to/lastmile_qr_scan", "ios": "https://dc.lft.to/lastmile_qr_scan"}, "fusion_lon": 0.0}, {"lat": 38.9119175, "is_disabled": 0, "type": "electric_scooter", "lon": -77.03426566666667, "bike_id": "309a757b2ddc7e2ef50d56debb74e3a8", "fusion_lat": 0.0, "name": "309a757b2ddc7e2ef50d56debb74e3a8", "is_reserved": 0, "rental_uris": {"android": "https://dc.lft.to/lastmile_qr_scan", "ios": "https://dc.lft.to/lastmile_qr_scan"}, "fusion_lon": 0.0}, {"lat": 38.922884833333335, "is_disabled": 0, "type": "electric_scooter", "lon": -77.02970866666666, "bike_id": "76b2ee7c2b716f1706b1cd2196a596d7", "fusion_lat": 0.0, "name": "76b2ee7c2b716f1706b1cd2196a596d7", "is_reserved": 0, "rental_uris": {"android": "https://dc.lft.to/lastmile_qr_scan", "ios": "https://dc.lft.to/lastmile_qr_scan"}, "fusion_lon": 0.0}, {"lat": 38.951514833333334, "is_disabled": 0, "type": "electric_scooter", "lon": -77.0186805, "bike_id": "a0a80ddb9067022d37efd864d48b2b6d", "fusion_lat": 0.0, "name": "a0a80ddb9067022d37efd864d48b2b6d", "is_reserved": 0, "rental_uris": {"android": "https://dc.lft.to/lastmile_qr_scan", "ios": "https://dc.lft.to/lastmile_qr_scan"}, "fusion_lon": 0.0}, {"lat": 38.95492766666667, "is_disabled": 0, "type": "electric_scooter", "lon": -77.06553566666666, "bike_id": "2089d0ff16413269e6cf881b4e5ff181", "fusion_lat": 0.0, "name": "2089d0ff16413269e6cf881b4e5ff181", "is_reserved": 0, "rental_uris": {"android": "https://dc.lft.to/lastmile_qr_scan", "ios": "https://dc.lft.to/lastmile_qr_scan"}, "fusion_lon": 0.0}, {"lat": 38.89248666666667, "is_disabled": 0, "type": "electric_scooter", "lon": -77.03957733333333, "bike_id": "045898c7438097d87dc248a2bdf18fee", "fusion_lat": 0.0, "name": "045898c7438097d87dc248a2bdf18fee", "is_reserved": 0, "rental_uris": {"android": "https://dc.lft.to/lastmile_qr_scan", "ios": "https://dc.lft.to/lastmile_qr_scan"}, "fusion_lon": 0.0}, {"lat": 38.900815333333334, "is_disabled": 0, "type": "electric_scooter", "lon": -77.05031316666667, "bike_id": "ca29faefb3f1cad1c2eedb1e797bfa98", "fusion_lat": 0.0, "name": "ca29faefb3f1cad1c2eedb1e797bfa98", "is_reserved": 0, "rental_uris": {"android": "https://dc.lft.to/lastmile_qr_scan", "ios": "https://dc.lft.to/lastmile_qr_scan"}, "fusion_lon": 0.0}, {"lat": 38.892156666666665, "is_disabled": 0, "type": "electric_scooter", "lon": -77.02319683333333, "bike_id": "4fb59df3deee77636208ee20e956a849", "fusion_lat": 0.0, "name": "4fb59df3deee77636208ee20e956a849", "is_reserved": 0, "rental_uris": {"android": "https://dc.lft.to/lastmile_qr_scan", "ios": "https://dc.lft.to/lastmile_qr_scan"}, "fusion_lon": 0.0}, {"lat": 38.91865266666667, "is_disabled": 0, "type": "electric_scooter", "lon": -77.03174583333333, "bike_id": "70ec120aae8fbc9aed8d9bacf6348f54", "fusion_lat": 0.0, "name": "70ec120aae8fbc9aed8d9bacf6348f54", "is_reserved": 0, "rental_uris": {"android": "https://dc.lft.to/lastmile_qr_scan", "ios": "https://dc.lft.to/lastmile_qr_scan"}, "fusion_lon": 0.0}, {"lat": 38.89883066666667, "is_disabled": 0, "type": "electric_scooter", "lon": -77.04049866666666, "bike_id": "3b06ce41939dec61a5c5724339c185da", "fusion_lat": 0.0, "name": "3b06ce41939dec61a5c5724339c185da", "is_reserved": 0, "rental_uris": {"android": "https://dc.lft.to/lastmile_qr_scan", "ios": "https://dc.lft.to/lastmile_qr_scan"}, "fusion_lon": 0.0}, {"lat": 38.90522766666667, "is_disabled": 0, "type": "electric_scooter", "lon": -77.05013133333334, "bike_id": "8de094ab943bee6d5cf0ccad3d816453", "fusion_lat": 0.0, "name": "8de094ab943bee6d5cf0ccad3d816453", "is_reserved": 0, "rental_uris": {"android": "https://dc.lft.to/lastmile_qr_scan", "ios": "https://dc.lft.to/lastmile_qr_scan"}, "fusion_lon": 0.0}, {"lat": 38.881988, "is_disabled": 0, "type": "electric_scooter", "lon": -76.99624183333333, "bike_id": "040ba4638c4f0527a08372ae6e0d8f15", "fusion_lat": 0.0, "name": "040ba4638c4f0527a08372ae6e0d8f15", "is_reserved": 0, "rental_uris": {"android": "https://dc.lft.to/lastmile_qr_scan", "ios": "https://dc.lft.to/lastmile_qr_scan"}, "fusion_lon": 0.0}, {"lat": 38.92691266666667, "is_disabled": 0, "type": "electric_scooter", "lon": -77.02096366666666, "bike_id": "3e751773b6f5631d8a24b4f9184faa37", "fusion_lat": 0.0, "name": "3e751773b6f5631d8a24b4f9184faa37", "is_reserved": 0, "rental_uris": {"android": "https://dc.lft.to/lastmile_qr_scan", "ios": "https://dc.lft.to/lastmile_qr_scan"}, "fusion_lon": 0.0}, {"lat": 38.92486983333333, "is_disabled": 0, "type": "electric_scooter", "lon": -77.073332, "bike_id": "5b13e470db8d643a27ff87441d96061f", "fusion_lat": 0.0, "name": "5b13e470db8d643a27ff87441d96061f", "is_reserved": 0, "rental_uris": {"android": "https://dc.lft.to/lastmile_qr_scan", "ios": "https://dc.lft.to/lastmile_qr_scan"}, "fusion_lon": 0.0}, {"lat": 38.90810466666667, "is_disabled": 0, "type": "electric_scooter", "lon": -77.034468, "bike_id": "892e40e52c87ceefcb2a57d07055e7c8", "fusion_lat": 0.0, "name": "892e40e52c87ceefcb2a57d07055e7c8", "is_reserved": 0, "rental_uris": {"android": "https://dc.lft.to/lastmile_qr_scan", "ios": "https://dc.lft.to/lastmile_qr_scan"}, "fusion_lon": 0.0}, {"lat": 38.90785983333333, "is_disabled": 0, "type": "electric_scooter", "lon": -77.04330733333333, "bike_id": "9a4ffecdceb54c09771813f3d0ff16f0", "fusion_lat": 0.0, "name": "9a4ffecdceb54c09771813f3d0ff16f0", "is_reserved": 0, "rental_uris": {"android": "https://dc.lft.to/lastmile_qr_scan", "ios": "https://dc.lft.to/lastmile_qr_scan"}, "fusion_lon": 0.0}, {"lat": 38.895019, "is_disabled": 0, "type": "electric_scooter", "lon": -77.00327066666667, "bike_id": "bfb96684082815a75c18e09ad9161397", "fusion_lat": 0.0, "name": "bfb96684082815a75c18e09ad9161397", "is_reserved": 0, "rental_uris": {"android": "https://dc.lft.to/lastmile_qr_scan", "ios": "https://dc.lft.to/lastmile_qr_scan"}, "fusion_lon": 0.0}, {"lat": 38.89842766666666, "is_disabled": 0, "type": "electric_scooter", "lon": -76.946355, "bike_id": "4b07d01daa7145df96435b49b884869f", "fusion_lat": 0.0, "name": "4b07d01daa7145df96435b49b884869f", "is_reserved": 0, "rental_uris": {"android": "https://dc.lft.to/lastmile_qr_scan", "ios": "https://dc.lft.to/lastmile_qr_scan"}, "fusion_lon": 0.0}, {"lat": 38.94099, "is_disabled": 0, "type": "electric_scooter", "lon": -77.02104433333334, "bike_id": "dab8e4b539d526ac32b6c57e9dd46601", "fusion_lat": 0.0, "name": "dab8e4b539d526ac32b6c57e9dd46601", "is_reserved": 0, "rental_uris": {"android": "https://dc.lft.to/lastmile_qr_scan", "ios": "https://dc.lft.to/lastmile_qr_scan"}, "fusion_lon": 0.0}, {"lat": 38.917191833333334, "is_disabled": 0, "type": "electric_scooter", "lon": -77.029446, "bike_id": "42d0c73088aafe26378a1d01ea30506b", "fusion_lat": 0.0, "name": "42d0c73088aafe26378a1d01ea30506b", "is_reserved": 0, "rental_uris": {"android": "https://dc.lft.to/lastmile_qr_scan", "ios": "https://dc.lft.to/lastmile_qr_scan"}, "fusion_lon": 0.0}, {"lat": 38.915631833333336, "is_disabled": 0, "type": "electric_scooter", "lon": -77.0315455, "bike_id": "ff577183995944602fdd484fc080191a", "fusion_lat": 0.0, "name": "ff577183995944602fdd484fc080191a", "is_reserved": 0, "rental_uris": {"android": "https://dc.lft.to/lastmile_qr_scan", "ios": "https://dc.lft.to/lastmile_qr_scan"}, "fusion_lon": 0.0}, {"lat": 38.90816083333333, "is_disabled": 0, "type": "electric_scooter", "lon": -77.038362, "bike_id": "d9378177686913337aeec73e35ddfab1", "fusion_lat": 0.0, "name": "d9378177686913337aeec73e35ddfab1", "is_reserved": 0, "rental_uris": {"android": "https://dc.lft.to/lastmile_qr_scan", "ios": "https://dc.lft.to/lastmile_qr_scan"}, "fusion_lon": 0.0}, {"lat": 38.909549, "is_disabled": 0, "type": "electric_scooter", "lon": -77.023767, "bike_id": "864b82853594e21e109c601beb27f0db", "fusion_lat": 0.0, "name": "864b82853594e21e109c601beb27f0db", "is_reserved": 0, "rental_uris": {"android": "https://dc.lft.to/lastmile_qr_scan", "ios": "https://dc.lft.to/lastmile_qr_scan"}, "fusion_lon": 0.0}, {"lat": 38.85186566666667, "is_disabled": 0, "type": "electric_bike", "lon": -76.96111416666666, "bike_id": "9f86ac34afcf90bb2140a578a59c558a", "fusion_lat": 0.0, "name": "9f86ac34afcf90bb2140a578a59c558a", "is_reserved": 0, "rental_uris": {"android": "https://dc.lft.to/lastmile_qr_scan", "ios": "https://dc.lft.to/lastmile_qr_scan"}, "fusion_lon": 0.0}, {"lat": 38.902377, "is_disabled": 0, "type": "electric_scooter", "lon": -77.03973983333333, "bike_id": "585f3aec1344ccd0219054bc2595ed68", "fusion_lat": 0.0, "name": "585f3aec1344ccd0219054bc2595ed68", "is_reserved": 0, "rental_uris": {"android": "https://dc.lft.to/lastmile_qr_scan", "ios": "https://dc.lft.to/lastmile_qr_scan"}, "fusion_lon": 0.0}, {"lat": 38.90203233333333, "is_disabled": 0, "type": "electric_scooter", "lon": -77.02669133333333, "bike_id": "fdbd18ab1d91463fbce372980e4dbd4b", "fusion_lat": 0.0, "name": "fdbd18ab1d91463fbce372980e4dbd4b", "is_reserved": 0, "rental_uris": {"android": "https://dc.lft.to/lastmile_qr_scan", "ios": "https://dc.lft.to/lastmile_qr_scan"}, "fusion_lon": 0.0}, {"lat": 38.85514283333333, "is_disabled": 0, "type": "electric_bike", "lon": -77.12026, "bike_id": "92eda2945b0250d875392284068d12a7", "fusion_lat": 0.0, "name": "92eda2945b0250d875392284068d12a7", "is_reserved": 0, "rental_uris": {"android": "https://dc.lft.to/lastmile_qr_scan", "ios": "https://dc.lft.to/lastmile_qr_scan"}, "fusion_lon": 0.0}, {"lat": 38.94431183333333, "is_disabled": 0, "type": "electric_scooter", "lon": -77.015011, "bike_id": "2feda546d647741ba464dd533b0a675e", "fusion_lat": 0.0, "name": "2feda546d647741ba464dd533b0a675e", "is_reserved": 0, "rental_uris": {"android": "https://dc.lft.to/lastmile_qr_scan", "ios": "https://dc.lft.to/lastmile_qr_scan"}, "fusion_lon": 0.0}, {"lat": 38.92237766666667, "is_disabled": 0, "type": "electric_scooter", "lon": -77.03351316666667, "bike_id": "ebcef3a3904abe033e4c46bffb465b82", "fusion_lat": 0.0, "name": "ebcef3a3904abe033e4c46bffb465b82", "is_reserved": 0, "rental_uris": {"android": "https://dc.lft.to/lastmile_qr_scan", "ios": "https://dc.lft.to/lastmile_qr_scan"}, "fusion_lon": 0.0}, {"lat": 38.90054633333333, "is_disabled": 0, "type": "electric_scooter", "lon": -77.00195916666667, "bike_id": "26bfa78dca1a4dcaa8ae6ebed8fc87de", "fusion_lat": 0.0, "name": "26bfa78dca1a4dcaa8ae6ebed8fc87de", "is_reserved": 0, "rental_uris": {"android": "https://dc.lft.to/lastmile_qr_scan", "ios": "https://dc.lft.to/lastmile_qr_scan"}, "fusion_lon": 0.0}, {"lat": 38.9145815, "is_disabled": 0, "type": "electric_scooter", "lon": -77.014353, "bike_id": "e6bd5b2b52cffc1d90dbbc5afee089d4", "fusion_lat": 0.0, "name": "e6bd5b2b52cffc1d90dbbc5afee089d4", "is_reserved": 0, "rental_uris": {"android": "https://dc.lft.to/lastmile_qr_scan", "ios": "https://dc.lft.to/lastmile_qr_scan"}, "fusion_lon": 0.0}, {"lat": 38.900501, "is_disabled": 0, "type": "electric_scooter", "lon": -77.03331616666667, "bike_id": "f974bc3b8f9d6256cfe77000ff5706b8", "fusion_lat": 0.0, "name": "f974bc3b8f9d6256cfe77000ff5706b8", "is_reserved": 0, "rental_uris": {"android": "https://dc.lft.to/lastmile_qr_scan", "ios": "https://dc.lft.to/lastmile_qr_scan"}, "fusion_lon": 0.0}, {"lat": 38.87068983333333, "is_disabled": 0, "type": "electric_bike", "lon": -76.97833816666666, "bike_id": "3584744433a96a947446392dbe918f31", "fusion_lat": 0.0, "name": "3584744433a96a947446392dbe918f31", "is_reserved": 0, "rental_uris": {"android": "https://dc.lft.to/lastmile_qr_scan", "ios": "https://dc.lft.to/lastmile_qr_scan"}, "fusion_lon": 0.0}, {"lat": 38.879301, "is_disabled": 0, "type": "electric_scooter", "lon": -77.00904866666667, "bike_id": "616970661c8b332af1f50ebae1e4c10f", "fusion_lat": 0.0, "name": "616970661c8b332af1f50ebae1e4c10f", "is_reserved": 0, "rental_uris": {"android": "https://dc.lft.to/lastmile_qr_scan", "ios": "https://dc.lft.to/lastmile_qr_scan"}, "fusion_lon": 0.0}, {"lat": 38.914563, "is_disabled": 0, "type": "electric_bike", "lon": -76.97273183333333, "bike_id": "4c1b915e68774215ccbe57104223ac35", "fusion_lat": 0.0, "name": "4c1b915e68774215ccbe57104223ac35", "is_reserved": 0, "rental_uris": {"android": "https://dc.lft.to/lastmile_qr_scan", "ios": "https://dc.lft.to/lastmile_qr_scan"}, "fusion_lon": 0.0}, {"lat": 38.8922195, "is_disabled": 0, "type": "electric_scooter", "lon": -77.02212716666666, "bike_id": "4fcda46e558553448b392ebbff3fa155", "fusion_lat": 0.0, "name": "4fcda46e558553448b392ebbff3fa155", "is_reserved": 0, "rental_uris": {"android": "https://dc.lft.to/lastmile_qr_scan", "ios": "https://dc.lft.to/lastmile_qr_scan"}, "fusion_lon": 0.0}, {"lat": 38.90272383333333, "is_disabled": 0, "type": "electric_scooter", "lon": -77.017926, "bike_id": "63c6f67209b4ded263df301accca9770", "fusion_lat": 0.0, "name": "63c6f67209b4ded263df301accca9770", "is_reserved": 0, "rental_uris": {"android": "https://dc.lft.to/lastmile_qr_scan", "ios": "https://dc.lft.to/lastmile_qr_scan"}, "fusion_lon": 0.0}, {"lat": 38.890318, "is_disabled": 0, "type": "electric_scooter", "lon": -76.93755133333333, "bike_id": "c3079bf5dafaae698117eef7a27086e7", "fusion_lat": 0.0, "name": "c3079bf5dafaae698117eef7a27086e7", "is_reserved": 0, "rental_uris": {"android": "https://dc.lft.to/lastmile_qr_scan", "ios": "https://dc.lft.to/lastmile_qr_scan"}, "fusion_lon": 0.0}, {"lat": 38.9329845, "is_disabled": 0, "type": "electric_scooter", "lon": -77.04536133333333, "bike_id": "5c5ace388b3d983269763604b90960ab", "fusion_lat": 0.0, "name": "5c5ace388b3d983269763604b90960ab", "is_reserved": 0, "rental_uris": {"android": "https://dc.lft.to/lastmile_qr_scan", "ios": "https://dc.lft.to/lastmile_qr_scan"}, "fusion_lon": 0.0}, {"lat": 38.928761, "is_disabled": 0, "type": "electric_scooter", "lon": -77.03715616666666, "bike_id": "60971218f11e775e26512eb4b46e8d91", "fusion_lat": 0.0, "name": "60971218f11e775e26512eb4b46e8d91", "is_reserved": 0, "rental_uris": {"android": "https://dc.lft.to/lastmile_qr_scan", "ios": "https://dc.lft.to/lastmile_qr_scan"}, "fusion_lon": 0.0}, {"lat": 38.91748283333333, "is_disabled": 0, "type": "electric_scooter", "lon": -77.0319635, "bike_id": "9158fb8f322c827673d4b65eeff630cb", "fusion_lat": 0.0, "name": "9158fb8f322c827673d4b65eeff630cb", "is_reserved": 0, "rental_uris": {"android": "https://dc.lft.to/lastmile_qr_scan", "ios": "https://dc.lft.to/lastmile_qr_scan"}, "fusion_lon": 0.0}, {"lat": 38.907259, "is_disabled": 0, "type": "electric_scooter", "lon": -77.03440833333333, "bike_id": "2ade1a8ca954418f2eb8ea5a39020111", "fusion_lat": 0.0, "name": "2ade1a8ca954418f2eb8ea5a39020111", "is_reserved": 0, "rental_uris": {"android": "https://dc.lft.to/lastmile_qr_scan", "ios": "https://dc.lft.to/lastmile_qr_scan"}, "fusion_lon": 0.0}, {"lat": 38.9071915, "is_disabled": 0, "type": "electric_scooter", "lon": -77.02985133333334, "bike_id": "d0c9017efadb67dc470bcfdc884e2299", "fusion_lat": 0.0, "name": "d0c9017efadb67dc470bcfdc884e2299", "is_reserved": 0, "rental_uris": {"android": "https://dc.lft.to/lastmile_qr_scan", "ios": "https://dc.lft.to/lastmile_qr_scan"}, "fusion_lon": 0.0}, {"lat": 38.90295166666667, "is_disabled": 0, "type": "electric_scooter", "lon": -77.04404516666666, "bike_id": "7abb205babc7f52c82b5b3f9b6818bf2", "fusion_lat": 0.0, "name": "7abb205babc7f52c82b5b3f9b6818bf2", "is_reserved": 0, "rental_uris": {"android": "https://dc.lft.to/lastmile_qr_scan", "ios": "https://dc.lft.to/lastmile_qr_scan"}, "fusion_lon": 0.0}, {"lat": 38.9311985, "is_disabled": 0, "type": "electric_scooter", "lon": -77.020892, "bike_id": "c5aeae1f97c8a2058b39df16b87a7927", "fusion_lat": 0.0, "name": "c5aeae1f97c8a2058b39df16b87a7927", "is_reserved": 0, "rental_uris": {"android": "https://dc.lft.to/lastmile_qr_scan", "ios": "https://dc.lft.to/lastmile_qr_scan"}, "fusion_lon": 0.0}, {"lat": 38.885899, "is_disabled": 0, "type": "electric_scooter", "lon": -77.0219915, "bike_id": "18d63f70735921b11af8088d89ebac70", "fusion_lat": 0.0, "name": "18d63f70735921b11af8088d89ebac70", "is_reserved": 0, "rental_uris": {"android": "https://dc.lft.to/lastmile_qr_scan", "ios": "https://dc.lft.to/lastmile_qr_scan"}, "fusion_lon": 0.0}, {"lat": 38.90733216666667, "is_disabled": 0, "type": "electric_scooter", "lon": -77.02712316666667, "bike_id": "ccb2369a0e6a037419439813f092cee0", "fusion_lat": 0.0, "name": "ccb2369a0e6a037419439813f092cee0", "is_reserved": 0, "rental_uris": {"android": "https://dc.lft.to/lastmile_qr_scan", "ios": "https://dc.lft.to/lastmile_qr_scan"}, "fusion_lon": 0.0}, {"lat": 38.93388683333333, "is_disabled": 0, "type": "electric_scooter", "lon": -77.0325595, "bike_id": "ba407eae2fb615632718b493973746df", "fusion_lat": 0.0, "name": "ba407eae2fb615632718b493973746df", "is_reserved": 0, "rental_uris": {"android": "https://dc.lft.to/lastmile_qr_scan", "ios": "https://dc.lft.to/lastmile_qr_scan"}, "fusion_lon": 0.0}, {"lat": 38.916935333333335, "is_disabled": 0, "type": "electric_scooter", "lon": -77.02946316666667, "bike_id": "c5eb92da280139bc31c4669223b0b2fa", "fusion_lat": 0.0, "name": "c5eb92da280139bc31c4669223b0b2fa", "is_reserved": 0, "rental_uris": {"android": "https://dc.lft.to/lastmile_qr_scan", "ios": "https://dc.lft.to/lastmile_qr_scan"}, "fusion_lon": 0.0}, {"lat": 38.89219383333333, "is_disabled": 0, "type": "electric_scooter", "lon": -77.04515833333333, "bike_id": "3d40f95d86fff1cbcade5aab777c296c", "fusion_lat": 0.0, "name": "3d40f95d86fff1cbcade5aab777c296c", "is_reserved": 0, "rental_uris": {"android": "https://dc.lft.to/lastmile_qr_scan", "ios": "https://dc.lft.to/lastmile_qr_scan"}, "fusion_lon": 0.0}, {"lat": 38.915646, "is_disabled": 0, "type": "electric_scooter", "lon": -77.0384955, "bike_id": "2fa2d05933777038fbc0b1f50bf3563b", "fusion_lat": 0.0, "name": "2fa2d05933777038fbc0b1f50bf3563b", "is_reserved": 0, "rental_uris": {"android": "https://dc.lft.to/lastmile_qr_scan", "ios": "https://dc.lft.to/lastmile_qr_scan"}, "fusion_lon": 0.0}, {"lat": 38.92765416666667, "is_disabled": 0, "type": "electric_scooter", "lon": -77.02735933333334, "bike_id": "76a23a8b6e6e5ff56636ff3d69c0641c", "fusion_lat": 0.0, "name": "76a23a8b6e6e5ff56636ff3d69c0641c", "is_reserved": 0, "rental_uris": {"android": "https://dc.lft.to/lastmile_qr_scan", "ios": "https://dc.lft.to/lastmile_qr_scan"}, "fusion_lon": 0.0}, {"lat": 38.900609333333335, "is_disabled": 0, "type": "electric_scooter", "lon": -77.01220166666667, "bike_id": "5c8802db128cca5208e359c8c7ce1005", "fusion_lat": 0.0, "name": "5c8802db128cca5208e359c8c7ce1005", "is_reserved": 0, "rental_uris": {"android": "https://dc.lft.to/lastmile_qr_scan", "ios": "https://dc.lft.to/lastmile_qr_scan"}, "fusion_lon": 0.0}, {"lat": 38.90040966666667, "is_disabled": 0, "type": "electric_scooter", "lon": -77.033542, "bike_id": "c1a3906b6cf9856af59b2f13fef6bd4f", "fusion_lat": 0.0, "name": "c1a3906b6cf9856af59b2f13fef6bd4f", "is_reserved": 0, "rental_uris": {"android": "https://dc.lft.to/lastmile_qr_scan", "ios": "https://dc.lft.to/lastmile_qr_scan"}, "fusion_lon": 0.0}, {"lat": 38.933177, "is_disabled": 0, "type": "electric_scooter", "lon": -77.04522733333333, "bike_id": "6efb5cb84a53c00d5c7c69444c0e4e35", "fusion_lat": 0.0, "name": "6efb5cb84a53c00d5c7c69444c0e4e35", "is_reserved": 0, "rental_uris": {"android": "https://dc.lft.to/lastmile_qr_scan", "ios": "https://dc.lft.to/lastmile_qr_scan"}, "fusion_lon": 0.0}, {"lat": 38.866776, "is_disabled": 0, "type": "electric_scooter", "lon": -76.9853995, "bike_id": "a47abd8b5ad59a30b983ab652bcde372", "fusion_lat": 0.0, "name": "a47abd8b5ad59a30b983ab652bcde372", "is_reserved": 0, "rental_uris": {"android": "https://dc.lft.to/lastmile_qr_scan", "ios": "https://dc.lft.to/lastmile_qr_scan"}, "fusion_lon": 0.0}, {"lat": 38.917791, "is_disabled": 0, "type": "electric_scooter", "lon": -77.02311033333334, "bike_id": "c17aa12212788101f225ed2db2b0713c", "fusion_lat": 0.0, "name": "c17aa12212788101f225ed2db2b0713c", "is_reserved": 0, "rental_uris": {"android": "https://dc.lft.to/lastmile_qr_scan", "ios": "https://dc.lft.to/lastmile_qr_scan"}, "fusion_lon": 0.0}, {"lat": 38.89743383333333, "is_disabled": 0, "type": "electric_scooter", "lon": -77.00076183333333, "bike_id": "c60d369bc0db3a215e9dd53074810252", "fusion_lat": 0.0, "name": "c60d369bc0db3a215e9dd53074810252", "is_reserved": 0, "rental_uris": {"android": "https://dc.lft.to/lastmile_qr_scan", "ios": "https://dc.lft.to/lastmile_qr_scan"}, "fusion_lon": 0.0}, {"lat": 38.89219583333333, "is_disabled": 0, "type": "electric_scooter", "lon": -77.04201533333334, "bike_id": "4d59c4a131ef67c9566b6aba72eaf042", "fusion_lat": 0.0, "name": "4d59c4a131ef67c9566b6aba72eaf042", "is_reserved": 0, "rental_uris": {"android": "https://dc.lft.to/lastmile_qr_scan", "ios": "https://dc.lft.to/lastmile_qr_scan"}, "fusion_lon": 0.0}, {"lat": 38.91779, "is_disabled": 0, "type": "electric_scooter", "lon": -77.0366135, "bike_id": "c6e6c5035b8e0cf884733ce4f0ee525f", "fusion_lat": 0.0, "name": "c6e6c5035b8e0cf884733ce4f0ee525f", "is_reserved": 0, "rental_uris": {"android": "https://dc.lft.to/lastmile_qr_scan", "ios": "https://dc.lft.to/lastmile_qr_scan"}, "fusion_lon": 0.0}, {"lat": 38.897474833333334, "is_disabled": 0, "type": "electric_scooter", "lon": -77.02680933333333, "bike_id": "49c0b6ee7c0b71a90cb60b4581d874ed", "fusion_lat": 0.0, "name": "49c0b6ee7c0b71a90cb60b4581d874ed", "is_reserved": 0, "rental_uris": {"android": "https://dc.lft.to/lastmile_qr_scan", "ios": "https://dc.lft.to/lastmile_qr_scan"}, "fusion_lon": 0.0}, {"lat": 38.905714333333336, "is_disabled": 0, "type": "electric_scooter", "lon": -77.048625, "bike_id": "1b2b468a09bd8c8b247a9613f829aa52", "fusion_lat": 0.0, "name": "1b2b468a09bd8c8b247a9613f829aa52", "is_reserved": 0, "rental_uris": {"android": "https://dc.lft.to/lastmile_qr_scan", "ios": "https://dc.lft.to/lastmile_qr_scan"}, "fusion_lon": 0.0}, {"lat": 38.91311433333333, "is_disabled": 0, "type": "electric_scooter", "lon": -77.01442066666667, "bike_id": "634c0b1a7105e672ff1e5f5a523a52ae", "fusion_lat": 0.0, "name": "634c0b1a7105e672ff1e5f5a523a52ae", "is_reserved": 0, "rental_uris": {"android": "https://dc.lft.to/lastmile_qr_scan", "ios": "https://dc.lft.to/lastmile_qr_scan"}, "fusion_lon": 0.0}, {"lat": 38.89851516666667, "is_disabled": 0, "type": "electric_scooter", "lon": -77.02023133333333, "bike_id": "237083652dac961bae8fe83deab2e225", "fusion_lat": 0.0, "name": "237083652dac961bae8fe83deab2e225", "is_reserved": 0, "rental_uris": {"android": "https://dc.lft.to/lastmile_qr_scan", "ios": "https://dc.lft.to/lastmile_qr_scan"}, "fusion_lon": 0.0}, {"lat": 38.87730633333334, "is_disabled": 0, "type": "electric_bike", "lon": -76.9810915, "bike_id": "1ad46f79fb8cd449b0ff7329a8ac6878", "fusion_lat": 0.0, "name": "1ad46f79fb8cd449b0ff7329a8ac6878", "is_reserved": 0, "rental_uris": {"android": "https://dc.lft.to/lastmile_qr_scan", "ios": "https://dc.lft.to/lastmile_qr_scan"}, "fusion_lon": 0.0}, {"lat": 38.9220975, "is_disabled": 0, "type": "electric_scooter", "lon": -77.040208, "bike_id": "4ca505e18c9bb875694a0f87ed16fab8", "fusion_lat": 0.0, "name": "4ca505e18c9bb875694a0f87ed16fab8", "is_reserved": 0, "rental_uris": {"android": "https://dc.lft.to/lastmile_qr_scan", "ios": "https://dc.lft.to/lastmile_qr_scan"}, "fusion_lon": 0.0}, {"lat": 38.902665999999996, "is_disabled": 0, "type": "electric_scooter", "lon": -77.0383635, "bike_id": "4914312b19e127162aaca30b4a73d7fa", "fusion_lat": 0.0, "name": "4914312b19e127162aaca30b4a73d7fa", "is_reserved": 0, "rental_uris": {"android": "https://dc.lft.to/lastmile_qr_scan", "ios": "https://dc.lft.to/lastmile_qr_scan"}, "fusion_lon": 0.0}, {"lat": 38.926101333333335, "is_disabled": 0, "type": "electric_scooter", "lon": -77.04144083333334, "bike_id": "c282a0a8b4ec68383e3308e4883c383b", "fusion_lat": 0.0, "name": "c282a0a8b4ec68383e3308e4883c383b", "is_reserved": 0, "rental_uris": {"android": "https://dc.lft.to/lastmile_qr_scan", "ios": "https://dc.lft.to/lastmile_qr_scan"}, "fusion_lon": 0.0}, {"lat": 38.90746033333333, "is_disabled": 0, "type": "electric_scooter", "lon": -77.03450816666667, "bike_id": "c5879303b1d7b1fcfacdfb7aaa8dc778", "fusion_lat": 0.0, "name": "c5879303b1d7b1fcfacdfb7aaa8dc778", "is_reserved": 0, "rental_uris": {"android": "https://dc.lft.to/lastmile_qr_scan", "ios": "https://dc.lft.to/lastmile_qr_scan"}, "fusion_lon": 0.0}, {"lat": 38.9335845, "is_disabled": 0, "type": "electric_bike", "lon": -77.0996175, "bike_id": "f0c6376aff29a910a8479475288741f3", "fusion_lat": 0.0, "name": "f0c6376aff29a910a8479475288741f3", "is_reserved": 0, "rental_uris": {"android": "https://dc.lft.to/lastmile_qr_scan", "ios": "https://dc.lft.to/lastmile_qr_scan"}, "fusion_lon": 0.0}, {"lat": 38.90063416666667, "is_disabled": 0, "type": "electric_scooter", "lon": -77.00202683333333, "bike_id": "9eaf7b2a9de37ffe1844eb95e5fc153a", "fusion_lat": 0.0, "name": "9eaf7b2a9de37ffe1844eb95e5fc153a", "is_reserved": 0, "rental_uris": {"android": "https://dc.lft.to/lastmile_qr_scan", "ios": "https://dc.lft.to/lastmile_qr_scan"}, "fusion_lon": 0.0}, {"lat": 38.90246116666667, "is_disabled": 0, "type": "electric_scooter", "lon": -77.03965116666667, "bike_id": "f6d40937e0ab15ce5e70ccc33a57b82b", "fusion_lat": 0.0, "name": "f6d40937e0ab15ce5e70ccc33a57b82b", "is_reserved": 0, "rental_uris": {"android": "https://dc.lft.to/lastmile_qr_scan", "ios": "https://dc.lft.to/lastmile_qr_scan"}, "fusion_lon": 0.0}, {"lat": 38.90983883333333, "is_disabled": 0, "type": "electric_scooter", "lon": -77.03197916666667, "bike_id": "d691bd0d83063556dd7e3866d636084c", "fusion_lat": 0.0, "name": "d691bd0d83063556dd7e3866d636084c", "is_reserved": 0, "rental_uris": {"android": "https://dc.lft.to/lastmile_qr_scan", "ios": "https://dc.lft.to/lastmile_qr_scan"}, "fusion_lon": 0.0}, {"lat": 38.9236075, "is_disabled": 0, "type": "electric_scooter", "lon": -77.05131383333334, "bike_id": "eac7900efe9f48d3bab3c455d7af0ccd", "fusion_lat": 0.0, "name": "eac7900efe9f48d3bab3c455d7af0ccd", "is_reserved": 0, "rental_uris": {"android": "https://dc.lft.to/lastmile_qr_scan", "ios": "https://dc.lft.to/lastmile_qr_scan"}, "fusion_lon": 0.0}, {"lat": 38.91013983333333, "is_disabled": 0, "type": "electric_scooter", "lon": -77.02195316666666, "bike_id": "b885d830cabb428bd52b25c015275593", "fusion_lat": 0.0, "name": "b885d830cabb428bd52b25c015275593", "is_reserved": 0, "rental_uris": {"android": "https://dc.lft.to/lastmile_qr_scan", "ios": "https://dc.lft.to/lastmile_qr_scan"}, "fusion_lon": 0.0}, {"lat": 38.91620733333333, "is_disabled": 0, "type": "electric_scooter", "lon": -77.01085516666667, "bike_id": "acf356c7f0ac82a2b4520a44111a533b", "fusion_lat": 0.0, "name": "acf356c7f0ac82a2b4520a44111a533b", "is_reserved": 0, "rental_uris": {"android": "https://dc.lft.to/lastmile_qr_scan", "ios": "https://dc.lft.to/lastmile_qr_scan"}, "fusion_lon": 0.0}, {"lat": 38.90340883333333, "is_disabled": 0, "type": "electric_scooter", "lon": -77.04463866666667, "bike_id": "f9a0454f2ef3287dfdcae1fcc69748fa", "fusion_lat": 0.0, "name": "f9a0454f2ef3287dfdcae1fcc69748fa", "is_reserved": 0, "rental_uris": {"android": "https://dc.lft.to/lastmile_qr_scan", "ios": "https://dc.lft.to/lastmile_qr_scan"}, "fusion_lon": 0.0}, {"lat": 38.92599666666667, "is_disabled": 0, "type": "electric_scooter", "lon": -77.02155216666667, "bike_id": "6182256d957f02c5494a3d4c4bef3a73", "fusion_lat": 0.0, "name": "6182256d957f02c5494a3d4c4bef3a73", "is_reserved": 0, "rental_uris": {"android": "https://dc.lft.to/lastmile_qr_scan", "ios": "https://dc.lft.to/lastmile_qr_scan"}, "fusion_lon": 0.0}, {"lat": 38.919294, "is_disabled": 0, "type": "electric_scooter", "lon": -77.031887, "bike_id": "1c74622b375833d998e40ad41ad888ca", "fusion_lat": 0.0, "name": "1c74622b375833d998e40ad41ad888ca", "is_reserved": 0, "rental_uris": {"android": "https://dc.lft.to/lastmile_qr_scan", "ios": "https://dc.lft.to/lastmile_qr_scan"}, "fusion_lon": 0.0}, {"lat": 38.91431733333334, "is_disabled": 0, "type": "electric_scooter", "lon": -77.0234345, "bike_id": "796aa481b90cefc75df241248c60db8a", "fusion_lat": 0.0, "name": "796aa481b90cefc75df241248c60db8a", "is_reserved": 0, "rental_uris": {"android": "https://dc.lft.to/lastmile_qr_scan", "ios": "https://dc.lft.to/lastmile_qr_scan"}, "fusion_lon": 0.0}, {"lat": 38.917081, "is_disabled": 0, "type": "electric_scooter", "lon": -77.04048033333333, "bike_id": "4b32f0417cae32d9dd9376d851614dbe", "fusion_lat": 0.0, "name": "4b32f0417cae32d9dd9376d851614dbe", "is_reserved": 0, "rental_uris": {"android": "https://dc.lft.to/lastmile_qr_scan", "ios": "https://dc.lft.to/lastmile_qr_scan"}, "fusion_lon": 0.0}, {"lat": 38.907428, "is_disabled": 0, "type": "electric_scooter", "lon": -77.03443133333333, "bike_id": "031f2ec3ab762be3e842ee4136ce3e87", "fusion_lat": 0.0, "name": "031f2ec3ab762be3e842ee4136ce3e87", "is_reserved": 0, "rental_uris": {"android": "https://dc.lft.to/lastmile_qr_scan", "ios": "https://dc.lft.to/lastmile_qr_scan"}, "fusion_lon": 0.0}, {"lat": 38.91787566666667, "is_disabled": 0, "type": "electric_scooter", "lon": -77.02310783333333, "bike_id": "c68f721d5b952ea9846d625e7b286b2a", "fusion_lat": 0.0, "name": "c68f721d5b952ea9846d625e7b286b2a", "is_reserved": 0, "rental_uris": {"android": "https://dc.lft.to/lastmile_qr_scan", "ios": "https://dc.lft.to/lastmile_qr_scan"}, "fusion_lon": 0.0}, {"lat": 38.910363333333336, "is_disabled": 0, "type": "electric_scooter", "lon": -77.03861583333334, "bike_id": "fad6aa35c0d8f1e88283a4bbc439d335", "fusion_lat": 0.0, "name": "fad6aa35c0d8f1e88283a4bbc439d335", "is_reserved": 0, "rental_uris": {"android": "https://dc.lft.to/lastmile_qr_scan", "ios": "https://dc.lft.to/lastmile_qr_scan"}, "fusion_lon": 0.0}, {"lat": 38.899467333333334, "is_disabled": 0, "type": "electric_scooter", "lon": -77.02572566666667, "bike_id": "79a4e11d8023aef438b1d724b1d37f20", "fusion_lat": 0.0, "name": "79a4e11d8023aef438b1d724b1d37f20", "is_reserved": 0, "rental_uris": {"android": "https://dc.lft.to/lastmile_qr_scan", "ios": "https://dc.lft.to/lastmile_qr_scan"}, "fusion_lon": 0.0}, {"lat": 38.944284333333336, "is_disabled": 0, "type": "electric_scooter", "lon": -77.06338933333333, "bike_id": "2c7279767df5625147951ab84ef12319", "fusion_lat": 0.0, "name": "2c7279767df5625147951ab84ef12319", "is_reserved": 0, "rental_uris": {"android": "https://dc.lft.to/lastmile_qr_scan", "ios": "https://dc.lft.to/lastmile_qr_scan"}, "fusion_lon": 0.0}, {"lat": 38.89605516666666, "is_disabled": 0, "type": "electric_scooter", "lon": -77.05465333333333, "bike_id": "5a7fd7608cbea9fb8c3dbf76e3779163", "fusion_lat": 0.0, "name": "5a7fd7608cbea9fb8c3dbf76e3779163", "is_reserved": 0, "rental_uris": {"android": "https://dc.lft.to/lastmile_qr_scan", "ios": "https://dc.lft.to/lastmile_qr_scan"}, "fusion_lon": 0.0}, {"lat": 38.91105866666667, "is_disabled": 0, "type": "electric_scooter", "lon": -77.048382, "bike_id": "467bcfac3f1ef6a3657560ca3b4e2626", "fusion_lat": 0.0, "name": "467bcfac3f1ef6a3657560ca3b4e2626", "is_reserved": 0, "rental_uris": {"android": "https://dc.lft.to/lastmile_qr_scan", "ios": "https://dc.lft.to/lastmile_qr_scan"}, "fusion_lon": 0.0}, {"lat": 38.908634, "is_disabled": 0, "type": "electric_scooter", "lon": -77.01271083333333, "bike_id": "ef26faf2a64e2b2a40b31fdfa2d38557", "fusion_lat": 0.0, "name": "ef26faf2a64e2b2a40b31fdfa2d38557", "is_reserved": 0, "rental_uris": {"android": "https://dc.lft.to/lastmile_qr_scan", "ios": "https://dc.lft.to/lastmile_qr_scan"}, "fusion_lon": 0.0}, {"lat": 38.90259016666667, "is_disabled": 0, "type": "electric_scooter", "lon": -77.06238333333333, "bike_id": "bcedf81490cdfc2671af8bc44a59d8a3", "fusion_lat": 0.0, "name": "bcedf81490cdfc2671af8bc44a59d8a3", "is_reserved": 0, "rental_uris": {"android": "https://dc.lft.to/lastmile_qr_scan", "ios": "https://dc.lft.to/lastmile_qr_scan"}, "fusion_lon": 0.0}, {"lat": 38.928523166666665, "is_disabled": 0, "type": "electric_scooter", "lon": -77.03322233333333, "bike_id": "1c026decd45a11bf5943eae55ada3a4c", "fusion_lat": 0.0, "name": "1c026decd45a11bf5943eae55ada3a4c", "is_reserved": 0, "rental_uris": {"android": "https://dc.lft.to/lastmile_qr_scan", "ios": "https://dc.lft.to/lastmile_qr_scan"}, "fusion_lon": 0.0}, {"lat": 38.91421783333333, "is_disabled": 0, "type": "electric_scooter", "lon": -77.0464745, "bike_id": "beb6985fc65c754a4da21b2af631762a", "fusion_lat": 0.0, "name": "beb6985fc65c754a4da21b2af631762a", "is_reserved": 0, "rental_uris": {"android": "https://dc.lft.to/lastmile_qr_scan", "ios": "https://dc.lft.to/lastmile_qr_scan"}, "fusion_lon": 0.0}, {"lat": 38.916138, "is_disabled": 0, "type": "electric_scooter", "lon": -77.03271033333333, "bike_id": "857f3cbbdb4f7181903461ed3b4d1139", "fusion_lat": 0.0, "name": "857f3cbbdb4f7181903461ed3b4d1139", "is_reserved": 0, "rental_uris": {"android": "https://dc.lft.to/lastmile_qr_scan", "ios": "https://dc.lft.to/lastmile_qr_scan"}, "fusion_lon": 0.0}, {"lat": 38.916096833333334, "is_disabled": 0, "type": "electric_bike", "lon": -77.00287383333334, "bike_id": "a3e27518c19d4dc82f52c05ac0e35271", "fusion_lat": 0.0, "name": "a3e27518c19d4dc82f52c05ac0e35271", "is_reserved": 0, "rental_uris": {"android": "https://dc.lft.to/lastmile_qr_scan", "ios": "https://dc.lft.to/lastmile_qr_scan"}, "fusion_lon": 0.0}, {"lat": 38.892209333333334, "is_disabled": 0, "type": "electric_scooter", "lon": -77.03162783333333, "bike_id": "271cd193f90b075d5c52d5a42302e6c0", "fusion_lat": 0.0, "name": "271cd193f90b075d5c52d5a42302e6c0", "is_reserved": 0, "rental_uris": {"android": "https://dc.lft.to/lastmile_qr_scan", "ios": "https://dc.lft.to/lastmile_qr_scan"}, "fusion_lon": 0.0}, {"lat": 38.871471166666666, "is_disabled": 0, "type": "electric_bike", "lon": -76.937063, "bike_id": "4aeb24ed72fd7ac040282627af163e49", "fusion_lat": 0.0, "name": "4aeb24ed72fd7ac040282627af163e49", "is_reserved": 0, "rental_uris": {"android": "https://dc.lft.to/lastmile_qr_scan", "ios": "https://dc.lft.to/lastmile_qr_scan"}, "fusion_lon": 0.0}, {"lat": 38.86830766666667, "is_disabled": 0, "type": "electric_scooter", "lon": -76.97744033333333, "bike_id": "12645e78b56a1fa5d01d5668e29c7c79", "fusion_lat": 0.0, "name": "12645e78b56a1fa5d01d5668e29c7c79", "is_reserved": 0, "rental_uris": {"android": "https://dc.lft.to/lastmile_qr_scan", "ios": "https://dc.lft.to/lastmile_qr_scan"}, "fusion_lon": 0.0}, {"lat": 38.88736433333333, "is_disabled": 0, "type": "electric_scooter", "lon": -77.0220645, "bike_id": "eebb96419ee985fa51c8df1468f7c5ba", "fusion_lat": 0.0, "name": "eebb96419ee985fa51c8df1468f7c5ba", "is_reserved": 0, "rental_uris": {"android": "https://dc.lft.to/lastmile_qr_scan", "ios": "https://dc.lft.to/lastmile_qr_scan"}, "fusion_lon": 0.0}, {"lat": 38.8922045, "is_disabled": 0, "type": "electric_scooter", "lon": -77.043696, "bike_id": "25b20326a08bcc7e4433b4b3e72186a5", "fusion_lat": 0.0, "name": "25b20326a08bcc7e4433b4b3e72186a5", "is_reserved": 0, "rental_uris": {"android": "https://dc.lft.to/lastmile_qr_scan", "ios": "https://dc.lft.to/lastmile_qr_scan"}, "fusion_lon": 0.0}, {"lat": 38.900659166666664, "is_disabled": 0, "type": "electric_scooter", "lon": -77.05067066666666, "bike_id": "2a0a34d751f6dc23fd6edf9e7e2a8318", "fusion_lat": 0.0, "name": "2a0a34d751f6dc23fd6edf9e7e2a8318", "is_reserved": 0, "rental_uris": {"android": "https://dc.lft.to/lastmile_qr_scan", "ios": "https://dc.lft.to/lastmile_qr_scan"}, "fusion_lon": 0.0}, {"lat": 38.9064135, "is_disabled": 0, "type": "electric_scooter", "lon": -77.02509366666666, "bike_id": "ec9bd8d1533ed14b2985a198de0de53e", "fusion_lat": 0.0, "name": "ec9bd8d1533ed14b2985a198de0de53e", "is_reserved": 0, "rental_uris": {"android": "https://dc.lft.to/lastmile_qr_scan", "ios": "https://dc.lft.to/lastmile_qr_scan"}, "fusion_lon": 0.0}, {"lat": 38.912633, "is_disabled": 0, "type": "electric_scooter", "lon": -77.03876433333333, "bike_id": "fe8dbd0cec0ca589569b5a19ec99ee13", "fusion_lat": 0.0, "name": "fe8dbd0cec0ca589569b5a19ec99ee13", "is_reserved": 0, "rental_uris": {"android": "https://dc.lft.to/lastmile_qr_scan", "ios": "https://dc.lft.to/lastmile_qr_scan"}, "fusion_lon": 0.0}, {"lat": 38.9302035, "is_disabled": 0, "type": "electric_scooter", "lon": -77.0445075, "bike_id": "9b216ab7e4211f4e2ecb02c96c4267d1", "fusion_lat": 0.0, "name": "9b216ab7e4211f4e2ecb02c96c4267d1", "is_reserved": 0, "rental_uris": {"android": "https://dc.lft.to/lastmile_qr_scan", "ios": "https://dc.lft.to/lastmile_qr_scan"}, "fusion_lon": 0.0}, {"lat": 38.902714333333336, "is_disabled": 0, "type": "electric_scooter", "lon": -77.01816083333334, "bike_id": "69752fd3e09fa3eb7ef6cd0b5b6f75d0", "fusion_lat": 0.0, "name": "69752fd3e09fa3eb7ef6cd0b5b6f75d0", "is_reserved": 0, "rental_uris": {"android": "https://dc.lft.to/lastmile_qr_scan", "ios": "https://dc.lft.to/lastmile_qr_scan"}, "fusion_lon": 0.0}, {"lat": 38.9249555, "is_disabled": 0, "type": "electric_scooter", "lon": -77.05221616666667, "bike_id": "c018547427e34337624dc63d050714a0", "fusion_lat": 0.0, "name": "c018547427e34337624dc63d050714a0", "is_reserved": 0, "rental_uris": {"android": "https://dc.lft.to/lastmile_qr_scan", "ios": "https://dc.lft.to/lastmile_qr_scan"}, "fusion_lon": 0.0}, {"lat": 38.828738333333334, "is_disabled": 0, "type": "electric_bike", "lon": -77.11221566666667, "bike_id": "8d256a1ebd952af0cf49c42f71d174ad", "fusion_lat": 0.0, "name": "8d256a1ebd952af0cf49c42f71d174ad", "is_reserved": 0, "rental_uris": {"android": "https://dc.lft.to/lastmile_qr_scan", "ios": "https://dc.lft.to/lastmile_qr_scan"}, "fusion_lon": 0.0}, {"lat": 38.9098635, "is_disabled": 0, "type": "electric_scooter", "lon": -76.997352, "bike_id": "72e09dd6db28fbe22fb318d00a47f98e", "fusion_lat": 0.0, "name": "72e09dd6db28fbe22fb318d00a47f98e", "is_reserved": 0, "rental_uris": {"android": "https://dc.lft.to/lastmile_qr_scan", "ios": "https://dc.lft.to/lastmile_qr_scan"}, "fusion_lon": 0.0}, {"lat": 38.923879666666664, "is_disabled": 0, "type": "electric_scooter", "lon": -77.0322665, "bike_id": "4168196c3b1a01acc99e1dfad05c5b7b", "fusion_lat": 0.0, "name": "4168196c3b1a01acc99e1dfad05c5b7b", "is_reserved": 0, "rental_uris": {"android": "https://dc.lft.to/lastmile_qr_scan", "ios": "https://dc.lft.to/lastmile_qr_scan"}, "fusion_lon": 0.0}, {"lat": 38.89967433333333, "is_disabled": 0, "type": "electric_scooter", "lon": -77.05184783333333, "bike_id": "aa18264c92641132d727e984489c8967", "fusion_lat": 0.0, "name": "aa18264c92641132d727e984489c8967", "is_reserved": 0, "rental_uris": {"android": "https://dc.lft.to/lastmile_qr_scan", "ios": "https://dc.lft.to/lastmile_qr_scan"}, "fusion_lon": 0.0}, {"lat": 38.900655, "is_disabled": 0, "type": "electric_scooter", "lon": -77.00199233333333, "bike_id": "4c3527fcc7cfca62c641fcaeb556808a", "fusion_lat": 0.0, "name": "4c3527fcc7cfca62c641fcaeb556808a", "is_reserved": 0, "rental_uris": {"android": "https://dc.lft.to/lastmile_qr_scan", "ios": "https://dc.lft.to/lastmile_qr_scan"}, "fusion_lon": 0.0}, {"lat": 38.93595233333333, "is_disabled": 0, "type": "electric_scooter", "lon": -77.036528, "bike_id": "74218cab9a7f6d8e52d98eb94b56c6e7", "fusion_lat": 0.0, "name": "74218cab9a7f6d8e52d98eb94b56c6e7", "is_reserved": 0, "rental_uris": {"android": "https://dc.lft.to/lastmile_qr_scan", "ios": "https://dc.lft.to/lastmile_qr_scan"}, "fusion_lon": 0.0}, {"lat": 38.93153216666666, "is_disabled": 0, "type": "electric_scooter", "lon": -77.03631, "bike_id": "c4b849d57e40d2c317ac2a5084f73d6d", "fusion_lat": 0.0, "name": "c4b849d57e40d2c317ac2a5084f73d6d", "is_reserved": 0, "rental_uris": {"android": "https://dc.lft.to/lastmile_qr_scan", "ios": "https://dc.lft.to/lastmile_qr_scan"}, "fusion_lon": 0.0}, {"lat": 39.00474583333333, "is_disabled": 0, "type": "electric_bike", "lon": -76.90131983333333, "bike_id": "aa21b8fc7653a95586e43189020cc5d8", "fusion_lat": 0.0, "name": "aa21b8fc7653a95586e43189020cc5d8", "is_reserved": 0, "rental_uris": {"android": "https://dc.lft.to/lastmile_qr_scan", "ios": "https://dc.lft.to/lastmile_qr_scan"}, "fusion_lon": 0.0}, {"lat": 38.89218566666667, "is_disabled": 0, "type": "electric_scooter", "lon": -77.03160383333334, "bike_id": "bf6018fdd9f69588f2030a3d1ffb79bd", "fusion_lat": 0.0, "name": "bf6018fdd9f69588f2030a3d1ffb79bd", "is_reserved": 0, "rental_uris": {"android": "https://dc.lft.to/lastmile_qr_scan", "ios": "https://dc.lft.to/lastmile_qr_scan"}, "fusion_lon": 0.0}, {"lat": 38.917789166666665, "is_disabled": 0, "type": "electric_scooter", "lon": -77.04753383333333, "bike_id": "a1e3707e50492ffa9079b00760aa3aab", "fusion_lat": 0.0, "name": "a1e3707e50492ffa9079b00760aa3aab", "is_reserved": 0, "rental_uris": {"android": "https://dc.lft.to/lastmile_qr_scan", "ios": "https://dc.lft.to/lastmile_qr_scan"}, "fusion_lon": 0.0}, {"lat": 38.92864683333333, "is_disabled": 0, "type": "electric_bike", "lon": -77.22224366666667, "bike_id": "249b70da08874da8587c43d6d0c929d2", "fusion_lat": 0.0, "name": "249b70da08874da8587c43d6d0c929d2", "is_reserved": 0, "rental_uris": {"android": "https://dc.lft.to/lastmile_qr_scan", "ios": "https://dc.lft.to/lastmile_qr_scan"}, "fusion_lon": 0.0}, {"lat": 38.92483166666667, "is_disabled": 0, "type": "electric_bike", "lon": -76.99024416666667, "bike_id": "a8c3c782fd136bb18d4c533c2f40ab1a", "fusion_lat": 0.0, "name": "a8c3c782fd136bb18d4c533c2f40ab1a", "is_reserved": 0, "rental_uris": {"android": "https://dc.lft.to/lastmile_qr_scan", "ios": "https://dc.lft.to/lastmile_qr_scan"}, "fusion_lon": 0.0}, {"lat": 38.92864183333333, "is_disabled": 0, "type": "electric_bike", "lon": -77.0329255, "bike_id": "ae7e84530d0ec5b741b2dbc27c0dc583", "fusion_lat": 0.0, "name": "ae7e84530d0ec5b741b2dbc27c0dc583", "is_reserved": 0, "rental_uris": {"android": "https://dc.lft.to/lastmile_qr_scan", "ios": "https://dc.lft.to/lastmile_qr_scan"}, "fusion_lon": 0.0}, {"lat": 38.9181775, "is_disabled": 0, "type": "electric_scooter", "lon": -77.04183833333333, "bike_id": "f8e9c962cf67543b05760be18f69581e", "fusion_lat": 0.0, "name": "f8e9c962cf67543b05760be18f69581e", "is_reserved": 0, "rental_uris": {"android": "https://dc.lft.to/lastmile_qr_scan", "ios": "https://dc.lft.to/lastmile_qr_scan"}, "fusion_lon": 0.0}, {"lat": 39.0885895, "is_disabled": 0, "type": "electric_bike", "lon": -77.17842933333333, "bike_id": "7e185ce3542e1da3b8ce825fd86eef23", "fusion_lat": 0.0, "name": "7e185ce3542e1da3b8ce825fd86eef23", "is_reserved": 0, "rental_uris": {"android": "https://dc.lft.to/lastmile_qr_scan", "ios": "https://dc.lft.to/lastmile_qr_scan"}, "fusion_lon": 0.0}, {"lat": 38.872288166666664, "is_disabled": 0, "type": "electric_bike", "lon": -77.01180016666666, "bike_id": "9e6d39ca4e09f51355a6f5e5eb39aab6", "fusion_lat": 0.0, "name": "9e6d39ca4e09f51355a6f5e5eb39aab6", "is_reserved": 0, "rental_uris": {"android": "https://dc.lft.to/lastmile_qr_scan", "ios": "https://dc.lft.to/lastmile_qr_scan"}, "fusion_lon": 0.0}, {"lat": 38.90966316666667, "is_disabled": 0, "type": "electric_scooter", "lon": -77.03440783333333, "bike_id": "fa276fcc5980b8a3bab59823ef2ec263", "fusion_lat": 0.0, "name": "fa276fcc5980b8a3bab59823ef2ec263", "is_reserved": 0, "rental_uris": {"android": "https://dc.lft.to/lastmile_qr_scan", "ios": "https://dc.lft.to/lastmile_qr_scan"}, "fusion_lon": 0.0}, {"lat": 38.920738666666665, "is_disabled": 0, "type": "electric_scooter", "lon": -77.02515433333333, "bike_id": "53e0b7b95970f5239385c15e94d12dc2", "fusion_lat": 0.0, "name": "53e0b7b95970f5239385c15e94d12dc2", "is_reserved": 0, "rental_uris": {"android": "https://dc.lft.to/lastmile_qr_scan", "ios": "https://dc.lft.to/lastmile_qr_scan"}, "fusion_lon": 0.0}, {"lat": 38.89339583333334, "is_disabled": 0, "type": "electric_scooter", "lon": -76.9915585, "bike_id": "47b726cb3f7905df872f1c4f8bff34c0", "fusion_lat": 0.0, "name": "47b726cb3f7905df872f1c4f8bff34c0", "is_reserved": 0, "rental_uris": {"android": "https://dc.lft.to/lastmile_qr_scan", "ios": "https://dc.lft.to/lastmile_qr_scan"}, "fusion_lon": 0.0}, {"lat": 38.915668333333336, "is_disabled": 0, "type": "electric_scooter", "lon": -77.03151133333333, "bike_id": "02cd51e3f7084ec8f4b5da1c0a9bfa7d", "fusion_lat": 0.0, "name": "02cd51e3f7084ec8f4b5da1c0a9bfa7d", "is_reserved": 0, "rental_uris": {"android": "https://dc.lft.to/lastmile_qr_scan", "ios": "https://dc.lft.to/lastmile_qr_scan"}, "fusion_lon": 0.0}, {"lat": 38.90597116666667, "is_disabled": 0, "type": "electric_scooter", "lon": -77.016104, "bike_id": "8883043bf1278b18be49507728f8ad55", "fusion_lat": 0.0, "name": "8883043bf1278b18be49507728f8ad55", "is_reserved": 0, "rental_uris": {"android": "https://dc.lft.to/lastmile_qr_scan", "ios": "https://dc.lft.to/lastmile_qr_scan"}, "fusion_lon": 0.0}, {"lat": 38.93536833333334, "is_disabled": 0, "type": "electric_scooter", "lon": -77.073019, "bike_id": "baf6224c9bfd4557301202851a9d3d5f", "fusion_lat": 0.0, "name": "baf6224c9bfd4557301202851a9d3d5f", "is_reserved": 0, "rental_uris": {"android": "https://dc.lft.to/lastmile_qr_scan", "ios": "https://dc.lft.to/lastmile_qr_scan"}, "fusion_lon": 0.0}, {"lat": 38.90670983333333, "is_disabled": 0, "type": "electric_scooter", "lon": -77.0420185, "bike_id": "20c6f4d35472806029daa9d90e6cd2f8", "fusion_lat": 0.0, "name": "20c6f4d35472806029daa9d90e6cd2f8", "is_reserved": 0, "rental_uris": {"android": "https://dc.lft.to/lastmile_qr_scan", "ios": "https://dc.lft.to/lastmile_qr_scan"}, "fusion_lon": 0.0}, {"lat": 38.901931, "is_disabled": 0, "type": "electric_scooter", "lon": -76.98189416666666, "bike_id": "4655fe1e289e0c91612ee6de6c3fc73c", "fusion_lat": 0.0, "name": "4655fe1e289e0c91612ee6de6c3fc73c", "is_reserved": 0, "rental_uris": {"android": "https://dc.lft.to/lastmile_qr_scan", "ios": "https://dc.lft.to/lastmile_qr_scan"}, "fusion_lon": 0.0}, {"lat": 38.8922225, "is_disabled": 0, "type": "electric_scooter", "lon": -76.932962, "bike_id": "c7145b25a6155e173149b3f7e5d5d80c", "fusion_lat": 0.0, "name": "c7145b25a6155e173149b3f7e5d5d80c", "is_reserved": 0, "rental_uris": {"android": "https://dc.lft.to/lastmile_qr_scan", "ios": "https://dc.lft.to/lastmile_qr_scan"}, "fusion_lon": 0.0}, {"lat": 38.9135065, "is_disabled": 0, "type": "electric_scooter", "lon": -77.033632, "bike_id": "2aae25ac438cdd27a0b44f59e5cc8a12", "fusion_lat": 0.0, "name": "2aae25ac438cdd27a0b44f59e5cc8a12", "is_reserved": 0, "rental_uris": {"android": "https://dc.lft.to/lastmile_qr_scan", "ios": "https://dc.lft.to/lastmile_qr_scan"}, "fusion_lon": 0.0}, {"lat": 38.900921333333336, "is_disabled": 0, "type": "electric_scooter", "lon": -77.05597816666666, "bike_id": "01a8dfe9ad4e17599b4cded2706cdd57", "fusion_lat": 0.0, "name": "01a8dfe9ad4e17599b4cded2706cdd57", "is_reserved": 0, "rental_uris": {"android": "https://dc.lft.to/lastmile_qr_scan", "ios": "https://dc.lft.to/lastmile_qr_scan"}, "fusion_lon": 0.0}, {"lat": 38.9022445, "is_disabled": 0, "type": "electric_scooter", "lon": -77.059085, "bike_id": "c8b8d2d3a1e24fe0a241edd485a854fc", "fusion_lat": 0.0, "name": "c8b8d2d3a1e24fe0a241edd485a854fc", "is_reserved": 0, "rental_uris": {"android": "https://dc.lft.to/lastmile_qr_scan", "ios": "https://dc.lft.to/lastmile_qr_scan"}, "fusion_lon": 0.0}, {"lat": 38.89221283333333, "is_disabled": 0, "type": "electric_scooter", "lon": -77.02212016666667, "bike_id": "22a4795cf02c65583d0ce083779761d7", "fusion_lat": 0.0, "name": "22a4795cf02c65583d0ce083779761d7", "is_reserved": 0, "rental_uris": {"android": "https://dc.lft.to/lastmile_qr_scan", "ios": "https://dc.lft.to/lastmile_qr_scan"}, "fusion_lon": 0.0}, {"lat": 38.91567883333333, "is_disabled": 0, "type": "electric_scooter", "lon": -77.022874, "bike_id": "4e298ecda9cf775d67bf6c3a35abccaf", "fusion_lat": 0.0, "name": "4e298ecda9cf775d67bf6c3a35abccaf", "is_reserved": 0, "rental_uris": {"android": "https://dc.lft.to/lastmile_qr_scan", "ios": "https://dc.lft.to/lastmile_qr_scan"}, "fusion_lon": 0.0}, {"lat": 38.915884, "is_disabled": 0, "type": "electric_scooter", "lon": -77.03182966666667, "bike_id": "bd140bc36b52a9a90f2da8edf4fffe87", "fusion_lat": 0.0, "name": "bd140bc36b52a9a90f2da8edf4fffe87", "is_reserved": 0, "rental_uris": {"android": "https://dc.lft.to/lastmile_qr_scan", "ios": "https://dc.lft.to/lastmile_qr_scan"}, "fusion_lon": 0.0}, {"lat": 38.90945716666667, "is_disabled": 0, "type": "electric_scooter", "lon": -77.034501, "bike_id": "97fde703bed4197b368fe493f486c7a2", "fusion_lat": 0.0, "name": "97fde703bed4197b368fe493f486c7a2", "is_reserved": 0, "rental_uris": {"android": "https://dc.lft.to/lastmile_qr_scan", "ios": "https://dc.lft.to/lastmile_qr_scan"}, "fusion_lon": 0.0}, {"lat": 38.9049065, "is_disabled": 0, "type": "electric_scooter", "lon": -77.0488255, "bike_id": "7bc11dd04f3dafefb577e14e8eefad32", "fusion_lat": 0.0, "name": "7bc11dd04f3dafefb577e14e8eefad32", "is_reserved": 0, "rental_uris": {"android": "https://dc.lft.to/lastmile_qr_scan", "ios": "https://dc.lft.to/lastmile_qr_scan"}, "fusion_lon": 0.0}, {"lat": 38.9000095, "is_disabled": 0, "type": "electric_scooter", "lon": -77.00665983333333, "bike_id": "11e0bf81fd9e19f188ef8f471afd32f3", "fusion_lat": 0.0, "name": "11e0bf81fd9e19f188ef8f471afd32f3", "is_reserved": 0, "rental_uris": {"android": "https://dc.lft.to/lastmile_qr_scan", "ios": "https://dc.lft.to/lastmile_qr_scan"}, "fusion_lon": 0.0}, {"lat": 38.9417615, "is_disabled": 0, "type": "electric_scooter", "lon": -77.0250265, "bike_id": "13475d731078a1c77a32bb4564665213", "fusion_lat": 0.0, "name": "13475d731078a1c77a32bb4564665213", "is_reserved": 0, "rental_uris": {"android": "https://dc.lft.to/lastmile_qr_scan", "ios": "https://dc.lft.to/lastmile_qr_scan"}, "fusion_lon": 0.0},