{"data": {"bikes": [{"rental_uris": {"ios": "https://dc.lft.to/lastmile_qr_scan", "android": "https://dc.lft.to/lastmile_qr_scan"}, "type": "electric_scooter", "name": "4375d90a8fd0528c377c715f78846312", "is_reserved": 0, "lon": -77.0364175, "is_disabled": 0, "fusion_lat": 0.0, "lat": 38.92484133333333, "bike_id": "4375d90a8fd0528c377c715f78846312", "fusion_lon": 0.0}, {"rental_uris": {"ios": "https://dc.lft.to/lastmile_qr_scan", "android": "https://dc.lft.to/lastmile_qr_scan"}, "type": "electric_scooter", "name": "1c7474b8fd5ad6004ce6129c32e40487", "is_reserved": 0, "lon": -77.00289366666667, "is_disabled": 0, "fusion_lat": 0.0, "lat": 38.908903333333335, "bike_id": "1c7474b8fd5ad6004ce6129c32e40487", "fusion_lon": 0.0}, {"rental_uris": {"ios": "https://dc.lft.to/lastmile_qr_scan", "android": "https://dc.lft.to/lastmile_qr_scan"}, "type": "electric_scooter", "name": "7da9734c0f9f1f734cc3081049b4bdb2", "is_reserved": 0, "lon": -77.02022916666667, "is_disabled": 0, "fusion_lat": 0.0, "lat": 38.923297, "bike_id": "7da9734c0f9f1f734cc3081049b4bdb2", "fusion_lon": 0.0}, {"rental_uris": {"ios": "https://dc.lft.to/lastmile_qr_scan", "android": "https://dc.lft.to/lastmile_qr_scan"}, "type": "electric_scooter", "name": "c4ff09264b7b199952cf775d02671079", "is_reserved": 0, "lon": -77.00562316666667, "is_disabled": 0, "fusion_lat": 0.0, "lat": 38.9119085, "bike_id": "c4ff09264b7b199952cf775d02671079", "fusion_lon": 0.0}, {"rental_uris": {"ios": "https://dc.lft.to/lastmile_qr_scan", "android": "https://dc.lft.to/lastmile_qr_scan"}, "type": "electric_scooter", "name": "ec2bc47209d99e1f782e44d662e78412", "is_reserved": 0, "lon": -77.03352283333334, "is_disabled": 0, "fusion_lat": 0.0, "lat": 38.92877166666667, "bike_id": "ec2bc47209d99e1f782e44d662e78412", "fusion_lon": 0.0}, {"rental_uris": {"ios": "https://dc.lft.to/lastmile_qr_scan", "android": "https://dc.lft.to/lastmile_qr_scan"}, "type": "electric_scooter", "name": "080336e17862d01f87ff22641ab22895", "is_reserved": 0, "lon": -77.010643, "is_disabled": 0, "fusion_lat": 0.0, "lat": 38.911893, "bike_id": "080336e17862d01f87ff22641ab22895", "fusion_lon": 0.0}, {"rental_uris": {"ios": "https://dc.lft.to/lastmile_qr_scan", "android": "https://dc.lft.to/lastmile_qr_scan"}, "type": "electric_bike", "name": "3956724c386074eddb9b042fa49d5acc", "is_reserved": 0, "lon": -77.0701575, "is_disabled": 0, "fusion_lat": 0.0, "lat": 38.84112366666667, "bike_id": "3956724c386074eddb9b042fa49d5acc", "fusion_lon": 0.0}, {"rental_uris": {"ios": "https://dc.lft.to/lastmile_qr_scan", "android": "https://dc.lft.to/lastmile_qr_scan"}, "type": "electric_scooter", "name": "3f9932de0e96b0dca8f698e86ca46392", "is_reserved": 0, "lon": -77.06508783333334, "is_disabled": 0, "fusion_lat": 0.0, "lat": 38.905223, "bike_id": "3f9932de0e96b0dca8f698e86ca46392", "fusion_lon": 0.0}, {"rental_uris": {"ios": "https://dc.lft.to/lastmile_qr_scan", "android": "https://dc.lft.to/lastmile_qr_scan"}, "type": "electric_scooter", "name": "100868a5c57c0f7ca0332fca50258c9c", "is_reserved": 0, "lon": -76.9525855, "is_disabled": 0, "fusion_lat": 0.0, "lat": 38.89273466666667, "bike_id": "100868a5c57c0f7ca0332fca50258c9c", "fusion_lon": 0.0}, {"rental_uris": {"ios": "https://dc.lft.to/lastmile_qr_scan", "android": "https://dc.lft.to/lastmile_qr_scan"}, "type": "electric_scooter", "name": "b8dd16e0d4db7865924b306ca16dc7c1", "is_reserved": 0, "lon": -77.02839283333333, "is_disabled": 0, "fusion_lat": 0.0, "lat": 38.89334383333333, "bike_id": "b8dd16e0d4db7865924b306ca16dc7c1", "fusion_lon": 0.0}, {"rental_uris": {"ios": "https://dc.lft.to/lastmile_qr_scan", "android": "https://dc.lft.to/lastmile_qr_scan"}, "type": "electric_scooter", "name": "bf138d7ccb51d673da0debab35f5684f", "is_reserved": 0, "lon": -76.94652483333333, "is_disabled": 0, "fusion_lat": 0.0, "lat": 38.8982935, "bike_id": "bf138d7ccb51d673da0debab35f5684f", "fusion_lon": 0.0}, {"rental_uris": {"ios": "https://dc.lft.to/lastmile_qr_scan", "android": "https://dc.lft.to/lastmile_qr_scan"}, "type": "electric_scooter", "name": "952b6b5fc935a6867c9a82fbfae54908", "is_reserved": 0, "lon": -77.0361545, "is_disabled": 0, "fusion_lat": 0.0, "lat": 38.923378, "bike_id": "952b6b5fc935a6867c9a82fbfae54908", "fusion_lon": 0.0}, {"rental_uris": {"ios": "https://dc.lft.to/lastmile_qr_scan", "android": "https://dc.lft.to/lastmile_qr_scan"}, "type": "electric_scooter", "name": "9fd2ddc0d40c79f56bc0c4474f57b03a", "is_reserved": 0, "lon": -76.94381633333333, "is_disabled": 0, "fusion_lat": 0.0, "lat": 38.891108833333334, "bike_id": "9fd2ddc0d40c79f56bc0c4474f57b03a", "fusion_lon": 0.0}, {"rental_uris": {"ios": "https://dc.lft.to/lastmile_qr_scan", "android": "https://dc.lft.to/lastmile_qr_scan"}, "type": "electric_scooter", "name": "098d97190b5dee72fdaf846c1650e191", "is_reserved": 0, "lon": -77.02479216666667, "is_disabled": 0, "fusion_lat": 0.0, "lat": 38.9181495, "bike_id": "098d97190b5dee72fdaf846c1650e191", "fusion_lon": 0.0}, {"rental_uris": {"ios": "https://dc.lft.to/lastmile_qr_scan", "android": "https://dc.lft.to/lastmile_qr_scan"}, "type": "electric_scooter", "name": "0ecd65e25efa2d235535668b0ac0a626", "is_reserved": 0, "lon": -77.03663716666667, "is_disabled": 0, "fusion_lat": 0.0, "lat": 38.92293383333333, "bike_id": "0ecd65e25efa2d235535668b0ac0a626", "fusion_lon": 0.0}, {"rental_uris": {"ios": "https://dc.lft.to/lastmile_qr_scan", "android": "https://dc.lft.to/lastmile_qr_scan"}, "type": "electric_scooter", "name": "9f87855d91e22e3776e52c12cf000a91", "is_reserved": 0, "lon": -77.0385685, "is_disabled": 0, "fusion_lat": 0.0, "lat": 38.91087566666667, "bike_id": "9f87855d91e22e3776e52c12cf000a91", "fusion_lon": 0.0}, {"rental_uris": {"ios": "https://dc.lft.to/lastmile_qr_scan", "android": "https://dc.lft.to/lastmile_qr_scan"}, "type": "electric_scooter", "name": "ae6d65c544a4bb21a82b5103801ab63b", "is_reserved": 0, "lon": -76.973354, "is_disabled": 0, "fusion_lat": 0.0, "lat": 38.90409183333333, "bike_id": "ae6d65c544a4bb21a82b5103801ab63b", "fusion_lon": 0.0}, {"rental_uris": {"ios": "https://dc.lft.to/lastmile_qr_scan", "android": "https://dc.lft.to/lastmile_qr_scan"}, "type": "electric_scooter", "name": "4f3c1f30f1baa185c2ea5ae3a0720fb7", "is_reserved": 0, "lon": -77.00568566666666, "is_disabled": 0, "fusion_lat": 0.0, "lat": 38.874547166666666, "bike_id": "4f3c1f30f1baa185c2ea5ae3a0720fb7", "fusion_lon": 0.0}, {"rental_uris": {"ios": "https://dc.lft.to/lastmile_qr_scan", "android": "https://dc.lft.to/lastmile_qr_scan"}, "type": "electric_scooter", "name": "2f19c5f099bb57fe70265c70d5e4bb69", "is_reserved": 0, "lon": -76.987041, "is_disabled": 0, "fusion_lat": 0.0, "lat": 38.8884205, "bike_id": "2f19c5f099bb57fe70265c70d5e4bb69", "fusion_lon": 0.0}, {"rental_uris": {"ios": "https://dc.lft.to/lastmile_qr_scan", "android": "https://dc.lft.to/lastmile_qr_scan"}, "type": "electric_scooter", "name": "ec6b91ab371662d3b16e06e00604dcb6", "is_reserved": 0, "lon": -77.01846033333334, "is_disabled": 0, "fusion_lat": 0.0, "lat": 38.94995083333333, "bike_id": "ec6b91ab371662d3b16e06e00604dcb6", "fusion_lon": 0.0}, {"rental_uris": {"ios": "https://dc.lft.to/lastmile_qr_scan", "android": "https://dc.lft.to/lastmile_qr_scan"}, "type": "electric_scooter", "name": "e274fb77cd9cdb5f704b1d4ba28b987b", "is_reserved": 0, "lon": -76.97936466666667, "is_disabled": 0, "fusion_lat": 0.0, "lat": 38.9159855, "bike_id": "e274fb77cd9cdb5f704b1d4ba28b987b", "fusion_lon": 0.0}, {"rental_uris": {"ios": "https://dc.lft.to/lastmile_qr_scan", "android": "https://dc.lft.to/lastmile_qr_scan"}, "type": "electric_bike", "name": "025f3c64b79c96289f2a3df0eff01b79", "is_reserved": 0, "lon": -76.978568, "is_disabled": 0, "fusion_lat": 0.0, "lat": 38.98383883333333, "bike_id": "025f3c64b79c96289f2a3df0eff01b79", "fusion_lon": 0.0}, {"rental_uris": {"ios": "https://dc.lft.to/lastmile_qr_scan", "android": "https://dc.lft.to/lastmile_qr_scan"}, "type": "electric_scooter", "name": "911bbd2f5f8654030498e0204bb5afc1", "is_reserved": 0, "lon": -77.032844, "is_disabled": 0, "fusion_lat": 0.0, "lat": 38.919904, "bike_id": "911bbd2f5f8654030498e0204bb5afc1", "fusion_lon": 0.0}, {"rental_uris": {"ios": "https://dc.lft.to/lastmile_qr_scan", "android": "https://dc.lft.to/lastmile_qr_scan"}, "type": "electric_scooter", "name": "cfcc9c145c75a1469c610b8260836737", "is_reserved": 0, "lon": -77.02640983333333, "is_disabled": 0, "fusion_lat": 0.0, "lat": 38.895887, "bike_id": "cfcc9c145c75a1469c610b8260836737", "fusion_lon": 0.0}, {"rental_uris": {"ios": "https://dc.lft.to/lastmile_qr_scan", "android": "https://dc.lft.to/lastmile_qr_scan"}, "type": "electric_scooter", "name": "4a32e30e07a2cf0dcede539894b3b12a", "is_reserved": 0, "lon": -77.06335083333333, "is_disabled": 0, "fusion_lat": 0.0, "lat": 38.943651833333334, "bike_id": "4a32e30e07a2cf0dcede539894b3b12a", "fusion_lon": 0.0}, {"rental_uris": {"ios": "https://dc.lft.to/lastmile_qr_scan", "android": "https://dc.lft.to/lastmile_qr_scan"}, "type": "electric_bike", "name": "ab18e02154f3676d5f3bfe08b0a851d2", "is_reserved": 0, "lon": -77.08880133333334, "is_disabled": 0, "fusion_lat": 0.0, "lat": 38.9387845, "bike_id": "ab18e02154f3676d5f3bfe08b0a851d2", "fusion_lon": 0.0}, {"rental_uris": {"ios": "https://dc.lft.to/lastmile_qr_scan", "android": "https://dc.lft.to/lastmile_qr_scan"}, "type": "electric_scooter", "name": "2027913e5bbe135f8e2a280f2a867b7e", "is_reserved": 0, "lon": -77.01348466666667, "is_disabled": 0, "fusion_lat": 0.0, "lat": 38.91919083333333, "bike_id": "2027913e5bbe135f8e2a280f2a867b7e", "fusion_lon": 0.0}, {"rental_uris": {"ios": "https://dc.lft.to/lastmile_qr_scan", "android": "https://dc.lft.to/lastmile_qr_scan"}, "type": "electric_bike", "name": "66fd76553459eaedf8a13a96e06bf69f", "is_reserved": 0, "lon": -77.0995535, "is_disabled": 0, "fusion_lat": 0.0, "lat": 38.857858, "bike_id": "66fd76553459eaedf8a13a96e06bf69f", "fusion_lon": 0.0}, {"rental_uris": {"ios": "https://dc.lft.to/lastmile_qr_scan", "android": "https://dc.lft.to/lastmile_qr_scan"}, "type": "electric_scooter", "name": "f7fe0abcf6f51d4c47ed9a3a25faf2f6", "is_reserved": 0, "lon": -77.03784066666667, "is_disabled": 0, "fusion_lat": 0.0, "lat": 38.916864833333335, "bike_id": "f7fe0abcf6f51d4c47ed9a3a25faf2f6", "fusion_lon": 0.0}, {"rental_uris": {"ios": "https://dc.lft.to/lastmile_qr_scan", "android": "https://dc.lft.to/lastmile_qr_scan"}, "type": "electric_scooter", "name": "dd28a3280de7efebad68cc32328a88ee", "is_reserved": 0, "lon": -77.01212, "is_disabled": 0, "fusion_lat": 0.0, "lat": 38.9181475, "bike_id": "dd28a3280de7efebad68cc32328a88ee", "fusion_lon": 0.0}, {"rental_uris": {"ios": "https://dc.lft.to/lastmile_qr_scan", "android": "https://dc.lft.to/lastmile_qr_scan"}, "type": "electric_scooter", "name": "45be97cd8a0298fed9acfc17aa4eab1f", "is_reserved": 0, "lon": -77.0094365, "is_disabled": 0, "fusion_lat": 0.0, "lat": 38.91265833333333, "bike_id": "45be97cd8a0298fed9acfc17aa4eab1f", "fusion_lon": 0.0}, {"rental_uris": {"ios": "https://dc.lft.to/lastmile_qr_scan", "android": "https://dc.lft.to/lastmile_qr_scan"}, "type": "electric_scooter", "name": "1908dd8445e56fb5e3b8916e93d25b1e", "is_reserved": 0, "lon": -77.02632883333334, "is_disabled": 0, "fusion_lat": 0.0, "lat": 38.90114633333334, "bike_id": "1908dd8445e56fb5e3b8916e93d25b1e", "fusion_lon": 0.0}, {"rental_uris": {"ios": "https://dc.lft.to/lastmile_qr_scan", "android": "https://dc.lft.to/lastmile_qr_scan"}, "type": "electric_scooter", "name": "d381a21df90a2ca43e7aaa370e5ddccf", "is_reserved": 0, "lon": -77.01987666666666, "is_disabled": 0, "fusion_lat": 0.0, "lat": 38.90506933333333, "bike_id": "d381a21df90a2ca43e7aaa370e5ddccf", "fusion_lon": 0.0}, {"rental_uris": {"ios": "https://dc.lft.to/lastmile_qr_scan", "android": "https://dc.lft.to/lastmile_qr_scan"}, "type": "electric_bike", "name": "df48fe11179638995efa0aab45491d1f", "is_reserved": 0, "lon": -77.0856945, "is_disabled": 0, "fusion_lat": 0.0, "lat": 38.874219833333335, "bike_id": "df48fe11179638995efa0aab45491d1f", "fusion_lon": 0.0}, {"rental_uris": {"ios": "https://dc.lft.to/lastmile_qr_scan", "android": "https://dc.lft.to/lastmile_qr_scan"}, "type": "electric_scooter", "name": "be510889881560f1faede6196dbf6eca", "is_reserved": 0, "lon": -77.04411516666667, "is_disabled": 0, "fusion_lat": 0.0, "lat": 38.89594983333333, "bike_id": "be510889881560f1faede6196dbf6eca", "fusion_lon": 0.0}, {"rental_uris": {"ios": "https://dc.lft.to/lastmile_qr_scan", "android": "https://dc.lft.to/lastmile_qr_scan"}, "type": "electric_bike", "name": "cf62814c2616f9029de231c0f1d25789", "is_reserved": 0, "lon": -77.094568, "is_disabled": 0, "fusion_lat": 0.0, "lat": 38.807572666666665, "bike_id": "cf62814c2616f9029de231c0f1d25789", "fusion_lon": 0.0}, {"rental_uris": {"ios": "https://dc.lft.to/lastmile_qr_scan", "android": "https://dc.lft.to/lastmile_qr_scan"}, "type": "electric_scooter", "name": "ab41c091dfe8541890b6e34ebbddce86", "is_reserved": 0, "lon": -77.05817666666667, "is_disabled": 0, "fusion_lat": 0.0, "lat": 38.93517683333334, "bike_id": "ab41c091dfe8541890b6e34ebbddce86", "fusion_lon": 0.0}, {"rental_uris": {"ios": "https://dc.lft.to/lastmile_qr_scan", "android": "https://dc.lft.to/lastmile_qr_scan"}, "type": "electric_scooter", "name": "58954a74c2f542872837814ea2193dd2", "is_reserved": 0, "lon": -77.02204216666667, "is_disabled": 0, "fusion_lat": 0.0, "lat": 38.951531833333334, "bike_id": "58954a74c2f542872837814ea2193dd2", "fusion_lon": 0.0}, {"rental_uris": {"ios": "https://dc.lft.to/lastmile_qr_scan", "android": "https://dc.lft.to/lastmile_qr_scan"}, "type": "electric_scooter", "name": "d292ba6f412e9fe4f97b4c4d7ac4fbdb", "is_reserved": 0, "lon": -77.04397766666666, "is_disabled": 0, "fusion_lat": 0.0, "lat": 38.92043233333333, "bike_id": "d292ba6f412e9fe4f97b4c4d7ac4fbdb", "fusion_lon": 0.0}, {"rental_uris": {"ios": "https://dc.lft.to/lastmile_qr_scan", "android": "https://dc.lft.to/lastmile_qr_scan"}, "type": "electric_scooter", "name": "5262bf22160ca9a5a989a9d0767d31c8", "is_reserved": 0, "lon": -77.018253, "is_disabled": 0, "fusion_lat": 0.0, "lat": 38.9225325, "bike_id": "5262bf22160ca9a5a989a9d0767d31c8", "fusion_lon": 0.0}, {"rental_uris": {"ios": "https://dc.lft.to/lastmile_qr_scan", "android": "https://dc.lft.to/lastmile_qr_scan"}, "type": "electric_scooter", "name": "1690f04a90e5d8236f121220c37dc77f", "is_reserved": 0, "lon": -77.03856183333333, "is_disabled": 0, "fusion_lat": 0.0, "lat": 38.91663283333333, "bike_id": "1690f04a90e5d8236f121220c37dc77f", "fusion_lon": 0.0}, {"rental_uris": {"ios": "https://dc.lft.to/lastmile_qr_scan", "android": "https://dc.lft.to/lastmile_qr_scan"}, "type": "electric_scooter", "name": "458906f926899c3106a8fdec97e25504", "is_reserved": 0, "lon": -76.92928533333334, "is_disabled": 0, "fusion_lat": 0.0, "lat": 38.89274116666667, "bike_id": "458906f926899c3106a8fdec97e25504", "fusion_lon": 0.0}, {"rental_uris": {"ios": "https://dc.lft.to/lastmile_qr_scan", "android": "https://dc.lft.to/lastmile_qr_scan"}, "type": "electric_scooter", "name": "c38c42f23a4dec46d42ae7da9a25a9be", "is_reserved": 0, "lon": -77.02110766666667, "is_disabled": 0, "fusion_lat": 0.0, "lat": 38.90939133333333, "bike_id": "c38c42f23a4dec46d42ae7da9a25a9be", "fusion_lon": 0.0}, {"rental_uris": {"ios": "https://dc.lft.to/lastmile_qr_scan", "android": "https://dc.lft.to/lastmile_qr_scan"}, "type": "electric_scooter", "name": "6c18c9e7e015376a4a6e84362e65dab3", "is_reserved": 0, "lon": -77.01464566666667, "is_disabled": 0, "fusion_lat": 0.0, "lat": 38.8793545, "bike_id": "6c18c9e7e015376a4a6e84362e65dab3", "fusion_lon": 0.0}, {"rental_uris": {"ios": "https://dc.lft.to/lastmile_qr_scan", "android": "https://dc.lft.to/lastmile_qr_scan"}, "type": "electric_scooter", "name": "2e7c47f5a4ad0ec8496264b69f709a79", "is_reserved": 0, "lon": -76.9721295, "is_disabled": 0, "fusion_lat": 0.0, "lat": 38.91718866666667, "bike_id": "2e7c47f5a4ad0ec8496264b69f709a79", "fusion_lon": 0.0}, {"rental_uris": {"ios": "https://dc.lft.to/lastmile_qr_scan", "android": "https://dc.lft.to/lastmile_qr_scan"}, "type": "electric_scooter", "name": "afef6da5656b11f36eb52d2cf8f45c11", "is_reserved": 0, "lon": -77.08633966666666, "is_disabled": 0, "fusion_lat": 0.0, "lat": 38.9382785, "bike_id": "afef6da5656b11f36eb52d2cf8f45c11", "fusion_lon": 0.0}, {"rental_uris": {"ios": "https://dc.lft.to/lastmile_qr_scan", "android": "https://dc.lft.to/lastmile_qr_scan"}, "type": "electric_scooter", "name": "aa6406add90a5b8a8b89f63e44b15086", "is_reserved": 0, "lon": -77.04227833333333, "is_disabled": 0, "fusion_lat": 0.0, "lat": 38.921652333333334, "bike_id": "aa6406add90a5b8a8b89f63e44b15086", "fusion_lon": 0.0}, {"rental_uris": {"ios": "https://dc.lft.to/lastmile_qr_scan", "android": "https://dc.lft.to/lastmile_qr_scan"}, "type": "electric_scooter", "name": "9f78fdad29ec879a10ee69ac3a78d518", "is_reserved": 0, "lon": -77.052171, "is_disabled": 0, "fusion_lat": 0.0, "lat": 38.90345933333333, "bike_id": "9f78fdad29ec879a10ee69ac3a78d518", "fusion_lon": 0.0}, {"rental_uris": {"ios": "https://dc.lft.to/lastmile_qr_scan", "android": "https://dc.lft.to/lastmile_qr_scan"}, "type": "electric_scooter", "name": "a47f187d193ec87cc01050966551efc3", "is_reserved": 0, "lon": -77.01258133333333, "is_disabled": 0, "fusion_lat": 0.0, "lat": 38.89714016666667, "bike_id": "a47f187d193ec87cc01050966551efc3", "fusion_lon": 0.0}, {"rental_uris": {"ios": "https://dc.lft.to/lastmile_qr_scan", "android": "https://dc.lft.to/lastmile_qr_scan"}, "type": "electric_scooter", "name": "aafabb49727545ad9a2b24db44e0a6ea", "is_reserved": 0, "lon": -77.07216316666667, "is_disabled": 0, "fusion_lat": 0.0, "lat": 38.906851833333334, "bike_id": "aafabb49727545ad9a2b24db44e0a6ea", "fusion_lon": 0.0}, {"rental_uris": {"ios": "https://dc.lft.to/lastmile_qr_scan", "android": "https://dc.lft.to/lastmile_qr_scan"}, "type": "electric_scooter", "name": "c4057e4ca062b696eeb66f5bcc0e0a72", "is_reserved": 0, "lon": -76.986616, "is_disabled": 0, "fusion_lat": 0.0, "lat": 38.906141, "bike_id": "c4057e4ca062b696eeb66f5bcc0e0a72", "fusion_lon": 0.0}, {"rental_uris": {"ios": "https://dc.lft.to/lastmile_qr_scan", "android": "https://dc.lft.to/lastmile_qr_scan"}, "type": "electric_scooter", "name": "15bc2bf374c0e177cca63a37166c6848", "is_reserved": 0, "lon": -77.03955066666667, "is_disabled": 0, "fusion_lat": 0.0, "lat": 38.90243533333334, "bike_id": "15bc2bf374c0e177cca63a37166c6848", "fusion_lon": 0.0}, {"rental_uris": {"ios": "https://dc.lft.to/lastmile_qr_scan", "android": "https://dc.lft.to/lastmile_qr_scan"}, "type": "electric_scooter", "name": "bbb18a6cb25254aab9f0e52c458d01de", "is_reserved": 0, "lon": -77.0232235, "is_disabled": 0, "fusion_lat": 0.0, "lat": 38.940119, "bike_id": "bbb18a6cb25254aab9f0e52c458d01de", "fusion_lon": 0.0}, {"rental_uris": {"ios": "https://dc.lft.to/lastmile_qr_scan", "android": "https://dc.lft.to/lastmile_qr_scan"}, "type": "electric_scooter", "name": "e66065ba1001573d0234c55d0e373ef5", "is_reserved": 0, "lon": -77.02171333333334, "is_disabled": 0, "fusion_lat": 0.0, "lat": 38.928293, "bike_id": "e66065ba1001573d0234c55d0e373ef5", "fusion_lon": 0.0}, {"rental_uris": {"ios": "https://dc.lft.to/lastmile_qr_scan", "android": "https://dc.lft.to/lastmile_qr_scan"}, "type": "electric_scooter", "name": "3c9befdc6d2517f4f86ed7f4172a913b", "is_reserved": 0, "lon": -77.0355895, "is_disabled": 0, "fusion_lat": 0.0, "lat": 38.927364, "bike_id": "3c9befdc6d2517f4f86ed7f4172a913b", "fusion_lon": 0.0}, {"rental_uris": {"ios": "https://dc.lft.to/lastmile_qr_scan", "android": "https://dc.lft.to/lastmile_qr_scan"}, "type": "electric_scooter", "name": "f4e88470e3355a6726e5c10f67b91253", "is_reserved": 0, "lon": -77.02083733333333, "is_disabled": 0, "fusion_lat": 0.0, "lat": 38.91251883333334, "bike_id": "f4e88470e3355a6726e5c10f67b91253", "fusion_lon": 0.0}, {"rental_uris": {"ios": "https://dc.lft.to/lastmile_qr_scan", "android": "https://dc.lft.to/lastmile_qr_scan"}, "type": "electric_scooter", "name": "e6f01438c57b63ab87c3855121793bcd", "is_reserved": 0, "lon": -76.98542966666666, "is_disabled": 0, "fusion_lat": 0.0, "lat": 38.8796775, "bike_id": "e6f01438c57b63ab87c3855121793bcd", "fusion_lon": 0.0}, {"rental_uris": {"ios": "https://dc.lft.to/lastmile_qr_scan", "android": "https://dc.lft.to/lastmile_qr_scan"}, "type": "electric_scooter", "name": "e51d33588a432022db20651f32ba0a19", "is_reserved": 0, "lon": -77.01879266666667, "is_disabled": 0, "fusion_lat": 0.0, "lat": 38.87471433333333, "bike_id": "e51d33588a432022db20651f32ba0a19", "fusion_lon": 0.0}, {"rental_uris": {"ios": "https://dc.lft.to/lastmile_qr_scan", "android": "https://dc.lft.to/lastmile_qr_scan"}, "type": "electric_scooter", "name": "51e3da5317d1bb4c9fb80443e829302a", "is_reserved": 0, "lon": -77.04003633333333, "is_disabled": 0, "fusion_lat": 0.0, "lat": 38.93428133333333, "bike_id": "51e3da5317d1bb4c9fb80443e829302a", "fusion_lon": 0.0}, {"rental_uris": {"ios": "https://dc.lft.to/lastmile_qr_scan", "android": "https://dc.lft.to/lastmile_qr_scan"}, "type": "electric_scooter", "name": "67dfec5547bd2c3b3926e5b87ce8df54", "is_reserved": 0, "lon": -77.02380133333334, "is_disabled": 0, "fusion_lat": 0.0, "lat": 38.9031175, "bike_id": "67dfec5547bd2c3b3926e5b87ce8df54", "fusion_lon": 0.0}, {"rental_uris": {"ios": "https://dc.lft.to/lastmile_qr_scan", "android": "https://dc.lft.to/lastmile_qr_scan"}, "type": "electric_scooter", "name": "b46025e6cd3568a3be69b347e5a229a8", "is_reserved": 0, "lon": -77.067247, "is_disabled": 0, "fusion_lat": 0.0, "lat": 38.91465383333333, "bike_id": "b46025e6cd3568a3be69b347e5a229a8", "fusion_lon": 0.0}, {"rental_uris": {"ios": "https://dc.lft.to/lastmile_qr_scan", "android": "https://dc.lft.to/lastmile_qr_scan"}, "type": "electric_bike", "name": "a902f87f07a839ff0f3360f77ee79fe0", "is_reserved": 0, "lon": -77.12891483333334, "is_disabled": 0, "fusion_lat": 0.0, "lat": 38.9060385, "bike_id": "a902f87f07a839ff0f3360f77ee79fe0", "fusion_lon": 0.0}, {"rental_uris": {"ios": "https://dc.lft.to/lastmile_qr_scan", "android": "https://dc.lft.to/lastmile_qr_scan"}, "type": "electric_scooter", "name": "984a331045f6a732c1197a5fceef6cad", "is_reserved": 0, "lon": -76.9914435, "is_disabled": 0, "fusion_lat": 0.0, "lat": 38.873377, "bike_id": "984a331045f6a732c1197a5fceef6cad", "fusion_lon": 0.0}, {"rental_uris": {"ios": "https://dc.lft.to/lastmile_qr_scan", "android": "https://dc.lft.to/lastmile_qr_scan"}, "type": "electric_scooter", "name": "f13041bf4f634a9b1cc4a44e889e5bb2", "is_reserved": 0, "lon": -77.05321383333333, "is_disabled": 0, "fusion_lat": 0.0, "lat": 38.94099883333333, "bike_id": "f13041bf4f634a9b1cc4a44e889e5bb2", "fusion_lon": 0.0}, {"rental_uris": {"ios": "https://dc.lft.to/lastmile_qr_scan", "android": "https://dc.lft.to/lastmile_qr_scan"}, "type": "electric_bike", "name": "4306bd767f95ade9d864ea30e6d9a466", "is_reserved": 0, "lon": -76.96889, "is_disabled": 0, "fusion_lat": 0.0, "lat": 38.869865833333336, "bike_id": "4306bd767f95ade9d864ea30e6d9a466", "fusion_lon": 0.0}, {"rental_uris": {"ios": "https://dc.lft.to/lastmile_qr_scan", "android": "https://dc.lft.to/lastmile_qr_scan"}, "type": "electric_scooter", "name": "cfb9e3c4bd17d1adbd091740faf7139c", "is_reserved": 0, "lon": -77.06391483333333, "is_disabled": 0, "fusion_lat": 0.0, "lat": 38.9086315, "bike_id": "cfb9e3c4bd17d1adbd091740faf7139c", "fusion_lon": 0.0}, {"rental_uris": {"ios": "https://dc.lft.to/lastmile_qr_scan", "android": "https://dc.lft.to/lastmile_qr_scan"}, "type": "electric_scooter", "name": "29b9dea4e2d32cb2af9de84585d46661", "is_reserved": 0, "lon": -77.0247185, "is_disabled": 0, "fusion_lat": 0.0, "lat": 38.90322333333334, "bike_id": "29b9dea4e2d32cb2af9de84585d46661", "fusion_lon": 0.0}, {"rental_uris": {"ios": "https://dc.lft.to/lastmile_qr_scan", "android": "https://dc.lft.to/lastmile_qr_scan"}, "type": "electric_scooter", "name": "90f3c90897f8aa9552d2aa44976e4eaa", "is_reserved": 0, "lon": -77.03636033333333, "is_disabled": 0, "fusion_lat": 0.0, "lat": 38.90617816666666, "bike_id": "90f3c90897f8aa9552d2aa44976e4eaa", "fusion_lon": 0.0}, {"rental_uris": {"ios": "https://dc.lft.to/lastmile_qr_scan", "android": "https://dc.lft.to/lastmile_qr_scan"}, "type": "electric_scooter", "name": "11db018c2f1bcd6f15c12ecda0293ab0", "is_reserved": 0, "lon": -77.06690266666666, "is_disabled": 0, "fusion_lat": 0.0, "lat": 38.909654333333336, "bike_id": "11db018c2f1bcd6f15c12ecda0293ab0", "fusion_lon": 0.0}, {"rental_uris": {"ios": "https://dc.lft.to/lastmile_qr_scan", "android": "https://dc.lft.to/lastmile_qr_scan"}, "type": "electric_scooter", "name": "783c5eae7bcbad36744cb790defb1b06", "is_reserved": 0, "lon": -77.03352883333334, "is_disabled": 0, "fusion_lat": 0.0, "lat": 38.897407333333334, "bike_id": "783c5eae7bcbad36744cb790defb1b06", "fusion_lon": 0.0}, {"rental_uris": {"ios": "https://dc.lft.to/lastmile_qr_scan", "android": "https://dc.lft.to/lastmile_qr_scan"}, "type": "electric_scooter", "name": "5c12711197eb6e43292cd590f0aaba8a", "is_reserved": 0, "lon": -76.98698166666667, "is_disabled": 0, "fusion_lat": 0.0, "lat": 38.9129825, "bike_id": "5c12711197eb6e43292cd590f0aaba8a", "fusion_lon": 0.0}, {"rental_uris": {"ios": "https://dc.lft.to/lastmile_qr_scan", "android": "https://dc.lft.to/lastmile_qr_scan"}, "type": "electric_scooter", "name": "4c74239945d0fa396746aa746ae05872", "is_reserved": 0, "lon": -77.00289016666666, "is_disabled": 0, "fusion_lat": 0.0, "lat": 38.901320166666665, "bike_id": "4c74239945d0fa396746aa746ae05872", "fusion_lon": 0.0}, {"rental_uris": {"ios": "https://dc.lft.to/lastmile_qr_scan", "android": "https://dc.lft.to/lastmile_qr_scan"}, "type": "electric_scooter", "name": "2a4b50c1908db303a8a2a0314d0d692c", "is_reserved": 0, "lon": -77.00157083333333, "is_disabled": 0, "fusion_lat": 0.0, "lat": 38.87389066666667, "bike_id": "2a4b50c1908db303a8a2a0314d0d692c", "fusion_lon": 0.0}, {"rental_uris": {"ios": "https://dc.lft.to/lastmile_qr_scan", "android": "https://dc.lft.to/lastmile_qr_scan"}, "type": "electric_scooter", "name": "e90eed9c80d2fc8412a2858e09427213", "is_reserved": 0, "lon": -77.01648083333333, "is_disabled": 0, "fusion_lat": 0.0, "lat": 38.92940183333333, "bike_id": "e90eed9c80d2fc8412a2858e09427213", "fusion_lon": 0.0}, {"rental_uris": {"ios": "https://dc.lft.to/lastmile_qr_scan", "android": "https://dc.lft.to/lastmile_qr_scan"}, "type": "electric_scooter", "name": "3a839ff0e52013672403f6ecb4f90a73", "is_reserved": 0, "lon": -77.029178, "is_disabled": 0, "fusion_lat": 0.0, "lat": 38.93456, "bike_id": "3a839ff0e52013672403f6ecb4f90a73", "fusion_lon": 0.0}, {"rental_uris": {"ios": "https://dc.lft.to/lastmile_qr_scan", "android": "https://dc.lft.to/lastmile_qr_scan"}, "type": "electric_scooter", "name": "9d45991d4ed6a01ec987c0a5405d3bf7", "is_reserved": 0, "lon": -77.0256095, "is_disabled": 0, "fusion_lat": 0.0, "lat": 38.92032833333333, "bike_id": "9d45991d4ed6a01ec987c0a5405d3bf7", "fusion_lon": 0.0}, {"rental_uris": {"ios": "https://dc.lft.to/lastmile_qr_scan", "android": "https://dc.lft.to/lastmile_qr_scan"}, "type": "electric_scooter", "name": "e3cc2a8fb4cd4c3ed432e4e3bfc2dc0b", "is_reserved": 0, "lon": -77.0187095, "is_disabled": 0, "fusion_lat": 0.0, "lat": 38.877227833333336, "bike_id": "e3cc2a8fb4cd4c3ed432e4e3bfc2dc0b", "fusion_lon": 0.0}, {"rental_uris": {"ios": "https://dc.lft.to/lastmile_qr_scan", "android": "https://dc.lft.to/lastmile_qr_scan"}, "type": "electric_scooter", "name": "9183f059b54b4bd235d3bc0c07055994", "is_reserved": 0, "lon": -77.0362275, "is_disabled": 0, "fusion_lat": 0.0, "lat": 38.92661866666667, "bike_id": "9183f059b54b4bd235d3bc0c07055994", "fusion_lon": 0.0}, {"rental_uris": {"ios": "https://dc.lft.to/lastmile_qr_scan", "android": "https://dc.lft.to/lastmile_qr_scan"}, "type": "electric_scooter", "name": "38b511247bb2ad95e03dd8841b328fb3", "is_reserved": 0, "lon": -77.051125, "is_disabled": 0, "fusion_lat": 0.0, "lat": 38.89763216666667, "bike_id": "38b511247bb2ad95e03dd8841b328fb3", "fusion_lon": 0.0}, {"rental_uris": {"ios": "https://dc.lft.to/lastmile_qr_scan", "android": "https://dc.lft.to/lastmile_qr_scan"}, "type": "electric_bike", "name": "689b3089e919a9afd1243a7ea52adc26", "is_reserved": 0, "lon": -76.97621016666666, "is_disabled": 0, "fusion_lat": 0.0, "lat": 38.8929405, "bike_id": "689b3089e919a9afd1243a7ea52adc26", "fusion_lon": 0.0}, {"rental_uris": {"ios": "https://dc.lft.to/lastmile_qr_scan", "android": "https://dc.lft.to/lastmile_qr_scan"}, "type": "electric_scooter", "name": "8143ac262426c604f02f02b9c50cfc0d", "is_reserved": 0, "lon": -77.01915983333333, "is_disabled": 0, "fusion_lat": 0.0, "lat": 38.905587, "bike_id": "8143ac262426c604f02f02b9c50cfc0d", "fusion_lon": 0.0}, {"rental_uris": {"ios": "https://dc.lft.to/lastmile_qr_scan", "android": "https://dc.lft.to/lastmile_qr_scan"}, "type": "electric_bike", "name": "7c2a2dc1fe9c2c094da7aaea80843b59", "is_reserved": 0, "lon": -77.22187766666667, "is_disabled": 0, "fusion_lat": 0.0, "lat": 38.87171766666667, "bike_id": "7c2a2dc1fe9c2c094da7aaea80843b59", "fusion_lon": 0.0}, {"rental_uris": {"ios": "https://dc.lft.to/lastmile_qr_scan", "android": "https://dc.lft.to/lastmile_qr_scan"}, "type": "electric_scooter", "name": "485299d5ea0dcf2dedd53a74404842bc", "is_reserved": 0, "lon": -77.00732433333333, "is_disabled": 0, "fusion_lat": 0.0, "lat": 38.905568, "bike_id": "485299d5ea0dcf2dedd53a74404842bc", "fusion_lon": 0.0}, {"rental_uris": {"ios": "https://dc.lft.to/lastmile_qr_scan", "android": "https://dc.lft.to/lastmile_qr_scan"}, "type": "electric_scooter", "name": "08c1a2f8e3b471db84ca90d30980c084", "is_reserved": 0, "lon": -77.04181533333333, "is_disabled": 0, "fusion_lat": 0.0, "lat": 38.9183795, "bike_id": "08c1a2f8e3b471db84ca90d30980c084", "fusion_lon": 0.0}, {"rental_uris": {"ios": "https://dc.lft.to/lastmile_qr_scan", "android": "https://dc.lft.to/lastmile_qr_scan"}, "type": "electric_scooter", "name": "4cb9b8ee2d1c8cbdaaffd9d4a4601b1d", "is_reserved": 0, "lon": -77.002568, "is_disabled": 0, "fusion_lat": 0.0, "lat": 38.912543666666664, "bike_id": "4cb9b8ee2d1c8cbdaaffd9d4a4601b1d", "fusion_lon": 0.0}, {"rental_uris": {"ios": "https://dc.lft.to/lastmile_qr_scan", "android": "https://dc.lft.to/lastmile_qr_scan"}, "type": "electric_scooter", "name": "90d417e01588649660508e386921b216", "is_reserved": 0, "lon": -77.00933466666666, "is_disabled": 0, "fusion_lat": 0.0, "lat": 38.8712235, "bike_id": "90d417e01588649660508e386921b216", "fusion_lon": 0.0}, {"rental_uris": {"ios": "https://dc.lft.to/lastmile_qr_scan", "android": "https://dc.lft.to/lastmile_qr_scan"}, "type": "electric_scooter", "name": "0bc127ce30eb40c8c8eab30b2b503b6a", "is_reserved": 0, "lon": -77.03845183333334, "is_disabled": 0, "fusion_lat": 0.0, "lat": 38.912717, "bike_id": "0bc127ce30eb40c8c8eab30b2b503b6a", "fusion_lon": 0.0}, {"rental_uris": {"ios": "https://dc.lft.to/lastmile_qr_scan", "android": "https://dc.lft.to/lastmile_qr_scan"}, "type": "electric_scooter", "name": "ebf657b4002f0c558b656dda1bc75f6f", "is_reserved": 0, "lon": -77.02388066666667, "is_disabled": 0, "fusion_lat": 0.0, "lat": 38.92068666666667, "bike_id": "ebf657b4002f0c558b656dda1bc75f6f", "fusion_lon": 0.0}, {"rental_uris": {"ios": "https://dc.lft.to/lastmile_qr_scan", "android": "https://dc.lft.to/lastmile_qr_scan"}, "type": "electric_scooter", "name": "8529b228acd56ef1eb0a051d955ecdf9", "is_reserved": 0, "lon": -76.99364016666667, "is_disabled": 0, "fusion_lat": 0.0, "lat": 38.900455, "bike_id": "8529b228acd56ef1eb0a051d955ecdf9", "fusion_lon": 0.0}, {"rental_uris": {"ios": "https://dc.lft.to/lastmile_qr_scan", "android": "https://dc.lft.to/lastmile_qr_scan"}, "type": "electric_scooter", "name": "611207ce23ac81017bc8e3250b53dec6", "is_reserved": 0, "lon": -77.03039166666667, "is_disabled": 0, "fusion_lat": 0.0, "lat": 38.990319166666666, "bike_id": "611207ce23ac81017bc8e3250b53dec6", "fusion_lon": 0.0}, {"rental_uris": {"ios": "https://dc.lft.to/lastmile_qr_scan", "android": "https://dc.lft.to/lastmile_qr_scan"}, "type": "electric_scooter", "name": "495174e08caf48260e8ca6a009376eae", "is_reserved": 0, "lon": -77.01182, "is_disabled": 0, "fusion_lat": 0.0, "lat": 38.91100266666667, "bike_id": "495174e08caf48260e8ca6a009376eae", "fusion_lon": 0.0}, {"rental_uris": {"ios": "https://dc.lft.to/lastmile_qr_scan", "android": "https://dc.lft.to/lastmile_qr_scan"}, "type": "electric_scooter", "name": "9428b4f913ef8631bec595d8b9234136", "is_reserved": 0, "lon": -77.05696616666667, "is_disabled": 0, "fusion_lat": 0.0, "lat": 38.937173, "bike_id": "9428b4f913ef8631bec595d8b9234136", "fusion_lon": 0.0}, {"rental_uris": {"ios": "https://dc.lft.to/lastmile_qr_scan", "android": "https://dc.lft.to/lastmile_qr_scan"}, "type": "electric_scooter", "name": "c04d711063087b22cb1e59389f8d7466", "is_reserved": 0, "lon": -77.019561, "is_disabled": 0, "fusion_lat": 0.0, "lat": 38.9313005, "bike_id": "c04d711063087b22cb1e59389f8d7466", "fusion_lon": 0.0}, {"rental_uris": {"ios": "https://dc.lft.to/lastmile_qr_scan", "android": "https://dc.lft.to/lastmile_qr_scan"}, "type": "electric_scooter", "name": "d91593f35a7a88fbb36e5f285943c68e", "is_reserved": 0, "lon": -77.021457, "is_disabled": 0, "fusion_lat": 0.0, "lat": 38.91625666666667, "bike_id": "d91593f35a7a88fbb36e5f285943c68e", "fusion_lon": 0.0}, {"rental_uris": {"ios": "https://dc.lft.to/lastmile_qr_scan", "android": "https://dc.lft.to/lastmile_qr_scan"}, "type": "electric_scooter", "name": "82aa1f951117d316054def209f59b6bd", "is_reserved": 0, "lon": -77.01714533333333, "is_disabled": 0, "fusion_lat": 0.0, "lat": 38.9140815, "bike_id": "82aa1f951117d316054def209f59b6bd", "fusion_lon": 0.0}, {"rental_uris": {"ios": "https://dc.lft.to/lastmile_qr_scan", "android": "https://dc.lft.to/lastmile_qr_scan"}, "type": "electric_scooter", "name": "f811e7b02ed790e155fe0125cccfc9e1", "is_reserved": 0, "lon": -77.0301565, "is_disabled": 0, "fusion_lat": 0.0, "lat": 38.93114516666667, "bike_id": "f811e7b02ed790e155fe0125cccfc9e1", "fusion_lon": 0.0}, {"rental_uris": {"ios": "https://dc.lft.to/lastmile_qr_scan", "android": "https://dc.lft.to/lastmile_qr_scan"}, "type": "electric_scooter", "name": "9355f881ee98629180c210f0b2354ca1", "is_reserved": 0, "lon": -77.0413615, "is_disabled": 0, "fusion_lat": 0.0, "lat": 38.91405183333333, "bike_id": "9355f881ee98629180c210f0b2354ca1", "fusion_lon": 0.0}, {"rental_uris": {"ios": "https://dc.lft.to/lastmile_qr_scan", "android": "https://dc.lft.to/lastmile_qr_scan"}, "type": "electric_scooter", "name": "b2eeddd41bc0851a93e040529ee128b9", "is_reserved": 0, "lon": -76.990463, "is_disabled": 0, "fusion_lat": 0.0, "lat": 38.924789833333335, "bike_id": "b2eeddd41bc0851a93e040529ee128b9", "fusion_lon": 0.0}, {"rental_uris": {"ios": "https://dc.lft.to/lastmile_qr_scan", "android": "https://dc.lft.to/lastmile_qr_scan"}, "type": "electric_scooter", "name": "50d02fce78cde3a0fbd3eb67778f2f65", "is_reserved": 0, "lon": -77.02827983333333, "is_disabled": 0, "fusion_lat": 0.0, "lat": 38.91122466666667, "bike_id": "50d02fce78cde3a0fbd3eb67778f2f65", "fusion_lon": 0.0}, {"rental_uris": {"ios": "https://dc.lft.to/lastmile_qr_scan", "android": "https://dc.lft.to/lastmile_qr_scan"}, "type": "electric_scooter", "name": "b0584949adcd3bca6a4347fc6f125746", "is_reserved": 0, "lon": -77.034655, "is_disabled": 0, "fusion_lat": 0.0, "lat": 38.9127045, "bike_id": "b0584949adcd3bca6a4347fc6f125746", "fusion_lon": 0.0}, {"rental_uris": {"ios": "https://dc.lft.to/lastmile_qr_scan", "android": "https://dc.lft.to/lastmile_qr_scan"}, "type": "electric_scooter", "name": "0d1d156f2ad59c6702049918552a42e8", "is_reserved": 0, "lon": -77.02979116666667, "is_disabled": 0, "fusion_lat": 0.0, "lat": 38.92426416666667, "bike_id": "0d1d156f2ad59c6702049918552a42e8", "fusion_lon": 0.0}, {"rental_uris": {"ios": "https://dc.lft.to/lastmile_qr_scan", "android": "https://dc.lft.to/lastmile_qr_scan"}, "type": "electric_scooter", "name": "6a761868235ebe6a39a06de73758c62c", "is_reserved": 0, "lon": -77.0211585, "is_disabled": 0, "fusion_lat": 0.0, "lat": 38.91413766666667, "bike_id": "6a761868235ebe6a39a06de73758c62c", "fusion_lon": 0.0}, {"rental_uris": {"ios": "https://dc.lft.to/lastmile_qr_scan", "android": "https://dc.lft.to/lastmile_qr_scan"}, "type": "electric_bike", "name": "4a4940216b7abe4e7a85961ef9461791", "is_reserved": 0, "lon": -77.07646916666667, "is_disabled": 0, "fusion_lat": 0.0, "lat": 38.88848516666667, "bike_id": "4a4940216b7abe4e7a85961ef9461791", "fusion_lon": 0.0}, {"rental_uris": {"ios": "https://dc.lft.to/lastmile_qr_scan", "android": "https://dc.lft.to/lastmile_qr_scan"}, "type": "electric_scooter", "name": "a139144f0862618676414cbd9857fdab", "is_reserved": 0, "lon": -77.01866016666666, "is_disabled": 0, "fusion_lat": 0.0, "lat": 38.9514945, "bike_id": "a139144f0862618676414cbd9857fdab", "fusion_lon": 0.0}, {"rental_uris": {"ios": "https://dc.lft.to/lastmile_qr_scan", "android": "https://dc.lft.to/lastmile_qr_scan"}, "type": "electric_scooter", "name": "1744f19e9000603408a7a9d045e8f982", "is_reserved": 0, "lon": -77.0006395, "is_disabled": 0, "fusion_lat": 0.0, "lat": 38.87689233333333, "bike_id": "1744f19e9000603408a7a9d045e8f982", "fusion_lon": 0.0}, {"rental_uris": {"ios": "https://dc.lft.to/lastmile_qr_scan", "android": "https://dc.lft.to/lastmile_qr_scan"}, "type": "electric_scooter", "name": "567eca3e41b045d55f1fffb687189f7e", "is_reserved": 0, "lon": -77.026161, "is_disabled": 0, "fusion_lat": 0.0, "lat": 38.916945, "bike_id": "567eca3e41b045d55f1fffb687189f7e", "fusion_lon": 0.0}, {"rental_uris": {"ios": "https://dc.lft.to/lastmile_qr_scan", "android": "https://dc.lft.to/lastmile_qr_scan"}, "type": "electric_bike", "name": "2d82a498ca208ff5286d1e13fe749aa7", "is_reserved": 0, "lon": -76.945401, "is_disabled": 0, "fusion_lat": 0.0, "lat": 38.98282283333333, "bike_id": "2d82a498ca208ff5286d1e13fe749aa7", "fusion_lon": 0.0}, {"rental_uris": {"ios": "https://dc.lft.to/lastmile_qr_scan", "android": "https://dc.lft.to/lastmile_qr_scan"}, "type": "electric_scooter", "name": "9644c44f1d1dece3299018a8657dd62f", "is_reserved": 0, "lon": -77.03891433333334, "is_disabled": 0, "fusion_lat": 0.0, "lat": 38.92243116666667, "bike_id": "9644c44f1d1dece3299018a8657dd62f", "fusion_lon": 0.0}, {"rental_uris": {"ios": "https://dc.lft.to/lastmile_qr_scan", "android": "https://dc.lft.to/lastmile_qr_scan"}, "type": "electric_scooter", "name": "3fbfcf8296c041a491f4c92ac2a7dd2c", "is_reserved": 0, "lon": -77.08408716666666, "is_disabled": 0, "fusion_lat": 0.0, "lat": 38.90799533333333, "bike_id": "3fbfcf8296c041a491f4c92ac2a7dd2c", "fusion_lon": 0.0}, {"rental_uris": {"ios": "https://dc.lft.to/lastmile_qr_scan", "android": "https://dc.lft.to/lastmile_qr_scan"}, "type": "electric_scooter", "name": "395449ec459b26907d97b1beabe5e505", "is_reserved": 0, "lon": -77.04006283333334, "is_disabled": 0, "fusion_lat": 0.0, "lat": 38.918159, "bike_id": "395449ec459b26907d97b1beabe5e505", "fusion_lon": 0.0}, {"rental_uris": {"ios": "https://dc.lft.to/lastmile_qr_scan", "android": "https://dc.lft.to/lastmile_qr_scan"}, "type": "electric_bike", "name": "f648c6897f3ba18d52bb1c4b3852b5a3", "is_reserved": 0, "lon": -76.952421, "is_disabled": 0, "fusion_lat": 0.0, "lat": 38.88469683333334, "bike_id": "f648c6897f3ba18d52bb1c4b3852b5a3", "fusion_lon": 0.0}, {"rental_uris": {"ios": "https://dc.lft.to/lastmile_qr_scan", "android": "https://dc.lft.to/lastmile_qr_scan"}, "type": "electric_scooter", "name": "145f3228249c0c5b326ec8adf1da7c19", "is_reserved": 0, "lon": -77.03348383333334, "is_disabled": 0, "fusion_lat": 0.0, "lat": 38.899655, "bike_id": "145f3228249c0c5b326ec8adf1da7c19", "fusion_lon": 0.0}, {"rental_uris": {"ios": "https://dc.lft.to/lastmile_qr_scan", "android": "https://dc.lft.to/lastmile_qr_scan"}, "type": "electric_bike", "name": "d248a4d755140527fd590f6ac42cfb60", "is_reserved": 0, "lon": -77.00757516666667, "is_disabled": 0, "fusion_lat": 0.0, "lat": 38.997826833333335, "bike_id": "d248a4d755140527fd590f6ac42cfb60", "fusion_lon": 0.0}, {"rental_uris": {"ios": "https://dc.lft.to/lastmile_qr_scan", "android": "https://dc.lft.to/lastmile_qr_scan"}, "type": "electric_scooter", "name": "f60f624aee6c27d67c0fae7538801a8f", "is_reserved": 0, "lon": -77.0031525, "is_disabled": 0, "fusion_lat": 0.0, "lat": 38.87735383333333, "bike_id": "f60f624aee6c27d67c0fae7538801a8f", "fusion_lon": 0.0}, {"rental_uris": {"ios": "https://dc.lft.to/lastmile_qr_scan", "android": "https://dc.lft.to/lastmile_qr_scan"}, "type": "electric_scooter", "name": "81444e6688825262842db27b2b0bef35", "is_reserved": 0, "lon": -77.03956466666666, "is_disabled": 0, "fusion_lat": 0.0, "lat": 38.89829133333333, "bike_id": "81444e6688825262842db27b2b0bef35", "fusion_lon": 0.0}, {"rental_uris": {"ios": "https://dc.lft.to/lastmile_qr_scan", "android": "https://dc.lft.to/lastmile_qr_scan"}, "type": "electric_scooter", "name": "5f80f51469330200d795a2b703d0128b", "is_reserved": 0, "lon": -77.03597266666667, "is_disabled": 0, "fusion_lat": 0.0, "lat": 38.927842, "bike_id": "5f80f51469330200d795a2b703d0128b", "fusion_lon": 0.0}, {"rental_uris": {"ios": "https://dc.lft.to/lastmile_qr_scan", "android": "https://dc.lft.to/lastmile_qr_scan"}, "type": "electric_scooter", "name": "fa7121e95beb1c4e7d52c3732a21232f", "is_reserved": 0, "lon": -77.07222016666667, "is_disabled": 0, "fusion_lat": 0.0, "lat": 38.91970033333333, "bike_id": "fa7121e95beb1c4e7d52c3732a21232f", "fusion_lon": 0.0}, {"rental_uris": {"ios": "https://dc.lft.to/lastmile_qr_scan", "android": "https://dc.lft.to/lastmile_qr_scan"}, "type": "electric_bike", "name": "1e815826f0fceea17d08591d871b9cb0", "is_reserved": 0, "lon": -77.12651933333333, "is_disabled": 0, "fusion_lat": 0.0, "lat": 38.8190805, "bike_id": "1e815826f0fceea17d08591d871b9cb0", "fusion_lon": 0.0}, {"rental_uris": {"ios": "https://dc.lft.to/lastmile_qr_scan", "android": "https://dc.lft.to/lastmile_qr_scan"}, "type": "electric_scooter", "name": "7055e0ec40a3413ef27e18645b57bf65", "is_reserved": 0, "lon": -77.00626733333333, "is_disabled": 0, "fusion_lat": 0.0, "lat": 38.87173116666666, "bike_id": "7055e0ec40a3413ef27e18645b57bf65", "fusion_lon": 0.0}, {"rental_uris": {"ios": "https://dc.lft.to/lastmile_qr_scan", "android": "https://dc.lft.to/lastmile_qr_scan"}, "type": "electric_bike", "name": "999e8b3391eefc5c3c409922b19d4dfe", "is_reserved": 0, "lon": -77.079033, "is_disabled": 0, "fusion_lat": 0.0, "lat": 38.83932266666667, "bike_id": "999e8b3391eefc5c3c409922b19d4dfe", "fusion_lon": 0.0}, {"rental_uris": {"ios": "https://dc.lft.to/lastmile_qr_scan", "android": "https://dc.lft.to/lastmile_qr_scan"}, "type": "electric_scooter", "name": "7abb792779e21030581ee56fd5131721", "is_reserved": 0, "lon": -77.06376666666667, "is_disabled": 0, "fusion_lat": 0.0, "lat": 38.935619833333334, "bike_id": "7abb792779e21030581ee56fd5131721", "fusion_lon": 0.0}, {"rental_uris": {"ios": "https://dc.lft.to/lastmile_qr_scan", "android": "https://dc.lft.to/lastmile_qr_scan"}, "type": "electric_scooter", "name": "57f848ec7ca85f0fc893d8284bcebb45", "is_reserved": 0, "lon": -76.977188, "is_disabled": 0, "fusion_lat": 0.0, "lat": 38.888181, "bike_id": "57f848ec7ca85f0fc893d8284bcebb45", "fusion_lon": 0.0}, {"rental_uris": {"ios": "https://dc.lft.to/lastmile_qr_scan", "android": "https://dc.lft.to/lastmile_qr_scan"}, "type": "electric_scooter", "name": "f7488729cd727796293d747ad61e00bf", "is_reserved": 0, "lon": -77.0347875, "is_disabled": 0, "fusion_lat": 0.0, "lat": 38.90549, "bike_id": "f7488729cd727796293d747ad61e00bf", "fusion_lon": 0.0}, {"rental_uris": {"ios": "https://dc.lft.to/lastmile_qr_scan", "android": "https://dc.lft.to/lastmile_qr_scan"}, "type": "electric_scooter", "name": "eed824ea4389df364754fc9e1c00b933", "is_reserved": 0, "lon": -77.03814066666666, "is_disabled": 0, "fusion_lat": 0.0, "lat": 38.931150833333334, "bike_id": "eed824ea4389df364754fc9e1c00b933", "fusion_lon": 0.0}, {"rental_uris": {"ios": "https://dc.lft.to/lastmile_qr_scan", "android": "https://dc.lft.to/lastmile_qr_scan"}, "type": "electric_scooter", "name": "6ca506db77fa58ba3180294d6b1692cb", "is_reserved": 0, "lon": -77.03347866666667, "is_disabled": 0, "fusion_lat": 0.0, "lat": 38.901097666666665, "bike_id": "6ca506db77fa58ba3180294d6b1692cb", "fusion_lon": 0.0}, {"rental_uris": {"ios": "https://dc.lft.to/lastmile_qr_scan", "android": "https://dc.lft.to/lastmile_qr_scan"}, "type": "electric_scooter", "name": "551e2c93ae9466c62ae8a8b906bb2db3", "is_reserved": 0, "lon": -77.01287483333333, "is_disabled": 0, "fusion_lat": 0.0, "lat": 38.91034716666667, "bike_id": "551e2c93ae9466c62ae8a8b906bb2db3", "fusion_lon": 0.0}, {"rental_uris": {"ios": "https://dc.lft.to/lastmile_qr_scan", "android": "https://dc.lft.to/lastmile_qr_scan"}, "type": "electric_scooter", "name": "036eef6debee7bf1c81bca2d81f44c5a", "is_reserved": 0, "lon": -77.02420133333334, "is_disabled": 0, "fusion_lat": 0.0, "lat": 38.904179, "bike_id": "036eef6debee7bf1c81bca2d81f44c5a", "fusion_lon": 0.0}, {"rental_uris": {"ios": "https://dc.lft.to/lastmile_qr_scan", "android": "https://dc.lft.to/lastmile_qr_scan"}, "type": "electric_bike", "name": "1e65db431b4f417e398703870570ca65", "is_reserved": 0, "lon": -76.952529, "is_disabled": 0, "fusion_lat": 0.0, "lat": 38.90697816666667, "bike_id": "1e65db431b4f417e398703870570ca65", "fusion_lon": 0.0}, {"rental_uris": {"ios": "https://dc.lft.to/lastmile_qr_scan", "android": "https://dc.lft.to/lastmile_qr_scan"}, "type": "electric_scooter", "name": "36c3617c9a16bae23e3821b904fb7acf", "is_reserved": 0, "lon": -77.0333525, "is_disabled": 0, "fusion_lat": 0.0, "lat": 38.900193333333334, "bike_id": "36c3617c9a16bae23e3821b904fb7acf", "fusion_lon": 0.0}, {"rental_uris": {"ios": "https://dc.lft.to/lastmile_qr_scan", "android": "https://dc.lft.to/lastmile_qr_scan"}, "type": "electric_scooter", "name": "ccbf05874f56ad343efc1a362fdf2c19", "is_reserved": 0, "lon": -77.03474916666667, "is_disabled": 0, "fusion_lat": 0.0, "lat": 38.90679633333333, "bike_id": "ccbf05874f56ad343efc1a362fdf2c19", "fusion_lon": 0.0}, {"rental_uris": {"ios": "https://dc.lft.to/lastmile_qr_scan", "android": "https://dc.lft.to/lastmile_qr_scan"}, "type": "electric_bike", "name": "73c11871877bf33c1f14b1028b923701", "is_reserved": 0, "lon": -77.0245285, "is_disabled": 0, "fusion_lat": 0.0, "lat": 38.957303, "bike_id": "73c11871877bf33c1f14b1028b923701", "fusion_lon": 0.0}, {"rental_uris": {"ios": "https://dc.lft.to/lastmile_qr_scan", "android": "https://dc.lft.to/lastmile_qr_scan"}, "type": "electric_scooter", "name": "8356d8ed0ccb05326b6bb041f0c43e33", "is_reserved": 0, "lon": -77.02069933333334, "is_disabled": 0, "fusion_lat": 0.0, "lat": 38.926944166666665, "bike_id": "8356d8ed0ccb05326b6bb041f0c43e33", "fusion_lon": 0.0}, {"rental_uris": {"ios": "https://dc.lft.to/lastmile_qr_scan", "android": "https://dc.lft.to/lastmile_qr_scan"}, "type": "electric_scooter", "name": "eb573f5e2216cd2ad509f3e4e298a498", "is_reserved": 0, "lon": -77.00919683333333, "is_disabled": 0, "fusion_lat": 0.0, "lat": 38.8819155, "bike_id": "eb573f5e2216cd2ad509f3e4e298a498", "fusion_lon": 0.0}, {"rental_uris": {"ios": "https://dc.lft.to/lastmile_qr_scan", "android": "https://dc.lft.to/lastmile_qr_scan"}, "type": "electric_scooter", "name": "af88d00e2f24f7563f1f6f7f815eac3b", "is_reserved": 0, "lon": -77.02256883333334, "is_disabled": 0, "fusion_lat": 0.0, "lat": 38.92827883333333, "bike_id": "af88d00e2f24f7563f1f6f7f815eac3b", "fusion_lon": 0.0}, {"rental_uris": {"ios": "https://dc.lft.to/lastmile_qr_scan", "android": "https://dc.lft.to/lastmile_qr_scan"}, "type": "electric_bike", "name": "0b76fd237253e3ac400118231231e6fa", "is_reserved": 0, "lon": -76.987727, "is_disabled": 0, "fusion_lat": 0.0, "lat": 38.844769, "bike_id": "0b76fd237253e3ac400118231231e6fa", "fusion_lon": 0.0}, {"rental_uris": {"ios": "https://dc.lft.to/lastmile_qr_scan", "android": "https://dc.lft.to/lastmile_qr_scan"}, "type": "electric_scooter", "name": "6cce985179f85c226f2499cce84b2f15", "is_reserved": 0, "lon": -77.041908, "is_disabled": 0, "fusion_lat": 0.0, "lat": 38.903826, "bike_id": "6cce985179f85c226f2499cce84b2f15", "fusion_lon": 0.0}, {"rental_uris": {"ios": "https://dc.lft.to/lastmile_qr_scan", "android": "https://dc.lft.to/lastmile_qr_scan"}, "type": "electric_scooter", "name": "c01bf8b43f3cd54a5f0f2dfbde9966d5", "is_reserved": 0, "lon": -77.0033275, "is_disabled": 0, "fusion_lat": 0.0, "lat": 38.9133235, "bike_id": "c01bf8b43f3cd54a5f0f2dfbde9966d5", "fusion_lon": 0.0}, {"rental_uris": {"ios": "https://dc.lft.to/lastmile_qr_scan", "android": "https://dc.lft.to/lastmile_qr_scan"}, "type": "electric_scooter", "name": "6914fd3165b5bb968936f0882b0e6e88", "is_reserved": 0, "lon": -77.01210283333333, "is_disabled": 0, "fusion_lat": 0.0, "lat": 38.92117966666667, "bike_id": "6914fd3165b5bb968936f0882b0e6e88", "fusion_lon": 0.0}, {"rental_uris": {"ios": "https://dc.lft.to/lastmile_qr_scan", "android": "https://dc.lft.to/lastmile_qr_scan"}, "type": "electric_scooter", "name": "545503a814bc0e5e45d32004f619af1b", "is_reserved": 0, "lon": -77.05783416666667, "is_disabled": 0, "fusion_lat": 0.0, "lat": 38.901008166666664, "bike_id": "545503a814bc0e5e45d32004f619af1b", "fusion_lon": 0.0}, {"rental_uris": {"ios": "https://dc.lft.to/lastmile_qr_scan", "android": "https://dc.lft.to/lastmile_qr_scan"}, "type": "electric_scooter", "name": "5cca377c2fadc1a71433a3b1013172d1", "is_reserved": 0, "lon": -77.02088533333334, "is_disabled": 0, "fusion_lat": 0.0, "lat": 38.8818805, "bike_id": "5cca377c2fadc1a71433a3b1013172d1", "fusion_lon": 0.0}, {"rental_uris": {"ios": "https://dc.lft.to/lastmile_qr_scan", "android": "https://dc.lft.to/lastmile_qr_scan"}, "type": "electric_scooter", "name": "cb9542ffc4e5e5629ae5bfe3c89db137", "is_reserved": 0, "lon": -76.99908233333333, "is_disabled": 0, "fusion_lat": 0.0, "lat": 38.93750383333333, "bike_id": "cb9542ffc4e5e5629ae5bfe3c89db137", "fusion_lon": 0.0}, {"rental_uris": {"ios": "https://dc.lft.to/lastmile_qr_scan", "android": "https://dc.lft.to/lastmile_qr_scan"}, "type": "electric_scooter", "name": "5ab725c64b381863cb4a62b44c6e2288", "is_reserved": 0, "lon": -76.98360416666667, "is_disabled": 0, "fusion_lat": 0.0, "lat": 38.887470666666665, "bike_id": "5ab725c64b381863cb4a62b44c6e2288", "fusion_lon": 0.0}, {"rental_uris": {"ios": "https://dc.lft.to/lastmile_qr_scan", "android": "https://dc.lft.to/lastmile_qr_scan"}, "type": "electric_bike", "name": "9dcc4412dc3c04e6e172dca5fbb5dbf3", "is_reserved": 0, "lon": -76.98685866666666, "is_disabled": 0, "fusion_lat": 0.0, "lat": 38.944749, "bike_id": "9dcc4412dc3c04e6e172dca5fbb5dbf3", "fusion_lon": 0.0}, {"rental_uris": {"ios": "https://dc.lft.to/lastmile_qr_scan", "android": "https://dc.lft.to/lastmile_qr_scan"}, "type": "electric_scooter", "name": "c7816f6297b34dde5d9b566c16073fc6", "is_reserved": 0, "lon": -77.02405216666666, "is_disabled": 0, "fusion_lat": 0.0, "lat": 38.93378883333333, "bike_id": "c7816f6297b34dde5d9b566c16073fc6", "fusion_lon": 0.0}, {"rental_uris": {"ios": "https://dc.lft.to/lastmile_qr_scan", "android": "https://dc.lft.to/lastmile_qr_scan"}, "type": "electric_scooter", "name": "630719c6f6a6bcc0726623399e73579a", "is_reserved": 0, "lon": -77.02443966666667, "is_disabled": 0, "fusion_lat": 0.0, "lat": 38.9373535, "bike_id": "630719c6f6a6bcc0726623399e73579a", "fusion_lon": 0.0}, {"rental_uris": {"ios": "https://dc.lft.to/lastmile_qr_scan", "android": "https://dc.lft.to/lastmile_qr_scan"}, "type": "electric_scooter", "name": "c1022415d85ae57f4b4b4b02beec1f83", "is_reserved": 0, "lon": -77.038478, "is_disabled": 0, "fusion_lat": 0.0, "lat": 38.911851666666664, "bike_id": "c1022415d85ae57f4b4b4b02beec1f83", "fusion_lon": 0.0}, {"rental_uris": {"ios": "https://dc.lft.to/lastmile_qr_scan", "android": "https://dc.lft.to/lastmile_qr_scan"}, "type": "electric_scooter", "name": "d31206a7edca3d865e380b64d6c91da2", "is_reserved": 0, "lon": -77.012904, "is_disabled": 0, "fusion_lat": 0.0, "lat": 38.901828333333334, "bike_id": "d31206a7edca3d865e380b64d6c91da2", "fusion_lon": 0.0}, {"rental_uris": {"ios": "https://dc.lft.to/lastmile_qr_scan", "android": "https://dc.lft.to/lastmile_qr_scan"}, "type": "electric_scooter", "name": "ba2c4c6d11708e9c339c7754cbcb6b9c", "is_reserved": 0, "lon": -77.03030166666667, "is_disabled": 0, "fusion_lat": 0.0, "lat": 38.92670833333333, "bike_id": "ba2c4c6d11708e9c339c7754cbcb6b9c", "fusion_lon": 0.0}, {"rental_uris": {"ios": "https://dc.lft.to/lastmile_qr_scan", "android": "https://dc.lft.to/lastmile_qr_scan"}, "type": "electric_scooter", "name": "cab56ef91565703fd763e0cfa87ac1d3", "is_reserved": 0, "lon": -77.05060033333334, "is_disabled": 0, "fusion_lat": 0.0, "lat": 38.92356383333333, "bike_id": "cab56ef91565703fd763e0cfa87ac1d3", "fusion_lon": 0.0}, {"rental_uris": {"ios": "https://dc.lft.to/lastmile_qr_scan", "android": "https://dc.lft.to/lastmile_qr_scan"}, "type": "electric_scooter", "name": "c385c4c7ae162a87cb6ecec33df482fa", "is_reserved": 0, "lon": -77.03729733333333, "is_disabled": 0, "fusion_lat": 0.0, "lat": 38.92652783333333, "bike_id": "c385c4c7ae162a87cb6ecec33df482fa", "fusion_lon": 0.0}, {"rental_uris": {"ios": "https://dc.lft.to/lastmile_qr_scan", "android": "https://dc.lft.to/lastmile_qr_scan"}, "type": "electric_scooter", "name": "38173ac84bfdb57dac7a6588d780ec70", "is_reserved": 0, "lon": -77.00551916666667, "is_disabled": 0, "fusion_lat": 0.0, "lat": 38.909261666666666, "bike_id": "38173ac84bfdb57dac7a6588d780ec70", "fusion_lon": 0.0}, {"rental_uris": {"ios": "https://dc.lft.to/lastmile_qr_scan", "android": "https://dc.lft.to/lastmile_qr_scan"}, "type": "electric_scooter", "name": "e6031c0b6776f5cc6466c4dc27b33231", "is_reserved": 0, "lon": -76.99415616666667, "is_disabled": 0, "fusion_lat": 0.0, "lat": 38.8778695, "bike_id": "e6031c0b6776f5cc6466c4dc27b33231", "fusion_lon": 0.0}, {"rental_uris": {"ios": "https://dc.lft.to/lastmile_qr_scan", "android": "https://dc.lft.to/lastmile_qr_scan"}, "type": "electric_scooter", "name": "16a819094038ce6d0aead5af7c568887", "is_reserved": 0, "lon": -77.03478733333333, "is_disabled": 0, "fusion_lat": 0.0, "lat": 38.930216333333334, "bike_id": "16a819094038ce6d0aead5af7c568887", "fusion_lon": 0.0}, {"rental_uris": {"ios": "https://dc.lft.to/lastmile_qr_scan", "android": "https://dc.lft.to/lastmile_qr_scan"}, "type": "electric_bike", "name": "8dab4731a10e61786372f5e2c959f1fe", "is_reserved": 0, "lon": -76.9030405, "is_disabled": 0, "fusion_lat": 0.0, "lat": 39.0029535, "bike_id": "8dab4731a10e61786372f5e2c959f1fe", "fusion_lon": 0.0}, {"rental_uris": {"ios": "https://dc.lft.to/lastmile_qr_scan", "android": "https://dc.lft.to/lastmile_qr_scan"}, "type": "electric_scooter", "name": "d8ea7f14ece21b5ce7e2b51c0946dfd8", "is_reserved": 0, "lon": -77.0287595, "is_disabled": 0, "fusion_lat": 0.0, "lat": 38.9072385, "bike_id": "d8ea7f14ece21b5ce7e2b51c0946dfd8", "fusion_lon": 0.0}, {"rental_uris": {"ios": "https://dc.lft.to/lastmile_qr_scan", "android": "https://dc.lft.to/lastmile_qr_scan"}, "type": "electric_scooter", "name": "6d5adb02a432f15d4ccfbbdf9e9d15e7", "is_reserved": 0, "lon": -77.03519433333334, "is_disabled": 0, "fusion_lat": 0.0, "lat": 38.9221995, "bike_id": "6d5adb02a432f15d4ccfbbdf9e9d15e7", "fusion_lon": 0.0}, {"rental_uris": {"ios": "https://dc.lft.to/lastmile_qr_scan", "android": "https://dc.lft.to/lastmile_qr_scan"}, "type": "electric_scooter", "name": "5893cd4d5632d93f5b962ab2c980a644", "is_reserved": 0, "lon": -77.00873983333334, "is_disabled": 0, "fusion_lat": 0.0, "lat": 38.91249466666667, "bike_id": "5893cd4d5632d93f5b962ab2c980a644", "fusion_lon": 0.0}, {"rental_uris": {"ios": "https://dc.lft.to/lastmile_qr_scan", "android": "https://dc.lft.to/lastmile_qr_scan"}, "type": "electric_scooter", "name": "aad03035dd0d6b6b90885d5615accd45", "is_reserved": 0, "lon": -76.9984155, "is_disabled": 0, "fusion_lat": 0.0, "lat": 38.90300366666666, "bike_id": "aad03035dd0d6b6b90885d5615accd45", "fusion_lon": 0.0}, {"rental_uris": {"ios": "https://dc.lft.to/lastmile_qr_scan", "android": "https://dc.lft.to/lastmile_qr_scan"}, "type": "electric_scooter", "name": "f1d20d6d46420d62368811c4ac80325e", "is_reserved": 0, "lon": -77.016431, "is_disabled": 0, "fusion_lat": 0.0, "lat": 38.902472833333334, "bike_id": "f1d20d6d46420d62368811c4ac80325e", "fusion_lon": 0.0}, {"rental_uris": {"ios": "https://dc.lft.to/lastmile_qr_scan", "android": "https://dc.lft.to/lastmile_qr_scan"}, "type": "electric_bike", "name": "5c63c59bd142ac1724402b9b2bbea495", "is_reserved": 0, "lon": -76.96320016666667, "is_disabled": 0, "fusion_lat": 0.0, "lat": 38.9389735, "bike_id": "5c63c59bd142ac1724402b9b2bbea495", "fusion_lon": 0.0}, {"rental_uris": {"ios": "https://dc.lft.to/lastmile_qr_scan", "android": "https://dc.lft.to/lastmile_qr_scan"}, "type": "electric_bike", "name": "662d30632faf73bc146e5c16bb81d162", "is_reserved": 0, "lon": -77.08144116666666, "is_disabled": 0, "fusion_lat": 0.0, "lat": 38.822999833333334, "bike_id": "662d30632faf73bc146e5c16bb81d162", "fusion_lon": 0.0}, {"rental_uris": {"ios": "https://dc.lft.to/lastmile_qr_scan", "android": "https://dc.lft.to/lastmile_qr_scan"}, "type": "electric_scooter", "name": "ed1fb1e396c236e62fce199a045aadbc", "is_reserved": 0, "lon": -77.038332, "is_disabled": 0, "fusion_lat": 0.0, "lat": 38.908314833333336, "bike_id": "ed1fb1e396c236e62fce199a045aadbc", "fusion_lon": 0.0}, {"rental_uris": {"ios": "https://dc.lft.to/lastmile_qr_scan", "android": "https://dc.lft.to/lastmile_qr_scan"}, "type": "electric_scooter", "name": "7c8b5e2153b8449c075d21f05f23d8e8", "is_reserved": 0, "lon": -77.023025, "is_disabled": 0, "fusion_lat": 0.0, "lat": 38.9277955, "bike_id": "7c8b5e2153b8449c075d21f05f23d8e8", "fusion_lon": 0.0}, {"rental_uris": {"ios": "https://dc.lft.to/lastmile_qr_scan", "android": "https://dc.lft.to/lastmile_qr_scan"}, "type": "electric_scooter", "name": "8c933449702915b163f55de6a13f5e89", "is_reserved": 0, "lon": -77.0207795, "is_disabled": 0, "fusion_lat": 0.0, "lat": 38.930270166666666, "bike_id": "8c933449702915b163f55de6a13f5e89", "fusion_lon": 0.0}, {"rental_uris": {"ios": "https://dc.lft.to/lastmile_qr_scan", "android": "https://dc.lft.to/lastmile_qr_scan"}, "type": "electric_scooter", "name": "3b3b939cc2a4c8b9ab5485c7da930436", "is_reserved": 0, "lon": -77.020922, "is_disabled": 0, "fusion_lat": 0.0, "lat": 38.931157166666665, "bike_id": "3b3b939cc2a4c8b9ab5485c7da930436", "fusion_lon": 0.0}, {"rental_uris": {"ios": "https://dc.lft.to/lastmile_qr_scan", "android": "https://dc.lft.to/lastmile_qr_scan"}, "type": "electric_bike", "name": "95e8be183598b61eddba695f8d25a965", "is_reserved": 0, "lon": -77.00382216666667, "is_disabled": 0, "fusion_lat": 0.0, "lat": 38.8361115, "bike_id": "95e8be183598b61eddba695f8d25a965", "fusion_lon": 0.0}, {"rental_uris": {"ios": "https://dc.lft.to/lastmile_qr_scan", "android": "https://dc.lft.to/lastmile_qr_scan"}, "type": "electric_scooter", "name": "a8677fcd1e7cf72765bcd56de3a66216", "is_reserved": 0, "lon": -77.02837333333333, "is_disabled": 0, "fusion_lat": 0.0, "lat": 38.887343666666666, "bike_id": "a8677fcd1e7cf72765bcd56de3a66216", "fusion_lon": 0.0}, {"rental_uris": {"ios": "https://dc.lft.to/lastmile_qr_scan", "android": "https://dc.lft.to/lastmile_qr_scan"}, "type": "electric_scooter", "name": "7c6e884c2ddc9630b6f9c602afc4fb61", "is_reserved": 0, "lon": -77.001751, "is_disabled": 0, "fusion_lat": 0.0, "lat": 38.907649, "bike_id": "7c6e884c2ddc9630b6f9c602afc4fb61", "fusion_lon": 0.0}, {"rental_uris": {"ios": "https://dc.lft.to/lastmile_qr_scan", "android": "https://dc.lft.to/lastmile_qr_scan"}, "type": "electric_scooter", "name": "1416c45b8b4e25ff1ba590b4ad54d377", "is_reserved": 0, "lon": -77.02741466666667, "is_disabled": 0, "fusion_lat": 0.0, "lat": 38.929673666666666, "bike_id": "1416c45b8b4e25ff1ba590b4ad54d377", "fusion_lon": 0.0}, {"rental_uris": {"ios": "https://dc.lft.to/lastmile_qr_scan", "android": "https://dc.lft.to/lastmile_qr_scan"}, "type": "electric_scooter", "name": "d5c484c7e2e70b9633d6d1846dc5a16e", "is_reserved": 0, "lon": -77.04125966666666, "is_disabled": 0, "fusion_lat": 0.0, "lat": 38.9339865, "bike_id": "d5c484c7e2e70b9633d6d1846dc5a16e", "fusion_lon": 0.0}, {"rental_uris": {"ios": "https://dc.lft.to/lastmile_qr_scan", "android": "https://dc.lft.to/lastmile_qr_scan"}, "type": "electric_scooter", "name": "03dca36841584d7e1e460d8b08fed370", "is_reserved": 0, "lon": -77.05523166666667, "is_disabled": 0, "fusion_lat": 0.0, "lat": 38.907725, "bike_id": "03dca36841584d7e1e460d8b08fed370", "fusion_lon": 0.0}, {"rental_uris": {"ios": "https://dc.lft.to/lastmile_qr_scan", "android": "https://dc.lft.to/lastmile_qr_scan"}, "type": "electric_scooter", "name": "60813483cbd94df72c9635816b26e8da", "is_reserved": 0, "lon": -77.04340166666667, "is_disabled": 0, "fusion_lat": 0.0, "lat": 38.92244783333334, "bike_id": "60813483cbd94df72c9635816b26e8da", "fusion_lon": 0.0}, {"rental_uris": {"ios": "https://dc.lft.to/lastmile_qr_scan", "android": "https://dc.lft.to/lastmile_qr_scan"}, "type": "electric_scooter", "name": "c53c305bfadf64465aacbe030a26e78c", "is_reserved": 0, "lon": -76.92921316666667, "is_disabled": 0, "fusion_lat": 0.0, "lat": 38.88656833333334, "bike_id": "c53c305bfadf64465aacbe030a26e78c", "fusion_lon": 0.0}, {"rental_uris": {"ios": "https://dc.lft.to/lastmile_qr_scan", "android": "https://dc.lft.to/lastmile_qr_scan"}, "type": "electric_scooter", "name": "b3769746f3a6695ee5c751426c0e76d1", "is_reserved": 0, "lon": -76.9713425, "is_disabled": 0, "fusion_lat": 0.0, "lat": 38.87864033333334, "bike_id": "b3769746f3a6695ee5c751426c0e76d1", "fusion_lon": 0.0}, {"rental_uris": {"ios": "https://dc.lft.to/lastmile_qr_scan", "android": "https://dc.lft.to/lastmile_qr_scan"}, "type": "electric_scooter", "name": "996c422f13bf2d7a3fadacf7edb32600", "is_reserved": 0, "lon": -77.0198695, "is_disabled": 0, "fusion_lat": 0.0, "lat": 38.93077516666666, "bike_id": "996c422f13bf2d7a3fadacf7edb32600", "fusion_lon": 0.0}, {"rental_uris": {"ios": "https://dc.lft.to/lastmile_qr_scan", "android": "https://dc.lft.to/lastmile_qr_scan"}, "type": "electric_scooter", "name": "380e38f5c989201f5df3fa607c156200", "is_reserved": 0, "lon": -77.072945, "is_disabled": 0, "fusion_lat": 0.0, "lat": 38.91443566666667, "bike_id": "380e38f5c989201f5df3fa607c156200", "fusion_lon": 0.0}, {"rental_uris": {"ios": "https://dc.lft.to/lastmile_qr_scan", "android": "https://dc.lft.to/lastmile_qr_scan"}, "type": "electric_scooter", "name": "7f8300fa80be5271a3c77447194eb6c2", "is_reserved": 0, "lon": -77.024406, "is_disabled": 0, "fusion_lat": 0.0, "lat": 38.956341, "bike_id": "7f8300fa80be5271a3c77447194eb6c2", "fusion_lon": 0.0}, {"rental_uris": {"ios": "https://dc.lft.to/lastmile_qr_scan", "android": "https://dc.lft.to/lastmile_qr_scan"}, "type": "electric_scooter", "name": "f4f28d225ce2f314f3fc41688fb84f40", "is_reserved": 0, "lon": -77.07090816666667, "is_disabled": 0, "fusion_lat": 0.0, "lat": 38.95323283333333, "bike_id": "f4f28d225ce2f314f3fc41688fb84f40", "fusion_lon": 0.0}, {"rental_uris": {"ios": "https://dc.lft.to/lastmile_qr_scan", "android": "https://dc.lft.to/lastmile_qr_scan"}, "type": "electric_scooter", "name": "a595140f83505c64aa76b3a1e95616ed", "is_reserved": 0, "lon": -77.03652916666667, "is_disabled": 0, "fusion_lat": 0.0, "lat": 38.95461016666667, "bike_id": "a595140f83505c64aa76b3a1e95616ed", "fusion_lon": 0.0}, {"rental_uris": {"ios": "https://dc.lft.to/lastmile_qr_scan", "android": "https://dc.lft.to/lastmile_qr_scan"}, "type": "electric_scooter", "name": "bc0c1fc97ac2de25fb199a093f44b60f", "is_reserved": 0, "lon": -77.046779, "is_disabled": 0, "fusion_lat": 0.0, "lat": 38.8922505, "bike_id": "bc0c1fc97ac2de25fb199a093f44b60f", "fusion_lon": 0.0}, {"rental_uris": {"ios": "https://dc.lft.to/lastmile_qr_scan", "android": "https://dc.lft.to/lastmile_qr_scan"}, "type": "electric_scooter", "name": "d3994d51a3501591a5cacc0f12c2dec9", "is_reserved": 0, "lon": -77.01998583333334, "is_disabled": 0, "fusion_lat": 0.0, "lat": 38.87608083333333, "bike_id": "d3994d51a3501591a5cacc0f12c2dec9", "fusion_lon": 0.0}, {"rental_uris": {"ios": "https://dc.lft.to/lastmile_qr_scan", "android": "https://dc.lft.to/lastmile_qr_scan"}, "type": "electric_scooter", "name": "ff63ea6cabd33b5beabbcd7f4d5bb8c4", "is_reserved": 0, "lon": -76.995564, "is_disabled": 0, "fusion_lat": 0.0, "lat": 38.9268575, "bike_id": "ff63ea6cabd33b5beabbcd7f4d5bb8c4", "fusion_lon": 0.0}, {"rental_uris": {"ios": "https://dc.lft.to/lastmile_qr_scan", "android": "https://dc.lft.to/lastmile_qr_scan"}, "type": "electric_scooter", "name": "09824685de1bab431f48821c0af3f008", "is_reserved": 0, "lon": -77.0419185, "is_disabled": 0, "fusion_lat": 0.0, "lat": 38.921950333333335, "bike_id": "09824685de1bab431f48821c0af3f008", "fusion_lon": 0.0}, {"rental_uris": {"ios": "https://dc.lft.to/lastmile_qr_scan", "android": "https://dc.lft.to/lastmile_qr_scan"}, "type": "electric_scooter", "name": "4f179b49713b2282419fc527a1822f74", "is_reserved": 0, "lon": -76.98737133333333, "is_disabled": 0, "fusion_lat": 0.0, "lat": 38.84220716666667, "bike_id": "4f179b49713b2282419fc527a1822f74", "fusion_lon": 0.0}, {"rental_uris": {"ios": "https://dc.lft.to/lastmile_qr_scan", "android": "https://dc.lft.to/lastmile_qr_scan"}, "type": "electric_bike", "name": "f62f156ec8c35303b3db6c469095907d", "is_reserved": 0, "lon": -77.12732883333334, "is_disabled": 0, "fusion_lat": 0.0, "lat": 38.895655166666664, "bike_id": "f62f156ec8c35303b3db6c469095907d", "fusion_lon": 0.0}, {"rental_uris": {"ios": "https://dc.lft.to/lastmile_qr_scan", "android": "https://dc.lft.to/lastmile_qr_scan"}, "type": "electric_scooter", "name": "405ca1bc52ddcbfc9189752bda31d346", "is_reserved": 0, "lon": -77.038101, "is_disabled": 0, "fusion_lat": 0.0, "lat": 38.910428, "bike_id": "405ca1bc52ddcbfc9189752bda31d346", "fusion_lon": 0.0}, {"rental_uris": {"ios": "https://dc.lft.to/lastmile_qr_scan", "android": "https://dc.lft.to/lastmile_qr_scan"}, "type": "electric_scooter", "name": "573d4dea09e3d89ec611ed9928b7b5d8", "is_reserved": 0, "lon": -77.06175216666666, "is_disabled": 0, "fusion_lat": 0.0, "lat": 38.943297666666666, "bike_id": "573d4dea09e3d89ec611ed9928b7b5d8", "fusion_lon": 0.0}, {"rental_uris": {"ios": "https://dc.lft.to/lastmile_qr_scan", "android": "https://dc.lft.to/lastmile_qr_scan"}, "type": "electric_scooter", "name": "1b5cf31c982246e3e39f49ae6dc35fcf", "is_reserved": 0, "lon": -77.03246116666666, "is_disabled": 0, "fusion_lat": 0.0, "lat": 38.91117833333333, "bike_id": "1b5cf31c982246e3e39f49ae6dc35fcf", "fusion_lon": 0.0}, {"rental_uris": {"ios": "https://dc.lft.to/lastmile_qr_scan", "android": "https://dc.lft.to/lastmile_qr_scan"}, "type": "electric_scooter", "name": "8c715e3a96126766723ad4fac4bf3461", "is_reserved": 0, "lon": -76.94653083333333, "is_disabled": 0, "fusion_lat": 0.0, "lat": 38.8982825, "bike_id": "8c715e3a96126766723ad4fac4bf3461", "fusion_lon": 0.0}, {"rental_uris": {"ios": "https://dc.lft.to/lastmile_qr_scan", "android": "https://dc.lft.to/lastmile_qr_scan"}, "type": "electric_scooter", "name": "1756bd98062098cdc54e045dbbd6ed29", "is_reserved": 0, "lon": -77.046756, "is_disabled": 0, "fusion_lat": 0.0, "lat": 38.903090666666664, "bike_id": "1756bd98062098cdc54e045dbbd6ed29", "fusion_lon": 0.0}, {"rental_uris": {"ios": "https://dc.lft.to/lastmile_qr_scan", "android": "https://dc.lft.to/lastmile_qr_scan"}, "type": "electric_scooter", "name": "502c086c460d1bddf5b54d8ecf123b80", "is_reserved": 0, "lon": -77.041797, "is_disabled": 0, "fusion_lat": 0.0, "lat": 38.918359, "bike_id": "502c086c460d1bddf5b54d8ecf123b80", "fusion_lon": 0.0}, {"rental_uris": {"ios": "https://dc.lft.to/lastmile_qr_scan", "android": "https://dc.lft.to/lastmile_qr_scan"}, "type": "electric_scooter", "name": "defc0e8f14694e955db3a7158d4f0137", "is_reserved": 0, "lon": -77.022216, "is_disabled": 0, "fusion_lat": 0.0, "lat": 38.893626166666664, "bike_id": "defc0e8f14694e955db3a7158d4f0137", "fusion_lon": 0.0}, {"rental_uris": {"ios": "https://dc.lft.to/lastmile_qr_scan", "android": "https://dc.lft.to/lastmile_qr_scan"}, "type": "electric_scooter", "name": "db7b548994df8f147417f7b1eba16a8c", "is_reserved": 0, "lon": -77.03867583333333, "is_disabled": 0, "fusion_lat": 0.0, "lat": 38.921519, "bike_id": "db7b548994df8f147417f7b1eba16a8c", "fusion_lon": 0.0}, {"rental_uris": {"ios": "https://dc.lft.to/lastmile_qr_scan", "android": "https://dc.lft.to/lastmile_qr_scan"}, "type": "electric_scooter", "name": "394ca5421b0d46947b56c2d1e3126cef", "is_reserved": 0, "lon": -76.99870183333333, "is_disabled": 0, "fusion_lat": 0.0, "lat": 38.900149166666665, "bike_id": "394ca5421b0d46947b56c2d1e3126cef", "fusion_lon": 0.0}, {"rental_uris": {"ios": "https://dc.lft.to/lastmile_qr_scan", "android": "https://dc.lft.to/lastmile_qr_scan"}, "type": "electric_bike", "name": "3a767a13e82b8dbc601afde05513dbd3", "is_reserved": 0, "lon": -77.01223766666666, "is_disabled": 0, "fusion_lat": 0.0, "lat": 38.95085666666667, "bike_id": "3a767a13e82b8dbc601afde05513dbd3", "fusion_lon": 0.0}, {"rental_uris": {"ios": "https://dc.lft.to/lastmile_qr_scan", "android": "https://dc.lft.to/lastmile_qr_scan"}, "type": "electric_scooter", "name": "bbdcbbe80d760b9284a3bdb7e1134813", "is_reserved": 0, "lon": -77.028461, "is_disabled": 0, "fusion_lat": 0.0, "lat": 38.90275466666667, "bike_id": "bbdcbbe80d760b9284a3bdb7e1134813", "fusion_lon": 0.0}, {"rental_uris": {"ios": "https://dc.lft.to/lastmile_qr_scan", "android": "https://dc.lft.to/lastmile_qr_scan"}, "type": "electric_scooter", "name": "7c91f44d768ec225855cace8026363a6", "is_reserved": 0, "lon": -76.985794, "is_disabled": 0, "fusion_lat": 0.0, "lat": 38.85448066666667, "bike_id": "7c91f44d768ec225855cace8026363a6", "fusion_lon": 0.0}, {"rental_uris": {"ios": "https://dc.lft.to/lastmile_qr_scan", "android": "https://dc.lft.to/lastmile_qr_scan"}, "type": "electric_bike", "name": "1cf799cdbbd21ef75cafc84832bcd799", "is_reserved": 0, "lon": -77.00003616666666, "is_disabled": 0, "fusion_lat": 0.0, "lat": 38.92392733333333, "bike_id": "1cf799cdbbd21ef75cafc84832bcd799", "fusion_lon": 0.0}, {"rental_uris": {"ios": "https://dc.lft.to/lastmile_qr_scan", "android": "https://dc.lft.to/lastmile_qr_scan"}, "type": "electric_scooter", "name": "cb430a220e6460f047d6f22383810c1f", "is_reserved": 0, "lon": -77.02412716666667, "is_disabled": 0, "fusion_lat": 0.0, "lat": 38.9057215, "bike_id": "cb430a220e6460f047d6f22383810c1f", "fusion_lon": 0.0}, {"rental_uris": {"ios": "https://dc.lft.to/lastmile_qr_scan", "android": "https://dc.lft.to/lastmile_qr_scan"}, "type": "electric_scooter", "name": "61bcc860d265f6cccfa4ebcb13f491a7", "is_reserved": 0, "lon": -77.04126, "is_disabled": 0, "fusion_lat": 0.0, "lat": 38.9310775, "bike_id": "61bcc860d265f6cccfa4ebcb13f491a7", "fusion_lon": 0.0}, {"rental_uris": {"ios": "https://dc.lft.to/lastmile_qr_scan", "android": "https://dc.lft.to/lastmile_qr_scan"}, "type": "electric_scooter", "name": "96fa240eadc972082d03ef1fd0a2c217", "is_reserved": 0, "lon": -77.02350116666666, "is_disabled": 0, "fusion_lat": 0.0, "lat": 38.94526416666667, "bike_id": "96fa240eadc972082d03ef1fd0a2c217", "fusion_lon": 0.0}, {"rental_uris": {"ios": "https://dc.lft.to/lastmile_qr_scan", "android": "https://dc.lft.to/lastmile_qr_scan"}, "type": "electric_scooter", "name": "470d909f5ae059475442abc76a066564", "is_reserved": 0, "lon": -77.04504933333334, "is_disabled": 0, "fusion_lat": 0.0, "lat": 38.892259, "bike_id": "470d909f5ae059475442abc76a066564", "fusion_lon": 0.0}, {"rental_uris": {"ios": "https://dc.lft.to/lastmile_qr_scan", "android": "https://dc.lft.to/lastmile_qr_scan"}, "type": "electric_scooter", "name": "30d3edabe98e13f46e564167c93efc2d", "is_reserved": 0, "lon": -77.03031683333333, "is_disabled": 0, "fusion_lat": 0.0, "lat": 38.9224805, "bike_id": "30d3edabe98e13f46e564167c93efc2d", "fusion_lon": 0.0}, {"rental_uris": {"ios": "https://dc.lft.to/lastmile_qr_scan", "android": "https://dc.lft.to/lastmile_qr_scan"}, "type": "electric_scooter", "name": "6d85ffa031ad31812d925e91e602fa6c", "is_reserved": 0, "lon": -77.027093, "is_disabled": 0, "fusion_lat": 0.0, "lat": 38.90592183333333, "bike_id": "6d85ffa031ad31812d925e91e602fa6c", "fusion_lon": 0.0}, {"rental_uris": {"ios": "https://dc.lft.to/lastmile_qr_scan", "android": "https://dc.lft.to/lastmile_qr_scan"}, "type": "electric_scooter", "name": "ec7fc72856e4c7e06a54fe40541d9ade", "is_reserved": 0, "lon": -77.02817666666667, "is_disabled": 0, "fusion_lat": 0.0, "lat": 38.95642683333333, "bike_id": "ec7fc72856e4c7e06a54fe40541d9ade", "fusion_lon": 0.0}, {"rental_uris": {"ios": "https://dc.lft.to/lastmile_qr_scan", "android": "https://dc.lft.to/lastmile_qr_scan"}, "type": "electric_scooter", "name": "8a2d0190c2c5196d7e815ea69a21d406", "is_reserved": 0, "lon": -77.00601733333333, "is_disabled": 0, "fusion_lat": 0.0, "lat": 38.8757435, "bike_id": "8a2d0190c2c5196d7e815ea69a21d406", "fusion_lon": 0.0}, {"rental_uris": {"ios": "https://dc.lft.to/lastmile_qr_scan", "android": "https://dc.lft.to/lastmile_qr_scan"}, "type": "electric_bike", "name": "d2b2fcc88ce44ec9b087a7434dbc2875", "is_reserved": 0, "lon": -77.002104, "is_disabled": 0, "fusion_lat": 0.0, "lat": 38.988494, "bike_id": "d2b2fcc88ce44ec9b087a7434dbc2875", "fusion_lon": 0.0}, {"rental_uris": {"ios": "https://dc.lft.to/lastmile_qr_scan", "android": "https://dc.lft.to/lastmile_qr_scan"}, "type": "electric_scooter", "name": "2919fb26501ada2cc308485e29a073ea", "is_reserved": 0, "lon": -77.04430316666667, "is_disabled": 0, "fusion_lat": 0.0, "lat": 38.89734216666667, "bike_id": "2919fb26501ada2cc308485e29a073ea", "fusion_lon": 0.0}, {"rental_uris": {"ios": "https://dc.lft.to/lastmile_qr_scan", "android": "https://dc.lft.to/lastmile_qr_scan"}, "type": "electric_scooter", "name": "71b1ae4e7242b0d6d212cd57516e14aa", "is_reserved": 0, "lon": -77.0230005, "is_disabled": 0, "fusion_lat": 0.0, "lat": 38.9612925, "bike_id": "71b1ae4e7242b0d6d212cd57516e14aa", "fusion_lon": 0.0}, {"rental_uris": {"ios": "https://dc.lft.to/lastmile_qr_scan", "android": "https://dc.lft.to/lastmile_qr_scan"}, "type": "electric_scooter", "name": "27b4bee0c45c2a92fcbabf72f4c83c92", "is_reserved": 0, "lon": -77.03340816666666, "is_disabled": 0, "fusion_lat": 0.0, "lat": 38.90237333333334, "bike_id": "27b4bee0c45c2a92fcbabf72f4c83c92", "fusion_lon": 0.0}, {"rental_uris": {"ios": "https://dc.lft.to/lastmile_qr_scan", "android": "https://dc.lft.to/lastmile_qr_scan"}, "type": "electric_scooter", "name": "879cc2cd2e5864c3702b785b1d181a4a", "is_reserved": 0, "lon": -77.03445366666666, "is_disabled": 0, "fusion_lat": 0.0, "lat": 38.908397666666666, "bike_id": "879cc2cd2e5864c3702b785b1d181a4a", "fusion_lon": 0.0}, {"rental_uris": {"ios": "https://dc.lft.to/lastmile_qr_scan", "android": "https://dc.lft.to/lastmile_qr_scan"}, "type": "electric_scooter", "name": "b87c990c26c1fbf2ebebc1fa6309ca47", "is_reserved": 0, "lon": -77.02404783333333, "is_disabled": 0, "fusion_lat": 0.0, "lat": 38.9171305, "bike_id": "b87c990c26c1fbf2ebebc1fa6309ca47", "fusion_lon": 0.0}, {"rental_uris": {"ios": "https://dc.lft.to/lastmile_qr_scan", "android": "https://dc.lft.to/lastmile_qr_scan"}, "type": "electric_scooter", "name": "5cb43429ed1e7d0eb0a6cad90180f7e8", "is_reserved": 0, "lon": -77.03384083333333, "is_disabled": 0, "fusion_lat": 0.0, "lat": 38.9103665, "bike_id": "5cb43429ed1e7d0eb0a6cad90180f7e8", "fusion_lon": 0.0}, {"rental_uris": {"ios": "https://dc.lft.to/lastmile_qr_scan", "android": "https://dc.lft.to/lastmile_qr_scan"}, "type": "electric_scooter", "name": "fd21154fd5167a16a2f49cee18b17fd4", "is_reserved": 0, "lon": -77.03457533333334, "is_disabled": 0, "fusion_lat": 0.0, "lat": 38.937494666666666, "bike_id": "fd21154fd5167a16a2f49cee18b17fd4", "fusion_lon": 0.0}, {"rental_uris": {"ios": "https://dc.lft.to/lastmile_qr_scan", "android": "https://dc.lft.to/lastmile_qr_scan"}, "type": "electric_scooter", "name": "dd9508a290a99ef04f1158722ad1bebc", "is_reserved": 0, "lon": -76.98354316666666, "is_disabled": 0, "fusion_lat": 0.0, "lat": 38.887393, "bike_id": "dd9508a290a99ef04f1158722ad1bebc", "fusion_lon": 0.0}, {"rental_uris": {"ios": "https://dc.lft.to/lastmile_qr_scan", "android": "https://dc.lft.to/lastmile_qr_scan"}, "type": "electric_scooter", "name": "023d922e5c3ba78c9da36c8f1386995b", "is_reserved": 0, "lon": -77.052715, "is_disabled": 0, "fusion_lat": 0.0, "lat": 38.92423433333333, "bike_id": "023d922e5c3ba78c9da36c8f1386995b", "fusion_lon": 0.0}, {"rental_uris": {"ios": "https://dc.lft.to/lastmile_qr_scan", "android": "https://dc.lft.to/lastmile_qr_scan"}, "type": "electric_scooter", "name": "c6e13f1346059fd99ed981116035440e", "is_reserved": 0, "lon": -77.02128533333334, "is_disabled": 0, "fusion_lat": 0.0, "lat": 38.92693383333334, "bike_id": "c6e13f1346059fd99ed981116035440e", "fusion_lon": 0.0}, {"rental_uris": {"ios": "https://dc.lft.to/lastmile_qr_scan", "android": "https://dc.lft.to/lastmile_qr_scan"}, "type": "electric_scooter", "name": "35e053058b28fcab8a5b96f3dcd7afbe", "is_reserved": 0, "lon": -77.023319, "is_disabled": 0, "fusion_lat": 0.0, "lat": 38.923015, "bike_id": "35e053058b28fcab8a5b96f3dcd7afbe", "fusion_lon": 0.0}, {"rental_uris": {"ios": "https://dc.lft.to/lastmile_qr_scan", "android": "https://dc.lft.to/lastmile_qr_scan"}, "type": "electric_scooter", "name": "cc86768b33a58ce71d96a2c94705eb4c", "is_reserved": 0, "lon": -77.027112, "is_disabled": 0, "fusion_lat": 0.0, "lat": 38.91814266666667, "bike_id": "cc86768b33a58ce71d96a2c94705eb4c", "fusion_lon": 0.0}, {"rental_uris": {"ios": "https://dc.lft.to/lastmile_qr_scan", "android": "https://dc.lft.to/lastmile_qr_scan"}, "type": "electric_bike", "name": "dc167d03f8c8e92691e3ee1b7a5e1b9f", "is_reserved": 0, "lon": -77.02012816666667, "is_disabled": 0, "fusion_lat": 0.0, "lat": 38.96440033333333, "bike_id": "dc167d03f8c8e92691e3ee1b7a5e1b9f", "fusion_lon": 0.0}, {"rental_uris": {"ios": "https://dc.lft.to/lastmile_qr_scan", "android": "https://dc.lft.to/lastmile_qr_scan"}, "type": "electric_scooter", "name": "ff6597ea07d861397b81e03b0ff40e53", "is_reserved": 0, "lon": -77.06554666666666, "is_disabled": 0, "fusion_lat": 0.0, "lat": 38.91170233333333, "bike_id": "ff6597ea07d861397b81e03b0ff40e53", "fusion_lon": 0.0}, {"rental_uris": {"ios": "https://dc.lft.to/lastmile_qr_scan", "android": "https://dc.lft.to/lastmile_qr_scan"}, "type": "electric_scooter", "name": "cab2afe08c1e2db388d6f9f3af40970a", "is_reserved": 0, "lon": -77.02291583333333, "is_disabled": 0, "fusion_lat": 0.0, "lat": 38.916086166666666, "bike_id": "cab2afe08c1e2db388d6f9f3af40970a", "fusion_lon": 0.0}, {"rental_uris": {"ios": "https://dc.lft.to/lastmile_qr_scan", "android": "https://dc.lft.to/lastmile_qr_scan"}, "type": "electric_scooter", "name": "d2f73df8dfa5d8cbbe901902d2fc24c4", "is_reserved": 0, "lon": -76.98263883333334, "is_disabled": 0, "fusion_lat": 0.0, "lat": 38.866326666666666, "bike_id": "d2f73df8dfa5d8cbbe901902d2fc24c4", "fusion_lon": 0.0}, {"rental_uris": {"ios": "https://dc.lft.to/lastmile_qr_scan", "android": "https://dc.lft.to/lastmile_qr_scan"}, "type": "electric_scooter", "name": "3deb6e6ffb9a33306958ea7abb905a0d", "is_reserved": 0, "lon": -77.0489065, "is_disabled": 0, "fusion_lat": 0.0, "lat": 38.91937016666667, "bike_id": "3deb6e6ffb9a33306958ea7abb905a0d", "fusion_lon": 0.0}, {"rental_uris": {"ios": "https://dc.lft.to/lastmile_qr_scan", "android": "https://dc.lft.to/lastmile_qr_scan"}, "type": "electric_scooter", "name": "74fdddec1741adad0bf90af5c8058321", "is_reserved": 0, "lon": -77.02982083333333, "is_disabled": 0, "fusion_lat": 0.0, "lat": 38.92199016666667, "bike_id": "74fdddec1741adad0bf90af5c8058321", "fusion_lon": 0.0}, {"rental_uris": {"ios": "https://dc.lft.to/lastmile_qr_scan", "android": "https://dc.lft.to/lastmile_qr_scan"}, "type": "electric_scooter", "name": "48d85b8e579a36cf490999965a2d8963", "is_reserved": 0, "lon": -77.0323905, "is_disabled": 0, "fusion_lat": 0.0, "lat": 38.928833, "bike_id": "48d85b8e579a36cf490999965a2d8963", "fusion_lon": 0.0}, {"rental_uris": {"ios": "https://dc.lft.to/lastmile_qr_scan", "android": "https://dc.lft.to/lastmile_qr_scan"}, "type": "electric_scooter", "name": "70a6f9a67b91a3f0132918a70a5c1cbb", "is_reserved": 0, "lon": -77.04359916666667, "is_disabled": 0, "fusion_lat": 0.0, "lat": 38.908363, "bike_id": "70a6f9a67b91a3f0132918a70a5c1cbb", "fusion_lon": 0.0}, {"rental_uris": {"ios": "https://dc.lft.to/lastmile_qr_scan", "android": "https://dc.lft.to/lastmile_qr_scan"}, "type": "electric_scooter", "name": "e7faf9cec8a6b9c93582ca223fb58ae0", "is_reserved": 0, "lon": -77.04048066666667, "is_disabled": 0, "fusion_lat": 0.0, "lat": 38.930064, "bike_id": "e7faf9cec8a6b9c93582ca223fb58ae0", "fusion_lon": 0.0}, {"rental_uris": {"ios": "https://dc.lft.to/lastmile_qr_scan", "android": "https://dc.lft.to/lastmile_qr_scan"}, "type": "electric_scooter", "name": "1ebb94f9ddae1c374bedb6105b5d4408", "is_reserved": 0, "lon": -77.07167016666666, "is_disabled": 0, "fusion_lat": 0.0, "lat": 38.90773033333333, "bike_id": "1ebb94f9ddae1c374bedb6105b5d4408", "fusion_lon": 0.0}, {"rental_uris": {"ios": "https://dc.lft.to/lastmile_qr_scan", "android": "https://dc.lft.to/lastmile_qr_scan"}, "type": "electric_scooter", "name": "0a9aa0fbcef66eb38effe448ebed2387", "is_reserved": 0, "lon": -77.054376, "is_disabled": 0, "fusion_lat": 0.0, "lat": 38.928489, "bike_id": "0a9aa0fbcef66eb38effe448ebed2387", "fusion_lon": 0.0}, {"rental_uris": {"ios": "https://dc.lft.to/lastmile_qr_scan", "android": "https://dc.lft.to/lastmile_qr_scan"}, "type": "electric_scooter", "name": "76ddfbc0484adffdbb160d069f05a121", "is_reserved": 0, "lon": -77.0176455, "is_disabled": 0, "fusion_lat": 0.0, "lat": 38.920405, "bike_id": "76ddfbc0484adffdbb160d069f05a121", "fusion_lon": 0.0}, {"rental_uris": {"ios": "https://dc.lft.to/lastmile_qr_scan", "android": "https://dc.lft.to/lastmile_qr_scan"}, "type": "electric_scooter", "name": "3e05c48cd595285d68e65ab477229b3d", "is_reserved": 0, "lon": -77.02698066666666, "is_disabled": 0, "fusion_lat": 0.0, "lat": 38.9259525, "bike_id": "3e05c48cd595285d68e65ab477229b3d", "fusion_lon": 0.0}, {"rental_uris": {"ios": "https://dc.lft.to/lastmile_qr_scan", "android": "https://dc.lft.to/lastmile_qr_scan"}, "type": "electric_scooter", "name": "1a6a07c35420df9d4dc1587b3a55181d", "is_reserved": 0, "lon": -77.02680933333333, "is_disabled": 0, "fusion_lat": 0.0, "lat": 38.924693, "bike_id": "1a6a07c35420df9d4dc1587b3a55181d", "fusion_lon": 0.0}, {"rental_uris": {"ios": "https://dc.lft.to/lastmile_qr_scan", "android": "https://dc.lft.to/lastmile_qr_scan"}, "type": "electric_scooter", "name": "f5dab150cb679d87168a7695a8dd6b6b", "is_reserved": 0, "lon": -77.02661366666666, "is_disabled": 0, "fusion_lat": 0.0, "lat": 38.924836, "bike_id": "f5dab150cb679d87168a7695a8dd6b6b", "fusion_lon": 0.0}, {"rental_uris": {"ios": "https://dc.lft.to/lastmile_qr_scan", "android": "https://dc.lft.to/lastmile_qr_scan"}, "type": "electric_scooter", "name": "ea4d36c178cc2904e098ef158437caba", "is_reserved": 0, "lon": -77.04150366666667, "is_disabled": 0, "fusion_lat": 0.0, "lat": 38.90526033333333, "bike_id": "ea4d36c178cc2904e098ef158437caba", "fusion_lon": 0.0}, {"rental_uris": {"ios": "https://dc.lft.to/lastmile_qr_scan", "android": "https://dc.lft.to/lastmile_qr_scan"}, "type": "electric_scooter", "name": "ec4d540aa7ff82b37e61849393cd2fb8", "is_reserved": 0, "lon": -77.02665933333333, "is_disabled": 0, "fusion_lat": 0.0, "lat": 38.884841, "bike_id": "ec4d540aa7ff82b37e61849393cd2fb8", "fusion_lon": 0.0}, {"rental_uris": {"ios": "https://dc.lft.to/lastmile_qr_scan", "android": "https://dc.lft.to/lastmile_qr_scan"}, "type": "electric_scooter", "name": "55adaa383e714b962d1dd34fcc52b538", "is_reserved": 0, "lon": -77.0262045, "is_disabled": 0, "fusion_lat": 0.0, "lat": 38.916912833333335, "bike_id": "55adaa383e714b962d1dd34fcc52b538", "fusion_lon": 0.0}, {"rental_uris": {"ios": "https://dc.lft.to/lastmile_qr_scan", "android": "https://dc.lft.to/lastmile_qr_scan"}, "type": "electric_scooter", "name": "26638bc1533aa45740968055a21cebea", "is_reserved": 0, "lon": -77.0255915, "is_disabled": 0, "fusion_lat": 0.0, "lat": 38.938644333333336, "bike_id": "26638bc1533aa45740968055a21cebea", "fusion_lon": 0.0}, {"rental_uris": {"ios": "https://dc.lft.to/lastmile_qr_scan", "android": "https://dc.lft.to/lastmile_qr_scan"}, "type": "electric_bike", "name": "24ea2d4ab2d7b6da306f0db5ccbb7123", "is_reserved": 0, "lon": -77.09018166666667, "is_disabled": 0, "fusion_lat": 0.0, "lat": 38.926474166666665, "bike_id": "24ea2d4ab2d7b6da306f0db5ccbb7123", "fusion_lon": 0.0}, {"rental_uris": {"ios": "https://dc.lft.to/lastmile_qr_scan", "android": "https://dc.lft.to/lastmile_qr_scan"}, "type": "electric_scooter", "name": "cda4c288fe4901492f6541feeb33ac9b", "is_reserved": 0, "lon": -77.04612383333334, "is_disabled": 0, "fusion_lat": 0.0, "lat": 38.905643, "bike_id": "cda4c288fe4901492f6541feeb33ac9b", "fusion_lon": 0.0}, {"rental_uris": {"ios": "https://dc.lft.to/lastmile_qr_scan", "android": "https://dc.lft.to/lastmile_qr_scan"}, "type": "electric_bike", "name": "bda3b4084002cde093325b0c652f51d4", "is_reserved": 0, "lon": -76.9570005, "is_disabled": 0, "fusion_lat": 0.0, "lat": 38.85092433333333, "bike_id": "bda3b4084002cde093325b0c652f51d4", "fusion_lon": 0.0}, {"rental_uris": {"ios": "https://dc.lft.to/lastmile_qr_scan", "android": "https://dc.lft.to/lastmile_qr_scan"}, "type": "electric_scooter", "name": "723b0d63f03035ef57048742eef47ba7", "is_reserved": 0, "lon": -76.98357166666666, "is_disabled": 0, "fusion_lat": 0.0, "lat": 38.88743066666667, "bike_id": "723b0d63f03035ef57048742eef47ba7", "fusion_lon": 0.0}, {"rental_uris": {"ios": "https://dc.lft.to/lastmile_qr_scan", "android": "https://dc.lft.to/lastmile_qr_scan"}, "type": "electric_scooter", "name": "bdd12883f45d58128cac4a8eb91fe6de", "is_reserved": 0, "lon": -77.0076105, "is_disabled": 0, "fusion_lat": 0.0, "lat": 38.92533233333333, "bike_id": "bdd12883f45d58128cac4a8eb91fe6de", "fusion_lon": 0.0}, {"rental_uris": {"ios": "https://dc.lft.to/lastmile_qr_scan", "android": "https://dc.lft.to/lastmile_qr_scan"}, "type": "electric_bike", "name": "c985995759c9e9b065854c5464ecabf7", "is_reserved": 0, "lon": -77.126681, "is_disabled": 0, "fusion_lat": 0.0, "lat": 38.89591183333334, "bike_id": "c985995759c9e9b065854c5464ecabf7", "fusion_lon": 0.0}, {"rental_uris": {"ios": "https://dc.lft.to/lastmile_qr_scan", "android": "https://dc.lft.to/lastmile_qr_scan"}, "type": "electric_scooter", "name": "033fbcc1a2555c7075961db6ffd546ad", "is_reserved": 0, "lon": -76.98617983333334, "is_disabled": 0, "fusion_lat": 0.0, "lat": 38.903520666666665, "bike_id": "033fbcc1a2555c7075961db6ffd546ad", "fusion_lon": 0.0}, {"rental_uris": {"ios": "https://dc.lft.to/lastmile_qr_scan", "android": "https://dc.lft.to/lastmile_qr_scan"}, "type": "electric_scooter", "name": "796dc2a88a5d5992b9c4cfb8cca80788", "is_reserved": 0, "lon": -77.01059566666666, "is_disabled": 0, "fusion_lat": 0.0, "lat": 38.87408583333333, "bike_id": "796dc2a88a5d5992b9c4cfb8cca80788", "fusion_lon": 0.0}, {"rental_uris": {"ios": "https://dc.lft.to/lastmile_qr_scan", "android": "https://dc.lft.to/lastmile_qr_scan"}, "type": "electric_scooter", "name": "ebb0367f23dd5741565e161172301e13", "is_reserved": 0, "lon": -77.0377725, "is_disabled": 0, "fusion_lat": 0.0, "lat": 38.923383333333334, "bike_id": "ebb0367f23dd5741565e161172301e13", "fusion_lon": 0.0}, {"rental_uris": {"ios": "https://dc.lft.to/lastmile_qr_scan", "android": "https://dc.lft.to/lastmile_qr_scan"}, "type": "electric_scooter", "name": "c74e62b1c09e9aee4c214c01ec2df5a2", "is_reserved": 0, "lon": -77.025809, "is_disabled": 0, "fusion_lat": 0.0, "lat": 38.887149, "bike_id": "c74e62b1c09e9aee4c214c01ec2df5a2", "fusion_lon": 0.0}, {"rental_uris": {"ios": "https://dc.lft.to/lastmile_qr_scan", "android": "https://dc.lft.to/lastmile_qr_scan"}, "type": "electric_scooter", "name": "e6ce94e496158cc13ea6c8b766e554d1", "is_reserved": 0, "lon": -77.06345666666667, "is_disabled": 0, "fusion_lat": 0.0, "lat": 38.94366266666667, "bike_id": "e6ce94e496158cc13ea6c8b766e554d1", "fusion_lon": 0.0}, {"rental_uris": {"ios": "https://dc.lft.to/lastmile_qr_scan", "android": "https://dc.lft.to/lastmile_qr_scan"}, "type": "electric_scooter", "name": "863e9664b0c401e9ff95bfdc72d4f02e", "is_reserved": 0, "lon": -77.03206916666667, "is_disabled": 0, "fusion_lat": 0.0, "lat": 38.90693316666667, "bike_id": "863e9664b0c401e9ff95bfdc72d4f02e", "fusion_lon": 0.0}, {"rental_uris": {"ios": "https://dc.lft.to/lastmile_qr_scan", "android": "https://dc.lft.to/lastmile_qr_scan"}, "type": "electric_scooter", "name": "667c61aae0f9c294339c030ebf32b1cd", "is_reserved": 0, "lon": -77.00916566666666, "is_disabled": 0, "fusion_lat": 0.0, "lat": 38.91240066666667, "bike_id": "667c61aae0f9c294339c030ebf32b1cd", "fusion_lon": 0.0}, {"rental_uris": {"ios": "https://dc.lft.to/lastmile_qr_scan", "android": "https://dc.lft.to/lastmile_qr_scan"}, "type": "electric_scooter", "name": "17fe1d70b79545a9a72a5be5864427cc", "is_reserved": 0, "lon": -77.01230666666666, "is_disabled": 0, "fusion_lat": 0.0, "lat": 38.91581816666667, "bike_id": "17fe1d70b79545a9a72a5be5864427cc", "fusion_lon": 0.0}, {"rental_uris": {"ios": "https://dc.lft.to/lastmile_qr_scan", "android": "https://dc.lft.to/lastmile_qr_scan"}, "type": "electric_scooter", "name": "c5f2c78aa8d12c73cb1d82e780f97643", "is_reserved": 0, "lon": -77.03426866666666, "is_disabled": 0, "fusion_lat": 0.0, "lat": 38.91911866666667, "bike_id": "c5f2c78aa8d12c73cb1d82e780f97643", "fusion_lon": 0.0}, {"rental_uris": {"ios": "https://dc.lft.to/lastmile_qr_scan", "android": "https://dc.lft.to/lastmile_qr_scan"}, "type": "electric_scooter", "name": "34b08fb3a73ff7e1d055d8135ff7b47e", "is_reserved": 0, "lon": -77.03504183333334, "is_disabled": 0, "fusion_lat": 0.0, "lat": 38.91556516666667, "bike_id": "34b08fb3a73ff7e1d055d8135ff7b47e", "fusion_lon": 0.0}, {"rental_uris": {"ios": "https://dc.lft.to/lastmile_qr_scan", "android": "https://dc.lft.to/lastmile_qr_scan"}, "type": "electric_scooter", "name": "cf4cd0a7d3321cc64988ce45de22952e", "is_reserved": 0, "lon": -77.010205, "is_disabled": 0, "fusion_lat": 0.0, "lat": 38.912575833333335, "bike_id": "cf4cd0a7d3321cc64988ce45de22952e", "fusion_lon": 0.0}, {"rental_uris": {"ios": "https://dc.lft.to/lastmile_qr_scan", "android": "https://dc.lft.to/lastmile_qr_scan"}, "type": "electric_scooter", "name": "57cbbffea92ac3bf14ab4308d07262b8", "is_reserved": 0, "lon": -77.04734833333333, "is_disabled": 0, "fusion_lat": 0.0, "lat": 38.895552333333335, "bike_id": "57cbbffea92ac3bf14ab4308d07262b8", "fusion_lon": 0.0}, {"rental_uris": {"ios": "https://dc.lft.to/lastmile_qr_scan", "android": "https://dc.lft.to/lastmile_qr_scan"}, "type": "electric_scooter", "name": "9760dfd284e485136a7e4049d512cd4e", "is_reserved": 0, "lon": -77.01909533333334, "is_disabled": 0, "fusion_lat": 0.0, "lat": 38.906194666666664, "bike_id": "9760dfd284e485136a7e4049d512cd4e", "fusion_lon": 0.0}, {"rental_uris": {"ios": "https://dc.lft.to/lastmile_qr_scan", "android": "https://dc.lft.to/lastmile_qr_scan"}, "type": "electric_scooter", "name": "d87584211190c9d980f0ed1d0496a3c8", "is_reserved": 0, "lon": -77.0269565, "is_disabled": 0, "fusion_lat": 0.0, "lat": 38.9084245, "bike_id": "d87584211190c9d980f0ed1d0496a3c8", "fusion_lon": 0.0}, {"rental_uris": {"ios": "https://dc.lft.to/lastmile_qr_scan", "android": "https://dc.lft.to/lastmile_qr_scan"}, "type": "electric_scooter", "name": "e3e8d2e8ea54f755bf435ede29232e1a", "is_reserved": 0, "lon": -77.03829966666666, "is_disabled": 0, "fusion_lat": 0.0, "lat": 38.9626105, "bike_id": "e3e8d2e8ea54f755bf435ede29232e1a", "fusion_lon": 0.0}, {"rental_uris": {"ios": "https://dc.lft.to/lastmile_qr_scan", "android": "https://dc.lft.to/lastmile_qr_scan"}, "type": "electric_scooter", "name": "c878880d33cc95319d714121ce922c63", "is_reserved": 0, "lon": -77.045825, "is_disabled": 0, "fusion_lat": 0.0, "lat": 38.918574, "bike_id": "c878880d33cc95319d714121ce922c63", "fusion_lon": 0.0}, {"rental_uris": {"ios": "https://dc.lft.to/lastmile_qr_scan", "android": "https://dc.lft.to/lastmile_qr_scan"}, "type": "electric_scooter", "name": "103d35b7cf277d75c117e7ced3b41b2f", "is_reserved": 0, "lon": -77.0385885, "is_disabled": 0, "fusion_lat": 0.0, "lat": 38.91715416666667, "bike_id": "103d35b7cf277d75c117e7ced3b41b2f", "fusion_lon": 0.0}, {"rental_uris": {"ios": "https://dc.lft.to/lastmile_qr_scan", "android": "https://dc.lft.to/lastmile_qr_scan"}, "type": "electric_scooter", "name": "66b39360daa6ad52ef163fa138dc7d91", "is_reserved": 0, "lon": -76.99921483333333, "is_disabled": 0, "fusion_lat": 0.0, "lat": 38.90064733333333, "bike_id": "66b39360daa6ad52ef163fa138dc7d91", "fusion_lon": 0.0}, {"rental_uris": {"ios": "https://dc.lft.to/lastmile_qr_scan", "android": "https://dc.lft.to/lastmile_qr_scan"}, "type": "electric_scooter", "name": "b82835755b991530abb0523dcede50e8", "is_reserved": 0, "lon": -77.043676, "is_disabled": 0, "fusion_lat": 0.0, "lat": 38.89216066666667, "bike_id": "b82835755b991530abb0523dcede50e8", "fusion_lon": 0.0}, {"rental_uris": {"ios": "https://dc.lft.to/lastmile_qr_scan", "android": "https://dc.lft.to/lastmile_qr_scan"}, "type": "electric_scooter", "name": "ffcdcfef68ec6bdb82304e3d14a435bb", "is_reserved": 0, "lon": -77.02163916666667, "is_disabled": 0, "fusion_lat": 0.0, "lat": 38.92497266666667, "bike_id": "ffcdcfef68ec6bdb82304e3d14a435bb", "fusion_lon": 0.0}, {"rental_uris": {"ios": "https://dc.lft.to/lastmile_qr_scan", "android": "https://dc.lft.to/lastmile_qr_scan"}, "type": "electric_scooter", "name": "b176fe8dc2182140ddda745d546aaacb", "is_reserved": 0, "lon": -77.058182, "is_disabled": 0, "fusion_lat": 0.0, "lat": 38.93517683333334, "bike_id": "b176fe8dc2182140ddda745d546aaacb", "fusion_lon": 0.0}, {"rental_uris": {"ios": "https://dc.lft.to/lastmile_qr_scan", "android": "https://dc.lft.to/lastmile_qr_scan"}, "type": "electric_bike", "name": "5ff1e022bae994831a1ac129ae6c0950", "is_reserved": 0, "lon": -77.12932616666667, "is_disabled": 0, "fusion_lat": 0.0, "lat": 38.865820166666666, "bike_id": "5ff1e022bae994831a1ac129ae6c0950", "fusion_lon": 0.0}, {"rental_uris": {"ios": "https://dc.lft.to/lastmile_qr_scan", "android": "https://dc.lft.to/lastmile_qr_scan"}, "type": "electric_scooter", "name": "cfa06fe174d6bc9bc6b416364b7b4722", "is_reserved": 0, "lon": -77.07030933333333, "is_disabled": 0, "fusion_lat": 0.0, "lat": 38.89333966666667, "bike_id": "cfa06fe174d6bc9bc6b416364b7b4722", "fusion_lon": 0.0}, {"rental_uris": {"ios": "https://dc.lft.to/lastmile_qr_scan", "android": "https://dc.lft.to/lastmile_qr_scan"}, "type": "electric_scooter", "name": "14d27209fffec1f3b99424c5264c5198", "is_reserved": 0, "lon": -77.00063083333333, "is_disabled": 0, "fusion_lat": 0.0, "lat": 38.874607833333336, "bike_id": "14d27209fffec1f3b99424c5264c5198", "fusion_lon": 0.0}, {"rental_uris": {"ios": "https://dc.lft.to/lastmile_qr_scan", "android": "https://dc.lft.to/lastmile_qr_scan"}, "type": "electric_scooter", "name": "58c834b567d7b7dcfeb1cf65b88de20f", "is_reserved": 0, "lon": -76.93186933333334, "is_disabled": 0, "fusion_lat": 0.0, "lat": 38.89878233333334, "bike_id": "58c834b567d7b7dcfeb1cf65b88de20f", "fusion_lon": 0.0}, {"rental_uris": {"ios": "https://dc.lft.to/lastmile_qr_scan", "android": "https://dc.lft.to/lastmile_qr_scan"}, "type": "electric_scooter", "name": "99c4f468b770fde3be5ba31c3a436ea7", "is_reserved": 0, "lon": -77.04571866666667, "is_disabled": 0, "fusion_lat": 0.0, "lat": 38.90951783333333, "bike_id": "99c4f468b770fde3be5ba31c3a436ea7", "fusion_lon": 0.0}, {"rental_uris": {"ios": "https://dc.lft.to/lastmile_qr_scan", "android": "https://dc.lft.to/lastmile_qr_scan"}, "type": "electric_scooter", "name": "a963de4f56df2c8269daa6dec1a79025", "is_reserved": 0, "lon": -77.0019405, "is_disabled": 0, "fusion_lat": 0.0, "lat": 38.9117185, "bike_id": "a963de4f56df2c8269daa6dec1a79025", "fusion_lon": 0.0}, {"rental_uris": {"ios": "https://dc.lft.to/lastmile_qr_scan", "android": "https://dc.lft.to/lastmile_qr_scan"}, "type": "electric_scooter", "name": "509f86e72b0b4d3c3f6bc7d2112a4153", "is_reserved": 0, "lon": -77.055393, "is_disabled": 0, "fusion_lat": 0.0, "lat": 38.910039, "bike_id": "509f86e72b0b4d3c3f6bc7d2112a4153", "fusion_lon": 0.0}, {"rental_uris": {"ios": "https://dc.lft.to/lastmile_qr_scan", "android": "https://dc.lft.to/lastmile_qr_scan"}, "type": "electric_scooter", "name": "da31134441826287d4077edf7ac3a604", "is_reserved": 0, "lon": -77.02480183333333, "is_disabled": 0, "fusion_lat": 0.0, "lat": 38.918164, "bike_id": "da31134441826287d4077edf7ac3a604", "fusion_lon": 0.0}, {"rental_uris": {"ios": "https://dc.lft.to/lastmile_qr_scan", "android": "https://dc.lft.to/lastmile_qr_scan"}, "type": "electric_scooter", "name": "15de23f9af1db084d9ea38368673f703", "is_reserved": 0, "lon": -77.024993, "is_disabled": 0, "fusion_lat": 0.0, "lat": 38.9327835, "bike_id": "15de23f9af1db084d9ea38368673f703", "fusion_lon": 0.0}, {"rental_uris": {"ios": "https://dc.lft.to/lastmile_qr_scan", "android": "https://dc.lft.to/lastmile_qr_scan"}, "type": "electric_bike", "name": "39d8fb67ca869402e3efe7555f1622bd", "is_reserved": 0, "lon": -76.9415295, "is_disabled": 0, "fusion_lat": 0.0, "lat": 38.890293666666665, "bike_id": "39d8fb67ca869402e3efe7555f1622bd", "fusion_lon": 0.0}, {"rental_uris": {"ios": "https://dc.lft.to/lastmile_qr_scan", "android": "https://dc.lft.to/lastmile_qr_scan"}, "type": "electric_scooter", "name": "0889ead0ac484dd8ff06a3bb2d9d84a1", "is_reserved": 0, "lon": -76.99029316666666, "is_disabled": 0, "fusion_lat": 0.0, "lat": 38.864334, "bike_id": "0889ead0ac484dd8ff06a3bb2d9d84a1", "fusion_lon": 0.0}, {"rental_uris": {"ios": "https://dc.lft.to/lastmile_qr_scan", "android": "https://dc.lft.to/lastmile_qr_scan"}, "type": "electric_scooter", "name": "590fd93c706a107ff440671e07da1671", "is_reserved": 0, "lon": -76.98893883333334, "is_disabled": 0, "fusion_lat": 0.0, "lat": 38.906488, "bike_id": "590fd93c706a107ff440671e07da1671", "fusion_lon": 0.0}, {"rental_uris": {"ios": "https://dc.lft.to/lastmile_qr_scan", "android": "https://dc.lft.to/lastmile_qr_scan"}, "type": "electric_scooter", "name": "f4233160b588e18b2c49b2053e6f3238", "is_reserved": 0, "lon": -77.020549, "is_disabled": 0, "fusion_lat": 0.0, "lat": 38.929294666666664, "bike_id": "f4233160b588e18b2c49b2053e6f3238", "fusion_lon": 0.0}, {"rental_uris": {"ios": "https://dc.lft.to/lastmile_qr_scan", "android": "https://dc.lft.to/lastmile_qr_scan"}, "type": "electric_scooter", "name": "5ad339dfef5abf7adb897ac13cdbefe7", "is_reserved": 0, "lon": -77.02147533333333, "is_disabled": 0, "fusion_lat": 0.0, "lat": 38.887368333333335, "bike_id": "5ad339dfef5abf7adb897ac13cdbefe7", "fusion_lon": 0.0}, {"rental_uris": {"ios": "https://dc.lft.to/lastmile_qr_scan", "android": "https://dc.lft.to/lastmile_qr_scan"}, "type": "electric_scooter", "name": "68f3ebc685cf78614263ad93c4afe234", "is_reserved": 0, "lon": -77.03648583333333, "is_disabled": 0, "fusion_lat": 0.0, "lat": 38.921116833333336, "bike_id": "68f3ebc685cf78614263ad93c4afe234", "fusion_lon": 0.0}, {"rental_uris": {"ios": "https://dc.lft.to/lastmile_qr_scan", "android": "https://dc.lft.to/lastmile_qr_scan"}, "type": "electric_scooter", "name": "3d7fa41c0ad6c71eaaabee88bb5c4e73", "is_reserved": 0, "lon": -77.04861666666666, "is_disabled": 0, "fusion_lat": 0.0, "lat": 38.912679833333335, "bike_id": "3d7fa41c0ad6c71eaaabee88bb5c4e73", "fusion_lon": 0.0}, {"rental_uris": {"ios": "https://dc.lft.to/lastmile_qr_scan", "android": "https://dc.lft.to/lastmile_qr_scan"}, "type": "electric_scooter", "name": "d28a0dae29e30917fc4df8929680c8e1", "is_reserved": 0, "lon": -77.02529533333333, "is_disabled": 0, "fusion_lat": 0.0, "lat": 38.94534183333333, "bike_id": "d28a0dae29e30917fc4df8929680c8e1", "fusion_lon": 0.0}, {"rental_uris": {"ios": "https://dc.lft.to/lastmile_qr_scan", "android": "https://dc.lft.to/lastmile_qr_scan"}, "type": "electric_scooter", "name": "7b269fa20c10363e54e9321d1020b814", "is_reserved": 0, "lon": -77.04942233333334, "is_disabled": 0, "fusion_lat": 0.0, "lat": 38.90978633333334, "bike_id": "7b269fa20c10363e54e9321d1020b814", "fusion_lon": 0.0},