{"data": {"bikes": [{"is_reserved": 0, "bike_id": "63ad524512a7da93755ac31ca38c7d08", "type": "electric_scooter", "name": "63ad524512a7da93755ac31ca38c7d08", "is_disabled": 0, "fusion_lon": 0.0, "rental_uris": {"android": "https://dc.lft.to/lastmile_qr_scan", "ios": "https://dc.lft.to/lastmile_qr_scan"}, "lat": 38.919253833333336, "lon": -77.03182366666667, "fusion_lat": 0.0}, {"is_reserved": 0, "bike_id": "dfdeb081c587de2dd32a481ec92375aa", "type": "electric_scooter", "name": "dfdeb081c587de2dd32a481ec92375aa", "is_disabled": 0, "fusion_lon": 0.0, "rental_uris": {"android": "https://dc.lft.to/lastmile_qr_scan", "ios": "https://dc.lft.to/lastmile_qr_scan"}, "lat": 38.877098333333336, "lon": -77.00298566666666, "fusion_lat": 0.0}, {"is_reserved": 0, "bike_id": "1774bf7d9a5c8e4410be94065992a58a", "type": "electric_scooter", "name": "1774bf7d9a5c8e4410be94065992a58a", "is_disabled": 0, "fusion_lon": 0.0, "rental_uris": {"android": "https://dc.lft.to/lastmile_qr_scan", "ios": "https://dc.lft.to/lastmile_qr_scan"}, "lat": 38.905737333333335, "lon": -77.00701783333334, "fusion_lat": 0.0}, {"is_reserved": 0, "bike_id": "e82fe2a27ef5b68e1e68e7113bf2acf9", "type": "electric_bike", "name": "e82fe2a27ef5b68e1e68e7113bf2acf9", "is_disabled": 0, "fusion_lon": 0.0, "rental_uris": {"android": "https://dc.lft.to/lastmile_qr_scan", "ios": "https://dc.lft.to/lastmile_qr_scan"}, "lat": 38.9501515, "lon": -77.01562283333334, "fusion_lat": 0.0}, {"is_reserved": 0, "bike_id": "83ba734aed7ba3f43b65717818edd887", "type": "electric_scooter", "name": "83ba734aed7ba3f43b65717818edd887", "is_disabled": 0, "fusion_lon": 0.0, "rental_uris": {"android": "https://dc.lft.to/lastmile_qr_scan", "ios": "https://dc.lft.to/lastmile_qr_scan"}, "lat": 38.926944, "lon": -77.0257735, "fusion_lat": 0.0}, {"is_reserved": 0, "bike_id": "10de6ba3fe8a3b12be792cd9802abc1a", "type": "electric_scooter", "name": "10de6ba3fe8a3b12be792cd9802abc1a", "is_disabled": 0, "fusion_lon": 0.0, "rental_uris": {"android": "https://dc.lft.to/lastmile_qr_scan", "ios": "https://dc.lft.to/lastmile_qr_scan"}, "lat": 38.923245666666666, "lon": -77.01961983333334, "fusion_lat": 0.0}, {"is_reserved": 0, "bike_id": "a897b9b9992322b28458adb2a6ef8244", "type": "electric_scooter", "name": "a897b9b9992322b28458adb2a6ef8244", "is_disabled": 0, "fusion_lon": 0.0, "rental_uris": {"android": "https://dc.lft.to/lastmile_qr_scan", "ios": "https://dc.lft.to/lastmile_qr_scan"}, "lat": 38.9208515, "lon": -77.02501883333333, "fusion_lat": 0.0}, {"is_reserved": 0, "bike_id": "045180885a9355ccc78fcb0814cdfa9f", "type": "electric_scooter", "name": "045180885a9355ccc78fcb0814cdfa9f", "is_disabled": 0, "fusion_lon": 0.0, "rental_uris": {"android": "https://dc.lft.to/lastmile_qr_scan", "ios": "https://dc.lft.to/lastmile_qr_scan"}, "lat": 38.91544866666667, "lon": -77.021983, "fusion_lat": 0.0}, {"is_reserved": 0, "bike_id": "5331f0145205fba2d61c7d910198d363", "type": "electric_scooter", "name": "5331f0145205fba2d61c7d910198d363", "is_disabled": 0, "fusion_lon": 0.0, "rental_uris": {"android": "https://dc.lft.to/lastmile_qr_scan", "ios": "https://dc.lft.to/lastmile_qr_scan"}, "lat": 38.914154, "lon": -77.02234, "fusion_lat": 0.0}, {"is_reserved": 0, "bike_id": "e8f529ca9b92dc91ecb893d26d0264bb", "type": "electric_scooter", "name": "e8f529ca9b92dc91ecb893d26d0264bb", "is_disabled": 0, "fusion_lon": 0.0, "rental_uris": {"android": "https://dc.lft.to/lastmile_qr_scan", "ios": "https://dc.lft.to/lastmile_qr_scan"}, "lat": 38.9140545, "lon": -77.01806233333333, "fusion_lat": 0.0}, {"is_reserved": 0, "bike_id": "530184430b30c194d117a5d042cf9eef", "type": "electric_bike", "name": "530184430b30c194d117a5d042cf9eef", "is_disabled": 0, "fusion_lon": 0.0, "rental_uris": {"android": "https://dc.lft.to/lastmile_qr_scan", "ios": "https://dc.lft.to/lastmile_qr_scan"}, "lat": 38.83588183333333, "lon": -76.9902005, "fusion_lat": 0.0}, {"is_reserved": 0, "bike_id": "57857ce36ed34bea1bf9a058a5d2a51b", "type": "electric_bike", "name": "57857ce36ed34bea1bf9a058a5d2a51b", "is_disabled": 0, "fusion_lon": 0.0, "rental_uris": {"android": "https://dc.lft.to/lastmile_qr_scan", "ios": "https://dc.lft.to/lastmile_qr_scan"}, "lat": 38.92060016666667, "lon": -77.03062866666667, "fusion_lat": 0.0}, {"is_reserved": 0, "bike_id": "c798dc5ded913e13c7323400d096e8ac", "type": "electric_scooter", "name": "c798dc5ded913e13c7323400d096e8ac", "is_disabled": 0, "fusion_lon": 0.0, "rental_uris": {"android": "https://dc.lft.to/lastmile_qr_scan", "ios": "https://dc.lft.to/lastmile_qr_scan"}, "lat": 38.8873705, "lon": -77.01506083333334, "fusion_lat": 0.0}, {"is_reserved": 0, "bike_id": "ac582f34e0ee33c99acf5a4c0859ea41", "type": "electric_scooter", "name": "ac582f34e0ee33c99acf5a4c0859ea41", "is_disabled": 0, "fusion_lon": 0.0, "rental_uris": {"android": "https://dc.lft.to/lastmile_qr_scan", "ios": "https://dc.lft.to/lastmile_qr_scan"}, "lat": 38.880675333333336, "lon": -76.9321415, "fusion_lat": 0.0}, {"is_reserved": 0, "bike_id": "58a4045420c352571b090cffd12ec917", "type": "electric_scooter", "name": "58a4045420c352571b090cffd12ec917", "is_disabled": 0, "fusion_lon": 0.0, "rental_uris": {"android": "https://dc.lft.to/lastmile_qr_scan", "ios": "https://dc.lft.to/lastmile_qr_scan"}, "lat": 38.9255065, "lon": -77.05294283333333, "fusion_lat": 0.0}, {"is_reserved": 0, "bike_id": "ad89048eac96c033295a9212a7aca63c", "type": "electric_scooter", "name": "ad89048eac96c033295a9212a7aca63c", "is_disabled": 0, "fusion_lon": 0.0, "rental_uris": {"android": "https://dc.lft.to/lastmile_qr_scan", "ios": "https://dc.lft.to/lastmile_qr_scan"}, "lat": 38.918053, "lon": -77.02721433333333, "fusion_lat": 0.0}, {"is_reserved": 0, "bike_id": "9bc404b747dff26a091983fc26ba0065", "type": "electric_scooter", "name": "9bc404b747dff26a091983fc26ba0065", "is_disabled": 0, "fusion_lon": 0.0, "rental_uris": {"android": "https://dc.lft.to/lastmile_qr_scan", "ios": "https://dc.lft.to/lastmile_qr_scan"}, "lat": 38.892090833333334, "lon": -76.9901495, "fusion_lat": 0.0}, {"is_reserved": 0, "bike_id": "0c1e3c1ad36132377f88dc3d0837a2d3", "type": "electric_bike", "name": "0c1e3c1ad36132377f88dc3d0837a2d3", "is_disabled": 0, "fusion_lon": 0.0, "rental_uris": {"android": "https://dc.lft.to/lastmile_qr_scan", "ios": "https://dc.lft.to/lastmile_qr_scan"}, "lat": 38.966768, "lon": -77.02294516666667, "fusion_lat": 0.0}, {"is_reserved": 0, "bike_id": "c9fd1924a1fd55e4f4a7a523f23a0347", "type": "electric_scooter", "name": "c9fd1924a1fd55e4f4a7a523f23a0347", "is_disabled": 0, "fusion_lon": 0.0, "rental_uris": {"android": "https://dc.lft.to/lastmile_qr_scan", "ios": "https://dc.lft.to/lastmile_qr_scan"}, "lat": 38.91917, "lon": -77.02997133333334, "fusion_lat": 0.0}, {"is_reserved": 0, "bike_id": "e17c4d92e6fd8b07a49528c8488d0bf0", "type": "electric_scooter", "name": "e17c4d92e6fd8b07a49528c8488d0bf0", "is_disabled": 0, "fusion_lon": 0.0, "rental_uris": {"android": "https://dc.lft.to/lastmile_qr_scan", "ios": "https://dc.lft.to/lastmile_qr_scan"}, "lat": 38.927019, "lon": -77.02081316666667, "fusion_lat": 0.0}, {"is_reserved": 0, "bike_id": "6baa025417bd9eeca3eb21cf5dc862ce", "type": "electric_scooter", "name": "6baa025417bd9eeca3eb21cf5dc862ce", "is_disabled": 0, "fusion_lon": 0.0, "rental_uris": {"android": "https://dc.lft.to/lastmile_qr_scan", "ios": "https://dc.lft.to/lastmile_qr_scan"}, "lat": 38.9120375, "lon": -77.03210066666666, "fusion_lat": 0.0}, {"is_reserved": 0, "bike_id": "e01c8056b8cd93d0ec62250034f244a7", "type": "electric_scooter", "name": "e01c8056b8cd93d0ec62250034f244a7", "is_disabled": 0, "fusion_lon": 0.0, "rental_uris": {"android": "https://dc.lft.to/lastmile_qr_scan", "ios": "https://dc.lft.to/lastmile_qr_scan"}, "lat": 38.92292116666667, "lon": -77.02242983333333, "fusion_lat": 0.0}, {"is_reserved": 0, "bike_id": "0823f702b7781840fde269d8ce5cc1be", "type": "electric_scooter", "name": "0823f702b7781840fde269d8ce5cc1be", "is_disabled": 0, "fusion_lon": 0.0, "rental_uris": {"android": "https://dc.lft.to/lastmile_qr_scan", "ios": "https://dc.lft.to/lastmile_qr_scan"}, "lat": 38.908902, "lon": -76.98237233333333, "fusion_lat": 0.0}, {"is_reserved": 0, "bike_id": "ffca8f8d3f44558ad818c9b67a828545", "type": "electric_scooter", "name": "ffca8f8d3f44558ad818c9b67a828545", "is_disabled": 0, "fusion_lon": 0.0, "rental_uris": {"android": "https://dc.lft.to/lastmile_qr_scan", "ios": "https://dc.lft.to/lastmile_qr_scan"}, "lat": 38.9561105, "lon": -77.02763233333333, "fusion_lat": 0.0}, {"is_reserved": 0, "bike_id": "a292dbebb586bd114fc288542e7405ee", "type": "electric_scooter", "name": "a292dbebb586bd114fc288542e7405ee", "is_disabled": 0, "fusion_lon": 0.0, "rental_uris": {"android": "https://dc.lft.to/lastmile_qr_scan", "ios": "https://dc.lft.to/lastmile_qr_scan"}, "lat": 38.924159833333334, "lon": -77.0354025, "fusion_lat": 0.0}, {"is_reserved": 0, "bike_id": "a505e16882504477774fb755ced0aa6a", "type": "electric_scooter", "name": "a505e16882504477774fb755ced0aa6a", "is_disabled": 0, "fusion_lon": 0.0, "rental_uris": {"android": "https://dc.lft.to/lastmile_qr_scan", "ios": "https://dc.lft.to/lastmile_qr_scan"}, "lat": 38.88081233333333, "lon": -76.99499933333334, "fusion_lat": 0.0}, {"is_reserved": 0, "bike_id": "042686b3481389fe8c3ad51a9c3984ff", "type": "electric_scooter", "name": "042686b3481389fe8c3ad51a9c3984ff", "is_disabled": 0, "fusion_lon": 0.0, "rental_uris": {"android": "https://dc.lft.to/lastmile_qr_scan", "ios": "https://dc.lft.to/lastmile_qr_scan"}, "lat": 38.91267116666667, "lon": -77.0386995, "fusion_lat": 0.0}, {"is_reserved": 0, "bike_id": "999120e156a252e28b5ffa8511c0f7da", "type": "electric_scooter", "name": "999120e156a252e28b5ffa8511c0f7da", "is_disabled": 0, "fusion_lon": 0.0, "rental_uris": {"android": "https://dc.lft.to/lastmile_qr_scan", "ios": "https://dc.lft.to/lastmile_qr_scan"}, "lat": 38.886000833333334, "lon": -76.92504116666667, "fusion_lat": 0.0}, {"is_reserved": 0, "bike_id": "6e8df1351dbc039354a51b34c1cf521f", "type": "electric_scooter", "name": "6e8df1351dbc039354a51b34c1cf521f", "is_disabled": 0, "fusion_lon": 0.0, "rental_uris": {"android": "https://dc.lft.to/lastmile_qr_scan", "ios": "https://dc.lft.to/lastmile_qr_scan"}, "lat": 38.87283216666667, "lon": -77.0170275, "fusion_lat": 0.0}, {"is_reserved": 0, "bike_id": "a2bc7df889d244c0259ed5437db9d9e8", "type": "electric_scooter", "name": "a2bc7df889d244c0259ed5437db9d9e8", "is_disabled": 0, "fusion_lon": 0.0, "rental_uris": {"android": "https://dc.lft.to/lastmile_qr_scan", "ios": "https://dc.lft.to/lastmile_qr_scan"}, "lat": 38.8767855, "lon": -77.00061883333333, "fusion_lat": 0.0}, {"is_reserved": 0, "bike_id": "ce07654368100089a3e8e459618bdf74", "type": "electric_scooter", "name": "ce07654368100089a3e8e459618bdf74", "is_disabled": 0, "fusion_lon": 0.0, "rental_uris": {"android": "https://dc.lft.to/lastmile_qr_scan", "ios": "https://dc.lft.to/lastmile_qr_scan"}, "lat": 38.916038666666665, "lon": -77.03664516666667, "fusion_lat": 0.0}, {"is_reserved": 0, "bike_id": "cfa7b4ce191d0656175f714343a304ce", "type": "electric_scooter", "name": "cfa7b4ce191d0656175f714343a304ce", "is_disabled": 0, "fusion_lon": 0.0, "rental_uris": {"android": "https://dc.lft.to/lastmile_qr_scan", "ios": "https://dc.lft.to/lastmile_qr_scan"}, "lat": 38.920769166666666, "lon": -77.03663083333333, "fusion_lat": 0.0}, {"is_reserved": 0, "bike_id": "daeb435021acff9addf62dc0e580934f", "type": "electric_scooter", "name": "daeb435021acff9addf62dc0e580934f", "is_disabled": 0, "fusion_lon": 0.0, "rental_uris": {"android": "https://dc.lft.to/lastmile_qr_scan", "ios": "https://dc.lft.to/lastmile_qr_scan"}, "lat": 38.903480333333334, "lon": -76.98618366666666, "fusion_lat": 0.0}, {"is_reserved": 0, "bike_id": "ef48661c84155bc5ac0767a91a11dbdc", "type": "electric_scooter", "name": "ef48661c84155bc5ac0767a91a11dbdc", "is_disabled": 0, "fusion_lon": 0.0, "rental_uris": {"android": "https://dc.lft.to/lastmile_qr_scan", "ios": "https://dc.lft.to/lastmile_qr_scan"}, "lat": 38.91837183333333, "lon": -77.034436, "fusion_lat": 0.0}, {"is_reserved": 0, "bike_id": "7f18ebf7de5c8be72596411244a6dd3b", "type": "electric_scooter", "name": "7f18ebf7de5c8be72596411244a6dd3b", "is_disabled": 0, "fusion_lon": 0.0, "rental_uris": {"android": "https://dc.lft.to/lastmile_qr_scan", "ios": "https://dc.lft.to/lastmile_qr_scan"}, "lat": 38.914887, "lon": -77.02183616666667, "fusion_lat": 0.0}, {"is_reserved": 0, "bike_id": "08f92bbf71ed18d92f7060bbfd7508ec", "type": "electric_scooter", "name": "08f92bbf71ed18d92f7060bbfd7508ec", "is_disabled": 0, "fusion_lon": 0.0, "rental_uris": {"android": "https://dc.lft.to/lastmile_qr_scan", "ios": "https://dc.lft.to/lastmile_qr_scan"}, "lat": 38.929557333333335, "lon": -77.02783183333334, "fusion_lat": 0.0}, {"is_reserved": 0, "bike_id": "193536687f9f1c002cb55981918705c7", "type": "electric_scooter", "name": "193536687f9f1c002cb55981918705c7", "is_disabled": 0, "fusion_lon": 0.0, "rental_uris": {"android": "https://dc.lft.to/lastmile_qr_scan", "ios": "https://dc.lft.to/lastmile_qr_scan"}, "lat": 38.91987866666667, "lon": -77.03797016666667, "fusion_lat": 0.0}, {"is_reserved": 0, "bike_id": "0693437a4ea34b58fd83eb119abe36e0", "type": "electric_scooter", "name": "0693437a4ea34b58fd83eb119abe36e0", "is_disabled": 0, "fusion_lon": 0.0, "rental_uris": {"android": "https://dc.lft.to/lastmile_qr_scan", "ios": "https://dc.lft.to/lastmile_qr_scan"}, "lat": 38.8962875, "lon": -76.92963183333333, "fusion_lat": 0.0}, {"is_reserved": 0, "bike_id": "f36109b088af44b81fa8e8aac4ae35f3", "type": "electric_scooter", "name": "f36109b088af44b81fa8e8aac4ae35f3", "is_disabled": 0, "fusion_lon": 0.0, "rental_uris": {"android": "https://dc.lft.to/lastmile_qr_scan", "ios": "https://dc.lft.to/lastmile_qr_scan"}, "lat": 38.90586233333333, "lon": -77.00604516666667, "fusion_lat": 0.0}, {"is_reserved": 0, "bike_id": "4a8ec2ab9e2ca54171d234f3fbe29f0c", "type": "electric_bike", "name": "4a8ec2ab9e2ca54171d234f3fbe29f0c", "is_disabled": 0, "fusion_lon": 0.0, "rental_uris": {"android": "https://dc.lft.to/lastmile_qr_scan", "ios": "https://dc.lft.to/lastmile_qr_scan"}, "lat": 38.86581, "lon": -77.12935416666667, "fusion_lat": 0.0}, {"is_reserved": 0, "bike_id": "21a66a0425fc9c0c8c4fe04ee1732116", "type": "electric_scooter", "name": "21a66a0425fc9c0c8c4fe04ee1732116", "is_disabled": 0, "fusion_lon": 0.0, "rental_uris": {"android": "https://dc.lft.to/lastmile_qr_scan", "ios": "https://dc.lft.to/lastmile_qr_scan"}, "lat": 38.91706883333333, "lon": -77.00409066666667, "fusion_lat": 0.0}, {"is_reserved": 0, "bike_id": "42cb6221084b0bcd8a6180ae1bd16d9a", "type": "electric_scooter", "name": "42cb6221084b0bcd8a6180ae1bd16d9a", "is_disabled": 0, "fusion_lon": 0.0, "rental_uris": {"android": "https://dc.lft.to/lastmile_qr_scan", "ios": "https://dc.lft.to/lastmile_qr_scan"}, "lat": 38.91611416666667, "lon": -77.02201933333333, "fusion_lat": 0.0}, {"is_reserved": 0, "bike_id": "a7380524fcf01292fbc4c4593255af6a", "type": "electric_scooter", "name": "a7380524fcf01292fbc4c4593255af6a", "is_disabled": 0, "fusion_lon": 0.0, "rental_uris": {"android": "https://dc.lft.to/lastmile_qr_scan", "ios": "https://dc.lft.to/lastmile_qr_scan"}, "lat": 38.90487183333333, "lon": -77.02595233333334, "fusion_lat": 0.0}, {"is_reserved": 0, "bike_id": "957190fb5a94bc8f5e334427777b1107", "type": "electric_scooter", "name": "957190fb5a94bc8f5e334427777b1107", "is_disabled": 0, "fusion_lon": 0.0, "rental_uris": {"android": "https://dc.lft.to/lastmile_qr_scan", "ios": "https://dc.lft.to/lastmile_qr_scan"}, "lat": 38.90737416666666, "lon": -77.029553, "fusion_lat": 0.0}, {"is_reserved": 0, "bike_id": "abd340c3b257dff8e0ad2addb70c1bf0", "type": "electric_scooter", "name": "abd340c3b257dff8e0ad2addb70c1bf0", "is_disabled": 0, "fusion_lon": 0.0, "rental_uris": {"android": "https://dc.lft.to/lastmile_qr_scan", "ios": "https://dc.lft.to/lastmile_qr_scan"}, "lat": 38.92765766666667, "lon": -77.0278825, "fusion_lat": 0.0}, {"is_reserved": 0, "bike_id": "3ecfc28cd6c7732f5018dfacc7808ac8", "type": "electric_scooter", "name": "3ecfc28cd6c7732f5018dfacc7808ac8", "is_disabled": 0, "fusion_lon": 0.0, "rental_uris": {"android": "https://dc.lft.to/lastmile_qr_scan", "ios": "https://dc.lft.to/lastmile_qr_scan"}, "lat": 38.89958933333333, "lon": -77.048754, "fusion_lat": 0.0}, {"is_reserved": 0, "bike_id": "2a38f54d51c25b88d043bc3e3056b8ea", "type": "electric_scooter", "name": "2a38f54d51c25b88d043bc3e3056b8ea", "is_disabled": 0, "fusion_lon": 0.0, "rental_uris": {"android": "https://dc.lft.to/lastmile_qr_scan", "ios": "https://dc.lft.to/lastmile_qr_scan"}, "lat": 38.920321333333334, "lon": -76.995704, "fusion_lat": 0.0}, {"is_reserved": 0, "bike_id": "47458ce23f99d1dab7cbb49294535e0b", "type": "electric_scooter", "name": "47458ce23f99d1dab7cbb49294535e0b", "is_disabled": 0, "fusion_lon": 0.0, "rental_uris": {"android": "https://dc.lft.to/lastmile_qr_scan", "ios": "https://dc.lft.to/lastmile_qr_scan"}, "lat": 38.89869366666667, "lon": -76.94665566666667, "fusion_lat": 0.0}, {"is_reserved": 0, "bike_id": "5afd3ad3d19a905cbc9180d44ab12693", "type": "electric_scooter", "name": "5afd3ad3d19a905cbc9180d44ab12693", "is_disabled": 0, "fusion_lon": 0.0, "rental_uris": {"android": "https://dc.lft.to/lastmile_qr_scan", "ios": "https://dc.lft.to/lastmile_qr_scan"}, "lat": 38.86890433333333, "lon": -76.98232566666667, "fusion_lat": 0.0}, {"is_reserved": 0, "bike_id": "0da040ae7ae8aa96230ac40eef0e844a", "type": "electric_scooter", "name": "0da040ae7ae8aa96230ac40eef0e844a", "is_disabled": 0, "fusion_lon": 0.0, "rental_uris": {"android": "https://dc.lft.to/lastmile_qr_scan", "ios": "https://dc.lft.to/lastmile_qr_scan"}, "lat": 38.911162833333336, "lon": -77.0383265, "fusion_lat": 0.0}, {"is_reserved": 0, "bike_id": "cada4bdac4db92ad3e708d3bd354cfa9", "type": "electric_scooter", "name": "cada4bdac4db92ad3e708d3bd354cfa9", "is_disabled": 0, "fusion_lon": 0.0, "rental_uris": {"android": "https://dc.lft.to/lastmile_qr_scan", "ios": "https://dc.lft.to/lastmile_qr_scan"}, "lat": 38.9360785, "lon": -77.05891933333334, "fusion_lat": 0.0}, {"is_reserved": 0, "bike_id": "f6a88c85fc53c9a9dfad234c8194f16e", "type": "electric_scooter", "name": "f6a88c85fc53c9a9dfad234c8194f16e", "is_disabled": 0, "fusion_lon": 0.0, "rental_uris": {"android": "https://dc.lft.to/lastmile_qr_scan", "ios": "https://dc.lft.to/lastmile_qr_scan"}, "lat": 38.9119225, "lon": -77.037527, "fusion_lat": 0.0}, {"is_reserved": 0, "bike_id": "38dbe3769df8e3defaaea8435f4f1a09", "type": "electric_scooter", "name": "38dbe3769df8e3defaaea8435f4f1a09", "is_disabled": 0, "fusion_lon": 0.0, "rental_uris": {"android": "https://dc.lft.to/lastmile_qr_scan", "ios": "https://dc.lft.to/lastmile_qr_scan"}, "lat": 38.92654, "lon": -77.03730366666667, "fusion_lat": 0.0}, {"is_reserved": 0, "bike_id": "6243709263b751aba446b447fdb0f6fd", "type": "electric_scooter", "name": "6243709263b751aba446b447fdb0f6fd", "is_disabled": 0, "fusion_lon": 0.0, "rental_uris": {"android": "https://dc.lft.to/lastmile_qr_scan", "ios": "https://dc.lft.to/lastmile_qr_scan"}, "lat": 38.9199395, "lon": -77.0177975, "fusion_lat": 0.0}, {"is_reserved": 0, "bike_id": "d199b8b1352145431959fb2dfe7bcd21", "type": "electric_scooter", "name": "d199b8b1352145431959fb2dfe7bcd21", "is_disabled": 0, "fusion_lon": 0.0, "rental_uris": {"android": "https://dc.lft.to/lastmile_qr_scan", "ios": "https://dc.lft.to/lastmile_qr_scan"}, "lat": 38.91040683333333, "lon": -77.04118016666666, "fusion_lat": 0.0}, {"is_reserved": 0, "bike_id": "0cf208c4d80c058acebaeb2e26cb6534", "type": "electric_scooter", "name": "0cf208c4d80c058acebaeb2e26cb6534", "is_disabled": 0, "fusion_lon": 0.0, "rental_uris": {"android": "https://dc.lft.to/lastmile_qr_scan", "ios": "https://dc.lft.to/lastmile_qr_scan"}, "lat": 38.916972666666666, "lon": -77.0116315, "fusion_lat": 0.0}, {"is_reserved": 0, "bike_id": "e3b43d946f627417810d93257c010586", "type": "electric_scooter", "name": "e3b43d946f627417810d93257c010586", "is_disabled": 0, "fusion_lon": 0.0, "rental_uris": {"android": "https://dc.lft.to/lastmile_qr_scan", "ios": "https://dc.lft.to/lastmile_qr_scan"}, "lat": 38.935310666666666, "lon": -77.023553, "fusion_lat": 0.0}, {"is_reserved": 0, "bike_id": "7f32b5efa4d2e07ba9d9ed14d4a741f2", "type": "electric_scooter", "name": "7f32b5efa4d2e07ba9d9ed14d4a741f2", "is_disabled": 0, "fusion_lon": 0.0, "rental_uris": {"android": "https://dc.lft.to/lastmile_qr_scan", "ios": "https://dc.lft.to/lastmile_qr_scan"}, "lat": 38.892310333333334, "lon": -77.05003, "fusion_lat": 0.0}, {"is_reserved": 0, "bike_id": "f23a22bdbf47fc4a400bbfb42038d921", "type": "electric_scooter", "name": "f23a22bdbf47fc4a400bbfb42038d921", "is_disabled": 0, "fusion_lon": 0.0, "rental_uris": {"android": "https://dc.lft.to/lastmile_qr_scan", "ios": "https://dc.lft.to/lastmile_qr_scan"}, "lat": 38.9019615, "lon": -77.02199416666667, "fusion_lat": 0.0}, {"is_reserved": 0, "bike_id": "b69ed8163084cf80461b41d5a38fc2c3", "type": "electric_bike", "name": "b69ed8163084cf80461b41d5a38fc2c3", "is_disabled": 0, "fusion_lon": 0.0, "rental_uris": {"android": "https://dc.lft.to/lastmile_qr_scan", "ios": "https://dc.lft.to/lastmile_qr_scan"}, "lat": 38.9204075, "lon": -77.00362, "fusion_lat": 0.0}, {"is_reserved": 0, "bike_id": "49136a527eeec6431e608de2291e0f08", "type": "electric_scooter", "name": "49136a527eeec6431e608de2291e0f08", "is_disabled": 0, "fusion_lon": 0.0, "rental_uris": {"android": "https://dc.lft.to/lastmile_qr_scan", "ios": "https://dc.lft.to/lastmile_qr_scan"}, "lat": 38.93198133333333, "lon": -77.0250455, "fusion_lat": 0.0}, {"is_reserved": 0, "bike_id": "6959271cc0dff47221ef28b297be587d", "type": "electric_scooter", "name": "6959271cc0dff47221ef28b297be587d", "is_disabled": 0, "fusion_lon": 0.0, "rental_uris": {"android": "https://dc.lft.to/lastmile_qr_scan", "ios": "https://dc.lft.to/lastmile_qr_scan"}, "lat": 38.9187615, "lon": -77.04467233333334, "fusion_lat": 0.0}, {"is_reserved": 0, "bike_id": "5b305612192499920f1a4bd85a0f7fc1", "type": "electric_scooter", "name": "5b305612192499920f1a4bd85a0f7fc1", "is_disabled": 0, "fusion_lon": 0.0, "rental_uris": {"android": "https://dc.lft.to/lastmile_qr_scan", "ios": "https://dc.lft.to/lastmile_qr_scan"}, "lat": 38.91405366666667, "lon": -77.02204766666667, "fusion_lat": 0.0}, {"is_reserved": 0, "bike_id": "493ac69e07d61597eef03a56191c4311", "type": "electric_scooter", "name": "493ac69e07d61597eef03a56191c4311", "is_disabled": 0, "fusion_lon": 0.0, "rental_uris": {"android": "https://dc.lft.to/lastmile_qr_scan", "ios": "https://dc.lft.to/lastmile_qr_scan"}, "lat": 38.91537316666667, "lon": -77.04473333333334, "fusion_lat": 0.0}, {"is_reserved": 0, "bike_id": "818edf4997e282531925f70c77c2ac89", "type": "electric_scooter", "name": "818edf4997e282531925f70c77c2ac89", "is_disabled": 0, "fusion_lon": 0.0, "rental_uris": {"android": "https://dc.lft.to/lastmile_qr_scan", "ios": "https://dc.lft.to/lastmile_qr_scan"}, "lat": 38.91641466666667, "lon": -77.0321235, "fusion_lat": 0.0}, {"is_reserved": 0, "bike_id": "216cd2e9e3558b0f7d05bc25d2466560", "type": "electric_scooter", "name": "216cd2e9e3558b0f7d05bc25d2466560", "is_disabled": 0, "fusion_lon": 0.0, "rental_uris": {"android": "https://dc.lft.to/lastmile_qr_scan", "ios": "https://dc.lft.to/lastmile_qr_scan"}, "lat": 38.92030716666667, "lon": -77.031302, "fusion_lat": 0.0}, {"is_reserved": 0, "bike_id": "d88089f91be057017cb793e7489e8ae9", "type": "electric_scooter", "name": "d88089f91be057017cb793e7489e8ae9", "is_disabled": 0, "fusion_lon": 0.0, "rental_uris": {"android": "https://dc.lft.to/lastmile_qr_scan", "ios": "https://dc.lft.to/lastmile_qr_scan"}, "lat": 38.94609633333334, "lon": -77.03060733333334, "fusion_lat": 0.0}, {"is_reserved": 0, "bike_id": "c45fbc718da760ce088bf8d48b61371a", "type": "electric_scooter", "name": "c45fbc718da760ce088bf8d48b61371a", "is_disabled": 0, "fusion_lon": 0.0, "rental_uris": {"android": "https://dc.lft.to/lastmile_qr_scan", "ios": "https://dc.lft.to/lastmile_qr_scan"}, "lat": 38.926951833333334, "lon": -77.02576166666667, "fusion_lat": 0.0}, {"is_reserved": 0, "bike_id": "c9c8cb84f6f5171c18fcb3238d03c2a8", "type": "electric_bike", "name": "c9c8cb84f6f5171c18fcb3238d03c2a8", "is_disabled": 0, "fusion_lon": 0.0, "rental_uris": {"android": "https://dc.lft.to/lastmile_qr_scan", "ios": "https://dc.lft.to/lastmile_qr_scan"}, "lat": 38.945714333333335, "lon": -76.98115766666666, "fusion_lat": 0.0}, {"is_reserved": 0, "bike_id": "d1ce70cdb301fde7a6b5f943fa2f58bf", "type": "electric_scooter", "name": "d1ce70cdb301fde7a6b5f943fa2f58bf", "is_disabled": 0, "fusion_lon": 0.0, "rental_uris": {"android": "https://dc.lft.to/lastmile_qr_scan", "ios": "https://dc.lft.to/lastmile_qr_scan"}, "lat": 38.90254766666666, "lon": -77.018251, "fusion_lat": 0.0}, {"is_reserved": 0, "bike_id": "5a0feeff97db982298fbc38b1b41a21a", "type": "electric_scooter", "name": "5a0feeff97db982298fbc38b1b41a21a", "is_disabled": 0, "fusion_lon": 0.0, "rental_uris": {"android": "https://dc.lft.to/lastmile_qr_scan", "ios": "https://dc.lft.to/lastmile_qr_scan"}, "lat": 38.94311233333333, "lon": -77.0615235, "fusion_lat": 0.0}, {"is_reserved": 0, "bike_id": "4b48db8d61f13b21ae59bd4ae4aec2ba", "type": "electric_scooter", "name": "4b48db8d61f13b21ae59bd4ae4aec2ba", "is_disabled": 0, "fusion_lon": 0.0, "rental_uris": {"android": "https://dc.lft.to/lastmile_qr_scan", "ios": "https://dc.lft.to/lastmile_qr_scan"}, "lat": 38.917279, "lon": -77.068345, "fusion_lat": 0.0}, {"is_reserved": 0, "bike_id": "31adf7a0c181d9b5a97d71e97351ec3b", "type": "electric_scooter", "name": "31adf7a0c181d9b5a97d71e97351ec3b", "is_disabled": 0, "fusion_lon": 0.0, "rental_uris": {"android": "https://dc.lft.to/lastmile_qr_scan", "ios": "https://dc.lft.to/lastmile_qr_scan"}, "lat": 38.96270783333333, "lon": -77.03023966666667, "fusion_lat": 0.0}, {"is_reserved": 0, "bike_id": "4c25849ac5f8c93210c03db78778ee22", "type": "electric_scooter", "name": "4c25849ac5f8c93210c03db78778ee22", "is_disabled": 0, "fusion_lon": 0.0, "rental_uris": {"android": "https://dc.lft.to/lastmile_qr_scan", "ios": "https://dc.lft.to/lastmile_qr_scan"}, "lat": 38.9204305, "lon": -77.03890316666667, "fusion_lat": 0.0}, {"is_reserved": 0, "bike_id": "6940edf10ed2f78bed07961d5cf3b600", "type": "electric_scooter", "name": "6940edf10ed2f78bed07961d5cf3b600", "is_disabled": 0, "fusion_lon": 0.0, "rental_uris": {"android": "https://dc.lft.to/lastmile_qr_scan", "ios": "https://dc.lft.to/lastmile_qr_scan"}, "lat": 38.904292, "lon": -77.01839116666666, "fusion_lat": 0.0}, {"is_reserved": 0, "bike_id": "5ce1f2c8e5614db1cec437297a5e3cae", "type": "electric_scooter", "name": "5ce1f2c8e5614db1cec437297a5e3cae", "is_disabled": 0, "fusion_lon": 0.0, "rental_uris": {"android": "https://dc.lft.to/lastmile_qr_scan", "ios": "https://dc.lft.to/lastmile_qr_scan"}, "lat": 38.9197585, "lon": -77.01780966666666, "fusion_lat": 0.0}, {"is_reserved": 0, "bike_id": "b3755de7233e63860f7a041b61f84cfc", "type": "electric_scooter", "name": "b3755de7233e63860f7a041b61f84cfc", "is_disabled": 0, "fusion_lon": 0.0, "rental_uris": {"android": "https://dc.lft.to/lastmile_qr_scan", "ios": "https://dc.lft.to/lastmile_qr_scan"}, "lat": 38.91286566666667, "lon": -77.02304666666667, "fusion_lat": 0.0}, {"is_reserved": 0, "bike_id": "a0bcd0cddc0fcf324819a7b741109c41", "type": "electric_scooter", "name": "a0bcd0cddc0fcf324819a7b741109c41", "is_disabled": 0, "fusion_lon": 0.0, "rental_uris": {"android": "https://dc.lft.to/lastmile_qr_scan", "ios": "https://dc.lft.to/lastmile_qr_scan"}, "lat": 38.898135833333335, "lon": -77.04028233333334, "fusion_lat": 0.0}, {"is_reserved": 0, "bike_id": "74382cefb013d31486a36c39a5a91fa2", "type": "electric_scooter", "name": "74382cefb013d31486a36c39a5a91fa2", "is_disabled": 0, "fusion_lon": 0.0, "rental_uris": {"android": "https://dc.lft.to/lastmile_qr_scan", "ios": "https://dc.lft.to/lastmile_qr_scan"}, "lat": 38.904247, "lon": -77.02725116666667, "fusion_lat": 0.0}, {"is_reserved": 0, "bike_id": "c0955569e36b8cfba83a06e9545d6dc0", "type": "electric_scooter", "name": "c0955569e36b8cfba83a06e9545d6dc0", "is_disabled": 0, "fusion_lon": 0.0, "rental_uris": {"android": "https://dc.lft.to/lastmile_qr_scan", "ios": "https://dc.lft.to/lastmile_qr_scan"}, "lat": 38.906045166666665, "lon": -77.06377116666667, "fusion_lat": 0.0}, {"is_reserved": 0, "bike_id": "5cbfa18e6c9a5d6c30877d9b3ae5a3ea", "type": "electric_scooter", "name": "5cbfa18e6c9a5d6c30877d9b3ae5a3ea", "is_disabled": 0, "fusion_lon": 0.0, "rental_uris": {"android": "https://dc.lft.to/lastmile_qr_scan", "ios": "https://dc.lft.to/lastmile_qr_scan"}, "lat": 38.92066783333333, "lon": -77.043803, "fusion_lat": 0.0}, {"is_reserved": 0, "bike_id": "9423535e00a0c9fa810908f6c42bb8c7", "type": "electric_scooter", "name": "9423535e00a0c9fa810908f6c42bb8c7", "is_disabled": 0, "fusion_lon": 0.0, "rental_uris": {"android": "https://dc.lft.to/lastmile_qr_scan", "ios": "https://dc.lft.to/lastmile_qr_scan"}, "lat": 38.92321333333334, "lon": -77.056839, "fusion_lat": 0.0}, {"is_reserved": 0, "bike_id": "a54ac7bc1d51865fc00240d998d20548", "type": "electric_scooter", "name": "a54ac7bc1d51865fc00240d998d20548", "is_disabled": 0, "fusion_lon": 0.0, "rental_uris": {"android": "https://dc.lft.to/lastmile_qr_scan", "ios": "https://dc.lft.to/lastmile_qr_scan"}, "lat": 38.930629333333336, "lon": -77.0233855, "fusion_lat": 0.0}, {"is_reserved": 0, "bike_id": "a9e43defca663eeb684468b2d379f277", "type": "electric_bike", "name": "a9e43defca663eeb684468b2d379f277", "is_disabled": 0, "fusion_lon": 0.0, "rental_uris": {"android": "https://dc.lft.to/lastmile_qr_scan", "ios": "https://dc.lft.to/lastmile_qr_scan"}, "lat": 38.89417666666667, "lon": -76.999859, "fusion_lat": 0.0}, {"is_reserved": 0, "bike_id": "e93c0f871eeac15061b338ea98d08536", "type": "electric_scooter", "name": "e93c0f871eeac15061b338ea98d08536", "is_disabled": 0, "fusion_lon": 0.0, "rental_uris": {"android": "https://dc.lft.to/lastmile_qr_scan", "ios": "https://dc.lft.to/lastmile_qr_scan"}, "lat": 38.932052, "lon": -77.04123116666666, "fusion_lat": 0.0}, {"is_reserved": 0, "bike_id": "7c40f7b350a483be1fa382f6476541ea", "type": "electric_scooter", "name": "7c40f7b350a483be1fa382f6476541ea", "is_disabled": 0, "fusion_lon": 0.0, "rental_uris": {"android": "https://dc.lft.to/lastmile_qr_scan", "ios": "https://dc.lft.to/lastmile_qr_scan"}, "lat": 38.90135466666667, "lon": -77.04159966666667, "fusion_lat": 0.0}, {"is_reserved": 0, "bike_id": "ba20b09a0266d415f6cb268969e77c9a", "type": "electric_scooter", "name": "ba20b09a0266d415f6cb268969e77c9a", "is_disabled": 0, "fusion_lon": 0.0, "rental_uris": {"android": "https://dc.lft.to/lastmile_qr_scan", "ios": "https://dc.lft.to/lastmile_qr_scan"}, "lat": 38.891838166666666, "lon": -77.01530333333334, "fusion_lat": 0.0}, {"is_reserved": 0, "bike_id": "90fa15b8c4b58e753c1f472c16d8a2e1", "type": "electric_scooter", "name": "90fa15b8c4b58e753c1f472c16d8a2e1", "is_disabled": 0, "fusion_lon": 0.0, "rental_uris": {"android": "https://dc.lft.to/lastmile_qr_scan", "ios": "https://dc.lft.to/lastmile_qr_scan"}, "lat": 38.925075666666665, "lon": -77.02357783333333, "fusion_lat": 0.0}, {"is_reserved": 0, "bike_id": "450084b9adf2975c9d722a73e54edcab", "type": "electric_scooter", "name": "450084b9adf2975c9d722a73e54edcab", "is_disabled": 0, "fusion_lon": 0.0, "rental_uris": {"android": "https://dc.lft.to/lastmile_qr_scan", "ios": "https://dc.lft.to/lastmile_qr_scan"}, "lat": 38.9111375, "lon": -77.03790716666667, "fusion_lat": 0.0}, {"is_reserved": 0, "bike_id": "ba25f759a6c4a01e01b855367a18a38e", "type": "electric_scooter", "name": "ba25f759a6c4a01e01b855367a18a38e", "is_disabled": 0, "fusion_lon": 0.0, "rental_uris": {"android": "https://dc.lft.to/lastmile_qr_scan", "ios": "https://dc.lft.to/lastmile_qr_scan"}, "lat": 38.921301666666665, "lon": -77.04228383333333, "fusion_lat": 0.0}, {"is_reserved": 0, "bike_id": "3c5d4aa89db9bd69e32ee0360e1f6d35", "type": "electric_scooter", "name": "3c5d4aa89db9bd69e32ee0360e1f6d35", "is_disabled": 0, "fusion_lon": 0.0, "rental_uris": {"android": "https://dc.lft.to/lastmile_qr_scan", "ios": "https://dc.lft.to/lastmile_qr_scan"}, "lat": 38.924369166666665, "lon": -77.04238683333334, "fusion_lat": 0.0}, {"is_reserved": 0, "bike_id": "a3db290f8c96b5b87ee789e7a64e8bc4", "type": "electric_scooter", "name": "a3db290f8c96b5b87ee789e7a64e8bc4", "is_disabled": 0, "fusion_lon": 0.0, "rental_uris": {"android": "https://dc.lft.to/lastmile_qr_scan", "ios": "https://dc.lft.to/lastmile_qr_scan"}, "lat": 38.9059045, "lon": -77.01225266666667, "fusion_lat": 0.0}, {"is_reserved": 0, "bike_id": "7a1bcc4a5189b5eaa7b794c89dcbc87c", "type": "electric_scooter", "name": "7a1bcc4a5189b5eaa7b794c89dcbc87c", "is_disabled": 0, "fusion_lon": 0.0, "rental_uris": {"android": "https://dc.lft.to/lastmile_qr_scan", "ios": "https://dc.lft.to/lastmile_qr_scan"}, "lat": 38.922299833333334, "lon": -77.04444033333333, "fusion_lat": 0.0}, {"is_reserved": 0, "bike_id": "5ca3e6ba0e28f228df12cec167ad8305", "type": "electric_scooter", "name": "5ca3e6ba0e28f228df12cec167ad8305", "is_disabled": 0, "fusion_lon": 0.0, "rental_uris": {"android": "https://dc.lft.to/lastmile_qr_scan", "ios": "https://dc.lft.to/lastmile_qr_scan"}, "lat": 38.8987055, "lon": -76.946669, "fusion_lat": 0.0}, {"is_reserved": 0, "bike_id": "64fea89e23881deeb02536920b8c2e99", "type": "electric_scooter", "name": "64fea89e23881deeb02536920b8c2e99", "is_disabled": 0, "fusion_lon": 0.0, "rental_uris": {"android": "https://dc.lft.to/lastmile_qr_scan", "ios": "https://dc.lft.to/lastmile_qr_scan"}, "lat": 38.920232, "lon": -77.07132583333333, "fusion_lat": 0.0}, {"is_reserved": 0, "bike_id": "928cf8b9df1910489e744e4b2b051574", "type": "electric_bike", "name": "928cf8b9df1910489e744e4b2b051574", "is_disabled": 0, "fusion_lon": 0.0, "rental_uris": {"android": "https://dc.lft.to/lastmile_qr_scan", "ios": "https://dc.lft.to/lastmile_qr_scan"}, "lat": 38.876691666666666, "lon": -77.000123, "fusion_lat": 0.0}, {"is_reserved": 0, "bike_id": "7e76e4879593074fc5f702ba4b08489a", "type": "electric_bike", "name": "7e76e4879593074fc5f702ba4b08489a", "is_disabled": 0, "fusion_lon": 0.0, "rental_uris": {"android": "https://dc.lft.to/lastmile_qr_scan", "ios": "https://dc.lft.to/lastmile_qr_scan"}, "lat": 38.909047, "lon": -77.08995316666666, "fusion_lat": 0.0}, {"is_reserved": 0, "bike_id": "7f7d8e69656d4cc195f1ee56c4f41f17", "type": "electric_scooter", "name": "7f7d8e69656d4cc195f1ee56c4f41f17", "is_disabled": 0, "fusion_lon": 0.0, "rental_uris": {"android": "https://dc.lft.to/lastmile_qr_scan", "ios": "https://dc.lft.to/lastmile_qr_scan"}, "lat": 38.910339, "lon": -77.03262183333334, "fusion_lat": 0.0}, {"is_reserved": 0, "bike_id": "cc7efe7c9a72af720c418e2c7052a03d", "type": "electric_scooter", "name": "cc7efe7c9a72af720c418e2c7052a03d", "is_disabled": 0, "fusion_lon": 0.0, "rental_uris": {"android": "https://dc.lft.to/lastmile_qr_scan", "ios": "https://dc.lft.to/lastmile_qr_scan"}, "lat": 38.91965, "lon": -77.03852966666666, "fusion_lat": 0.0}, {"is_reserved": 0, "bike_id": "e9b9b14959b8de5b5829c79d09b2dd1e", "type": "electric_scooter", "name": "e9b9b14959b8de5b5829c79d09b2dd1e", "is_disabled": 0, "fusion_lon": 0.0, "rental_uris": {"android": "https://dc.lft.to/lastmile_qr_scan", "ios": "https://dc.lft.to/lastmile_qr_scan"}, "lat": 38.91009583333334, "lon": -76.99390183333334, "fusion_lat": 0.0}, {"is_reserved": 0, "bike_id": "768b29454089dc5a0d45d88812dfb935", "type": "electric_bike", "name": "768b29454089dc5a0d45d88812dfb935", "is_disabled": 0, "fusion_lon": 0.0, "rental_uris": {"android": "https://dc.lft.to/lastmile_qr_scan", "ios": "https://dc.lft.to/lastmile_qr_scan"}, "lat": 38.899501666666666, "lon": -77.04972966666666, "fusion_lat": 0.0}, {"is_reserved": 0, "bike_id": "d94d0ca7da6118173927148e85defbf8", "type": "electric_scooter", "name": "d94d0ca7da6118173927148e85defbf8", "is_disabled": 0, "fusion_lon": 0.0, "rental_uris": {"android": "https://dc.lft.to/lastmile_qr_scan", "ios": "https://dc.lft.to/lastmile_qr_scan"}, "lat": 38.962119, "lon": -77.02772816666666, "fusion_lat": 0.0}, {"is_reserved": 0, "bike_id": "01648a6fe2c7b09f1afa6f067a52d1c6", "type": "electric_scooter", "name": "01648a6fe2c7b09f1afa6f067a52d1c6", "is_disabled": 0, "fusion_lon": 0.0, "rental_uris": {"android": "https://dc.lft.to/lastmile_qr_scan", "ios": "https://dc.lft.to/lastmile_qr_scan"}, "lat": 38.90316983333334, "lon": -77.03653716666666, "fusion_lat": 0.0}, {"is_reserved": 0, "bike_id": "7e7d6ae8beb84c54898f57590c1d9cfc", "type": "electric_scooter", "name": "7e7d6ae8beb84c54898f57590c1d9cfc", "is_disabled": 0, "fusion_lon": 0.0, "rental_uris": {"android": "https://dc.lft.to/lastmile_qr_scan", "ios": "https://dc.lft.to/lastmile_qr_scan"}, "lat": 38.9161455, "lon": -77.048961, "fusion_lat": 0.0}, {"is_reserved": 0, "bike_id": "018300a5b2d1594f1b7485736a0a1b15", "type": "electric_scooter", "name": "018300a5b2d1594f1b7485736a0a1b15", "is_disabled": 0, "fusion_lon": 0.0, "rental_uris": {"android": "https://dc.lft.to/lastmile_qr_scan", "ios": "https://dc.lft.to/lastmile_qr_scan"}, "lat": 38.898405, "lon": -77.01287216666667, "fusion_lat": 0.0}, {"is_reserved": 0, "bike_id": "66607853c43c7a00259877a7bc0de694", "type": "electric_scooter", "name": "66607853c43c7a00259877a7bc0de694", "is_disabled": 0, "fusion_lon": 0.0, "rental_uris": {"android": "https://dc.lft.to/lastmile_qr_scan", "ios": "https://dc.lft.to/lastmile_qr_scan"}, "lat": 38.90790583333333, "lon": -77.031868, "fusion_lat": 0.0}, {"is_reserved": 0, "bike_id": "358f4683e3bd2dba07ee8b976293554c", "type": "electric_bike", "name": "358f4683e3bd2dba07ee8b976293554c", "is_disabled": 0, "fusion_lon": 0.0, "rental_uris": {"android": "https://dc.lft.to/lastmile_qr_scan", "ios": "https://dc.lft.to/lastmile_qr_scan"}, "lat": 39.010931, "lon": -76.910708, "fusion_lat": 0.0}, {"is_reserved": 0, "bike_id": "befddfe58274004e4530992727b1eaf2", "type": "electric_scooter", "name": "befddfe58274004e4530992727b1eaf2", "is_disabled": 0, "fusion_lon": 0.0, "rental_uris": {"android": "https://dc.lft.to/lastmile_qr_scan", "ios": "https://dc.lft.to/lastmile_qr_scan"}, "lat": 38.908783, "lon": -77.03481866666667, "fusion_lat": 0.0}, {"is_reserved": 0, "bike_id": "9f0c1d8739ef6e3c8f4ccd73e56d96b6", "type": "electric_scooter", "name": "9f0c1d8739ef6e3c8f4ccd73e56d96b6", "is_disabled": 0, "fusion_lon": 0.0, "rental_uris": {"android": "https://dc.lft.to/lastmile_qr_scan", "ios": "https://dc.lft.to/lastmile_qr_scan"}, "lat": 38.89756766666667, "lon": -77.026949, "fusion_lat": 0.0}, {"is_reserved": 0, "bike_id": "61905e9083dda85692e08553238a624c", "type": "electric_scooter", "name": "61905e9083dda85692e08553238a624c", "is_disabled": 0, "fusion_lon": 0.0, "rental_uris": {"android": "https://dc.lft.to/lastmile_qr_scan", "ios": "https://dc.lft.to/lastmile_qr_scan"}, "lat": 38.917826166666664, "lon": -77.023138, "fusion_lat": 0.0}, {"is_reserved": 0, "bike_id": "1314bb9668d22d3ed40555b824990573", "type": "electric_scooter", "name": "1314bb9668d22d3ed40555b824990573", "is_disabled": 0, "fusion_lon": 0.0, "rental_uris": {"android": "https://dc.lft.to/lastmile_qr_scan", "ios": "https://dc.lft.to/lastmile_qr_scan"}, "lat": 38.91270033333333, "lon": -77.02213933333333, "fusion_lat": 0.0}, {"is_reserved": 0, "bike_id": "fb868d4f0ceaeb54a3e7d303763a0d78", "type": "electric_scooter", "name": "fb868d4f0ceaeb54a3e7d303763a0d78", "is_disabled": 0, "fusion_lon": 0.0, "rental_uris": {"android": "https://dc.lft.to/lastmile_qr_scan", "ios": "https://dc.lft.to/lastmile_qr_scan"}, "lat": 38.933174, "lon": -77.029279, "fusion_lat": 0.0}, {"is_reserved": 0, "bike_id": "4fa17a9c1d795ced994cf26e9c8eaf9c", "type": "electric_bike", "name": "4fa17a9c1d795ced994cf26e9c8eaf9c", "is_disabled": 0, "fusion_lon": 0.0, "rental_uris": {"android": "https://dc.lft.to/lastmile_qr_scan", "ios": "https://dc.lft.to/lastmile_qr_scan"}, "lat": 38.99466283333334, "lon": -77.02865833333334, "fusion_lat": 0.0}, {"is_reserved": 0, "bike_id": "0c26e79db9bf39629993140ac408e7ea", "type": "electric_scooter", "name": "0c26e79db9bf39629993140ac408e7ea", "is_disabled": 0, "fusion_lon": 0.0, "rental_uris": {"android": "https://dc.lft.to/lastmile_qr_scan", "ios": "https://dc.lft.to/lastmile_qr_scan"}, "lat": 38.8922755, "lon": -77.01369883333334, "fusion_lat": 0.0}, {"is_reserved": 0, "bike_id": "c63abe13a471508eb042dad359ea834a", "type": "electric_bike", "name": "c63abe13a471508eb042dad359ea834a", "is_disabled": 0, "fusion_lon": 0.0, "rental_uris": {"android": "https://dc.lft.to/lastmile_qr_scan", "ios": "https://dc.lft.to/lastmile_qr_scan"}, "lat": 38.95877766666667, "lon": -77.01033516666666, "fusion_lat": 0.0}, {"is_reserved": 0, "bike_id": "ff2cc44e1431abbd780d88ba93d945d0", "type": "electric_scooter", "name": "ff2cc44e1431abbd780d88ba93d945d0", "is_disabled": 0, "fusion_lon": 0.0, "rental_uris": {"android": "https://dc.lft.to/lastmile_qr_scan", "ios": "https://dc.lft.to/lastmile_qr_scan"}, "lat": 38.906138, "lon": -77.00876283333334, "fusion_lat": 0.0}, {"is_reserved": 0, "bike_id": "ba27c27589ae24a9a880e25fa54fca7b", "type": "electric_scooter", "name": "ba27c27589ae24a9a880e25fa54fca7b", "is_disabled": 0, "fusion_lon": 0.0, "rental_uris": {"android": "https://dc.lft.to/lastmile_qr_scan", "ios": "https://dc.lft.to/lastmile_qr_scan"}, "lat": 38.9394915, "lon": -77.07241566666667, "fusion_lat": 0.0}, {"is_reserved": 0, "bike_id": "3d92a2501f324674de7cd744ba6cc049", "type": "electric_scooter", "name": "3d92a2501f324674de7cd744ba6cc049", "is_disabled": 0, "fusion_lon": 0.0, "rental_uris": {"android": "https://dc.lft.to/lastmile_qr_scan", "ios": "https://dc.lft.to/lastmile_qr_scan"}, "lat": 38.924853, "lon": -77.021737, "fusion_lat": 0.0}, {"is_reserved": 0, "bike_id": "8a5e633f9ca786ccd35f3b61d10aaf8b", "type": "electric_scooter", "name": "8a5e633f9ca786ccd35f3b61d10aaf8b", "is_disabled": 0, "fusion_lon": 0.0, "rental_uris": {"android": "https://dc.lft.to/lastmile_qr_scan", "ios": "https://dc.lft.to/lastmile_qr_scan"}, "lat": 38.88969933333333, "lon": -77.04019983333333, "fusion_lat": 0.0}, {"is_reserved": 0, "bike_id": "e1ba76f3ae8102ed0a298b146d011260", "type": "electric_scooter", "name": "e1ba76f3ae8102ed0a298b146d011260", "is_disabled": 0, "fusion_lon": 0.0, "rental_uris": {"android": "https://dc.lft.to/lastmile_qr_scan", "ios": "https://dc.lft.to/lastmile_qr_scan"}, "lat": 38.92655583333333, "lon": -77.037291, "fusion_lat": 0.0}, {"is_reserved": 0, "bike_id": "a8363c8a158e6f4fe14afa76b023713a", "type": "electric_scooter", "name": "a8363c8a158e6f4fe14afa76b023713a", "is_disabled": 0, "fusion_lon": 0.0, "rental_uris": {"android": "https://dc.lft.to/lastmile_qr_scan", "ios": "https://dc.lft.to/lastmile_qr_scan"}, "lat": 38.919267, "lon": -77.034254, "fusion_lat": 0.0}, {"is_reserved": 0, "bike_id": "2db260ec040cbed8da9d5f7f22b47aa2", "type": "electric_scooter", "name": "2db260ec040cbed8da9d5f7f22b47aa2", "is_disabled": 0, "fusion_lon": 0.0, "rental_uris": {"android": "https://dc.lft.to/lastmile_qr_scan", "ios": "https://dc.lft.to/lastmile_qr_scan"}, "lat": 38.91767, "lon": -77.047664, "fusion_lat": 0.0}, {"is_reserved": 0, "bike_id": "3b503a07c404a3a0d40aa76ebb969864", "type": "electric_scooter", "name": "3b503a07c404a3a0d40aa76ebb969864", "is_disabled": 0, "fusion_lon": 0.0, "rental_uris": {"android": "https://dc.lft.to/lastmile_qr_scan", "ios": "https://dc.lft.to/lastmile_qr_scan"}, "lat": 38.926032166666666, "lon": -77.02154233333333, "fusion_lat": 0.0}, {"is_reserved": 0, "bike_id": "60378a06199e9c16b4f9dc0ca2217024", "type": "electric_scooter", "name": "60378a06199e9c16b4f9dc0ca2217024", "is_disabled": 0, "fusion_lon": 0.0, "rental_uris": {"android": "https://dc.lft.to/lastmile_qr_scan", "ios": "https://dc.lft.to/lastmile_qr_scan"}, "lat": 38.914010833333336, "lon": -77.01016133333333, "fusion_lat": 0.0}, {"is_reserved": 0, "bike_id": "64ce297ba635c8714164f0f31cb29172", "type": "electric_scooter", "name": "64ce297ba635c8714164f0f31cb29172", "is_disabled": 0, "fusion_lon": 0.0, "rental_uris": {"android": "https://dc.lft.to/lastmile_qr_scan", "ios": "https://dc.lft.to/lastmile_qr_scan"}, "lat": 38.90348216666667, "lon": -76.929434, "fusion_lat": 0.0}, {"is_reserved": 0, "bike_id": "cb79f51de79dc0c65810141f4eca0487", "type": "electric_scooter", "name": "cb79f51de79dc0c65810141f4eca0487", "is_disabled": 0, "fusion_lon": 0.0, "rental_uris": {"android": "https://dc.lft.to/lastmile_qr_scan", "ios": "https://dc.lft.to/lastmile_qr_scan"}, "lat": 38.9208585, "lon": -77.02470866666667, "fusion_lat": 0.0}, {"is_reserved": 0, "bike_id": "ecdacdd79be0c86fa759b4983ac5fb5c", "type": "electric_scooter", "name": "ecdacdd79be0c86fa759b4983ac5fb5c", "is_disabled": 0, "fusion_lon": 0.0, "rental_uris": {"android": "https://dc.lft.to/lastmile_qr_scan", "ios": "https://dc.lft.to/lastmile_qr_scan"}, "lat": 38.8852865, "lon": -76.997129, "fusion_lat": 0.0}, {"is_reserved": 0, "bike_id": "669baa66ac9d3b6d8b7acb26f55014af", "type": "electric_scooter", "name": "669baa66ac9d3b6d8b7acb26f55014af", "is_disabled": 0, "fusion_lon": 0.0, "rental_uris": {"android": "https://dc.lft.to/lastmile_qr_scan", "ios": "https://dc.lft.to/lastmile_qr_scan"}, "lat": 38.9105425, "lon": -77.05287733333333, "fusion_lat": 0.0}, {"is_reserved": 0, "bike_id": "15de448b68acec8ab7c5dbd4be71b116", "type": "electric_scooter", "name": "15de448b68acec8ab7c5dbd4be71b116", "is_disabled": 0, "fusion_lon": 0.0, "rental_uris": {"android": "https://dc.lft.to/lastmile_qr_scan", "ios": "https://dc.lft.to/lastmile_qr_scan"}, "lat": 38.91125183333333, "lon": -77.05036966666667, "fusion_lat": 0.0}, {"is_reserved": 0, "bike_id": "0c113d8f1be9204de82dc55f5d9746a3", "type": "electric_scooter", "name": "0c113d8f1be9204de82dc55f5d9746a3", "is_disabled": 0, "fusion_lon": 0.0, "rental_uris": {"android": "https://dc.lft.to/lastmile_qr_scan", "ios": "https://dc.lft.to/lastmile_qr_scan"}, "lat": 38.901894, "lon": -77.043419, "fusion_lat": 0.0}, {"is_reserved": 0, "bike_id": "56daef4d8f3118b920e0ccdba724f8cd", "type": "electric_scooter", "name": "56daef4d8f3118b920e0ccdba724f8cd", "is_disabled": 0, "fusion_lon": 0.0, "rental_uris": {"android": "https://dc.lft.to/lastmile_qr_scan", "ios": "https://dc.lft.to/lastmile_qr_scan"}, "lat": 38.93612683333333, "lon": -77.05893666666667, "fusion_lat": 0.0}, {"is_reserved": 0, "bike_id": "f634907b3c8f0bec9c3e360b08a073fe", "type": "electric_scooter", "name": "f634907b3c8f0bec9c3e360b08a073fe", "is_disabled": 0, "fusion_lon": 0.0, "rental_uris": {"android": "https://dc.lft.to/lastmile_qr_scan", "ios": "https://dc.lft.to/lastmile_qr_scan"}, "lat": 38.90984433333333, "lon": -77.065999, "fusion_lat": 0.0}, {"is_reserved": 0, "bike_id": "40c1cf1fb44166acfe5663fe0f360079", "type": "electric_scooter", "name": "40c1cf1fb44166acfe5663fe0f360079", "is_disabled": 0, "fusion_lon": 0.0, "rental_uris": {"android": "https://dc.lft.to/lastmile_qr_scan", "ios": "https://dc.lft.to/lastmile_qr_scan"}, "lat": 38.912365333333334, "lon": -77.01888266666667, "fusion_lat": 0.0}, {"is_reserved": 0, "bike_id": "993f57b09709b5c49734f2c38f85fa45", "type": "electric_bike", "name": "993f57b09709b5c49734f2c38f85fa45", "is_disabled": 0, "fusion_lon": 0.0, "rental_uris": {"android": "https://dc.lft.to/lastmile_qr_scan", "ios": "https://dc.lft.to/lastmile_qr_scan"}, "lat": 38.947285, "lon": -77.025806, "fusion_lat": 0.0}, {"is_reserved": 0, "bike_id": "4ba6665cc134c20d0f449a16322e4b7e", "type": "electric_scooter", "name": "4ba6665cc134c20d0f449a16322e4b7e", "is_disabled": 0, "fusion_lon": 0.0, "rental_uris": {"android": "https://dc.lft.to/lastmile_qr_scan", "ios": "https://dc.lft.to/lastmile_qr_scan"}, "lat": 38.928497, "lon": -77.0331455, "fusion_lat": 0.0}, {"is_reserved": 0, "bike_id": "313300510800086d582c9599103187e9", "type": "electric_scooter", "name": "313300510800086d582c9599103187e9", "is_disabled": 0, "fusion_lon": 0.0, "rental_uris": {"android": "https://dc.lft.to/lastmile_qr_scan", "ios": "https://dc.lft.to/lastmile_qr_scan"}, "lat": 38.899891833333335, "lon": -76.994906, "fusion_lat": 0.0}, {"is_reserved": 0, "bike_id": "867f55439f3cf877895afd2d98813319", "type": "electric_scooter", "name": "867f55439f3cf877895afd2d98813319", "is_disabled": 0, "fusion_lon": 0.0, "rental_uris": {"android": "https://dc.lft.to/lastmile_qr_scan", "ios": "https://dc.lft.to/lastmile_qr_scan"}, "lat": 38.904145, "lon": -77.06589383333333, "fusion_lat": 0.0}, {"is_reserved": 0, "bike_id": "499b50fa48885b7b6e25cd27c63d9f46", "type": "electric_scooter", "name": "499b50fa48885b7b6e25cd27c63d9f46", "is_disabled": 0, "fusion_lon": 0.0, "rental_uris": {"android": "https://dc.lft.to/lastmile_qr_scan", "ios": "https://dc.lft.to/lastmile_qr_scan"}, "lat": 38.902859, "lon": -77.00195383333333, "fusion_lat": 0.0}, {"is_reserved": 0, "bike_id": "5c40c9778f9c2a7e85e8c53bf93989d8", "type": "electric_scooter", "name": "5c40c9778f9c2a7e85e8c53bf93989d8", "is_disabled": 0, "fusion_lon": 0.0, "rental_uris": {"android": "https://dc.lft.to/lastmile_qr_scan", "ios": "https://dc.lft.to/lastmile_qr_scan"}, "lat": 38.944166, "lon": -77.06338233333334, "fusion_lat": 0.0}, {"is_reserved": 0, "bike_id": "375fcdf6f76d73bd1aa10a947e428492", "type": "electric_scooter", "name": "375fcdf6f76d73bd1aa10a947e428492", "is_disabled": 0, "fusion_lon": 0.0, "rental_uris": {"android": "https://dc.lft.to/lastmile_qr_scan", "ios": "https://dc.lft.to/lastmile_qr_scan"}, "lat": 38.9353455, "lon": -77.0235155, "fusion_lat": 0.0}, {"is_reserved": 0, "bike_id": "683393c7a8fe43c880129f0204953846", "type": "electric_scooter", "name": "683393c7a8fe43c880129f0204953846", "is_disabled": 0, "fusion_lon": 0.0, "rental_uris": {"android": "https://dc.lft.to/lastmile_qr_scan", "ios": "https://dc.lft.to/lastmile_qr_scan"}, "lat": 38.89140833333333, "lon": -76.99030533333334, "fusion_lat": 0.0}, {"is_reserved": 0, "bike_id": "d005b1f6c3607d5049a77239714e53fd", "type": "electric_scooter", "name": "d005b1f6c3607d5049a77239714e53fd", "is_disabled": 0, "fusion_lon": 0.0, "rental_uris": {"android": "https://dc.lft.to/lastmile_qr_scan", "ios": "https://dc.lft.to/lastmile_qr_scan"}, "lat": 38.91853033333334, "lon": -77.01298566666667, "fusion_lat": 0.0}, {"is_reserved": 0, "bike_id": "be26cc6dc16dd71f2a50d74df3585de9", "type": "electric_scooter", "name": "be26cc6dc16dd71f2a50d74df3585de9", "is_disabled": 0, "fusion_lon": 0.0, "rental_uris": {"android": "https://dc.lft.to/lastmile_qr_scan", "ios": "https://dc.lft.to/lastmile_qr_scan"}, "lat": 38.91923416666667, "lon": -77.07996983333334, "fusion_lat": 0.0}, {"is_reserved": 0, "bike_id": "ae94846768504563e7fd6b44f3a5b034", "type": "electric_scooter", "name": "ae94846768504563e7fd6b44f3a5b034", "is_disabled": 0, "fusion_lon": 0.0, "rental_uris": {"android": "https://dc.lft.to/lastmile_qr_scan", "ios": "https://dc.lft.to/lastmile_qr_scan"}, "lat": 38.911876, "lon": -77.03255816666666, "fusion_lat": 0.0}, {"is_reserved": 0, "bike_id": "c2b7088d009bb6e3b0e0ec9caf2ac38a", "type": "electric_scooter", "name": "c2b7088d009bb6e3b0e0ec9caf2ac38a", "is_disabled": 0, "fusion_lon": 0.0, "rental_uris": {"android": "https://dc.lft.to/lastmile_qr_scan", "ios": "https://dc.lft.to/lastmile_qr_scan"}, "lat": 38.9009295, "lon": -76.98338966666667, "fusion_lat": 0.0}, {"is_reserved": 0, "bike_id": "88ab1a07cf19596bdb69d1fa09f1700f", "type": "electric_scooter", "name": "88ab1a07cf19596bdb69d1fa09f1700f", "is_disabled": 0, "fusion_lon": 0.0, "rental_uris": {"android": "https://dc.lft.to/lastmile_qr_scan", "ios": "https://dc.lft.to/lastmile_qr_scan"}, "lat": 38.90410633333333, "lon": -76.97330983333333, "fusion_lat": 0.0}, {"is_reserved": 0, "bike_id": "c045e16aea7d3ca1e8bc5b37ab43ab15", "type": "electric_scooter", "name": "c045e16aea7d3ca1e8bc5b37ab43ab15", "is_disabled": 0, "fusion_lon": 0.0, "rental_uris": {"android": "https://dc.lft.to/lastmile_qr_scan", "ios": "https://dc.lft.to/lastmile_qr_scan"}, "lat": 38.915336333333336, "lon": -77.04474583333334, "fusion_lat": 0.0}, {"is_reserved": 0, "bike_id": "2281c54558e0beaaa857fac9ab28f398", "type": "electric_scooter", "name": "2281c54558e0beaaa857fac9ab28f398", "is_disabled": 0, "fusion_lon": 0.0, "rental_uris": {"android": "https://dc.lft.to/lastmile_qr_scan", "ios": "https://dc.lft.to/lastmile_qr_scan"}, "lat": 38.91793783333333, "lon": -77.0238085, "fusion_lat": 0.0}, {"is_reserved": 0, "bike_id": "6593d759f8912afca5f25152cb76c194", "type": "electric_scooter", "name": "6593d759f8912afca5f25152cb76c194", "is_disabled": 0, "fusion_lon": 0.0, "rental_uris": {"android": "https://dc.lft.to/lastmile_qr_scan", "ios": "https://dc.lft.to/lastmile_qr_scan"}, "lat": 38.91944433333333, "lon": -77.01806033333334, "fusion_lat": 0.0}, {"is_reserved": 0, "bike_id": "346ad6577c0f92c8df45a694eaee4a3a", "type": "electric_scooter", "name": "346ad6577c0f92c8df45a694eaee4a3a", "is_disabled": 0, "fusion_lon": 0.0, "rental_uris": {"android": "https://dc.lft.to/lastmile_qr_scan", "ios": "https://dc.lft.to/lastmile_qr_scan"}, "lat": 38.890924, "lon": -76.98821216666667, "fusion_lat": 0.0}, {"is_reserved": 0, "bike_id": "a2f6e6a4ef0442be5bc91e6ce7bf66fa", "type": "electric_scooter", "name": "a2f6e6a4ef0442be5bc91e6ce7bf66fa", "is_disabled": 0, "fusion_lon": 0.0, "rental_uris": {"android": "https://dc.lft.to/lastmile_qr_scan", "ios": "https://dc.lft.to/lastmile_qr_scan"}, "lat": 38.924226, "lon": -77.01941883333333, "fusion_lat": 0.0}, {"is_reserved": 0, "bike_id": "3bd9dc52d324a0fd861f731b0111c8c6", "type": "electric_scooter", "name": "3bd9dc52d324a0fd861f731b0111c8c6", "is_disabled": 0, "fusion_lon": 0.0, "rental_uris": {"android": "https://dc.lft.to/lastmile_qr_scan", "ios": "https://dc.lft.to/lastmile_qr_scan"}, "lat": 38.915661166666666, "lon": -77.03171966666666, "fusion_lat": 0.0}, {"is_reserved": 0, "bike_id": "9403604cd5924bd5c683e93f4713d2e2", "type": "electric_scooter", "name": "9403604cd5924bd5c683e93f4713d2e2", "is_disabled": 0, "fusion_lon": 0.0, "rental_uris": {"android": "https://dc.lft.to/lastmile_qr_scan", "ios": "https://dc.lft.to/lastmile_qr_scan"}, "lat": 38.90825383333333, "lon": -76.996741, "fusion_lat": 0.0}, {"is_reserved": 0, "bike_id": "4d8bb1c05ed25cc033e9681578632364", "type": "electric_scooter", "name": "4d8bb1c05ed25cc033e9681578632364", "is_disabled": 0, "fusion_lon": 0.0, "rental_uris": {"android": "https://dc.lft.to/lastmile_qr_scan", "ios": "https://dc.lft.to/lastmile_qr_scan"}, "lat": 38.893683333333335, "lon": -77.01544933333334, "fusion_lat": 0.0}, {"is_reserved": 0, "bike_id": "bd299d84533386387561cfd9995d245f", "type": "electric_scooter", "name": "bd299d84533386387561cfd9995d245f", "is_disabled": 0, "fusion_lon": 0.0, "rental_uris": {"android": "https://dc.lft.to/lastmile_qr_scan", "ios": "https://dc.lft.to/lastmile_qr_scan"}, "lat": 38.906888, "lon": -77.06140833333333, "fusion_lat": 0.0}, {"is_reserved": 0, "bike_id": "23b1e5bbc3c3a324da3eaa1b3263281a", "type": "electric_scooter", "name": "23b1e5bbc3c3a324da3eaa1b3263281a", "is_disabled": 0, "fusion_lon": 0.0, "rental_uris": {"android": "https://dc.lft.to/lastmile_qr_scan", "ios": "https://dc.lft.to/lastmile_qr_scan"}, "lat": 38.902524166666666, "lon": -77.03223916666667, "fusion_lat": 0.0}, {"is_reserved": 0, "bike_id": "c4c0872bb6770ccd25c7cbc6e9960952", "type": "electric_scooter", "name": "c4c0872bb6770ccd25c7cbc6e9960952", "is_disabled": 0, "fusion_lon": 0.0, "rental_uris": {"android": "https://dc.lft.to/lastmile_qr_scan", "ios": "https://dc.lft.to/lastmile_qr_scan"}, "lat": 38.873970166666666, "lon": -77.00029116666667, "fusion_lat": 0.0}, {"is_reserved": 0, "bike_id": "fc2c571b688e4b61b1e37a483ab6db99", "type": "electric_scooter", "name": "fc2c571b688e4b61b1e37a483ab6db99", "is_disabled": 0, "fusion_lon": 0.0, "rental_uris": {"android": "https://dc.lft.to/lastmile_qr_scan", "ios": "https://dc.lft.to/lastmile_qr_scan"}, "lat": 38.911891, "lon": -77.00731483333334, "fusion_lat": 0.0}, {"is_reserved": 0, "bike_id": "2f466b2a5fdf44bd364bf84e74eafb1b", "type": "electric_scooter", "name": "2f466b2a5fdf44bd364bf84e74eafb1b", "is_disabled": 0, "fusion_lon": 0.0, "rental_uris": {"android": "https://dc.lft.to/lastmile_qr_scan", "ios": "https://dc.lft.to/lastmile_qr_scan"}, "lat": 38.895534166666664, "lon": -76.93055016666666, "fusion_lat": 0.0}, {"is_reserved": 0, "bike_id": "c1e3d7a4a0de537af35ba0e4727b270c", "type": "electric_scooter", "name": "c1e3d7a4a0de537af35ba0e4727b270c", "is_disabled": 0, "fusion_lon": 0.0, "rental_uris": {"android": "https://dc.lft.to/lastmile_qr_scan", "ios": "https://dc.lft.to/lastmile_qr_scan"}, "lat": 38.92176533333333, "lon": -77.02200866666666, "fusion_lat": 0.0}, {"is_reserved": 0, "bike_id": "d7b3c44b162cdbc7df1deac0f357cce7", "type": "electric_scooter", "name": "d7b3c44b162cdbc7df1deac0f357cce7", "is_disabled": 0, "fusion_lon": 0.0, "rental_uris": {"android": "https://dc.lft.to/lastmile_qr_scan", "ios": "https://dc.lft.to/lastmile_qr_scan"}, "lat": 38.909003, "lon": -77.04406633333333, "fusion_lat": 0.0}, {"is_reserved": 0, "bike_id": "0d516f99bc5bf5051617bc40df554032", "type": "electric_scooter", "name": "0d516f99bc5bf5051617bc40df554032", "is_disabled": 0, "fusion_lon": 0.0, "rental_uris": {"android": "https://dc.lft.to/lastmile_qr_scan", "ios": "https://dc.lft.to/lastmile_qr_scan"}, "lat": 38.920478833333334, "lon": -77.0237615, "fusion_lat": 0.0}, {"is_reserved": 0, "bike_id": "b85139cc53c36d586e4c445b01203a8a", "type": "electric_scooter", "name": "b85139cc53c36d586e4c445b01203a8a", "is_disabled": 0, "fusion_lon": 0.0, "rental_uris": {"android": "https://dc.lft.to/lastmile_qr_scan", "ios": "https://dc.lft.to/lastmile_qr_scan"}, "lat": 38.90772233333333, "lon": -77.03545533333333, "fusion_lat": 0.0}, {"is_reserved": 0, "bike_id": "ed0b0df85cc533716ca567436f54b1b0", "type": "electric_scooter", "name": "ed0b0df85cc533716ca567436f54b1b0", "is_disabled": 0, "fusion_lon": 0.0, "rental_uris": {"android": "https://dc.lft.to/lastmile_qr_scan", "ios": "https://dc.lft.to/lastmile_qr_scan"}, "lat": 38.90259116666667, "lon": -77.01759966666667, "fusion_lat": 0.0}, {"is_reserved": 0, "bike_id": "c50f5915bd5de03979feff4a8ca74a1f", "type": "electric_scooter", "name": "c50f5915bd5de03979feff4a8ca74a1f", "is_disabled": 0, "fusion_lon": 0.0, "rental_uris": {"android": "https://dc.lft.to/lastmile_qr_scan", "ios": "https://dc.lft.to/lastmile_qr_scan"}, "lat": 38.93621566666667, "lon": -77.03284416666666, "fusion_lat": 0.0}, {"is_reserved": 0, "bike_id": "5bc8c2802eaa605dd9e8e2bbb3b66869", "type": "electric_scooter", "name": "5bc8c2802eaa605dd9e8e2bbb3b66869", "is_disabled": 0, "fusion_lon": 0.0, "rental_uris": {"android": "https://dc.lft.to/lastmile_qr_scan", "ios": "https://dc.lft.to/lastmile_qr_scan"}, "lat": 38.926961666666664, "lon": -77.025774, "fusion_lat": 0.0}, {"is_reserved": 0, "bike_id": "99f0e221df40fe51fcfeeed2d0030c84", "type": "electric_scooter", "name": "99f0e221df40fe51fcfeeed2d0030c84", "is_disabled": 0, "fusion_lon": 0.0, "rental_uris": {"android": "https://dc.lft.to/lastmile_qr_scan", "ios": "https://dc.lft.to/lastmile_qr_scan"}, "lat": 38.91554683333333, "lon": -77.03172783333333, "fusion_lat": 0.0}, {"is_reserved": 0, "bike_id": "1cfa568b716d3f4809bb42704ec6df26", "type": "electric_scooter", "name": "1cfa568b716d3f4809bb42704ec6df26", "is_disabled": 0, "fusion_lon": 0.0, "rental_uris": {"android": "https://dc.lft.to/lastmile_qr_scan", "ios": "https://dc.lft.to/lastmile_qr_scan"}, "lat": 38.91626016666667, "lon": -77.03985616666667, "fusion_lat": 0.0}, {"is_reserved": 0, "bike_id": "c29b6bf1856944934190561ebb5d4471", "type": "electric_scooter", "name": "c29b6bf1856944934190561ebb5d4471", "is_disabled": 0, "fusion_lon": 0.0, "rental_uris": {"android": "https://dc.lft.to/lastmile_qr_scan", "ios": "https://dc.lft.to/lastmile_qr_scan"}, "lat": 38.88508233333334, "lon": -77.011151, "fusion_lat": 0.0}, {"is_reserved": 0, "bike_id": "f35b3412b3b3388816e755ab314154f2", "type": "electric_scooter", "name": "f35b3412b3b3388816e755ab314154f2", "is_disabled": 0, "fusion_lon": 0.0, "rental_uris": {"android": "https://dc.lft.to/lastmile_qr_scan", "ios": "https://dc.lft.to/lastmile_qr_scan"}, "lat": 38.900803833333335, "lon": -77.05404, "fusion_lat": 0.0}, {"is_reserved": 0, "bike_id": "2a67a59e554320bf1396b44a03b06258", "type": "electric_scooter", "name": "2a67a59e554320bf1396b44a03b06258", "is_disabled": 0, "fusion_lon": 0.0, "rental_uris": {"android": "https://dc.lft.to/lastmile_qr_scan", "ios": "https://dc.lft.to/lastmile_qr_scan"}, "lat": 38.920001, "lon": -77.04091416666667, "fusion_lat": 0.0}, {"is_reserved": 0, "bike_id": "032d9f6a1eb1010cc86743c922b6938f", "type": "electric_scooter", "name": "032d9f6a1eb1010cc86743c922b6938f", "is_disabled": 0, "fusion_lon": 0.0, "rental_uris": {"android": "https://dc.lft.to/lastmile_qr_scan", "ios": "https://dc.lft.to/lastmile_qr_scan"}, "lat": 38.9216005, "lon": -77.03378516666666, "fusion_lat": 0.0}, {"is_reserved": 0, "bike_id": "4dc1977d0581c6cd37e5d4bbe8d131fe", "type": "electric_scooter", "name": "4dc1977d0581c6cd37e5d4bbe8d131fe", "is_disabled": 0, "fusion_lon": 0.0, "rental_uris": {"android": "https://dc.lft.to/lastmile_qr_scan", "ios": "https://dc.lft.to/lastmile_qr_scan"}, "lat": 38.91579083333333, "lon": -76.98396533333333, "fusion_lat": 0.0}, {"is_reserved": 0, "bike_id": "2c0398a65ccc708d86b4e99ef4a07516", "type": "electric_scooter", "name": "2c0398a65ccc708d86b4e99ef4a07516", "is_disabled": 0, "fusion_lon": 0.0, "rental_uris": {"android": "https://dc.lft.to/lastmile_qr_scan", "ios": "https://dc.lft.to/lastmile_qr_scan"}, "lat": 38.899809166666664, "lon": -77.02191683333334, "fusion_lat": 0.0}, {"is_reserved": 0, "bike_id": "3fa18d48b35396978a20eb6c0f794bc3", "type": "electric_scooter", "name": "3fa18d48b35396978a20eb6c0f794bc3", "is_disabled": 0, "fusion_lon": 0.0, "rental_uris": {"android": "https://dc.lft.to/lastmile_qr_scan", "ios": "https://dc.lft.to/lastmile_qr_scan"}, "lat": 38.892643166666666, "lon": -76.98371716666666, "fusion_lat": 0.0}, {"is_reserved": 0, "bike_id": "66c4f8379c486da8d17569f0945b8911", "type": "electric_scooter", "name": "66c4f8379c486da8d17569f0945b8911", "is_disabled": 0, "fusion_lon": 0.0, "rental_uris": {"android": "https://dc.lft.to/lastmile_qr_scan", "ios": "https://dc.lft.to/lastmile_qr_scan"}, "lat": 38.939404833333334, "lon": -77.0326855, "fusion_lat": 0.0}, {"is_reserved": 0, "bike_id": "4dcc55b654441e5e4b7be8a347121386", "type": "electric_scooter", "name": "4dcc55b654441e5e4b7be8a347121386", "is_disabled": 0, "fusion_lon": 0.0, "rental_uris": {"android": "https://dc.lft.to/lastmile_qr_scan", "ios": "https://dc.lft.to/lastmile_qr_scan"}, "lat": 38.921011, "lon": -77.02518783333333, "fusion_lat": 0.0}, {"is_reserved": 0, "bike_id": "d93d7ee4852d544a2c0d4428cc44f4da", "type": "electric_scooter", "name": "d93d7ee4852d544a2c0d4428cc44f4da", "is_disabled": 0, "fusion_lon": 0.0, "rental_uris": {"android": "https://dc.lft.to/lastmile_qr_scan", "ios": "https://dc.lft.to/lastmile_qr_scan"}, "lat": 38.9216025, "lon": -77.03466433333334, "fusion_lat": 0.0}, {"is_reserved": 0, "bike_id": "47bbfe538c0c57eb5d07be8e1b14cb36", "type": "electric_scooter", "name": "47bbfe538c0c57eb5d07be8e1b14cb36", "is_disabled": 0, "fusion_lon": 0.0, "rental_uris": {"android": "https://dc.lft.to/lastmile_qr_scan", "ios": "https://dc.lft.to/lastmile_qr_scan"}, "lat": 38.901992, "lon": -77.038582, "fusion_lat": 0.0}, {"is_reserved": 0, "bike_id": "c45692a81f4d70cd80aedd199dd7224b", "type": "electric_scooter", "name": "c45692a81f4d70cd80aedd199dd7224b", "is_disabled": 0, "fusion_lon": 0.0, "rental_uris": {"android": "https://dc.lft.to/lastmile_qr_scan", "ios": "https://dc.lft.to/lastmile_qr_scan"}, "lat": 38.930581, "lon": -77.03945816666666, "fusion_lat": 0.0}, {"is_reserved": 0, "bike_id": "4f6396c5d028ed8fc00ba25cc31a4984", "type": "electric_scooter", "name": "4f6396c5d028ed8fc00ba25cc31a4984", "is_disabled": 0, "fusion_lon": 0.0, "rental_uris": {"android": "https://dc.lft.to/lastmile_qr_scan", "ios": "https://dc.lft.to/lastmile_qr_scan"}, "lat": 38.899124, "lon": -77.0500365, "fusion_lat": 0.0}, {"is_reserved": 0, "bike_id": "247bff6c803a2aa1a0d6df708754ab18", "type": "electric_scooter", "name": "247bff6c803a2aa1a0d6df708754ab18", "is_disabled": 0, "fusion_lon": 0.0, "rental_uris": {"android": "https://dc.lft.to/lastmile_qr_scan", "ios": "https://dc.lft.to/lastmile_qr_scan"}, "lat": 38.916291666666666, "lon": -77.0350555, "fusion_lat": 0.0}, {"is_reserved": 0, "bike_id": "09c3fd343cc122aa746ebf1df157d796", "type": "electric_scooter", "name": "09c3fd343cc122aa746ebf1df157d796", "is_disabled": 0, "fusion_lon": 0.0, "rental_uris": {"android": "https://dc.lft.to/lastmile_qr_scan", "ios": "https://dc.lft.to/lastmile_qr_scan"}, "lat": 38.9358055, "lon": -77.02125916666667, "fusion_lat": 0.0}, {"is_reserved": 0, "bike_id": "61fee029c48824d407851ba134336cf4", "type": "electric_scooter", "name": "61fee029c48824d407851ba134336cf4", "is_disabled": 0, "fusion_lon": 0.0, "rental_uris": {"android": "https://dc.lft.to/lastmile_qr_scan", "ios": "https://dc.lft.to/lastmile_qr_scan"}, "lat": 38.92670916666667, "lon": -77.04062583333334, "fusion_lat": 0.0}, {"is_reserved": 0, "bike_id": "90433770ee1301eee61f46f281775e70", "type": "electric_scooter", "name": "90433770ee1301eee61f46f281775e70", "is_disabled": 0, "fusion_lon": 0.0, "rental_uris": {"android": "https://dc.lft.to/lastmile_qr_scan", "ios": "https://dc.lft.to/lastmile_qr_scan"}, "lat": 38.918514333333334, "lon": -77.03192266666667, "fusion_lat": 0.0}, {"is_reserved": 0, "bike_id": "3013d88ede4bf6a95728752391cc8cbc", "type": "electric_scooter", "name": "3013d88ede4bf6a95728752391cc8cbc", "is_disabled": 0, "fusion_lon": 0.0, "rental_uris": {"android": "https://dc.lft.to/lastmile_qr_scan", "ios": "https://dc.lft.to/lastmile_qr_scan"}, "lat": 38.90530716666667, "lon": -77.05001466666667, "fusion_lat": 0.0}, {"is_reserved": 0, "bike_id": "9b84062fd2115d6a749de35608714e08", "type": "electric_scooter", "name": "9b84062fd2115d6a749de35608714e08", "is_disabled": 0, "fusion_lon": 0.0, "rental_uris": {"android": "https://dc.lft.to/lastmile_qr_scan", "ios": "https://dc.lft.to/lastmile_qr_scan"}, "lat": 38.8887125, "lon": -77.0400135, "fusion_lat": 0.0}, {"is_reserved": 0, "bike_id": "38f18720787ecb9342620a688936577e", "type": "electric_scooter", "name": "38f18720787ecb9342620a688936577e", "is_disabled": 0, "fusion_lon": 0.0, "rental_uris": {"android": "https://dc.lft.to/lastmile_qr_scan", "ios": "https://dc.lft.to/lastmile_qr_scan"}, "lat": 38.92475833333334, "lon": -77.0222275, "fusion_lat": 0.0}, {"is_reserved": 0, "bike_id": "4356cf0a5b2e80b7b600fa930804035b", "type": "electric_scooter", "name": "4356cf0a5b2e80b7b600fa930804035b", "is_disabled": 0, "fusion_lon": 0.0, "rental_uris": {"android": "https://dc.lft.to/lastmile_qr_scan", "ios": "https://dc.lft.to/lastmile_qr_scan"}, "lat": 38.949772, "lon": -77.024478, "fusion_lat": 0.0}, {"is_reserved": 0, "bike_id": "bc50ad9ebd98bba830f71866d45f9521", "type": "electric_scooter", "name": "bc50ad9ebd98bba830f71866d45f9521", "is_disabled": 0, "fusion_lon": 0.0, "rental_uris": {"android": "https://dc.lft.to/lastmile_qr_scan", "ios": "https://dc.lft.to/lastmile_qr_scan"}, "lat": 38.924871, "lon": -77.03639183333334, "fusion_lat": 0.0}, {"is_reserved": 0, "bike_id": "ea256e5800f770a5d784eadeff147b66", "type": "electric_scooter", "name": "ea256e5800f770a5d784eadeff147b66", "is_disabled": 0, "fusion_lon": 0.0, "rental_uris": {"android": "https://dc.lft.to/lastmile_qr_scan", "ios": "https://dc.lft.to/lastmile_qr_scan"}, "lat": 38.899849833333334, "lon": -77.00689716666666, "fusion_lat": 0.0}, {"is_reserved": 0, "bike_id": "14e9ec06570a8af7cd1fad1bb385ccee", "type": "electric_scooter", "name": "14e9ec06570a8af7cd1fad1bb385ccee", "is_disabled": 0, "fusion_lon": 0.0, "rental_uris": {"android": "https://dc.lft.to/lastmile_qr_scan", "ios": "https://dc.lft.to/lastmile_qr_scan"}, "lat": 38.94183183333333, "lon": -77.03351316666667, "fusion_lat": 0.0}, {"is_reserved": 0, "bike_id": "97eda67d03ba0a569d4a019c93189beb", "type": "electric_scooter", "name": "97eda67d03ba0a569d4a019c93189beb", "is_disabled": 0, "fusion_lon": 0.0, "rental_uris": {"android": "https://dc.lft.to/lastmile_qr_scan", "ios": "https://dc.lft.to/lastmile_qr_scan"}, "lat": 38.920088166666666, "lon": -76.9850795, "fusion_lat": 0.0}, {"is_reserved": 0, "bike_id": "9e01c0fa122741f907c0fcd37837bb78", "type": "electric_scooter", "name": "9e01c0fa122741f907c0fcd37837bb78", "is_disabled": 0, "fusion_lon": 0.0, "rental_uris": {"android": "https://dc.lft.to/lastmile_qr_scan", "ios": "https://dc.lft.to/lastmile_qr_scan"}, "lat": 38.900949, "lon": -77.04875266666667, "fusion_lat": 0.0}, {"is_reserved": 0, "bike_id": "17fc21fd038b99fe5b4c320222fc9cc4", "type": "electric_scooter", "name": "17fc21fd038b99fe5b4c320222fc9cc4", "is_disabled": 0, "fusion_lon": 0.0, "rental_uris": {"android": "https://dc.lft.to/lastmile_qr_scan", "ios": "https://dc.lft.to/lastmile_qr_scan"}, "lat": 38.9165705, "lon": -77.02571966666666, "fusion_lat": 0.0}, {"is_reserved": 0, "bike_id": "6735463a80f81807959893a39874eaaf", "type": "electric_scooter", "name": "6735463a80f81807959893a39874eaaf", "is_disabled": 0, "fusion_lon": 0.0, "rental_uris": {"android": "https://dc.lft.to/lastmile_qr_scan", "ios": "https://dc.lft.to/lastmile_qr_scan"}, "lat": 38.88407083333333, "lon": -77.03106033333333, "fusion_lat": 0.0}, {"is_reserved": 0, "bike_id": "a647992b37e4c346b1b0c4a552408932", "type": "electric_bike", "name": "a647992b37e4c346b1b0c4a552408932", "is_disabled": 0, "fusion_lon": 0.0, "rental_uris": {"android": "https://dc.lft.to/lastmile_qr_scan", "ios": "https://dc.lft.to/lastmile_qr_scan"}, "lat": 39.021141666666665, "lon": -77.04495716666666, "fusion_lat": 0.0}, {"is_reserved": 0, "bike_id": "c7b588a4df402833ac049d1127adff9f", "type": "electric_scooter", "name": "c7b588a4df402833ac049d1127adff9f", "is_disabled": 0, "fusion_lon": 0.0, "rental_uris": {"android": "https://dc.lft.to/lastmile_qr_scan", "ios": "https://dc.lft.to/lastmile_qr_scan"}, "lat": 38.911194, "lon": -77.03829866666666, "fusion_lat": 0.0}, {"is_reserved": 0, "bike_id": "331df2b6fcc674efee42a95854d9f269", "type": "electric_scooter", "name": "331df2b6fcc674efee42a95854d9f269", "is_disabled": 0, "fusion_lon": 0.0, "rental_uris": {"android": "https://dc.lft.to/lastmile_qr_scan", "ios": "https://dc.lft.to/lastmile_qr_scan"}, "lat": 38.87682566666667, "lon": -77.00355766666667, "fusion_lat": 0.0}, {"is_reserved": 0, "bike_id": "d7fc5d10876b5e66eb3fda613c988fdb", "type": "electric_scooter", "name": "d7fc5d10876b5e66eb3fda613c988fdb", "is_disabled": 0, "fusion_lon": 0.0, "rental_uris": {"android": "https://dc.lft.to/lastmile_qr_scan", "ios": "https://dc.lft.to/lastmile_qr_scan"}, "lat": 38.920626, "lon": -77.032547, "fusion_lat": 0.0}, {"is_reserved": 0, "bike_id": "9163fd56698bc52aeef61a444d4214a9", "type": "electric_scooter", "name": "9163fd56698bc52aeef61a444d4214a9", "is_disabled": 0, "fusion_lon": 0.0, "rental_uris": {"android": "https://dc.lft.to/lastmile_qr_scan", "ios": "https://dc.lft.to/lastmile_qr_scan"}, "lat": 38.96500183333333, "lon": -77.06283483333333, "fusion_lat": 0.0}, {"is_reserved": 0, "bike_id": "c9b414791cc177d3b6f576b65ef25460", "type": "electric_scooter", "name": "c9b414791cc177d3b6f576b65ef25460", "is_disabled": 0, "fusion_lon": 0.0, "rental_uris": {"android": "https://dc.lft.to/lastmile_qr_scan", "ios": "https://dc.lft.to/lastmile_qr_scan"}, "lat": 38.905885, "lon": -76.98625016666666, "fusion_lat": 0.0}, {"is_reserved": 0, "bike_id": "a35afa6a230ed53a5fe961dc0783a9de", "type": "electric_scooter", "name": "a35afa6a230ed53a5fe961dc0783a9de", "is_disabled": 0, "fusion_lon": 0.0, "rental_uris": {"android": "https://dc.lft.to/lastmile_qr_scan", "ios": "https://dc.lft.to/lastmile_qr_scan"}, "lat": 38.93221616666666, "lon": -77.04123266666667, "fusion_lat": 0.0}, {"is_reserved": 0, "bike_id": "abf47c434dbbc9c89b05afa8f0668fcd", "type": "electric_scooter", "name": "abf47c434dbbc9c89b05afa8f0668fcd", "is_disabled": 0, "fusion_lon": 0.0, "rental_uris": {"android": "https://dc.lft.to/lastmile_qr_scan", "ios": "https://dc.lft.to/lastmile_qr_scan"}, "lat": 38.906275666666666, "lon": -77.02604483333333, "fusion_lat": 0.0}, {"is_reserved": 0, "bike_id": "e4ec5f35a4b8580fa34f120afa265fb4", "type": "electric_scooter", "name": "e4ec5f35a4b8580fa34f120afa265fb4", "is_disabled": 0, "fusion_lon": 0.0, "rental_uris": {"android": "https://dc.lft.to/lastmile_qr_scan", "ios": "https://dc.lft.to/lastmile_qr_scan"}, "lat": 38.900254, "lon": -77.04377216666667, "fusion_lat": 0.0}, {"is_reserved": 0, "bike_id": "37acb37634a5eb3738f4d7281a1d992b", "type": "electric_scooter", "name": "37acb37634a5eb3738f4d7281a1d992b", "is_disabled": 0, "fusion_lon": 0.0, "rental_uris": {"android": "https://dc.lft.to/lastmile_qr_scan", "ios": "https://dc.lft.to/lastmile_qr_scan"}, "lat": 38.942967833333334, "lon": -77.0593385, "fusion_lat": 0.0}, {"is_reserved": 0, "bike_id": "f04a36cc3c7e4e506faf9ebf7e1677a8", "type": "electric_scooter", "name": "f04a36cc3c7e4e506faf9ebf7e1677a8", "is_disabled": 0, "fusion_lon": 0.0, "rental_uris": {"android": "https://dc.lft.to/lastmile_qr_scan", "ios": "https://dc.lft.to/lastmile_qr_scan"}, "lat": 38.898557833333335, "lon": -76.93186766666666, "fusion_lat": 0.0}, {"is_reserved": 0, "bike_id": "b71068f3b71da062b07774418b634235", "type": "electric_scooter", "name": "b71068f3b71da062b07774418b634235", "is_disabled": 0, "fusion_lon": 0.0, "rental_uris": {"android": "https://dc.lft.to/lastmile_qr_scan", "ios": "https://dc.lft.to/lastmile_qr_scan"}, "lat": 38.94452833333333, "lon": -77.06355083333334, "fusion_lat": 0.0}, {"is_reserved": 0, "bike_id": "1f8330e85c48907231456f3d212f4df7", "type": "electric_scooter", "name": "1f8330e85c48907231456f3d212f4df7", "is_disabled": 0, "fusion_lon": 0.0, "rental_uris": {"android": "https://dc.lft.to/lastmile_qr_scan", "ios": "https://dc.lft.to/lastmile_qr_scan"}, "lat": 38.9180155, "lon": -77.0682575, "fusion_lat": 0.0}, {"is_reserved": 0, "bike_id": "74a8f2f4b65ff84e430574d04da2220f", "type": "electric_scooter", "name": "74a8f2f4b65ff84e430574d04da2220f", "is_disabled": 0, "fusion_lon": 0.0, "rental_uris": {"android": "https://dc.lft.to/lastmile_qr_scan", "ios": "https://dc.lft.to/lastmile_qr_scan"}, "lat": 38.89834616666667, "lon": -77.0318095, "fusion_lat": 0.0}, {"is_reserved": 0, "bike_id": "e79b62d80ec5cb6cef720749c6cee1e6", "type": "electric_bike", "name": "e79b62d80ec5cb6cef720749c6cee1e6", "is_disabled": 0, "fusion_lon": 0.0, "rental_uris": {"android": "https://dc.lft.to/lastmile_qr_scan", "ios": "https://dc.lft.to/lastmile_qr_scan"}, "lat": 38.900369166666664, "lon": -76.97224283333334, "fusion_lat": 0.0}, {"is_reserved": 0, "bike_id": "15059031cdbed68919a7183dc8006404", "type": "electric_scooter", "name": "15059031cdbed68919a7183dc8006404", "is_disabled": 0, "fusion_lon": 0.0, "rental_uris": {"android": "https://dc.lft.to/lastmile_qr_scan", "ios": "https://dc.lft.to/lastmile_qr_scan"}, "lat": 38.91337216666667, "lon": -77.01202566666667, "fusion_lat": 0.0}, {"is_reserved": 0, "bike_id": "912db0dee524b077bc80b67a0748753b", "type": "electric_scooter", "name": "912db0dee524b077bc80b67a0748753b", "is_disabled": 0, "fusion_lon": 0.0, "rental_uris": {"android": "https://dc.lft.to/lastmile_qr_scan", "ios": "https://dc.lft.to/lastmile_qr_scan"}, "lat": 38.88513616666667, "lon": -76.92441683333334, "fusion_lat": 0.0}, {"is_reserved": 0, "bike_id": "47b43b84515b79e48ea0fc331164d058", "type": "electric_scooter", "name": "47b43b84515b79e48ea0fc331164d058", "is_disabled": 0, "fusion_lon": 0.0, "rental_uris": {"android": "https://dc.lft.to/lastmile_qr_scan", "ios": "https://dc.lft.to/lastmile_qr_scan"}, "lat": 38.9058615, "lon": -77.0060195, "fusion_lat": 0.0}, {"is_reserved": 0, "bike_id": "0d6614a9ef188314402154da7c462616", "type": "electric_bike", "name": "0d6614a9ef188314402154da7c462616", "is_disabled": 0, "fusion_lon": 0.0, "rental_uris": {"android": "https://dc.lft.to/lastmile_qr_scan", "ios": "https://dc.lft.to/lastmile_qr_scan"}, "lat": 38.888717166666666, "lon": -76.97840083333334, "fusion_lat": 0.0}, {"is_reserved": 0, "bike_id": "dbce4cb8dcba81529a82747c6df49ab7", "type": "electric_bike", "name": "dbce4cb8dcba81529a82747c6df49ab7", "is_disabled": 0, "fusion_lon": 0.0, "rental_uris": {"android": "https://dc.lft.to/lastmile_qr_scan", "ios": "https://dc.lft.to/lastmile_qr_scan"}, "lat": 38.89618516666667, "lon": -76.90752033333334, "fusion_lat": 0.0}, {"is_reserved": 0, "bike_id": "ee1325033a0e79dc9dce3d001a2bdb69", "type": "electric_scooter", "name": "ee1325033a0e79dc9dce3d001a2bdb69", "is_disabled": 0, "fusion_lon": 0.0, "rental_uris": {"android": "https://dc.lft.to/lastmile_qr_scan", "ios": "https://dc.lft.to/lastmile_qr_scan"}, "lat": 38.931156, "lon": -77.056157, "fusion_lat": 0.0}, {"is_reserved": 0, "bike_id": "d2cfeca5e66cd3f66822839b0ae975ff", "type": "electric_scooter", "name": "d2cfeca5e66cd3f66822839b0ae975ff", "is_disabled": 0, "fusion_lon": 0.0, "rental_uris": {"android": "https://dc.lft.to/lastmile_qr_scan", "ios": "https://dc.lft.to/lastmile_qr_scan"}, "lat": 38.9050295, "lon": -77.029499, "fusion_lat": 0.0}, {"is_reserved": 0, "bike_id": "619c25fb169d5c5bc513c1e7f45fcd42", "type": "electric_scooter", "name": "619c25fb169d5c5bc513c1e7f45fcd42", "is_disabled": 0, "fusion_lon": 0.0, "rental_uris": {"android": "https://dc.lft.to/lastmile_qr_scan", "ios": "https://dc.lft.to/lastmile_qr_scan"}, "lat": 38.902476166666666, "lon": -77.017967, "fusion_lat": 0.0}, {"is_reserved": 0, "bike_id": "0784c9148ca447224345173cfa340d2d", "type": "electric_scooter", "name": "0784c9148ca447224345173cfa340d2d", "is_disabled": 0, "fusion_lon": 0.0, "rental_uris": {"android": "https://dc.lft.to/lastmile_qr_scan", "ios": "https://dc.lft.to/lastmile_qr_scan"}, "lat": 38.92674516666666, "lon": -77.078343, "fusion_lat": 0.0}, {"is_reserved": 0, "bike_id": "ae33255543bb14d320a74c521dfa9263", "type": "electric_scooter", "name": "ae33255543bb14d320a74c521dfa9263", "is_disabled": 0, "fusion_lon": 0.0, "rental_uris": {"android": "https://dc.lft.to/lastmile_qr_scan", "ios": "https://dc.lft.to/lastmile_qr_scan"}, "lat": 38.887173, "lon": -77.021809, "fusion_lat": 0.0}, {"is_reserved": 0, "bike_id": "a9ea22d540b1f84d4cdce326dec3f9c1", "type": "electric_scooter", "name": "a9ea22d540b1f84d4cdce326dec3f9c1", "is_disabled": 0, "fusion_lon": 0.0, "rental_uris": {"android": "https://dc.lft.to/lastmile_qr_scan", "ios": "https://dc.lft.to/lastmile_qr_scan"}, "lat": 38.91571016666666, "lon": -77.0318935, "fusion_lat": 0.0}, {"is_reserved": 0, "bike_id": "24efc7d272d0262afcf47b0b4f149d25", "type": "electric_scooter", "name": "24efc7d272d0262afcf47b0b4f149d25", "is_disabled": 0, "fusion_lon": 0.0, "rental_uris": {"android": "https://dc.lft.to/lastmile_qr_scan", "ios": "https://dc.lft.to/lastmile_qr_scan"}, "lat": 38.9223105, "lon": -77.023348, "fusion_lat": 0.0}, {"is_reserved": 0, "bike_id": "51d2545e45d16847404df053c3f91673", "type": "electric_scooter", "name": "51d2545e45d16847404df053c3f91673", "is_disabled": 0, "fusion_lon": 0.0, "rental_uris": {"android": "https://dc.lft.to/lastmile_qr_scan", "ios": "https://dc.lft.to/lastmile_qr_scan"}, "lat": 38.900809333333335, "lon": -77.05032533333333, "fusion_lat": 0.0}, {"is_reserved": 0, "bike_id": "62370ea511eb3a8c8ff0919c1c382f0e", "type": "electric_scooter", "name": "62370ea511eb3a8c8ff0919c1c382f0e", "is_disabled": 0, "fusion_lon": 0.0, "rental_uris": {"android": "https://dc.lft.to/lastmile_qr_scan", "ios": "https://dc.lft.to/lastmile_qr_scan"}, "lat": 38.907020833333334, "lon": -76.98698916666666, "fusion_lat": 0.0}, {"is_reserved": 0, "bike_id": "e043eac08faf2b8963c5ad0605bee676", "type": "electric_scooter", "name": "e043eac08faf2b8963c5ad0605bee676", "is_disabled": 0, "fusion_lon": 0.0, "rental_uris": {"android": "https://dc.lft.to/lastmile_qr_scan", "ios": "https://dc.lft.to/lastmile_qr_scan"}, "lat": 38.91050216666667, "lon": -77.06462516666667, "fusion_lat": 0.0}, {"is_reserved": 0, "bike_id": "34e896e549a8eb347d5154b98eac635b", "type": "electric_scooter", "name": "34e896e549a8eb347d5154b98eac635b", "is_disabled": 0, "fusion_lon": 0.0, "rental_uris": {"android": "https://dc.lft.to/lastmile_qr_scan", "ios": "https://dc.lft.to/lastmile_qr_scan"}, "lat": 38.92760583333333, "lon": -77.03657133333333, "fusion_lat": 0.0}, {"is_reserved": 0, "bike_id": "351a411ce03fd702155a698d07d4381c", "type": "electric_scooter", "name": "351a411ce03fd702155a698d07d4381c", "is_disabled": 0, "fusion_lon": 0.0, "rental_uris": {"android": "https://dc.lft.to/lastmile_qr_scan", "ios": "https://dc.lft.to/lastmile_qr_scan"}, "lat": 38.92242516666666, "lon": -77.03900183333333, "fusion_lat": 0.0}, {"is_reserved": 0, "bike_id": "9b0ba9afacd3a13346c64f6a26db5f89", "type": "electric_bike", "name": "9b0ba9afacd3a13346c64f6a26db5f89", "is_disabled": 0, "fusion_lon": 0.0, "rental_uris": {"android": "https://dc.lft.to/lastmile_qr_scan", "ios": "https://dc.lft.to/lastmile_qr_scan"}, "lat": 38.881352, "lon": -76.9811115, "fusion_lat": 0.0}, {"is_reserved": 0, "bike_id": "4d81a7b9cd2ff00c99f379ed5d86250e", "type": "electric_scooter", "name": "4d81a7b9cd2ff00c99f379ed5d86250e", "is_disabled": 0, "fusion_lon": 0.0, "rental_uris": {"android": "https://dc.lft.to/lastmile_qr_scan", "ios": "https://dc.lft.to/lastmile_qr_scan"}, "lat": 38.93028983333333, "lon": -77.02635133333334, "fusion_lat": 0.0}, {"is_reserved": 0, "bike_id": "c4f1acaaf5c384751b53d4d871b4b95f", "type": "electric_scooter", "name": "c4f1acaaf5c384751b53d4d871b4b95f", "is_disabled": 0, "fusion_lon": 0.0, "rental_uris": {"android": "https://dc.lft.to/lastmile_qr_scan", "ios": "https://dc.lft.to/lastmile_qr_scan"}, "lat": 38.92325616666667, "lon": -77.05570733333333, "fusion_lat": 0.0}, {"is_reserved": 0, "bike_id": "709c28804d81fcf002934b2c0589feb7", "type": "electric_scooter", "name": "709c28804d81fcf002934b2c0589feb7", "is_disabled": 0, "fusion_lon": 0.0, "rental_uris": {"android": "https://dc.lft.to/lastmile_qr_scan", "ios": "https://dc.lft.to/lastmile_qr_scan"}, "lat": 38.9244535, "lon": -77.03657783333334, "fusion_lat": 0.0}, {"is_reserved": 0, "bike_id": "3a7544fa037035440fd178b57aea40eb", "type": "electric_scooter", "name": "3a7544fa037035440fd178b57aea40eb", "is_disabled": 0, "fusion_lon": 0.0, "rental_uris": {"android": "https://dc.lft.to/lastmile_qr_scan", "ios": "https://dc.lft.to/lastmile_qr_scan"}, "lat": 38.90784216666667, "lon": -77.07261716666666, "fusion_lat": 0.0}, {"is_reserved": 0, "bike_id": "58c599336e890ef9116c0b4260ced797", "type": "electric_scooter", "name": "58c599336e890ef9116c0b4260ced797", "is_disabled": 0, "fusion_lon": 0.0, "rental_uris": {"android": "https://dc.lft.to/lastmile_qr_scan", "ios": "https://dc.lft.to/lastmile_qr_scan"}, "lat": 38.89043083333333, "lon": -76.9901035, "fusion_lat": 0.0}, {"is_reserved": 0, "bike_id": "15b737dcb512243d9501959c4f60570c", "type": "electric_scooter", "name": "15b737dcb512243d9501959c4f60570c", "is_disabled": 0, "fusion_lon": 0.0, "rental_uris": {"android": "https://dc.lft.to/lastmile_qr_scan", "ios": "https://dc.lft.to/lastmile_qr_scan"}, "lat": 38.89848666666666, "lon": -77.0436365, "fusion_lat": 0.0}, {"is_reserved": 0, "bike_id": "c1a0876c34de24100a4807cbf22f1a79", "type": "electric_bike", "name": "c1a0876c34de24100a4807cbf22f1a79", "is_disabled": 0, "fusion_lon": 0.0, "rental_uris": {"android": "https://dc.lft.to/lastmile_qr_scan", "ios": "https://dc.lft.to/lastmile_qr_scan"}, "lat": 38.93274266666667, "lon": -77.06564766666666, "fusion_lat": 0.0}, {"is_reserved": 0, "bike_id": "f0afe9e3131db2a9880c00945b8bd9d7", "type": "electric_bike", "name": "f0afe9e3131db2a9880c00945b8bd9d7", "is_disabled": 0, "fusion_lon": 0.0, "rental_uris": {"android": "https://dc.lft.to/lastmile_qr_scan", "ios": "https://dc.lft.to/lastmile_qr_scan"}, "lat": 38.9587905, "lon": -77.01022783333333, "fusion_lat": 0.0}, {"is_reserved": 0, "bike_id": "2187d2d85ab57e83b8ebef64e6155e6a", "type": "electric_scooter", "name": "2187d2d85ab57e83b8ebef64e6155e6a", "is_disabled": 0, "fusion_lon": 0.0, "rental_uris": {"android": "https://dc.lft.to/lastmile_qr_scan", "ios": "https://dc.lft.to/lastmile_qr_scan"}, "lat": 38.92656233333334, "lon": -77.0227785, "fusion_lat": 0.0}, {"is_reserved": 0, "bike_id": "da5ecb0c06193de3ea6256e905378e56", "type": "electric_scooter", "name": "da5ecb0c06193de3ea6256e905378e56", "is_disabled": 0, "fusion_lon": 0.0, "rental_uris": {"android": "https://dc.lft.to/lastmile_qr_scan", "ios": "https://dc.lft.to/lastmile_qr_scan"}, "lat": 38.927884166666665, "lon": -77.03151316666667, "fusion_lat": 0.0}, {"is_reserved": 0, "bike_id": "44fc53ebf666cd29a72bbd66bc14b38a", "type": "electric_scooter", "name": "44fc53ebf666cd29a72bbd66bc14b38a", "is_disabled": 0, "fusion_lon": 0.0, "rental_uris": {"android": "https://dc.lft.to/lastmile_qr_scan", "ios": "https://dc.lft.to/lastmile_qr_scan"}, "lat": 38.9166795, "lon": -77.0220275, "fusion_lat": 0.0}, {"is_reserved": 0, "bike_id": "d08306b5a7a9860c38f9b53b5cbc4e23", "type": "electric_scooter", "name": "d08306b5a7a9860c38f9b53b5cbc4e23", "is_disabled": 0, "fusion_lon": 0.0, "rental_uris": {"android": "https://dc.lft.to/lastmile_qr_scan", "ios": "https://dc.lft.to/lastmile_qr_scan"}, "lat": 38.90264066666667, "lon": -76.99848483333334, "fusion_lat": 0.0}, {"is_reserved": 0, "bike_id": "f98db33088f71f1912eb09edabe0b50b", "type": "electric_scooter", "name": "f98db33088f71f1912eb09edabe0b50b", "is_disabled": 0, "fusion_lon": 0.0, "rental_uris": {"android": "https://dc.lft.to/lastmile_qr_scan", "ios": "https://dc.lft.to/lastmile_qr_scan"}, "lat": 38.894983333333336, "lon": -77.02300216666667, "fusion_lat": 0.0}, {"is_reserved": 0, "bike_id": "2c530b9c8033edab527704b6c4da08ab", "type": "electric_scooter", "name": "2c530b9c8033edab527704b6c4da08ab", "is_disabled": 0, "fusion_lon": 0.0, "rental_uris": {"android": "https://dc.lft.to/lastmile_qr_scan", "ios": "https://dc.lft.to/lastmile_qr_scan"}, "lat": 38.91208816666666, "lon": -77.04249933333334, "fusion_lat": 0.0}, {"is_reserved": 0, "bike_id": "8a8d697afe3c51dfdc2b66e0bcf34036", "type": "electric_scooter", "name": "8a8d697afe3c51dfdc2b66e0bcf34036", "is_disabled": 0, "fusion_lon": 0.0, "rental_uris": {"android": "https://dc.lft.to/lastmile_qr_scan", "ios": "https://dc.lft.to/lastmile_qr_scan"}, "lat": 38.90983383333333, "lon": -77.00889083333334, "fusion_lat": 0.0}, {"is_reserved": 0, "bike_id": "813ee03ff90a67eecf009ddd7b5f081c", "type": "electric_bike", "name": "813ee03ff90a67eecf009ddd7b5f081c", "is_disabled": 0, "fusion_lon": 0.0, "rental_uris": {"android": "https://dc.lft.to/lastmile_qr_scan", "ios": "https://dc.lft.to/lastmile_qr_scan"}, "lat": 38.95217983333333, "lon": -77.09664983333333, "fusion_lat": 0.0}, {"is_reserved": 0, "bike_id": "e81c2cfe43685d32ff5526b03ac931dc", "type": "electric_scooter", "name": "e81c2cfe43685d32ff5526b03ac931dc", "is_disabled": 0, "fusion_lon": 0.0, "rental_uris": {"android": "https://dc.lft.to/lastmile_qr_scan", "ios": "https://dc.lft.to/lastmile_qr_scan"}, "lat": 38.89852366666667, "lon": -77.02860716666666, "fusion_lat": 0.0}, {"is_reserved": 0, "bike_id": "b11432b16b9dc487f8efb7c9d4f5b9a6", "type": "electric_scooter", "name": "b11432b16b9dc487f8efb7c9d4f5b9a6", "is_disabled": 0, "fusion_lon": 0.0, "rental_uris": {"android": "https://dc.lft.to/lastmile_qr_scan", "ios": "https://dc.lft.to/lastmile_qr_scan"}, "lat": 38.90040116666667, "lon": -77.00192783333334, "fusion_lat": 0.0}, {"is_reserved": 0, "bike_id": "609d69c98e2957b756be26655f077f37", "type": "electric_scooter", "name": "609d69c98e2957b756be26655f077f37", "is_disabled": 0, "fusion_lon": 0.0, "rental_uris": {"android": "https://dc.lft.to/lastmile_qr_scan", "ios": "https://dc.lft.to/lastmile_qr_scan"}, "lat": 38.9066185, "lon": -77.04613966666666, "fusion_lat": 0.0}, {"is_reserved": 0, "bike_id": "e85a3489f3f39f2231b3b3903c74917b", "type": "electric_scooter", "name": "e85a3489f3f39f2231b3b3903c74917b", "is_disabled": 0, "fusion_lon": 0.0, "rental_uris": {"android": "https://dc.lft.to/lastmile_qr_scan", "ios": "https://dc.lft.to/lastmile_qr_scan"}, "lat": 38.92420083333333, "lon": -77.01947333333334, "fusion_lat": 0.0}, {"is_reserved": 0, "bike_id": "632bab08198a8b73c86e022fdd7f2129", "type": "electric_scooter", "name": "632bab08198a8b73c86e022fdd7f2129", "is_disabled": 0, "fusion_lon": 0.0, "rental_uris": {"android": "https://dc.lft.to/lastmile_qr_scan", "ios": "https://dc.lft.to/lastmile_qr_scan"}, "lat": 38.924796666666666, "lon": -77.02234683333333, "fusion_lat": 0.0}, {"is_reserved": 0, "bike_id": "0c2140e86e3e7617d2db9c5eb9948d7d", "type": "electric_scooter", "name": "0c2140e86e3e7617d2db9c5eb9948d7d", "is_disabled": 0, "fusion_lon": 0.0, "rental_uris": {"android": "https://dc.lft.to/lastmile_qr_scan", "ios": "https://dc.lft.to/lastmile_qr_scan"}, "lat": 38.918779, "lon": -77.00923566666667, "fusion_lat": 0.0}, {"is_reserved": 0, "bike_id": "0edf2b09581a6cb0d7049cce4484f7ee", "type": "electric_scooter", "name": "0edf2b09581a6cb0d7049cce4484f7ee", "is_disabled": 0, "fusion_lon": 0.0, "rental_uris": {"android": "https://dc.lft.to/lastmile_qr_scan", "ios": "https://dc.lft.to/lastmile_qr_scan"}, "lat": 38.917636, "lon": -77.027113, "fusion_lat": 0.0}, {"is_reserved": 0, "bike_id": "2ef65303d89264e8aa720e8af8f228a1", "type": "electric_scooter", "name": "2ef65303d89264e8aa720e8af8f228a1", "is_disabled": 0, "fusion_lon": 0.0, "rental_uris": {"android": "https://dc.lft.to/lastmile_qr_scan", "ios": "https://dc.lft.to/lastmile_qr_scan"}, "lat": 38.92371966666666, "lon": -77.0253395, "fusion_lat": 0.0}, {"is_reserved": 0, "bike_id": "04babb0fe8077455a17e36944169d9d2", "type": "electric_bike", "name": "04babb0fe8077455a17e36944169d9d2", "is_disabled": 0, "fusion_lon": 0.0, "rental_uris": {"android": "https://dc.lft.to/lastmile_qr_scan", "ios": "https://dc.lft.to/lastmile_qr_scan"}, "lat": 38.974431833333334, "lon": -77.09622016666667, "fusion_lat": 0.0}, {"is_reserved": 0, "bike_id": "9c7bbbfdfd19f0b7e847d68a76327d8d", "type": "electric_scooter", "name": "9c7bbbfdfd19f0b7e847d68a76327d8d", "is_disabled": 0, "fusion_lon": 0.0, "rental_uris": {"android": "https://dc.lft.to/lastmile_qr_scan", "ios": "https://dc.lft.to/lastmile_qr_scan"}, "lat": 38.92148666666667, "lon": -77.03872683333333, "fusion_lat": 0.0}, {"is_reserved": 0, "bike_id": "a9893fa5b5afff458f21afdde6f40138", "type": "electric_bike", "name": "a9893fa5b5afff458f21afdde6f40138", "is_disabled": 0, "fusion_lon": 0.0, "rental_uris": {"android": "https://dc.lft.to/lastmile_qr_scan", "ios": "https://dc.lft.to/lastmile_qr_scan"}, "lat": 38.9417025, "lon": -76.9535135, "fusion_lat": 0.0}, {"is_reserved": 0, "bike_id": "2b96b2676ed294378183c9f14f78a3e2", "type": "electric_scooter", "name": "2b96b2676ed294378183c9f14f78a3e2", "is_disabled": 0, "fusion_lon": 0.0, "rental_uris": {"android": "https://dc.lft.to/lastmile_qr_scan", "ios": "https://dc.lft.to/lastmile_qr_scan"}, "lat": 38.93033283333333, "lon": -77.0573895, "fusion_lat": 0.0}, {"is_reserved": 0, "bike_id": "120308d00baedff9eca081d975fb72c6", "type": "electric_scooter", "name": "120308d00baedff9eca081d975fb72c6", "is_disabled": 0, "fusion_lon": 0.0, "rental_uris": {"android": "https://dc.lft.to/lastmile_qr_scan", "ios": "https://dc.lft.to/lastmile_qr_scan"}, "lat": 38.9262555, "lon": -77.022698, "fusion_lat": 0.0}, {"is_reserved": 0, "bike_id": "c100602d596ea3aeb980641ac1e5176f", "type": "electric_scooter", "name": "c100602d596ea3aeb980641ac1e5176f", "is_disabled": 0, "fusion_lon": 0.0, "rental_uris": {"android": "https://dc.lft.to/lastmile_qr_scan", "ios": "https://dc.lft.to/lastmile_qr_scan"}, "lat": 38.878962, "lon": -77.013889, "fusion_lat": 0.0}, {"is_reserved": 0, "bike_id": "0f7bd9efb4471082f01d748acfcd1dd2", "type": "electric_scooter", "name": "0f7bd9efb4471082f01d748acfcd1dd2", "is_disabled": 0, "fusion_lon": 0.0, "rental_uris": {"android": "https://dc.lft.to/lastmile_qr_scan", "ios": "https://dc.lft.to/lastmile_qr_scan"}, "lat": 38.919374, "lon": -77.01804016666667, "fusion_lat": 0.0}, {"is_reserved": 0, "bike_id": "6d644bca7f7c7f709955e3234df111df", "type": "electric_scooter", "name": "6d644bca7f7c7f709955e3234df111df", "is_disabled": 0, "fusion_lon": 0.0, "rental_uris": {"android": "https://dc.lft.to/lastmile_qr_scan", "ios": "https://dc.lft.to/lastmile_qr_scan"}, "lat": 38.87608766666666, "lon": -77.02083533333334, "fusion_lat": 0.0}, {"is_reserved": 0, "bike_id": "62d3bb49f71e21b9dcae4ae9411205c5", "type": "electric_bike", "name": "62d3bb49f71e21b9dcae4ae9411205c5", "is_disabled": 0, "fusion_lon": 0.0, "rental_uris": {"android": "https://dc.lft.to/lastmile_qr_scan", "ios": "https://dc.lft.to/lastmile_qr_scan"}, "lat": 38.86486166666667, "lon": -76.97741083333334, "fusion_lat": 0.0}, {"is_reserved": 0, "bike_id": "d6644755b1ca66e7da4bdbc1b43aae81", "type": "electric_scooter", "name": "d6644755b1ca66e7da4bdbc1b43aae81", "is_disabled": 0, "fusion_lon": 0.0, "rental_uris": {"android": "https://dc.lft.to/lastmile_qr_scan", "ios": "https://dc.lft.to/lastmile_qr_scan"}, "lat": 38.88430816666666, "lon": -77.00135266666666, "fusion_lat": 0.0}, {"is_reserved": 0, "bike_id": "3a67f7e65f857029b4cf9960325b2a43", "type": "electric_scooter", "name": "3a67f7e65f857029b4cf9960325b2a43", "is_disabled": 0, "fusion_lon": 0.0, "rental_uris": {"android": "https://dc.lft.to/lastmile_qr_scan", "ios": "https://dc.lft.to/lastmile_qr_scan"}, "lat": 38.9249855, "lon": -77.0525145, "fusion_lat": 0.0}, {"is_reserved": 0, "bike_id": "50c23f611b1bf94d8fb511fd832fde87", "type": "electric_scooter", "name": "50c23f611b1bf94d8fb511fd832fde87", "is_disabled": 0, "fusion_lon": 0.0, "rental_uris": {"android": "https://dc.lft.to/lastmile_qr_scan", "ios": "https://dc.lft.to/lastmile_qr_scan"}, "lat": 38.903084666666665, "lon": -77.0364525, "fusion_lat": 0.0}, {"is_reserved": 0, "bike_id": "5550b401c298bbdc67f33405c2057aa8", "type": "electric_scooter", "name": "5550b401c298bbdc67f33405c2057aa8", "is_disabled": 0, "fusion_lon": 0.0, "rental_uris": {"android": "https://dc.lft.to/lastmile_qr_scan", "ios": "https://dc.lft.to/lastmile_qr_scan"}, "lat": 38.89169166666667, "lon": -76.99145816666666, "fusion_lat": 0.0}, {"is_reserved": 0, "bike_id": "26ebd5bf725236065758810a931b9242", "type": "electric_scooter", "name": "26ebd5bf725236065758810a931b9242", "is_disabled": 0, "fusion_lon": 0.0, "rental_uris": {"android": "https://dc.lft.to/lastmile_qr_scan", "ios": "https://dc.lft.to/lastmile_qr_scan"}, "lat": 38.9099965, "lon": -77.04009683333334, "fusion_lat": 0.0}, {"is_reserved": 0, "bike_id": "ba8c0711f74519f8b606ca5688e08c0e", "type": "electric_scooter", "name": "ba8c0711f74519f8b606ca5688e08c0e", "is_disabled": 0, "fusion_lon": 0.0, "rental_uris": {"android": "https://dc.lft.to/lastmile_qr_scan", "ios": "https://dc.lft.to/lastmile_qr_scan"}, "lat": 38.89195383333333, "lon": -76.9884065, "fusion_lat": 0.0}, {"is_reserved": 0, "bike_id": "39353658da9a94d28899a3b19157596e", "type": "electric_scooter", "name": "39353658da9a94d28899a3b19157596e", "is_disabled": 0, "fusion_lon": 0.0, "rental_uris": {"android": "https://dc.lft.to/lastmile_qr_scan", "ios": "https://dc.lft.to/lastmile_qr_scan"}, "lat": 38.881168333333335, "lon": -77.01662, "fusion_lat": 0.0}, {"is_reserved": 0, "bike_id": "403a50462291d828e58a6aba6bd71762", "type": "electric_scooter", "name": "403a50462291d828e58a6aba6bd71762", "is_disabled": 0, "fusion_lon": 0.0, "rental_uris": {"android": "https://dc.lft.to/lastmile_qr_scan", "ios": "https://dc.lft.to/lastmile_qr_scan"}, "lat": 38.938272833333336, "lon": -76.98615933333333, "fusion_lat": 0.0}, {"is_reserved": 0, "bike_id": "825ce6ab4ab0ed392ac89926e5d934a5", "type": "electric_scooter", "name": "825ce6ab4ab0ed392ac89926e5d934a5", "is_disabled": 0, "fusion_lon": 0.0, "rental_uris": {"android": "https://dc.lft.to/lastmile_qr_scan", "ios": "https://dc.lft.to/lastmile_qr_scan"}, "lat": 38.97493266666667, "lon": -77.01723183333333, "fusion_lat": 0.0}, {"is_reserved": 0, "bike_id": "3535e30ae6112c71a5be4319b504dd8d", "type": "electric_scooter", "name": "3535e30ae6112c71a5be4319b504dd8d", "is_disabled": 0, "fusion_lon": 0.0, "rental_uris": {"android": "https://dc.lft.to/lastmile_qr_scan", "ios": "https://dc.lft.to/lastmile_qr_scan"}, "lat": 38.909569166666664, "lon": -77.01278, "fusion_lat": 0.0}, {"is_reserved": 0, "bike_id": "b4175a243b6653f488dd46c0669d2a9e", "type": "electric_scooter", "name": "b4175a243b6653f488dd46c0669d2a9e", "is_disabled": 0, "fusion_lon": 0.0, "rental_uris": {"android": "https://dc.lft.to/lastmile_qr_scan", "ios": "https://dc.lft.to/lastmile_qr_scan"}, "lat": 38.89824766666667, "lon": -77.044777, "fusion_lat": 0.0}, {"is_reserved": 0, "bike_id": "fc155c4e9ec1ec64518227779e71b208", "type": "electric_bike", "name": "fc155c4e9ec1ec64518227779e71b208", "is_disabled": 0, "fusion_lon": 0.0, "rental_uris": {"android": "https://dc.lft.to/lastmile_qr_scan", "ios": "https://dc.lft.to/lastmile_qr_scan"}, "lat": 38.92479933333333, "lon": -77.03759066666667, "fusion_lat": 0.0}, {"is_reserved": 0, "bike_id": "6964098f835969745239135b0db1b004", "type": "electric_scooter", "name": "6964098f835969745239135b0db1b004", "is_disabled": 0, "fusion_lon": 0.0, "rental_uris": {"android": "https://dc.lft.to/lastmile_qr_scan", "ios": "https://dc.lft.to/lastmile_qr_scan"}, "lat": 38.93807266666666, "lon": -76.99226966666667, "fusion_lat": 0.0}, {"is_reserved": 0, "bike_id": "dcbc1f736301d4e0b5b0cced03462815", "type": "electric_scooter", "name": "dcbc1f736301d4e0b5b0cced03462815", "is_disabled": 0, "fusion_lon": 0.0, "rental_uris": {"android": "https://dc.lft.to/lastmile_qr_scan", "ios": "https://dc.lft.to/lastmile_qr_scan"}, "lat": 38.91690333333333, "lon": -77.03123633333334, "fusion_lat": 0.0}, {"is_reserved": 0, "bike_id": "cb61c1ac5645e79e450059ed04653557", "type": "electric_scooter", "name": "cb61c1ac5645e79e450059ed04653557", "is_disabled": 0, "fusion_lon": 0.0, "rental_uris": {"android": "https://dc.lft.to/lastmile_qr_scan", "ios": "https://dc.lft.to/lastmile_qr_scan"}, "lat": 38.91251333333334, "lon": -77.007676, "fusion_lat": 0.0}, {"is_reserved": 0, "bike_id": "eeae40f202cb1b0124ce2f0885b37a72", "type": "electric_scooter", "name": "eeae40f202cb1b0124ce2f0885b37a72", "is_disabled": 0, "fusion_lon": 0.0, "rental_uris": {"android": "https://dc.lft.to/lastmile_qr_scan", "ios": "https://dc.lft.to/lastmile_qr_scan"}, "lat": 38.918342, "lon": -77.02298816666666, "fusion_lat": 0.0}, {"is_reserved": 0, "bike_id": "781455fcdef1da1593355b8d5ea86348", "type": "electric_scooter", "name": "781455fcdef1da1593355b8d5ea86348", "is_disabled": 0, "fusion_lon": 0.0, "rental_uris": {"android": "https://dc.lft.to/lastmile_qr_scan", "ios": "https://dc.lft.to/lastmile_qr_scan"}, "lat": 38.914169333333334, "lon": -77.022352, "fusion_lat": 0.0}, {"is_reserved": 0, "bike_id": "ff9b9f34f7c835783a61edd75c0b61ab", "type": "electric_scooter", "name": "ff9b9f34f7c835783a61edd75c0b61ab", "is_disabled": 0, "fusion_lon": 0.0, "rental_uris": {"android": "https://dc.lft.to/lastmile_qr_scan", "ios": "https://dc.lft.to/lastmile_qr_scan"}, "lat": 38.9206785, "lon": -77.07162466666666, "fusion_lat": 0.0}, {"is_reserved": 0, "bike_id": "258a4c5d92177d8d879b7dbe42f25d0b", "type": "electric_scooter", "name": "258a4c5d92177d8d879b7dbe42f25d0b", "is_disabled": 0, "fusion_lon": 0.0, "rental_uris": {"android": "https://dc.lft.to/lastmile_qr_scan", "ios": "https://dc.lft.to/lastmile_qr_scan"}, "lat": 38.90054166666667, "lon": -77.02617216666667, "fusion_lat": 0.0}, {"is_reserved": 0, "bike_id": "c3c763fa694c26d430f1448e8d3ad842", "type": "electric_scooter", "name": "c3c763fa694c26d430f1448e8d3ad842", "is_disabled": 0, "fusion_lon": 0.0, "rental_uris": {"android": "https://dc.lft.to/lastmile_qr_scan", "ios": "https://dc.lft.to/lastmile_qr_scan"}, "lat": 38.916442, "lon": -77.02878316666667, "fusion_lat": 0.0}, {"is_reserved": 0, "bike_id": "88fe2436a3b64b42c3329258dc5004b6", "type": "electric_bike", "name": "88fe2436a3b64b42c3329258dc5004b6", "is_disabled": 0, "fusion_lon": 0.0, "rental_uris": {"android": "https://dc.lft.to/lastmile_qr_scan", "ios": "https://dc.lft.to/lastmile_qr_scan"},