{"data": {"bikes": [{"lon": -76.982216, "bike_id": "f0c4412e2761937897730835114ad6ef", "lat": 38.892360833333335, "fusion_lon": 0.0, "fusion_lat": 0.0, "type": "electric_scooter", "name": "f0c4412e2761937897730835114ad6ef", "is_disabled": 0, "rental_uris": {"ios": "https://dc.lft.to/lastmile_qr_scan", "android": "https://dc.lft.to/lastmile_qr_scan"}, "is_reserved": 0}, {"lon": -77.00765283333334, "bike_id": "581fcfb7d798575f82e490aae3792571", "lat": 38.953358, "fusion_lon": 0.0, "fusion_lat": 0.0, "type": "electric_scooter", "name": "581fcfb7d798575f82e490aae3792571", "is_disabled": 0, "rental_uris": {"ios": "https://dc.lft.to/lastmile_qr_scan", "android": "https://dc.lft.to/lastmile_qr_scan"}, "is_reserved": 0}, {"lon": -77.0298145, "bike_id": "f8b88a77cb982220ddb3e6cc934b90c5", "lat": 38.921959333333334, "fusion_lon": 0.0, "fusion_lat": 0.0, "type": "electric_scooter", "name": "f8b88a77cb982220ddb3e6cc934b90c5", "is_disabled": 0, "rental_uris": {"ios": "https://dc.lft.to/lastmile_qr_scan", "android": "https://dc.lft.to/lastmile_qr_scan"}, "is_reserved": 0}, {"lon": -76.995492, "bike_id": "a6c5046b373c1605c8dbdde5f52317c0", "lat": 38.86256183333333, "fusion_lon": 0.0, "fusion_lat": 0.0, "type": "electric_scooter", "name": "a6c5046b373c1605c8dbdde5f52317c0", "is_disabled": 0, "rental_uris": {"ios": "https://dc.lft.to/lastmile_qr_scan", "android": "https://dc.lft.to/lastmile_qr_scan"}, "is_reserved": 0}, {"lon": -77.029842, "bike_id": "51771440c3dd6a8d39eedf5fdd419c58", "lat": 38.927698, "fusion_lon": 0.0, "fusion_lat": 0.0, "type": "electric_scooter", "name": "51771440c3dd6a8d39eedf5fdd419c58", "is_disabled": 0, "rental_uris": {"ios": "https://dc.lft.to/lastmile_qr_scan", "android": "https://dc.lft.to/lastmile_qr_scan"}, "is_reserved": 0}, {"lon": -77.02700883333333, "bike_id": "1554d195743c478f89f965594842db8f", "lat": 38.897899333333335, "fusion_lon": 0.0, "fusion_lat": 0.0, "type": "electric_scooter", "name": "1554d195743c478f89f965594842db8f", "is_disabled": 0, "rental_uris": {"ios": "https://dc.lft.to/lastmile_qr_scan", "android": "https://dc.lft.to/lastmile_qr_scan"}, "is_reserved": 0}, {"lon": -77.02699016666666, "bike_id": "c5c331ea09ef2992e36b49f6c8acc8de", "lat": 38.91291283333333, "fusion_lon": 0.0, "fusion_lat": 0.0, "type": "electric_scooter", "name": "c5c331ea09ef2992e36b49f6c8acc8de", "is_disabled": 0, "rental_uris": {"ios": "https://dc.lft.to/lastmile_qr_scan", "android": "https://dc.lft.to/lastmile_qr_scan"}, "is_reserved": 0}, {"lon": -77.04548216666667, "bike_id": "f7e2c1d8ad1b872642958eb1b84f8767", "lat": 38.909726, "fusion_lon": 0.0, "fusion_lat": 0.0, "type": "electric_scooter", "name": "f7e2c1d8ad1b872642958eb1b84f8767", "is_disabled": 0, "rental_uris": {"ios": "https://dc.lft.to/lastmile_qr_scan", "android": "https://dc.lft.to/lastmile_qr_scan"}, "is_reserved": 0}, {"lon": -77.01877633333334, "bike_id": "ca9c85192ec8539773ab13c077242211", "lat": 38.914125, "fusion_lon": 0.0, "fusion_lat": 0.0, "type": "electric_scooter", "name": "ca9c85192ec8539773ab13c077242211", "is_disabled": 0, "rental_uris": {"ios": "https://dc.lft.to/lastmile_qr_scan", "android": "https://dc.lft.to/lastmile_qr_scan"}, "is_reserved": 0}, {"lon": -77.032456, "bike_id": "217bfb74b5345819299df67c3e77da79", "lat": 38.9386325, "fusion_lon": 0.0, "fusion_lat": 0.0, "type": "electric_scooter", "name": "217bfb74b5345819299df67c3e77da79", "is_disabled": 0, "rental_uris": {"ios": "https://dc.lft.to/lastmile_qr_scan", "android": "https://dc.lft.to/lastmile_qr_scan"}, "is_reserved": 0}, {"lon": -77.02954133333333, "bike_id": "0bf908c2b25f81a1c5557057bd587d13", "lat": 38.896840833333336, "fusion_lon": 0.0, "fusion_lat": 0.0, "type": "electric_scooter", "name": "0bf908c2b25f81a1c5557057bd587d13", "is_disabled": 0, "rental_uris": {"ios": "https://dc.lft.to/lastmile_qr_scan", "android": "https://dc.lft.to/lastmile_qr_scan"}, "is_reserved": 0}, {"lon": -76.96096883333334, "bike_id": "a49b610b96deca5e5653f0f1c819e927", "lat": 38.94964266666667, "fusion_lon": 0.0, "fusion_lat": 0.0, "type": "electric_bike", "name": "a49b610b96deca5e5653f0f1c819e927", "is_disabled": 0, "rental_uris": {"ios": "https://dc.lft.to/lastmile_qr_scan", "android": "https://dc.lft.to/lastmile_qr_scan"}, "is_reserved": 0}, {"lon": -77.02157183333334, "bike_id": "7b2d3d6bd739bc83ae727a7e5cdc485a", "lat": 38.926030833333336, "fusion_lon": 0.0, "fusion_lat": 0.0, "type": "electric_scooter", "name": "7b2d3d6bd739bc83ae727a7e5cdc485a", "is_disabled": 0, "rental_uris": {"ios": "https://dc.lft.to/lastmile_qr_scan", "android": "https://dc.lft.to/lastmile_qr_scan"}, "is_reserved": 0}, {"lon": -77.03396983333333, "bike_id": "96aeaf9ca36dc31dea062aa65dc45252", "lat": 38.899883833333334, "fusion_lon": 0.0, "fusion_lat": 0.0, "type": "electric_scooter", "name": "96aeaf9ca36dc31dea062aa65dc45252", "is_disabled": 0, "rental_uris": {"ios": "https://dc.lft.to/lastmile_qr_scan", "android": "https://dc.lft.to/lastmile_qr_scan"}, "is_reserved": 0}, {"lon": -77.01740616666666, "bike_id": "c5a751a9addd6331ddf69fc36b7f2f50", "lat": 38.975163333333334, "fusion_lon": 0.0, "fusion_lat": 0.0, "type": "electric_scooter", "name": "c5a751a9addd6331ddf69fc36b7f2f50", "is_disabled": 0, "rental_uris": {"ios": "https://dc.lft.to/lastmile_qr_scan", "android": "https://dc.lft.to/lastmile_qr_scan"}, "is_reserved": 0}, {"lon": -77.04085033333334, "bike_id": "3cea218ee06b7725e7a16f400be25826", "lat": 38.9171425, "fusion_lon": 0.0, "fusion_lat": 0.0, "type": "electric_scooter", "name": "3cea218ee06b7725e7a16f400be25826", "is_disabled": 0, "rental_uris": {"ios": "https://dc.lft.to/lastmile_qr_scan", "android": "https://dc.lft.to/lastmile_qr_scan"}, "is_reserved": 0}, {"lon": -76.96064933333334, "bike_id": "bfe8b35317766f9a0080c0f8a7b73067", "lat": 38.88404716666667, "fusion_lon": 0.0, "fusion_lat": 0.0, "type": "electric_bike", "name": "bfe8b35317766f9a0080c0f8a7b73067", "is_disabled": 0, "rental_uris": {"ios": "https://dc.lft.to/lastmile_qr_scan", "android": "https://dc.lft.to/lastmile_qr_scan"}, "is_reserved": 0}, {"lon": -77.03713933333333, "bike_id": "fa63cb3e8adce2590ec738b5097c64fd", "lat": 38.92632616666667, "fusion_lon": 0.0, "fusion_lat": 0.0, "type": "electric_scooter", "name": "fa63cb3e8adce2590ec738b5097c64fd", "is_disabled": 0, "rental_uris": {"ios": "https://dc.lft.to/lastmile_qr_scan", "android": "https://dc.lft.to/lastmile_qr_scan"}, "is_reserved": 0}, {"lon": -77.04224216666667, "bike_id": "e1c12c5af75976857b8f35afcdd4cdab", "lat": 38.92108016666667, "fusion_lon": 0.0, "fusion_lat": 0.0, "type": "electric_scooter", "name": "e1c12c5af75976857b8f35afcdd4cdab", "is_disabled": 0, "rental_uris": {"ios": "https://dc.lft.to/lastmile_qr_scan", "android": "https://dc.lft.to/lastmile_qr_scan"}, "is_reserved": 0}, {"lon": -76.97650366666667, "bike_id": "b7d8d380cb11f2584401082d2f0e0a91", "lat": 38.887769, "fusion_lon": 0.0, "fusion_lat": 0.0, "type": "electric_scooter", "name": "b7d8d380cb11f2584401082d2f0e0a91", "is_disabled": 0, "rental_uris": {"ios": "https://dc.lft.to/lastmile_qr_scan", "android": "https://dc.lft.to/lastmile_qr_scan"}, "is_reserved": 0}, {"lon": -77.045899, "bike_id": "99c1321439da45b02a21d7631bcb31a8", "lat": 38.90240583333333, "fusion_lon": 0.0, "fusion_lat": 0.0, "type": "electric_scooter", "name": "99c1321439da45b02a21d7631bcb31a8", "is_disabled": 0, "rental_uris": {"ios": "https://dc.lft.to/lastmile_qr_scan", "android": "https://dc.lft.to/lastmile_qr_scan"}, "is_reserved": 0}, {"lon": -77.0062105, "bike_id": "1c2d8c79a9dd10557e8786c9ebe40520", "lat": 38.908502, "fusion_lon": 0.0, "fusion_lat": 0.0, "type": "electric_scooter", "name": "1c2d8c79a9dd10557e8786c9ebe40520", "is_disabled": 0, "rental_uris": {"ios": "https://dc.lft.to/lastmile_qr_scan", "android": "https://dc.lft.to/lastmile_qr_scan"}, "is_reserved": 0}, {"lon": -77.041552, "bike_id": "e9a5507824a0c56a98b23c91daa528e5", "lat": 38.916949833333334, "fusion_lon": 0.0, "fusion_lat": 0.0, "type": "electric_scooter", "name": "e9a5507824a0c56a98b23c91daa528e5", "is_disabled": 0, "rental_uris": {"ios": "https://dc.lft.to/lastmile_qr_scan", "android": "https://dc.lft.to/lastmile_qr_scan"}, "is_reserved": 0}, {"lon": -77.0321195, "bike_id": "750c7a09f1d981b0f91346113e2cd031", "lat": 38.896517, "fusion_lon": 0.0, "fusion_lat": 0.0, "type": "electric_scooter", "name": "750c7a09f1d981b0f91346113e2cd031", "is_disabled": 0, "rental_uris": {"ios": "https://dc.lft.to/lastmile_qr_scan", "android": "https://dc.lft.to/lastmile_qr_scan"}, "is_reserved": 0}, {"lon": -77.02589466666667, "bike_id": "2f77875759c21e330190d9f3ed7b3999", "lat": 38.91817233333333, "fusion_lon": 0.0, "fusion_lat": 0.0, "type": "electric_scooter", "name": "2f77875759c21e330190d9f3ed7b3999", "is_disabled": 0, "rental_uris": {"ios": "https://dc.lft.to/lastmile_qr_scan", "android": "https://dc.lft.to/lastmile_qr_scan"}, "is_reserved": 0}, {"lon": -77.0201625, "bike_id": "4d63c5d016d52d63ebe120a171578ae4", "lat": 38.894443833333334, "fusion_lon": 0.0, "fusion_lat": 0.0, "type": "electric_scooter", "name": "4d63c5d016d52d63ebe120a171578ae4", "is_disabled": 0, "rental_uris": {"ios": "https://dc.lft.to/lastmile_qr_scan", "android": "https://dc.lft.to/lastmile_qr_scan"}, "is_reserved": 0}, {"lon": -77.117117, "bike_id": "8aa0446147ace6c3fdb0c60cfa6c169d", "lat": 38.867433, "fusion_lon": 0.0, "fusion_lat": 0.0, "type": "electric_bike", "name": "8aa0446147ace6c3fdb0c60cfa6c169d", "is_disabled": 0, "rental_uris": {"ios": "https://dc.lft.to/lastmile_qr_scan", "android": "https://dc.lft.to/lastmile_qr_scan"}, "is_reserved": 0}, {"lon": -77.02308933333333, "bike_id": "acdfd425b711fef46b9ab9d25b5874bb", "lat": 38.89617233333333, "fusion_lon": 0.0, "fusion_lat": 0.0, "type": "electric_scooter", "name": "acdfd425b711fef46b9ab9d25b5874bb", "is_disabled": 0, "rental_uris": {"ios": "https://dc.lft.to/lastmile_qr_scan", "android": "https://dc.lft.to/lastmile_qr_scan"}, "is_reserved": 0}, {"lon": -77.00119233333334, "bike_id": "b0e3752cde1dbeef4f4aea2cf78f0d0c", "lat": 38.874902666666664, "fusion_lon": 0.0, "fusion_lat": 0.0, "type": "electric_scooter", "name": "b0e3752cde1dbeef4f4aea2cf78f0d0c", "is_disabled": 0, "rental_uris": {"ios": "https://dc.lft.to/lastmile_qr_scan", "android": "https://dc.lft.to/lastmile_qr_scan"}, "is_reserved": 0}, {"lon": -77.03862683333334, "bike_id": "d3381fb33e41d974a5fb5a6fb1041b45", "lat": 38.90362833333333, "fusion_lon": 0.0, "fusion_lat": 0.0, "type": "electric_scooter", "name": "d3381fb33e41d974a5fb5a6fb1041b45", "is_disabled": 0, "rental_uris": {"ios": "https://dc.lft.to/lastmile_qr_scan", "android": "https://dc.lft.to/lastmile_qr_scan"}, "is_reserved": 0}, {"lon": -77.06154883333333, "bike_id": "9c5b8da973ed1783d5b8f46eef555966", "lat": 38.90273083333334, "fusion_lon": 0.0, "fusion_lat": 0.0, "type": "electric_scooter", "name": "9c5b8da973ed1783d5b8f46eef555966", "is_disabled": 0, "rental_uris": {"ios": "https://dc.lft.to/lastmile_qr_scan", "android": "https://dc.lft.to/lastmile_qr_scan"}, "is_reserved": 0}, {"lon": -77.04018183333334, "bike_id": "6080b1555e44a0c91332ecc5aac8563e", "lat": 38.91834083333333, "fusion_lon": 0.0, "fusion_lat": 0.0, "type": "electric_scooter", "name": "6080b1555e44a0c91332ecc5aac8563e", "is_disabled": 0, "rental_uris": {"ios": "https://dc.lft.to/lastmile_qr_scan", "android": "https://dc.lft.to/lastmile_qr_scan"}, "is_reserved": 0}, {"lon": -76.98531466666667, "bike_id": "8680b88c24c4e7155bfa0b2c61d114ef", "lat": 38.904587, "fusion_lon": 0.0, "fusion_lat": 0.0, "type": "electric_scooter", "name": "8680b88c24c4e7155bfa0b2c61d114ef", "is_disabled": 0, "rental_uris": {"ios": "https://dc.lft.to/lastmile_qr_scan", "android": "https://dc.lft.to/lastmile_qr_scan"}, "is_reserved": 0}, {"lon": -77.03281383333334, "bike_id": "a2bb5205b7b643b5c6d0aec2bb848891", "lat": 38.928367333333334, "fusion_lon": 0.0, "fusion_lat": 0.0, "type": "electric_scooter", "name": "a2bb5205b7b643b5c6d0aec2bb848891", "is_disabled": 0, "rental_uris": {"ios": "https://dc.lft.to/lastmile_qr_scan", "android": "https://dc.lft.to/lastmile_qr_scan"}, "is_reserved": 0}, {"lon": -77.02415183333333, "bike_id": "47eebed658c8fdd8e2dab28bc259f21e", "lat": 38.920398, "fusion_lon": 0.0, "fusion_lat": 0.0, "type": "electric_scooter", "name": "47eebed658c8fdd8e2dab28bc259f21e", "is_disabled": 0, "rental_uris": {"ios": "https://dc.lft.to/lastmile_qr_scan", "android": "https://dc.lft.to/lastmile_qr_scan"}, "is_reserved": 0}, {"lon": -77.032747, "bike_id": "79b8e75098d49ab34fd85d04eede88e2", "lat": 38.92838233333333, "fusion_lon": 0.0, "fusion_lat": 0.0, "type": "electric_scooter", "name": "79b8e75098d49ab34fd85d04eede88e2", "is_disabled": 0, "rental_uris": {"ios": "https://dc.lft.to/lastmile_qr_scan", "android": "https://dc.lft.to/lastmile_qr_scan"}, "is_reserved": 0}, {"lon": -76.984936, "bike_id": "91329a3c9b2bd7f412fb34f53c61df43", "lat": 38.8793955, "fusion_lon": 0.0, "fusion_lat": 0.0, "type": "electric_bike", "name": "91329a3c9b2bd7f412fb34f53c61df43", "is_disabled": 0, "rental_uris": {"ios": "https://dc.lft.to/lastmile_qr_scan", "android": "https://dc.lft.to/lastmile_qr_scan"}, "is_reserved": 0}, {"lon": -77.06179133333333, "bike_id": "da62cc7595204c174445093d24eb1893", "lat": 38.94311483333333, "fusion_lon": 0.0, "fusion_lat": 0.0, "type": "electric_scooter", "name": "da62cc7595204c174445093d24eb1893", "is_disabled": 0, "rental_uris": {"ios": "https://dc.lft.to/lastmile_qr_scan", "android": "https://dc.lft.to/lastmile_qr_scan"}, "is_reserved": 0}, {"lon": -77.0504235, "bike_id": "6168cd3daf78a4ed4c612c6253ec5bc0", "lat": 38.92362216666667, "fusion_lon": 0.0, "fusion_lat": 0.0, "type": "electric_scooter", "name": "6168cd3daf78a4ed4c612c6253ec5bc0", "is_disabled": 0, "rental_uris": {"ios": "https://dc.lft.to/lastmile_qr_scan", "android": "https://dc.lft.to/lastmile_qr_scan"}, "is_reserved": 0}, {"lon": -77.00723683333334, "bike_id": "6f5e74f6453e757ea8c10581c862420f", "lat": 38.8981965, "fusion_lon": 0.0, "fusion_lat": 0.0, "type": "electric_scooter", "name": "6f5e74f6453e757ea8c10581c862420f", "is_disabled": 0, "rental_uris": {"ios": "https://dc.lft.to/lastmile_qr_scan", "android": "https://dc.lft.to/lastmile_qr_scan"}, "is_reserved": 0}, {"lon": -77.02601833333334, "bike_id": "fbccf69ad8f29b6c7aea4c494d829b19", "lat": 38.8985265, "fusion_lon": 0.0, "fusion_lat": 0.0, "type": "electric_scooter", "name": "fbccf69ad8f29b6c7aea4c494d829b19", "is_disabled": 0, "rental_uris": {"ios": "https://dc.lft.to/lastmile_qr_scan", "android": "https://dc.lft.to/lastmile_qr_scan"}, "is_reserved": 0}, {"lon": -77.02016166666667, "bike_id": "8a434020d3612aff18b60bf711f2207d", "lat": 38.90204466666667, "fusion_lon": 0.0, "fusion_lat": 0.0, "type": "electric_scooter", "name": "8a434020d3612aff18b60bf711f2207d", "is_disabled": 0, "rental_uris": {"ios": "https://dc.lft.to/lastmile_qr_scan", "android": "https://dc.lft.to/lastmile_qr_scan"}, "is_reserved": 0}, {"lon": -77.039633, "bike_id": "32c343d300683efad253dde10ca9ae4f", "lat": 38.91192266666667, "fusion_lon": 0.0, "fusion_lat": 0.0, "type": "electric_scooter", "name": "32c343d300683efad253dde10ca9ae4f", "is_disabled": 0, "rental_uris": {"ios": "https://dc.lft.to/lastmile_qr_scan", "android": "https://dc.lft.to/lastmile_qr_scan"}, "is_reserved": 0}, {"lon": -77.02259566666666, "bike_id": "c4d79262c73d69106b4115d1e86e4c67", "lat": 38.898416833333336, "fusion_lon": 0.0, "fusion_lat": 0.0, "type": "electric_scooter", "name": "c4d79262c73d69106b4115d1e86e4c67", "is_disabled": 0, "rental_uris": {"ios": "https://dc.lft.to/lastmile_qr_scan", "android": "https://dc.lft.to/lastmile_qr_scan"}, "is_reserved": 0}, {"lon": -77.00221133333334, "bike_id": "8410928412c2c813818b0eb01f391eed", "lat": 38.90246833333333, "fusion_lon": 0.0, "fusion_lat": 0.0, "type": "electric_scooter", "name": "8410928412c2c813818b0eb01f391eed", "is_disabled": 0, "rental_uris": {"ios": "https://dc.lft.to/lastmile_qr_scan", "android": "https://dc.lft.to/lastmile_qr_scan"}, "is_reserved": 0}, {"lon": -77.02413316666667, "bike_id": "25d5bb6700b6aaeb568cb7142424675b", "lat": 38.915543, "fusion_lon": 0.0, "fusion_lat": 0.0, "type": "electric_scooter", "name": "25d5bb6700b6aaeb568cb7142424675b", "is_disabled": 0, "rental_uris": {"ios": "https://dc.lft.to/lastmile_qr_scan", "android": "https://dc.lft.to/lastmile_qr_scan"}, "is_reserved": 0}, {"lon": -77.04289766666666, "bike_id": "e0ab0d3f413202673621f5d8f98924e4", "lat": 38.91023933333334, "fusion_lon": 0.0, "fusion_lat": 0.0, "type": "electric_scooter", "name": "e0ab0d3f413202673621f5d8f98924e4", "is_disabled": 0, "rental_uris": {"ios": "https://dc.lft.to/lastmile_qr_scan", "android": "https://dc.lft.to/lastmile_qr_scan"}, "is_reserved": 0}, {"lon": -77.015683, "bike_id": "fa84f2b8bb5ce173867aa9515e72255f", "lat": 38.876315166666664, "fusion_lon": 0.0, "fusion_lat": 0.0, "type": "electric_scooter", "name": "fa84f2b8bb5ce173867aa9515e72255f", "is_disabled": 0, "rental_uris": {"ios": "https://dc.lft.to/lastmile_qr_scan", "android": "https://dc.lft.to/lastmile_qr_scan"}, "is_reserved": 0}, {"lon": -77.01766133333334, "bike_id": "75bbab57a73580ca1fff5e32c336551a", "lat": 38.87218266666667, "fusion_lon": 0.0, "fusion_lat": 0.0, "type": "electric_scooter", "name": "75bbab57a73580ca1fff5e32c336551a", "is_disabled": 0, "rental_uris": {"ios": "https://dc.lft.to/lastmile_qr_scan", "android": "https://dc.lft.to/lastmile_qr_scan"}, "is_reserved": 0}, {"lon": -77.02202916666667, "bike_id": "a0d46d0b9e259dedcd3d1e3289344b41", "lat": 38.92481383333333, "fusion_lon": 0.0, "fusion_lat": 0.0, "type": "electric_scooter", "name": "a0d46d0b9e259dedcd3d1e3289344b41", "is_disabled": 0, "rental_uris": {"ios": "https://dc.lft.to/lastmile_qr_scan", "android": "https://dc.lft.to/lastmile_qr_scan"}, "is_reserved": 0}, {"lon": -77.0104085, "bike_id": "f66728f5de797af0714132462428b20a", "lat": 38.963462, "fusion_lon": 0.0, "fusion_lat": 0.0, "type": "electric_scooter", "name": "f66728f5de797af0714132462428b20a", "is_disabled": 0, "rental_uris": {"ios": "https://dc.lft.to/lastmile_qr_scan", "android": "https://dc.lft.to/lastmile_qr_scan"}, "is_reserved": 0}, {"lon": -77.119173, "bike_id": "3898c94b83c0ae3a27dacc963edb5058", "lat": 38.8763475, "fusion_lon": 0.0, "fusion_lat": 0.0, "type": "electric_bike", "name": "3898c94b83c0ae3a27dacc963edb5058", "is_disabled": 0, "rental_uris": {"ios": "https://dc.lft.to/lastmile_qr_scan", "android": "https://dc.lft.to/lastmile_qr_scan"}, "is_reserved": 0}, {"lon": -76.9950445, "bike_id": "cdb34dd7c8f42e076d094bbda223d091", "lat": 38.88345366666667, "fusion_lon": 0.0, "fusion_lat": 0.0, "type": "electric_scooter", "name": "cdb34dd7c8f42e076d094bbda223d091", "is_disabled": 0, "rental_uris": {"ios": "https://dc.lft.to/lastmile_qr_scan", "android": "https://dc.lft.to/lastmile_qr_scan"}, "is_reserved": 0}, {"lon": -77.00663416666667, "bike_id": "7ad7bad09ab828d9dc2f2e11670ecf09", "lat": 38.90036033333333, "fusion_lon": 0.0, "fusion_lat": 0.0, "type": "electric_scooter", "name": "7ad7bad09ab828d9dc2f2e11670ecf09", "is_disabled": 0, "rental_uris": {"ios": "https://dc.lft.to/lastmile_qr_scan", "android": "https://dc.lft.to/lastmile_qr_scan"}, "is_reserved": 0}, {"lon": -77.0241275, "bike_id": "c5f65a7d098bbc6a1ec986fde0223fca", "lat": 38.897550833333334, "fusion_lon": 0.0, "fusion_lat": 0.0, "type": "electric_scooter", "name": "c5f65a7d098bbc6a1ec986fde0223fca", "is_disabled": 0, "rental_uris": {"ios": "https://dc.lft.to/lastmile_qr_scan", "android": "https://dc.lft.to/lastmile_qr_scan"}, "is_reserved": 0}, {"lon": -77.02274083333333, "bike_id": "ad095ff9fb073e5bb9aa1b83ae099462", "lat": 38.92727933333333, "fusion_lon": 0.0, "fusion_lat": 0.0, "type": "electric_scooter", "name": "ad095ff9fb073e5bb9aa1b83ae099462", "is_disabled": 0, "rental_uris": {"ios": "https://dc.lft.to/lastmile_qr_scan", "android": "https://dc.lft.to/lastmile_qr_scan"}, "is_reserved": 0}, {"lon": -77.03883733333333, "bike_id": "0c97125db2ba531d3791b0ac782439be", "lat": 38.918814166666664, "fusion_lon": 0.0, "fusion_lat": 0.0, "type": "electric_scooter", "name": "0c97125db2ba531d3791b0ac782439be", "is_disabled": 0, "rental_uris": {"ios": "https://dc.lft.to/lastmile_qr_scan", "android": "https://dc.lft.to/lastmile_qr_scan"}, "is_reserved": 0}, {"lon": -77.05265383333334, "bike_id": "8e499157fa9bba0c4d44f16c6842d38d", "lat": 38.92773583333334, "fusion_lon": 0.0, "fusion_lat": 0.0, "type": "electric_scooter", "name": "8e499157fa9bba0c4d44f16c6842d38d", "is_disabled": 0, "rental_uris": {"ios": "https://dc.lft.to/lastmile_qr_scan", "android": "https://dc.lft.to/lastmile_qr_scan"}, "is_reserved": 0}, {"lon": -76.94400716666667, "bike_id": "3da3610c2e24a699a36562eecabfba47", "lat": 38.88138266666667, "fusion_lon": 0.0, "fusion_lat": 0.0, "type": "electric_scooter", "name": "3da3610c2e24a699a36562eecabfba47", "is_disabled": 0, "rental_uris": {"ios": "https://dc.lft.to/lastmile_qr_scan", "android": "https://dc.lft.to/lastmile_qr_scan"}, "is_reserved": 0}, {"lon": -77.01478083333333, "bike_id": "8e99e7ed1d841823912a8b51c2404d87", "lat": 38.92669133333333, "fusion_lon": 0.0, "fusion_lat": 0.0, "type": "electric_scooter", "name": "8e99e7ed1d841823912a8b51c2404d87", "is_disabled": 0, "rental_uris": {"ios": "https://dc.lft.to/lastmile_qr_scan", "android": "https://dc.lft.to/lastmile_qr_scan"}, "is_reserved": 0}, {"lon": -76.9935475, "bike_id": "209e821cf8626efe21607e0d2c3c804b", "lat": 38.84504666666667, "fusion_lon": 0.0, "fusion_lat": 0.0, "type": "electric_bike", "name": "209e821cf8626efe21607e0d2c3c804b", "is_disabled": 0, "rental_uris": {"ios": "https://dc.lft.to/lastmile_qr_scan", "android": "https://dc.lft.to/lastmile_qr_scan"}, "is_reserved": 0}, {"lon": -77.045881, "bike_id": "4bb340e88ea00f74dcc29283b48d5a25", "lat": 38.92129933333333, "fusion_lon": 0.0, "fusion_lat": 0.0, "type": "electric_scooter", "name": "4bb340e88ea00f74dcc29283b48d5a25", "is_disabled": 0, "rental_uris": {"ios": "https://dc.lft.to/lastmile_qr_scan", "android": "https://dc.lft.to/lastmile_qr_scan"}, "is_reserved": 0}, {"lon": -77.0440505, "bike_id": "12f5cf97ac008a9044d702c0f6f3db0b", "lat": 38.92443183333334, "fusion_lon": 0.0, "fusion_lat": 0.0, "type": "electric_scooter", "name": "12f5cf97ac008a9044d702c0f6f3db0b", "is_disabled": 0, "rental_uris": {"ios": "https://dc.lft.to/lastmile_qr_scan", "android": "https://dc.lft.to/lastmile_qr_scan"}, "is_reserved": 0}, {"lon": -77.07921683333333, "bike_id": "497f9e0fcde7f5356f08d010a5426250", "lat": 38.94809333333333, "fusion_lon": 0.0, "fusion_lat": 0.0, "type": "electric_scooter", "name": "497f9e0fcde7f5356f08d010a5426250", "is_disabled": 0, "rental_uris": {"ios": "https://dc.lft.to/lastmile_qr_scan", "android": "https://dc.lft.to/lastmile_qr_scan"}, "is_reserved": 0}, {"lon": -77.0333015, "bike_id": "172421f35febbb3cfbe60894b8b679eb", "lat": 38.92880866666667, "fusion_lon": 0.0, "fusion_lat": 0.0, "type": "electric_scooter", "name": "172421f35febbb3cfbe60894b8b679eb", "is_disabled": 0, "rental_uris": {"ios": "https://dc.lft.to/lastmile_qr_scan", "android": "https://dc.lft.to/lastmile_qr_scan"}, "is_reserved": 0}, {"lon": -77.02119783333333, "bike_id": "9f7728ba6ba95e065d9f32cf339a4b11", "lat": 38.905746666666666, "fusion_lon": 0.0, "fusion_lat": 0.0, "type": "electric_scooter", "name": "9f7728ba6ba95e065d9f32cf339a4b11", "is_disabled": 0, "rental_uris": {"ios": "https://dc.lft.to/lastmile_qr_scan", "android": "https://dc.lft.to/lastmile_qr_scan"}, "is_reserved": 0}, {"lon": -77.02444683333333, "bike_id": "488b442d8785f3079ea83cdaa679db0c", "lat": 38.90726133333333, "fusion_lon": 0.0, "fusion_lat": 0.0, "type": "electric_scooter", "name": "488b442d8785f3079ea83cdaa679db0c", "is_disabled": 0, "rental_uris": {"ios": "https://dc.lft.to/lastmile_qr_scan", "android": "https://dc.lft.to/lastmile_qr_scan"}, "is_reserved": 0}, {"lon": -76.98922483333334, "bike_id": "0980a2970e919eca45e9c31d7483bc6f", "lat": 38.858079333333336, "fusion_lon": 0.0, "fusion_lat": 0.0, "type": "electric_scooter", "name": "0980a2970e919eca45e9c31d7483bc6f", "is_disabled": 0, "rental_uris": {"ios": "https://dc.lft.to/lastmile_qr_scan", "android": "https://dc.lft.to/lastmile_qr_scan"}, "is_reserved": 0}, {"lon": -77.04196366666666, "bike_id": "49c060b7e6d817ae9976e4ee934bb1bf", "lat": 38.906747333333335, "fusion_lon": 0.0, "fusion_lat": 0.0, "type": "electric_scooter", "name": "49c060b7e6d817ae9976e4ee934bb1bf", "is_disabled": 0, "rental_uris": {"ios": "https://dc.lft.to/lastmile_qr_scan", "android": "https://dc.lft.to/lastmile_qr_scan"}, "is_reserved": 0}, {"lon": -77.04151883333333, "bike_id": "0a8b96920a6ea1467706ad0f5cdda7cd", "lat": 38.91264733333333, "fusion_lon": 0.0, "fusion_lat": 0.0, "type": "electric_scooter", "name": "0a8b96920a6ea1467706ad0f5cdda7cd", "is_disabled": 0, "rental_uris": {"ios": "https://dc.lft.to/lastmile_qr_scan", "android": "https://dc.lft.to/lastmile_qr_scan"}, "is_reserved": 0}, {"lon": -77.0222775, "bike_id": "a4cfcea1e4d3d90a85b9910df457ff85", "lat": 38.92605316666667, "fusion_lon": 0.0, "fusion_lat": 0.0, "type": "electric_scooter", "name": "a4cfcea1e4d3d90a85b9910df457ff85", "is_disabled": 0, "rental_uris": {"ios": "https://dc.lft.to/lastmile_qr_scan", "android": "https://dc.lft.to/lastmile_qr_scan"}, "is_reserved": 0}, {"lon": -77.02606, "bike_id": "1755e5863d0481dc1e5fcaa0da7777a7", "lat": 38.982623, "fusion_lon": 0.0, "fusion_lat": 0.0, "type": "electric_bike", "name": "1755e5863d0481dc1e5fcaa0da7777a7", "is_disabled": 0, "rental_uris": {"ios": "https://dc.lft.to/lastmile_qr_scan", "android": "https://dc.lft.to/lastmile_qr_scan"}, "is_reserved": 0}, {"lon": -77.0259485, "bike_id": "003112dd28932838addc2a4759c3c96c", "lat": 38.90254566666667, "fusion_lon": 0.0, "fusion_lat": 0.0, "type": "electric_scooter", "name": "003112dd28932838addc2a4759c3c96c", "is_disabled": 0, "rental_uris": {"ios": "https://dc.lft.to/lastmile_qr_scan", "android": "https://dc.lft.to/lastmile_qr_scan"}, "is_reserved": 0}, {"lon": -77.04394933333333, "bike_id": "551b47403ca9ba86259dd0e30b35a37c", "lat": 39.04718066666667, "fusion_lon": 0.0, "fusion_lat": 0.0, "type": "electric_bike", "name": "551b47403ca9ba86259dd0e30b35a37c", "is_disabled": 0, "rental_uris": {"ios": "https://dc.lft.to/lastmile_qr_scan", "android": "https://dc.lft.to/lastmile_qr_scan"}, "is_reserved": 0}, {"lon": -77.031951, "bike_id": "39b55e43a1d922c6944f26d342950a33", "lat": 38.9087075, "fusion_lon": 0.0, "fusion_lat": 0.0, "type": "electric_scooter", "name": "39b55e43a1d922c6944f26d342950a33", "is_disabled": 0, "rental_uris": {"ios": "https://dc.lft.to/lastmile_qr_scan", "android": "https://dc.lft.to/lastmile_qr_scan"}, "is_reserved": 0}, {"lon": -77.00577616666666, "bike_id": "c3f3bf23e7b93ecc16072544259f1459", "lat": 38.87885416666667, "fusion_lon": 0.0, "fusion_lat": 0.0, "type": "electric_scooter", "name": "c3f3bf23e7b93ecc16072544259f1459", "is_disabled": 0, "rental_uris": {"ios": "https://dc.lft.to/lastmile_qr_scan", "android": "https://dc.lft.to/lastmile_qr_scan"}, "is_reserved": 0}, {"lon": -77.03212733333334, "bike_id": "ed81aab927e7b839a4651d1a6993c53e", "lat": 38.913856, "fusion_lon": 0.0, "fusion_lat": 0.0, "type": "electric_scooter", "name": "ed81aab927e7b839a4651d1a6993c53e", "is_disabled": 0, "rental_uris": {"ios": "https://dc.lft.to/lastmile_qr_scan", "android": "https://dc.lft.to/lastmile_qr_scan"}, "is_reserved": 0}, {"lon": -76.9801935, "bike_id": "3f2fbd1c24cf16620893768046e0f4d6", "lat": 38.85318733333333, "fusion_lon": 0.0, "fusion_lat": 0.0, "type": "electric_scooter", "name": "3f2fbd1c24cf16620893768046e0f4d6", "is_disabled": 0, "rental_uris": {"ios": "https://dc.lft.to/lastmile_qr_scan", "android": "https://dc.lft.to/lastmile_qr_scan"}, "is_reserved": 0}, {"lon": -76.985124, "bike_id": "d775b4a3d0232bcd507bac422aa1c0aa", "lat": 38.90341566666667, "fusion_lon": 0.0, "fusion_lat": 0.0, "type": "electric_scooter", "name": "d775b4a3d0232bcd507bac422aa1c0aa", "is_disabled": 0, "rental_uris": {"ios": "https://dc.lft.to/lastmile_qr_scan", "android": "https://dc.lft.to/lastmile_qr_scan"}, "is_reserved": 0}, {"lon": -77.0238295, "bike_id": "e0fa85a04c423983d9a0d8997868ad83", "lat": 38.906312, "fusion_lon": 0.0, "fusion_lat": 0.0, "type": "electric_scooter", "name": "e0fa85a04c423983d9a0d8997868ad83", "is_disabled": 0, "rental_uris": {"ios": "https://dc.lft.to/lastmile_qr_scan", "android": "https://dc.lft.to/lastmile_qr_scan"}, "is_reserved": 0}, {"lon": -77.02000983333333, "bike_id": "86ebe878d40028380213bdd0ef14cf19", "lat": 38.895260666666665, "fusion_lon": 0.0, "fusion_lat": 0.0, "type": "electric_scooter", "name": "86ebe878d40028380213bdd0ef14cf19", "is_disabled": 0, "rental_uris": {"ios": "https://dc.lft.to/lastmile_qr_scan", "android": "https://dc.lft.to/lastmile_qr_scan"}, "is_reserved": 0}, {"lon": -77.03557583333334, "bike_id": "fb4f20e16a8db1f2e5d88af9346d3509", "lat": 38.927040833333336, "fusion_lon": 0.0, "fusion_lat": 0.0, "type": "electric_scooter", "name": "fb4f20e16a8db1f2e5d88af9346d3509", "is_disabled": 0, "rental_uris": {"ios": "https://dc.lft.to/lastmile_qr_scan", "android": "https://dc.lft.to/lastmile_qr_scan"}, "is_reserved": 0}, {"lon": -77.02321983333333, "bike_id": "c106dcf3077e64941c70ac6ce1827f6f", "lat": 38.95520966666667, "fusion_lon": 0.0, "fusion_lat": 0.0, "type": "electric_scooter", "name": "c106dcf3077e64941c70ac6ce1827f6f", "is_disabled": 0, "rental_uris": {"ios": "https://dc.lft.to/lastmile_qr_scan", "android": "https://dc.lft.to/lastmile_qr_scan"}, "is_reserved": 0}, {"lon": -76.9458195, "bike_id": "46a4c6ac08903634ff421f88805a1cf4", "lat": 38.93741416666667, "fusion_lon": 0.0, "fusion_lat": 0.0, "type": "electric_bike", "name": "46a4c6ac08903634ff421f88805a1cf4", "is_disabled": 0, "rental_uris": {"ios": "https://dc.lft.to/lastmile_qr_scan", "android": "https://dc.lft.to/lastmile_qr_scan"}, "is_reserved": 0}, {"lon": -77.03196083333333, "bike_id": "32a7969f23d3586ec34e58bea52740d8", "lat": 38.91531633333334, "fusion_lon": 0.0, "fusion_lat": 0.0, "type": "electric_scooter", "name": "32a7969f23d3586ec34e58bea52740d8", "is_disabled": 0, "rental_uris": {"ios": "https://dc.lft.to/lastmile_qr_scan", "android": "https://dc.lft.to/lastmile_qr_scan"}, "is_reserved": 0}, {"lon": -77.026617, "bike_id": "fe8b5bb19b58ec3e85dddae10eaba9ed", "lat": 38.8963605, "fusion_lon": 0.0, "fusion_lat": 0.0, "type": "electric_scooter", "name": "fe8b5bb19b58ec3e85dddae10eaba9ed", "is_disabled": 0, "rental_uris": {"ios": "https://dc.lft.to/lastmile_qr_scan", "android": "https://dc.lft.to/lastmile_qr_scan"}, "is_reserved": 0}, {"lon": -77.03463916666666, "bike_id": "87f82faf09aeeb6bc3d74bc6ed45c9a1", "lat": 38.91484233333333, "fusion_lon": 0.0, "fusion_lat": 0.0, "type": "electric_scooter", "name": "87f82faf09aeeb6bc3d74bc6ed45c9a1", "is_disabled": 0, "rental_uris": {"ios": "https://dc.lft.to/lastmile_qr_scan", "android": "https://dc.lft.to/lastmile_qr_scan"}, "is_reserved": 0}, {"lon": -77.0283755, "bike_id": "a32cc2452c089f2f242816025d22b943", "lat": 38.91702216666667, "fusion_lon": 0.0, "fusion_lat": 0.0, "type": "electric_scooter", "name": "a32cc2452c089f2f242816025d22b943", "is_disabled": 0, "rental_uris": {"ios": "https://dc.lft.to/lastmile_qr_scan", "android": "https://dc.lft.to/lastmile_qr_scan"}, "is_reserved": 0}, {"lon": -77.044853, "bike_id": "b27275c980d39d4b5cb80778da9f3d11", "lat": 38.91596916666667, "fusion_lon": 0.0, "fusion_lat": 0.0, "type": "electric_scooter", "name": "b27275c980d39d4b5cb80778da9f3d11", "is_disabled": 0, "rental_uris": {"ios": "https://dc.lft.to/lastmile_qr_scan", "android": "https://dc.lft.to/lastmile_qr_scan"}, "is_reserved": 0}, {"lon": -77.04428416666667, "bike_id": "25f45686f47fd0813e1d287820608ef6", "lat": 38.905836, "fusion_lon": 0.0, "fusion_lat": 0.0, "type": "electric_scooter", "name": "25f45686f47fd0813e1d287820608ef6", "is_disabled": 0, "rental_uris": {"ios": "https://dc.lft.to/lastmile_qr_scan", "android": "https://dc.lft.to/lastmile_qr_scan"}, "is_reserved": 0}, {"lon": -77.016147, "bike_id": "bfa49e44d9d37c16cbe4e3c984697767", "lat": 38.8950705, "fusion_lon": 0.0, "fusion_lat": 0.0, "type": "electric_scooter", "name": "bfa49e44d9d37c16cbe4e3c984697767", "is_disabled": 0, "rental_uris": {"ios": "https://dc.lft.to/lastmile_qr_scan", "android": "https://dc.lft.to/lastmile_qr_scan"}, "is_reserved": 0}, {"lon": -76.99084383333333, "bike_id": "b8739329b7973f2fb6325f970759b452", "lat": 38.862319666666664, "fusion_lon": 0.0, "fusion_lat": 0.0, "type": "electric_bike", "name": "b8739329b7973f2fb6325f970759b452", "is_disabled": 0, "rental_uris": {"ios": "https://dc.lft.to/lastmile_qr_scan", "android": "https://dc.lft.to/lastmile_qr_scan"}, "is_reserved": 0}, {"lon": -76.980879, "bike_id": "643108ff74b9a32c2b3b7ce9e8cdc1a5", "lat": 38.907064, "fusion_lon": 0.0, "fusion_lat": 0.0, "type": "electric_scooter", "name": "643108ff74b9a32c2b3b7ce9e8cdc1a5", "is_disabled": 0, "rental_uris": {"ios": "https://dc.lft.to/lastmile_qr_scan", "android": "https://dc.lft.to/lastmile_qr_scan"}, "is_reserved": 0}, {"lon": -77.02948, "bike_id": "87a2b4dadb4c13abf29cff8a4d2f15e3", "lat": 38.896163666666666, "fusion_lon": 0.0, "fusion_lat": 0.0, "type": "electric_scooter", "name": "87a2b4dadb4c13abf29cff8a4d2f15e3", "is_disabled": 0, "rental_uris": {"ios": "https://dc.lft.to/lastmile_qr_scan", "android": "https://dc.lft.to/lastmile_qr_scan"}, "is_reserved": 0}, {"lon": -77.06837166666666, "bike_id": "2031cf68591b569bfffe75a9ef23096d", "lat": 38.80565166666667, "fusion_lon": 0.0, "fusion_lat": 0.0, "type": "electric_bike", "name": "2031cf68591b569bfffe75a9ef23096d", "is_disabled": 0, "rental_uris": {"ios": "https://dc.lft.to/lastmile_qr_scan", "android": "https://dc.lft.to/lastmile_qr_scan"}, "is_reserved": 0}, {"lon": -77.03306183333333, "bike_id": "726ec2d2ed06ae3e93681a26d12b8174", "lat": 38.956384, "fusion_lon": 0.0, "fusion_lat": 0.0, "type": "electric_scooter", "name": "726ec2d2ed06ae3e93681a26d12b8174", "is_disabled": 0, "rental_uris": {"ios": "https://dc.lft.to/lastmile_qr_scan", "android": "https://dc.lft.to/lastmile_qr_scan"}, "is_reserved": 0}, {"lon": -77.03266516666666, "bike_id": "62197e39652ae3300b3ac7d5b2189e14", "lat": 38.937245, "fusion_lon": 0.0, "fusion_lat": 0.0, "type": "electric_scooter", "name": "62197e39652ae3300b3ac7d5b2189e14", "is_disabled": 0, "rental_uris": {"ios": "https://dc.lft.to/lastmile_qr_scan", "android": "https://dc.lft.to/lastmile_qr_scan"}, "is_reserved": 0}, {"lon": -77.035615, "bike_id": "5cc2c75ecec237a59e41227a31310f55", "lat": 38.92705866666667, "fusion_lon": 0.0, "fusion_lat": 0.0, "type": "electric_scooter", "name": "5cc2c75ecec237a59e41227a31310f55", "is_disabled": 0, "rental_uris": {"ios": "https://dc.lft.to/lastmile_qr_scan", "android": "https://dc.lft.to/lastmile_qr_scan"}, "is_reserved": 0}, {"lon": -77.02767333333334, "bike_id": "9ddbffd3b44981099d0f4caaec6285fa", "lat": 38.954237, "fusion_lon": 0.0, "fusion_lat": 0.0, "type": "electric_scooter", "name": "9ddbffd3b44981099d0f4caaec6285fa", "is_disabled": 0, "rental_uris": {"ios": "https://dc.lft.to/lastmile_qr_scan", "android": "https://dc.lft.to/lastmile_qr_scan"}, "is_reserved": 0}, {"lon": -77.04415733333333, "bike_id": "2c9c1b9aa72657a5b9c3bd9b178f2e6d", "lat": 38.91958066666667, "fusion_lon": 0.0, "fusion_lat": 0.0, "type": "electric_scooter", "name": "2c9c1b9aa72657a5b9c3bd9b178f2e6d", "is_disabled": 0, "rental_uris": {"ios": "https://dc.lft.to/lastmile_qr_scan", "android": "https://dc.lft.to/lastmile_qr_scan"}, "is_reserved": 0}, {"lon": -77.03427733333334, "bike_id": "a696f46719d64e46d09ab14e01a35509", "lat": 38.9095845, "fusion_lon": 0.0, "fusion_lat": 0.0, "type": "electric_scooter", "name": "a696f46719d64e46d09ab14e01a35509", "is_disabled": 0, "rental_uris": {"ios": "https://dc.lft.to/lastmile_qr_scan", "android": "https://dc.lft.to/lastmile_qr_scan"}, "is_reserved": 0}, {"lon": -77.06489266666667, "bike_id": "9f824874bed0ffd8b0ead1d17df9a460", "lat": 38.90977266666667, "fusion_lon": 0.0, "fusion_lat": 0.0, "type": "electric_scooter", "name": "9f824874bed0ffd8b0ead1d17df9a460", "is_disabled": 0, "rental_uris": {"ios": "https://dc.lft.to/lastmile_qr_scan", "android": "https://dc.lft.to/lastmile_qr_scan"}, "is_reserved": 0}, {"lon": -77.03584566666666, "bike_id": "aa451b47114c30392370f5feed379f5c", "lat": 38.90754183333333, "fusion_lon": 0.0, "fusion_lat": 0.0, "type": "electric_scooter", "name": "aa451b47114c30392370f5feed379f5c", "is_disabled": 0, "rental_uris": {"ios": "https://dc.lft.to/lastmile_qr_scan", "android": "https://dc.lft.to/lastmile_qr_scan"}, "is_reserved": 0}, {"lon": -76.99584483333334, "bike_id": "250853f673c07416dab5c5035f25a3b0", "lat": 38.852949333333335, "fusion_lon": 0.0, "fusion_lat": 0.0, "type": "electric_bike", "name": "250853f673c07416dab5c5035f25a3b0", "is_disabled": 0, "rental_uris": {"ios": "https://dc.lft.to/lastmile_qr_scan", "android": "https://dc.lft.to/lastmile_qr_scan"}, "is_reserved": 0}, {"lon": -76.99844933333333, "bike_id": "555f6ca862a53b1f0079fbf7dacc5083", "lat": 38.9000505, "fusion_lon": 0.0, "fusion_lat": 0.0, "type": "electric_scooter", "name": "555f6ca862a53b1f0079fbf7dacc5083", "is_disabled": 0, "rental_uris": {"ios": "https://dc.lft.to/lastmile_qr_scan", "android": "https://dc.lft.to/lastmile_qr_scan"}, "is_reserved": 0}, {"lon": -77.0259955, "bike_id": "8009c3bb2541220cd930dc0e982680be", "lat": 38.900255333333334, "fusion_lon": 0.0, "fusion_lat": 0.0, "type": "electric_scooter", "name": "8009c3bb2541220cd930dc0e982680be", "is_disabled": 0, "rental_uris": {"ios": "https://dc.lft.to/lastmile_qr_scan", "android": "https://dc.lft.to/lastmile_qr_scan"}, "is_reserved": 0}, {"lon": -77.022468, "bike_id": "2bfae90acb81a0a4d7e30d4669574da3", "lat": 38.922606333333334, "fusion_lon": 0.0, "fusion_lat": 0.0, "type": "electric_scooter", "name": "2bfae90acb81a0a4d7e30d4669574da3", "is_disabled": 0, "rental_uris": {"ios": "https://dc.lft.to/lastmile_qr_scan", "android": "https://dc.lft.to/lastmile_qr_scan"}, "is_reserved": 0}, {"lon": -77.0092545, "bike_id": "b47f5b97bf35a98045630b8f89afd476", "lat": 38.8954995, "fusion_lon": 0.0, "fusion_lat": 0.0, "type": "electric_scooter", "name": "b47f5b97bf35a98045630b8f89afd476", "is_disabled": 0, "rental_uris": {"ios": "https://dc.lft.to/lastmile_qr_scan", "android": "https://dc.lft.to/lastmile_qr_scan"}, "is_reserved": 0}, {"lon": -77.009361, "bike_id": "60f9cc90b7359e5dc6f0600e7dc9f255", "lat": 38.883123, "fusion_lon": 0.0, "fusion_lat": 0.0, "type": "electric_scooter", "name": "60f9cc90b7359e5dc6f0600e7dc9f255", "is_disabled": 0, "rental_uris": {"ios": "https://dc.lft.to/lastmile_qr_scan", "android": "https://dc.lft.to/lastmile_qr_scan"}, "is_reserved": 0}, {"lon": -77.04112533333333, "bike_id": "8564bf58bf0f5146dc1dd856345ff357", "lat": 38.9169525, "fusion_lon": 0.0, "fusion_lat": 0.0, "type": "electric_scooter", "name": "8564bf58bf0f5146dc1dd856345ff357", "is_disabled": 0, "rental_uris": {"ios": "https://dc.lft.to/lastmile_qr_scan", "android": "https://dc.lft.to/lastmile_qr_scan"}, "is_reserved": 0}, {"lon": -77.04110483333334, "bike_id": "10ee65ba0b4cecc0545ab4216491fef4", "lat": 38.92801166666667, "fusion_lon": 0.0, "fusion_lat": 0.0, "type": "electric_scooter", "name": "10ee65ba0b4cecc0545ab4216491fef4", "is_disabled": 0, "rental_uris": {"ios": "https://dc.lft.to/lastmile_qr_scan", "android": "https://dc.lft.to/lastmile_qr_scan"}, "is_reserved": 0}, {"lon": -77.00203533333334, "bike_id": "53380ebd18c0d614cfa2f73e836f7518", "lat": 38.90239366666667, "fusion_lon": 0.0, "fusion_lat": 0.0, "type": "electric_scooter", "name": "53380ebd18c0d614cfa2f73e836f7518", "is_disabled": 0, "rental_uris": {"ios": "https://dc.lft.to/lastmile_qr_scan", "android": "https://dc.lft.to/lastmile_qr_scan"}, "is_reserved": 0}, {"lon": -77.02616316666666, "bike_id": "1875d71e3763409f39ae1394337eba23", "lat": 38.91414366666667, "fusion_lon": 0.0, "fusion_lat": 0.0, "type": "electric_scooter", "name": "1875d71e3763409f39ae1394337eba23", "is_disabled": 0, "rental_uris": {"ios": "https://dc.lft.to/lastmile_qr_scan", "android": "https://dc.lft.to/lastmile_qr_scan"}, "is_reserved": 0}, {"lon": -76.99837566666666, "bike_id": "df8e42de1f57a5e44983caf5b091c695", "lat": 38.90216083333333, "fusion_lon": 0.0, "fusion_lat": 0.0, "type": "electric_scooter", "name": "df8e42de1f57a5e44983caf5b091c695", "is_disabled": 0, "rental_uris": {"ios": "https://dc.lft.to/lastmile_qr_scan", "android": "https://dc.lft.to/lastmile_qr_scan"}, "is_reserved": 0}, {"lon": -77.0058795, "bike_id": "ee07c0b9d17733218ec5fb7ad7760935", "lat": 38.8843655, "fusion_lon": 0.0, "fusion_lat": 0.0, "type": "electric_scooter", "name": "ee07c0b9d17733218ec5fb7ad7760935", "is_disabled": 0, "rental_uris": {"ios": "https://dc.lft.to/lastmile_qr_scan", "android": "https://dc.lft.to/lastmile_qr_scan"}, "is_reserved": 0}, {"lon": -77.0386745, "bike_id": "c52625322f030adc007eb4658d9b66a2", "lat": 38.94503383333333, "fusion_lon": 0.0, "fusion_lat": 0.0, "type": "electric_scooter", "name": "c52625322f030adc007eb4658d9b66a2", "is_disabled": 0, "rental_uris": {"ios": "https://dc.lft.to/lastmile_qr_scan", "android": "https://dc.lft.to/lastmile_qr_scan"}, "is_reserved": 0}, {"lon": -76.98720166666666, "bike_id": "3fc519c0ccb8da90cabe1f408be2c9ed", "lat": 38.866804, "fusion_lon": 0.0, "fusion_lat": 0.0, "type": "electric_scooter", "name": "3fc519c0ccb8da90cabe1f408be2c9ed", "is_disabled": 0, "rental_uris": {"ios": "https://dc.lft.to/lastmile_qr_scan", "android": "https://dc.lft.to/lastmile_qr_scan"}, "is_reserved": 0}, {"lon": -77.03269566666667, "bike_id": "d11743c7951a4eb7ed8b5e7d9ba60af7", "lat": 38.93726783333334, "fusion_lon": 0.0, "fusion_lat": 0.0, "type": "electric_scooter", "name": "d11743c7951a4eb7ed8b5e7d9ba60af7", "is_disabled": 0, "rental_uris": {"ios": "https://dc.lft.to/lastmile_qr_scan", "android": "https://dc.lft.to/lastmile_qr_scan"}, "is_reserved": 0}, {"lon": -77.03885266666667, "bike_id": "460a1fb79aab25bdc4575f8bafcc163e", "lat": 38.91006483333334, "fusion_lon": 0.0, "fusion_lat": 0.0, "type": "electric_scooter", "name": "460a1fb79aab25bdc4575f8bafcc163e", "is_disabled": 0, "rental_uris": {"ios": "https://dc.lft.to/lastmile_qr_scan", "android": "https://dc.lft.to/lastmile_qr_scan"}, "is_reserved": 0}, {"lon": -77.04490216666666, "bike_id": "ec910c476f04d74d8e045159b51a407b", "lat": 38.9223865, "fusion_lon": 0.0, "fusion_lat": 0.0, "type": "electric_scooter", "name": "ec910c476f04d74d8e045159b51a407b", "is_disabled": 0, "rental_uris": {"ios": "https://dc.lft.to/lastmile_qr_scan", "android": "https://dc.lft.to/lastmile_qr_scan"}, "is_reserved": 0}, {"lon": -77.04168966666667, "bike_id": "b54d0f301f166ec53ceba9e227505557", "lat": 38.919815666666665, "fusion_lon": 0.0, "fusion_lat": 0.0, "type": "electric_scooter", "name": "b54d0f301f166ec53ceba9e227505557", "is_disabled": 0, "rental_uris": {"ios": "https://dc.lft.to/lastmile_qr_scan", "android": "https://dc.lft.to/lastmile_qr_scan"}, "is_reserved": 0}, {"lon": -76.96157833333334, "bike_id": "0920cbd451f7c4870e3f0932cbf9161b", "lat": 38.883544666666666, "fusion_lon": 0.0, "fusion_lat": 0.0, "type": "electric_scooter", "name": "0920cbd451f7c4870e3f0932cbf9161b", "is_disabled": 0, "rental_uris": {"ios": "https://dc.lft.to/lastmile_qr_scan", "android": "https://dc.lft.to/lastmile_qr_scan"}, "is_reserved": 0}, {"lon": -76.96786533333334, "bike_id": "b2b1461f7f53fa3485a5dc0c6b174111", "lat": 38.868481333333335, "fusion_lon": 0.0, "fusion_lat": 0.0, "type": "electric_scooter", "name": "b2b1461f7f53fa3485a5dc0c6b174111", "is_disabled": 0, "rental_uris": {"ios": "https://dc.lft.to/lastmile_qr_scan", "android": "https://dc.lft.to/lastmile_qr_scan"}, "is_reserved": 0}, {"lon": -76.953709, "bike_id": "b2ffe433347e8b081fb869403ed22e0b", "lat": 38.892029, "fusion_lon": 0.0, "fusion_lat": 0.0, "type": "electric_scooter", "name": "b2ffe433347e8b081fb869403ed22e0b", "is_disabled": 0, "rental_uris": {"ios": "https://dc.lft.to/lastmile_qr_scan", "android": "https://dc.lft.to/lastmile_qr_scan"}, "is_reserved": 0}, {"lon": -77.031791, "bike_id": "1a8daaa916b2771158ff4d4399a78047", "lat": 38.92110366666667, "fusion_lon": 0.0, "fusion_lat": 0.0, "type": "electric_scooter", "name": "1a8daaa916b2771158ff4d4399a78047", "is_disabled": 0, "rental_uris": {"ios": "https://dc.lft.to/lastmile_qr_scan", "android": "https://dc.lft.to/lastmile_qr_scan"}, "is_reserved": 0}, {"lon": -77.01528966666666, "bike_id": "7302e4b585f985ecb8439808e3b9f61e", "lat": 38.88652183333333, "fusion_lon": 0.0, "fusion_lat": 0.0, "type": "electric_scooter", "name": "7302e4b585f985ecb8439808e3b9f61e", "is_disabled": 0, "rental_uris": {"ios": "https://dc.lft.to/lastmile_qr_scan", "android": "https://dc.lft.to/lastmile_qr_scan"}, "is_reserved": 0}, {"lon": -77.06872933333334, "bike_id": "0189a09d1951ad7c8746b7a1ee33ac94", "lat": 38.917074, "fusion_lon": 0.0, "fusion_lat": 0.0, "type": "electric_scooter", "name": "0189a09d1951ad7c8746b7a1ee33ac94", "is_disabled": 0, "rental_uris": {"ios": "https://dc.lft.to/lastmile_qr_scan", "android": "https://dc.lft.to/lastmile_qr_scan"}, "is_reserved": 0}, {"lon": -77.0347215, "bike_id": "d41c53477191672fb6161f8d97e31ba0", "lat": 38.906346, "fusion_lon": 0.0, "fusion_lat": 0.0, "type": "electric_scooter", "name": "d41c53477191672fb6161f8d97e31ba0", "is_disabled": 0, "rental_uris": {"ios": "https://dc.lft.to/lastmile_qr_scan", "android": "https://dc.lft.to/lastmile_qr_scan"}, "is_reserved": 0}, {"lon": -77.02584983333334, "bike_id": "b7bc5a87d19453a66103add9e083959a", "lat": 38.92033083333333, "fusion_lon": 0.0, "fusion_lat": 0.0, "type": "electric_scooter", "name": "b7bc5a87d19453a66103add9e083959a", "is_disabled": 0, "rental_uris": {"ios": "https://dc.lft.to/lastmile_qr_scan", "android": "https://dc.lft.to/lastmile_qr_scan"}, "is_reserved": 0}, {"lon": -77.02429066666667, "bike_id": "a93250f44f34df81ff444ed969887500", "lat": 38.91402516666667, "fusion_lon": 0.0, "fusion_lat": 0.0, "type": "electric_scooter", "name": "a93250f44f34df81ff444ed969887500", "is_disabled": 0, "rental_uris": {"ios": "https://dc.lft.to/lastmile_qr_scan", "android": "https://dc.lft.to/lastmile_qr_scan"}, "is_reserved": 0}, {"lon": -77.03259316666667, "bike_id": "a8e32350464f8dbfdc0bd63cd667215e", "lat": 38.93971883333333, "fusion_lon": 0.0, "fusion_lat": 0.0, "type": "electric_scooter", "name": "a8e32350464f8dbfdc0bd63cd667215e", "is_disabled": 0, "rental_uris": {"ios": "https://dc.lft.to/lastmile_qr_scan", "android": "https://dc.lft.to/lastmile_qr_scan"}, "is_reserved": 0}, {"lon": -77.0460155, "bike_id": "225dfff61b39cc6a80973be840ce67a2", "lat": 38.916075166666666, "fusion_lon": 0.0, "fusion_lat": 0.0, "type": "electric_scooter", "name": "225dfff61b39cc6a80973be840ce67a2", "is_disabled": 0, "rental_uris": {"ios": "https://dc.lft.to/lastmile_qr_scan", "android": "https://dc.lft.to/lastmile_qr_scan"}, "is_reserved": 0}, {"lon": -76.98482533333333, "bike_id": "435ef402843fa173c963615072ded30a", "lat": 38.89601233333333, "fusion_lon": 0.0, "fusion_lat": 0.0, "type": "electric_scooter", "name": "435ef402843fa173c963615072ded30a", "is_disabled": 0, "rental_uris": {"ios": "https://dc.lft.to/lastmile_qr_scan", "android": "https://dc.lft.to/lastmile_qr_scan"}, "is_reserved": 0}, {"lon": -77.02551766666667, "bike_id": "63af67dc2600bb057c1d2c02a86ae2a0", "lat": 38.903255333333334, "fusion_lon": 0.0, "fusion_lat": 0.0, "type": "electric_scooter", "name": "63af67dc2600bb057c1d2c02a86ae2a0", "is_disabled": 0, "rental_uris": {"ios": "https://dc.lft.to/lastmile_qr_scan", "android": "https://dc.lft.to/lastmile_qr_scan"}, "is_reserved": 0}, {"lon": -77.04426433333333, "bike_id": "82ec9b7f4283773f31d55307ca012e09", "lat": 38.8983215, "fusion_lon": 0.0, "fusion_lat": 0.0, "type": "electric_scooter", "name": "82ec9b7f4283773f31d55307ca012e09", "is_disabled": 0, "rental_uris": {"ios": "https://dc.lft.to/lastmile_qr_scan", "android": "https://dc.lft.to/lastmile_qr_scan"}, "is_reserved": 0}, {"lon": -77.046259, "bike_id": "29ccaea119202fda5f7060a483191352", "lat": 38.923189, "fusion_lon": 0.0, "fusion_lat": 0.0, "type": "electric_scooter", "name": "29ccaea119202fda5f7060a483191352", "is_disabled": 0, "rental_uris": {"ios": "https://dc.lft.to/lastmile_qr_scan", "android": "https://dc.lft.to/lastmile_qr_scan"}, "is_reserved": 0}, {"lon": -77.02423733333333, "bike_id": "ad9ddf02ef4462741f6ef0264c09ef80", "lat": 38.897333333333336, "fusion_lon": 0.0, "fusion_lat": 0.0, "type": "electric_scooter", "name": "ad9ddf02ef4462741f6ef0264c09ef80", "is_disabled": 0, "rental_uris": {"ios": "https://dc.lft.to/lastmile_qr_scan", "android": "https://dc.lft.to/lastmile_qr_scan"}, "is_reserved": 0}, {"lon": -77.0429125, "bike_id": "a9401b7ebaddbfafe9b197a1200be3ce", "lat": 38.91657433333334, "fusion_lon": 0.0, "fusion_lat": 0.0, "type": "electric_scooter", "name": "a9401b7ebaddbfafe9b197a1200be3ce", "is_disabled": 0, "rental_uris": {"ios": "https://dc.lft.to/lastmile_qr_scan", "android": "https://dc.lft.to/lastmile_qr_scan"}, "is_reserved": 0}, {"lon": -77.03216083333334, "bike_id": "911489d23e7a746c5240979617879617", "lat": 38.914039333333335, "fusion_lon": 0.0, "fusion_lat": 0.0, "type": "electric_scooter", "name": "911489d23e7a746c5240979617879617", "is_disabled": 0, "rental_uris": {"ios": "https://dc.lft.to/lastmile_qr_scan", "android": "https://dc.lft.to/lastmile_qr_scan"}, "is_reserved": 0}, {"lon": -77.01304016666667, "bike_id": "956a88f1f1bf2c6b9ebedf0eff46fa8e", "lat": 38.92999966666667, "fusion_lon": 0.0, "fusion_lat": 0.0, "type": "electric_scooter", "name": "956a88f1f1bf2c6b9ebedf0eff46fa8e", "is_disabled": 0, "rental_uris": {"ios": "https://dc.lft.to/lastmile_qr_scan", "android": "https://dc.lft.to/lastmile_qr_scan"}, "is_reserved": 0}, {"lon": -77.031502, "bike_id": "61b0149ac58253e6bb82c98477da2329", "lat": 38.90627633333333, "fusion_lon": 0.0, "fusion_lat": 0.0, "type": "electric_scooter", "name": "61b0149ac58253e6bb82c98477da2329", "is_disabled": 0, "rental_uris": {"ios": "https://dc.lft.to/lastmile_qr_scan", "android": "https://dc.lft.to/lastmile_qr_scan"}, "is_reserved": 0}, {"lon": -77.027267, "bike_id": "1be282e11e7ca93916528fae1861fb71", "lat": 38.91181316666667, "fusion_lon": 0.0, "fusion_lat": 0.0, "type": "electric_scooter", "name": "1be282e11e7ca93916528fae1861fb71", "is_disabled": 0, "rental_uris": {"ios": "https://dc.lft.to/lastmile_qr_scan", "android": "https://dc.lft.to/lastmile_qr_scan"}, "is_reserved": 0}, {"lon": -77.00636366666667, "bike_id": "09c5c3c53a57f8c5b1b5de3dee62df1a", "lat": 38.9559915, "fusion_lon": 0.0, "fusion_lat": 0.0, "type": "electric_scooter", "name": "09c5c3c53a57f8c5b1b5de3dee62df1a", "is_disabled": 0, "rental_uris": {"ios": "https://dc.lft.to/lastmile_qr_scan", "android": "https://dc.lft.to/lastmile_qr_scan"}, "is_reserved": 0}, {"lon": -77.0276555, "bike_id": "ca69a247d4e19a952096d2c491d89d99", "lat": 38.8975135, "fusion_lon": 0.0, "fusion_lat": 0.0, "type": "electric_scooter", "name": "ca69a247d4e19a952096d2c491d89d99", "is_disabled": 0, "rental_uris": {"ios": "https://dc.lft.to/lastmile_qr_scan", "android": "https://dc.lft.to/lastmile_qr_scan"}, "is_reserved": 0}, {"lon": -77.0110635, "bike_id": "595f3297bb00d0dd63381fe0f302a82c", "lat": 38.90362833333333, "fusion_lon": 0.0, "fusion_lat": 0.0, "type": "electric_scooter", "name": "595f3297bb00d0dd63381fe0f302a82c", "is_disabled": 0, "rental_uris": {"ios": "https://dc.lft.to/lastmile_qr_scan", "android": "https://dc.lft.to/lastmile_qr_scan"}, "is_reserved": 0}, {"lon": -77.00593016666667, "bike_id": "a94d1a73145fa0a557863b0fa064527b", "lat": 38.906048166666665, "fusion_lon": 0.0, "fusion_lat": 0.0, "type": "electric_scooter", "name": "a94d1a73145fa0a557863b0fa064527b", "is_disabled": 0, "rental_uris": {"ios": "https://dc.lft.to/lastmile_qr_scan", "android": "https://dc.lft.to/lastmile_qr_scan"}, "is_reserved": 0}, {"lon": -77.00443116666666, "bike_id": "9564e8b940e20a32db516fa3f1b72c70", "lat": 38.895454666666666, "fusion_lon": 0.0, "fusion_lat": 0.0, "type": "electric_bike", "name": "9564e8b940e20a32db516fa3f1b72c70", "is_disabled": 0, "rental_uris": {"ios": "https://dc.lft.to/lastmile_qr_scan", "android": "https://dc.lft.to/lastmile_qr_scan"}, "is_reserved": 0}, {"lon": -77.045586, "bike_id": "3fe765230f5f40745f41331ca7410fae", "lat": 38.896072833333335, "fusion_lon": 0.0, "fusion_lat": 0.0, "type": "electric_scooter", "name": "3fe765230f5f40745f41331ca7410fae", "is_disabled": 0, "rental_uris": {"ios": "https://dc.lft.to/lastmile_qr_scan", "android": "https://dc.lft.to/lastmile_qr_scan"}, "is_reserved": 0}, {"lon": -77.04405416666667, "bike_id": "3c41d843003fe7e3bea14aca6f5ea628", "lat": 38.895503833333336, "fusion_lon": 0.0, "fusion_lat": 0.0, "type": "electric_scooter", "name": "3c41d843003fe7e3bea14aca6f5ea628", "is_disabled": 0, "rental_uris": {"ios": "https://dc.lft.to/lastmile_qr_scan", "android": "https://dc.lft.to/lastmile_qr_scan"}, "is_reserved": 0}, {"lon": -77.03182883333334, "bike_id": "6b64703fe1921f22c859d5267019c09c", "lat": 38.91826116666667, "fusion_lon": 0.0, "fusion_lat": 0.0, "type": "electric_scooter", "name": "6b64703fe1921f22c859d5267019c09c", "is_disabled": 0, "rental_uris": {"ios": "https://dc.lft.to/lastmile_qr_scan", "android": "https://dc.lft.to/lastmile_qr_scan"}, "is_reserved": 0}, {"lon": -77.03875616666667, "bike_id": "7f7c8888ffceeabf778d1374c2be270d", "lat": 38.923160833333334, "fusion_lon": 0.0, "fusion_lat": 0.0, "type": "electric_scooter", "name": "7f7c8888ffceeabf778d1374c2be270d", "is_disabled": 0, "rental_uris": {"ios": "https://dc.lft.to/lastmile_qr_scan", "android": "https://dc.lft.to/lastmile_qr_scan"}, "is_reserved": 0}, {"lon": -77.023882, "bike_id": "50eec175670f88a90f0dee506fb6d01c", "lat": 38.920648666666665, "fusion_lon": 0.0, "fusion_lat": 0.0, "type": "electric_scooter", "name": "50eec175670f88a90f0dee506fb6d01c", "is_disabled": 0, "rental_uris": {"ios": "https://dc.lft.to/lastmile_qr_scan", "android": "https://dc.lft.to/lastmile_qr_scan"}, "is_reserved": 0}, {"lon": -77.07693633333334, "bike_id": "bcc88a8951162270fee2a2607a76cd06", "lat": 38.840788833333335, "fusion_lon": 0.0, "fusion_lat": 0.0, "type": "electric_bike", "name": "bcc88a8951162270fee2a2607a76cd06", "is_disabled": 0, "rental_uris": {"ios": "https://dc.lft.to/lastmile_qr_scan", "android": "https://dc.lft.to/lastmile_qr_scan"}, "is_reserved": 0}, {"lon": -76.999437, "bike_id": "b83fc6fe29b6ba6a02b9cc07f11cdcbe", "lat": 38.9075515, "fusion_lon": 0.0, "fusion_lat": 0.0, "type": "electric_scooter", "name": "b83fc6fe29b6ba6a02b9cc07f11cdcbe", "is_disabled": 0, "rental_uris": {"ios": "https://dc.lft.to/lastmile_qr_scan", "android": "https://dc.lft.to/lastmile_qr_scan"}, "is_reserved": 0}, {"lon": -77.02700266666666, "bike_id": "b9ebae999f40f628857273fbdcc30c4c", "lat": 38.9068345, "fusion_lon": 0.0, "fusion_lat": 0.0, "type": "electric_scooter", "name": "b9ebae999f40f628857273fbdcc30c4c", "is_disabled": 0, "rental_uris": {"ios": "https://dc.lft.to/lastmile_qr_scan", "android": "https://dc.lft.to/lastmile_qr_scan"}, "is_reserved": 0}, {"lon": -77.00929766666667, "bike_id": "5a126426a90d876701c6644917fcc368", "lat": 38.89606883333333, "fusion_lon": 0.0, "fusion_lat": 0.0, "type": "electric_scooter", "name": "5a126426a90d876701c6644917fcc368", "is_disabled": 0, "rental_uris": {"ios": "https://dc.lft.to/lastmile_qr_scan", "android": "https://dc.lft.to/lastmile_qr_scan"}, "is_reserved": 0}, {"lon": -77.029745, "bike_id": "379b321659dd46336c270bad52e33e2b", "lat": 38.929996833333334, "fusion_lon": 0.0, "fusion_lat": 0.0, "type": "electric_scooter", "name": "379b321659dd46336c270bad52e33e2b", "is_disabled": 0, "rental_uris": {"ios": "https://dc.lft.to/lastmile_qr_scan", "android": "https://dc.lft.to/lastmile_qr_scan"}, "is_reserved": 0}, {"lon": -77.043318, "bike_id": "3279d31d53b671bdd353b5babe8d5c5f", "lat": 38.8922215, "fusion_lon": 0.0, "fusion_lat": 0.0, "type": "electric_scooter", "name": "3279d31d53b671bdd353b5babe8d5c5f", "is_disabled": 0, "rental_uris": {"ios": "https://dc.lft.to/lastmile_qr_scan", "android": "https://dc.lft.to/lastmile_qr_scan"}, "is_reserved": 0}, {"lon": -76.9950375, "bike_id": "cdb56afaa750cf2984b79b82bc5a2cc5", "lat": 38.878373, "fusion_lon": 0.0, "fusion_lat": 0.0, "type": "electric_scooter", "name": "cdb56afaa750cf2984b79b82bc5a2cc5", "is_disabled": 0, "rental_uris": {"ios": "https://dc.lft.to/lastmile_qr_scan", "android": "https://dc.lft.to/lastmile_qr_scan"}, "is_reserved": 0}, {"lon": -76.957581, "bike_id": "c01db413522c3122dd6bb7f90862f495", "lat": 38.88427683333333, "fusion_lon": 0.0, "fusion_lat": 0.0, "type": "electric_scooter", "name": "c01db413522c3122dd6bb7f90862f495", "is_disabled": 0, "rental_uris": {"ios": "https://dc.lft.to/lastmile_qr_scan", "android": "https://dc.lft.to/lastmile_qr_scan"}, "is_reserved": 0}, {"lon": -77.0113075, "bike_id": "1bb645e0f899e8d72885f2055703acb1", "lat": 38.89474416666667, "fusion_lon": 0.0, "fusion_lat": 0.0, "type": "electric_scooter", "name": "1bb645e0f899e8d72885f2055703acb1", "is_disabled": 0, "rental_uris": {"ios": "https://dc.lft.to/lastmile_qr_scan", "android": "https://dc.lft.to/lastmile_qr_scan"}, "is_reserved": 0}, {"lon": -77.02594083333334, "bike_id": "7cc248dd889ecdce357c4fbeee207cc4", "lat": 38.918284, "fusion_lon": 0.0, "fusion_lat": 0.0, "type": "electric_scooter", "name": "7cc248dd889ecdce357c4fbeee207cc4", "is_disabled": 0, "rental_uris": {"ios": "https://dc.lft.to/lastmile_qr_scan", "android": "https://dc.lft.to/lastmile_qr_scan"}, "is_reserved": 0}, {"lon": -76.97645533333333, "bike_id": "33f3c7576f5a550b1ad4f351e53d18dd", "lat": 38.864579, "fusion_lon": 0.0, "fusion_lat": 0.0, "type": "electric_scooter", "name": "33f3c7576f5a550b1ad4f351e53d18dd", "is_disabled": 0, "rental_uris": {"ios": "https://dc.lft.to/lastmile_qr_scan", "android": "https://dc.lft.to/lastmile_qr_scan"}, "is_reserved": 0}, {"lon": -77.04479916666666, "bike_id": "6f6ad9e4fb77bb3cebe06a3c38ab3f2b", "lat": 38.92141633333333, "fusion_lon": 0.0, "fusion_lat": 0.0, "type": "electric_scooter", "name": "6f6ad9e4fb77bb3cebe06a3c38ab3f2b", "is_disabled": 0, "rental_uris": {"ios": "https://dc.lft.to/lastmile_qr_scan", "android": "https://dc.lft.to/lastmile_qr_scan"}, "is_reserved": 0}, {"lon": -76.99274833333334, "bike_id": "430c41ba85f58cc474b16886468daa1e", "lat": 38.8976455, "fusion_lon": 0.0, "fusion_lat": 0.0, "type": "electric_scooter", "name": "430c41ba85f58cc474b16886468daa1e", "is_disabled": 0, "rental_uris": {"ios": "https://dc.lft.to/lastmile_qr_scan", "android": "https://dc.lft.to/lastmile_qr_scan"}, "is_reserved": 0}, {"lon": -77.00743883333334, "bike_id": "3a21d3a0d7d13755e49b3199c3583197", "lat": 38.8764935, "fusion_lon": 0.0, "fusion_lat": 0.0, "type": "electric_scooter", "name": "3a21d3a0d7d13755e49b3199c3583197", "is_disabled": 0, "rental_uris": {"ios": "https://dc.lft.to/lastmile_qr_scan", "android": "https://dc.lft.to/lastmile_qr_scan"}, "is_reserved": 0}, {"lon": -77.00435283333333, "bike_id": "a2f8be0a3fa188694192301ac7ba220c", "lat": 38.877542, "fusion_lon": 0.0, "fusion_lat": 0.0, "type": "electric_scooter", "name": "a2f8be0a3fa188694192301ac7ba220c", "is_disabled": 0, "rental_uris": {"ios": "https://dc.lft.to/lastmile_qr_scan", "android": "https://dc.lft.to/lastmile_qr_scan"}, "is_reserved": 0}, {"lon": -76.97701933333333, "bike_id": "f266476175ef287b48fd312f1d7e571a", "lat": 38.8988395, "fusion_lon": 0.0, "fusion_lat": 0.0, "type": "electric_scooter", "name": "f266476175ef287b48fd312f1d7e571a", "is_disabled": 0, "rental_uris": {"ios": "https://dc.lft.to/lastmile_qr_scan", "android": "https://dc.lft.to/lastmile_qr_scan"}, "is_reserved": 0}, {"lon": -77.0332355, "bike_id": "5cba84a2a783c602c40199498e43d06b", "lat": 38.917071666666665, "fusion_lon": 0.0, "fusion_lat": 0.0, "type": "electric_scooter", "name": "5cba84a2a783c602c40199498e43d06b", "is_disabled": 0, "rental_uris": {"ios": "https://dc.lft.to/lastmile_qr_scan", "android": "https://dc.lft.to/lastmile_qr_scan"}, "is_reserved": 0}, {"lon": -77.01607616666666, "bike_id": "369770a86f5e32e6d3be8b8d557fcc58", "lat": 38.90369366666667, "fusion_lon": 0.0, "fusion_lat": 0.0, "type": "electric_scooter", "name": "369770a86f5e32e6d3be8b8d557fcc58", "is_disabled": 0, "rental_uris": {"ios": "https://dc.lft.to/lastmile_qr_scan", "android": "https://dc.lft.to/lastmile_qr_scan"}, "is_reserved": 0}, {"lon": -77.06195983333333, "bike_id": "77303274d7714f66c5c86758b0b9be73", "lat": 38.9105395, "fusion_lon": 0.0, "fusion_lat": 0.0, "type": "electric_scooter", "name": "77303274d7714f66c5c86758b0b9be73", "is_disabled": 0, "rental_uris": {"ios": "https://dc.lft.to/lastmile_qr_scan", "android": "https://dc.lft.to/lastmile_qr_scan"}, "is_reserved": 0}, {"lon": -77.00787866666667, "bike_id": "5ff4bf55ca2899d5f135e0d9c8f4b4da", "lat": 38.897365666666666, "fusion_lon": 0.0, "fusion_lat": 0.0, "type": "electric_scooter", "name": "5ff4bf55ca2899d5f135e0d9c8f4b4da", "is_disabled": 0, "rental_uris": {"ios": "https://dc.lft.to/lastmile_qr_scan", "android": "https://dc.lft.to/lastmile_qr_scan"}, "is_reserved": 0}, {"lon": -77.04010816666667, "bike_id": "c0a0def726b5d9fb18c6f3e6b3be05c0", "lat": 38.903195833333335, "fusion_lon": 0.0, "fusion_lat": 0.0, "type": "electric_scooter", "name": "c0a0def726b5d9fb18c6f3e6b3be05c0", "is_disabled": 0, "rental_uris": {"ios": "https://dc.lft.to/lastmile_qr_scan", "android": "https://dc.lft.to/lastmile_qr_scan"}, "is_reserved": 0}, {"lon": -77.03286033333333, "bike_id": "88e0a37b9eacb0ff82367efde9a45ea3", "lat": 38.9287865, "fusion_lon": 0.0, "fusion_lat": 0.0, "type": "electric_scooter", "name": "88e0a37b9eacb0ff82367efde9a45ea3", "is_disabled": 0, "rental_uris": {"ios": "https://dc.lft.to/lastmile_qr_scan", "android": "https://dc.lft.to/lastmile_qr_scan"}, "is_reserved": 0}, {"lon": -77.02696166666666, "bike_id": "4f327e57ca9a0413104f8a686b2d1d45", "lat": 38.911364166666665, "fusion_lon": 0.0, "fusion_lat": 0.0, "type": "electric_scooter", "name": "4f327e57ca9a0413104f8a686b2d1d45", "is_disabled": 0, "rental_uris": {"ios": "https://dc.lft.to/lastmile_qr_scan", "android": "https://dc.lft.to/lastmile_qr_scan"}, "is_reserved": 0}, {"lon": -77.04603533333334, "bike_id": "9e4bc4efc6e95758f875d19d84201acb", "lat": 38.9219125, "fusion_lon": 0.0, "fusion_lat": 0.0, "type": "electric_scooter", "name": "9e4bc4efc6e95758f875d19d84201acb", "is_disabled": 0, "rental_uris": {"ios": "https://dc.lft.to/lastmile_qr_scan", "android": "https://dc.lft.to/lastmile_qr_scan"}, "is_reserved": 0}, {"lon": -76.94156166666667, "bike_id": "58fafcd5762a09c59d96cff48ab5ab29", "lat": 38.8790485, "fusion_lon": 0.0, "fusion_lat": 0.0, "type": "electric_scooter", "name": "58fafcd5762a09c59d96cff48ab5ab29", "is_disabled": 0, "rental_uris": {"ios": "https://dc.lft.to/lastmile_qr_scan", "android": "https://dc.lft.to/lastmile_qr_scan"}, "is_reserved": 0}, {"lon": -77.0053775, "bike_id": "eddd9944af2602333893b696fb857cce", "lat": 38.909554166666666, "fusion_lon": 0.0, "fusion_lat": 0.0, "type": "electric_scooter", "name": "eddd9944af2602333893b696fb857cce", "is_disabled": 0, "rental_uris": {"ios": "https://dc.lft.to/lastmile_qr_scan", "android": "https://dc.lft.to/lastmile_qr_scan"}, "is_reserved": 0}, {"lon": -77.03202633333333, "bike_id": "b92328cf2766673704d2b47ebb6d5ac4", "lat": 38.923806666666664, "fusion_lon": 0.0, "fusion_lat": 0.0, "type": "electric_scooter", "name": "b92328cf2766673704d2b47ebb6d5ac4", "is_disabled": 0, "rental_uris": {"ios": "https://dc.lft.to/lastmile_qr_scan", "android": "https://dc.lft.to/lastmile_qr_scan"}, "is_reserved": 0}, {"lon": -77.05054233333334, "bike_id": "a552a117a8f0fdadeb1d5b5543a7fe11", "lat": 38.92381016666667, "fusion_lon": 0.0, "fusion_lat": 0.0, "type": "electric_scooter", "name": "a552a117a8f0fdadeb1d5b5543a7fe11", "is_disabled": 0, "rental_uris": {"ios": "https://dc.lft.to/lastmile_qr_scan", "android": "https://dc.lft.to/lastmile_qr_scan"}, "is_reserved": 0}, {"lon": -77.02766833333334, "bike_id": "33145b70733dd21048ff2706c80578e2", "lat": 38.954233333333335, "fusion_lon": 0.0, "fusion_lat": 0.0, "type": "electric_scooter", "name": "33145b70733dd21048ff2706c80578e2", "is_disabled": 0, "rental_uris": {"ios": "https://dc.lft.to/lastmile_qr_scan", "android": "https://dc.lft.to/lastmile_qr_scan"}, "is_reserved": 0}, {"lon": -77.13243116666666, "bike_id": "8d686d67477c551197d36f41c99e62e3", "lat": 38.805562333333334, "fusion_lon": 0.0, "fusion_lat": 0.0, "type": "electric_bike", "name": "8d686d67477c551197d36f41c99e62e3", "is_disabled": 0, "rental_uris": {"ios": "https://dc.lft.to/lastmile_qr_scan", "android": "https://dc.lft.to/lastmile_qr_scan"}, "is_reserved": 0}, {"lon": -77.0535265, "bike_id": "e498248d6bc2dea9cadfbdab5522536e", "lat": 38.923512333333335, "fusion_lon": 0.0, "fusion_lat": 0.0, "type": "electric_scooter", "name": "e498248d6bc2dea9cadfbdab5522536e", "is_disabled": 0, "rental_uris": {"ios": "https://dc.lft.to/lastmile_qr_scan", "android": "https://dc.lft.to/lastmile_qr_scan"}, "is_reserved": 0}, {"lon": -76.9869665, "bike_id": "bc932cbb22ab0ae24fef01e1e70af8e7", "lat": 38.862537, "fusion_lon": 0.0, "fusion_lat": 0.0, "type": "electric_scooter", "name": "bc932cbb22ab0ae24fef01e1e70af8e7", "is_disabled": 0, "rental_uris": {"ios": "https://dc.lft.to/lastmile_qr_scan", "android": "https://dc.lft.to/lastmile_qr_scan"}, "is_reserved": 0}, {"lon": -77.023191, "bike_id": "8a1c021c388e2c46ca10c39a3a6f4c1f", "lat": 38.91772533333334, "fusion_lon": 0.0, "fusion_lat": 0.0, "type": "electric_scooter", "name": "8a1c021c388e2c46ca10c39a3a6f4c1f", "is_disabled": 0, "rental_uris": {"ios": "https://dc.lft.to/lastmile_qr_scan", "android": "https://dc.lft.to/lastmile_qr_scan"}, "is_reserved": 0}, {"lon": -77.029622, "bike_id": "e7f82d5f3fafbfa34bc3c1e798e1bb97", "lat": 38.898275, "fusion_lon": 0.0, "fusion_lat": 0.0, "type": "electric_scooter", "name": "e7f82d5f3fafbfa34bc3c1e798e1bb97", "is_disabled": 0, "rental_uris": {"ios": "https://dc.lft.to/lastmile_qr_scan", "android": "https://dc.lft.to/lastmile_qr_scan"}, "is_reserved": 0}, {"lon": -77.00020466666666, "bike_id": "96f8a0bcfd097cbd61f58a9e5c1820c4", "lat": 38.907810833333336, "fusion_lon": 0.0, "fusion_lat": 0.0, "type": "electric_scooter", "name": "96f8a0bcfd097cbd61f58a9e5c1820c4", "is_disabled": 0, "rental_uris": {"ios": "https://dc.lft.to/lastmile_qr_scan", "android": "https://dc.lft.to/lastmile_qr_scan"}, "is_reserved": 0}, {"lon": -77.0315895, "bike_id": "4dc608c98039e5c16b4163956c90faeb", "lat": 38.9060675, "fusion_lon": 0.0, "fusion_lat": 0.0, "type": "electric_scooter", "name": "4dc608c98039e5c16b4163956c90faeb", "is_disabled": 0, "rental_uris": {"ios": "https://dc.lft.to/lastmile_qr_scan", "android": "https://dc.lft.to/lastmile_qr_scan"}, "is_reserved": 0}, {"lon": -77.02669933333334, "bike_id": "f894513e3d0062f4f10d6f51e4870eb8", "lat": 38.90728583333333, "fusion_lon": 0.0, "fusion_lat": 0.0, "type": "electric_scooter", "name": "f894513e3d0062f4f10d6f51e4870eb8", "is_disabled": 0, "rental_uris": {"ios": "https://dc.lft.to/lastmile_qr_scan", "android": "https://dc.lft.to/lastmile_qr_scan"}, "is_reserved": 0}, {"lon": -77.02256916666667, "bike_id": "2325561c8a12a3ae7c667aaaee3a8a1a", "lat": 38.9252605, "fusion_lon": 0.0, "fusion_lat": 0.0, "type": "electric_scooter", "name": "2325561c8a12a3ae7c667aaaee3a8a1a", "is_disabled": 0, "rental_uris": {"ios": "https://dc.lft.to/lastmile_qr_scan", "android": "https://dc.lft.to/lastmile_qr_scan"}, "is_reserved": 0}, {"lon": -77.0212505, "bike_id": "55df92f6f248816eb07e235e52699d98", "lat": 38.92474, "fusion_lon": 0.0, "fusion_lat": 0.0, "type": "electric_scooter", "name": "55df92f6f248816eb07e235e52699d98", "is_disabled": 0, "rental_uris": {"ios": "https://dc.lft.to/lastmile_qr_scan", "android": "https://dc.lft.to/lastmile_qr_scan"}, "is_reserved": 0}, {"lon": -77.03211516666667, "bike_id": "2d78ca599b4556ccfd3b39f3944b7dde", "lat": 38.914924166666665, "fusion_lon": 0.0, "fusion_lat": 0.0, "type": "electric_scooter", "name": "2d78ca599b4556ccfd3b39f3944b7dde", "is_disabled": 0, "rental_uris": {"ios": "https://dc.lft.to/lastmile_qr_scan", "android": "https://dc.lft.to/lastmile_qr_scan"}, "is_reserved": 0}, {"lon": -77.0022125, "bike_id": "73103df970ce803c3ebfbc15c84fe741", "lat": 38.91189333333333, "fusion_lon": 0.0, "fusion_lat": 0.0, "type": "electric_scooter", "name": "73103df970ce803c3ebfbc15c84fe741", "is_disabled": 0, "rental_uris": {"ios": "https://dc.lft.to/lastmile_qr_scan", "android": "https://dc.lft.to/lastmile_qr_scan"}, "is_reserved": 0}, {"lon": -77.041602, "bike_id": "3241b2a30bf159ea048a247198291807", "lat": 38.9186575, "fusion_lon": 0.0, "fusion_lat": 0.0, "type": "electric_scooter", "name": "3241b2a30bf159ea048a247198291807", "is_disabled": 0, "rental_uris": {"ios": "https://dc.lft.to/lastmile_qr_scan", "android": "https://dc.lft.to/lastmile_qr_scan"}, "is_reserved": 0}, {"lon": -77.01747183333333, "bike_id": "52cf6ffcbbcc5829e6c9239dfd34eae1", "lat": 38.883191333333336, "fusion_lon": 0.0, "fusion_lat": 0.0, "type": "electric_scooter", "name": "52cf6ffcbbcc5829e6c9239dfd34eae1", "is_disabled": 0, "rental_uris": {"ios": "https://dc.lft.to/lastmile_qr_scan", "android": "https://dc.lft.to/lastmile_qr_scan"}, "is_reserved": 0}, {"lon": -77.03079133333334, "bike_id": "fdb097d8afe195e37fb772c5a7038d04", "lat": 38.923789166666666, "fusion_lon": 0.0, "fusion_lat": 0.0, "type": "electric_scooter", "name": "fdb097d8afe195e37fb772c5a7038d04", "is_disabled": 0, "rental_uris": {"ios": "https://dc.lft.to/lastmile_qr_scan", "android": "https://dc.lft.to/lastmile_qr_scan"}, "is_reserved": 0}, {"lon": -77.04579816666667, "bike_id": "72708f9108f54ed6d601db662da629c5", "lat": 38.92130916666667, "fusion_lon": 0.0, "fusion_lat": 0.0, "type": "electric_scooter", "name": "72708f9108f54ed6d601db662da629c5", "is_disabled": 0, "rental_uris": {"ios": "https://dc.lft.to/lastmile_qr_scan", "android": "https://dc.lft.to/lastmile_qr_scan"}, "is_reserved": 0}, {"lon": -77.04302966666667, "bike_id": "7245775eeddd49d08ab4968a28c326af", "lat": 38.923293, "fusion_lon": 0.0, "fusion_lat": 0.0, "type": "electric_scooter", "name": "7245775eeddd49d08ab4968a28c326af", "is_disabled": 0, "rental_uris": {"ios": "https://dc.lft.to/lastmile_qr_scan", "android": "https://dc.lft.to/lastmile_qr_scan"}, "is_reserved": 0}, {"lon": -77.013132, "bike_id": "72635cbeb76cccf4704a50cb1656b195", "lat": 38.871542, "fusion_lon": 0.0, "fusion_lat": 0.0, "type": "electric_scooter", "name": "72635cbeb76cccf4704a50cb1656b195", "is_disabled": 0, "rental_uris": {"ios": "https://dc.lft.to/lastmile_qr_scan", "android": "https://dc.lft.to/lastmile_qr_scan"}, "is_reserved": 0}, {"lon": -76.99456883333333, "bike_id": "dac187d8af4941b880738add53b6ce46", "lat": 38.96619866666666, "fusion_lon": 0.0, "fusion_lat": 0.0, "type": "electric_bike", "name": "dac187d8af4941b880738add53b6ce46", "is_disabled": 0, "rental_uris": {"ios": "https://dc.lft.to/lastmile_qr_scan", "android": "https://dc.lft.to/lastmile_qr_scan"}, "is_reserved": 0}, {"lon": -77.04674266666666, "bike_id": "c50b6556d5442fba1a93f81325a8092f", "lat": 38.90951616666667, "fusion_lon": 0.0, "fusion_lat": 0.0, "type": "electric_scooter", "name": "c50b6556d5442fba1a93f81325a8092f", "is_disabled": 0, "rental_uris": {"ios": "https://dc.lft.to/lastmile_qr_scan", "android": "https://dc.lft.to/lastmile_qr_scan"}, "is_reserved": 0}, {"lon": -77.01968383333333, "bike_id": "8a5951cc59ac71fe0af38b02381d572d", "lat": 38.876339333333334, "fusion_lon": 0.0, "fusion_lat": 0.0, "type": "electric_scooter", "name": "8a5951cc59ac71fe0af38b02381d572d", "is_disabled": 0, "rental_uris": {"ios": "https://dc.lft.to/lastmile_qr_scan", "android": "https://dc.lft.to/lastmile_qr_scan"}, "is_reserved": 0}, {"lon": -77.02198683333333, "bike_id": "a1650fcb86ab935932661113a0a9b669", "lat": 38.92126566666666, "fusion_lon": 0.0, "fusion_lat": 0.0, "type": "electric_scooter", "name": "a1650fcb86ab935932661113a0a9b669", "is_disabled": 0, "rental_uris": {"ios": "https://dc.lft.to/lastmile_qr_scan", "android": "https://dc.lft.to/lastmile_qr_scan"}, "is_reserved": 0}, {"lon": -77.00067733333333, "bike_id": "715f9681d0a0c38d4155680c526baf27", "lat": 38.896398, "fusion_lon": 0.0, "fusion_lat": 0.0, "type": "electric_scooter", "name": "715f9681d0a0c38d4155680c526baf27", "is_disabled": 0, "rental_uris": {"ios": "https://dc.lft.to/lastmile_qr_scan", "android": "https://dc.lft.to/lastmile_qr_scan"}, "is_reserved": 0}, {"lon": -77.02439466666667, "bike_id": "b33c200c22feee823f639b0c7da0d371", "lat": 38.89997566666667, "fusion_lon": 0.0, "fusion_lat": 0.0, "type": "electric_scooter", "name": "b33c200c22feee823f639b0c7da0d371", "is_disabled": 0, "rental_uris": {"ios": "https://dc.lft.to/lastmile_qr_scan", "android": "https://dc.lft.to/lastmile_qr_scan"}, "is_reserved": 0}, {"lon": -76.995493, "bike_id": "0a29636032f31d7e7d349a58ff2c807d", "lat": 38.86254566666667, "fusion_lon": 0.0, "fusion_lat": 0.0, "type": "electric_scooter", "name": "0a29636032f31d7e7d349a58ff2c807d", "is_disabled": 0, "rental_uris": {"ios": "https://dc.lft.to/lastmile_qr_scan", "android": "https://dc.lft.to/lastmile_qr_scan"}, "is_reserved": 0}, {"lon": -77.03549566666666, "bike_id": "5d8487cd23a369d1e14bf96d50fce397", "lat": 38.91711633333333, "fusion_lon": 0.0, "fusion_lat": 0.0, "type": "electric_scooter", "name": "5d8487cd23a369d1e14bf96d50fce397", "is_disabled": 0, "rental_uris": {"ios": "https://dc.lft.to/lastmile_qr_scan", "android": "https://dc.lft.to/lastmile_qr_scan"}, "is_reserved": 0}, {"lon": -77.0502405, "bike_id": "c117a13fd63af7a0a058d1a9f2b1ce37", "lat": 38.89674266666667, "fusion_lon": 0.0, "fusion_lat": 0.0, "type": "electric_scooter", "name": "c117a13fd63af7a0a058d1a9f2b1ce37", "is_disabled": 0, "rental_uris": {"ios": "https://dc.lft.to/lastmile_qr_scan", "android": "https://dc.lft.to/lastmile_qr_scan"}, "is_reserved": 0}, {"lon": -77.00864683333333, "bike_id": "21b33c812068124f301f86d86186e0e3", "lat": 38.9062455, "fusion_lon": 0.0, "fusion_lat": 0.0, "type": "electric_scooter", "name": "21b33c812068124f301f86d86186e0e3", "is_disabled": 0, "rental_uris": {"ios": "https://dc.lft.to/lastmile_qr_scan", "android": "https://dc.lft.to/lastmile_qr_scan"}, "is_reserved": 0}, {"lon": -77.00375066666666, "bike_id": "33bc1fb33c3843c9b317997ea2482f30", "lat": 38.89727033333333, "fusion_lon": 0.0, "fusion_lat": 0.0, "type": "electric_scooter", "name": "33bc1fb33c3843c9b317997ea2482f30", "is_disabled": 0, "rental_uris": {"ios": "https://dc.lft.to/lastmile_qr_scan", "android": "https://dc.lft.to/lastmile_qr_scan"}, "is_reserved": 0}, {"lon": -77.04318333333333, "bike_id": "ee9e36676a49780c3cd4123653e4d3d3", "lat": 38.92651716666667, "fusion_lon": 0.0, "fusion_lat": 0.0, "type": "electric_scooter", "name": "ee9e36676a49780c3cd4123653e4d3d3", "is_disabled": 0, "rental_uris": {"ios": "https://dc.lft.to/lastmile_qr_scan", "android": "https://dc.lft.to/lastmile_qr_scan"}, "is_reserved": 0}, {"lon": -76.98250166666666, "bike_id": "9267d8ba39e56b3a44b58e487aefc3b1", "lat": 38.91646183333334, "fusion_lon": 0.0, "fusion_lat": 0.0, "type": "electric_scooter", "name": "9267d8ba39e56b3a44b58e487aefc3b1", "is_disabled": 0, "rental_uris": {"ios": "https://dc.lft.to/lastmile_qr_scan", "android": "https://dc.lft.to/lastmile_qr_scan"}, "is_reserved": 0}, {"lon": -76.92997666666666, "bike_id": "9f2e4c7e5dad2993ff4ca3085fa40387", "lat": 38.8932595, "fusion_lon": 0.0, "fusion_lat": 0.0, "type": "electric_scooter", "name": "9f2e4c7e5dad2993ff4ca3085fa40387", "is_disabled": 0, "rental_uris": {"ios": "https://dc.lft.to/lastmile_qr_scan", "android": "https://dc.lft.to/lastmile_qr_scan"}, "is_reserved": 0}, {"lon": -77.0344805, "bike_id": "18dffef56a6ee85cb277c7747facba85", "lat": 38.908083, "fusion_lon": 0.0, "fusion_lat": 0.0, "type": "electric_scooter", "name": "18dffef56a6ee85cb277c7747facba85", "is_disabled": 0, "rental_uris": {"ios": "https://dc.lft.to/lastmile_qr_scan", "android": "https://dc.lft.to/lastmile_qr_scan"}, "is_reserved": 0}, {"lon": -77.02524133333333, "bike_id": "feebe435e8ef0568101496648f9fc3d0", "lat": 38.91739533333333, "fusion_lon": 0.0, "fusion_lat": 0.0, "type": "electric_scooter", "name": "feebe435e8ef0568101496648f9fc3d0", "is_disabled": 0, "rental_uris": {"ios": "https://dc.lft.to/lastmile_qr_scan", "android": "https://dc.lft.to/lastmile_qr_scan"}, "is_reserved": 0}, {"lon": -76.99944083333334, "bike_id": "b8ea95a5168b3bbc5806d10615af3869", "lat": 38.896415166666664, "fusion_lon": 0.0, "fusion_lat": 0.0, "type": "electric_scooter", "name": "b8ea95a5168b3bbc5806d10615af3869", "is_disabled": 0, "rental_uris": {"ios": "https://dc.lft.to/lastmile_qr_scan", "android": "https://dc.lft.to/lastmile_qr_scan"}, "is_reserved": 0}, {"lon": -77.03233316666666, "bike_id": "fbe9b04ab0918e5515545130d037292f", "lat": 38.91710116666667, "fusion_lon": 0.0, "fusion_lat": 0.0, "type": "electric_scooter", "name": "fbe9b04ab0918e5515545130d037292f", "is_disabled": 0, "rental_uris": {"ios": "https://dc.lft.to/lastmile_qr_scan", "android": "https://dc.lft.to/lastmile_qr_scan"}, "is_reserved": 0}, {"lon": -77.02084133333334, "bike_id": "7d5d5c16897cfca9851b2867ec88c227", "lat": 38.9111725, "fusion_lon": 0.0, "fusion_lat": 0.0, "type": "electric_scooter", "name": "7d5d5c16897cfca9851b2867ec88c227", "is_disabled": 0, "rental_uris": {"ios": "https://dc.lft.to/lastmile_qr_scan", "android": "https://dc.lft.to/lastmile_qr_scan"}, "is_reserved": 0}, {"lon": -77.02607883333333, "bike_id": "9b1ea6dd0571ba50585ebb574369dbb3", "lat": 38.918408666666664, "fusion_lon": 0.0, "fusion_lat": 0.0, "type": "electric_scooter", "name": "9b1ea6dd0571ba50585ebb574369dbb3", "is_disabled": 0, "rental_uris": {"ios": "https://dc.lft.to/lastmile_qr_scan", "android": "https://dc.lft.to/lastmile_qr_scan"}, "is_reserved": 0}, {"lon": -76.94806183333333, "bike_id": "673e5fbc442c62a5a9a1716b0ca03063", "lat": 38.861927333333334, "fusion_lon": 0.0, "fusion_lat": 0.0, "type": "electric_bike", "name": "673e5fbc442c62a5a9a1716b0ca03063", "is_disabled": 0, "rental_uris": {"ios": "https://dc.lft.to/lastmile_qr_scan", "android": "https://dc.lft.to/lastmile_qr_scan"}, "is_reserved": 0}, {"lon": -77.02247533333333, "bike_id": "f0b6a71eca147c8fbf3b36776f7384da", "lat": 38.91274166666667, "fusion_lon": 0.0, "fusion_lat": 0.0, "type": "electric_scooter", "name": "f0b6a71eca147c8fbf3b36776f7384da", "is_disabled": 0, "rental_uris": {"ios": "https://dc.lft.to/lastmile_qr_scan", "android": "https://dc.lft.to/lastmile_qr_scan"}, "is_reserved": 0}, {"lon": -76.99060016666667, "bike_id": "7dc9fbf1f929016374282f0f04c9b3f1", "lat": 38.913666166666665, "fusion_lon": 0.0, "fusion_lat": 0.0, "type": "electric_scooter", "name": "7dc9fbf1f929016374282f0f04c9b3f1", "is_disabled": 0, "rental_uris": {"ios": "https://dc.lft.to/lastmile_qr_scan", "android": "https://dc.lft.to/lastmile_qr_scan"}, "is_reserved": 0}, {"lon": -77.04104866666667, "bike_id": "e0fb8f5e2f4ec37ba51318e7439a81bd", "lat": 38.8984535, "fusion_lon": 0.0, "fusion_lat": 0.0, "type": "electric_scooter", "name": "e0fb8f5e2f4ec37ba51318e7439a81bd", "is_disabled": 0, "rental_uris": {"ios": "https://dc.lft.to/lastmile_qr_scan", "android": "https://dc.lft.to/lastmile_qr_scan"}, "is_reserved": 0}, {"lon": -77.0318345, "bike_id": "e664cf9718a0769c06426fc0908e7763", "lat": 38.9142795, "fusion_lon": 0.0, "fusion_lat": 0.0, "type": "electric_scooter", "name": "e664cf9718a0769c06426fc0908e7763", "is_disabled": 0, "rental_uris": {"ios": "https://dc.lft.to/lastmile_qr_scan", "android": "https://dc.lft.to/lastmile_qr_scan"}, "is_reserved": 0}, {"lon": -77.0274555, "bike_id": "29ad22b16bfd79bdc52d073fd18283c8", "lat": 38.881468, "fusion_lon": 0.0, "fusion_lat": 0.0, "type": "electric_scooter", "name": "29ad22b16bfd79bdc52d073fd18283c8", "is_disabled": 0, "rental_uris": {"ios": "https://dc.lft.to/lastmile_qr_scan", "android": "https://dc.lft.to/lastmile_qr_scan"}, "is_reserved": 0}, {"lon": -77.0177095, "bike_id": "58bb8942bbab453504567e699cdc1d8b", "lat": 38.885706, "fusion_lon": 0.0, "fusion_lat": 0.0, "type": "electric_scooter", "name": "58bb8942bbab453504567e699cdc1d8b", "is_disabled": 0, "rental_uris": {"ios": "https://dc.lft.to/lastmile_qr_scan", "android": "https://dc.lft.to/lastmile_qr_scan"}, "is_reserved": 0}, {"lon": -77.0452665, "bike_id": "23ef211a672e06b86e64b1f527c0ef68", "lat": 38.94192683333333, "fusion_lon": 0.0, "fusion_lat": 0.0, "type": "electric_bike", "name": "23ef211a672e06b86e64b1f527c0ef68", "is_disabled": 0, "rental_uris": {"ios": "https://dc.lft.to/lastmile_qr_scan", "android": "https://dc.lft.to/lastmile_qr_scan"}, "is_reserved": 0}, {"lon": -77.04351066666666, "bike_id": "7549da2027ef844f832a4afe2ad4cdf8", "lat": 38.90885516666667, "fusion_lon": 0.0, "fusion_lat": 0.0, "type": "electric_scooter", "name": "7549da2027ef844f832a4afe2ad4cdf8", "is_disabled": 0, "rental_uris": {"ios": "https://dc.lft.to/lastmile_qr_scan", "android": "https://dc.lft.to/lastmile_qr_scan"}, "is_reserved": 0}, {"lon": -77.03386483333334, "bike_id": "e2d0e67b5aee48c5592c3e4a8675c2d4", "lat": 38.938800666666666, "fusion_lon": 0.0, "fusion_lat": 0.0, "type": "electric_scooter", "name": "e2d0e67b5aee48c5592c3e4a8675c2d4", "is_disabled": 0, "rental_uris": {"ios": "https://dc.lft.to/lastmile_qr_scan", "android": "https://dc.lft.to/lastmile_qr_scan"}, "is_reserved": 0}, {"lon": -77.02799283333333, "bike_id": "e9db7ce8688fa0b953caabf8f7cff4b1", "lat": 38.92972433333333, "fusion_lon": 0.0, "fusion_lat": 0.0, "type": "electric_scooter", "name": "e9db7ce8688fa0b953caabf8f7cff4b1", "is_disabled": 0, "rental_uris": {"ios": "https://dc.lft.to/lastmile_qr_scan", "android": "https://dc.lft.to/lastmile_qr_scan"}, "is_reserved": 0}, {"lon": -76.9978375, "bike_id": "71a0b78d0c20db3562fe1e2f7ad49366", "lat": 38.844303833333335, "fusion_lon": 0.0, "fusion_lat": 0.0, "type": "electric_scooter", "name": "71a0b78d0c20db3562fe1e2f7ad49366", "is_disabled": 0, "rental_uris": {"ios": "https://dc.lft.to/lastmile_qr_scan", "android": "https://dc.lft.to/lastmile_qr_scan"}, "is_reserved": 0}, {"lon": -77.02398616666666, "bike_id": "26bd102f83072976b32030a8e1d675df", "lat": 38.90021633333333, "fusion_lon": 0.0, "fusion_lat": 0.0, "type": "electric_scooter", "name": "26bd102f83072976b32030a8e1d675df", "is_disabled": 0, "rental_uris": {"ios": "https://dc.lft.to/lastmile_qr_scan", "android": "https://dc.lft.to/lastmile_qr_scan"}, "is_reserved": 0}, {"lon": -76.93751716666667, "bike_id": "1c1774acf4dc5c3c3f7b701bb9f9163a", "lat": 38.8904665, "fusion_lon": 0.0, "fusion_lat": 0.0, "type": "electric_scooter", "name": "1c1774acf4dc5c3c3f7b701bb9f9163a", "is_disabled": 0, "rental_uris": {"ios": "https://dc.lft.to/lastmile_qr_scan", "android": "https://dc.lft.to/lastmile_qr_scan"}, "is_reserved": 0}, {"lon": -77.0434735, "bike_id": "11df69036d03774a317cd3406f2a23bd", "lat": 38.9042205, "fusion_lon": 0.0, "fusion_lat": 0.0, "type": "electric_scooter", "name": "11df69036d03774a317cd3406f2a23bd", "is_disabled": 0, "rental_uris": {"ios": "https://dc.lft.to/lastmile_qr_scan", "android": "https://dc.lft.to/lastmile_qr_scan"}, "is_reserved": 0}, {"lon": -76.99523066666667, "bike_id": "ef2b8e2c1a37c29b03706a2b0e3228f9", "lat": 38.89607316666667, "fusion_lon": 0.0, "fusion_lat": 0.0, "type": "electric_scooter", "name": "ef2b8e2c1a37c29b03706a2b0e3228f9", "is_disabled": 0, "rental_uris": {"ios": "https://dc.lft.to/lastmile_qr_scan", "android": "https://dc.lft.to/lastmile_qr_scan"}, "is_reserved": 0}, {"lon": -76.9984465, "bike_id": "af8e42de60107a1f82020072b841c39a", "lat": 38.8998325, "fusion_lon": 0.0, "fusion_lat": 0.0, "type": "electric_scooter", "name": "af8e42de60107a1f82020072b841c39a", "is_disabled": 0, "rental_uris": {"ios": "https://dc.lft.to/lastmile_qr_scan", "android": "https://dc.lft.to/lastmile_qr_scan"}, "is_reserved": 0}, {"lon": -77.02944183333334, "bike_id": "bbef1ecca7bcecfc8dd257f065e22655", "lat": 38.92075366666667, "fusion_lon": 0.0, "fusion_lat": 0.0, "type": "electric_scooter", "name": "bbef1ecca7bcecfc8dd257f065e22655", "is_disabled": 0, "rental_uris": {"ios": "https://dc.lft.to/lastmile_qr_scan", "android": "https://dc.lft.to/lastmile_qr_scan"}, "is_reserved": 0}, {"lon": -76.99938116666667, "bike_id": "62cc3fa4440d9c0487203d639e99ade5", "lat": 38.8430045, "fusion_lon": 0.0, "fusion_lat": 0.0, "type": "electric_scooter", "name": "62cc3fa4440d9c0487203d639e99ade5", "is_disabled": 0, "rental_uris": {"ios": "https://dc.lft.to/lastmile_qr_scan", "android": "https://dc.lft.to/lastmile_qr_scan"}, "is_reserved": 0}, {"lon": -77.01844316666667, "bike_id": "edb79583cce4bfcfa191ed2250af62c6", "lat": 38.902659, "fusion_lon": 0.0, "fusion_lat": 0.0, "type": "electric_scooter", "name": "edb79583cce4bfcfa191ed2250af62c6", "is_disabled": 0, "rental_uris": {"ios": "https://dc.lft.to/lastmile_qr_scan", "android": "https://dc.lft.to/lastmile_qr_scan"}, "is_reserved": 0}, {"lon": -77.02291616666666, "bike_id": "48b4c8e154cb0e9dd3c67a5c07e8f13c", "lat": 38.8961385, "fusion_lon": 0.0, "fusion_lat": 0.0, "type": "electric_scooter", "name": "48b4c8e154cb0e9dd3c67a5c07e8f13c", "is_disabled": 0, "rental_uris": {"ios": "https://dc.lft.to/lastmile_qr_scan", "android": "https://dc.lft.to/lastmile_qr_scan"}, "is_reserved": 0}, {"lon": -76.97208416666666, "bike_id": "156546ef47e6289c9006a974efc096de", "lat": 38.89289933333333, "fusion_lon": 0.0, "fusion_lat": 0.0, "type": "electric_bike", "name": "156546ef47e6289c9006a974efc096de", "is_disabled": 0, "rental_uris": {"ios": "https://dc.lft.to/lastmile_qr_scan", "android": "https://dc.lft.to/lastmile_qr_scan"}, "is_reserved": 0}, {"lon": -77.02164966666666, "bike_id": "453ca118bbccb72611bd5916e7bbe82e", "lat": 38.926115, "fusion_lon": 0.0, "fusion_lat": 0.0, "type": "electric_scooter", "name": "453ca118bbccb72611bd5916e7bbe82e", "is_disabled": 0, "rental_uris": {"ios": "https://dc.lft.to/lastmile_qr_scan", "android": "https://dc.lft.to/lastmile_qr_scan"}, "is_reserved": 0}, {"lon": -76.99904433333333, "bike_id": "d13b7d27738b2837411d12bbdab505ca", "lat": 38.94816816666667, "fusion_lon": 0.0, "fusion_lat": 0.0, "type": "electric_scooter", "name": "d13b7d27738b2837411d12bbdab505ca", "is_disabled": 0, "rental_uris": {"ios": "https://dc.lft.to/lastmile_qr_scan", "android": "https://dc.lft.to/lastmile_qr_scan"}, "is_reserved": 0}, {"lon": -77.0424425, "bike_id": "082faababd3896de1b1b9b68551c614c", "lat": 38.92182366666667, "fusion_lon": 0.0, "fusion_lat": 0.0, "type": "electric_scooter", "name": "082faababd3896de1b1b9b68551c614c", "is_disabled": 0, "rental_uris": {"ios": "https://dc.lft.to/lastmile_qr_scan", "android": "https://dc.lft.to/lastmile_qr_scan"}, "is_reserved": 0}, {"lon": -76.98235666666666, "bike_id": "e0d79ca24d464fb2121980083f43b3da", "lat": 38.8647195, "fusion_lon": 0.0, "fusion_lat": 0.0, "type": "electric_scooter", "name": "e0d79ca24d464fb2121980083f43b3da", "is_disabled": 0, "rental_uris": {"ios": "https://dc.lft.to/lastmile_qr_scan", "android": "https://dc.lft.to/lastmile_qr_scan"}, "is_reserved": 0}, {"lon": -77.05576666666667, "bike_id": "42e0f8cabfc8508759b3e12b079308a3", "lat": 38.8973185, "fusion_lon": 0.0, "fusion_lat": 0.0, "type": "electric_scooter", "name": "42e0f8cabfc8508759b3e12b079308a3", "is_disabled": 0, "rental_uris": {"ios": "https://dc.lft.to/lastmile_qr_scan", "android": "https://dc.lft.to/lastmile_qr_scan"}, "is_reserved": 0}, {"lon": -76.93078416666667, "bike_id": "bc0e624c9a3bf0d97849522fee138dfc", "lat": 38.90162566666667, "fusion_lon": 0.0, "fusion_lat": 0.0, "type": "electric_scooter", "name": "bc0e624c9a3bf0d97849522fee138dfc", "is_disabled": 0, "rental_uris": {"ios": "https://dc.lft.to/lastmile_qr_scan", "android": "https://dc.lft.to/lastmile_qr_scan"}, "is_reserved": 0}, {"lon": -77.03451733333333, "bike_id": "a1559fb0e594672422f32171c4057155", "lat": 38.905717, "fusion_lon": 0.0, "fusion_lat": 0.0, "type": "electric_scooter", "name": "a1559fb0e594672422f32171c4057155", "is_disabled": 0, "rental_uris": {"ios": "https://dc.lft.to/lastmile_qr_scan", "android": "https://dc.lft.to/lastmile_qr_scan"}, "is_reserved": 0}, {"lon": -77.13927283333334, "bike_id": "3a31c013085144552502f1598c233533", "lat": 38.87297566666667, "fusion_lon": 0.0, "fusion_lat": 0.0, "type": "electric_bike", "name": "3a31c013085144552502f1598c233533", "is_disabled": 0, "rental_uris": {"ios": "https://dc.lft.to/lastmile_qr_scan", "android": "https://dc.lft.to/lastmile_qr_scan"}, "is_reserved": 0}, {"lon": -77.04174483333334, "bike_id": "af594fb122a64a71ae3ffaf338a0624b", "lat": 38.907297166666666, "fusion_lon": 0.0, "fusion_lat": 0.0, "type": "electric_scooter", "name": "af594fb122a64a71ae3ffaf338a0624b", "is_disabled": 0, "rental_uris": {"ios": "https://dc.lft.to/lastmile_qr_scan", "android": "https://dc.lft.to/lastmile_qr_scan"}, "is_reserved": 0}, {"lon": -77.020884, "bike_id": "ed93029559278ae921cd110dbbed1ce9", "lat": 38.88180833333333, "fusion_lon": 0.0, "fusion_lat": 0.0, "type": "electric_scooter", "name": "ed93029559278ae921cd110dbbed1ce9", "is_disabled": 0, "rental_uris": {"ios": "https://dc.lft.to/lastmile_qr_scan", "android": "https://dc.lft.to/lastmile_qr_scan"}, "is_reserved": 0}, {"lon": -77.0215805, "bike_id": "3ba76da824ebc6cf27529bc0cccc4ba9", "lat": 38.92601666666667, "fusion_lon": 0.0, "fusion_lat": 0.0, "type": "electric_scooter", "name": "3ba76da824ebc6cf27529bc0cccc4ba9", "is_disabled": 0, "rental_uris": {"ios": "https://dc.lft.to/lastmile_qr_scan", "android": "https://dc.lft.to/lastmile_qr_scan"}, "is_reserved": 0}, {"lon": -77.02908633333334, "bike_id": "145babb50d32797fb1eff57f6ddc0af3", "lat": 38.90055616666667, "fusion_lon": 0.0, "fusion_lat": 0.0, "type": "electric_scooter", "name": "145babb50d32797fb1eff57f6ddc0af3", "is_disabled": 0, "rental_uris": {"ios": "https://dc.lft.to/lastmile_qr_scan", "android": "https://dc.lft.to/lastmile_qr_scan"}, "is_reserved": 0}, {"lon": -77.01981816666667, "bike_id": "7535963c58c70ad79e19696cc8803777", "lat": 38.89563233333333, "fusion_lon": 0.0, "fusion_lat": 0.0, "type": "electric_scooter", "name": "7535963c58c70ad79e19696cc8803777", "is_disabled": 0, "rental_uris": {"ios": "https://dc.lft.to/lastmile_qr_scan", "android": "https://dc.lft.to/lastmile_qr_scan"}, "is_reserved": 0}, {"lon": -77.03181416666666, "bike_id": "06de5f082dc4b365d2d644ae6fd65ff2", "lat": 38.919146833333336, "fusion_lon": 0.0, "fusion_lat": 0.0, "type": "electric_scooter", "name": "06de5f082dc4b365d2d644ae6fd65ff2", "is_disabled": 0, "rental_uris": {"ios": "https://dc.lft.to/lastmile_qr_scan", "android": "https://dc.lft.to/lastmile_qr_scan"}, "is_reserved": 0}, {"lon": -76.98362383333334, "bike_id": "ed86b31fbf9c81f1a38cc5593a364a5e", "lat": 38.8874415, "fusion_lon": 0.0, "fusion_lat": 0.0, "type": "electric_scooter", "name": "ed86b31fbf9c81f1a38cc5593a364a5e", "is_disabled": 0, "rental_uris": {"ios": "https://dc.lft.to/lastmile_qr_scan", "android": "https://dc.lft.to/lastmile_qr_scan"}, "is_reserved": 0}, {"lon": -77.048075, "bike_id": "b82e060c751f331d1b37131b16741f0e", "lat": 38.910325666666665, "fusion_lon": 0.0, "fusion_lat": 0.0, "type": "electric_scooter", "name": "b82e060c751f331d1b37131b16741f0e", "is_disabled": 0, "rental_uris": {"ios": "https://dc.lft.to/lastmile_qr_scan", "android": "https://dc.lft.to/lastmile_qr_scan"}, "is_reserved": 0}, {"lon": -77.00223883333334, "bike_id": "6b95c5b44e06e9ab0c58dac528ddb839", "lat": 38.900427, "fusion_lon": 0.0, "fusion_lat": 0.0, "type": "electric_scooter", "name": "6b95c5b44e06e9ab0c58dac528ddb839", "is_disabled": 0, "rental_uris": {"ios": "https://dc.lft.to/lastmile_qr_scan", "android": "https://dc.lft.to/lastmile_qr_scan"}, "is_reserved": 0}, {"lon": -76.99506583333333, "bike_id": "f818fa032a199d30db2ca4904041b0a0", "lat": 38.897623333333335, "fusion_lon": 0.0, "fusion_lat": 0.0, "type": "electric_scooter", "name": "f818fa032a199d30db2ca4904041b0a0", "is_disabled": 0, "rental_uris": {"ios": "https://dc.lft.to/lastmile_qr_scan", "android": "https://dc.lft.to/lastmile_qr_scan"}, "is_reserved": 0}, {"lon": -77.01143983333333, "bike_id": "3a67d76f0652b2a9736e41dc54a6f01f", "lat": 38.869681, "fusion_lon": 0.0, "fusion_lat": 0.0, "type": "electric_scooter", "name": "3a67d76f0652b2a9736e41dc54a6f01f", "is_disabled": 0, "rental_uris": {"ios": "https://dc.lft.to/lastmile_qr_scan", "android": "https://dc.lft.to/lastmile_qr_scan"}, "is_reserved": 0}, {"lon": -76.9966465, "bike_id": "19632a325044d436f0695baad1099907", "lat": 38.92437433333333, "fusion_lon": 0.0, "fusion_lat": 0.0, "type": "electric_bike", "name": "19632a325044d436f0695baad1099907", "is_disabled": 0, "rental_uris": {"ios": "https://dc.lft.to/lastmile_qr_scan", "android": "https://dc.lft.to/lastmile_qr_scan"}, "is_reserved": 0}, {"lon": -77.01577266666666, "bike_id": "aed89ab0e5a22d25cb8505a06f4b45e1", "lat": 38.953188, "fusion_lon": 0.0, "fusion_lat": 0.0, "type": "electric_bike", "name": "aed89ab0e5a22d25cb8505a06f4b45e1", "is_disabled": 0, "rental_uris": {"ios": "https://dc.lft.to/lastmile_qr_scan", "android": "https://dc.lft.to/lastmile_qr_scan"}, "is_reserved": 0}, {"lon": -76.98336233333333, "bike_id": "c223893d6123a78163bb6cd6efd2d84d", "lat": 38.8954415, "fusion_lon": 0.0, "fusion_lat": 0.0, "type": "electric_scooter", "name": "c223893d6123a78163bb6cd6efd2d84d", "is_disabled": 0, "rental_uris": {"ios": "https://dc.lft.to/lastmile_qr_scan", "android": "https://dc.lft.to/lastmile_qr_scan"}, "is_reserved": 0}, {"lon": -77.00928633333334, "bike_id": "d4eddf2c604a253c70facc41598b9a17", "lat": 38.89606116666667, "fusion_lon": 0.0, "fusion_lat": 0.0, "type": "electric_scooter", "name": "d4eddf2c604a253c70facc41598b9a17", "is_disabled": 0, "rental_uris": {"ios": "https://dc.lft.to/lastmile_qr_scan", "android": "https://dc.lft.to/lastmile_qr_scan"}, "is_reserved": 0}, {"lon": -76.99705133333333, "bike_id": "5f5c699bfa362046273cb0e5f54195cd", "lat": 38.8442605, "fusion_lon": 0.0, "fusion_lat": 0.0, "type": "electric_scooter", "name": "5f5c699bfa362046273cb0e5f54195cd", "is_disabled": 0, "rental_uris": {"ios": "https://dc.lft.to/lastmile_qr_scan", "android": "https://dc.lft.to/lastmile_qr_scan"}, "is_reserved": 0}, {"lon": -77.03879983333333, "bike_id": "6e3a6dd4871008fb5c6ab587338d19dd", "lat": 38.925033, "fusion_lon": 0.0, "fusion_lat": 0.0, "type": "electric_scooter", "name": "6e3a6dd4871008fb5c6ab587338d19dd", "is_disabled": 0, "rental_uris": {"ios": "https://dc.lft.to/lastmile_qr_scan", "android": "https://dc.lft.to/lastmile_qr_scan"}, "is_reserved": 0}, {"lon": -77.05187366666667, "bike_id": "7ff7018d7992baaba763cb5307f8fc96", "lat": 38.924260833333335, "fusion_lon": 0.0, "fusion_lat": 0.0, "type": "electric_scooter", "name": "7ff7018d7992baaba763cb5307f8fc96", "is_disabled": 0, "rental_uris": {"ios": "https://dc.lft.to/lastmile_qr_scan", "android": "https://dc.lft.to/lastmile_qr_scan"}, "is_reserved": 0}, {"lon": -77.07611066666666, "bike_id": "60909e13a8240437f0b5b97464bc6fac", "lat": 38.92059033333334, "fusion_lon": 0.0, "fusion_lat": 0.0, "type": "electric_scooter", "name": "60909e13a8240437f0b5b97464bc6fac", "is_disabled": 0, "rental_uris": {"ios": "https://dc.lft.to/lastmile_qr_scan", "android": "https://dc.lft.to/lastmile_qr_scan"}, "is_reserved": 0}, {"lon": -76.9760375, "bike_id": "29a0df3b7992bf8831ee91944e79d991", "lat": 38.8975205, "fusion_lon": 0.0, "fusion_lat": 0.0, "type": "electric_scooter", "name": "29a0df3b7992bf8831ee91944e79d991", "is_disabled": 0, "rental_uris": {"ios": "https://dc.lft.to/lastmile_qr_scan", "android": "https://dc.lft.to/lastmile_qr_scan"}, "is_reserved": 0}, {"lon": -77.0054245, "bike_id": "d710611fb096ed92ba786284c1a0db75", "lat": 38.875441333333335, "fusion_lon": 0.0, "fusion_lat": 0.0, "type": "electric_scooter", "name": "d710611fb096ed92ba786284c1a0db75", "is_disabled": 0, "rental_uris": {"ios": "https://dc.lft.to/lastmile_qr_scan", "android": "https://dc.lft.to/lastmile_qr_scan"}, "is_reserved": 0}, {"lon": -77.03239133333334, "bike_id": "9f7fcf8ea818d2f7b9ecd531db5b0b05", "lat": 38.9284735, "fusion_lon": 0.0, "fusion_lat": 0.0, "type": "electric_scooter", "name": "9f7fcf8ea818d2f7b9ecd531db5b0b05", "is_disabled": 0, "rental_uris": {"ios": "https://dc.lft.to/lastmile_qr_scan", "android": "https://dc.lft.to/lastmile_qr_scan"}, "is_reserved": 0}, {"lon": -77.04189916666667, "bike_id": "4296defdfcc90cd40e6f7861fe56375b", "lat": 38.90637516666666, "fusion_lon": 0.0, "fusion_lat": 0.0, "type": "electric_scooter", "name": "4296defdfcc90cd40e6f7861fe56375b", "is_disabled": 0, "rental_uris": {"ios": "https://dc.lft.to/lastmile_qr_scan", "android": "https://dc.lft.to/lastmile_qr_scan"}, "is_reserved": 0}, {"lon": -76.9639735, "bike_id": "468d33e3c0ebe4fc314b013ebd232a6c", "lat": 38.9517125, "fusion_lon": 0.0, "fusion_lat": 0.0, "type": "electric_bike", "name": "468d33e3c0ebe4fc314b013ebd232a6c", "is_disabled": 0, "rental_uris": {"ios": "https://dc.lft.to/lastmile_qr_scan", "android": "https://dc.lft.to/lastmile_qr_scan"}, "is_reserved": 0}, {"lon": -77.04890433333334, "bike_id": "22b7a66402c91cbc63a0a9e4127c2373", "lat": 38.901047166666665, "fusion_lon": 0.0, "fusion_lat": 0.0, "type": "electric_scooter", "name": "22b7a66402c91cbc63a0a9e4127c2373", "is_disabled": 0, "rental_uris": {"ios": "https://dc.lft.to/lastmile_qr_scan", "android": "https://dc.lft.to/lastmile_qr_scan"}, "is_reserved": 0}, {"lon": -77.02616466666667, "bike_id": "8729892912417722c7ab0ef43f8639f5", "lat": 38.89623066666667, "fusion_lon": 0.0, "fusion_lat": 0.0, "type": "electric_scooter", "name": "8729892912417722c7ab0ef43f8639f5", "is_disabled": 0, "rental_uris": {"ios": "https://dc.lft.to/lastmile_qr_scan", "android": "https://dc.lft.to/lastmile_qr_scan"}, "is_reserved": 0}, {"lon": -77.03176066666667, "bike_id": "a35eb789b5778226eb461344c45aaf25", "lat": 38.92000983333333, "fusion_lon": 0.0, "fusion_lat": 0.0, "type": "electric_scooter", "name": "a35eb789b5778226eb461344c45aaf25", "is_disabled": 0, "rental_uris": {"ios": "https://dc.lft.to/lastmile_qr_scan", "android": "https://dc.lft.to/lastmile_qr_scan"}, "is_reserved": 0}, {"lon": -77.0165065, "bike_id": "5ed5a41d5c156e5278d3f399632b1887", "lat": 38.928946333333336, "fusion_lon": 0.0, "fusion_lat": 0.0, "type": "electric_scooter", "name": "5ed5a41d5c156e5278d3f399632b1887", "is_disabled": 0, "rental_uris": {"ios": "https://dc.lft.to/lastmile_qr_scan", "android": "https://dc.lft.to/lastmile_qr_scan"}, "is_reserved": 0}, {"lon": -77.02312233333333, "bike_id": "af1ed4d94a1dd2f54912b9277aff991c", "lat": 38.9095675, "fusion_lon": 0.0, "fusion_lat": 0.0, "type": "electric_scooter", "name": "af1ed4d94a1dd2f54912b9277aff991c", "is_disabled": 0, "rental_uris": {"ios": "https://dc.lft.to/lastmile_qr_scan", "android": "https://dc.lft.to/lastmile_qr_scan"}, "is_reserved": 0}, {"lon": -76.9955525, "bike_id": "1002963ed6210604da4f4b4f0357af7a", "lat": 38.92665933333333, "fusion_lon": 0.0, "fusion_lat": 0.0, "type": "electric_scooter", "name": "1002963ed6210604da4f4b4f0357af7a", "is_disabled": 0, "rental_uris": {"ios": "https://dc.lft.to/lastmile_qr_scan", "android": "https://dc.lft.to/lastmile_qr_scan"}, "is_reserved": 0}, {"lon": -76.99549083333333, "bike_id": "a7fe724ee3485926c886f6ccd02d86ad", "lat": 38.86256316666667, "fusion_lon": 0.0, "fusion_lat": 0.0, "type": "electric_scooter", "name": "a7fe724ee3485926c886f6ccd02d86ad", "is_disabled": 0, "rental_uris": {"ios": "https://dc.lft.to/lastmile_qr_scan", "android": "https://dc.lft.to/lastmile_qr_scan"}, "is_reserved": 0}, {"lon": -77.02173216666667, "bike_id": "3e79ca71bcab2869e8134e7d52a31456", "lat": 38.926087833333334, "fusion_lon": 0.0, "fusion_lat": 0.0, "type": "electric_scooter", "name": "3e79ca71bcab2869e8134e7d52a31456", "is_disabled": 0, "rental_uris": {"ios": "https://dc.lft.to/lastmile_qr_scan", "android": "https://dc.lft.to/lastmile_qr_scan"}, "is_reserved": 0}, {"lon": -77.02692516666667, "bike_id": "ea6f2ff0b9a5b41a29b00033be09cc5b", "lat": 38.897936666666666, "fusion_lon": 0.0, "fusion_lat": 0.0, "type": "electric_scooter", "name": "ea6f2ff0b9a5b41a29b00033be09cc5b", "is_disabled": 0, "rental_uris": {"ios": "https://dc.lft.to/lastmile_qr_scan", "android": "https://dc.lft.to/lastmile_qr_scan"}, "is_reserved": 0},