{"data": {"bikes": [{"rental_uris": {"ios": "https://dc.lft.to/lastmile_qr_scan", "android": "https://dc.lft.to/lastmile_qr_scan"}, "lon": -77.10510183333334, "type": "electric_bike", "fusion_lat": 0.0, "lat": 38.928484, "name": "243c686f85c3a47e1fe82492a13261df", "fusion_lon": 0.0, "bike_id": "243c686f85c3a47e1fe82492a13261df", "is_disabled": 0, "is_reserved": 0}, {"rental_uris": {"ios": "https://dc.lft.to/lastmile_qr_scan", "android": "https://dc.lft.to/lastmile_qr_scan"}, "lon": -77.00656683333334, "type": "electric_scooter", "fusion_lat": 0.0, "lat": 38.944619333333335, "name": "ff26b7da6ca7b5d9a60a0cbf5d74769c", "fusion_lon": 0.0, "bike_id": "ff26b7da6ca7b5d9a60a0cbf5d74769c", "is_disabled": 0, "is_reserved": 0}, {"rental_uris": {"ios": "https://dc.lft.to/lastmile_qr_scan", "android": "https://dc.lft.to/lastmile_qr_scan"}, "lon": -77.04472883333334, "type": "electric_scooter", "fusion_lat": 0.0, "lat": 38.91560033333333, "name": "0969caa8c55c0d370e8362b68c0eb521", "fusion_lon": 0.0, "bike_id": "0969caa8c55c0d370e8362b68c0eb521", "is_disabled": 0, "is_reserved": 0}, {"rental_uris": {"ios": "https://dc.lft.to/lastmile_qr_scan", "android": "https://dc.lft.to/lastmile_qr_scan"}, "lon": -76.98410733333333, "type": "electric_scooter", "fusion_lat": 0.0, "lat": 38.85972566666667, "name": "d03b593ebcaff6348650d86568fcd301", "fusion_lon": 0.0, "bike_id": "d03b593ebcaff6348650d86568fcd301", "is_disabled": 0, "is_reserved": 0}, {"rental_uris": {"ios": "https://dc.lft.to/lastmile_qr_scan", "android": "https://dc.lft.to/lastmile_qr_scan"}, "lon": -77.05526683333333, "type": "electric_scooter", "fusion_lat": 0.0, "lat": 38.899089333333336, "name": "2d339332dde0ddb0b3458bead360c0a5", "fusion_lon": 0.0, "bike_id": "2d339332dde0ddb0b3458bead360c0a5", "is_disabled": 0, "is_reserved": 0}, {"rental_uris": {"ios": "https://dc.lft.to/lastmile_qr_scan", "android": "https://dc.lft.to/lastmile_qr_scan"}, "lon": -77.02210166666667, "type": "electric_scooter", "fusion_lat": 0.0, "lat": 38.887661666666666, "name": "16a8516bba5c9c5a2522b5f605a1970f", "fusion_lon": 0.0, "bike_id": "16a8516bba5c9c5a2522b5f605a1970f", "is_disabled": 0, "is_reserved": 0}, {"rental_uris": {"ios": "https://dc.lft.to/lastmile_qr_scan", "android": "https://dc.lft.to/lastmile_qr_scan"}, "lon": -77.00279483333334, "type": "electric_scooter", "fusion_lat": 0.0, "lat": 38.897443, "name": "d85a32d7cdd12a912047cae24454b5ba", "fusion_lon": 0.0, "bike_id": "d85a32d7cdd12a912047cae24454b5ba", "is_disabled": 0, "is_reserved": 0}, {"rental_uris": {"ios": "https://dc.lft.to/lastmile_qr_scan", "android": "https://dc.lft.to/lastmile_qr_scan"}, "lon": -77.08940866666667, "type": "electric_bike", "fusion_lat": 0.0, "lat": 38.8409805, "name": "c9ad13b7ec70184d49c013bbc54562eb", "fusion_lon": 0.0, "bike_id": "c9ad13b7ec70184d49c013bbc54562eb", "is_disabled": 0, "is_reserved": 0}, {"rental_uris": {"ios": "https://dc.lft.to/lastmile_qr_scan", "android": "https://dc.lft.to/lastmile_qr_scan"}, "lon": -77.03082633333334, "type": "electric_scooter", "fusion_lat": 0.0, "lat": 38.90045816666667, "name": "0b3b5bb1ec756397c30c236db980f1d8", "fusion_lon": 0.0, "bike_id": "0b3b5bb1ec756397c30c236db980f1d8", "is_disabled": 0, "is_reserved": 0}, {"rental_uris": {"ios": "https://dc.lft.to/lastmile_qr_scan", "android": "https://dc.lft.to/lastmile_qr_scan"}, "lon": -77.04898483333334, "type": "electric_scooter", "fusion_lat": 0.0, "lat": 38.90542516666667, "name": "52159fedc483dd5ae90e24b567c44a72", "fusion_lon": 0.0, "bike_id": "52159fedc483dd5ae90e24b567c44a72", "is_disabled": 0, "is_reserved": 0}, {"rental_uris": {"ios": "https://dc.lft.to/lastmile_qr_scan", "android": "https://dc.lft.to/lastmile_qr_scan"}, "lon": -77.02213, "type": "electric_scooter", "fusion_lat": 0.0, "lat": 38.905729666666666, "name": "ea84cb59fe93fa65cf118798389c42ce", "fusion_lon": 0.0, "bike_id": "ea84cb59fe93fa65cf118798389c42ce", "is_disabled": 0, "is_reserved": 0}, {"rental_uris": {"ios": "https://dc.lft.to/lastmile_qr_scan", "android": "https://dc.lft.to/lastmile_qr_scan"}, "lon": -77.01836933333334, "type": "electric_bike", "fusion_lat": 0.0, "lat": 38.9086245, "name": "4080b274f30f3c304235f095117b1602", "fusion_lon": 0.0, "bike_id": "4080b274f30f3c304235f095117b1602", "is_disabled": 0, "is_reserved": 0}, {"rental_uris": {"ios": "https://dc.lft.to/lastmile_qr_scan", "android": "https://dc.lft.to/lastmile_qr_scan"}, "lon": -77.0511855, "type": "electric_scooter", "fusion_lat": 0.0, "lat": 38.923628666666666, "name": "3e250800f35db7e596ea977c5d02b6bd", "fusion_lon": 0.0, "bike_id": "3e250800f35db7e596ea977c5d02b6bd", "is_disabled": 0, "is_reserved": 0}, {"rental_uris": {"ios": "https://dc.lft.to/lastmile_qr_scan", "android": "https://dc.lft.to/lastmile_qr_scan"}, "lon": -77.01091966666667, "type": "electric_scooter", "fusion_lat": 0.0, "lat": 38.894842, "name": "e3d568255261c64825626afde09b84db", "fusion_lon": 0.0, "bike_id": "e3d568255261c64825626afde09b84db", "is_disabled": 0, "is_reserved": 0}, {"rental_uris": {"ios": "https://dc.lft.to/lastmile_qr_scan", "android": "https://dc.lft.to/lastmile_qr_scan"}, "lon": -77.04254216666666, "type": "electric_scooter", "fusion_lat": 0.0, "lat": 38.902872333333335, "name": "d7557f77f854f780fca0eeb2cfd996e7", "fusion_lon": 0.0, "bike_id": "d7557f77f854f780fca0eeb2cfd996e7", "is_disabled": 0, "is_reserved": 0}, {"rental_uris": {"ios": "https://dc.lft.to/lastmile_qr_scan", "android": "https://dc.lft.to/lastmile_qr_scan"}, "lon": -76.99679633333334, "type": "electric_scooter", "fusion_lat": 0.0, "lat": 38.904967166666665, "name": "6c6fae7e0a4615e4364e33d961661a5f", "fusion_lon": 0.0, "bike_id": "6c6fae7e0a4615e4364e33d961661a5f", "is_disabled": 0, "is_reserved": 0}, {"rental_uris": {"ios": "https://dc.lft.to/lastmile_qr_scan", "android": "https://dc.lft.to/lastmile_qr_scan"}, "lon": -77.027072, "type": "electric_scooter", "fusion_lat": 0.0, "lat": 38.90669533333333, "name": "bea3ffb1971cf45be9ba0db378e211d3", "fusion_lon": 0.0, "bike_id": "bea3ffb1971cf45be9ba0db378e211d3", "is_disabled": 0, "is_reserved": 0}, {"rental_uris": {"ios": "https://dc.lft.to/lastmile_qr_scan", "android": "https://dc.lft.to/lastmile_qr_scan"}, "lon": -77.1068355, "type": "electric_bike", "fusion_lat": 0.0, "lat": 38.9358165, "name": "3ea173d86e2b7ba07c84bf949e313a00", "fusion_lon": 0.0, "bike_id": "3ea173d86e2b7ba07c84bf949e313a00", "is_disabled": 0, "is_reserved": 0}, {"rental_uris": {"ios": "https://dc.lft.to/lastmile_qr_scan", "android": "https://dc.lft.to/lastmile_qr_scan"}, "lon": -77.04657683333333, "type": "electric_scooter", "fusion_lat": 0.0, "lat": 38.8933985, "name": "a98f8bfdf43c6b1305d3f77a4fc8bad1", "fusion_lon": 0.0, "bike_id": "a98f8bfdf43c6b1305d3f77a4fc8bad1", "is_disabled": 0, "is_reserved": 0}, {"rental_uris": {"ios": "https://dc.lft.to/lastmile_qr_scan", "android": "https://dc.lft.to/lastmile_qr_scan"}, "lon": -77.05021783333333, "type": "electric_scooter", "fusion_lat": 0.0, "lat": 38.92355166666667, "name": "d837a4324d9a06aa628060f06b3c2946", "fusion_lon": 0.0, "bike_id": "d837a4324d9a06aa628060f06b3c2946", "is_disabled": 0, "is_reserved": 0}, {"rental_uris": {"ios": "https://dc.lft.to/lastmile_qr_scan", "android": "https://dc.lft.to/lastmile_qr_scan"}, "lon": -77.00930133333334, "type": "electric_scooter", "fusion_lat": 0.0, "lat": 38.916962, "name": "19985469e79664984e6c67cae356daf3", "fusion_lon": 0.0, "bike_id": "19985469e79664984e6c67cae356daf3", "is_disabled": 0, "is_reserved": 0}, {"rental_uris": {"ios": "https://dc.lft.to/lastmile_qr_scan", "android": "https://dc.lft.to/lastmile_qr_scan"}, "lon": -77.00210033333333, "type": "electric_scooter", "fusion_lat": 0.0, "lat": 38.9051875, "name": "272efa8dda258b9e636bfb9de761facc", "fusion_lon": 0.0, "bike_id": "272efa8dda258b9e636bfb9de761facc", "is_disabled": 0, "is_reserved": 0}, {"rental_uris": {"ios": "https://dc.lft.to/lastmile_qr_scan", "android": "https://dc.lft.to/lastmile_qr_scan"}, "lon": -77.0025195, "type": "electric_scooter", "fusion_lat": 0.0, "lat": 38.901214333333336, "name": "6ceb6bec8351f7dfb2f0d18647082033", "fusion_lon": 0.0, "bike_id": "6ceb6bec8351f7dfb2f0d18647082033", "is_disabled": 0, "is_reserved": 0}, {"rental_uris": {"ios": "https://dc.lft.to/lastmile_qr_scan", "android": "https://dc.lft.to/lastmile_qr_scan"}, "lon": -77.02697233333333, "type": "electric_scooter", "fusion_lat": 0.0, "lat": 38.90012016666667, "name": "b43cef6c1eb4165a9926e3e6df9e4933", "fusion_lon": 0.0, "bike_id": "b43cef6c1eb4165a9926e3e6df9e4933", "is_disabled": 0, "is_reserved": 0}, {"rental_uris": {"ios": "https://dc.lft.to/lastmile_qr_scan", "android": "https://dc.lft.to/lastmile_qr_scan"}, "lon": -77.03423666666667, "type": "electric_scooter", "fusion_lat": 0.0, "lat": 38.927313166666664, "name": "c178d41b0997cc2abefa7adcfa1b203e", "fusion_lon": 0.0, "bike_id": "c178d41b0997cc2abefa7adcfa1b203e", "is_disabled": 0, "is_reserved": 0}, {"rental_uris": {"ios": "https://dc.lft.to/lastmile_qr_scan", "android": "https://dc.lft.to/lastmile_qr_scan"}, "lon": -77.03378933333333, "type": "electric_scooter", "fusion_lat": 0.0, "lat": 38.921471, "name": "3ddf3ad92198aadea090e04b1283bc18", "fusion_lon": 0.0, "bike_id": "3ddf3ad92198aadea090e04b1283bc18", "is_disabled": 0, "is_reserved": 0}, {"rental_uris": {"ios": "https://dc.lft.to/lastmile_qr_scan", "android": "https://dc.lft.to/lastmile_qr_scan"}, "lon": -77.02067683333334, "type": "electric_scooter", "fusion_lat": 0.0, "lat": 38.903999666666664, "name": "ab14f3025e7b838d2997f0e27fe476df", "fusion_lon": 0.0, "bike_id": "ab14f3025e7b838d2997f0e27fe476df", "is_disabled": 0, "is_reserved": 0}, {"rental_uris": {"ios": "https://dc.lft.to/lastmile_qr_scan", "android": "https://dc.lft.to/lastmile_qr_scan"}, "lon": -76.99069133333333, "type": "electric_scooter", "fusion_lat": 0.0, "lat": 38.90418533333333, "name": "47a7fc0dee34d6fcf2e62cafabfd0044", "fusion_lon": 0.0, "bike_id": "47a7fc0dee34d6fcf2e62cafabfd0044", "is_disabled": 0, "is_reserved": 0}, {"rental_uris": {"ios": "https://dc.lft.to/lastmile_qr_scan", "android": "https://dc.lft.to/lastmile_qr_scan"}, "lon": -77.015084, "type": "electric_scooter", "fusion_lat": 0.0, "lat": 38.9107915, "name": "d257759c9c9cb245c66096f42f5f3366", "fusion_lon": 0.0, "bike_id": "d257759c9c9cb245c66096f42f5f3366", "is_disabled": 0, "is_reserved": 0}, {"rental_uris": {"ios": "https://dc.lft.to/lastmile_qr_scan", "android": "https://dc.lft.to/lastmile_qr_scan"}, "lon": -77.0050695, "type": "electric_scooter", "fusion_lat": 0.0, "lat": 38.8753265, "name": "0379dad89b3d07965fc085c5d370f354", "fusion_lon": 0.0, "bike_id": "0379dad89b3d07965fc085c5d370f354", "is_disabled": 0, "is_reserved": 0}, {"rental_uris": {"ios": "https://dc.lft.to/lastmile_qr_scan", "android": "https://dc.lft.to/lastmile_qr_scan"}, "lon": -77.03484766666666, "type": "electric_scooter", "fusion_lat": 0.0, "lat": 38.9192475, "name": "4a47d154d4668583d3925ab2a3fd79cf", "fusion_lon": 0.0, "bike_id": "4a47d154d4668583d3925ab2a3fd79cf", "is_disabled": 0, "is_reserved": 0}, {"rental_uris": {"ios": "https://dc.lft.to/lastmile_qr_scan", "android": "https://dc.lft.to/lastmile_qr_scan"}, "lon": -77.06474183333333, "type": "electric_bike", "fusion_lat": 0.0, "lat": 38.97382283333334, "name": "2097ada86835e1534dadd4de39f73f73", "fusion_lon": 0.0, "bike_id": "2097ada86835e1534dadd4de39f73f73", "is_disabled": 0, "is_reserved": 0}, {"rental_uris": {"ios": "https://dc.lft.to/lastmile_qr_scan", "android": "https://dc.lft.to/lastmile_qr_scan"}, "lon": -76.99169433333333, "type": "electric_scooter", "fusion_lat": 0.0, "lat": 38.87924733333333, "name": "3d9bd102eb41d30cd2df23c8d85e37ed", "fusion_lon": 0.0, "bike_id": "3d9bd102eb41d30cd2df23c8d85e37ed", "is_disabled": 0, "is_reserved": 0}, {"rental_uris": {"ios": "https://dc.lft.to/lastmile_qr_scan", "android": "https://dc.lft.to/lastmile_qr_scan"}, "lon": -77.02729966666666, "type": "electric_scooter", "fusion_lat": 0.0, "lat": 38.90505116666667, "name": "0ce603c15846cd1f73ee5a3f15c92d09", "fusion_lon": 0.0, "bike_id": "0ce603c15846cd1f73ee5a3f15c92d09", "is_disabled": 0, "is_reserved": 0}, {"rental_uris": {"ios": "https://dc.lft.to/lastmile_qr_scan", "android": "https://dc.lft.to/lastmile_qr_scan"}, "lon": -77.02498466666667, "type": "electric_scooter", "fusion_lat": 0.0, "lat": 38.94285883333333, "name": "401a375f93df60408e2b337c3f431b0a", "fusion_lon": 0.0, "bike_id": "401a375f93df60408e2b337c3f431b0a", "is_disabled": 0, "is_reserved": 0}, {"rental_uris": {"ios": "https://dc.lft.to/lastmile_qr_scan", "android": "https://dc.lft.to/lastmile_qr_scan"}, "lon": -76.97407783333334, "type": "electric_scooter", "fusion_lat": 0.0, "lat": 38.901568833333336, "name": "35d91e51fd97feee228e81221629f335", "fusion_lon": 0.0, "bike_id": "35d91e51fd97feee228e81221629f335", "is_disabled": 0, "is_reserved": 0}, {"rental_uris": {"ios": "https://dc.lft.to/lastmile_qr_scan", "android": "https://dc.lft.to/lastmile_qr_scan"}, "lon": -76.97932866666666, "type": "electric_scooter", "fusion_lat": 0.0, "lat": 38.90668866666667, "name": "4c4625a4c87f0fb01013900c67337a50", "fusion_lon": 0.0, "bike_id": "4c4625a4c87f0fb01013900c67337a50", "is_disabled": 0, "is_reserved": 0}, {"rental_uris": {"ios": "https://dc.lft.to/lastmile_qr_scan", "android": "https://dc.lft.to/lastmile_qr_scan"}, "lon": -77.02965933333333, "type": "electric_scooter", "fusion_lat": 0.0, "lat": 38.92328783333333, "name": "3cf950af1aeae3dd792fedf8c082bf0b", "fusion_lon": 0.0, "bike_id": "3cf950af1aeae3dd792fedf8c082bf0b", "is_disabled": 0, "is_reserved": 0}, {"rental_uris": {"ios": "https://dc.lft.to/lastmile_qr_scan", "android": "https://dc.lft.to/lastmile_qr_scan"}, "lon": -77.0023215, "type": "electric_scooter", "fusion_lat": 0.0, "lat": 38.91184766666667, "name": "a6eb88af55d8df9a67a90ea6927903dd", "fusion_lon": 0.0, "bike_id": "a6eb88af55d8df9a67a90ea6927903dd", "is_disabled": 0, "is_reserved": 0}, {"rental_uris": {"ios": "https://dc.lft.to/lastmile_qr_scan", "android": "https://dc.lft.to/lastmile_qr_scan"}, "lon": -77.03496016666666, "type": "electric_scooter", "fusion_lat": 0.0, "lat": 38.90376033333333, "name": "326b3b9f72d0ff6510e91be4cc81a700", "fusion_lon": 0.0, "bike_id": "326b3b9f72d0ff6510e91be4cc81a700", "is_disabled": 0, "is_reserved": 0}, {"rental_uris": {"ios": "https://dc.lft.to/lastmile_qr_scan", "android": "https://dc.lft.to/lastmile_qr_scan"}, "lon": -77.04666616666667, "type": "electric_scooter", "fusion_lat": 0.0, "lat": 38.91317216666667, "name": "8d0306baacdd135d925a03efcce33f82", "fusion_lon": 0.0, "bike_id": "8d0306baacdd135d925a03efcce33f82", "is_disabled": 0, "is_reserved": 0}, {"rental_uris": {"ios": "https://dc.lft.to/lastmile_qr_scan", "android": "https://dc.lft.to/lastmile_qr_scan"}, "lon": -76.97617366666667, "type": "electric_bike", "fusion_lat": 0.0, "lat": 38.895789, "name": "679d6871ec641093a306df51c8fada16", "fusion_lon": 0.0, "bike_id": "679d6871ec641093a306df51c8fada16", "is_disabled": 0, "is_reserved": 0}, {"rental_uris": {"ios": "https://dc.lft.to/lastmile_qr_scan", "android": "https://dc.lft.to/lastmile_qr_scan"}, "lon": -77.03286916666667, "type": "electric_scooter", "fusion_lat": 0.0, "lat": 38.9047135, "name": "af9dadfc5df0642506aeea4451e3ef10", "fusion_lon": 0.0, "bike_id": "af9dadfc5df0642506aeea4451e3ef10", "is_disabled": 0, "is_reserved": 0}, {"rental_uris": {"ios": "https://dc.lft.to/lastmile_qr_scan", "android": "https://dc.lft.to/lastmile_qr_scan"}, "lon": -77.01064166666667, "type": "electric_scooter", "fusion_lat": 0.0, "lat": 38.895215666666665, "name": "e4137dd08055328d59b21bd61dde42e7", "fusion_lon": 0.0, "bike_id": "e4137dd08055328d59b21bd61dde42e7", "is_disabled": 0, "is_reserved": 0}, {"rental_uris": {"ios": "https://dc.lft.to/lastmile_qr_scan", "android": "https://dc.lft.to/lastmile_qr_scan"}, "lon": -77.01216583333333, "type": "electric_scooter", "fusion_lat": 0.0, "lat": 38.87087, "name": "e76bc9af1fbc825069f2b1db5a6245c3", "fusion_lon": 0.0, "bike_id": "e76bc9af1fbc825069f2b1db5a6245c3", "is_disabled": 0, "is_reserved": 0}, {"rental_uris": {"ios": "https://dc.lft.to/lastmile_qr_scan", "android": "https://dc.lft.to/lastmile_qr_scan"}, "lon": -77.041638, "type": "electric_scooter", "fusion_lat": 0.0, "lat": 38.905485666666664, "name": "6abad397ba4b392448af4add7b6c8f44", "fusion_lon": 0.0, "bike_id": "6abad397ba4b392448af4add7b6c8f44", "is_disabled": 0, "is_reserved": 0}, {"rental_uris": {"ios": "https://dc.lft.to/lastmile_qr_scan", "android": "https://dc.lft.to/lastmile_qr_scan"}, "lon": -77.01949366666666, "type": "electric_scooter", "fusion_lat": 0.0, "lat": 38.90361433333333, "name": "540b140e57956643c932464aaf94e682", "fusion_lon": 0.0, "bike_id": "540b140e57956643c932464aaf94e682", "is_disabled": 0, "is_reserved": 0}, {"rental_uris": {"ios": "https://dc.lft.to/lastmile_qr_scan", "android": "https://dc.lft.to/lastmile_qr_scan"}, "lon": -77.01866933333334, "type": "electric_scooter", "fusion_lat": 0.0, "lat": 38.91573533333333, "name": "5aec091eeaceb7f5bff1cd481a341629", "fusion_lon": 0.0, "bike_id": "5aec091eeaceb7f5bff1cd481a341629", "is_disabled": 0, "is_reserved": 0}, {"rental_uris": {"ios": "https://dc.lft.to/lastmile_qr_scan", "android": "https://dc.lft.to/lastmile_qr_scan"}, "lon": -77.04108883333333, "type": "electric_scooter", "fusion_lat": 0.0, "lat": 38.9244455, "name": "a2065ef519e0db2acc688f9437279b7b", "fusion_lon": 0.0, "bike_id": "a2065ef519e0db2acc688f9437279b7b", "is_disabled": 0, "is_reserved": 0}, {"rental_uris": {"ios": "https://dc.lft.to/lastmile_qr_scan", "android": "https://dc.lft.to/lastmile_qr_scan"}, "lon": -77.00251783333333, "type": "electric_scooter", "fusion_lat": 0.0, "lat": 38.912647166666666, "name": "ed7c8a24b132deb68a0103adffcf5030", "fusion_lon": 0.0, "bike_id": "ed7c8a24b132deb68a0103adffcf5030", "is_disabled": 0, "is_reserved": 0}, {"rental_uris": {"ios": "https://dc.lft.to/lastmile_qr_scan", "android": "https://dc.lft.to/lastmile_qr_scan"}, "lon": -77.04244833333334, "type": "electric_scooter", "fusion_lat": 0.0, "lat": 38.907051833333334, "name": "080f07b2d0f0cc8212cf26ba7fc424e6", "fusion_lon": 0.0, "bike_id": "080f07b2d0f0cc8212cf26ba7fc424e6", "is_disabled": 0, "is_reserved": 0}, {"rental_uris": {"ios": "https://dc.lft.to/lastmile_qr_scan", "android": "https://dc.lft.to/lastmile_qr_scan"}, "lon": -77.03423616666667, "type": "electric_scooter", "fusion_lat": 0.0, "lat": 38.903384, "name": "a32973a58151b8bac47a3449813d1b7a", "fusion_lon": 0.0, "bike_id": "a32973a58151b8bac47a3449813d1b7a", "is_disabled": 0, "is_reserved": 0}, {"rental_uris": {"ios": "https://dc.lft.to/lastmile_qr_scan", "android": "https://dc.lft.to/lastmile_qr_scan"}, "lon": -76.937182, "type": "electric_scooter", "fusion_lat": 0.0, "lat": 38.8958885, "name": "658d295651907ba826962d16e4e1070a", "fusion_lon": 0.0, "bike_id": "658d295651907ba826962d16e4e1070a", "is_disabled": 0, "is_reserved": 0}, {"rental_uris": {"ios": "https://dc.lft.to/lastmile_qr_scan", "android": "https://dc.lft.to/lastmile_qr_scan"}, "lon": -76.980915, "type": "electric_bike", "fusion_lat": 0.0, "lat": 38.963565833333334, "name": "cc4ebabcc94801207442b21d41c3ca30", "fusion_lon": 0.0, "bike_id": "cc4ebabcc94801207442b21d41c3ca30", "is_disabled": 0, "is_reserved": 0}, {"rental_uris": {"ios": "https://dc.lft.to/lastmile_qr_scan", "android": "https://dc.lft.to/lastmile_qr_scan"}, "lon": -77.03499366666667, "type": "electric_scooter", "fusion_lat": 0.0, "lat": 38.923322166666665, "name": "1bc8423af30599b29c9f503209796b65", "fusion_lon": 0.0, "bike_id": "1bc8423af30599b29c9f503209796b65", "is_disabled": 0, "is_reserved": 0}, {"rental_uris": {"ios": "https://dc.lft.to/lastmile_qr_scan", "android": "https://dc.lft.to/lastmile_qr_scan"}, "lon": -77.02600416666667, "type": "electric_scooter", "fusion_lat": 0.0, "lat": 38.9075675, "name": "e5f93a5174a0a0de60af2042fb6ecb44", "fusion_lon": 0.0, "bike_id": "e5f93a5174a0a0de60af2042fb6ecb44", "is_disabled": 0, "is_reserved": 0}, {"rental_uris": {"ios": "https://dc.lft.to/lastmile_qr_scan", "android": "https://dc.lft.to/lastmile_qr_scan"}, "lon": -77.04406283333333, "type": "electric_scooter", "fusion_lat": 0.0, "lat": 38.90573783333333, "name": "455132d8fb9cafb06b7b6542ba39419f", "fusion_lon": 0.0, "bike_id": "455132d8fb9cafb06b7b6542ba39419f", "is_disabled": 0, "is_reserved": 0}, {"rental_uris": {"ios": "https://dc.lft.to/lastmile_qr_scan", "android": "https://dc.lft.to/lastmile_qr_scan"}, "lon": -77.0444925, "type": "electric_scooter", "fusion_lat": 0.0, "lat": 38.918631500000004, "name": "eeee43e8364876d79578c4205db60b2d", "fusion_lon": 0.0, "bike_id": "eeee43e8364876d79578c4205db60b2d", "is_disabled": 0, "is_reserved": 0}, {"rental_uris": {"ios": "https://dc.lft.to/lastmile_qr_scan", "android": "https://dc.lft.to/lastmile_qr_scan"}, "lon": -77.027109, "type": "electric_scooter", "fusion_lat": 0.0, "lat": 38.918237833333336, "name": "2cd2de9c4504240b1d1acb82de59297d", "fusion_lon": 0.0, "bike_id": "2cd2de9c4504240b1d1acb82de59297d", "is_disabled": 0, "is_reserved": 0}, {"rental_uris": {"ios": "https://dc.lft.to/lastmile_qr_scan", "android": "https://dc.lft.to/lastmile_qr_scan"}, "lon": -77.03861016666667, "type": "electric_scooter", "fusion_lat": 0.0, "lat": 38.91554583333333, "name": "e8150da236e470ece8e8f7171ac80e3e", "fusion_lon": 0.0, "bike_id": "e8150da236e470ece8e8f7171ac80e3e", "is_disabled": 0, "is_reserved": 0}, {"rental_uris": {"ios": "https://dc.lft.to/lastmile_qr_scan", "android": "https://dc.lft.to/lastmile_qr_scan"}, "lon": -77.071694, "type": "electric_scooter", "fusion_lat": 0.0, "lat": 38.914524166666666, "name": "c0e1538ed435a3a947b5bb90d43b7087", "fusion_lon": 0.0, "bike_id": "c0e1538ed435a3a947b5bb90d43b7087", "is_disabled": 0, "is_reserved": 0}, {"rental_uris": {"ios": "https://dc.lft.to/lastmile_qr_scan", "android": "https://dc.lft.to/lastmile_qr_scan"}, "lon": -76.99622966666666, "type": "electric_scooter", "fusion_lat": 0.0, "lat": 38.846820666666666, "name": "f0d8a342d2cc70c76aa018601a11f7c3", "fusion_lon": 0.0, "bike_id": "f0d8a342d2cc70c76aa018601a11f7c3", "is_disabled": 0, "is_reserved": 0}, {"rental_uris": {"ios": "https://dc.lft.to/lastmile_qr_scan", "android": "https://dc.lft.to/lastmile_qr_scan"}, "lon": -77.03268383333334, "type": "electric_scooter", "fusion_lat": 0.0, "lat": 38.93447583333333, "name": "d8ecc35e67b06c69e7cdf4a879e6c495", "fusion_lon": 0.0, "bike_id": "d8ecc35e67b06c69e7cdf4a879e6c495", "is_disabled": 0, "is_reserved": 0}, {"rental_uris": {"ios": "https://dc.lft.to/lastmile_qr_scan", "android": "https://dc.lft.to/lastmile_qr_scan"}, "lon": -77.05021483333333, "type": "electric_scooter", "fusion_lat": 0.0, "lat": 38.92356816666667, "name": "91fddb32eea43d9c95575effaafc704d", "fusion_lon": 0.0, "bike_id": "91fddb32eea43d9c95575effaafc704d", "is_disabled": 0, "is_reserved": 0}, {"rental_uris": {"ios": "https://dc.lft.to/lastmile_qr_scan", "android": "https://dc.lft.to/lastmile_qr_scan"}, "lon": -76.99032133333333, "type": "electric_scooter", "fusion_lat": 0.0, "lat": 38.88878716666667, "name": "78d1a7b72467c49b75a98dc29ebe08e2", "fusion_lon": 0.0, "bike_id": "78d1a7b72467c49b75a98dc29ebe08e2", "is_disabled": 0, "is_reserved": 0}, {"rental_uris": {"ios": "https://dc.lft.to/lastmile_qr_scan", "android": "https://dc.lft.to/lastmile_qr_scan"}, "lon": -77.03021283333334, "type": "electric_scooter", "fusion_lat": 0.0, "lat": 38.9310545, "name": "c9bcb3c8a9a7bd6d85bd351dd3fbaede", "fusion_lon": 0.0, "bike_id": "c9bcb3c8a9a7bd6d85bd351dd3fbaede", "is_disabled": 0, "is_reserved": 0}, {"rental_uris": {"ios": "https://dc.lft.to/lastmile_qr_scan", "android": "https://dc.lft.to/lastmile_qr_scan"}, "lon": -77.0531975, "type": "electric_scooter", "fusion_lat": 0.0, "lat": 38.92351383333333, "name": "934855c3f3110e3fcf085edf1e72ec62", "fusion_lon": 0.0, "bike_id": "934855c3f3110e3fcf085edf1e72ec62", "is_disabled": 0, "is_reserved": 0}, {"rental_uris": {"ios": "https://dc.lft.to/lastmile_qr_scan", "android": "https://dc.lft.to/lastmile_qr_scan"}, "lon": -77.0142625, "type": "electric_scooter", "fusion_lat": 0.0, "lat": 38.942316166666664, "name": "9e8cf9d3102b11d6c51c49b65b34ffe1", "fusion_lon": 0.0, "bike_id": "9e8cf9d3102b11d6c51c49b65b34ffe1", "is_disabled": 0, "is_reserved": 0}, {"rental_uris": {"ios": "https://dc.lft.to/lastmile_qr_scan", "android": "https://dc.lft.to/lastmile_qr_scan"}, "lon": -77.0220525, "type": "electric_scooter", "fusion_lat": 0.0, "lat": 38.89622083333333, "name": "c8be28f9dc571c3e909d0455c4d3ec77", "fusion_lon": 0.0, "bike_id": "c8be28f9dc571c3e909d0455c4d3ec77", "is_disabled": 0, "is_reserved": 0}, {"rental_uris": {"ios": "https://dc.lft.to/lastmile_qr_scan", "android": "https://dc.lft.to/lastmile_qr_scan"}, "lon": -77.03871566666666, "type": "electric_scooter", "fusion_lat": 0.0, "lat": 38.9081455, "name": "2bf9f6719ee02bc332bf84b5957d564d", "fusion_lon": 0.0, "bike_id": "2bf9f6719ee02bc332bf84b5957d564d", "is_disabled": 0, "is_reserved": 0}, {"rental_uris": {"ios": "https://dc.lft.to/lastmile_qr_scan", "android": "https://dc.lft.to/lastmile_qr_scan"}, "lon": -77.0319905, "type": "electric_scooter", "fusion_lat": 0.0, "lat": 38.917286, "name": "6f93497dbaf266e8ca2929d831a1ffc5", "fusion_lon": 0.0, "bike_id": "6f93497dbaf266e8ca2929d831a1ffc5", "is_disabled": 0, "is_reserved": 0}, {"rental_uris": {"ios": "https://dc.lft.to/lastmile_qr_scan", "android": "https://dc.lft.to/lastmile_qr_scan"}, "lon": -77.0118535, "type": "electric_scooter", "fusion_lat": 0.0, "lat": 38.90032433333333, "name": "176902c94eebdd2f26f5461899011c18", "fusion_lon": 0.0, "bike_id": "176902c94eebdd2f26f5461899011c18", "is_disabled": 0, "is_reserved": 0}, {"rental_uris": {"ios": "https://dc.lft.to/lastmile_qr_scan", "android": "https://dc.lft.to/lastmile_qr_scan"}, "lon": -77.0056445, "type": "electric_scooter", "fusion_lat": 0.0, "lat": 38.927201333333336, "name": "022fa47c46e3aaf841b49a1fe37e6446", "fusion_lon": 0.0, "bike_id": "022fa47c46e3aaf841b49a1fe37e6446", "is_disabled": 0, "is_reserved": 0}, {"rental_uris": {"ios": "https://dc.lft.to/lastmile_qr_scan", "android": "https://dc.lft.to/lastmile_qr_scan"}, "lon": -77.02343216666667, "type": "electric_scooter", "fusion_lat": 0.0, "lat": 38.962074, "name": "771cf4107886845fe497cfee74cea921", "fusion_lon": 0.0, "bike_id": "771cf4107886845fe497cfee74cea921", "is_disabled": 0, "is_reserved": 0}, {"rental_uris": {"ios": "https://dc.lft.to/lastmile_qr_scan", "android": "https://dc.lft.to/lastmile_qr_scan"}, "lon": -77.05725033333333, "type": "electric_scooter", "fusion_lat": 0.0, "lat": 38.9336785, "name": "fb57caabb0af0d683288b267e6de9bd2", "fusion_lon": 0.0, "bike_id": "fb57caabb0af0d683288b267e6de9bd2", "is_disabled": 0, "is_reserved": 0}, {"rental_uris": {"ios": "https://dc.lft.to/lastmile_qr_scan", "android": "https://dc.lft.to/lastmile_qr_scan"}, "lon": -77.00515466666667, "type": "electric_scooter", "fusion_lat": 0.0, "lat": 38.92899883333333, "name": "d0acf03c475b1feafbe8976809ec4b38", "fusion_lon": 0.0, "bike_id": "d0acf03c475b1feafbe8976809ec4b38", "is_disabled": 0, "is_reserved": 0}, {"rental_uris": {"ios": "https://dc.lft.to/lastmile_qr_scan", "android": "https://dc.lft.to/lastmile_qr_scan"}, "lon": -77.06350083333334, "type": "electric_scooter", "fusion_lat": 0.0, "lat": 38.9444985, "name": "193bd5031f844b5c509383b09735ea2b", "fusion_lon": 0.0, "bike_id": "193bd5031f844b5c509383b09735ea2b", "is_disabled": 0, "is_reserved": 0}, {"rental_uris": {"ios": "https://dc.lft.to/lastmile_qr_scan", "android": "https://dc.lft.to/lastmile_qr_scan"}, "lon": -77.03957616666666, "type": "electric_scooter", "fusion_lat": 0.0, "lat": 38.914842666666665, "name": "428e9afde9f53665bcb4f24bd3c5a964", "fusion_lon": 0.0, "bike_id": "428e9afde9f53665bcb4f24bd3c5a964", "is_disabled": 0, "is_reserved": 0}, {"rental_uris": {"ios": "https://dc.lft.to/lastmile_qr_scan", "android": "https://dc.lft.to/lastmile_qr_scan"}, "lon": -77.04810033333334, "type": "electric_scooter", "fusion_lat": 0.0, "lat": 38.8974975, "name": "80ededd5dfc537cc80480fb25f9f8dfc", "fusion_lon": 0.0, "bike_id": "80ededd5dfc537cc80480fb25f9f8dfc", "is_disabled": 0, "is_reserved": 0}, {"rental_uris": {"ios": "https://dc.lft.to/lastmile_qr_scan", "android": "https://dc.lft.to/lastmile_qr_scan"}, "lon": -77.0726805, "type": "electric_scooter", "fusion_lat": 0.0, "lat": 38.934778333333334, "name": "00053921308072367626ed8b81ced399", "fusion_lon": 0.0, "bike_id": "00053921308072367626ed8b81ced399", "is_disabled": 0, "is_reserved": 0}, {"rental_uris": {"ios": "https://dc.lft.to/lastmile_qr_scan", "android": "https://dc.lft.to/lastmile_qr_scan"}, "lon": -77.03075583333333, "type": "electric_scooter", "fusion_lat": 0.0, "lat": 38.90981, "name": "42df3353e52e9a55920b441146420bb2", "fusion_lon": 0.0, "bike_id": "42df3353e52e9a55920b441146420bb2", "is_disabled": 0, "is_reserved": 0}, {"rental_uris": {"ios": "https://dc.lft.to/lastmile_qr_scan", "android": "https://dc.lft.to/lastmile_qr_scan"}, "lon": -77.01211916666666, "type": "electric_scooter", "fusion_lat": 0.0, "lat": 38.91521383333333, "name": "44f5946d41a2ec6f5b45d18584628cc2", "fusion_lon": 0.0, "bike_id": "44f5946d41a2ec6f5b45d18584628cc2", "is_disabled": 0, "is_reserved": 0}, {"rental_uris": {"ios": "https://dc.lft.to/lastmile_qr_scan", "android": "https://dc.lft.to/lastmile_qr_scan"}, "lon": -77.03515516666667, "type": "electric_scooter", "fusion_lat": 0.0, "lat": 38.91833316666666, "name": "5972f9362e047e80e0455a0a10726e5c", "fusion_lon": 0.0, "bike_id": "5972f9362e047e80e0455a0a10726e5c", "is_disabled": 0, "is_reserved": 0}, {"rental_uris": {"ios": "https://dc.lft.to/lastmile_qr_scan", "android": "https://dc.lft.to/lastmile_qr_scan"}, "lon": -77.04880616666667, "type": "electric_scooter", "fusion_lat": 0.0, "lat": 38.912255, "name": "3076113556364ae7a3023ea0a2f39272", "fusion_lon": 0.0, "bike_id": "3076113556364ae7a3023ea0a2f39272", "is_disabled": 0, "is_reserved": 0}, {"rental_uris": {"ios": "https://dc.lft.to/lastmile_qr_scan", "android": "https://dc.lft.to/lastmile_qr_scan"}, "lon": -76.90433666666667, "type": "electric_bike", "fusion_lat": 0.0, "lat": 38.897608, "name": "a81a361812eb3aea0d91284f81823ddc", "fusion_lon": 0.0, "bike_id": "a81a361812eb3aea0d91284f81823ddc", "is_disabled": 0, "is_reserved": 0}, {"rental_uris": {"ios": "https://dc.lft.to/lastmile_qr_scan", "android": "https://dc.lft.to/lastmile_qr_scan"}, "lon": -77.01511366666666, "type": "electric_scooter", "fusion_lat": 0.0, "lat": 38.88731083333333, "name": "3d5202514c77e09616f3d677660b61c2", "fusion_lon": 0.0, "bike_id": "3d5202514c77e09616f3d677660b61c2", "is_disabled": 0, "is_reserved": 0}, {"rental_uris": {"ios": "https://dc.lft.to/lastmile_qr_scan", "android": "https://dc.lft.to/lastmile_qr_scan"}, "lon": -77.00726083333333, "type": "electric_scooter", "fusion_lat": 0.0, "lat": 38.884910166666664, "name": "0b16986ad6878d58330b8c708c8541df", "fusion_lon": 0.0, "bike_id": "0b16986ad6878d58330b8c708c8541df", "is_disabled": 0, "is_reserved": 0}, {"rental_uris": {"ios": "https://dc.lft.to/lastmile_qr_scan", "android": "https://dc.lft.to/lastmile_qr_scan"}, "lon": -77.027146, "type": "electric_scooter", "fusion_lat": 0.0, "lat": 38.91818933333333, "name": "a9bc7b56527a4659a8904a7d860d6e9d", "fusion_lon": 0.0, "bike_id": "a9bc7b56527a4659a8904a7d860d6e9d", "is_disabled": 0, "is_reserved": 0}, {"rental_uris": {"ios": "https://dc.lft.to/lastmile_qr_scan", "android": "https://dc.lft.to/lastmile_qr_scan"}, "lon": -77.01970483333334, "type": "electric_scooter", "fusion_lat": 0.0, "lat": 38.92971983333333, "name": "78d2b49fe0b315865dd403fb567de60c", "fusion_lon": 0.0, "bike_id": "78d2b49fe0b315865dd403fb567de60c", "is_disabled": 0, "is_reserved": 0}, {"rental_uris": {"ios": "https://dc.lft.to/lastmile_qr_scan", "android": "https://dc.lft.to/lastmile_qr_scan"}, "lon": -77.01997733333333, "type": "electric_scooter", "fusion_lat": 0.0, "lat": 38.9047145, "name": "e41ee3ac22058f4c819457700feac002", "fusion_lon": 0.0, "bike_id": "e41ee3ac22058f4c819457700feac002", "is_disabled": 0, "is_reserved": 0}, {"rental_uris": {"ios": "https://dc.lft.to/lastmile_qr_scan", "android": "https://dc.lft.to/lastmile_qr_scan"}, "lon": -77.01747016666667, "type": "electric_scooter", "fusion_lat": 0.0, "lat": 38.91714533333333, "name": "89a05c707005abdd4ed07c3bb5b46ece", "fusion_lon": 0.0, "bike_id": "89a05c707005abdd4ed07c3bb5b46ece", "is_disabled": 0, "is_reserved": 0}, {"rental_uris": {"ios": "https://dc.lft.to/lastmile_qr_scan", "android": "https://dc.lft.to/lastmile_qr_scan"}, "lon": -77.02336433333333, "type": "electric_scooter", "fusion_lat": 0.0, "lat": 38.929408, "name": "ab99b273099c6851861a5a0f7e3d11f6", "fusion_lon": 0.0, "bike_id": "ab99b273099c6851861a5a0f7e3d11f6", "is_disabled": 0, "is_reserved": 0}, {"rental_uris": {"ios": "https://dc.lft.to/lastmile_qr_scan", "android": "https://dc.lft.to/lastmile_qr_scan"}, "lon": -77.03446933333333, "type": "electric_scooter", "fusion_lat": 0.0, "lat": 38.9034265, "name": "47e6b748c01bb3d3f6dfdfd0bf307f94", "fusion_lon": 0.0, "bike_id": "47e6b748c01bb3d3f6dfdfd0bf307f94", "is_disabled": 0, "is_reserved": 0}, {"rental_uris": {"ios": "https://dc.lft.to/lastmile_qr_scan", "android": "https://dc.lft.to/lastmile_qr_scan"}, "lon": -76.94850466666666, "type": "electric_scooter", "fusion_lat": 0.0, "lat": 38.88303883333333, "name": "611e06936cc21099e613b83025e94a83", "fusion_lon": 0.0, "bike_id": "611e06936cc21099e613b83025e94a83", "is_disabled": 0, "is_reserved": 0}, {"rental_uris": {"ios": "https://dc.lft.to/lastmile_qr_scan", "android": "https://dc.lft.to/lastmile_qr_scan"}, "lon": -77.04476133333333, "type": "electric_scooter", "fusion_lat": 0.0, "lat": 38.90554083333333, "name": "0ae94cc958801e2d84034742fb29ece4", "fusion_lon": 0.0, "bike_id": "0ae94cc958801e2d84034742fb29ece4", "is_disabled": 0, "is_reserved": 0}, {"rental_uris": {"ios": "https://dc.lft.to/lastmile_qr_scan", "android": "https://dc.lft.to/lastmile_qr_scan"}, "lon": -77.10686716666666, "type": "electric_bike", "fusion_lat": 0.0, "lat": 38.855409333333334, "name": "dfd8daac1bc0b0d955db496210592a2e", "fusion_lon": 0.0, "bike_id": "dfd8daac1bc0b0d955db496210592a2e", "is_disabled": 0, "is_reserved": 0}, {"rental_uris": {"ios": "https://dc.lft.to/lastmile_qr_scan", "android": "https://dc.lft.to/lastmile_qr_scan"}, "lon": -77.03353533333333, "type": "electric_scooter", "fusion_lat": 0.0, "lat": 38.885070666666664, "name": "ababa5a819a7e7f2151d3169daac718c", "fusion_lon": 0.0, "bike_id": "ababa5a819a7e7f2151d3169daac718c", "is_disabled": 0, "is_reserved": 0}, {"rental_uris": {"ios": "https://dc.lft.to/lastmile_qr_scan", "android": "https://dc.lft.to/lastmile_qr_scan"}, "lon": -76.99269716666667, "type": "electric_scooter", "fusion_lat": 0.0, "lat": 38.89683566666667, "name": "dfed8490f3d660521acc6bedc8b7c860", "fusion_lon": 0.0, "bike_id": "dfed8490f3d660521acc6bedc8b7c860", "is_disabled": 0, "is_reserved": 0}, {"rental_uris": {"ios": "https://dc.lft.to/lastmile_qr_scan", "android": "https://dc.lft.to/lastmile_qr_scan"}, "lon": -77.0320035, "type": "electric_scooter", "fusion_lat": 0.0, "lat": 38.9115095, "name": "03b3392eecd3f892365db53a7e51684b", "fusion_lon": 0.0, "bike_id": "03b3392eecd3f892365db53a7e51684b", "is_disabled": 0, "is_reserved": 0}, {"rental_uris": {"ios": "https://dc.lft.to/lastmile_qr_scan", "android": "https://dc.lft.to/lastmile_qr_scan"}, "lon": -77.023298, "type": "electric_scooter", "fusion_lat": 0.0, "lat": 38.928897166666665, "name": "4f312164ddd404de13ee96e2c9bc591a", "fusion_lon": 0.0, "bike_id": "4f312164ddd404de13ee96e2c9bc591a", "is_disabled": 0, "is_reserved": 0}, {"rental_uris": {"ios": "https://dc.lft.to/lastmile_qr_scan", "android": "https://dc.lft.to/lastmile_qr_scan"}, "lon": -77.06531583333333, "type": "electric_scooter", "fusion_lat": 0.0, "lat": 38.91124816666667, "name": "ebb27667c1f776614c09cd2b032665b2", "fusion_lon": 0.0, "bike_id": "ebb27667c1f776614c09cd2b032665b2", "is_disabled": 0, "is_reserved": 0}, {"rental_uris": {"ios": "https://dc.lft.to/lastmile_qr_scan", "android": "https://dc.lft.to/lastmile_qr_scan"}, "lon": -77.015058, "type": "electric_scooter", "fusion_lat": 0.0, "lat": 38.90719816666667, "name": "8ef21d99358c149e2ead9368accf89d3", "fusion_lon": 0.0, "bike_id": "8ef21d99358c149e2ead9368accf89d3", "is_disabled": 0, "is_reserved": 0}, {"rental_uris": {"ios": "https://dc.lft.to/lastmile_qr_scan", "android": "https://dc.lft.to/lastmile_qr_scan"}, "lon": -77.03691166666667, "type": "electric_bike", "fusion_lat": 0.0, "lat": 38.935673666666666, "name": "e1e9af13a455915d2197217961c71af5", "fusion_lon": 0.0, "bike_id": "e1e9af13a455915d2197217961c71af5", "is_disabled": 0, "is_reserved": 0}, {"rental_uris": {"ios": "https://dc.lft.to/lastmile_qr_scan", "android": "https://dc.lft.to/lastmile_qr_scan"}, "lon": -77.0283315, "type": "electric_scooter", "fusion_lat": 0.0, "lat": 38.9124915, "name": "4a062d2c739bf56be07f8af046f3dbfb", "fusion_lon": 0.0, "bike_id": "4a062d2c739bf56be07f8af046f3dbfb", "is_disabled": 0, "is_reserved": 0}, {"rental_uris": {"ios": "https://dc.lft.to/lastmile_qr_scan", "android": "https://dc.lft.to/lastmile_qr_scan"}, "lon": -76.99514116666667, "type": "electric_scooter", "fusion_lat": 0.0, "lat": 38.89483533333333, "name": "24a9472f839ef223e4ae1341fa8fc8c4", "fusion_lon": 0.0, "bike_id": "24a9472f839ef223e4ae1341fa8fc8c4", "is_disabled": 0, "is_reserved": 0}, {"rental_uris": {"ios": "https://dc.lft.to/lastmile_qr_scan", "android": "https://dc.lft.to/lastmile_qr_scan"}, "lon": -77.0364625, "type": "electric_scooter", "fusion_lat": 0.0, "lat": 38.907956, "name": "e6a75c72f02850ffe1377a9cbc772692", "fusion_lon": 0.0, "bike_id": "e6a75c72f02850ffe1377a9cbc772692", "is_disabled": 0, "is_reserved": 0}, {"rental_uris": {"ios": "https://dc.lft.to/lastmile_qr_scan", "android": "https://dc.lft.to/lastmile_qr_scan"}, "lon": -76.948404, "type": "electric_scooter", "fusion_lat": 0.0, "lat": 38.894852, "name": "702160e1684e92b7294b85ca77955673", "fusion_lon": 0.0, "bike_id": "702160e1684e92b7294b85ca77955673", "is_disabled": 0, "is_reserved": 0}, {"rental_uris": {"ios": "https://dc.lft.to/lastmile_qr_scan", "android": "https://dc.lft.to/lastmile_qr_scan"}, "lon": -76.93174216666667, "type": "electric_scooter", "fusion_lat": 0.0, "lat": 38.898833833333335, "name": "0dfb9ed57ac34f5eb062c054a22e0dad", "fusion_lon": 0.0, "bike_id": "0dfb9ed57ac34f5eb062c054a22e0dad", "is_disabled": 0, "is_reserved": 0}, {"rental_uris": {"ios": "https://dc.lft.to/lastmile_qr_scan", "android": "https://dc.lft.to/lastmile_qr_scan"}, "lon": -76.931771, "type": "electric_scooter", "fusion_lat": 0.0, "lat": 38.898828, "name": "104867e68b79ee9e3fc4a88539f66bc5", "fusion_lon": 0.0, "bike_id": "104867e68b79ee9e3fc4a88539f66bc5", "is_disabled": 0, "is_reserved": 0}, {"rental_uris": {"ios": "https://dc.lft.to/lastmile_qr_scan", "android": "https://dc.lft.to/lastmile_qr_scan"}, "lon": -77.031682, "type": "electric_scooter", "fusion_lat": 0.0, "lat": 38.886307, "name": "fb77aa00ecd493d8f855af9737e6150b", "fusion_lon": 0.0, "bike_id": "fb77aa00ecd493d8f855af9737e6150b", "is_disabled": 0, "is_reserved": 0}, {"rental_uris": {"ios": "https://dc.lft.to/lastmile_qr_scan", "android": "https://dc.lft.to/lastmile_qr_scan"}, "lon": -77.01857166666667, "type": "electric_scooter", "fusion_lat": 0.0, "lat": 38.900796, "name": "5993e8c8aa3351351957d6abd8be0553", "fusion_lon": 0.0, "bike_id": "5993e8c8aa3351351957d6abd8be0553", "is_disabled": 0, "is_reserved": 0}, {"rental_uris": {"ios": "https://dc.lft.to/lastmile_qr_scan", "android": "https://dc.lft.to/lastmile_qr_scan"}, "lon": -77.00210033333333, "type": "electric_scooter", "fusion_lat": 0.0, "lat": 38.90220333333333, "name": "6e70c4fe0f39fc3fc320fa1364a7be89", "fusion_lon": 0.0, "bike_id": "6e70c4fe0f39fc3fc320fa1364a7be89", "is_disabled": 0, "is_reserved": 0}, {"rental_uris": {"ios": "https://dc.lft.to/lastmile_qr_scan", "android": "https://dc.lft.to/lastmile_qr_scan"}, "lon": -77.05148783333334, "type": "electric_scooter", "fusion_lat": 0.0, "lat": 38.89770333333333, "name": "097ae84bd5727ee2702d5e1bd16194a2", "fusion_lon": 0.0, "bike_id": "097ae84bd5727ee2702d5e1bd16194a2", "is_disabled": 0, "is_reserved": 0}, {"rental_uris": {"ios": "https://dc.lft.to/lastmile_qr_scan", "android": "https://dc.lft.to/lastmile_qr_scan"}, "lon": -77.0466145, "type": "electric_scooter", "fusion_lat": 0.0, "lat": 38.893406, "name": "10e31097be28c7fb77826743f2431ffd", "fusion_lon": 0.0, "bike_id": "10e31097be28c7fb77826743f2431ffd", "is_disabled": 0, "is_reserved": 0}, {"rental_uris": {"ios": "https://dc.lft.to/lastmile_qr_scan", "android": "https://dc.lft.to/lastmile_qr_scan"}, "lon": -76.99464016666667, "type": "electric_bike", "fusion_lat": 0.0, "lat": 38.9406615, "name": "cfa327522f15aad3f111a39d41f8aad2", "fusion_lon": 0.0, "bike_id": "cfa327522f15aad3f111a39d41f8aad2", "is_disabled": 0, "is_reserved": 0}, {"rental_uris": {"ios": "https://dc.lft.to/lastmile_qr_scan", "android": "https://dc.lft.to/lastmile_qr_scan"}, "lon": -77.120215, "type": "electric_bike", "fusion_lat": 0.0, "lat": 38.85509533333333, "name": "26b7556f57dae22017645486b5aaa07c", "fusion_lon": 0.0, "bike_id": "26b7556f57dae22017645486b5aaa07c", "is_disabled": 0, "is_reserved": 0}, {"rental_uris": {"ios": "https://dc.lft.to/lastmile_qr_scan", "android": "https://dc.lft.to/lastmile_qr_scan"}, "lon": -76.94972016666667, "type": "electric_scooter", "fusion_lat": 0.0, "lat": 38.893698666666666, "name": "331a7dd57def362e03493587d0686726", "fusion_lon": 0.0, "bike_id": "331a7dd57def362e03493587d0686726", "is_disabled": 0, "is_reserved": 0}, {"rental_uris": {"ios": "https://dc.lft.to/lastmile_qr_scan", "android": "https://dc.lft.to/lastmile_qr_scan"}, "lon": -77.03207716666667, "type": "electric_scooter", "fusion_lat": 0.0, "lat": 38.917453333333334, "name": "a721bb89736fdd2856f42abcfb26ece5", "fusion_lon": 0.0, "bike_id": "a721bb89736fdd2856f42abcfb26ece5", "is_disabled": 0, "is_reserved": 0}, {"rental_uris": {"ios": "https://dc.lft.to/lastmile_qr_scan", "android": "https://dc.lft.to/lastmile_qr_scan"}, "lon": -77.0034405, "type": "electric_scooter", "fusion_lat": 0.0, "lat": 38.89159333333333, "name": "3ac1ea0b76da828cb15f30b34d17c669", "fusion_lon": 0.0, "bike_id": "3ac1ea0b76da828cb15f30b34d17c669", "is_disabled": 0, "is_reserved": 0}, {"rental_uris": {"ios": "https://dc.lft.to/lastmile_qr_scan", "android": "https://dc.lft.to/lastmile_qr_scan"}, "lon": -77.024783, "type": "electric_scooter", "fusion_lat": 0.0, "lat": 38.93352, "name": "f02152ca5ecec1ee68407d07b8f3ab5e", "fusion_lon": 0.0, "bike_id": "f02152ca5ecec1ee68407d07b8f3ab5e", "is_disabled": 0, "is_reserved": 0}, {"rental_uris": {"ios": "https://dc.lft.to/lastmile_qr_scan", "android": "https://dc.lft.to/lastmile_qr_scan"}, "lon": -77.02480516666667, "type": "electric_scooter", "fusion_lat": 0.0, "lat": 38.93106233333334, "name": "66fe67d49e46d1f060be0f5421816653", "fusion_lon": 0.0, "bike_id": "66fe67d49e46d1f060be0f5421816653", "is_disabled": 0, "is_reserved": 0}, {"rental_uris": {"ios": "https://dc.lft.to/lastmile_qr_scan", "android": "https://dc.lft.to/lastmile_qr_scan"}, "lon": -77.1990905, "type": "electric_bike", "fusion_lat": 0.0, "lat": 38.87531883333333, "name": "35aca4bfa217acff52917db3134f5c22", "fusion_lon": 0.0, "bike_id": "35aca4bfa217acff52917db3134f5c22", "is_disabled": 0, "is_reserved": 0}, {"rental_uris": {"ios": "https://dc.lft.to/lastmile_qr_scan", "android": "https://dc.lft.to/lastmile_qr_scan"}, "lon": -77.14983116666667, "type": "electric_bike", "fusion_lat": 0.0, "lat": 39.094571333333334, "name": "3d0ba7bf996adebbdde2d945b59002bd", "fusion_lon": 0.0, "bike_id": "3d0ba7bf996adebbdde2d945b59002bd", "is_disabled": 0, "is_reserved": 0}, {"rental_uris": {"ios": "https://dc.lft.to/lastmile_qr_scan", "android": "https://dc.lft.to/lastmile_qr_scan"}, "lon": -77.029297, "type": "electric_scooter", "fusion_lat": 0.0, "lat": 38.903684, "name": "707b1a4826219f2f7a25c4375abd653d", "fusion_lon": 0.0, "bike_id": "707b1a4826219f2f7a25c4375abd653d", "is_disabled": 0, "is_reserved": 0}, {"rental_uris": {"ios": "https://dc.lft.to/lastmile_qr_scan", "android": "https://dc.lft.to/lastmile_qr_scan"}, "lon": -77.0065025, "type": "electric_scooter", "fusion_lat": 0.0, "lat": 38.908606666666664, "name": "0d2070d76341c46e19768c0197767616", "fusion_lon": 0.0, "bike_id": "0d2070d76341c46e19768c0197767616", "is_disabled": 0, "is_reserved": 0}, {"rental_uris": {"ios": "https://dc.lft.to/lastmile_qr_scan", "android": "https://dc.lft.to/lastmile_qr_scan"}, "lon": -77.00187733333334, "type": "electric_scooter", "fusion_lat": 0.0, "lat": 38.900131333333334, "name": "9d80051b8de1333a6ca78eaeec6e6070", "fusion_lon": 0.0, "bike_id": "9d80051b8de1333a6ca78eaeec6e6070", "is_disabled": 0, "is_reserved": 0}, {"rental_uris": {"ios": "https://dc.lft.to/lastmile_qr_scan", "android": "https://dc.lft.to/lastmile_qr_scan"}, "lon": -77.04305533333333, "type": "electric_bike", "fusion_lat": 0.0, "lat": 39.054490666666666, "name": "fcce6c12230876901c0127f498079d60", "fusion_lon": 0.0, "bike_id": "fcce6c12230876901c0127f498079d60", "is_disabled": 0, "is_reserved": 0}, {"rental_uris": {"ios": "https://dc.lft.to/lastmile_qr_scan", "android": "https://dc.lft.to/lastmile_qr_scan"}, "lon": -77.03261883333333, "type": "electric_scooter", "fusion_lat": 0.0, "lat": 38.92738416666667, "name": "90b7c00ebbbff6529697828773abef8a", "fusion_lon": 0.0, "bike_id": "90b7c00ebbbff6529697828773abef8a", "is_disabled": 0, "is_reserved": 0}, {"rental_uris": {"ios": "https://dc.lft.to/lastmile_qr_scan", "android": "https://dc.lft.to/lastmile_qr_scan"}, "lon": -76.98899516666667, "type": "electric_scooter", "fusion_lat": 0.0, "lat": 38.8669105, "name": "eb1bfbd321c0398f853fcf9612d735a9", "fusion_lon": 0.0, "bike_id": "eb1bfbd321c0398f853fcf9612d735a9", "is_disabled": 0, "is_reserved": 0}, {"rental_uris": {"ios": "https://dc.lft.to/lastmile_qr_scan", "android": "https://dc.lft.to/lastmile_qr_scan"}, "lon": -77.04423516666667, "type": "electric_scooter", "fusion_lat": 0.0, "lat": 38.922282333333335, "name": "fda83c10ff0fe1f45457c489dc0e3707", "fusion_lon": 0.0, "bike_id": "fda83c10ff0fe1f45457c489dc0e3707", "is_disabled": 0, "is_reserved": 0}, {"rental_uris": {"ios": "https://dc.lft.to/lastmile_qr_scan", "android": "https://dc.lft.to/lastmile_qr_scan"}, "lon": -77.17842233333333, "type": "electric_bike", "fusion_lat": 0.0, "lat": 39.088573, "name": "f0e1d84e67b6f4a7cf0174cd5978eed4", "fusion_lon": 0.0, "bike_id": "f0e1d84e67b6f4a7cf0174cd5978eed4", "is_disabled": 0, "is_reserved": 0}, {"rental_uris": {"ios": "https://dc.lft.to/lastmile_qr_scan", "android": "https://dc.lft.to/lastmile_qr_scan"}, "lon": -77.03471033333334, "type": "electric_scooter", "fusion_lat": 0.0, "lat": 38.919281166666664, "name": "cdede74ac23db6d3b04a3537d94f7e2a", "fusion_lon": 0.0, "bike_id": "cdede74ac23db6d3b04a3537d94f7e2a", "is_disabled": 0, "is_reserved": 0}, {"rental_uris": {"ios": "https://dc.lft.to/lastmile_qr_scan", "android": "https://dc.lft.to/lastmile_qr_scan"}, "lon": -76.953573, "type": "electric_bike", "fusion_lat": 0.0, "lat": 38.939515166666666, "name": "081a5eb72f93d1d7e2ce822d790391a3", "fusion_lon": 0.0, "bike_id": "081a5eb72f93d1d7e2ce822d790391a3", "is_disabled": 0, "is_reserved": 0}, {"rental_uris": {"ios": "https://dc.lft.to/lastmile_qr_scan", "android": "https://dc.lft.to/lastmile_qr_scan"}, "lon": -77.03319216666667, "type": "electric_scooter", "fusion_lat": 0.0, "lat": 38.919188, "name": "31d593d63ab55f981e007302166f4b87", "fusion_lon": 0.0, "bike_id": "31d593d63ab55f981e007302166f4b87", "is_disabled": 0, "is_reserved": 0}, {"rental_uris": {"ios": "https://dc.lft.to/lastmile_qr_scan", "android": "https://dc.lft.to/lastmile_qr_scan"}, "lon": -77.02705333333333, "type": "electric_scooter", "fusion_lat": 0.0, "lat": 38.9499625, "name": "ab229cf898cccc8c2ffcd2f9bbe7c75f", "fusion_lon": 0.0, "bike_id": "ab229cf898cccc8c2ffcd2f9bbe7c75f", "is_disabled": 0, "is_reserved": 0}, {"rental_uris": {"ios": "https://dc.lft.to/lastmile_qr_scan", "android": "https://dc.lft.to/lastmile_qr_scan"}, "lon": -77.03550566666667, "type": "electric_scooter", "fusion_lat": 0.0, "lat": 38.907645333333335, "name": "be50e8043e905dee07eb070649b4d053", "fusion_lon": 0.0, "bike_id": "be50e8043e905dee07eb070649b4d053", "is_disabled": 0, "is_reserved": 0}, {"rental_uris": {"ios": "https://dc.lft.to/lastmile_qr_scan", "android": "https://dc.lft.to/lastmile_qr_scan"}, "lon": -76.98355583333333, "type": "electric_scooter", "fusion_lat": 0.0, "lat": 38.91521483333333, "name": "c5712a1d76de21aa359135c89ed4d0f9", "fusion_lon": 0.0, "bike_id": "c5712a1d76de21aa359135c89ed4d0f9", "is_disabled": 0, "is_reserved": 0}, {"rental_uris": {"ios": "https://dc.lft.to/lastmile_qr_scan", "android": "https://dc.lft.to/lastmile_qr_scan"}, "lon": -77.009544, "type": "electric_scooter", "fusion_lat": 0.0, "lat": 38.90725533333333, "name": "2c0cb510352887e15af0b8ccd03b8500", "fusion_lon": 0.0, "bike_id": "2c0cb510352887e15af0b8ccd03b8500", "is_disabled": 0, "is_reserved": 0}, {"rental_uris": {"ios": "https://dc.lft.to/lastmile_qr_scan", "android": "https://dc.lft.to/lastmile_qr_scan"}, "lon": -76.9334085, "type": "electric_scooter", "fusion_lat": 0.0, "lat": 38.899107666666666, "name": "8c764128d942a3cf4a5f67a6ad36f72a", "fusion_lon": 0.0, "bike_id": "8c764128d942a3cf4a5f67a6ad36f72a", "is_disabled": 0, "is_reserved": 0}, {"rental_uris": {"ios": "https://dc.lft.to/lastmile_qr_scan", "android": "https://dc.lft.to/lastmile_qr_scan"}, "lon": -77.04084116666667, "type": "electric_scooter", "fusion_lat": 0.0, "lat": 38.907063, "name": "92817cae26cdfab0d4c15fb62189107d", "fusion_lon": 0.0, "bike_id": "92817cae26cdfab0d4c15fb62189107d", "is_disabled": 0, "is_reserved": 0}, {"rental_uris": {"ios": "https://dc.lft.to/lastmile_qr_scan", "android": "https://dc.lft.to/lastmile_qr_scan"}, "lon": -77.025817, "type": "electric_scooter", "fusion_lat": 0.0, "lat": 38.894874, "name": "09c1aa4cba9e902ce85dbb4e666c7020", "fusion_lon": 0.0, "bike_id": "09c1aa4cba9e902ce85dbb4e666c7020", "is_disabled": 0, "is_reserved": 0}, {"rental_uris": {"ios": "https://dc.lft.to/lastmile_qr_scan", "android": "https://dc.lft.to/lastmile_qr_scan"}, "lon": -77.002045, "type": "electric_scooter", "fusion_lat": 0.0, "lat": 38.902834166666665, "name": "2c208adedb11af1f51ebba14a16c5a85", "fusion_lon": 0.0, "bike_id": "2c208adedb11af1f51ebba14a16c5a85", "is_disabled": 0, "is_reserved": 0}, {"rental_uris": {"ios": "https://dc.lft.to/lastmile_qr_scan", "android": "https://dc.lft.to/lastmile_qr_scan"}, "lon": -77.013544, "type": "electric_scooter", "fusion_lat": 0.0, "lat": 38.952875666666664, "name": "43647836b30f61c65099805af406e3d3", "fusion_lon": 0.0, "bike_id": "43647836b30f61c65099805af406e3d3", "is_disabled": 0, "is_reserved": 0}, {"rental_uris": {"ios": "https://dc.lft.to/lastmile_qr_scan", "android": "https://dc.lft.to/lastmile_qr_scan"}, "lon": -77.01221, "type": "electric_scooter", "fusion_lat": 0.0, "lat": 38.86400316666667, "name": "4df8fefd9a184bc011c1e534fabebd8c", "fusion_lon": 0.0, "bike_id": "4df8fefd9a184bc011c1e534fabebd8c", "is_disabled": 0, "is_reserved": 0}, {"rental_uris": {"ios": "https://dc.lft.to/lastmile_qr_scan", "android": "https://dc.lft.to/lastmile_qr_scan"}, "lon": -77.04424366666667, "type": "electric_scooter", "fusion_lat": 0.0, "lat": 38.92608666666667, "name": "ca0e157ea368b8f6471545a3ae3cd8ea", "fusion_lon": 0.0, "bike_id": "ca0e157ea368b8f6471545a3ae3cd8ea", "is_disabled": 0, "is_reserved": 0}, {"rental_uris": {"ios": "https://dc.lft.to/lastmile_qr_scan", "android": "https://dc.lft.to/lastmile_qr_scan"}, "lon": -77.024186, "type": "electric_scooter", "fusion_lat": 0.0, "lat": 38.892188, "name": "6b4728c4cebc0474cc55fb63d8f7f819", "fusion_lon": 0.0, "bike_id": "6b4728c4cebc0474cc55fb63d8f7f819", "is_disabled": 0, "is_reserved": 0}, {"rental_uris": {"ios": "https://dc.lft.to/lastmile_qr_scan", "android": "https://dc.lft.to/lastmile_qr_scan"}, "lon": -77.03795766666667, "type": "electric_scooter", "fusion_lat": 0.0, "lat": 38.93588466666667, "name": "f278bf123e5053ecf4b2120731d2cfea", "fusion_lon": 0.0, "bike_id": "f278bf123e5053ecf4b2120731d2cfea", "is_disabled": 0, "is_reserved": 0}, {"rental_uris": {"ios": "https://dc.lft.to/lastmile_qr_scan", "android": "https://dc.lft.to/lastmile_qr_scan"}, "lon": -77.04400033333333, "type": "electric_scooter", "fusion_lat": 0.0, "lat": 38.874171833333335, "name": "90b432ef854aee5491b40ddcf4be2e09", "fusion_lon": 0.0, "bike_id": "90b432ef854aee5491b40ddcf4be2e09", "is_disabled": 0, "is_reserved": 0}, {"rental_uris": {"ios": "https://dc.lft.to/lastmile_qr_scan", "android": "https://dc.lft.to/lastmile_qr_scan"}, "lon": -77.02294283333333, "type": "electric_scooter", "fusion_lat": 0.0, "lat": 38.883436333333336, "name": "f5d70474e18e1d22feb23823211be66f", "fusion_lon": 0.0, "bike_id": "f5d70474e18e1d22feb23823211be66f", "is_disabled": 0, "is_reserved": 0}, {"rental_uris": {"ios": "https://dc.lft.to/lastmile_qr_scan", "android": "https://dc.lft.to/lastmile_qr_scan"}, "lon": -77.03977183333333, "type": "electric_scooter", "fusion_lat": 0.0, "lat": 38.9022215, "name": "344fb63221e6db9aa9480cf218b191a3", "fusion_lon": 0.0, "bike_id": "344fb63221e6db9aa9480cf218b191a3", "is_disabled": 0, "is_reserved": 0}, {"rental_uris": {"ios": "https://dc.lft.to/lastmile_qr_scan", "android": "https://dc.lft.to/lastmile_qr_scan"}, "lon": -77.03122583333334, "type": "electric_scooter", "fusion_lat": 0.0, "lat": 38.973762, "name": "1495d7c60d2abe51bfe86c53cd69b637", "fusion_lon": 0.0, "bike_id": "1495d7c60d2abe51bfe86c53cd69b637", "is_disabled": 0, "is_reserved": 0}, {"rental_uris": {"ios": "https://dc.lft.to/lastmile_qr_scan", "android": "https://dc.lft.to/lastmile_qr_scan"}, "lon": -77.0392385, "type": "electric_scooter", "fusion_lat": 0.0, "lat": 38.917541, "name": "4f82e87b000edfe44da7e1e22e657bc2", "fusion_lon": 0.0, "bike_id": "4f82e87b000edfe44da7e1e22e657bc2", "is_disabled": 0, "is_reserved": 0}, {"rental_uris": {"ios": "https://dc.lft.to/lastmile_qr_scan", "android": "https://dc.lft.to/lastmile_qr_scan"}, "lon": -77.03729033333333, "type": "electric_scooter", "fusion_lat": 0.0, "lat": 38.92568716666667, "name": "fb47308e2bfbe4df789a6786daa3f5e1", "fusion_lon": 0.0, "bike_id": "fb47308e2bfbe4df789a6786daa3f5e1", "is_disabled": 0, "is_reserved": 0}, {"rental_uris": {"ios": "https://dc.lft.to/lastmile_qr_scan", "android": "https://dc.lft.to/lastmile_qr_scan"}, "lon": -76.9617735, "type": "electric_bike", "fusion_lat": 0.0, "lat": 38.918579666666666, "name": "24a1e4cb7808f34019c108a8bc9fc99d", "fusion_lon": 0.0, "bike_id": "24a1e4cb7808f34019c108a8bc9fc99d", "is_disabled": 0, "is_reserved": 0}, {"rental_uris": {"ios": "https://dc.lft.to/lastmile_qr_scan", "android": "https://dc.lft.to/lastmile_qr_scan"}, "lon": -77.0416535, "type": "electric_scooter", "fusion_lat": 0.0, "lat": 38.91850866666667, "name": "6c0b4a04ed3f50707f32ab8a81d11e84", "fusion_lon": 0.0, "bike_id": "6c0b4a04ed3f50707f32ab8a81d11e84", "is_disabled": 0, "is_reserved": 0}, {"rental_uris": {"ios": "https://dc.lft.to/lastmile_qr_scan", "android": "https://dc.lft.to/lastmile_qr_scan"}, "lon": -77.055978, "type": "electric_scooter", "fusion_lat": 0.0, "lat": 38.936985, "name": "56806e938de9bea4d82c1202b1754137", "fusion_lon": 0.0, "bike_id": "56806e938de9bea4d82c1202b1754137", "is_disabled": 0, "is_reserved": 0}, {"rental_uris": {"ios": "https://dc.lft.to/lastmile_qr_scan", "android": "https://dc.lft.to/lastmile_qr_scan"}, "lon": -77.04697783333333, "type": "electric_scooter", "fusion_lat": 0.0, "lat": 38.920991, "name": "c371cd7b01c0fe99c26a034a1543cfa4", "fusion_lon": 0.0, "bike_id": "c371cd7b01c0fe99c26a034a1543cfa4", "is_disabled": 0, "is_reserved": 0}, {"rental_uris": {"ios": "https://dc.lft.to/lastmile_qr_scan", "android": "https://dc.lft.to/lastmile_qr_scan"}, "lon": -77.03241716666666, "type": "electric_scooter", "fusion_lat": 0.0, "lat": 38.89621016666667, "name": "11c23f951ec301e4e6265b699a8c1504", "fusion_lon": 0.0, "bike_id": "11c23f951ec301e4e6265b699a8c1504", "is_disabled": 0, "is_reserved": 0}, {"rental_uris": {"ios": "https://dc.lft.to/lastmile_qr_scan", "android": "https://dc.lft.to/lastmile_qr_scan"}, "lon": -77.0289285, "type": "electric_scooter", "fusion_lat": 0.0, "lat": 38.904612666666665, "name": "a6914a4293b47953059db31aa5912b36", "fusion_lon": 0.0, "bike_id": "a6914a4293b47953059db31aa5912b36", "is_disabled": 0, "is_reserved": 0}, {"rental_uris": {"ios": "https://dc.lft.to/lastmile_qr_scan", "android": "https://dc.lft.to/lastmile_qr_scan"}, "lon": -77.09158966666666, "type": "electric_bike", "fusion_lat": 0.0, "lat": 38.967623833333334, "name": "c86983fea5a6cd45cffbc85310e12789", "fusion_lon": 0.0, "bike_id": "c86983fea5a6cd45cffbc85310e12789", "is_disabled": 0, "is_reserved": 0}, {"rental_uris": {"ios": "https://dc.lft.to/lastmile_qr_scan", "android": "https://dc.lft.to/lastmile_qr_scan"}, "lon": -77.0133615, "type": "electric_scooter", "fusion_lat": 0.0, "lat": 38.966083, "name": "3f94258ff05e460a325c7530c4d7c28f", "fusion_lon": 0.0, "bike_id": "3f94258ff05e460a325c7530c4d7c28f", "is_disabled": 0, "is_reserved": 0}, {"rental_uris": {"ios": "https://dc.lft.to/lastmile_qr_scan", "android": "https://dc.lft.to/lastmile_qr_scan"}, "lon": -77.043555, "type": "electric_scooter", "fusion_lat": 0.0, "lat": 38.93149366666667, "name": "89cca1db2bf95dba23ab56a57d9476f9", "fusion_lon": 0.0, "bike_id": "89cca1db2bf95dba23ab56a57d9476f9", "is_disabled": 0, "is_reserved": 0}, {"rental_uris": {"ios": "https://dc.lft.to/lastmile_qr_scan", "android": "https://dc.lft.to/lastmile_qr_scan"}, "lon": -77.09214216666666, "type": "electric_scooter", "fusion_lat": 0.0, "lat": 38.916959166666665, "name": "4d4bfb12c55579d2bc7470574e273ad1", "fusion_lon": 0.0, "bike_id": "4d4bfb12c55579d2bc7470574e273ad1", "is_disabled": 0, "is_reserved": 0}, {"rental_uris": {"ios": "https://dc.lft.to/lastmile_qr_scan", "android": "https://dc.lft.to/lastmile_qr_scan"}, "lon": -77.03261316666666, "type": "electric_scooter", "fusion_lat": 0.0, "lat": 38.932780666666666, "name": "48e659c4633c8ce00666097bdd0662ce", "fusion_lon": 0.0, "bike_id": "48e659c4633c8ce00666097bdd0662ce", "is_disabled": 0, "is_reserved": 0}, {"rental_uris": {"ios": "https://dc.lft.to/lastmile_qr_scan", "android": "https://dc.lft.to/lastmile_qr_scan"}, "lon": -77.03842416666667, "type": "electric_scooter", "fusion_lat": 0.0, "lat": 38.90236866666667, "name": "eefbe5533382a70576da4d03a36c003e", "fusion_lon": 0.0, "bike_id": "eefbe5533382a70576da4d03a36c003e", "is_disabled": 0, "is_reserved": 0}, {"rental_uris": {"ios": "https://dc.lft.to/lastmile_qr_scan", "android": "https://dc.lft.to/lastmile_qr_scan"}, "lon": -77.02834166666666, "type": "electric_scooter", "fusion_lat": 0.0, "lat": 38.88769283333333, "name": "2bf16dfb6696e313c8d0c085a71128fe", "fusion_lon": 0.0, "bike_id": "2bf16dfb6696e313c8d0c085a71128fe", "is_disabled": 0, "is_reserved": 0}, {"rental_uris": {"ios": "https://dc.lft.to/lastmile_qr_scan", "android": "https://dc.lft.to/lastmile_qr_scan"}, "lon": -77.01434583333334, "type": "electric_scooter", "fusion_lat": 0.0, "lat": 38.929907666666665, "name": "1068deeb5af217466d48531b3bc5eaa3", "fusion_lon": 0.0, "bike_id": "1068deeb5af217466d48531b3bc5eaa3", "is_disabled": 0, "is_reserved": 0}, {"rental_uris": {"ios": "https://dc.lft.to/lastmile_qr_scan", "android": "https://dc.lft.to/lastmile_qr_scan"}, "lon": -77.03265266666666, "type": "electric_scooter", "fusion_lat": 0.0, "lat": 38.9382185, "name": "0d50e6afd243512806e0244cb6b0a5f7", "fusion_lon": 0.0, "bike_id": "0d50e6afd243512806e0244cb6b0a5f7", "is_disabled": 0, "is_reserved": 0}, {"rental_uris": {"ios": "https://dc.lft.to/lastmile_qr_scan", "android": "https://dc.lft.to/lastmile_qr_scan"}, "lon": -77.034417, "type": "electric_scooter", "fusion_lat": 0.0, "lat": 38.918379, "name": "b98f48b4c6689fb6394991614632d643", "fusion_lon": 0.0, "bike_id": "b98f48b4c6689fb6394991614632d643", "is_disabled": 0, "is_reserved": 0}, {"rental_uris": {"ios": "https://dc.lft.to/lastmile_qr_scan", "android": "https://dc.lft.to/lastmile_qr_scan"}, "lon": -77.0158775, "type": "electric_scooter", "fusion_lat": 0.0, "lat": 38.95707916666667, "name": "c6f2030ff24baad4544d26ad4b6b9879", "fusion_lon": 0.0, "bike_id": "c6f2030ff24baad4544d26ad4b6b9879", "is_disabled": 0, "is_reserved": 0}, {"rental_uris": {"ios": "https://dc.lft.to/lastmile_qr_scan", "android": "https://dc.lft.to/lastmile_qr_scan"}, "lon": -77.04269633333334, "type": "electric_scooter", "fusion_lat": 0.0, "lat": 38.92238316666667, "name": "79808fcee22db7513fda8511226a90e9", "fusion_lon": 0.0, "bike_id": "79808fcee22db7513fda8511226a90e9", "is_disabled": 0, "is_reserved": 0}, {"rental_uris": {"ios": "https://dc.lft.to/lastmile_qr_scan", "android": "https://dc.lft.to/lastmile_qr_scan"}, "lon": -77.03664383333333, "type": "electric_scooter", "fusion_lat": 0.0, "lat": 38.917234666666666, "name": "faa94e382364a5bcb48ef504feb348f0", "fusion_lon": 0.0, "bike_id": "faa94e382364a5bcb48ef504feb348f0", "is_disabled": 0, "is_reserved": 0}, {"rental_uris": {"ios": "https://dc.lft.to/lastmile_qr_scan", "android": "https://dc.lft.to/lastmile_qr_scan"}, "lon": -77.0400855, "type": "electric_scooter", "fusion_lat": 0.0, "lat": 38.888869166666666, "name": "f0bf3ce90750c03807f64c6e46d6c431", "fusion_lon": 0.0, "bike_id": "f0bf3ce90750c03807f64c6e46d6c431", "is_disabled": 0, "is_reserved": 0}, {"rental_uris": {"ios": "https://dc.lft.to/lastmile_qr_scan", "android": "https://dc.lft.to/lastmile_qr_scan"}, "lon": -76.9818145, "type": "electric_scooter", "fusion_lat": 0.0, "lat": 38.89580466666666, "name": "9abbff1a8a27d30357ed714c84c5899d", "fusion_lon": 0.0, "bike_id": "9abbff1a8a27d30357ed714c84c5899d", "is_disabled": 0, "is_reserved": 0}, {"rental_uris": {"ios": "https://dc.lft.to/lastmile_qr_scan", "android": "https://dc.lft.to/lastmile_qr_scan"}, "lon": -77.032879, "type": "electric_scooter", "fusion_lat": 0.0, "lat": 38.928113833333335, "name": "77144a19ac9ee806d80cd352727a67a2", "fusion_lon": 0.0, "bike_id": "77144a19ac9ee806d80cd352727a67a2", "is_disabled": 0, "is_reserved": 0}, {"rental_uris": {"ios": "https://dc.lft.to/lastmile_qr_scan", "android": "https://dc.lft.to/lastmile_qr_scan"}, "lon": -76.98257016666666, "type": "electric_scooter", "fusion_lat": 0.0, "lat": 38.908658833333334, "name": "de5ed67a907b91f20fc513105af02a58", "fusion_lon": 0.0, "bike_id": "de5ed67a907b91f20fc513105af02a58", "is_disabled": 0, "is_reserved": 0}, {"rental_uris": {"ios": "https://dc.lft.to/lastmile_qr_scan", "android": "https://dc.lft.to/lastmile_qr_scan"}, "lon": -77.01934566666667, "type": "electric_scooter", "fusion_lat": 0.0, "lat": 38.90238083333333, "name": "7f6c66115dfc4febfcb73a3c22d9f3e8", "fusion_lon": 0.0, "bike_id": "7f6c66115dfc4febfcb73a3c22d9f3e8", "is_disabled": 0, "is_reserved": 0}, {"rental_uris": {"ios": "https://dc.lft.to/lastmile_qr_scan", "android": "https://dc.lft.to/lastmile_qr_scan"}, "lon": -77.03047233333334, "type": "electric_scooter", "fusion_lat": 0.0, "lat": 38.90944866666667, "name": "220914540447a48ba03c7a0db29ca4f3", "fusion_lon": 0.0, "bike_id": "220914540447a48ba03c7a0db29ca4f3", "is_disabled": 0, "is_reserved": 0}, {"rental_uris": {"ios": "https://dc.lft.to/lastmile_qr_scan", "android": "https://dc.lft.to/lastmile_qr_scan"}, "lon": -77.03182666666666, "type": "electric_scooter", "fusion_lat": 0.0, "lat": 38.913248833333334, "name": "cdbc55d7e3f8789456e71069169dd3eb", "fusion_lon": 0.0, "bike_id": "cdbc55d7e3f8789456e71069169dd3eb", "is_disabled": 0, "is_reserved": 0}, {"rental_uris": {"ios": "https://dc.lft.to/lastmile_qr_scan", "android": "https://dc.lft.to/lastmile_qr_scan"}, "lon": -77.04190883333334, "type": "electric_scooter", "fusion_lat": 0.0, "lat": 38.920115833333334, "name": "82833f44646ec23b844cf56c83c24f44", "fusion_lon": 0.0, "bike_id": "82833f44646ec23b844cf56c83c24f44", "is_disabled": 0, "is_reserved": 0}, {"rental_uris": {"ios": "https://dc.lft.to/lastmile_qr_scan", "android": "https://dc.lft.to/lastmile_qr_scan"}, "lon": -77.01868616666667, "type": "electric_scooter", "fusion_lat": 0.0, "lat": 38.88746316666667, "name": "8cff28a76c2fedc92a40a8956e627d6f", "fusion_lon": 0.0, "bike_id": "8cff28a76c2fedc92a40a8956e627d6f", "is_disabled": 0, "is_reserved": 0}, {"rental_uris": {"ios": "https://dc.lft.to/lastmile_qr_scan", "android": "https://dc.lft.to/lastmile_qr_scan"}, "lon": -77.0454925, "type": "electric_scooter", "fusion_lat": 0.0, "lat": 38.93393566666667, "name": "2e102c57b8f45a92ab582ab766159672", "fusion_lon": 0.0, "bike_id": "2e102c57b8f45a92ab582ab766159672", "is_disabled": 0, "is_reserved": 0}, {"rental_uris": {"ios": "https://dc.lft.to/lastmile_qr_scan", "android": "https://dc.lft.to/lastmile_qr_scan"}, "lon": -77.02553766666666, "type": "electric_scooter", "fusion_lat": 0.0, "lat": 38.92469083333334, "name": "885adb26cd8e1ae499aea752c838436f", "fusion_lon": 0.0, "bike_id": "885adb26cd8e1ae499aea752c838436f", "is_disabled": 0, "is_reserved": 0}, {"rental_uris": {"ios": "https://dc.lft.to/lastmile_qr_scan", "android": "https://dc.lft.to/lastmile_qr_scan"}, "lon": -77.03018083333333, "type": "electric_scooter", "fusion_lat": 0.0, "lat": 38.91011066666667, "name": "b2596b4eae980b4a84e7e18006fa48b7", "fusion_lon": 0.0, "bike_id": "b2596b4eae980b4a84e7e18006fa48b7", "is_disabled": 0, "is_reserved": 0}, {"rental_uris": {"ios": "https://dc.lft.to/lastmile_qr_scan", "android": "https://dc.lft.to/lastmile_qr_scan"}, "lon": -76.9097615, "type": "electric_bike", "fusion_lat": 0.0, "lat": 38.854443, "name": "e29e8685ccf84c81de9f68a3ece552f8", "fusion_lon": 0.0, "bike_id": "e29e8685ccf84c81de9f68a3ece552f8", "is_disabled": 0, "is_reserved": 0}, {"rental_uris": {"ios": "https://dc.lft.to/lastmile_qr_scan", "android": "https://dc.lft.to/lastmile_qr_scan"}, "lon": -77.03230783333333, "type": "electric_scooter", "fusion_lat": 0.0, "lat": 38.93136116666667, "name": "eb7ac239f739fc09809d18ab98508e92", "fusion_lon": 0.0, "bike_id": "eb7ac239f739fc09809d18ab98508e92", "is_disabled": 0, "is_reserved": 0}, {"rental_uris": {"ios": "https://dc.lft.to/lastmile_qr_scan", "android": "https://dc.lft.to/lastmile_qr_scan"}, "lon": -77.00369583333334, "type": "electric_scooter", "fusion_lat": 0.0, "lat": 38.83804816666667, "name": "430632c7bb19615a3bb18c1fd32ea04e", "fusion_lon": 0.0, "bike_id": "430632c7bb19615a3bb18c1fd32ea04e", "is_disabled": 0, "is_reserved": 0}, {"rental_uris": {"ios": "https://dc.lft.to/lastmile_qr_scan", "android": "https://dc.lft.to/lastmile_qr_scan"}, "lon": -77.02802633333333, "type": "electric_scooter", "fusion_lat": 0.0, "lat": 38.9618895, "name": "b6a301ef29235f53df9cbbcbbb26b52b", "fusion_lon": 0.0, "bike_id": "b6a301ef29235f53df9cbbcbbb26b52b", "is_disabled": 0, "is_reserved": 0}, {"rental_uris": {"ios": "https://dc.lft.to/lastmile_qr_scan", "android": "https://dc.lft.to/lastmile_qr_scan"}, "lon": -77.037768, "type": "electric_scooter", "fusion_lat": 0.0, "lat": 38.9218155, "name": "5cc63506f6e54e3352e7e95e808771dd", "fusion_lon": 0.0, "bike_id": "5cc63506f6e54e3352e7e95e808771dd", "is_disabled": 0, "is_reserved": 0}, {"rental_uris": {"ios": "https://dc.lft.to/lastmile_qr_scan", "android": "https://dc.lft.to/lastmile_qr_scan"}, "lon": -77.09551733333333, "type": "electric_bike", "fusion_lat": 0.0, "lat": 38.837311, "name": "3bc9e1d42b23bb21b2deaf516fa77cf3", "fusion_lon": 0.0, "bike_id": "3bc9e1d42b23bb21b2deaf516fa77cf3", "is_disabled": 0, "is_reserved": 0}, {"rental_uris": {"ios": "https://dc.lft.to/lastmile_qr_scan", "android": "https://dc.lft.to/lastmile_qr_scan"}, "lon": -76.94633116666667, "type": "electric_scooter", "fusion_lat": 0.0, "lat": 38.898298833333335, "name": "3111a13d9d47458f0f93d08072fe5724", "fusion_lon": 0.0, "bike_id": "3111a13d9d47458f0f93d08072fe5724", "is_disabled": 0, "is_reserved": 0}, {"rental_uris": {"ios": "https://dc.lft.to/lastmile_qr_scan", "android": "https://dc.lft.to/lastmile_qr_scan"}, "lon": -77.00046866666666, "type": "electric_bike", "fusion_lat": 0.0, "lat": 38.92634916666667, "name": "4a858bb0c3172208e9ef9c0dbb4eeef7", "fusion_lon": 0.0, "bike_id": "4a858bb0c3172208e9ef9c0dbb4eeef7", "is_disabled": 0, "is_reserved": 0}, {"rental_uris": {"ios": "https://dc.lft.to/lastmile_qr_scan", "android": "https://dc.lft.to/lastmile_qr_scan"}, "lon": -77.00374433333333, "type": "electric_bike", "fusion_lat": 0.0, "lat": 38.8360115, "name": "be8ac028e8d5e06e69dc5b98dde37e14", "fusion_lon": 0.0, "bike_id": "be8ac028e8d5e06e69dc5b98dde37e14", "is_disabled": 0, "is_reserved": 0}, {"rental_uris": {"ios": "https://dc.lft.to/lastmile_qr_scan", "android": "https://dc.lft.to/lastmile_qr_scan"}, "lon": -77.03319133333333, "type": "electric_scooter", "fusion_lat": 0.0, "lat": 38.89836833333333, "name": "5852357eeef61a934c901241c9cc80a7", "fusion_lon": 0.0, "bike_id": "5852357eeef61a934c901241c9cc80a7", "is_disabled": 0, "is_reserved": 0}, {"rental_uris": {"ios": "https://dc.lft.to/lastmile_qr_scan", "android": "https://dc.lft.to/lastmile_qr_scan"}, "lon": -77.05149216666666, "type": "electric_scooter", "fusion_lat": 0.0, "lat": 38.905338, "name": "98eb79e5836c93d908eb597f74b5576c", "fusion_lon": 0.0, "bike_id": "98eb79e5836c93d908eb597f74b5576c", "is_disabled": 0, "is_reserved": 0}, {"rental_uris": {"ios": "https://dc.lft.to/lastmile_qr_scan", "android": "https://dc.lft.to/lastmile_qr_scan"}, "lon": -77.02729783333334, "type": "electric_scooter", "fusion_lat": 0.0, "lat": 38.93794833333333, "name": "78df6031ede8e52b104b45d04312691b", "fusion_lon": 0.0, "bike_id": "78df6031ede8e52b104b45d04312691b", "is_disabled": 0, "is_reserved": 0}, {"rental_uris": {"ios": "https://dc.lft.to/lastmile_qr_scan", "android": "https://dc.lft.to/lastmile_qr_scan"}, "lon": -77.030655, "type": "electric_scooter", "fusion_lat": 0.0, "lat": 38.89968066666667, "name": "2203ea414624ec390b489d5afcc7cf82", "fusion_lon": 0.0, "bike_id": "2203ea414624ec390b489d5afcc7cf82", "is_disabled": 0, "is_reserved": 0}, {"rental_uris": {"ios": "https://dc.lft.to/lastmile_qr_scan", "android": "https://dc.lft.to/lastmile_qr_scan"}, "lon": -77.06385783333333, "type": "electric_scooter", "fusion_lat": 0.0, "lat": 38.90835583333333, "name": "018d7cc209e3bf89b3836baf30efe3df", "fusion_lon": 0.0, "bike_id": "018d7cc209e3bf89b3836baf30efe3df", "is_disabled": 0, "is_reserved": 0}, {"rental_uris": {"ios": "https://dc.lft.to/lastmile_qr_scan", "android": "https://dc.lft.to/lastmile_qr_scan"}, "lon": -77.01933, "type": "electric_scooter", "fusion_lat": 0.0, "lat": 38.94923166666667, "name": "5f1c2e50032ebe3db04701bd76152bb1", "fusion_lon": 0.0, "bike_id": "5f1c2e50032ebe3db04701bd76152bb1", "is_disabled": 0, "is_reserved": 0}, {"rental_uris": {"ios": "https://dc.lft.to/lastmile_qr_scan", "android": "https://dc.lft.to/lastmile_qr_scan"}, "lon": -77.03849716666667, "type": "electric_scooter", "fusion_lat": 0.0, "lat": 38.91333133333333, "name": "30cac73607fa676b0d59655b6636b5f1", "fusion_lon": 0.0, "bike_id": "30cac73607fa676b0d59655b6636b5f1", "is_disabled": 0, "is_reserved": 0}, {"rental_uris": {"ios": "https://dc.lft.to/lastmile_qr_scan", "android": "https://dc.lft.to/lastmile_qr_scan"}, "lon": -77.03805066666666, "type": "electric_scooter", "fusion_lat": 0.0, "lat": 38.91225133333333, "name": "dc68927c87fe8a7bcd60bd5ce9e539bb", "fusion_lon": 0.0, "bike_id": "dc68927c87fe8a7bcd60bd5ce9e539bb", "is_disabled": 0, "is_reserved": 0}, {"rental_uris": {"ios": "https://dc.lft.to/lastmile_qr_scan", "android": "https://dc.lft.to/lastmile_qr_scan"}, "lon": -77.03852583333334, "type": "electric_scooter", "fusion_lat": 0.0, "lat": 38.912398, "name": "2b2d679b42cd1284b496e291778bde88", "fusion_lon": 0.0, "bike_id": "2b2d679b42cd1284b496e291778bde88", "is_disabled": 0, "is_reserved": 0}, {"rental_uris": {"ios": "https://dc.lft.to/lastmile_qr_scan", "android": "https://dc.lft.to/lastmile_qr_scan"}, "lon": -77.0381825, "type": "electric_scooter", "fusion_lat": 0.0, "lat": 38.90676066666666, "name": "4adac17eafa13aa7c09fbde02e75d0aa", "fusion_lon": 0.0, "bike_id": "4adac17eafa13aa7c09fbde02e75d0aa", "is_disabled": 0, "is_reserved": 0}, {"rental_uris": {"ios": "https://dc.lft.to/lastmile_qr_scan", "android": "https://dc.lft.to/lastmile_qr_scan"}, "lon": -77.04026, "type": "electric_scooter", "fusion_lat": 0.0, "lat": 38.924267666666665, "name": "541fa68b3fc4458c05fbf7256dacce84", "fusion_lon": 0.0, "bike_id": "541fa68b3fc4458c05fbf7256dacce84", "is_disabled": 0, "is_reserved": 0}, {"rental_uris": {"ios": "https://dc.lft.to/lastmile_qr_scan", "android": "https://dc.lft.to/lastmile_qr_scan"}, "lon": -77.04394766666667, "type": "electric_scooter", "fusion_lat": 0.0, "lat": 38.909108333333336, "name": "84d55a4f344626cfd7c364cea2c53b5e", "fusion_lon": 0.0, "bike_id": "84d55a4f344626cfd7c364cea2c53b5e", "is_disabled": 0, "is_reserved": 0}, {"rental_uris": {"ios": "https://dc.lft.to/lastmile_qr_scan", "android": "https://dc.lft.to/lastmile_qr_scan"}, "lon": -77.0432715, "type": "electric_scooter", "fusion_lat": 0.0, "lat": 38.8966925, "name": "ed5fc22bf60f138db208a93b85eaf4e6", "fusion_lon": 0.0, "bike_id": "ed5fc22bf60f138db208a93b85eaf4e6", "is_disabled": 0, "is_reserved": 0}, {"rental_uris": {"ios": "https://dc.lft.to/lastmile_qr_scan", "android": "https://dc.lft.to/lastmile_qr_scan"}, "lon": -77.04197133333334, "type": "electric_scooter", "fusion_lat": 0.0, "lat": 38.92624416666666, "name": "eaea5efcc0a86c3e150822141a50207a", "fusion_lon": 0.0, "bike_id": "eaea5efcc0a86c3e150822141a50207a", "is_disabled": 0, "is_reserved": 0}, {"rental_uris": {"ios": "https://dc.lft.to/lastmile_qr_scan", "android": "https://dc.lft.to/lastmile_qr_scan"}, "lon": -77.041542, "type": "electric_scooter", "fusion_lat": 0.0, "lat": 38.919146166666664, "name": "2e83ba53b27caef90d6195977699a981", "fusion_lon": 0.0, "bike_id": "2e83ba53b27caef90d6195977699a981", "is_disabled": 0, "is_reserved": 0}, {"rental_uris": {"ios": "https://dc.lft.to/lastmile_qr_scan", "android": "https://dc.lft.to/lastmile_qr_scan"}, "lon": -77.01094266666666, "type": "electric_scooter", "fusion_lat": 0.0, "lat": 38.8951275, "name": "735fa7555c231dea2b10e5fab0223cf6", "fusion_lon": 0.0, "bike_id": "735fa7555c231dea2b10e5fab0223cf6", "is_disabled": 0, "is_reserved": 0}, {"rental_uris": {"ios": "https://dc.lft.to/lastmile_qr_scan", "android": "https://dc.lft.to/lastmile_qr_scan"}, "lon": -77.018586, "type": "electric_scooter", "fusion_lat": 0.0, "lat": 38.91960866666667, "name": "b2857da662d70039f4f05e1d0a1577a5", "fusion_lon": 0.0, "bike_id": "b2857da662d70039f4f05e1d0a1577a5", "is_disabled": 0, "is_reserved": 0}, {"rental_uris": {"ios": "https://dc.lft.to/lastmile_qr_scan", "android": "https://dc.lft.to/lastmile_qr_scan"}, "lon": -77.02560833333334, "type": "electric_scooter", "fusion_lat": 0.0, "lat": 38.925332, "name": "1e55f14b83118cd260d9c27d8dc495ea", "fusion_lon": 0.0, "bike_id": "1e55f14b83118cd260d9c27d8dc495ea", "is_disabled": 0, "is_reserved": 0}, {"rental_uris": {"ios": "https://dc.lft.to/lastmile_qr_scan", "android": "https://dc.lft.to/lastmile_qr_scan"}, "lon": -76.9995215, "type": "electric_scooter", "fusion_lat": 0.0, "lat": 38.842945, "name": "0d20d37f5578caf32598986c1578f44c", "fusion_lon": 0.0, "bike_id": "0d20d37f5578caf32598986c1578f44c", "is_disabled": 0, "is_reserved": 0}, {"rental_uris": {"ios": "https://dc.lft.to/lastmile_qr_scan", "android": "https://dc.lft.to/lastmile_qr_scan"}, "lon": -77.04644133333333, "type": "electric_bike", "fusion_lat": 0.0, "lat": 38.852109666666664, "name": "cd16ea480f83ca5167c0360cc508bdb1", "fusion_lon": 0.0, "bike_id": "cd16ea480f83ca5167c0360cc508bdb1", "is_disabled": 0, "is_reserved": 0}, {"rental_uris": {"ios": "https://dc.lft.to/lastmile_qr_scan", "android": "https://dc.lft.to/lastmile_qr_scan"}, "lon": -77.04187083333333, "type": "electric_scooter", "fusion_lat": 0.0, "lat": 38.920337833333335, "name": "d61fead05e406df42fd4899b88291aca", "fusion_lon": 0.0, "bike_id": "d61fead05e406df42fd4899b88291aca", "is_disabled": 0, "is_reserved": 0}, {"rental_uris": {"ios": "https://dc.lft.to/lastmile_qr_scan", "android": "https://dc.lft.to/lastmile_qr_scan"}, "lon": -77.03341383333333, "type": "electric_scooter", "fusion_lat": 0.0, "lat": 38.90015316666667, "name": "bae66e192c908f779debe52f6cc7a1c9", "fusion_lon": 0.0, "bike_id": "bae66e192c908f779debe52f6cc7a1c9", "is_disabled": 0, "is_reserved": 0}, {"rental_uris": {"ios": "https://dc.lft.to/lastmile_qr_scan", "android": "https://dc.lft.to/lastmile_qr_scan"}, "lon": -77.04378966666667, "type": "electric_scooter", "fusion_lat": 0.0, "lat": 38.91784366666667, "name": "ec76e61b7adc6a00cac350ac721ac29e", "fusion_lon": 0.0, "bike_id": "ec76e61b7adc6a00cac350ac721ac29e", "is_disabled": 0, "is_reserved": 0}, {"rental_uris": {"ios": "https://dc.lft.to/lastmile_qr_scan", "android": "https://dc.lft.to/lastmile_qr_scan"}, "lon": -76.947121, "type": "electric_scooter", "fusion_lat": 0.0, "lat": 38.8970845, "name": "c885097fc6097dbfc33830f9b6c2b04f", "fusion_lon": 0.0, "bike_id": "c885097fc6097dbfc33830f9b6c2b04f", "is_disabled": 0, "is_reserved": 0}, {"rental_uris": {"ios": "https://dc.lft.to/lastmile_qr_scan", "android": "https://dc.lft.to/lastmile_qr_scan"}, "lon": -77.12743716666667, "type": "electric_bike", "fusion_lat": 0.0, "lat": 38.88822033333334, "name": "6abd68e8cfd2e698b0d2ba35a9a496b1", "fusion_lon": 0.0, "bike_id": "6abd68e8cfd2e698b0d2ba35a9a496b1", "is_disabled": 0, "is_reserved": 0}, {"rental_uris": {"ios": "https://dc.lft.to/lastmile_qr_scan", "android": "https://dc.lft.to/lastmile_qr_scan"}, "lon": -77.031709, "type": "electric_scooter", "fusion_lat": 0.0, "lat": 38.89608166666667, "name": "87071d07f72ef9266dfb56cea2c8150a", "fusion_lon": 0.0, "bike_id": "87071d07f72ef9266dfb56cea2c8150a", "is_disabled": 0, "is_reserved": 0}, {"rental_uris": {"ios": "https://dc.lft.to/lastmile_qr_scan", "android": "https://dc.lft.to/lastmile_qr_scan"}, "lon": -77.023946, "type": "electric_scooter", "fusion_lat": 0.0, "lat": 38.887407833333334, "name": "bb7b3ac47fe46059b56bd1d2312af9de", "fusion_lon": 0.0, "bike_id": "bb7b3ac47fe46059b56bd1d2312af9de", "is_disabled": 0, "is_reserved": 0}, {"rental_uris": {"ios": "https://dc.lft.to/lastmile_qr_scan", "android": "https://dc.lft.to/lastmile_qr_scan"}, "lon": -77.06160566666667, "type": "electric_scooter", "fusion_lat": 0.0, "lat": 38.94225183333333, "name": "ad8fc303e1f2fbea498e288e8fab2559", "fusion_lon": 0.0, "bike_id": "ad8fc303e1f2fbea498e288e8fab2559", "is_disabled": 0, "is_reserved": 0}, {"rental_uris": {"ios": "https://dc.lft.to/lastmile_qr_scan", "android": "https://dc.lft.to/lastmile_qr_scan"}, "lon": -77.02987933333333, "type": "electric_scooter", "fusion_lat": 0.0, "lat": 38.9311655, "name": "39e7b59f240b8f26323553b85af5a073", "fusion_lon": 0.0, "bike_id": "39e7b59f240b8f26323553b85af5a073", "is_disabled": 0, "is_reserved": 0}, {"rental_uris": {"ios": "https://dc.lft.to/lastmile_qr_scan", "android": "https://dc.lft.to/lastmile_qr_scan"}, "lon": -76.9788855, "type": "electric_scooter", "fusion_lat": 0.0, "lat": 38.916741, "name": "58d843a20593bdd4449ed95fc77ad7e0", "fusion_lon": 0.0, "bike_id": "58d843a20593bdd4449ed95fc77ad7e0", "is_disabled": 0, "is_reserved": 0}, {"rental_uris": {"ios": "https://dc.lft.to/lastmile_qr_scan", "android": "https://dc.lft.to/lastmile_qr_scan"}, "lon": -77.04971833333333, "type": "electric_scooter", "fusion_lat": 0.0, "lat": 38.8964285, "name": "59ac4976f3a292974537eb8e57fa7f39", "fusion_lon": 0.0, "bike_id": "59ac4976f3a292974537eb8e57fa7f39", "is_disabled": 0, "is_reserved": 0}, {"rental_uris": {"ios": "https://dc.lft.to/lastmile_qr_scan", "android": "https://dc.lft.to/lastmile_qr_scan"}, "lon": -77.04657933333333, "type": "electric_scooter", "fusion_lat": 0.0, "lat": 38.905565, "name": "8181aac8a7331f070c71eb2b24f61290", "fusion_lon": 0.0, "bike_id": "8181aac8a7331f070c71eb2b24f61290", "is_disabled": 0, "is_reserved": 0}, {"rental_uris": {"ios": "https://dc.lft.to/lastmile_qr_scan", "android": "https://dc.lft.to/lastmile_qr_scan"}, "lon": -76.98772533333333, "type": "electric_scooter", "fusion_lat": 0.0, "lat": 38.911751, "name": "624f54260823692b5b734db0a911416d", "fusion_lon": 0.0, "bike_id": "624f54260823692b5b734db0a911416d", "is_disabled": 0, "is_reserved": 0}, {"rental_uris": {"ios": "https://dc.lft.to/lastmile_qr_scan", "android": "https://dc.lft.to/lastmile_qr_scan"}, "lon": -76.93159533333333, "type": "electric_scooter", "fusion_lat": 0.0, "lat": 38.8987635, "name": "81af9c075aab50aa3750d18a9b8227c8", "fusion_lon": 0.0, "bike_id": "81af9c075aab50aa3750d18a9b8227c8", "is_disabled": 0, "is_reserved": 0}, {"rental_uris": {"ios": "https://dc.lft.to/lastmile_qr_scan", "android": "https://dc.lft.to/lastmile_qr_scan"}, "lon": -77.02972316666667, "type": "electric_scooter", "fusion_lat": 0.0, "lat": 38.9078145, "name": "9c06462cde93b990e643f789c8865428", "fusion_lon": 0.0, "bike_id": "9c06462cde93b990e643f789c8865428", "is_disabled": 0, "is_reserved": 0}, {"rental_uris": {"ios": "https://dc.lft.to/lastmile_qr_scan", "android": "https://dc.lft.to/lastmile_qr_scan"}, "lon": -76.93522016666667, "type": "electric_scooter", "fusion_lat": 0.0, "lat": 38.908711833333335, "name": "34069822a35c65523bce6e663b9e160b", "fusion_lon": 0.0, "bike_id": "34069822a35c65523bce6e663b9e160b", "is_disabled": 0, "is_reserved": 0}, {"rental_uris": {"ios": "https://dc.lft.to/lastmile_qr_scan", "android": "https://dc.lft.to/lastmile_qr_scan"}, "lon": -76.93811133333334, "type": "electric_scooter", "fusion_lat": 0.0, "lat": 38.913053, "name": "3f8d601d72e62201165754ad972fb614", "fusion_lon": 0.0, "bike_id": "3f8d601d72e62201165754ad972fb614", "is_disabled": 0, "is_reserved": 0}, {"rental_uris": {"ios": "https://dc.lft.to/lastmile_qr_scan", "android": "https://dc.lft.to/lastmile_qr_scan"}, "lon": -77.03506416666667, "type": "electric_scooter", "fusion_lat": 0.0, "lat": 38.921522, "name": "816304a3cb7553c976e381798064a8c9", "fusion_lon": 0.0, "bike_id": "816304a3cb7553c976e381798064a8c9", "is_disabled": 0, "is_reserved": 0}, {"rental_uris": {"ios": "https://dc.lft.to/lastmile_qr_scan", "android": "https://dc.lft.to/lastmile_qr_scan"}, "lon": -77.02842, "type": "electric_scooter", "fusion_lat": 0.0, "lat": 38.88768233333333, "name": "32b2b84012e2523ee4a10a185282d8ca", "fusion_lon": 0.0, "bike_id": "32b2b84012e2523ee4a10a185282d8ca", "is_disabled": 0, "is_reserved": 0}, {"rental_uris": {"ios": "https://dc.lft.to/lastmile_qr_scan", "android": "https://dc.lft.to/lastmile_qr_scan"}, "lon": -77.04043516666667, "type": "electric_scooter", "fusion_lat": 0.0, "lat": 38.925662, "name": "99701eb6efeecd26819b0d84c47fff3c", "fusion_lon": 0.0, "bike_id": "99701eb6efeecd26819b0d84c47fff3c", "is_disabled": 0, "is_reserved": 0}, {"rental_uris": {"ios": "https://dc.lft.to/lastmile_qr_scan", "android": "https://dc.lft.to/lastmile_qr_scan"}, "lon": -77.03260583333333, "type": "electric_scooter", "fusion_lat": 0.0, "lat": 38.913982, "name": "42b3bc085b7b344c20e4d3d72462fde2", "fusion_lon": 0.0, "bike_id": "42b3bc085b7b344c20e4d3d72462fde2", "is_disabled": 0, "is_reserved": 0}, {"rental_uris": {"ios": "https://dc.lft.to/lastmile_qr_scan", "android": "https://dc.lft.to/lastmile_qr_scan"}, "lon": -76.98709133333334, "type": "electric_bike", "fusion_lat": 0.0, "lat": 38.901506, "name": "23fb7b5536d7af08e79c4a8ebafdd162", "fusion_lon": 0.0, "bike_id": "23fb7b5536d7af08e79c4a8ebafdd162", "is_disabled": 0, "is_reserved": 0}, {"rental_uris": {"ios": "https://dc.lft.to/lastmile_qr_scan", "android": "https://dc.lft.to/lastmile_qr_scan"}, "lon": -76.98995816666667, "type": "electric_bike", "fusion_lat": 0.0, "lat": 38.863879833333336, "name": "13764aca9fded998bb4641f65d97f3e0", "fusion_lon": 0.0, "bike_id": "13764aca9fded998bb4641f65d97f3e0", "is_disabled": 0, "is_reserved": 0}, {"rental_uris": {"ios": "https://dc.lft.to/lastmile_qr_scan", "android": "https://dc.lft.to/lastmile_qr_scan"}, "lon": -77.00599316666667, "type": "electric_scooter", "fusion_lat": 0.0, "lat": 38.9059945, "name": "58de4efb4bf1d89bc331b106a77e1d54", "fusion_lon": 0.0, "bike_id": "58de4efb4bf1d89bc331b106a77e1d54", "is_disabled": 0, "is_reserved": 0}, {"rental_uris": {"ios": "https://dc.lft.to/lastmile_qr_scan", "android": "https://dc.lft.to/lastmile_qr_scan"}, "lon": -76.99265383333334, "type": "electric_scooter", "fusion_lat": 0.0, "lat": 38.897612333333335, "name": "73998418f50ec0be7dd93c4832efcdb5", "fusion_lon": 0.0, "bike_id": "73998418f50ec0be7dd93c4832efcdb5", "is_disabled": 0, "is_reserved": 0}, {"rental_uris": {"ios": "https://dc.lft.to/lastmile_qr_scan", "android": "https://dc.lft.to/lastmile_qr_scan"}, "lon": -77.03444166666667, "type": "electric_scooter", "fusion_lat": 0.0, "lat": 38.91841316666667, "name": "cbdb302e4d02c0fbfdcdd620847be497", "fusion_lon": 0.0, "bike_id": "cbdb302e4d02c0fbfdcdd620847be497", "is_disabled": 0, "is_reserved": 0}, {"rental_uris": {"ios": "https://dc.lft.to/lastmile_qr_scan", "android": "https://dc.lft.to/lastmile_qr_scan"}, "lon": -77.0107155, "type": "electric_bike", "fusion_lat": 0.0, "lat": 38.95652533333333, "name": "46bcb203fc78922aa5c0afec703530fe", "fusion_lon": 0.0, "bike_id": "46bcb203fc78922aa5c0afec703530fe", "is_disabled": 0, "is_reserved": 0}, {"rental_uris": {"ios": "https://dc.lft.to/lastmile_qr_scan", "android": "https://dc.lft.to/lastmile_qr_scan"}, "lon": -77.03702533333333, "type": "electric_scooter", "fusion_lat": 0.0, "lat": 38.9263825, "name": "badbbe95316fa9ed286ba06ac94f0a96", "fusion_lon": 0.0, "bike_id": "badbbe95316fa9ed286ba06ac94f0a96", "is_disabled": 0, "is_reserved": 0}, {"rental_uris": {"ios": "https://dc.lft.to/lastmile_qr_scan", "android": "https://dc.lft.to/lastmile_qr_scan"}, "lon": -77.04492916666666, "type": "electric_scooter", "fusion_lat": 0.0, "lat": 38.90326533333333, "name": "d8bac88f63ab79e6f742606a9ecf2904", "fusion_lon": 0.0, "bike_id": "d8bac88f63ab79e6f742606a9ecf2904", "is_disabled": 0, "is_reserved": 0}, {"rental_uris": {"ios": "https://dc.lft.to/lastmile_qr_scan", "android": "https://dc.lft.to/lastmile_qr_scan"}, "lon": -77.02064833333333, "type": "electric_scooter", "fusion_lat": 0.0, "lat": 38.935357333333336, "name": "6ca0772e0556045b99545edd0f4b0898", "fusion_lon": 0.0, "bike_id": "6ca0772e0556045b99545edd0f4b0898", "is_disabled": 0, "is_reserved": 0}, {"rental_uris": {"ios": "https://dc.lft.to/lastmile_qr_scan", "android": "https://dc.lft.to/lastmile_qr_scan"}, "lon": -77.02769033333334, "type": "electric_scooter", "fusion_lat": 0.0, "lat": 38.89197766666667, "name": "fc3a605068336a82ce4ba1b9f166177c", "fusion_lon": 0.0, "bike_id": "fc3a605068336a82ce4ba1b9f166177c", "is_disabled": 0, "is_reserved": 0}, {"rental_uris": {"ios": "https://dc.lft.to/lastmile_qr_scan", "android": "https://dc.lft.to/lastmile_qr_scan"}, "lon": -77.042536, "type": "electric_scooter", "fusion_lat": 0.0, "lat": 38.920685166666665, "name": "4a74a8b41bdd7b6f389544d0cd4078d7", "fusion_lon": 0.0, "bike_id": "4a74a8b41bdd7b6f389544d0cd4078d7", "is_disabled": 0, "is_reserved": 0}, {"rental_uris": {"ios": "https://dc.lft.to/lastmile_qr_scan", "android": "https://dc.lft.to/lastmile_qr_scan"}, "lon": -77.04495883333334, "type": "electric_scooter", "fusion_lat": 0.0, "lat": 38.9130935, "name": "324f8216e681f76f71dfef2a686a8156", "fusion_lon": 0.0, "bike_id": "324f8216e681f76f71dfef2a686a8156", "is_disabled": 0, "is_reserved": 0}, {"rental_uris": {"ios": "https://dc.lft.to/lastmile_qr_scan", "android": "https://dc.lft.to/lastmile_qr_scan"}, "lon": -77.02834983333334, "type": "electric_scooter", "fusion_lat": 0.0, "lat": 38.924664, "name": "2f88851ad11b7ba531b0ac0ff3c4ea82", "fusion_lon": 0.0, "bike_id": "2f88851ad11b7ba531b0ac0ff3c4ea82", "is_disabled": 0, "is_reserved": 0}, {"rental_uris": {"ios": "https://dc.lft.to/lastmile_qr_scan", "android": "https://dc.lft.to/lastmile_qr_scan"}, "lon": -77.03793266666666, "type": "electric_scooter", "fusion_lat": 0.0, "lat": 38.926307666666666, "name": "2f967ce5aae8cc6a0ae2666e43dc144a", "fusion_lon": 0.0, "bike_id": "2f967ce5aae8cc6a0ae2666e43dc144a", "is_disabled": 0, "is_reserved": 0}, {"rental_uris": {"ios": "https://dc.lft.to/lastmile_qr_scan", "android": "https://dc.lft.to/lastmile_qr_scan"}, "lon": -76.9761405, "type": "electric_scooter", "fusion_lat": 0.0, "lat": 38.903825166666664, "name": "6f3b41b30bad3f3d24c576637ab68585", "fusion_lon": 0.0, "bike_id": "6f3b41b30bad3f3d24c576637ab68585", "is_disabled": 0, "is_reserved": 0}, {"rental_uris": {"ios": "https://dc.lft.to/lastmile_qr_scan", "android": "https://dc.lft.to/lastmile_qr_scan"}, "lon": -76.977464, "type": "electric_scooter", "fusion_lat": 0.0, "lat": 38.900102, "name": "4cf40dcb7ff00a83595f26824358123f", "fusion_lon": 0.0, "bike_id": "4cf40dcb7ff00a83595f26824358123f", "is_disabled": 0, "is_reserved": 0}, {"rental_uris": {"ios": "https://dc.lft.to/lastmile_qr_scan", "android": "https://dc.lft.to/lastmile_qr_scan"}, "lon": -77.03830566666667, "type": "electric_scooter", "fusion_lat": 0.0, "lat": 38.92177733333333, "name": "12e8896d59490a30733df5953b33b3bc", "fusion_lon": 0.0, "bike_id": "12e8896d59490a30733df5953b33b3bc", "is_disabled": 0, "is_reserved": 0}, {"rental_uris": {"ios": "https://dc.lft.to/lastmile_qr_scan", "android": "https://dc.lft.to/lastmile_qr_scan"}, "lon": -77.05520816666667, "type": "electric_scooter", "fusion_lat": 0.0, "lat": 38.89927466666666, "name": "65f769dc524539232e9dff1fb5a41394", "fusion_lon": 0.0, "bike_id": "65f769dc524539232e9dff1fb5a41394", "is_disabled": 0, "is_reserved": 0}, {"rental_uris": {"ios": "https://dc.lft.to/lastmile_qr_scan", "android": "https://dc.lft.to/lastmile_qr_scan"}, "lon": -77.02473633333334, "type": "electric_scooter", "fusion_lat": 0.0, "lat": 38.918168, "name": "4ea8c4d7ccbb59ea43adb6c9b0357352", "fusion_lon": 0.0, "bike_id": "4ea8c4d7ccbb59ea43adb6c9b0357352", "is_disabled": 0, "is_reserved": 0}, {"rental_uris": {"ios": "https://dc.lft.to/lastmile_qr_scan", "android": "https://dc.lft.to/lastmile_qr_scan"}, "lon": -76.87816666666667, "type": "electric_bike", "fusion_lat": 0.0, "lat": 38.99230216666667, "name": "5936ef6b965467bf08ac756a24eebf53", "fusion_lon": 0.0, "bike_id": "5936ef6b965467bf08ac756a24eebf53", "is_disabled": 0, "is_reserved": 0}, {"rental_uris": {"ios": "https://dc.lft.to/lastmile_qr_scan", "android": "https://dc.lft.to/lastmile_qr_scan"}, "lon": -76.94633983333334, "type": "electric_scooter", "fusion_lat": 0.0, "lat": 38.898322, "name": "e689b2db3e1cbbc935b6bd6fcc1f9932", "fusion_lon": 0.0, "bike_id": "e689b2db3e1cbbc935b6bd6fcc1f9932", "is_disabled": 0, "is_reserved": 0}, {"rental_uris": {"ios": "https://dc.lft.to/lastmile_qr_scan", "android": "https://dc.lft.to/lastmile_qr_scan"}, "lon": -77.02142983333333, "type": "electric_bike", "fusion_lat": 0.0, "lat": 38.948076666666665, "name": "68773dec58463f3599e7df0a72e6747a", "fusion_lon": 0.0, "bike_id": "68773dec58463f3599e7df0a72e6747a", "is_disabled": 0, "is_reserved": 0}, {"rental_uris": {"ios": "https://dc.lft.to/lastmile_qr_scan", "android": "https://dc.lft.to/lastmile_qr_scan"}, "lon": -77.0235105, "type": "electric_scooter", "fusion_lat": 0.0, "lat": 38.922738, "name": "6d0eacef894a862fc941202b659486ca", "fusion_lon": 0.0, "bike_id": "6d0eacef894a862fc941202b659486ca", "is_disabled": 0, "is_reserved": 0}, {"rental_uris": {"ios": "https://dc.lft.to/lastmile_qr_scan", "android": "https://dc.lft.to/lastmile_qr_scan"}, "lon": -77.03480566666667, "type": "electric_scooter", "fusion_lat": 0.0, "lat": 38.902409166666665, "name": "3347442f59645496307552d1fb24f11b", "fusion_lon": 0.0, "bike_id": "3347442f59645496307552d1fb24f11b", "is_disabled": 0, "is_reserved": 0}, {"rental_uris": {"ios": "https://dc.lft.to/lastmile_qr_scan", "android": "https://dc.lft.to/lastmile_qr_scan"}, "lon": -77.0678035, "type": "electric_scooter", "fusion_lat": 0.0, "lat": 38.952084666666664, "name": "b525a421123ef0e5e714cdba16be0ff7", "fusion_lon": 0.0, "bike_id": "b525a421123ef0e5e714cdba16be0ff7", "is_disabled": 0, "is_reserved": 0}, {"rental_uris": {"ios": "https://dc.lft.to/lastmile_qr_scan", "android": "https://dc.lft.to/lastmile_qr_scan"}, "lon": -77.02127283333333, "type": "electric_scooter", "fusion_lat": 0.0, "lat": 38.90973616666667, "name": "e19d38136814f3c17c489223a5878c70", "fusion_lon": 0.0, "bike_id": "e19d38136814f3c17c489223a5878c70", "is_disabled": 0, "is_reserved": 0}, {"rental_uris": {"ios": "https://dc.lft.to/lastmile_qr_scan", "android": "https://dc.lft.to/lastmile_qr_scan"}, "lon": -77.002079, "type": "electric_scooter", "fusion_lat": 0.0, "lat": 38.9021545, "name": "a03052d2874af0ed04b8f1b37574bc4c", "fusion_lon": 0.0, "bike_id": "a03052d2874af0ed04b8f1b37574bc4c", "is_disabled": 0, "is_reserved": 0}, {"rental_uris": {"ios": "https://dc.lft.to/lastmile_qr_scan", "android": "https://dc.lft.to/lastmile_qr_scan"}, "lon": -77.007372, "type": "electric_scooter", "fusion_lat": 0.0, "lat": 38.955207, "name": "974fe7a331ef69d7b3ba78149558a841", "fusion_lon": 0.0, "bike_id": "974fe7a331ef69d7b3ba78149558a841", "is_disabled": 0, "is_reserved": 0}, {"rental_uris": {"ios": "https://dc.lft.to/lastmile_qr_scan", "android": "https://dc.lft.to/lastmile_qr_scan"}, "lon": -77.025031, "type": "electric_scooter", "fusion_lat": 0.0, "lat": 38.918153, "name": "525900da78878816c815761f8dcbb87a", "fusion_lon": 0.0, "bike_id": "525900da78878816c815761f8dcbb87a", "is_disabled": 0, "is_reserved": 0}, {"rental_uris": {"ios": "https://dc.lft.to/lastmile_qr_scan", "android": "https://dc.lft.to/lastmile_qr_scan"}, "lon": -77.03970716666667, "type": "electric_scooter", "fusion_lat": 0.0, "lat": 38.90260416666667, "name": "506a2cbaf730080112cc1fdeed3d6a05", "fusion_lon": 0.0, "bike_id": "506a2cbaf730080112cc1fdeed3d6a05", "is_disabled": 0, "is_reserved": 0}, {"rental_uris": {"ios": "https://dc.lft.to/lastmile_qr_scan", "android": "https://dc.lft.to/lastmile_qr_scan"}, "lon": -77.03270066666667, "type": "electric_scooter", "fusion_lat": 0.0, "lat": 38.932353166666665, "name": "d238dd82540fec0978076069b1fe7877", "fusion_lon": 0.0, "bike_id": "d238dd82540fec0978076069b1fe7877", "is_disabled": 0, "is_reserved": 0}, {"rental_uris": {"ios": "https://dc.lft.to/lastmile_qr_scan", "android": "https://dc.lft.to/lastmile_qr_scan"}, "lon": -77.03929816666667, "type": "electric_scooter", "fusion_lat": 0.0, "lat": 38.9263185, "name": "e2402b7d095fa2ce12642b3fa8dc05ba", "fusion_lon": 0.0, "bike_id": "e2402b7d095fa2ce12642b3fa8dc05ba", "is_disabled": 0, "is_reserved": 0}, {"rental_uris": {"ios": "https://dc.lft.to/lastmile_qr_scan", "android": "https://dc.lft.to/lastmile_qr_scan"}, "lon": -77.00800516666666, "type": "electric_bike", "fusion_lat": 0.0, "lat": 38.94916216666667, "name": "0b91d800720618bf79144d1158ed541a", "fusion_lon": 0.0, "bike_id": "0b91d800720618bf79144d1158ed541a", "is_disabled": 0, "is_reserved": 0}, {"rental_uris": {"ios": "https://dc.lft.to/lastmile_qr_scan", "android": "https://dc.lft.to/lastmile_qr_scan"}, "lon": -77.02766683333333, "type": "electric_scooter", "fusion_lat": 0.0, "lat": 38.89196333333334, "name": "f0cc5e7d126fe202241171ac3d535521", "fusion_lon": 0.0, "bike_id": "f0cc5e7d126fe202241171ac3d535521", "is_disabled": 0, "is_reserved": 0}, {"rental_uris": {"ios": "https://dc.lft.to/lastmile_qr_scan", "android": "https://dc.lft.to/lastmile_qr_scan"}, "lon": -77.03831033333333, "type": "electric_scooter", "fusion_lat": 0.0, "lat": 38.9036075, "name": "49b6b6cf5aa1ea2ee9660508999d8701", "fusion_lon": 0.0, "bike_id": "49b6b6cf5aa1ea2ee9660508999d8701", "is_disabled": 0, "is_reserved": 0}, {"rental_uris": {"ios": "https://dc.lft.to/lastmile_qr_scan", "android": "https://dc.lft.to/lastmile_qr_scan"}, "lon": -77.03925983333333, "type": "electric_scooter", "fusion_lat": 0.0, "lat": 38.91754566666667, "name": "424f029908017e4d3a0601475e804b76", "fusion_lon": 0.0, "bike_id": "424f029908017e4d3a0601475e804b76", "is_disabled": 0, "is_reserved": 0}, {"rental_uris": {"ios": "https://dc.lft.to/lastmile_qr_scan", "android": "https://dc.lft.to/lastmile_qr_scan"}, "lon": -77.141189, "type": "electric_bike", "fusion_lat": 0.0, "lat": 38.815996166666665, "name": "a729a4b5beed9cb0886c742d091760f6", "fusion_lon": 0.0, "bike_id": "a729a4b5beed9cb0886c742d091760f6", "is_disabled": 0, "is_reserved": 0}, {"rental_uris": {"ios": "https://dc.lft.to/lastmile_qr_scan", "android": "https://dc.lft.to/lastmile_qr_scan"}, "lon": -77.03462433333333, "type": "electric_scooter", "fusion_lat": 0.0, "lat": 38.90538983333333, "name": "925db8a66bb468d23780386c72bd9e06", "fusion_lon": 0.0, "bike_id": "925db8a66bb468d23780386c72bd9e06", "is_disabled": 0, "is_reserved": 0}, {"rental_uris": {"ios": "https://dc.lft.to/lastmile_qr_scan", "android": "https://dc.lft.to/lastmile_qr_scan"}, "lon": -76.995905, "type": "electric_scooter", "fusion_lat": 0.0, "lat": 38.9222955, "name": "ea38c4e9d963f089bb25039b52a3702d", "fusion_lon": 0.0, "bike_id": "ea38c4e9d963f089bb25039b52a3702d", "is_disabled": 0, "is_reserved": 0}, {"rental_uris": {"ios": "https://dc.lft.to/lastmile_qr_scan", "android": "https://dc.lft.to/lastmile_qr_scan"}, "lon": -77.00038933333333, "type": "electric_scooter", "fusion_lat": 0.0, "lat": 38.8739045, "name": "be4db0e6826b20fcf50ed9fc4446b387", "fusion_lon": 0.0, "bike_id": "be4db0e6826b20fcf50ed9fc4446b387", "is_disabled": 0, "is_reserved": 0}, {"rental_uris": {"ios": "https://dc.lft.to/lastmile_qr_scan", "android": "https://dc.lft.to/lastmile_qr_scan"}, "lon": -77.0297075, "type": "electric_scooter", "fusion_lat": 0.0, "lat": 38.940468333333335, "name": "604a47f9217f3dadc53a79163ff9970d", "fusion_lon": 0.0, "bike_id": "604a47f9217f3dadc53a79163ff9970d", "is_disabled": 0, "is_reserved": 0}, {"rental_uris": {"ios": "https://dc.lft.to/lastmile_qr_scan", "android": "https://dc.lft.to/lastmile_qr_scan"}, "lon": -77.00660783333333, "type": "electric_scooter", "fusion_lat": 0.0, "lat": 38.874837166666666, "name": "ab642a2348a228de7a5a298d1d6b5a8f", "fusion_lon": 0.0, "bike_id": "ab642a2348a228de7a5a298d1d6b5a8f", "is_disabled": 0, "is_reserved": 0}, {"rental_uris": {"ios": "https://dc.lft.to/lastmile_qr_scan", "android": "https://dc.lft.to/lastmile_qr_scan"}, "lon": -77.03359283333333, "type": "electric_scooter", "fusion_lat": 0.0, "lat": 38.8850325, "name": "28f77838cd951ea4139d3b53e6962091", "fusion_lon": 0.0, "bike_id": "28f77838cd951ea4139d3b53e6962091", "is_disabled": 0, "is_reserved": 0}, {"rental_uris": {"ios": "https://dc.lft.to/lastmile_qr_scan", "android": "https://dc.lft.to/lastmile_qr_scan"}, "lon": -77.05588766666666, "type": "electric_scooter", "fusion_lat": 0.0, "lat": 38.927761, "name": "b407ba9e31116112e1d7115a27a7d64b", "fusion_lon": 0.0, "bike_id": "b407ba9e31116112e1d7115a27a7d64b", "is_disabled": 0, "is_reserved": 0}, {"rental_uris": {"ios": "https://dc.lft.to/lastmile_qr_scan", "android": "https://dc.lft.to/lastmile_qr_scan"}, "lon": -77.04514866666666, "type": "electric_scooter", "fusion_lat": 0.0, "lat": 38.909653666666664, "name": "9caf9327eec765b8ac3447e5fdca41c5", "fusion_lon": 0.0, "bike_id": "9caf9327eec765b8ac3447e5fdca41c5", "is_disabled": 0, "is_reserved": 0}, {"rental_uris": {"ios": "https://dc.lft.to/lastmile_qr_scan", "android": "https://dc.lft.to/lastmile_qr_scan"}, "lon": -77.09518533333333, "type": "electric_bike", "fusion_lat": 0.0, "lat": 38.83810883333334, "name": "123df0d308f68d6053e87dbc852e6141", "fusion_lon": 0.0, "bike_id": "123df0d308f68d6053e87dbc852e6141", "is_disabled": 0, "is_reserved": 0}, {"rental_uris": {"ios": "https://dc.lft.to/lastmile_qr_scan", "android": "https://dc.lft.to/lastmile_qr_scan"}, "lon": -77.04442083333333, "type": "electric_scooter", "fusion_lat": 0.0, "lat": 38.91885333333333, "name": "03205eee56ce1e2408216ec0bfd79ee7", "fusion_lon": 0.0, "bike_id": "03205eee56ce1e2408216ec0bfd79ee7", "is_disabled": 0, "is_reserved": 0}, {"rental_uris": {"ios": "https://dc.lft.to/lastmile_qr_scan", "android": "https://dc.lft.to/lastmile_qr_scan"}, "lon": -77.03270166666667, "type": "electric_scooter", "fusion_lat": 0.0, "lat": 38.91810133333333, "name": "a0801b9b6896749cded58e390cf8d5ce", "fusion_lon": 0.0, "bike_id": "a0801b9b6896749cded58e390cf8d5ce", "is_disabled": 0, "is_reserved": 0}, {"rental_uris": {"ios": "https://dc.lft.to/lastmile_qr_scan", "android": "https://dc.lft.to/lastmile_qr_scan"},