{"data": {"bikes": [{"is_reserved": 0, "type": "electric_bike", "fusion_lat": 0.0, "is_disabled": 0, "rental_uris": {"ios": "https://dc.lft.to/lastmile_qr_scan", "android": "https://dc.lft.to/lastmile_qr_scan"}, "bike_id": "c6c543aa0ca7bbee78297ae84ec98645", "lat": 38.94732716666667, "name": "c6c543aa0ca7bbee78297ae84ec98645", "lon": -76.995849, "fusion_lon": 0.0}, {"is_reserved": 0, "type": "electric_scooter", "fusion_lat": 0.0, "is_disabled": 0, "rental_uris": {"ios": "https://dc.lft.to/lastmile_qr_scan", "android": "https://dc.lft.to/lastmile_qr_scan"}, "bike_id": "d3fbd8c98a8baec21cfe1e8a7d42ee82", "lat": 38.9191605, "name": "d3fbd8c98a8baec21cfe1e8a7d42ee82", "lon": -77.04803683333333, "fusion_lon": 0.0}, {"is_reserved": 0, "type": "electric_scooter", "fusion_lat": 0.0, "is_disabled": 0, "rental_uris": {"ios": "https://dc.lft.to/lastmile_qr_scan", "android": "https://dc.lft.to/lastmile_qr_scan"}, "bike_id": "5386207ff9025ad531b7337b8115fa41", "lat": 38.88361616666667, "name": "5386207ff9025ad531b7337b8115fa41", "lon": -76.92793666666667, "fusion_lon": 0.0}, {"is_reserved": 0, "type": "electric_scooter", "fusion_lat": 0.0, "is_disabled": 0, "rental_uris": {"ios": "https://dc.lft.to/lastmile_qr_scan", "android": "https://dc.lft.to/lastmile_qr_scan"}, "bike_id": "fa6f436a1790394f3769921786f089d3", "lat": 38.916498833333335, "name": "fa6f436a1790394f3769921786f089d3", "lon": -77.0217925, "fusion_lon": 0.0}, {"is_reserved": 0, "type": "electric_scooter", "fusion_lat": 0.0, "is_disabled": 0, "rental_uris": {"ios": "https://dc.lft.to/lastmile_qr_scan", "android": "https://dc.lft.to/lastmile_qr_scan"}, "bike_id": "dfac1eee506f5d86c4579afc244c0344", "lat": 38.93187316666667, "name": "dfac1eee506f5d86c4579afc244c0344", "lon": -77.01963583333334, "fusion_lon": 0.0}, {"is_reserved": 0, "type": "electric_scooter", "fusion_lat": 0.0, "is_disabled": 0, "rental_uris": {"ios": "https://dc.lft.to/lastmile_qr_scan", "android": "https://dc.lft.to/lastmile_qr_scan"}, "bike_id": "6db1a6ee7498b6a21e2d6d99e7bd1310", "lat": 38.90186683333334, "name": "6db1a6ee7498b6a21e2d6d99e7bd1310", "lon": -76.93466266666667, "fusion_lon": 0.0}, {"is_reserved": 0, "type": "electric_scooter", "fusion_lat": 0.0, "is_disabled": 0, "rental_uris": {"ios": "https://dc.lft.to/lastmile_qr_scan", "android": "https://dc.lft.to/lastmile_qr_scan"}, "bike_id": "c8790b14ba3020f3b85bb7911bab458f", "lat": 38.930742, "name": "c8790b14ba3020f3b85bb7911bab458f", "lon": -77.07762566666666, "fusion_lon": 0.0}, {"is_reserved": 0, "type": "electric_scooter", "fusion_lat": 0.0, "is_disabled": 0, "rental_uris": {"ios": "https://dc.lft.to/lastmile_qr_scan", "android": "https://dc.lft.to/lastmile_qr_scan"}, "bike_id": "5fc12e0740c7ce4874d9851e6cd5f7f9", "lat": 38.92480966666667, "name": "5fc12e0740c7ce4874d9851e6cd5f7f9", "lon": -77.026301, "fusion_lon": 0.0}, {"is_reserved": 0, "type": "electric_scooter", "fusion_lat": 0.0, "is_disabled": 0, "rental_uris": {"ios": "https://dc.lft.to/lastmile_qr_scan", "android": "https://dc.lft.to/lastmile_qr_scan"}, "bike_id": "5d4bbbd9a13c6bb8635855c1820a3a64", "lat": 38.876605833333336, "name": "5d4bbbd9a13c6bb8635855c1820a3a64", "lon": -77.01575766666667, "fusion_lon": 0.0}, {"is_reserved": 0, "type": "electric_scooter", "fusion_lat": 0.0, "is_disabled": 0, "rental_uris": {"ios": "https://dc.lft.to/lastmile_qr_scan", "android": "https://dc.lft.to/lastmile_qr_scan"}, "bike_id": "848bb6ce281aff5ec131b31f31aa5ca8", "lat": 38.9301485, "name": "848bb6ce281aff5ec131b31f31aa5ca8", "lon": -77.04048566666667, "fusion_lon": 0.0}, {"is_reserved": 0, "type": "electric_scooter", "fusion_lat": 0.0, "is_disabled": 0, "rental_uris": {"ios": "https://dc.lft.to/lastmile_qr_scan", "android": "https://dc.lft.to/lastmile_qr_scan"}, "bike_id": "04da9c8aee2ee79678464b47cafd3a78", "lat": 38.898338333333335, "name": "04da9c8aee2ee79678464b47cafd3a78", "lon": -77.05006366666667, "fusion_lon": 0.0}, {"is_reserved": 0, "type": "electric_bike", "fusion_lat": 0.0, "is_disabled": 0, "rental_uris": {"ios": "https://dc.lft.to/lastmile_qr_scan", "android": "https://dc.lft.to/lastmile_qr_scan"}, "bike_id": "43dbf69bbc1e02fd2c44618a444595e6", "lat": 38.994984333333335, "name": "43dbf69bbc1e02fd2c44618a444595e6", "lon": -77.001385, "fusion_lon": 0.0}, {"is_reserved": 0, "type": "electric_bike", "fusion_lat": 0.0, "is_disabled": 0, "rental_uris": {"ios": "https://dc.lft.to/lastmile_qr_scan", "android": "https://dc.lft.to/lastmile_qr_scan"}, "bike_id": "df72cee1d49876e4295a4b1711a403b7", "lat": 38.87740316666667, "name": "df72cee1d49876e4295a4b1711a403b7", "lon": -77.1487575, "fusion_lon": 0.0}, {"is_reserved": 0, "type": "electric_scooter", "fusion_lat": 0.0, "is_disabled": 0, "rental_uris": {"ios": "https://dc.lft.to/lastmile_qr_scan", "android": "https://dc.lft.to/lastmile_qr_scan"}, "bike_id": "62094fb5ed5673eb283b3202ba72b553", "lat": 38.919308666666666, "name": "62094fb5ed5673eb283b3202ba72b553", "lon": -77.02530483333334, "fusion_lon": 0.0}, {"is_reserved": 0, "type": "electric_scooter", "fusion_lat": 0.0, "is_disabled": 0, "rental_uris": {"ios": "https://dc.lft.to/lastmile_qr_scan", "android": "https://dc.lft.to/lastmile_qr_scan"}, "bike_id": "3522c223f2d78dac504dacb945192aa7", "lat": 38.90757416666667, "name": "3522c223f2d78dac504dacb945192aa7", "lon": -77.01698433333334, "fusion_lon": 0.0}, {"is_reserved": 0, "type": "electric_scooter", "fusion_lat": 0.0, "is_disabled": 0, "rental_uris": {"ios": "https://dc.lft.to/lastmile_qr_scan", "android": "https://dc.lft.to/lastmile_qr_scan"}, "bike_id": "f0f04e6b92076e1c2aeb03d1d574657a", "lat": 38.87834516666667, "name": "f0f04e6b92076e1c2aeb03d1d574657a", "lon": -77.00860383333334, "fusion_lon": 0.0}, {"is_reserved": 0, "type": "electric_scooter", "fusion_lat": 0.0, "is_disabled": 0, "rental_uris": {"ios": "https://dc.lft.to/lastmile_qr_scan", "android": "https://dc.lft.to/lastmile_qr_scan"}, "bike_id": "83dc31d760e22885ac40a4dd1636bd58", "lat": 38.885197, "name": "83dc31d760e22885ac40a4dd1636bd58", "lon": -76.9959885, "fusion_lon": 0.0}, {"is_reserved": 0, "type": "electric_bike", "fusion_lat": 0.0, "is_disabled": 0, "rental_uris": {"ios": "https://dc.lft.to/lastmile_qr_scan", "android": "https://dc.lft.to/lastmile_qr_scan"}, "bike_id": "9f116ab265f2e7506e9bcf2c0499346b", "lat": 39.005357, "name": "9f116ab265f2e7506e9bcf2c0499346b", "lon": -77.10401183333333, "fusion_lon": 0.0}, {"is_reserved": 0, "type": "electric_scooter", "fusion_lat": 0.0, "is_disabled": 0, "rental_uris": {"ios": "https://dc.lft.to/lastmile_qr_scan", "android": "https://dc.lft.to/lastmile_qr_scan"}, "bike_id": "0254da1d73f06a1158d500c4683d978b", "lat": 38.905612, "name": "0254da1d73f06a1158d500c4683d978b", "lon": -77.03137633333333, "fusion_lon": 0.0}, {"is_reserved": 0, "type": "electric_scooter", "fusion_lat": 0.0, "is_disabled": 0, "rental_uris": {"ios": "https://dc.lft.to/lastmile_qr_scan", "android": "https://dc.lft.to/lastmile_qr_scan"}, "bike_id": "b5697ce005922fa942b74bae9e0dd535", "lat": 38.929737333333335, "name": "b5697ce005922fa942b74bae9e0dd535", "lon": -77.0234905, "fusion_lon": 0.0}, {"is_reserved": 0, "type": "electric_bike", "fusion_lat": 0.0, "is_disabled": 0, "rental_uris": {"ios": "https://dc.lft.to/lastmile_qr_scan", "android": "https://dc.lft.to/lastmile_qr_scan"}, "bike_id": "526753049f592b43bba7e6f4d84ced11", "lat": 38.865099, "name": "526753049f592b43bba7e6f4d84ced11", "lon": -76.9734975, "fusion_lon": 0.0}, {"is_reserved": 0, "type": "electric_scooter", "fusion_lat": 0.0, "is_disabled": 0, "rental_uris": {"ios": "https://dc.lft.to/lastmile_qr_scan", "android": "https://dc.lft.to/lastmile_qr_scan"}, "bike_id": "b0b814abd0fb7842558fb9ae2ed5a86b", "lat": 38.9146995, "name": "b0b814abd0fb7842558fb9ae2ed5a86b", "lon": -77.00924233333333, "fusion_lon": 0.0}, {"is_reserved": 0, "type": "electric_scooter", "fusion_lat": 0.0, "is_disabled": 0, "rental_uris": {"ios": "https://dc.lft.to/lastmile_qr_scan", "android": "https://dc.lft.to/lastmile_qr_scan"}, "bike_id": "2fac598c0be642a3a21ee721455b43a4", "lat": 38.898535, "name": "2fac598c0be642a3a21ee721455b43a4", "lon": -76.9949735, "fusion_lon": 0.0}, {"is_reserved": 0, "type": "electric_scooter", "fusion_lat": 0.0, "is_disabled": 0, "rental_uris": {"ios": "https://dc.lft.to/lastmile_qr_scan", "android": "https://dc.lft.to/lastmile_qr_scan"}, "bike_id": "c6e61fae1aaaaee8872f5ed47b80e485", "lat": 38.897745666666665, "name": "c6e61fae1aaaaee8872f5ed47b80e485", "lon": -77.012346, "fusion_lon": 0.0}, {"is_reserved": 0, "type": "electric_scooter", "fusion_lat": 0.0, "is_disabled": 0, "rental_uris": {"ios": "https://dc.lft.to/lastmile_qr_scan", "android": "https://dc.lft.to/lastmile_qr_scan"}, "bike_id": "a7894682acb82fd73a7dafd2cc73a06f", "lat": 38.91462216666667, "name": "a7894682acb82fd73a7dafd2cc73a06f", "lon": -77.022942, "fusion_lon": 0.0}, {"is_reserved": 0, "type": "electric_scooter", "fusion_lat": 0.0, "is_disabled": 0, "rental_uris": {"ios": "https://dc.lft.to/lastmile_qr_scan", "android": "https://dc.lft.to/lastmile_qr_scan"}, "bike_id": "4ede617017b6cb3e5d7b76e94a7f449f", "lat": 38.9118965, "name": "4ede617017b6cb3e5d7b76e94a7f449f", "lon": -77.0176295, "fusion_lon": 0.0}, {"is_reserved": 0, "type": "electric_bike", "fusion_lat": 0.0, "is_disabled": 0, "rental_uris": {"ios": "https://dc.lft.to/lastmile_qr_scan", "android": "https://dc.lft.to/lastmile_qr_scan"}, "bike_id": "a61d6fc168ade491cc76c274e2548432", "lat": 38.94404683333333, "name": "a61d6fc168ade491cc76c274e2548432", "lon": -77.02181183333333, "fusion_lon": 0.0}, {"is_reserved": 0, "type": "electric_scooter", "fusion_lat": 0.0, "is_disabled": 0, "rental_uris": {"ios": "https://dc.lft.to/lastmile_qr_scan", "android": "https://dc.lft.to/lastmile_qr_scan"}, "bike_id": "7d1b59acf4bb8bd585510a87c542aa93", "lat": 38.92886416666666, "name": "7d1b59acf4bb8bd585510a87c542aa93", "lon": -77.03872016666666, "fusion_lon": 0.0}, {"is_reserved": 0, "type": "electric_scooter", "fusion_lat": 0.0, "is_disabled": 0, "rental_uris": {"ios": "https://dc.lft.to/lastmile_qr_scan", "android": "https://dc.lft.to/lastmile_qr_scan"}, "bike_id": "f197dea372a0acf77e8e6c2e10dc1dfb", "lat": 38.902821833333334, "name": "f197dea372a0acf77e8e6c2e10dc1dfb", "lon": -77.0335485, "fusion_lon": 0.0}, {"is_reserved": 0, "type": "electric_scooter", "fusion_lat": 0.0, "is_disabled": 0, "rental_uris": {"ios": "https://dc.lft.to/lastmile_qr_scan", "android": "https://dc.lft.to/lastmile_qr_scan"}, "bike_id": "6aab6be00c766d85f985053b35d5d53c", "lat": 38.92143433333333, "name": "6aab6be00c766d85f985053b35d5d53c", "lon": -77.03391633333334, "fusion_lon": 0.0}, {"is_reserved": 0, "type": "electric_bike", "fusion_lat": 0.0, "is_disabled": 0, "rental_uris": {"ios": "https://dc.lft.to/lastmile_qr_scan", "android": "https://dc.lft.to/lastmile_qr_scan"}, "bike_id": "e5d6fb6b2a85f6d52d9b68c0fc15cd68", "lat": 38.875395166666664, "name": "e5d6fb6b2a85f6d52d9b68c0fc15cd68", "lon": -77.04745033333333, "fusion_lon": 0.0}, {"is_reserved": 0, "type": "electric_scooter", "fusion_lat": 0.0, "is_disabled": 0, "rental_uris": {"ios": "https://dc.lft.to/lastmile_qr_scan", "android": "https://dc.lft.to/lastmile_qr_scan"}, "bike_id": "b6ee392772e4de04ee2f1f26e07cb066", "lat": 38.95961166666667, "name": "b6ee392772e4de04ee2f1f26e07cb066", "lon": -77.03319016666667, "fusion_lon": 0.0}, {"is_reserved": 0, "type": "electric_scooter", "fusion_lat": 0.0, "is_disabled": 0, "rental_uris": {"ios": "https://dc.lft.to/lastmile_qr_scan", "android": "https://dc.lft.to/lastmile_qr_scan"}, "bike_id": "303f58967ba2223bd96fa0f51d17d795", "lat": 38.892119666666666, "name": "303f58967ba2223bd96fa0f51d17d795", "lon": -76.96119516666667, "fusion_lon": 0.0}, {"is_reserved": 0, "type": "electric_scooter", "fusion_lat": 0.0, "is_disabled": 0, "rental_uris": {"ios": "https://dc.lft.to/lastmile_qr_scan", "android": "https://dc.lft.to/lastmile_qr_scan"}, "bike_id": "27bd57298e6508670044ab94fbea83e5", "lat": 38.912759, "name": "27bd57298e6508670044ab94fbea83e5", "lon": -77.0467105, "fusion_lon": 0.0}, {"is_reserved": 0, "type": "electric_bike", "fusion_lat": 0.0, "is_disabled": 0, "rental_uris": {"ios": "https://dc.lft.to/lastmile_qr_scan", "android": "https://dc.lft.to/lastmile_qr_scan"}, "bike_id": "df39192deadd5ea38b8426d19951f719", "lat": 38.998282333333336, "name": "df39192deadd5ea38b8426d19951f719", "lon": -76.99728483333334, "fusion_lon": 0.0}, {"is_reserved": 0, "type": "electric_scooter", "fusion_lat": 0.0, "is_disabled": 0, "rental_uris": {"ios": "https://dc.lft.to/lastmile_qr_scan", "android": "https://dc.lft.to/lastmile_qr_scan"}, "bike_id": "033ca96813ed1949d26ae07288887e5a", "lat": 38.883838833333336, "name": "033ca96813ed1949d26ae07288887e5a", "lon": -77.04606383333333, "fusion_lon": 0.0}, {"is_reserved": 0, "type": "electric_scooter", "fusion_lat": 0.0, "is_disabled": 0, "rental_uris": {"ios": "https://dc.lft.to/lastmile_qr_scan", "android": "https://dc.lft.to/lastmile_qr_scan"}, "bike_id": "23e88f2e5e028ee4071f478270c36a05", "lat": 38.92431766666667, "name": "23e88f2e5e028ee4071f478270c36a05", "lon": -77.0194525, "fusion_lon": 0.0}, {"is_reserved": 0, "type": "electric_scooter", "fusion_lat": 0.0, "is_disabled": 0, "rental_uris": {"ios": "https://dc.lft.to/lastmile_qr_scan", "android": "https://dc.lft.to/lastmile_qr_scan"}, "bike_id": "2884961bb9c1831600e0d529058d5b3c", "lat": 38.91746116666667, "name": "2884961bb9c1831600e0d529058d5b3c", "lon": -77.01088883333334, "fusion_lon": 0.0}, {"is_reserved": 0, "type": "electric_scooter", "fusion_lat": 0.0, "is_disabled": 0, "rental_uris": {"ios": "https://dc.lft.to/lastmile_qr_scan", "android": "https://dc.lft.to/lastmile_qr_scan"}, "bike_id": "b1f528ec4a7c4d908229dbe6153549fd", "lat": 38.912639, "name": "b1f528ec4a7c4d908229dbe6153549fd", "lon": -77.04771016666666, "fusion_lon": 0.0}, {"is_reserved": 0, "type": "electric_scooter", "fusion_lat": 0.0, "is_disabled": 0, "rental_uris": {"ios": "https://dc.lft.to/lastmile_qr_scan", "android": "https://dc.lft.to/lastmile_qr_scan"}, "bike_id": "e56f681683a1e5e60d18789521071482", "lat": 38.89935783333333, "name": "e56f681683a1e5e60d18789521071482", "lon": -76.9376135, "fusion_lon": 0.0}, {"is_reserved": 0, "type": "electric_scooter", "fusion_lat": 0.0, "is_disabled": 0, "rental_uris": {"ios": "https://dc.lft.to/lastmile_qr_scan", "android": "https://dc.lft.to/lastmile_qr_scan"}, "bike_id": "7d1647348a3ae0ccd466577fb4c55a7e", "lat": 38.903866666666666, "name": "7d1647348a3ae0ccd466577fb4c55a7e", "lon": -77.0483135, "fusion_lon": 0.0}, {"is_reserved": 0, "type": "electric_scooter", "fusion_lat": 0.0, "is_disabled": 0, "rental_uris": {"ios": "https://dc.lft.to/lastmile_qr_scan", "android": "https://dc.lft.to/lastmile_qr_scan"}, "bike_id": "f995af81aaadef052ec16e725061cd05", "lat": 38.887687666666665, "name": "f995af81aaadef052ec16e725061cd05", "lon": -76.977327, "fusion_lon": 0.0}, {"is_reserved": 0, "type": "electric_scooter", "fusion_lat": 0.0, "is_disabled": 0, "rental_uris": {"ios": "https://dc.lft.to/lastmile_qr_scan", "android": "https://dc.lft.to/lastmile_qr_scan"}, "bike_id": "121ee384c8c7b8c59ee8b8ee9eed03dd", "lat": 38.876333833333334, "name": "121ee384c8c7b8c59ee8b8ee9eed03dd", "lon": -77.00200166666667, "fusion_lon": 0.0}, {"is_reserved": 0, "type": "electric_scooter", "fusion_lat": 0.0, "is_disabled": 0, "rental_uris": {"ios": "https://dc.lft.to/lastmile_qr_scan", "android": "https://dc.lft.to/lastmile_qr_scan"}, "bike_id": "ece003a0ef4a81d205a7c4d7f32b3418", "lat": 38.909110166666665, "name": "ece003a0ef4a81d205a7c4d7f32b3418", "lon": -77.049454, "fusion_lon": 0.0}, {"is_reserved": 0, "type": "electric_scooter", "fusion_lat": 0.0, "is_disabled": 0, "rental_uris": {"ios": "https://dc.lft.to/lastmile_qr_scan", "android": "https://dc.lft.to/lastmile_qr_scan"}, "bike_id": "611d08c08dd9fdc35b7f1560ea147c02", "lat": 38.947054333333334, "name": "611d08c08dd9fdc35b7f1560ea147c02", "lon": -77.01944183333333, "fusion_lon": 0.0}, {"is_reserved": 0, "type": "electric_scooter", "fusion_lat": 0.0, "is_disabled": 0, "rental_uris": {"ios": "https://dc.lft.to/lastmile_qr_scan", "android": "https://dc.lft.to/lastmile_qr_scan"}, "bike_id": "13e32b11b2117b3328f926f74ead083b", "lat": 38.8877335, "name": "13e32b11b2117b3328f926f74ead083b", "lon": -76.977342, "fusion_lon": 0.0}, {"is_reserved": 0, "type": "electric_scooter", "fusion_lat": 0.0, "is_disabled": 0, "rental_uris": {"ios": "https://dc.lft.to/lastmile_qr_scan", "android": "https://dc.lft.to/lastmile_qr_scan"}, "bike_id": "7a1ac01ce0c86aa29353b47ddc89320a", "lat": 38.91879683333333, "name": "7a1ac01ce0c86aa29353b47ddc89320a", "lon": -77.0731385, "fusion_lon": 0.0}, {"is_reserved": 0, "type": "electric_scooter", "fusion_lat": 0.0, "is_disabled": 0, "rental_uris": {"ios": "https://dc.lft.to/lastmile_qr_scan", "android": "https://dc.lft.to/lastmile_qr_scan"}, "bike_id": "2dd12a8bbeda231690cece3157395448", "lat": 38.873514666666665, "name": "2dd12a8bbeda231690cece3157395448", "lon": -77.001961, "fusion_lon": 0.0}, {"is_reserved": 0, "type": "electric_scooter", "fusion_lat": 0.0, "is_disabled": 0, "rental_uris": {"ios": "https://dc.lft.to/lastmile_qr_scan", "android": "https://dc.lft.to/lastmile_qr_scan"}, "bike_id": "47ab2322b98e2c3c663aa4203f6c4d75", "lat": 38.91422883333333, "name": "47ab2322b98e2c3c663aa4203f6c4d75", "lon": -77.06923016666667, "fusion_lon": 0.0}, {"is_reserved": 0, "type": "electric_scooter", "fusion_lat": 0.0, "is_disabled": 0, "rental_uris": {"ios": "https://dc.lft.to/lastmile_qr_scan", "android": "https://dc.lft.to/lastmile_qr_scan"}, "bike_id": "85792025d9c835afac85a53b321c1169", "lat": 38.91589033333333, "name": "85792025d9c835afac85a53b321c1169", "lon": -76.98412083333334, "fusion_lon": 0.0}, {"is_reserved": 0, "type": "electric_scooter", "fusion_lat": 0.0, "is_disabled": 0, "rental_uris": {"ios": "https://dc.lft.to/lastmile_qr_scan", "android": "https://dc.lft.to/lastmile_qr_scan"}, "bike_id": "ec69ee98f884c39e1d45c27b3c6b5063", "lat": 38.91256683333334, "name": "ec69ee98f884c39e1d45c27b3c6b5063", "lon": -76.98353616666667, "fusion_lon": 0.0}, {"is_reserved": 0, "type": "electric_scooter", "fusion_lat": 0.0, "is_disabled": 0, "rental_uris": {"ios": "https://dc.lft.to/lastmile_qr_scan", "android": "https://dc.lft.to/lastmile_qr_scan"}, "bike_id": "06d6950aacfab8d8fd2ff388b0d73919", "lat": 38.91499983333333, "name": "06d6950aacfab8d8fd2ff388b0d73919", "lon": -77.01846033333334, "fusion_lon": 0.0}, {"is_reserved": 0, "type": "electric_bike", "fusion_lat": 0.0, "is_disabled": 0, "rental_uris": {"ios": "https://dc.lft.to/lastmile_qr_scan", "android": "https://dc.lft.to/lastmile_qr_scan"}, "bike_id": "c4daba886ad2dd7dd52e54ee9e6b63ff", "lat": 38.846745166666665, "name": "c4daba886ad2dd7dd52e54ee9e6b63ff", "lon": -77.13933283333333, "fusion_lon": 0.0}, {"is_reserved": 0, "type": "electric_scooter", "fusion_lat": 0.0, "is_disabled": 0, "rental_uris": {"ios": "https://dc.lft.to/lastmile_qr_scan", "android": "https://dc.lft.to/lastmile_qr_scan"}, "bike_id": "0390066612c43e7ee775474a738b354e", "lat": 38.928593666666664, "name": "0390066612c43e7ee775474a738b354e", "lon": -77.03428033333333, "fusion_lon": 0.0}, {"is_reserved": 0, "type": "electric_scooter", "fusion_lat": 0.0, "is_disabled": 0, "rental_uris": {"ios": "https://dc.lft.to/lastmile_qr_scan", "android": "https://dc.lft.to/lastmile_qr_scan"}, "bike_id": "324160a7432d6553fa07e4c64ba16351", "lat": 38.912683333333334, "name": "324160a7432d6553fa07e4c64ba16351", "lon": -77.0303935, "fusion_lon": 0.0}, {"is_reserved": 0, "type": "electric_scooter", "fusion_lat": 0.0, "is_disabled": 0, "rental_uris": {"ios": "https://dc.lft.to/lastmile_qr_scan", "android": "https://dc.lft.to/lastmile_qr_scan"}, "bike_id": "5cf9c7d53cbf60e804b4e61c43d277e7", "lat": 38.88625416666667, "name": "5cf9c7d53cbf60e804b4e61c43d277e7", "lon": -76.9817845, "fusion_lon": 0.0}, {"is_reserved": 0, "type": "electric_scooter", "fusion_lat": 0.0, "is_disabled": 0, "rental_uris": {"ios": "https://dc.lft.to/lastmile_qr_scan", "android": "https://dc.lft.to/lastmile_qr_scan"}, "bike_id": "11e91ae65fac121fb3ecbd72c87a053b", "lat": 38.920995833333336, "name": "11e91ae65fac121fb3ecbd72c87a053b", "lon": -77.04125616666667, "fusion_lon": 0.0}, {"is_reserved": 0, "type": "electric_scooter", "fusion_lat": 0.0, "is_disabled": 0, "rental_uris": {"ios": "https://dc.lft.to/lastmile_qr_scan", "android": "https://dc.lft.to/lastmile_qr_scan"}, "bike_id": "ebaacc591814c01d539934ee68b15542", "lat": 38.91218666666666, "name": "ebaacc591814c01d539934ee68b15542", "lon": -77.0384335, "fusion_lon": 0.0}, {"is_reserved": 0, "type": "electric_bike", "fusion_lat": 0.0, "is_disabled": 0, "rental_uris": {"ios": "https://dc.lft.to/lastmile_qr_scan", "android": "https://dc.lft.to/lastmile_qr_scan"}, "bike_id": "a2255388edf5037aad32cc459cd97592", "lat": 39.022966833333335, "name": "a2255388edf5037aad32cc459cd97592", "lon": -77.021058, "fusion_lon": 0.0}, {"is_reserved": 0, "type": "electric_bike", "fusion_lat": 0.0, "is_disabled": 0, "rental_uris": {"ios": "https://dc.lft.to/lastmile_qr_scan", "android": "https://dc.lft.to/lastmile_qr_scan"}, "bike_id": "45e7bc89619ee299c127cbeab0929682", "lat": 38.974766, "name": "45e7bc89619ee299c127cbeab0929682", "lon": -76.98674683333333, "fusion_lon": 0.0}, {"is_reserved": 0, "type": "electric_scooter", "fusion_lat": 0.0, "is_disabled": 0, "rental_uris": {"ios": "https://dc.lft.to/lastmile_qr_scan", "android": "https://dc.lft.to/lastmile_qr_scan"}, "bike_id": "cad2cb4b2911c9001b7cab557625d971", "lat": 38.899637166666665, "name": "cad2cb4b2911c9001b7cab557625d971", "lon": -77.0475215, "fusion_lon": 0.0}, {"is_reserved": 0, "type": "electric_scooter", "fusion_lat": 0.0, "is_disabled": 0, "rental_uris": {"ios": "https://dc.lft.to/lastmile_qr_scan", "android": "https://dc.lft.to/lastmile_qr_scan"}, "bike_id": "8d9e54bb657edfbab4e4a5d50affb5e6", "lat": 38.883695, "name": "8d9e54bb657edfbab4e4a5d50affb5e6", "lon": -76.99516116666666, "fusion_lon": 0.0}, {"is_reserved": 0, "type": "electric_scooter", "fusion_lat": 0.0, "is_disabled": 0, "rental_uris": {"ios": "https://dc.lft.to/lastmile_qr_scan", "android": "https://dc.lft.to/lastmile_qr_scan"}, "bike_id": "266d976875b6dc680e7b15037a1fda4f", "lat": 38.90657916666667, "name": "266d976875b6dc680e7b15037a1fda4f", "lon": -77.01616966666667, "fusion_lon": 0.0}, {"is_reserved": 0, "type": "electric_bike", "fusion_lat": 0.0, "is_disabled": 0, "rental_uris": {"ios": "https://dc.lft.to/lastmile_qr_scan", "android": "https://dc.lft.to/lastmile_qr_scan"}, "bike_id": "2581f3e117d98185ee09958b072a9d3c", "lat": 38.894222166666665, "name": "2581f3e117d98185ee09958b072a9d3c", "lon": -77.09441083333333, "fusion_lon": 0.0}, {"is_reserved": 0, "type": "electric_scooter", "fusion_lat": 0.0, "is_disabled": 0, "rental_uris": {"ios": "https://dc.lft.to/lastmile_qr_scan", "android": "https://dc.lft.to/lastmile_qr_scan"}, "bike_id": "bac188f4230daf25c18ac45d06d2e095", "lat": 38.89842866666667, "name": "bac188f4230daf25c18ac45d06d2e095", "lon": -77.01877116666667, "fusion_lon": 0.0}, {"is_reserved": 0, "type": "electric_bike", "fusion_lat": 0.0, "is_disabled": 0, "rental_uris": {"ios": "https://dc.lft.to/lastmile_qr_scan", "android": "https://dc.lft.to/lastmile_qr_scan"}, "bike_id": "9157fcf2c563b5531457b5b5b14dcba6", "lat": 38.982226, "name": "9157fcf2c563b5531457b5b5b14dcba6", "lon": -77.09555633333333, "fusion_lon": 0.0}, {"is_reserved": 0, "type": "electric_bike", "fusion_lat": 0.0, "is_disabled": 0, "rental_uris": {"ios": "https://dc.lft.to/lastmile_qr_scan", "android": "https://dc.lft.to/lastmile_qr_scan"}, "bike_id": "91e3aad5e9dda2c1fd71614f77a4d5f6", "lat": 38.840861, "name": "91e3aad5e9dda2c1fd71614f77a4d5f6", "lon": -76.97029616666667, "fusion_lon": 0.0}, {"is_reserved": 0, "type": "electric_scooter", "fusion_lat": 0.0, "is_disabled": 0, "rental_uris": {"ios": "https://dc.lft.to/lastmile_qr_scan", "android": "https://dc.lft.to/lastmile_qr_scan"}, "bike_id": "a06a1a41fa43654a6d228786090b12dc", "lat": 38.907848, "name": "a06a1a41fa43654a6d228786090b12dc", "lon": -77.0021575, "fusion_lon": 0.0}, {"is_reserved": 0, "type": "electric_scooter", "fusion_lat": 0.0, "is_disabled": 0, "rental_uris": {"ios": "https://dc.lft.to/lastmile_qr_scan", "android": "https://dc.lft.to/lastmile_qr_scan"}, "bike_id": "d3a4aa464ec8c5349492f9b209cd2ceb", "lat": 38.955040333333336, "name": "d3a4aa464ec8c5349492f9b209cd2ceb", "lon": -77.06998816666666, "fusion_lon": 0.0}, {"is_reserved": 0, "type": "electric_scooter", "fusion_lat": 0.0, "is_disabled": 0, "rental_uris": {"ios": "https://dc.lft.to/lastmile_qr_scan", "android": "https://dc.lft.to/lastmile_qr_scan"}, "bike_id": "12415cc49cd5f5e6dc46d4ec7660b3c2", "lat": 38.923384666666664, "name": "12415cc49cd5f5e6dc46d4ec7660b3c2", "lon": -76.98486916666667, "fusion_lon": 0.0}, {"is_reserved": 0, "type": "electric_scooter", "fusion_lat": 0.0, "is_disabled": 0, "rental_uris": {"ios": "https://dc.lft.to/lastmile_qr_scan", "android": "https://dc.lft.to/lastmile_qr_scan"}, "bike_id": "bdb84a9875f2df1d1ec400971a01d8a9", "lat": 38.908652000000004, "name": "bdb84a9875f2df1d1ec400971a01d8a9", "lon": -77.04078133333333, "fusion_lon": 0.0}, {"is_reserved": 0, "type": "electric_bike", "fusion_lat": 0.0, "is_disabled": 0, "rental_uris": {"ios": "https://dc.lft.to/lastmile_qr_scan", "android": "https://dc.lft.to/lastmile_qr_scan"}, "bike_id": "02f8241cada26ef99f4e4964efa40fce", "lat": 38.868170666666664, "name": "02f8241cada26ef99f4e4964efa40fce", "lon": -76.98030816666666, "fusion_lon": 0.0}, {"is_reserved": 0, "type": "electric_scooter", "fusion_lat": 0.0, "is_disabled": 0, "rental_uris": {"ios": "https://dc.lft.to/lastmile_qr_scan", "android": "https://dc.lft.to/lastmile_qr_scan"}, "bike_id": "eed5b5013978551263de508e29aa75b7", "lat": 38.923604833333336, "name": "eed5b5013978551263de508e29aa75b7", "lon": -77.03652366666667, "fusion_lon": 0.0}, {"is_reserved": 0, "type": "electric_scooter", "fusion_lat": 0.0, "is_disabled": 0, "rental_uris": {"ios": "https://dc.lft.to/lastmile_qr_scan", "android": "https://dc.lft.to/lastmile_qr_scan"}, "bike_id": "f20eb97a93b04e7190a6cdc1fd3a879e", "lat": 38.91664083333333, "name": "f20eb97a93b04e7190a6cdc1fd3a879e", "lon": -77.02707083333334, "fusion_lon": 0.0}, {"is_reserved": 0, "type": "electric_scooter", "fusion_lat": 0.0, "is_disabled": 0, "rental_uris": {"ios": "https://dc.lft.to/lastmile_qr_scan", "android": "https://dc.lft.to/lastmile_qr_scan"}, "bike_id": "cf6fba6822ba2e2d49d2b0e4873d889c", "lat": 38.943039, "name": "cf6fba6822ba2e2d49d2b0e4873d889c", "lon": -77.025343, "fusion_lon": 0.0}, {"is_reserved": 0, "type": "electric_scooter", "fusion_lat": 0.0, "is_disabled": 0, "rental_uris": {"ios": "https://dc.lft.to/lastmile_qr_scan", "android": "https://dc.lft.to/lastmile_qr_scan"}, "bike_id": "652353e07057b36b11d47f4c47323f6b", "lat": 38.91984, "name": "652353e07057b36b11d47f4c47323f6b", "lon": -77.02351483333334, "fusion_lon": 0.0}, {"is_reserved": 0, "type": "electric_scooter", "fusion_lat": 0.0, "is_disabled": 0, "rental_uris": {"ios": "https://dc.lft.to/lastmile_qr_scan", "android": "https://dc.lft.to/lastmile_qr_scan"}, "bike_id": "9b7e3ff648c873188c88326038583e02", "lat": 38.90559116666667, "name": "9b7e3ff648c873188c88326038583e02", "lon": -77.00589216666667, "fusion_lon": 0.0}, {"is_reserved": 0, "type": "electric_scooter", "fusion_lat": 0.0, "is_disabled": 0, "rental_uris": {"ios": "https://dc.lft.to/lastmile_qr_scan", "android": "https://dc.lft.to/lastmile_qr_scan"}, "bike_id": "36d791f6a44510de0e46039052366a1c", "lat": 38.926355666666666, "name": "36d791f6a44510de0e46039052366a1c", "lon": -77.03835516666666, "fusion_lon": 0.0}, {"is_reserved": 0, "type": "electric_scooter", "fusion_lat": 0.0, "is_disabled": 0, "rental_uris": {"ios": "https://dc.lft.to/lastmile_qr_scan", "android": "https://dc.lft.to/lastmile_qr_scan"}, "bike_id": "63691c7c0078cfca17d97537e93b5f2e", "lat": 38.896681, "name": "63691c7c0078cfca17d97537e93b5f2e", "lon": -76.932116, "fusion_lon": 0.0}, {"is_reserved": 0, "type": "electric_scooter", "fusion_lat": 0.0, "is_disabled": 0, "rental_uris": {"ios": "https://dc.lft.to/lastmile_qr_scan", "android": "https://dc.lft.to/lastmile_qr_scan"}, "bike_id": "11bf68bb03b480a8434696e940277c84", "lat": 38.90012266666667, "name": "11bf68bb03b480a8434696e940277c84", "lon": -77.006755, "fusion_lon": 0.0}, {"is_reserved": 0, "type": "electric_scooter", "fusion_lat": 0.0, "is_disabled": 0, "rental_uris": {"ios": "https://dc.lft.to/lastmile_qr_scan", "android": "https://dc.lft.to/lastmile_qr_scan"}, "bike_id": "575bac03b95c3e4de19d995b59303817", "lat": 38.918994166666664, "name": "575bac03b95c3e4de19d995b59303817", "lon": -77.00051216666667, "fusion_lon": 0.0}, {"is_reserved": 0, "type": "electric_scooter", "fusion_lat": 0.0, "is_disabled": 0, "rental_uris": {"ios": "https://dc.lft.to/lastmile_qr_scan", "android": "https://dc.lft.to/lastmile_qr_scan"}, "bike_id": "cf0b06ceb3fc6b53bc73c3367718d2bc", "lat": 38.90131816666667, "name": "cf0b06ceb3fc6b53bc73c3367718d2bc", "lon": -77.0419585, "fusion_lon": 0.0}, {"is_reserved": 0, "type": "electric_scooter", "fusion_lat": 0.0, "is_disabled": 0, "rental_uris": {"ios": "https://dc.lft.to/lastmile_qr_scan", "android": "https://dc.lft.to/lastmile_qr_scan"}, "bike_id": "ec2964111a13681ebc9bdc0ae19c86c5", "lat": 38.92123016666667, "name": "ec2964111a13681ebc9bdc0ae19c86c5", "lon": -77.04431866666667, "fusion_lon": 0.0}, {"is_reserved": 0, "type": "electric_scooter", "fusion_lat": 0.0, "is_disabled": 0, "rental_uris": {"ios": "https://dc.lft.to/lastmile_qr_scan", "android": "https://dc.lft.to/lastmile_qr_scan"}, "bike_id": "f9ed71208238b7c014558b8d7ec248c4", "lat": 38.9215795, "name": "f9ed71208238b7c014558b8d7ec248c4", "lon": -77.0346865, "fusion_lon": 0.0}, {"is_reserved": 0, "type": "electric_scooter", "fusion_lat": 0.0, "is_disabled": 0, "rental_uris": {"ios": "https://dc.lft.to/lastmile_qr_scan", "android": "https://dc.lft.to/lastmile_qr_scan"}, "bike_id": "9595da1e9089b57aed9571273ece2cbc", "lat": 38.914044833333335, "name": "9595da1e9089b57aed9571273ece2cbc", "lon": -77.03337183333333, "fusion_lon": 0.0}, {"is_reserved": 0, "type": "electric_scooter", "fusion_lat": 0.0, "is_disabled": 0, "rental_uris": {"ios": "https://dc.lft.to/lastmile_qr_scan", "android": "https://dc.lft.to/lastmile_qr_scan"}, "bike_id": "7643744e4dce6983594f4db900613789", "lat": 38.88987516666667, "name": "7643744e4dce6983594f4db900613789", "lon": -76.98814233333333, "fusion_lon": 0.0}, {"is_reserved": 0, "type": "electric_scooter", "fusion_lat": 0.0, "is_disabled": 0, "rental_uris": {"ios": "https://dc.lft.to/lastmile_qr_scan", "android": "https://dc.lft.to/lastmile_qr_scan"}, "bike_id": "216ae8d31d09bcc0abe27f3dee9ace37", "lat": 38.8934105, "name": "216ae8d31d09bcc0abe27f3dee9ace37", "lon": -77.01974266666667, "fusion_lon": 0.0}, {"is_reserved": 0, "type": "electric_bike", "fusion_lat": 0.0, "is_disabled": 0, "rental_uris": {"ios": "https://dc.lft.to/lastmile_qr_scan", "android": "https://dc.lft.to/lastmile_qr_scan"}, "bike_id": "9c503a867b0d314866a5920f0b287b91", "lat": 38.885963833333335, "name": "9c503a867b0d314866a5920f0b287b91", "lon": -77.0007915, "fusion_lon": 0.0}, {"is_reserved": 0, "type": "electric_scooter", "fusion_lat": 0.0, "is_disabled": 0, "rental_uris": {"ios": "https://dc.lft.to/lastmile_qr_scan", "android": "https://dc.lft.to/lastmile_qr_scan"}, "bike_id": "90b87668090931c109fc5800a50bb1bd", "lat": 38.923633, "name": "90b87668090931c109fc5800a50bb1bd", "lon": -77.05131866666666, "fusion_lon": 0.0}, {"is_reserved": 0, "type": "electric_scooter", "fusion_lat": 0.0, "is_disabled": 0, "rental_uris": {"ios": "https://dc.lft.to/lastmile_qr_scan", "android": "https://dc.lft.to/lastmile_qr_scan"}, "bike_id": "76d33c9e109917377e7171b395f9fe72", "lat": 38.897262833333336, "name": "76d33c9e109917377e7171b395f9fe72", "lon": -77.0461395, "fusion_lon": 0.0}, {"is_reserved": 0, "type": "electric_scooter", "fusion_lat": 0.0, "is_disabled": 0, "rental_uris": {"ios": "https://dc.lft.to/lastmile_qr_scan", "android": "https://dc.lft.to/lastmile_qr_scan"}, "bike_id": "8c2ab290c226d8c3d629253c596a28b3", "lat": 38.85549, "name": "8c2ab290c226d8c3d629253c596a28b3", "lon": -76.98656066666666, "fusion_lon": 0.0}, {"is_reserved": 0, "type": "electric_bike", "fusion_lat": 0.0, "is_disabled": 0, "rental_uris": {"ios": "https://dc.lft.to/lastmile_qr_scan", "android": "https://dc.lft.to/lastmile_qr_scan"}, "bike_id": "ccd4361f0e34340e6ee2d3ce673294ba", "lat": 38.974395, "name": "ccd4361f0e34340e6ee2d3ce673294ba", "lon": -77.0961255, "fusion_lon": 0.0}, {"is_reserved": 0, "type": "electric_scooter", "fusion_lat": 0.0, "is_disabled": 0, "rental_uris": {"ios": "https://dc.lft.to/lastmile_qr_scan", "android": "https://dc.lft.to/lastmile_qr_scan"}, "bike_id": "c33cd8eccbe742fa49582a0d39c10db8", "lat": 38.9555485, "name": "c33cd8eccbe742fa49582a0d39c10db8", "lon": -77.0332945, "fusion_lon": 0.0}, {"is_reserved": 0, "type": "electric_scooter", "fusion_lat": 0.0, "is_disabled": 0, "rental_uris": {"ios": "https://dc.lft.to/lastmile_qr_scan", "android": "https://dc.lft.to/lastmile_qr_scan"}, "bike_id": "70398b467ff3f7608d232ef108b9cc97", "lat": 38.920657, "name": "70398b467ff3f7608d232ef108b9cc97", "lon": -77.03207233333333, "fusion_lon": 0.0}, {"is_reserved": 0, "type": "electric_scooter", "fusion_lat": 0.0, "is_disabled": 0, "rental_uris": {"ios": "https://dc.lft.to/lastmile_qr_scan", "android": "https://dc.lft.to/lastmile_qr_scan"}, "bike_id": "7bd8cc0dd162c0f56df84b2a13e1d578", "lat": 38.89369966666667, "name": "7bd8cc0dd162c0f56df84b2a13e1d578", "lon": -77.02053183333334, "fusion_lon": 0.0}, {"is_reserved": 0, "type": "electric_scooter", "fusion_lat": 0.0, "is_disabled": 0, "rental_uris": {"ios": "https://dc.lft.to/lastmile_qr_scan", "android": "https://dc.lft.to/lastmile_qr_scan"}, "bike_id": "33cc44e8d2e74613e28d7b9ee9b4f2cd", "lat": 38.92912833333333, "name": "33cc44e8d2e74613e28d7b9ee9b4f2cd", "lon": -77.0208955, "fusion_lon": 0.0}, {"is_reserved": 0, "type": "electric_scooter", "fusion_lat": 0.0, "is_disabled": 0, "rental_uris": {"ios": "https://dc.lft.to/lastmile_qr_scan", "android": "https://dc.lft.to/lastmile_qr_scan"}, "bike_id": "41bd8af354afed3497955f26c4713bd3", "lat": 38.855618, "name": "41bd8af354afed3497955f26c4713bd3", "lon": -76.99082766666666, "fusion_lon": 0.0}, {"is_reserved": 0, "type": "electric_scooter", "fusion_lat": 0.0, "is_disabled": 0, "rental_uris": {"ios": "https://dc.lft.to/lastmile_qr_scan", "android": "https://dc.lft.to/lastmile_qr_scan"}, "bike_id": "0cd181dbf4ffc728e0dd27368436423f", "lat": 38.931127333333336, "name": "0cd181dbf4ffc728e0dd27368436423f", "lon": -77.02110183333333, "fusion_lon": 0.0}, {"is_reserved": 0, "type": "electric_scooter", "fusion_lat": 0.0, "is_disabled": 0, "rental_uris": {"ios": "https://dc.lft.to/lastmile_qr_scan", "android": "https://dc.lft.to/lastmile_qr_scan"}, "bike_id": "ec4c76221211526fcade7086dcf96509", "lat": 38.91796733333334, "name": "ec4c76221211526fcade7086dcf96509", "lon": -77.02318433333333, "fusion_lon": 0.0}, {"is_reserved": 0, "type": "electric_scooter", "fusion_lat": 0.0, "is_disabled": 0, "rental_uris": {"ios": "https://dc.lft.to/lastmile_qr_scan", "android": "https://dc.lft.to/lastmile_qr_scan"}, "bike_id": "b26ff51b1fd440b049ca0d3b92caef7b", "lat": 38.88240033333334, "name": "b26ff51b1fd440b049ca0d3b92caef7b", "lon": -76.93354033333334, "fusion_lon": 0.0}, {"is_reserved": 0, "type": "electric_scooter", "fusion_lat": 0.0, "is_disabled": 0, "rental_uris": {"ios": "https://dc.lft.to/lastmile_qr_scan", "android": "https://dc.lft.to/lastmile_qr_scan"}, "bike_id": "d39779b5aacf121ac36dc9e2557b9c74", "lat": 38.90354683333333, "name": "d39779b5aacf121ac36dc9e2557b9c74", "lon": -77.02592316666667, "fusion_lon": 0.0}, {"is_reserved": 0, "type": "electric_scooter", "fusion_lat": 0.0, "is_disabled": 0, "rental_uris": {"ios": "https://dc.lft.to/lastmile_qr_scan", "android": "https://dc.lft.to/lastmile_qr_scan"}, "bike_id": "2871e8ea538a2a82e578ea6f7ca24d8a", "lat": 38.93604233333333, "name": "2871e8ea538a2a82e578ea6f7ca24d8a", "lon": -77.0241405, "fusion_lon": 0.0}, {"is_reserved": 0, "type": "electric_scooter", "fusion_lat": 0.0, "is_disabled": 0, "rental_uris": {"ios": "https://dc.lft.to/lastmile_qr_scan", "android": "https://dc.lft.to/lastmile_qr_scan"}, "bike_id": "bb8d0ddc0888c3d875cfd3d178f4de0f", "lat": 38.911108, "name": "bb8d0ddc0888c3d875cfd3d178f4de0f", "lon": -77.00384066666666, "fusion_lon": 0.0}, {"is_reserved": 0, "type": "electric_scooter", "fusion_lat": 0.0, "is_disabled": 0, "rental_uris": {"ios": "https://dc.lft.to/lastmile_qr_scan", "android": "https://dc.lft.to/lastmile_qr_scan"}, "bike_id": "97d63e588931da0dfcca79d1aeb7c064", "lat": 38.95756766666667, "name": "97d63e588931da0dfcca79d1aeb7c064", "lon": -77.0221925, "fusion_lon": 0.0}, {"is_reserved": 0, "type": "electric_scooter", "fusion_lat": 0.0, "is_disabled": 0, "rental_uris": {"ios": "https://dc.lft.to/lastmile_qr_scan", "android": "https://dc.lft.to/lastmile_qr_scan"}, "bike_id": "a397341a87007581fb819cc737c67c49", "lat": 38.88529833333333, "name": "a397341a87007581fb819cc737c67c49", "lon": -76.9805475, "fusion_lon": 0.0}, {"is_reserved": 0, "type": "electric_scooter", "fusion_lat": 0.0, "is_disabled": 0, "rental_uris": {"ios": "https://dc.lft.to/lastmile_qr_scan", "android": "https://dc.lft.to/lastmile_qr_scan"}, "bike_id": "24b5cf08debd1c6e58574f38e121956a", "lat": 38.92170316666667, "name": "24b5cf08debd1c6e58574f38e121956a", "lon": -77.04009566666667, "fusion_lon": 0.0}, {"is_reserved": 0, "type": "electric_scooter", "fusion_lat": 0.0, "is_disabled": 0, "rental_uris": {"ios": "https://dc.lft.to/lastmile_qr_scan", "android": "https://dc.lft.to/lastmile_qr_scan"}, "bike_id": "ea3f32eceae4e7649be38ee97cbeac61", "lat": 38.892218166666666, "name": "ea3f32eceae4e7649be38ee97cbeac61", "lon": -77.04639766666666, "fusion_lon": 0.0}, {"is_reserved": 0, "type": "electric_scooter", "fusion_lat": 0.0, "is_disabled": 0, "rental_uris": {"ios": "https://dc.lft.to/lastmile_qr_scan", "android": "https://dc.lft.to/lastmile_qr_scan"}, "bike_id": "137fb14f06f0ec636824b57667998dca", "lat": 38.9047405, "name": "137fb14f06f0ec636824b57667998dca", "lon": -77.05340883333334, "fusion_lon": 0.0}, {"is_reserved": 0, "type": "electric_scooter", "fusion_lat": 0.0, "is_disabled": 0, "rental_uris": {"ios": "https://dc.lft.to/lastmile_qr_scan", "android": "https://dc.lft.to/lastmile_qr_scan"}, "bike_id": "298b22f3f0d0f6b471a7c464b47e790e", "lat": 38.898437666666666, "name": "298b22f3f0d0f6b471a7c464b47e790e", "lon": -77.039193, "fusion_lon": 0.0}, {"is_reserved": 0, "type": "electric_scooter", "fusion_lat": 0.0, "is_disabled": 0, "rental_uris": {"ios": "https://dc.lft.to/lastmile_qr_scan", "android": "https://dc.lft.to/lastmile_qr_scan"}, "bike_id": "9b30351cb45199230d1faca5ee8c2aba", "lat": 38.9241965, "name": "9b30351cb45199230d1faca5ee8c2aba", "lon": -77.02013633333334, "fusion_lon": 0.0}, {"is_reserved": 0, "type": "electric_scooter", "fusion_lat": 0.0, "is_disabled": 0, "rental_uris": {"ios": "https://dc.lft.to/lastmile_qr_scan", "android": "https://dc.lft.to/lastmile_qr_scan"}, "bike_id": "99cd498abdca8e832e6bf0a0b32f7076", "lat": 38.885148, "name": "99cd498abdca8e832e6bf0a0b32f7076", "lon": -76.924463, "fusion_lon": 0.0}, {"is_reserved": 0, "type": "electric_scooter", "fusion_lat": 0.0, "is_disabled": 0, "rental_uris": {"ios": "https://dc.lft.to/lastmile_qr_scan", "android": "https://dc.lft.to/lastmile_qr_scan"}, "bike_id": "223f1d6781239a737579b7ee6395fe19", "lat": 38.9025, "name": "223f1d6781239a737579b7ee6395fe19", "lon": -76.976965, "fusion_lon": 0.0}, {"is_reserved": 0, "type": "electric_scooter", "fusion_lat": 0.0, "is_disabled": 0, "rental_uris": {"ios": "https://dc.lft.to/lastmile_qr_scan", "android": "https://dc.lft.to/lastmile_qr_scan"}, "bike_id": "fc10ee8043c6db6d763a42952e95a0b1", "lat": 38.902833666666666, "name": "fc10ee8043c6db6d763a42952e95a0b1", "lon": -77.03434433333334, "fusion_lon": 0.0}, {"is_reserved": 0, "type": "electric_bike", "fusion_lat": 0.0, "is_disabled": 0, "rental_uris": {"ios": "https://dc.lft.to/lastmile_qr_scan", "android": "https://dc.lft.to/lastmile_qr_scan"}, "bike_id": "2e83886c153b8ecb52528cc3d7051b53", "lat": 38.896239666666666, "name": "2e83886c153b8ecb52528cc3d7051b53", "lon": -76.90749116666667, "fusion_lon": 0.0}, {"is_reserved": 0, "type": "electric_scooter", "fusion_lat": 0.0, "is_disabled": 0, "rental_uris": {"ios": "https://dc.lft.to/lastmile_qr_scan", "android": "https://dc.lft.to/lastmile_qr_scan"}, "bike_id": "f3019e170438065924e0ec703a27b911", "lat": 38.901569333333335, "name": "f3019e170438065924e0ec703a27b911", "lon": -77.02227983333333, "fusion_lon": 0.0}, {"is_reserved": 0, "type": "electric_scooter", "fusion_lat": 0.0, "is_disabled": 0, "rental_uris": {"ios": "https://dc.lft.to/lastmile_qr_scan", "android": "https://dc.lft.to/lastmile_qr_scan"}, "bike_id": "572110fa58685a5496e12f2226c64f95", "lat": 38.904832999999996, "name": "572110fa58685a5496e12f2226c64f95", "lon": -76.94962766666667, "fusion_lon": 0.0}, {"is_reserved": 0, "type": "electric_scooter", "fusion_lat": 0.0, "is_disabled": 0, "rental_uris": {"ios": "https://dc.lft.to/lastmile_qr_scan", "android": "https://dc.lft.to/lastmile_qr_scan"}, "bike_id": "2abb38be635589adfd057c04615d98a6", "lat": 38.924640333333336, "name": "2abb38be635589adfd057c04615d98a6", "lon": -77.05224416666667, "fusion_lon": 0.0}, {"is_reserved": 0, "type": "electric_scooter", "fusion_lat": 0.0, "is_disabled": 0, "rental_uris": {"ios": "https://dc.lft.to/lastmile_qr_scan", "android": "https://dc.lft.to/lastmile_qr_scan"}, "bike_id": "40b329f2a290910a0d41a1a68b0f79e4", "lat": 38.9027925, "name": "40b329f2a290910a0d41a1a68b0f79e4", "lon": -77.04883316666667, "fusion_lon": 0.0}, {"is_reserved": 0, "type": "electric_scooter", "fusion_lat": 0.0, "is_disabled": 0, "rental_uris": {"ios": "https://dc.lft.to/lastmile_qr_scan", "android": "https://dc.lft.to/lastmile_qr_scan"}, "bike_id": "ef9b32cc9aae0a623ed2ef0af66671b7", "lat": 38.9112315, "name": "ef9b32cc9aae0a623ed2ef0af66671b7", "lon": -77.02088983333333, "fusion_lon": 0.0}, {"is_reserved": 0, "type": "electric_scooter", "fusion_lat": 0.0, "is_disabled": 0, "rental_uris": {"ios": "https://dc.lft.to/lastmile_qr_scan", "android": "https://dc.lft.to/lastmile_qr_scan"}, "bike_id": "63b0c1d41143efe94448bb6613ab653c", "lat": 38.9276025, "name": "63b0c1d41143efe94448bb6613ab653c", "lon": -77.0327155, "fusion_lon": 0.0}, {"is_reserved": 0, "type": "electric_scooter", "fusion_lat": 0.0, "is_disabled": 0, "rental_uris": {"ios": "https://dc.lft.to/lastmile_qr_scan", "android": "https://dc.lft.to/lastmile_qr_scan"}, "bike_id": "d0ac11117a0fad33c3fc194d176ab7be", "lat": 38.903049833333334, "name": "d0ac11117a0fad33c3fc194d176ab7be", "lon": -77.0281605, "fusion_lon": 0.0}, {"is_reserved": 0, "type": "electric_bike", "fusion_lat": 0.0, "is_disabled": 0, "rental_uris": {"ios": "https://dc.lft.to/lastmile_qr_scan", "android": "https://dc.lft.to/lastmile_qr_scan"}, "bike_id": "8c2dade4638c80bb75ad0d97ad2c71ca", "lat": 38.950162666666664, "name": "8c2dade4638c80bb75ad0d97ad2c71ca", "lon": -77.01428666666666, "fusion_lon": 0.0}, {"is_reserved": 0, "type": "electric_scooter", "fusion_lat": 0.0, "is_disabled": 0, "rental_uris": {"ios": "https://dc.lft.to/lastmile_qr_scan", "android": "https://dc.lft.to/lastmile_qr_scan"}, "bike_id": "5c21ed716ca5d56f025b9642328ca97f", "lat": 38.90730116666667, "name": "5c21ed716ca5d56f025b9642328ca97f", "lon": -77.00384983333333, "fusion_lon": 0.0}, {"is_reserved": 0, "type": "electric_scooter", "fusion_lat": 0.0, "is_disabled": 0, "rental_uris": {"ios": "https://dc.lft.to/lastmile_qr_scan", "android": "https://dc.lft.to/lastmile_qr_scan"}, "bike_id": "cf21344d57189e688f312e9d26e628b3", "lat": 38.9170955, "name": "cf21344d57189e688f312e9d26e628b3", "lon": -77.03894416666667, "fusion_lon": 0.0}, {"is_reserved": 0, "type": "electric_bike", "fusion_lat": 0.0, "is_disabled": 0, "rental_uris": {"ios": "https://dc.lft.to/lastmile_qr_scan", "android": "https://dc.lft.to/lastmile_qr_scan"}, "bike_id": "b07038c8850af87eaab13e66770b5d0c", "lat": 38.9338715, "name": "b07038c8850af87eaab13e66770b5d0c", "lon": -77.023918, "fusion_lon": 0.0}, {"is_reserved": 0, "type": "electric_scooter", "fusion_lat": 0.0, "is_disabled": 0, "rental_uris": {"ios": "https://dc.lft.to/lastmile_qr_scan", "android": "https://dc.lft.to/lastmile_qr_scan"}, "bike_id": "f2a1b6ec9ccc4691f23fc4c49fbcccc4", "lat": 38.96798033333334, "name": "f2a1b6ec9ccc4691f23fc4c49fbcccc4", "lon": -77.02565366666667, "fusion_lon": 0.0}, {"is_reserved": 0, "type": "electric_scooter", "fusion_lat": 0.0, "is_disabled": 0, "rental_uris": {"ios": "https://dc.lft.to/lastmile_qr_scan", "android": "https://dc.lft.to/lastmile_qr_scan"}, "bike_id": "397ac0be9368e8339725245c653e7aaf", "lat": 38.9010555, "name": "397ac0be9368e8339725245c653e7aaf", "lon": -77.03166633333333, "fusion_lon": 0.0}, {"is_reserved": 0, "type": "electric_scooter", "fusion_lat": 0.0, "is_disabled": 0, "rental_uris": {"ios": "https://dc.lft.to/lastmile_qr_scan", "android": "https://dc.lft.to/lastmile_qr_scan"}, "bike_id": "aea6c4ce5f8960586c9106211cce6f55", "lat": 38.895438166666665, "name": "aea6c4ce5f8960586c9106211cce6f55", "lon": -76.983395, "fusion_lon": 0.0}, {"is_reserved": 0, "type": "electric_scooter", "fusion_lat": 0.0, "is_disabled": 0, "rental_uris": {"ios": "https://dc.lft.to/lastmile_qr_scan", "android": "https://dc.lft.to/lastmile_qr_scan"}, "bike_id": "b1d80f5beada57b2c5c7d9fd0244b53e", "lat": 38.908735166666666, "name": "b1d80f5beada57b2c5c7d9fd0244b53e", "lon": -77.071538, "fusion_lon": 0.0}, {"is_reserved": 0, "type": "electric_scooter", "fusion_lat": 0.0, "is_disabled": 0, "rental_uris": {"ios": "https://dc.lft.to/lastmile_qr_scan", "android": "https://dc.lft.to/lastmile_qr_scan"}, "bike_id": "811f19be075c0fc486f56362f330130e", "lat": 38.918084, "name": "811f19be075c0fc486f56362f330130e", "lon": -77.03441116666667, "fusion_lon": 0.0}, {"is_reserved": 0, "type": "electric_scooter", "fusion_lat": 0.0, "is_disabled": 0, "rental_uris": {"ios": "https://dc.lft.to/lastmile_qr_scan", "android": "https://dc.lft.to/lastmile_qr_scan"}, "bike_id": "4284b783356745e9e618f919b5f4f475", "lat": 38.905923333333334, "name": "4284b783356745e9e618f919b5f4f475", "lon": -77.04704216666667, "fusion_lon": 0.0}, {"is_reserved": 0, "type": "electric_scooter", "fusion_lat": 0.0, "is_disabled": 0, "rental_uris": {"ios": "https://dc.lft.to/lastmile_qr_scan", "android": "https://dc.lft.to/lastmile_qr_scan"}, "bike_id": "37525e215e4dce8e4dbd51d53d240c42", "lat": 38.89362716666667, "name": "37525e215e4dce8e4dbd51d53d240c42", "lon": -76.94111366666667, "fusion_lon": 0.0}, {"is_reserved": 0, "type": "electric_scooter", "fusion_lat": 0.0, "is_disabled": 0, "rental_uris": {"ios": "https://dc.lft.to/lastmile_qr_scan", "android": "https://dc.lft.to/lastmile_qr_scan"}, "bike_id": "44ce7416c7e59d0be838152046f8d713", "lat": 38.926230833333335, "name": "44ce7416c7e59d0be838152046f8d713", "lon": -77.04160633333333, "fusion_lon": 0.0}, {"is_reserved": 0, "type": "electric_scooter", "fusion_lat": 0.0, "is_disabled": 0, "rental_uris": {"ios": "https://dc.lft.to/lastmile_qr_scan", "android": "https://dc.lft.to/lastmile_qr_scan"}, "bike_id": "99911ee7a165dc338674b41b12b158ca", "lat": 38.89230033333333, "name": "99911ee7a165dc338674b41b12b158ca", "lon": -77.049957, "fusion_lon": 0.0}, {"is_reserved": 0, "type": "electric_bike", "fusion_lat": 0.0, "is_disabled": 0, "rental_uris": {"ios": "https://dc.lft.to/lastmile_qr_scan", "android": "https://dc.lft.to/lastmile_qr_scan"}, "bike_id": "3049854a2a9f4ef34b1561b0c6a0dd8d", "lat": 38.871756166666664, "name": "3049854a2a9f4ef34b1561b0c6a0dd8d", "lon": -77.2339705, "fusion_lon": 0.0}, {"is_reserved": 0, "type": "electric_scooter", "fusion_lat": 0.0, "is_disabled": 0, "rental_uris": {"ios": "https://dc.lft.to/lastmile_qr_scan", "android": "https://dc.lft.to/lastmile_qr_scan"}, "bike_id": "7e3be375d3addc9bfb491ed01613b250", "lat": 38.9217225, "name": "7e3be375d3addc9bfb491ed01613b250", "lon": -77.04357616666667, "fusion_lon": 0.0}, {"is_reserved": 0, "type": "electric_bike", "fusion_lat": 0.0, "is_disabled": 0, "rental_uris": {"ios": "https://dc.lft.to/lastmile_qr_scan", "android": "https://dc.lft.to/lastmile_qr_scan"}, "bike_id": "709b81c6959bbd618748db597c8a156d", "lat": 39.0, "name": "709b81c6959bbd618748db597c8a156d", "lon": -76.918047, "fusion_lon": 0.0}, {"is_reserved": 0, "type": "electric_bike", "fusion_lat": 0.0, "is_disabled": 0, "rental_uris": {"ios": "https://dc.lft.to/lastmile_qr_scan", "android": "https://dc.lft.to/lastmile_qr_scan"}, "bike_id": "1fd9e3f4763a80be235e27b1ebf32ef6", "lat": 38.80741583333333, "name": "1fd9e3f4763a80be235e27b1ebf32ef6", "lon": -77.09688083333333, "fusion_lon": 0.0}, {"is_reserved": 0, "type": "electric_scooter", "fusion_lat": 0.0, "is_disabled": 0, "rental_uris": {"ios": "https://dc.lft.to/lastmile_qr_scan", "android": "https://dc.lft.to/lastmile_qr_scan"}, "bike_id": "dac9b6038bb2fc498cfd11d71e3a7030", "lat": 38.90599733333333, "name": "dac9b6038bb2fc498cfd11d71e3a7030", "lon": -77.05841533333333, "fusion_lon": 0.0}, {"is_reserved": 0, "type": "electric_bike", "fusion_lat": 0.0, "is_disabled": 0, "rental_uris": {"ios": "https://dc.lft.to/lastmile_qr_scan", "android": "https://dc.lft.to/lastmile_qr_scan"}, "bike_id": "9cb5975f9d49746154b23ccd855c7bd4", "lat": 38.95090783333333, "name": "9cb5975f9d49746154b23ccd855c7bd4", "lon": -77.012251, "fusion_lon": 0.0}, {"is_reserved": 0, "type": "electric_scooter", "fusion_lat": 0.0, "is_disabled": 0, "rental_uris": {"ios": "https://dc.lft.to/lastmile_qr_scan", "android": "https://dc.lft.to/lastmile_qr_scan"}, "bike_id": "43e44d7de4f4d31c90f17e892feb3f65", "lat": 38.91440433333333, "name": "43e44d7de4f4d31c90f17e892feb3f65", "lon": -77.00348566666666, "fusion_lon": 0.0}, {"is_reserved": 0, "type": "electric_scooter", "fusion_lat": 0.0, "is_disabled": 0, "rental_uris": {"ios": "https://dc.lft.to/lastmile_qr_scan", "android": "https://dc.lft.to/lastmile_qr_scan"}, "bike_id": "7f0ae78a099eb18fa9a9b14f82cd996a", "lat": 38.94115716666667, "name": "7f0ae78a099eb18fa9a9b14f82cd996a", "lon": -77.02541933333333, "fusion_lon": 0.0}, {"is_reserved": 0, "type": "electric_scooter", "fusion_lat": 0.0, "is_disabled": 0, "rental_uris": {"ios": "https://dc.lft.to/lastmile_qr_scan", "android": "https://dc.lft.to/lastmile_qr_scan"}, "bike_id": "2002a777085e611bf3ec2191de25380a", "lat": 38.9242585, "name": "2002a777085e611bf3ec2191de25380a", "lon": -77.02005716666666, "fusion_lon": 0.0}, {"is_reserved": 0, "type": "electric_scooter", "fusion_lat": 0.0, "is_disabled": 0, "rental_uris": {"ios": "https://dc.lft.to/lastmile_qr_scan", "android": "https://dc.lft.to/lastmile_qr_scan"}, "bike_id": "544180b77440226ab69a25744ca6e731", "lat": 38.92466566666667, "name": "544180b77440226ab69a25744ca6e731", "lon": -77.02269683333333, "fusion_lon": 0.0}, {"is_reserved": 0, "type": "electric_scooter", "fusion_lat": 0.0, "is_disabled": 0, "rental_uris": {"ios": "https://dc.lft.to/lastmile_qr_scan", "android": "https://dc.lft.to/lastmile_qr_scan"}, "bike_id": "1973d9ff46459f10989c97521cb7fee1", "lat": 38.8925395, "name": "1973d9ff46459f10989c97521cb7fee1", "lon": -77.02609983333333, "fusion_lon": 0.0}, {"is_reserved": 0, "type": "electric_scooter", "fusion_lat": 0.0, "is_disabled": 0, "rental_uris": {"ios": "https://dc.lft.to/lastmile_qr_scan", "android": "https://dc.lft.to/lastmile_qr_scan"}, "bike_id": "a0c0147adda5695c5a8da1a0fa446c6b", "lat": 38.90718716666667, "name": "a0c0147adda5695c5a8da1a0fa446c6b", "lon": -77.0250655, "fusion_lon": 0.0}, {"is_reserved": 0, "type": "electric_scooter", "fusion_lat": 0.0, "is_disabled": 0, "rental_uris": {"ios": "https://dc.lft.to/lastmile_qr_scan", "android": "https://dc.lft.to/lastmile_qr_scan"}, "bike_id": "218d94d29072e9b951af6acb27ebc595", "lat": 38.9135175, "name": "218d94d29072e9b951af6acb27ebc595", "lon": -76.97139983333334, "fusion_lon": 0.0}, {"is_reserved": 0, "type": "electric_scooter", "fusion_lat": 0.0, "is_disabled": 0, "rental_uris": {"ios": "https://dc.lft.to/lastmile_qr_scan", "android": "https://dc.lft.to/lastmile_qr_scan"}, "bike_id": "92e3003bff6588a6748e01479a56faac", "lat": 38.90974933333333, "name": "92e3003bff6588a6748e01479a56faac", "lon": -77.04873683333334, "fusion_lon": 0.0}, {"is_reserved": 0, "type": "electric_scooter", "fusion_lat": 0.0, "is_disabled": 0, "rental_uris": {"ios": "https://dc.lft.to/lastmile_qr_scan", "android": "https://dc.lft.to/lastmile_qr_scan"}, "bike_id": "ce564f33531eeb6a6a9d1c237e84c9cc", "lat": 38.90004183333333, "name": "ce564f33531eeb6a6a9d1c237e84c9cc", "lon": -77.006608, "fusion_lon": 0.0}, {"is_reserved": 0, "type": "electric_scooter", "fusion_lat": 0.0, "is_disabled": 0, "rental_uris": {"ios": "https://dc.lft.to/lastmile_qr_scan", "android": "https://dc.lft.to/lastmile_qr_scan"}, "bike_id": "cb07ac50e589bdb7509c85516a85ecd8", "lat": 38.93401333333333, "name": "cb07ac50e589bdb7509c85516a85ecd8", "lon": -77.04553933333334, "fusion_lon": 0.0}, {"is_reserved": 0, "type": "electric_scooter", "fusion_lat": 0.0, "is_disabled": 0, "rental_uris": {"ios": "https://dc.lft.to/lastmile_qr_scan", "android": "https://dc.lft.to/lastmile_qr_scan"}, "bike_id": "41e28e33a1898e5f50ea788a6caaa8fb", "lat": 38.9026555, "name": "41e28e33a1898e5f50ea788a6caaa8fb", "lon": -77.03984433333333, "fusion_lon": 0.0}, {"is_reserved": 0, "type": "electric_bike", "fusion_lat": 0.0, "is_disabled": 0, "rental_uris": {"ios": "https://dc.lft.to/lastmile_qr_scan", "android": "https://dc.lft.to/lastmile_qr_scan"}, "bike_id": "5294edf5bec55f3ac3d986f2f95cd3b6", "lat": 38.910306, "name": "5294edf5bec55f3ac3d986f2f95cd3b6", "lon": -76.92335816666667, "fusion_lon": 0.0}, {"is_reserved": 0, "type": "electric_scooter", "fusion_lat": 0.0, "is_disabled": 0, "rental_uris": {"ios": "https://dc.lft.to/lastmile_qr_scan", "android": "https://dc.lft.to/lastmile_qr_scan"}, "bike_id": "1802f2476e3a8455e6e65c9aff39fb69", "lat": 38.92386, "name": "1802f2476e3a8455e6e65c9aff39fb69", "lon": -77.03655616666667, "fusion_lon": 0.0}, {"is_reserved": 0, "type": "electric_scooter", "fusion_lat": 0.0, "is_disabled": 0, "rental_uris": {"ios": "https://dc.lft.to/lastmile_qr_scan", "android": "https://dc.lft.to/lastmile_qr_scan"}, "bike_id": "4992b54aca805b468241b7881a15d1ca", "lat": 38.88463683333333, "name": "4992b54aca805b468241b7881a15d1ca", "lon": -77.02897366666667, "fusion_lon": 0.0}, {"is_reserved": 0, "type": "electric_scooter", "fusion_lat": 0.0, "is_disabled": 0, "rental_uris": {"ios": "https://dc.lft.to/lastmile_qr_scan", "android": "https://dc.lft.to/lastmile_qr_scan"}, "bike_id": "5b75d7d2dbe97d6e22624f591fd21aa2", "lat": 38.930114333333336, "name": "5b75d7d2dbe97d6e22624f591fd21aa2", "lon": -77.03777483333333, "fusion_lon": 0.0}, {"is_reserved": 0, "type": "electric_scooter", "fusion_lat": 0.0, "is_disabled": 0, "rental_uris": {"ios": "https://dc.lft.to/lastmile_qr_scan", "android": "https://dc.lft.to/lastmile_qr_scan"}, "bike_id": "ae6de96ada12c0af9a859eec434ec3d4", "lat": 38.92156466666667, "name": "ae6de96ada12c0af9a859eec434ec3d4", "lon": -77.04356866666667, "fusion_lon": 0.0}, {"is_reserved": 0, "type": "electric_scooter", "fusion_lat": 0.0, "is_disabled": 0, "rental_uris": {"ios": "https://dc.lft.to/lastmile_qr_scan", "android": "https://dc.lft.to/lastmile_qr_scan"}, "bike_id": "901a24d26eab185a5b43a61fb2b3b07a", "lat": 38.91880616666667, "name": "901a24d26eab185a5b43a61fb2b3b07a", "lon": -77.0373155, "fusion_lon": 0.0}, {"is_reserved": 0, "type": "electric_scooter", "fusion_lat": 0.0, "is_disabled": 0, "rental_uris": {"ios": "https://dc.lft.to/lastmile_qr_scan", "android": "https://dc.lft.to/lastmile_qr_scan"}, "bike_id": "5320b401b599dad1b7bdad8cadc4fa50", "lat": 38.89529483333333, "name": "5320b401b599dad1b7bdad8cadc4fa50", "lon": -76.977232, "fusion_lon": 0.0}, {"is_reserved": 0, "type": "electric_scooter", "fusion_lat": 0.0, "is_disabled": 0, "rental_uris": {"ios": "https://dc.lft.to/lastmile_qr_scan", "android": "https://dc.lft.to/lastmile_qr_scan"}, "bike_id": "e25da3a81579bba58764bc59969cab48", "lat": 38.923452833333336, "name": "e25da3a81579bba58764bc59969cab48", "lon": -77.03531716666667, "fusion_lon": 0.0}, {"is_reserved": 0, "type": "electric_scooter", "fusion_lat": 0.0, "is_disabled": 0, "rental_uris": {"ios": "https://dc.lft.to/lastmile_qr_scan", "android": "https://dc.lft.to/lastmile_qr_scan"}, "bike_id": "1067ca92abefd22f30357c62d03a316b", "lat": 38.8811285, "name": "1067ca92abefd22f30357c62d03a316b", "lon": -77.02629716666667, "fusion_lon": 0.0}, {"is_reserved": 0, "type": "electric_scooter", "fusion_lat": 0.0, "is_disabled": 0, "rental_uris": {"ios": "https://dc.lft.to/lastmile_qr_scan", "android": "https://dc.lft.to/lastmile_qr_scan"}, "bike_id": "7e83217505c49710eead64b0e7bbe20c", "lat": 38.899780166666666, "name": "7e83217505c49710eead64b0e7bbe20c", "lon": -77.0419745, "fusion_lon": 0.0}, {"is_reserved": 0, "type": "electric_scooter", "fusion_lat": 0.0, "is_disabled": 0, "rental_uris": {"ios": "https://dc.lft.to/lastmile_qr_scan", "android": "https://dc.lft.to/lastmile_qr_scan"}, "bike_id": "11c25d514e1ee13302f897b192f50e15", "lat": 38.90395683333333, "name": "11c25d514e1ee13302f897b192f50e15", "lon": -77.05154583333334, "fusion_lon": 0.0}, {"is_reserved": 0, "type": "electric_scooter", "fusion_lat": 0.0, "is_disabled": 0, "rental_uris": {"ios": "https://dc.lft.to/lastmile_qr_scan", "android": "https://dc.lft.to/lastmile_qr_scan"}, "bike_id": "e64a2acad91aa6b51981aa2530747c91", "lat": 38.910495, "name": "e64a2acad91aa6b51981aa2530747c91", "lon": -76.9979965, "fusion_lon": 0.0}, {"is_reserved": 0, "type": "electric_scooter", "fusion_lat": 0.0, "is_disabled": 0, "rental_uris": {"ios": "https://dc.lft.to/lastmile_qr_scan", "android": "https://dc.lft.to/lastmile_qr_scan"}, "bike_id": "bc2a148c942ae3c756d05abae3071b15", "lat": 38.91825883333333, "name": "bc2a148c942ae3c756d05abae3071b15", "lon": -77.0453225, "fusion_lon": 0.0}, {"is_reserved": 0, "type": "electric_scooter", "fusion_lat": 0.0, "is_disabled": 0, "rental_uris": {"ios": "https://dc.lft.to/lastmile_qr_scan", "android": "https://dc.lft.to/lastmile_qr_scan"}, "bike_id": "205df8bffa8a42d790dc9a0d8266e619", "lat": 38.91110116666667, "name": "205df8bffa8a42d790dc9a0d8266e619", "lon": -77.010976, "fusion_lon": 0.0}, {"is_reserved": 0, "type": "electric_scooter", "fusion_lat": 0.0, "is_disabled": 0, "rental_uris": {"ios": "https://dc.lft.to/lastmile_qr_scan", "android": "https://dc.lft.to/lastmile_qr_scan"}, "bike_id": "48f17f9837c88eef77f09ec3ad353592", "lat": 38.902566666666665, "name": "48f17f9837c88eef77f09ec3ad353592", "lon": -77.02659216666666, "fusion_lon": 0.0}, {"is_reserved": 0, "type": "electric_scooter", "fusion_lat": 0.0, "is_disabled": 0, "rental_uris": {"ios": "https://dc.lft.to/lastmile_qr_scan", "android": "https://dc.lft.to/lastmile_qr_scan"}, "bike_id": "d2b5d5095308ff825a301112c3ade32d", "lat": 38.92332716666667, "name": "d2b5d5095308ff825a301112c3ade32d", "lon": -77.00891966666667, "fusion_lon": 0.0}, {"is_reserved": 0, "type": "electric_scooter", "fusion_lat": 0.0, "is_disabled": 0, "rental_uris": {"ios": "https://dc.lft.to/lastmile_qr_scan", "android": "https://dc.lft.to/lastmile_qr_scan"}, "bike_id": "9f0154b094f7d7c120d3ec920d501d81", "lat": 38.918309666666666, "name": "9f0154b094f7d7c120d3ec920d501d81", "lon": -77.02714133333333, "fusion_lon": 0.0}, {"is_reserved": 0, "type": "electric_scooter", "fusion_lat": 0.0, "is_disabled": 0, "rental_uris": {"ios": "https://dc.lft.to/lastmile_qr_scan", "android": "https://dc.lft.to/lastmile_qr_scan"}, "bike_id": "5922b23e863362a9f84bf506d9aa5fe2", "lat": 38.908997166666666, "name": "5922b23e863362a9f84bf506d9aa5fe2", "lon": -77.00308683333333, "fusion_lon": 0.0}, {"is_reserved": 0, "type": "electric_bike", "fusion_lat": 0.0, "is_disabled": 0, "rental_uris": {"ios": "https://dc.lft.to/lastmile_qr_scan", "android": "https://dc.lft.to/lastmile_qr_scan"}, "bike_id": "48b417ad70adb631262662b96580e277", "lat": 38.92298483333333, "name": "48b417ad70adb631262662b96580e277", "lon": -76.99775733333334, "fusion_lon": 0.0}, {"is_reserved": 0, "type": "electric_scooter", "fusion_lat": 0.0, "is_disabled": 0, "rental_uris": {"ios": "https://dc.lft.to/lastmile_qr_scan", "android": "https://dc.lft.to/lastmile_qr_scan"}, "bike_id": "8c4b26622dc7d3c594e440622cdb5d49", "lat": 38.902731333333335, "name": "8c4b26622dc7d3c594e440622cdb5d49", "lon": -77.06172583333333, "fusion_lon": 0.0}, {"is_reserved": 0, "type": "electric_scooter", "fusion_lat": 0.0, "is_disabled": 0, "rental_uris": {"ios": "https://dc.lft.to/lastmile_qr_scan", "android": "https://dc.lft.to/lastmile_qr_scan"}, "bike_id": "18544299b097c577d7c98446a9e4bd4c", "lat": 38.920314833333336, "name": "18544299b097c577d7c98446a9e4bd4c", "lon": -77.04087466666667, "fusion_lon": 0.0}, {"is_reserved": 0, "type": "electric_scooter", "fusion_lat": 0.0, "is_disabled": 0, "rental_uris": {"ios": "https://dc.lft.to/lastmile_qr_scan", "android": "https://dc.lft.to/lastmile_qr_scan"}, "bike_id": "fad9cd1b81d664d9f93d32ad3215ae85", "lat": 38.915194, "name": "fad9cd1b81d664d9f93d32ad3215ae85", "lon": -77.07280083333333, "fusion_lon": 0.0}, {"is_reserved": 0, "type": "electric_scooter", "fusion_lat": 0.0, "is_disabled": 0, "rental_uris": {"ios": "https://dc.lft.to/lastmile_qr_scan", "android": "https://dc.lft.to/lastmile_qr_scan"}, "bike_id": "c259a0093d0a6f5bbabb3f8aa2b8a925", "lat": 38.923594666666666, "name": "c259a0093d0a6f5bbabb3f8aa2b8a925", "lon": -77.04318366666666, "fusion_lon": 0.0}, {"is_reserved": 0, "type": "electric_scooter", "fusion_lat": 0.0, "is_disabled": 0, "rental_uris": {"ios": "https://dc.lft.to/lastmile_qr_scan", "android": "https://dc.lft.to/lastmile_qr_scan"}, "bike_id": "2d26fe481127dfa1b938efb480135caa", "lat": 38.92097966666667, "name": "2d26fe481127dfa1b938efb480135caa", "lon": -77.03704316666666, "fusion_lon": 0.0}, {"is_reserved": 0, "type": "electric_bike", "fusion_lat": 0.0, "is_disabled": 0, "rental_uris": {"ios": "https://dc.lft.to/lastmile_qr_scan", "android": "https://dc.lft.to/lastmile_qr_scan"}, "bike_id": "d0bb230d70dc2372ad9a71bc5fba7f0e", "lat": 38.888716, "name": "d0bb230d70dc2372ad9a71bc5fba7f0e", "lon": -76.95699483333334, "fusion_lon": 0.0}, {"is_reserved": 0, "type": "electric_scooter", "fusion_lat": 0.0, "is_disabled": 0, "rental_uris": {"ios": "https://dc.lft.to/lastmile_qr_scan", "android": "https://dc.lft.to/lastmile_qr_scan"}, "bike_id": "ef5fb157dcd5ac0fec3c79a7c63c0e50", "lat": 38.907658166666664, "name": "ef5fb157dcd5ac0fec3c79a7c63c0e50", "lon": -77.01896833333333, "fusion_lon": 0.0}, {"is_reserved": 0, "type": "electric_bike", "fusion_lat": 0.0, "is_disabled": 0, "rental_uris": {"ios": "https://dc.lft.to/lastmile_qr_scan", "android": "https://dc.lft.to/lastmile_qr_scan"}, "bike_id": "72f482090f86fd16b8f5a22a3d99e2fc", "lat": 38.879547, "name": "72f482090f86fd16b8f5a22a3d99e2fc", "lon": -76.9319125, "fusion_lon": 0.0}, {"is_reserved": 0, "type": "electric_scooter", "fusion_lat": 0.0, "is_disabled": 0, "rental_uris": {"ios": "https://dc.lft.to/lastmile_qr_scan", "android": "https://dc.lft.to/lastmile_qr_scan"}, "bike_id": "3b6befe8078e11d4c9c4b93367960ad6", "lat": 38.90783783333333, "name": "3b6befe8078e11d4c9c4b93367960ad6", "lon": -77.04345933333333, "fusion_lon": 0.0}, {"is_reserved": 0, "type": "electric_scooter", "fusion_lat": 0.0, "is_disabled": 0, "rental_uris": {"ios": "https://dc.lft.to/lastmile_qr_scan", "android": "https://dc.lft.to/lastmile_qr_scan"}, "bike_id": "789bb23fd8fba32b0ced608c726ea9a4", "lat": 38.903987, "name": "789bb23fd8fba32b0ced608c726ea9a4", "lon": -77.01797333333333, "fusion_lon": 0.0}, {"is_reserved": 0, "type": "electric_scooter", "fusion_lat": 0.0, "is_disabled": 0, "rental_uris": {"ios": "https://dc.lft.to/lastmile_qr_scan", "android": "https://dc.lft.to/lastmile_qr_scan"}, "bike_id": "2f1832e2c497cbb08e3e881a0d7245f1", "lat": 38.9250225, "name": "2f1832e2c497cbb08e3e881a0d7245f1", "lon": -77.05112533333333, "fusion_lon": 0.0}, {"is_reserved": 0, "type": "electric_bike", "fusion_lat": 0.0, "is_disabled": 0, "rental_uris": {"ios": "https://dc.lft.to/lastmile_qr_scan", "android": "https://dc.lft.to/lastmile_qr_scan"}, "bike_id": "0ea83728fbe82e89d4a4032d29efd098", "lat": 38.9728745, "name": "0ea83728fbe82e89d4a4032d29efd098", "lon": -77.036266, "fusion_lon": 0.0}, {"is_reserved": 0, "type": "electric_scooter", "fusion_lat": 0.0, "is_disabled": 0, "rental_uris": {"ios": "https://dc.lft.to/lastmile_qr_scan", "android": "https://dc.lft.to/lastmile_qr_scan"}, "bike_id": "18360bf1aee73e1081c953c3dd949355", "lat": 38.902783666666664, "name": "18360bf1aee73e1081c953c3dd949355", "lon": -77.0453725, "fusion_lon": 0.0}, {"is_reserved": 0, "type": "electric_bike", "fusion_lat": 0.0, "is_disabled": 0, "rental_uris": {"ios": "https://dc.lft.to/lastmile_qr_scan", "android": "https://dc.lft.to/lastmile_qr_scan"}, "bike_id": "20efa602b50b41949a31642b5c178c00", "lat": 38.8429365, "name": "20efa602b50b41949a31642b5c178c00", "lon": -77.06382466666666, "fusion_lon": 0.0}, {"is_reserved": 0, "type": "electric_scooter", "fusion_lat": 0.0, "is_disabled": 0, "rental_uris": {"ios": "https://dc.lft.to/lastmile_qr_scan", "android": "https://dc.lft.to/lastmile_qr_scan"}, "bike_id": "e9e77d6d692941a506a4264a0cafdc25", "lat": 38.87830833333334, "name": "e9e77d6d692941a506a4264a0cafdc25", "lon": -77.0087445, "fusion_lon": 0.0}, {"is_reserved": 0, "type": "electric_scooter", "fusion_lat": 0.0, "is_disabled": 0, "rental_uris": {"ios": "https://dc.lft.to/lastmile_qr_scan", "android": "https://dc.lft.to/lastmile_qr_scan"}, "bike_id": "63caca7d351890fef88abd6505a58d1a", "lat": 38.89468133333333, "name": "63caca7d351890fef88abd6505a58d1a", "lon": -77.02741333333333, "fusion_lon": 0.0}, {"is_reserved": 0, "type": "electric_bike", "fusion_lat": 0.0, "is_disabled": 0, "rental_uris": {"ios": "https://dc.lft.to/lastmile_qr_scan", "android": "https://dc.lft.to/lastmile_qr_scan"}, "bike_id": "0982c1dca44b3662185275f3e508b447", "lat": 38.95246483333333, "name": "0982c1dca44b3662185275f3e508b447", "lon": -77.09624416666666, "fusion_lon": 0.0}, {"is_reserved": 0, "type": "electric_scooter", "fusion_lat": 0.0, "is_disabled": 0, "rental_uris": {"ios": "https://dc.lft.to/lastmile_qr_scan", "android": "https://dc.lft.to/lastmile_qr_scan"}, "bike_id": "c803919ad69d77908812544a9f75eaf0", "lat": 38.92093916666666, "name": "c803919ad69d77908812544a9f75eaf0", "lon": -77.02511283333334, "fusion_lon": 0.0}, {"is_reserved": 0, "type": "electric_scooter", "fusion_lat": 0.0, "is_disabled": 0, "rental_uris": {"ios": "https://dc.lft.to/lastmile_qr_scan", "android": "https://dc.lft.to/lastmile_qr_scan"}, "bike_id": "3b43b6786be0b12bc1c18fbe61674023", "lat": 38.9233375, "name": "3b43b6786be0b12bc1c18fbe61674023", "lon": -77.03782283333334, "fusion_lon": 0.0}, {"is_reserved": 0, "type": "electric_scooter", "fusion_lat": 0.0, "is_disabled": 0, "rental_uris": {"ios": "https://dc.lft.to/lastmile_qr_scan", "android": "https://dc.lft.to/lastmile_qr_scan"}, "bike_id": "9e6a3e53ef037dbc2712fe1a5bd35c89", "lat": 38.90683083333333, "name": "9e6a3e53ef037dbc2712fe1a5bd35c89", "lon": -77.027221, "fusion_lon": 0.0}, {"is_reserved": 0, "type": "electric_bike", "fusion_lat": 0.0, "is_disabled": 0, "rental_uris": {"ios": "https://dc.lft.to/lastmile_qr_scan", "android": "https://dc.lft.to/lastmile_qr_scan"}, "bike_id": "1345e8d5b6c064287ba4dbc1a4e41b12", "lat": 38.929654, "name": "1345e8d5b6c064287ba4dbc1a4e41b12", "lon": -77.020197, "fusion_lon": 0.0}, {"is_reserved": 0, "type": "electric_scooter", "fusion_lat": 0.0, "is_disabled": 0, "rental_uris": {"ios": "https://dc.lft.to/lastmile_qr_scan", "android": "https://dc.lft.to/lastmile_qr_scan"}, "bike_id": "1f9b4a21fe3089bc7db8d3ec67ba36e3", "lat": 38.92078933333333, "name": "1f9b4a21fe3089bc7db8d3ec67ba36e3", "lon": -76.99485283333334, "fusion_lon": 0.0}, {"is_reserved": 0, "type": "electric_scooter", "fusion_lat": 0.0, "is_disabled": 0, "rental_uris": {"ios": "https://dc.lft.to/lastmile_qr_scan", "android": "https://dc.lft.to/lastmile_qr_scan"}, "bike_id": "a2d4e335fb9d436382f91e4ba271d4d8", "lat": 38.918244, "name": "a2d4e335fb9d436382f91e4ba271d4d8", "lon": -77.02716416666667, "fusion_lon": 0.0}, {"is_reserved": 0, "type": "electric_scooter", "fusion_lat": 0.0, "is_disabled": 0, "rental_uris": {"ios": "https://dc.lft.to/lastmile_qr_scan", "android": "https://dc.lft.to/lastmile_qr_scan"}, "bike_id": "72e84a9ed949fa142dd4cfa2ccf7be85", "lat": 38.93435916666667, "name": "72e84a9ed949fa142dd4cfa2ccf7be85", "lon": -77.03276683333333, "fusion_lon": 0.0}, {"is_reserved": 0, "type": "electric_scooter", "fusion_lat": 0.0, "is_disabled": 0, "rental_uris": {"ios": "https://dc.lft.to/lastmile_qr_scan", "android": "https://dc.lft.to/lastmile_qr_scan"}, "bike_id": "d656fa3c5b6224bdb76e9cd3807b1940", "lat": 38.8801085, "name": "d656fa3c5b6224bdb76e9cd3807b1940", "lon": -76.99746016666667, "fusion_lon": 0.0}, {"is_reserved": 0, "type": "electric_scooter", "fusion_lat": 0.0, "is_disabled": 0, "rental_uris": {"ios": "https://dc.lft.to/lastmile_qr_scan", "android": "https://dc.lft.to/lastmile_qr_scan"}, "bike_id": "5b74e4d5d60c7fcf3aa8e1edf2ae7dd8", "lat": 38.89883733333333, "name": "5b74e4d5d60c7fcf3aa8e1edf2ae7dd8", "lon": -76.93178166666667, "fusion_lon": 0.0}, {"is_reserved": 0, "type": "electric_scooter", "fusion_lat": 0.0, "is_disabled": 0, "rental_uris": {"ios": "https://dc.lft.to/lastmile_qr_scan", "android": "https://dc.lft.to/lastmile_qr_scan"}, "bike_id": "cebc38a696b95c42053fa3a1ab9d518e", "lat": 38.9133275, "name": "cebc38a696b95c42053fa3a1ab9d518e", "lon": -77.0303925, "fusion_lon": 0.0}, {"is_reserved": 0, "type": "electric_scooter", "fusion_lat": 0.0, "is_disabled": 0, "rental_uris": {"ios": "https://dc.lft.to/lastmile_qr_scan", "android": "https://dc.lft.to/lastmile_qr_scan"}, "bike_id": "4f4586efc7863097e4093589ffa78381", "lat": 38.905603166666666, "name": "4f4586efc7863097e4093589ffa78381", "lon": -77.04457383333333, "fusion_lon": 0.0}, {"is_reserved": 0, "type": "electric_bike", "fusion_lat": 0.0, "is_disabled": 0, "rental_uris": {"ios": "https://dc.lft.to/lastmile_qr_scan", "android": "https://dc.lft.to/lastmile_qr_scan"}, "bike_id": "d346b72fe760d99f1968d48d6bf6cf0e", "lat": 38.96887566666667, "name": "d346b72fe760d99f1968d48d6bf6cf0e", "lon": -76.95564466666667, "fusion_lon": 0.0}, {"is_reserved": 0, "type": "electric_bike", "fusion_lat": 0.0, "is_disabled": 0, "rental_uris": {"ios": "https://dc.lft.to/lastmile_qr_scan", "android": "https://dc.lft.to/lastmile_qr_scan"}, "bike_id": "e91959ee11a2f090345b31fde3a71e8e", "lat": 38.89722783333333, "name": "e91959ee11a2f090345b31fde3a71e8e", "lon": -76.97238566666667, "fusion_lon": 0.0}, {"is_reserved": 0, "type": "electric_scooter", "fusion_lat": 0.0, "is_disabled": 0, "rental_uris": {"ios": "https://dc.lft.to/lastmile_qr_scan", "android": "https://dc.lft.to/lastmile_qr_scan"}, "bike_id": "f1260c8a94527d09d08fbfae2c3fe06d", "lat": 38.97239066666667, "name": "f1260c8a94527d09d08fbfae2c3fe06d", "lon": -77.027143, "fusion_lon": 0.0}, {"is_reserved": 0, "type": "electric_scooter", "fusion_lat": 0.0, "is_disabled": 0, "rental_uris": {"ios": "https://dc.lft.to/lastmile_qr_scan", "android": "https://dc.lft.to/lastmile_qr_scan"}, "bike_id": "484b6b596a944ebe3c8a9da11c3e58a7", "lat": 38.89774466666667, "name": "484b6b596a944ebe3c8a9da11c3e58a7", "lon": -77.05013516666666, "fusion_lon": 0.0}, {"is_reserved": 0, "type": "electric_scooter", "fusion_lat": 0.0, "is_disabled": 0, "rental_uris": {"ios": "https://dc.lft.to/lastmile_qr_scan", "android": "https://dc.lft.to/lastmile_qr_scan"}, "bike_id": "2dad9954f75d237786fdc5382cc5ca7b", "lat": 38.915623, "name": "2dad9954f75d237786fdc5382cc5ca7b", "lon": -77.03668916666666, "fusion_lon": 0.0}, {"is_reserved": 0, "type": "electric_scooter", "fusion_lat": 0.0, "is_disabled": 0, "rental_uris": {"ios": "https://dc.lft.to/lastmile_qr_scan", "android": "https://dc.lft.to/lastmile_qr_scan"}, "bike_id": "c2adadc64cddbcaa11b89938f5a4f0d9", "lat": 38.948636666666665, "name": "c2adadc64cddbcaa11b89938f5a4f0d9", "lon": -77.07883666666666, "fusion_lon": 0.0}, {"is_reserved": 0, "type": "electric_scooter", "fusion_lat": 0.0, "is_disabled": 0, "rental_uris": {"ios": "https://dc.lft.to/lastmile_qr_scan", "android": "https://dc.lft.to/lastmile_qr_scan"}, "bike_id": "2cd20adbacabd4d1b153acfecca6ee19", "lat": 38.916547333333334, "name": "2cd20adbacabd4d1b153acfecca6ee19", "lon": -77.04171966666667, "fusion_lon": 0.0}, {"is_reserved": 0, "type": "electric_scooter", "fusion_lat": 0.0, "is_disabled": 0, "rental_uris": {"ios": "https://dc.lft.to/lastmile_qr_scan", "android": "https://dc.lft.to/lastmile_qr_scan"}, "bike_id": "b22a996c0c95d3369d8e0c5c83ca49e2", "lat": 38.92290033333333, "name": "b22a996c0c95d3369d8e0c5c83ca49e2", "lon": -76.99770166666667, "fusion_lon": 0.0}, {"is_reserved": 0, "type": "electric_scooter", "fusion_lat": 0.0, "is_disabled": 0, "rental_uris": {"ios": "https://dc.lft.to/lastmile_qr_scan", "android": "https://dc.lft.to/lastmile_qr_scan"}, "bike_id": "c076b82fd3e767379cd4ec89fb4edad7", "lat": 38.8969905, "name": "c076b82fd3e767379cd4ec89fb4edad7", "lon": -77.0432865, "fusion_lon": 0.0}, {"is_reserved": 0, "type": "electric_bike", "fusion_lat": 0.0, "is_disabled": 0, "rental_uris": {"ios": "https://dc.lft.to/lastmile_qr_scan", "android": "https://dc.lft.to/lastmile_qr_scan"}, "bike_id": "9e4b1e933de010276b07895afc4543ab", "lat": 38.9828115, "name": "9e4b1e933de010276b07895afc4543ab", "lon": -76.97641616666667, "fusion_lon": 0.0}, {"is_reserved": 0, "type": "electric_scooter", "fusion_lat": 0.0, "is_disabled": 0, "rental_uris": {"ios": "https://dc.lft.to/lastmile_qr_scan", "android": "https://dc.lft.to/lastmile_qr_scan"}, "bike_id": "b33b4214b18f7ad563acc41340b087a8", "lat": 38.902672833333334, "name": "b33b4214b18f7ad563acc41340b087a8", "lon": -77.0201905, "fusion_lon": 0.0}, {"is_reserved": 0, "type": "electric_scooter", "fusion_lat": 0.0, "is_disabled": 0, "rental_uris": {"ios": "https://dc.lft.to/lastmile_qr_scan", "android": "https://dc.lft.to/lastmile_qr_scan"}, "bike_id": "c22644021cfe6f130386466d10e6dd54", "lat": 38.91938966666667, "name": "c22644021cfe6f130386466d10e6dd54", "lon": -77.032024, "fusion_lon": 0.0}, {"is_reserved": 0, "type": "electric_scooter", "fusion_lat": 0.0, "is_disabled": 0, "rental_uris": {"ios": "https://dc.lft.to/lastmile_qr_scan", "android": "https://dc.lft.to/lastmile_qr_scan"}, "bike_id": "211c188f8834a9ed2606bd6c111b954a", "lat": 38.904757333333336, "name": "211c188f8834a9ed2606bd6c111b954a", "lon": -77.03557066666667, "fusion_lon": 0.0}, {"is_reserved": 0, "type": "electric_scooter", "fusion_lat": 0.0, "is_disabled": 0, "rental_uris": {"ios": "https://dc.lft.to/lastmile_qr_scan", "android": "https://dc.lft.to/lastmile_qr_scan"}, "bike_id": "915c6e2f281fc9f1f7137be803f015d0", "lat": 38.93609216666667, "name": "915c6e2f281fc9f1f7137be803f015d0", "lon": -77.05597633333333, "fusion_lon": 0.0}, {"is_reserved": 0, "type": "electric_scooter", "fusion_lat": 0.0, "is_disabled": 0, "rental_uris": {"ios": "https://dc.lft.to/lastmile_qr_scan", "android": "https://dc.lft.to/lastmile_qr_scan"}, "bike_id": "6e5413e41c077d9514a5da4cdbaecb0e", "lat": 38.918248166666665, "name": "6e5413e41c077d9514a5da4cdbaecb0e", "lon": -77.02716433333333, "fusion_lon": 0.0}, {"is_reserved": 0, "type": "electric_scooter", "fusion_lat": 0.0, "is_disabled": 0, "rental_uris": {"ios": "https://dc.lft.to/lastmile_qr_scan", "android": "https://dc.lft.to/lastmile_qr_scan"}, "bike_id": "b0ed0818ea251a2fcd34281bedf78f72", "lat": 38.921522333333336, "name": "b0ed0818ea251a2fcd34281bedf78f72", "lon": -77.03508166666667, "fusion_lon": 0.0}, {"is_reserved": 0, "type": "electric_scooter", "fusion_lat": 0.0, "is_disabled": 0, "rental_uris": {"ios": "https://dc.lft.to/lastmile_qr_scan", "android": "https://dc.lft.to/lastmile_qr_scan"}, "bike_id": "fca658686acec3361923c05d8de9bb52", "lat": 38.9235065, "name": "fca658686acec3361923c05d8de9bb52", "lon": -77.073128, "fusion_lon": 0.0}, {"is_reserved": 0, "type": "electric_scooter", "fusion_lat": 0.0, "is_disabled": 0, "rental_uris": {"ios": "https://dc.lft.to/lastmile_qr_scan", "android": "https://dc.lft.to/lastmile_qr_scan"}, "bike_id": "f2a58b86ef6ec1f2e8f359a8a0b9eb68", "lat": 38.89732266666667, "name": "f2a58b86ef6ec1f2e8f359a8a0b9eb68", "lon": -77.02814416666666, "fusion_lon": 0.0}, {"is_reserved": 0, "type": "electric_bike", "fusion_lat": 0.0, "is_disabled": 0, "rental_uris": {"ios": "https://dc.lft.to/lastmile_qr_scan", "android": "https://dc.lft.to/lastmile_qr_scan"}, "bike_id": "b3ca8be98cd4360af4f5dc89545e5345", "lat": 38.877315833333334, "name": "b3ca8be98cd4360af4f5dc89545e5345", "lon": -77.11848883333333, "fusion_lon": 0.0}, {"is_reserved": 0, "type": "electric_scooter", "fusion_lat": 0.0, "is_disabled": 0, "rental_uris": {"ios": "https://dc.lft.to/lastmile_qr_scan", "android": "https://dc.lft.to/lastmile_qr_scan"}, "bike_id": "cca05bbd61730e5544766255b2327797", "lat": 38.901127833333334, "name": "cca05bbd61730e5544766255b2327797", "lon": -77.03447683333333, "fusion_lon": 0.0}, {"is_reserved": 0, "type": "electric_scooter", "fusion_lat": 0.0, "is_disabled": 0, "rental_uris": {"ios": "https://dc.lft.to/lastmile_qr_scan", "android": "https://dc.lft.to/lastmile_qr_scan"}, "bike_id": "457f1a19be4da87d390e831501d45b60", "lat": 38.916022166666664, "name": "457f1a19be4da87d390e831501d45b60", "lon": -77.032049, "fusion_lon": 0.0}, {"is_reserved": 0, "type": "electric_scooter", "fusion_lat": 0.0, "is_disabled": 0, "rental_uris": {"ios": "https://dc.lft.to/lastmile_qr_scan", "android": "https://dc.lft.to/lastmile_qr_scan"}, "bike_id": "6efdb20da8702d7117c9be2aec7f98ff", "lat": 38.9309225, "name": "6efdb20da8702d7117c9be2aec7f98ff", "lon": -77.034541, "fusion_lon": 0.0}, {"is_reserved": 0, "type": "electric_scooter", "fusion_lat": 0.0, "is_disabled": 0, "rental_uris": {"ios": "https://dc.lft.to/lastmile_qr_scan", "android": "https://dc.lft.to/lastmile_qr_scan"}, "bike_id": "ff5cf86269c426f1003583c510b8cab5", "lat": 38.921740666666665, "name": "ff5cf86269c426f1003583c510b8cab5", "lon": -77.04024216666667, "fusion_lon": 0.0}, {"is_reserved": 0, "type": "electric_scooter", "fusion_lat": 0.0, "is_disabled": 0, "rental_uris": {"ios": "https://dc.lft.to/lastmile_qr_scan", "android": "https://dc.lft.to/lastmile_qr_scan"}, "bike_id": "0452e0676fca21787888bf254a5d6fa0", "lat": 38.897725333333334, "name": "0452e0676fca21787888bf254a5d6fa0", "lon": -77.04783383333333, "fusion_lon": 0.0}, {"is_reserved": 0, "type": "electric_scooter", "fusion_lat": 0.0, "is_disabled": 0, "rental_uris": {"ios": "https://dc.lft.to/lastmile_qr_scan", "android": "https://dc.lft.to/lastmile_qr_scan"}, "bike_id": "0d277559d2f8a5a8fa5b9a1040f27c9a", "lat": 38.91254266666667, "name": "0d277559d2f8a5a8fa5b9a1040f27c9a", "lon": -76.98670416666667, "fusion_lon": 0.0}, {"is_reserved": 0, "type": "electric_scooter", "fusion_lat": 0.0, "is_disabled": 0, "rental_uris": {"ios": "https://dc.lft.to/lastmile_qr_scan", "android": "https://dc.lft.to/lastmile_qr_scan"}, "bike_id": "cdbf3457bc7ac7f5761ad1193d20def3", "lat": 38.910720833333336, "name": "cdbf3457bc7ac7f5761ad1193d20def3", "lon": -77.01629666666666, "fusion_lon": 0.0}, {"is_reserved": 0, "type": "electric_scooter", "fusion_lat": 0.0, "is_disabled": 0, "rental_uris": {"ios": "https://dc.lft.to/lastmile_qr_scan", "android": "https://dc.lft.to/lastmile_qr_scan"}, "bike_id": "ed24f39ed6a5d5bca859ff45ce790869", "lat": 38.9217845, "name": "ed24f39ed6a5d5bca859ff45ce790869", "lon": -77.04602616666666, "fusion_lon": 0.0}, {"is_reserved": 0, "type": "electric_bike", "fusion_lat": 0.0, "is_disabled": 0, "rental_uris": {"ios": "https://dc.lft.to/lastmile_qr_scan", "android": "https://dc.lft.to/lastmile_qr_scan"}, "bike_id": "a668c88d21effa6f50078c10fe41d167", "lat": 38.865480166666664, "name": "a668c88d21effa6f50078c10fe41d167", "lon": -76.941532, "fusion_lon": 0.0}, {"is_reserved": 0, "type": "electric_scooter", "fusion_lat": 0.0, "is_disabled": 0, "rental_uris": {"ios": "https://dc.lft.to/lastmile_qr_scan", "android": "https://dc.lft.to/lastmile_qr_scan"}, "bike_id": "036cc47a103fdcae56da14d3642c4508", "lat": 38.93186866666667, "name": "036cc47a103fdcae56da14d3642c4508", "lon": -77.03165683333333, "fusion_lon": 0.0}, {"is_reserved": 0, "type": "electric_scooter", "fusion_lat": 0.0, "is_disabled": 0, "rental_uris": {"ios": "https://dc.lft.to/lastmile_qr_scan", "android": "https://dc.lft.to/lastmile_qr_scan"}, "bike_id": "dcaff687baf9d5828e9a5d20dc2eedf7", "lat": 38.901398666666665, "name": "dcaff687baf9d5828e9a5d20dc2eedf7", "lon": -76.93162366666667, "fusion_lon": 0.0}, {"is_reserved": 0, "type": "electric_bike", "fusion_lat": 0.0, "is_disabled": 0, "rental_uris": {"ios": "https://dc.lft.to/lastmile_qr_scan", "android": "https://dc.lft.to/lastmile_qr_scan"}, "bike_id": "c9762937ec19f2400c6220106c4e97f1", "lat": 38.8133005, "name": "c9762937ec19f2400c6220106c4e97f1", "lon": -77.05080666666667, "fusion_lon": 0.0}, {"is_reserved": 0, "type": "electric_scooter", "fusion_lat": 0.0, "is_disabled": 0, "rental_uris": {"ios": "https://dc.lft.to/lastmile_qr_scan", "android": "https://dc.lft.to/lastmile_qr_scan"}, "bike_id": "ffdf0403a874e41b56946beee02d6a10", "lat": 38.92175783333333, "name": "ffdf0403a874e41b56946beee02d6a10", "lon": -77.03829816666666, "fusion_lon": 0.0}, {"is_reserved": 0, "type": "electric_scooter", "fusion_lat": 0.0, "is_disabled": 0, "rental_uris": {"ios": "https://dc.lft.to/lastmile_qr_scan", "android": "https://dc.lft.to/lastmile_qr_scan"}, "bike_id": "50af6cadd512e922770d102fa7b343aa", "lat": 38.90098316666667, "name": "50af6cadd512e922770d102fa7b343aa", "lon": -77.01838866666667, "fusion_lon": 0.0}, {"is_reserved": 0, "type": "electric_scooter", "fusion_lat": 0.0, "is_disabled": 0, "rental_uris": {"ios": "https://dc.lft.to/lastmile_qr_scan", "android": "https://dc.lft.to/lastmile_qr_scan"}, "bike_id": "649c049dc935dfeeb0276d2ddbfcb0e6", "lat": 38.89224466666667, "name": "649c049dc935dfeeb0276d2ddbfcb0e6", "lon": -77.04640716666667, "fusion_lon": 0.0}, {"is_reserved": 0, "type": "electric_scooter", "fusion_lat": 0.0, "is_disabled": 0, "rental_uris": {"ios": "https://dc.lft.to/lastmile_qr_scan", "android": "https://dc.lft.to/lastmile_qr_scan"}, "bike_id": "a100be27b042397df7a749ba3b517ae2", "lat": 38.91740983333333, "name": "a100be27b042397df7a749ba3b517ae2", "lon": -77.036097, "fusion_lon": 0.0}, {"is_reserved": 0, "type": "electric_scooter", "fusion_lat": 0.0, "is_disabled": 0, "rental_uris": {"ios": "https://dc.lft.to/lastmile_qr_scan", "android": "https://dc.lft.to/lastmile_qr_scan"}, "bike_id": "0df7f9ea4e383c18fcff24d7c795ce6b", "lat": 38.966206166666666, "name": "0df7f9ea4e383c18fcff24d7c795ce6b", "lon": -77.02005866666667, "fusion_lon": 0.0}, {"is_reserved": 0, "type": "electric_bike", "fusion_lat": 0.0, "is_disabled": 0, "rental_uris": {"ios": "https://dc.lft.to/lastmile_qr_scan", "android": "https://dc.lft.to/lastmile_qr_scan"}, "bike_id": "94a446fc8cbf6a644fd702b5a3e74fd8", "lat": 38.906933, "name": "94a446fc8cbf6a644fd702b5a3e74fd8", "lon": -76.95260916666666, "fusion_lon": 0.0}, {"is_reserved": 0, "type": "electric_scooter", "fusion_lat": 0.0, "is_disabled": 0, "rental_uris": {"ios": "https://dc.lft.to/lastmile_qr_scan", "android": "https://dc.lft.to/lastmile_qr_scan"}, "bike_id": "968ed78ee859c50b7e54e34f91f81fba", "lat": 38.873746, "name": "968ed78ee859c50b7e54e34f91f81fba", "lon": -77.00132416666666, "fusion_lon": 0.0}, {"is_reserved": 0, "type": "electric_scooter", "fusion_lat": 0.0, "is_disabled": 0, "rental_uris": {"ios": "https://dc.lft.to/lastmile_qr_scan", "android": "https://dc.lft.to/lastmile_qr_scan"}, "bike_id": "4225237661e04f58dc633f582a38bd78", "lat": 38.9337285, "name": "4225237661e04f58dc633f582a38bd78", "lon": -77.07260933333333, "fusion_lon": 0.0}, {"is_reserved": 0, "type": "electric_scooter", "fusion_lat": 0.0, "is_disabled": 0, "rental_uris": {"ios": "https://dc.lft.to/lastmile_qr_scan", "android": "https://dc.lft.to/lastmile_qr_scan"}, "bike_id": "112b5335bf185acf1d3e26e31b980fe1", "lat": 38.9446405, "name": "112b5335bf185acf1d3e26e31b980fe1", "lon": -77.0066335, "fusion_lon": 0.0}, {"is_reserved": 0, "type": "electric_scooter", "fusion_lat": 0.0, "is_disabled": 0, "rental_uris": {"ios": "https://dc.lft.to/lastmile_qr_scan", "android": "https://dc.lft.to/lastmile_qr_scan"}, "bike_id": "a28796e59411dc20fc25fa2ef6ecf4be", "lat": 38.920584166666664, "name": "a28796e59411dc20fc25fa2ef6ecf4be", "lon": -77.033932, "fusion_lon": 0.0}, {"is_reserved": 0, "type": "electric_scooter", "fusion_lat": 0.0, "is_disabled": 0, "rental_uris": {"ios": "https://dc.lft.to/lastmile_qr_scan", "android": "https://dc.lft.to/lastmile_qr_scan"}, "bike_id": "bb004e070615d139534368ebdff4d852", "lat": 38.9120965, "name": "bb004e070615d139534368ebdff4d852", "lon": -77.0066625, "fusion_lon": 0.0}, {"is_reserved": 0, "type": "electric_scooter", "fusion_lat": 0.0, "is_disabled": 0, "rental_uris": {"ios": "https://dc.lft.to/lastmile_qr_scan", "android": "https://dc.lft.to/lastmile_qr_scan"}, "bike_id": "8ca231c4423e1364f94b23df75d2d34e", "lat": 38.90267933333333, "name": "8ca231c4423e1364f94b23df75d2d34e", "lon": -76.98989183333333, "fusion_lon": 0.0}, {"is_reserved": 0, "type": "electric_scooter", "fusion_lat": 0.0, "is_disabled": 0, "rental_uris": {"ios": "https://dc.lft.to/lastmile_qr_scan", "android": "https://dc.lft.to/lastmile_qr_scan"}, "bike_id": "6e5592940266796b3a0fa7a2a2eb1eb5", "lat": 38.9078335, "name": "6e5592940266796b3a0fa7a2a2eb1eb5", "lon": -77.07258916666666, "fusion_lon": 0.0}, {"is_reserved": 0, "type": "electric_scooter", "fusion_lat": 0.0, "is_disabled": 0, "rental_uris": {"ios": "https://dc.lft.to/lastmile_qr_scan", "android": "https://dc.lft.to/lastmile_qr_scan"}, "bike_id": "bbbca6f0e089cbb149f4a99e5b738ddb", "lat": 38.9154935, "name": "bbbca6f0e089cbb149f4a99e5b738ddb", "lon": -77.02973966666667, "fusion_lon": 0.0}, {"is_reserved": 0, "type": "electric_scooter", "fusion_lat": 0.0, "is_disabled": 0, "rental_uris": {"ios": "https://dc.lft.to/lastmile_qr_scan", "android": "https://dc.lft.to/lastmile_qr_scan"}, "bike_id": "5a0a1942aedffb3bab6c3e36a3bc8f35", "lat": 38.905136166666665, "name": "5a0a1942aedffb3bab6c3e36a3bc8f35", "lon": -77.04327266666667, "fusion_lon": 0.0}, {"is_reserved": 0, "type": "electric_scooter", "fusion_lat": 0.0, "is_disabled": 0, "rental_uris": {"ios": "https://dc.lft.to/lastmile_qr_scan", "android": "https://dc.lft.to/lastmile_qr_scan"}, "bike_id": "348488f210cb89220831353e55c22954", "lat": 38.94728333333333, "name": "348488f210cb89220831353e55c22954", "lon": -77.02671633333334, "fusion_lon": 0.0}, {"is_reserved": 0, "type": "electric_bike", "fusion_lat": 0.0, "is_disabled": 0, "rental_uris": {"ios": "https://dc.lft.to/lastmile_qr_scan", "android": "https://dc.lft.to/lastmile_qr_scan"}, "bike_id": "ade7f7c501dd0eb8931bb82378f7ad32", "lat": 38.83409283333334, "name": "ade7f7c501dd0eb8931bb82378f7ad32", "lon": -77.050121, "fusion_lon": 0.0}, {"is_reserved": 0, "type": "electric_scooter", "fusion_lat": 0.0, "is_disabled": 0, "rental_uris": {"ios": "https://dc.lft.to/lastmile_qr_scan", "android": "https://dc.lft.to/lastmile_qr_scan"}, "bike_id": "71f6fcd6164d1870cac2ab6d19110f38", "lat": 38.9170625, "name": "71f6fcd6164d1870cac2ab6d19110f38", "lon": -77.05305566666667, "fusion_lon": 0.0}, {"is_reserved": 0, "type": "electric_scooter", "fusion_lat": 0.0, "is_disabled": 0, "rental_uris": {"ios": "https://dc.lft.to/lastmile_qr_scan", "android": "https://dc.lft.to/lastmile_qr_scan"}, "bike_id": "ab7f32c1b90a733210ecf33a44b2c742", "lat": 38.9177425, "name": "ab7f32c1b90a733210ecf33a44b2c742", "lon": -77.014986, "fusion_lon": 0.0}, {"is_reserved": 0, "type": "electric_scooter", "fusion_lat": 0.0, "is_disabled": 0, "rental_uris": {"ios": "https://dc.lft.to/lastmile_qr_scan", "android": "https://dc.lft.to/lastmile_qr_scan"}, "bike_id": "1e6f1b99662a76f43f1cb7a3c44d9250", "lat": 38.900278, "name": "1e6f1b99662a76f43f1cb7a3c44d9250", "lon": -77.04357333333333, "fusion_lon": 0.0}, {"is_reserved": 0, "type": "electric_scooter", "fusion_lat": 0.0, "is_disabled": 0, "rental_uris": {"ios": "https://dc.lft.to/lastmile_qr_scan", "android": "https://dc.lft.to/lastmile_qr_scan"}, "bike_id": "96fa7444e9dfb757395b46cbf246a098", "lat": 38.89882, "name": "96fa7444e9dfb757395b46cbf246a098", "lon": -76.93174, "fusion_lon": 0.0}, {"is_reserved": 0, "type": "electric_scooter", "fusion_lat": 0.0, "is_disabled": 0, "rental_uris": {"ios": "https://dc.lft.to/lastmile_qr_scan", "android": "https://dc.lft.to/lastmile_qr_scan"}, "bike_id": "31557caeb3db990868ef00c388c5d057", "lat": 38.921713833333335, "name": "31557caeb3db990868ef00c388c5d057", "lon": -77.021268, "fusion_lon": 0.0}, {"is_reserved": 0, "type": "electric_scooter", "fusion_lat": 0.0, "is_disabled": 0, "rental_uris": {"ios": "https://dc.lft.to/lastmile_qr_scan", "android": "https://dc.lft.to/lastmile_qr_scan"}, "bike_id": "0d47b8113b47e7cb305839dfa641e740", "lat": 38.910167666666666, "name": "0d47b8113b47e7cb305839dfa641e740", "lon": -77.01985816666667, "fusion_lon": 0.0}, {"is_reserved": 0, "type": "electric_scooter", "fusion_lat": 0.0, "is_disabled": 0, "rental_uris": {"ios": "https://dc.lft.to/lastmile_qr_scan", "android": "https://dc.lft.to/lastmile_qr_scan"}, "bike_id": "285a2df42ebb6ba4362226aa08225fc6", "lat": 38.9031085, "name": "285a2df42ebb6ba4362226aa08225fc6", "lon": -76.99131183333333, "fusion_lon": 0.0}, {"is_reserved": 0, "type": "electric_scooter", "fusion_lat": 0.0, "is_disabled": 0, "rental_uris": {"ios": "https://dc.lft.to/lastmile_qr_scan", "android": "https://dc.lft.to/lastmile_qr_scan"}, "bike_id": "0b06edc4a52fcb717abb27954c672820", "lat": 38.96429166666667, "name": "0b06edc4a52fcb717abb27954c672820", "lon": -77.07429166666667, "fusion_lon": 0.0}, {"is_reserved": 0, "type": "electric_scooter", "fusion_lat": 0.0, "is_disabled": 0, "rental_uris": {"ios": "https://dc.lft.to/lastmile_qr_scan", "android": "https://dc.lft.to/lastmile_qr_scan"}, "bike_id": "29add93428dfb32dfe108de2cd8cdaa6", "lat": 38.902054666666665, "name": "29add93428dfb32dfe108de2cd8cdaa6", "lon": -77.02188883333334, "fusion_lon": 0.0}, {"is_reserved": 0, "type": "electric_scooter", "fusion_lat": 0.0, "is_disabled": 0, "rental_uris": {"ios": "https://dc.lft.to/lastmile_qr_scan", "android": "https://dc.lft.to/lastmile_qr_scan"}, "bike_id": "8af37e82f7f98f84be32ca5d90b79b51", "lat": 38.92877983333333, "name": "8af37e82f7f98f84be32ca5d90b79b51", "lon": -77.03221666666667, "fusion_lon": 0.0}, {"is_reserved": 0, "type": "electric_scooter", "fusion_lat": 0.0, "is_disabled": 0, "rental_uris": {"ios": "https://dc.lft.to/lastmile_qr_scan", "android": "https://dc.lft.to/lastmile_qr_scan"}, "bike_id": "f8d8819a6a011a89708e0faefe5aabb2", "lat": 38.935535333333334, "name": "f8d8819a6a011a89708e0faefe5aabb2", "lon": -77.0733855, "fusion_lon": 0.0}, {"is_reserved": 0, "type": "electric_scooter", "fusion_lat": 0.0, "is_disabled": 0, "rental_uris": {"ios": "https://dc.lft.to/lastmile_qr_scan", "android": "https://dc.lft.to/lastmile_qr_scan"}, "bike_id": "33b0023448d2e8b6d367b769e41cca73", "lat": 38.8571425, "name": "33b0023448d2e8b6d367b769e41cca73", "lon": -76.98104783333334, "fusion_lon": 0.0}, {"is_reserved": 0, "type": "electric_bike", "fusion_lat": 0.0, "is_disabled": 0, "rental_uris": {"ios": "https://dc.lft.to/lastmile_qr_scan", "android": "https://dc.lft.to/lastmile_qr_scan"}, "bike_id": "2f45b3965f73d5a65d3d4919b3d6ce18", "lat": 38.92798633333334, "name": "2f45b3965f73d5a65d3d4919b3d6ce18", "lon": -77.22942066666667, "fusion_lon": 0.0}, {"is_reserved": 0, "type": "electric_scooter", "fusion_lat": 0.0, "is_disabled": 0, "rental_uris": {"ios": "https://dc.lft.to/lastmile_qr_scan", "android": "https://dc.lft.to/lastmile_qr_scan"}, "bike_id": "e58d7e5c109c152c1c48e4eb51ae65dd", "lat": 38.92757533333333, "name": "e58d7e5c109c152c1c48e4eb51ae65dd", "lon": -77.03271, "fusion_lon": 0.0}, {"is_reserved": 0, "type": "electric_scooter", "fusion_lat": 0.0, "is_disabled": 0, "rental_uris": {"ios": "https://dc.lft.to/lastmile_qr_scan", "android": "https://dc.lft.to/lastmile_qr_scan"}, "bike_id": "a4dd27bae761f1ad903e7066576b351b", "lat": 38.8854195, "name": "a4dd27bae761f1ad903e7066576b351b", "lon": -76.98538366666666, "fusion_lon": 0.0}, {"is_reserved": 0, "type": "electric_scooter", "fusion_lat": 0.0, "is_disabled": 0, "rental_uris": {"ios": "https://dc.lft.to/lastmile_qr_scan", "android": "https://dc.lft.to/lastmile_qr_scan"}, "bike_id": "9494b7bd34542a107bb39006272849ee", "lat": 38.87937216666667, "name": "9494b7bd34542a107bb39006272849ee", "lon": -77.00590016666666, "fusion_lon": 0.0}, {"is_reserved": 0, "type": "electric_scooter", "fusion_lat": 0.0, "is_disabled": 0, "rental_uris": {"ios": "https://dc.lft.to/lastmile_qr_scan", "android": "https://dc.lft.to/lastmile_qr_scan"}, "bike_id": "cda0ecf9de0a240563ec5953d2c4d1b5", "lat": 38.93420233333333, "name": "cda0ecf9de0a240563ec5953d2c4d1b5", "lon": -77.03286516666667, "fusion_lon": 0.0}, {"is_reserved": 0, "type": "electric_scooter", "fusion_lat": 0.0, "is_disabled": 0, "rental_uris": {"ios": "https://dc.lft.to/lastmile_qr_scan", "android": "https://dc.lft.to/lastmile_qr_scan"}, "bike_id": "ed180ed1079683676eb090604a9d06b8", "lat": 38.8873055, "name": "ed180ed1079683676eb090604a9d06b8", "lon": -76.98378266666667, "fusion_lon": 0.0}, {"is_reserved": 0, "type": "electric_scooter", "fusion_lat": 0.0, "is_disabled": 0, "rental_uris": {"ios": "https://dc.lft.to/lastmile_qr_scan", "android": "https://dc.lft.to/lastmile_qr_scan"}, "bike_id": "ed79564899f5960a0db66dd37c766337", "lat": 38.8995065, "name": "ed79564899f5960a0db66dd37c766337", "lon": -77.04753616666666, "fusion_lon": 0.0}, {"is_reserved": 0, "type": "electric_scooter", "fusion_lat": 0.0, "is_disabled": 0, "rental_uris": {"ios": "https://dc.lft.to/lastmile_qr_scan", "android": "https://dc.lft.to/lastmile_qr_scan"}, "bike_id": "9c9962fa651064d592657c097cfd0d5b", "lat": 38.956272166666665, "name": "9c9962fa651064d592657c097cfd0d5b", "lon": -77.02239066666667, "fusion_lon": 0.0}, {"is_reserved": 0, "type": "electric_scooter", "fusion_lat": 0.0, "is_disabled": 0, "rental_uris": {"ios": "https://dc.lft.to/lastmile_qr_scan", "android": "https://dc.lft.to/lastmile_qr_scan"}, "bike_id": "d332cf105637835ff06403ee527efe73", "lat": 38.91781316666667, "name": "d332cf105637835ff06403ee527efe73", "lon": -77.03340116666666, "fusion_lon": 0.0}, {"is_reserved": 0, "type": "electric_scooter", "fusion_lat": 0.0, "is_disabled": 0, "rental_uris": {"ios": "https://dc.lft.to/lastmile_qr_scan", "android": "https://dc.lft.to/lastmile_qr_scan"}, "bike_id": "0ba89c5063b8c9a585087a4551436039", "lat": 38.907906, "name": "0ba89c5063b8c9a585087a4551436039", "lon": -77.00973983333333, "fusion_lon": 0.0}, {"is_reserved": 0, "type": "electric_scooter", "fusion_lat": 0.0, "is_disabled": 0, "rental_uris": {"ios": "https://dc.lft.to/lastmile_qr_scan", "android": "https://dc.lft.to/lastmile_qr_scan"}, "bike_id": "ef11210e8ac77528f6717aa4a83eae89", "lat": 38.909359333333335, "name": "ef11210e8ac77528f6717aa4a83eae89", "lon": -76.99910216666666, "fusion_lon": 0.0}, {"is_reserved": 0, "type": "electric_scooter", "fusion_lat": 0.0, "is_disabled": 0, "rental_uris": {"ios": "https://dc.lft.to/lastmile_qr_scan", "android": "https://dc.lft.to/lastmile_qr_scan"}, "bike_id": "df3cdca91ef2fdc87edb3829b8fe1e44", "lat": 38.921839, "name": "df3cdca91ef2fdc87edb3829b8fe1e44", "lon": -77.02107166666667, "fusion_lon": 0.0}, {"is_reserved": 0, "type": "electric_scooter", "fusion_lat": 0.0, "is_disabled": 0, "rental_uris": {"ios": "https://dc.lft.to/lastmile_qr_scan", "android": "https://dc.lft.to/lastmile_qr_scan"}, "bike_id": "10de4eee4a4ff254878c2e989787434f", "lat": 38.912533, "name": "10de4eee4a4ff254878c2e989787434f", "lon": -77.04597333333334, "fusion_lon": 0.0}, {"is_reserved": 0, "type": "electric_scooter", "fusion_lat": 0.0, "is_disabled": 0, "rental_uris": {"ios": "https://dc.lft.to/lastmile_qr_scan", "android": "https://dc.lft.to/lastmile_qr_scan"}, "bike_id": "9fb41201d5b4b960cccb0baf8dd2a997", "lat": 38.91813833333333, "name": "9fb41201d5b4b960cccb0baf8dd2a997", "lon": -77.0248145, "fusion_lon": 0.0}, {"is_reserved": 0, "type": "electric_scooter", "fusion_lat": 0.0, "is_disabled": 0, "rental_uris": {"ios": "https://dc.lft.to/lastmile_qr_scan", "android": "https://dc.lft.to/lastmile_qr_scan"}, "bike_id": "82091fead1446e5609c74b2f40655315", "lat": 38.905630333333335, "name": "82091fead1446e5609c74b2f40655315", "lon": -77.017197, "fusion_lon": 0.0}, {"is_reserved": 0, "type": "electric_scooter", "fusion_lat": 0.0, "is_disabled": 0, "rental_uris": {"ios": "https://dc.lft.to/lastmile_qr_scan", "android": "https://dc.lft.to/lastmile_qr_scan"}, "bike_id": "599063b69b53ae7132c9881504a59049", "lat": 38.919153333333334, "name": "599063b69b53ae7132c9881504a59049", "lon": -77.03315816666667, "fusion_lon": 0.0}, {"is_reserved": 0, "type": "electric_scooter", "fusion_lat": 0.0, "is_disabled": 0, "rental_uris": {"ios": "https://dc.lft.to/lastmile_qr_scan", "android": "https://dc.lft.to/lastmile_qr_scan"}, "bike_id": "ad06092e5c0bcf3106df92d00f653f5d", "lat": 38.91237133333333, "name": "ad06092e5c0bcf3106df92d00f653f5d", "lon": -77.00918033333333, "fusion_lon": 0.0}, {"is_reserved": 0, "type": "electric_bike", "fusion_lat": 0.0, "is_disabled": 0, "rental_uris": {"ios": "https://dc.lft.to/lastmile_qr_scan", "android": "https://dc.lft.to/lastmile_qr_scan"}, "bike_id": "f411a3eb2a56225aa5fecf08570fccf2", "lat": 38.8429655, "name": "f411a3eb2a56225aa5fecf08570fccf2", "lon": -76.98834916666667, "fusion_lon": 0.0}, {"is_reserved": 0, "type": "electric_scooter", "fusion_lat": 0.0, "is_disabled": 0, "rental_uris": {"ios": "https://dc.lft.to/lastmile_qr_scan", "android": "https://dc.lft.to/lastmile_qr_scan"}, "bike_id": "6ee09ed772f91962d764ab291104588b", "lat": 38.90188216666667, "name": "6ee09ed772f91962d764ab291104588b", "lon": -77.01562333333334, "fusion_lon": 0.0}, {"is_reserved": 0, "type": "electric_scooter", "fusion_lat": 0.0, "is_disabled": 0, "rental_uris": {"ios": "https://dc.lft.to/lastmile_qr_scan", "android": "https://dc.lft.to/lastmile_qr_scan"}, "bike_id": "ae63661b6212237bd728fb6c82a6f04d", "lat": 38.91990166666667, "name": "ae63661b6212237bd728fb6c82a6f04d", "lon": -76.97308583333333, "fusion_lon": 0.0}, {"is_reserved": 0, "type": "electric_scooter", "fusion_lat": 0.0, "is_disabled": 0, "rental_uris": {"ios": "https://dc.lft.to/lastmile_qr_scan", "android": "https://dc.lft.to/lastmile_qr_scan"}, "bike_id": "00071c743d64f754a7055e56f5b31ffe", "lat": 38.8766495, "name": "00071c743d64f754a7055e56f5b31ffe", "lon": -77.00091066666667, "fusion_lon": 0.0}, {"is_reserved": 0, "type": "electric_scooter", "fusion_lat": 0.0, "is_disabled": 0, "rental_uris": {"ios": "https://dc.lft.to/lastmile_qr_scan", "android": "https://dc.lft.to/lastmile_qr_scan"}, "bike_id": "5181f21b7cbcd0e88359daa4be5c4d1e", "lat": 38.9162985, "name": "5181f21b7cbcd0e88359daa4be5c4d1e", "lon": -77.031884, "fusion_lon": 0.0}, {"is_reserved": 0, "type": "electric_scooter", "fusion_lat": 0.0, "is_disabled": 0, "rental_uris": {"ios": "https://dc.lft.to/lastmile_qr_scan", "android": "https://dc.lft.to/lastmile_qr_scan"}, "bike_id": "2560f877c7a667f779edd1582011d32e", "lat": 38.90953916666667, "name": "2560f877c7a667f779edd1582011d32e", "lon": -76.9854, "fusion_lon": 0.0}, {"is_reserved": 0, "type": "electric_scooter", "fusion_lat": 0.0, "is_disabled": 0, "rental_uris": {"ios": "https://dc.lft.to/lastmile_qr_scan", "android": "https://dc.lft.to/lastmile_qr_scan"}, "bike_id": "cf7bfdef45ab3f2dc68b919c6c631b47", "lat": 38.94595916666667, "name": "cf7bfdef45ab3f2dc68b919c6c631b47", "lon": -77.020187, "fusion_lon": 0.0},