{"data": {"bikes": [{"lon": -77.12977283333333, "bike_id": "a2709ecfb23c3086b79e6327a1659895", "lat": 38.79984916666667, "fusion_lon": 0.0, "fusion_lat": 0.0, "type": "electric_bike", "name": "a2709ecfb23c3086b79e6327a1659895", "is_disabled": 0, "rental_uris": {"ios": "https://dc.lft.to/lastmile_qr_scan", "android": "https://dc.lft.to/lastmile_qr_scan"}, "is_reserved": 0}, {"lon": -77.03867416666667, "bike_id": "9321de5ae83af53df3957bf3ccf3718f", "lat": 38.9324395, "fusion_lon": 0.0, "fusion_lat": 0.0, "type": "electric_scooter", "name": "9321de5ae83af53df3957bf3ccf3718f", "is_disabled": 0, "rental_uris": {"ios": "https://dc.lft.to/lastmile_qr_scan", "android": "https://dc.lft.to/lastmile_qr_scan"}, "is_reserved": 0}, {"lon": -77.02927916666667, "bike_id": "af9abfa44365ba0da1d4ac74ebf9818b", "lat": 38.934612333333334, "fusion_lon": 0.0, "fusion_lat": 0.0, "type": "electric_scooter", "name": "af9abfa44365ba0da1d4ac74ebf9818b", "is_disabled": 0, "rental_uris": {"ios": "https://dc.lft.to/lastmile_qr_scan", "android": "https://dc.lft.to/lastmile_qr_scan"}, "is_reserved": 0}, {"lon": -77.05453066666666, "bike_id": "a19f0264c4fbdfdceffc185168dd450c", "lat": 38.8553395, "fusion_lon": 0.0, "fusion_lat": 0.0, "type": "electric_bike", "name": "a19f0264c4fbdfdceffc185168dd450c", "is_disabled": 0, "rental_uris": {"ios": "https://dc.lft.to/lastmile_qr_scan", "android": "https://dc.lft.to/lastmile_qr_scan"}, "is_reserved": 0}, {"lon": -77.03864316666666, "bike_id": "fbe5b32a5b317d7c659982e60e78f379", "lat": 38.915496833333336, "fusion_lon": 0.0, "fusion_lat": 0.0, "type": "electric_scooter", "name": "fbe5b32a5b317d7c659982e60e78f379", "is_disabled": 0, "rental_uris": {"ios": "https://dc.lft.to/lastmile_qr_scan", "android": "https://dc.lft.to/lastmile_qr_scan"}, "is_reserved": 0}, {"lon": -77.00670783333334, "bike_id": "4b06809542fa3e22a96d72c546f4c509", "lat": 38.90008916666667, "fusion_lon": 0.0, "fusion_lat": 0.0, "type": "electric_scooter", "name": "4b06809542fa3e22a96d72c546f4c509", "is_disabled": 0, "rental_uris": {"ios": "https://dc.lft.to/lastmile_qr_scan", "android": "https://dc.lft.to/lastmile_qr_scan"}, "is_reserved": 0}, {"lon": -77.01442633333333, "bike_id": "f0d65a0c4d284c8d9f93b3f5f23743f4", "lat": 38.87671683333333, "fusion_lon": 0.0, "fusion_lat": 0.0, "type": "electric_bike", "name": "f0d65a0c4d284c8d9f93b3f5f23743f4", "is_disabled": 0, "rental_uris": {"ios": "https://dc.lft.to/lastmile_qr_scan", "android": "https://dc.lft.to/lastmile_qr_scan"}, "is_reserved": 0}, {"lon": -77.028521, "bike_id": "c1d4b59f6bd65b6805525477ff1a9dbe", "lat": 38.8852185, "fusion_lon": 0.0, "fusion_lat": 0.0, "type": "electric_scooter", "name": "c1d4b59f6bd65b6805525477ff1a9dbe", "is_disabled": 0, "rental_uris": {"ios": "https://dc.lft.to/lastmile_qr_scan", "android": "https://dc.lft.to/lastmile_qr_scan"}, "is_reserved": 0}, {"lon": -77.0065775, "bike_id": "53291deaaa46613cf9f34fa77fd08e26", "lat": 38.9446175, "fusion_lon": 0.0, "fusion_lat": 0.0, "type": "electric_scooter", "name": "53291deaaa46613cf9f34fa77fd08e26", "is_disabled": 0, "rental_uris": {"ios": "https://dc.lft.to/lastmile_qr_scan", "android": "https://dc.lft.to/lastmile_qr_scan"}, "is_reserved": 0}, {"lon": -77.0433275, "bike_id": "7b5f0003a42436dd1b429fa31bede15a", "lat": 38.913264833333336, "fusion_lon": 0.0, "fusion_lat": 0.0, "type": "electric_scooter", "name": "7b5f0003a42436dd1b429fa31bede15a", "is_disabled": 0, "rental_uris": {"ios": "https://dc.lft.to/lastmile_qr_scan", "android": "https://dc.lft.to/lastmile_qr_scan"}, "is_reserved": 0}, {"lon": -77.0389215, "bike_id": "ff2a001bbd8631a4d03c358dbac51554", "lat": 38.9099885, "fusion_lon": 0.0, "fusion_lat": 0.0, "type": "electric_scooter", "name": "ff2a001bbd8631a4d03c358dbac51554", "is_disabled": 0, "rental_uris": {"ios": "https://dc.lft.to/lastmile_qr_scan", "android": "https://dc.lft.to/lastmile_qr_scan"}, "is_reserved": 0}, {"lon": -76.9984675, "bike_id": "a77edd88244feeda6abdad2b5167a8ec", "lat": 38.90018716666667, "fusion_lon": 0.0, "fusion_lat": 0.0, "type": "electric_scooter", "name": "a77edd88244feeda6abdad2b5167a8ec", "is_disabled": 0, "rental_uris": {"ios": "https://dc.lft.to/lastmile_qr_scan", "android": "https://dc.lft.to/lastmile_qr_scan"}, "is_reserved": 0}, {"lon": -76.95363183333333, "bike_id": "932f1ac264747860ea51fafb15571059", "lat": 38.892003833333334, "fusion_lon": 0.0, "fusion_lat": 0.0, "type": "electric_scooter", "name": "932f1ac264747860ea51fafb15571059", "is_disabled": 0, "rental_uris": {"ios": "https://dc.lft.to/lastmile_qr_scan", "android": "https://dc.lft.to/lastmile_qr_scan"}, "is_reserved": 0}, {"lon": -76.96149616666666, "bike_id": "e1afabdcd1b152ff7a2e9c9c251460b5", "lat": 38.8835815, "fusion_lon": 0.0, "fusion_lat": 0.0, "type": "electric_scooter", "name": "e1afabdcd1b152ff7a2e9c9c251460b5", "is_disabled": 0, "rental_uris": {"ios": "https://dc.lft.to/lastmile_qr_scan", "android": "https://dc.lft.to/lastmile_qr_scan"}, "is_reserved": 0}, {"lon": -77.045664, "bike_id": "b3b47af34c4cf5f28419748496cd2bde", "lat": 38.9035135, "fusion_lon": 0.0, "fusion_lat": 0.0, "type": "electric_scooter", "name": "b3b47af34c4cf5f28419748496cd2bde", "is_disabled": 0, "rental_uris": {"ios": "https://dc.lft.to/lastmile_qr_scan", "android": "https://dc.lft.to/lastmile_qr_scan"}, "is_reserved": 0}, {"lon": -77.03862333333333, "bike_id": "417ccb49fd217f6d3aa3613ed388fcba", "lat": 38.94497583333333, "fusion_lon": 0.0, "fusion_lat": 0.0, "type": "electric_scooter", "name": "417ccb49fd217f6d3aa3613ed388fcba", "is_disabled": 0, "rental_uris": {"ios": "https://dc.lft.to/lastmile_qr_scan", "android": "https://dc.lft.to/lastmile_qr_scan"}, "is_reserved": 0}, {"lon": -77.03436583333334, "bike_id": "0b9776d734dfdd52b31739f64eba217c", "lat": 38.90978283333333, "fusion_lon": 0.0, "fusion_lat": 0.0, "type": "electric_scooter", "name": "0b9776d734dfdd52b31739f64eba217c", "is_disabled": 0, "rental_uris": {"ios": "https://dc.lft.to/lastmile_qr_scan", "android": "https://dc.lft.to/lastmile_qr_scan"}, "is_reserved": 0}, {"lon": -76.9677965, "bike_id": "0dd3b4f56e3248ecf8cfaaf1002915c3", "lat": 38.8684985, "fusion_lon": 0.0, "fusion_lat": 0.0, "type": "electric_scooter", "name": "0dd3b4f56e3248ecf8cfaaf1002915c3", "is_disabled": 0, "rental_uris": {"ios": "https://dc.lft.to/lastmile_qr_scan", "android": "https://dc.lft.to/lastmile_qr_scan"}, "is_reserved": 0}, {"lon": -77.00578066666667, "bike_id": "271a933119d873826e7281714d2c5664", "lat": 38.88436816666667, "fusion_lon": 0.0, "fusion_lat": 0.0, "type": "electric_scooter", "name": "271a933119d873826e7281714d2c5664", "is_disabled": 0, "rental_uris": {"ios": "https://dc.lft.to/lastmile_qr_scan", "android": "https://dc.lft.to/lastmile_qr_scan"}, "is_reserved": 0}, {"lon": -76.99847316666667, "bike_id": "88d1f16f361cc092c6a17fa285ee3cb3", "lat": 38.9021685, "fusion_lon": 0.0, "fusion_lat": 0.0, "type": "electric_scooter", "name": "88d1f16f361cc092c6a17fa285ee3cb3", "is_disabled": 0, "rental_uris": {"ios": "https://dc.lft.to/lastmile_qr_scan", "android": "https://dc.lft.to/lastmile_qr_scan"}, "is_reserved": 0}, {"lon": -77.0347655, "bike_id": "2d96a193dd1e5a47d8a4fa77ef761971", "lat": 38.92868683333333, "fusion_lon": 0.0, "fusion_lat": 0.0, "type": "electric_scooter", "name": "2d96a193dd1e5a47d8a4fa77ef761971", "is_disabled": 0, "rental_uris": {"ios": "https://dc.lft.to/lastmile_qr_scan", "android": "https://dc.lft.to/lastmile_qr_scan"}, "is_reserved": 0}, {"lon": -77.02279016666667, "bike_id": "ef27630b07d2a4e83ae5d7c4429e13f6", "lat": 38.9268455, "fusion_lon": 0.0, "fusion_lat": 0.0, "type": "electric_scooter", "name": "ef27630b07d2a4e83ae5d7c4429e13f6", "is_disabled": 0, "rental_uris": {"ios": "https://dc.lft.to/lastmile_qr_scan", "android": "https://dc.lft.to/lastmile_qr_scan"}, "is_reserved": 0}, {"lon": -77.1159145, "bike_id": "2a8cd9347a66980c2a2f2ab1ddd35b1b", "lat": 39.074925, "fusion_lon": 0.0, "fusion_lat": 0.0, "type": "electric_bike", "name": "2a8cd9347a66980c2a2f2ab1ddd35b1b", "is_disabled": 0, "rental_uris": {"ios": "https://dc.lft.to/lastmile_qr_scan", "android": "https://dc.lft.to/lastmile_qr_scan"}, "is_reserved": 0}, {"lon": -77.02391516666667, "bike_id": "f5dbca2ed70af8d0b9594a05c752ef67", "lat": 38.90397633333333, "fusion_lon": 0.0, "fusion_lat": 0.0, "type": "electric_scooter", "name": "f5dbca2ed70af8d0b9594a05c752ef67", "is_disabled": 0, "rental_uris": {"ios": "https://dc.lft.to/lastmile_qr_scan", "android": "https://dc.lft.to/lastmile_qr_scan"}, "is_reserved": 0}, {"lon": -77.01538966666666, "bike_id": "4ec7e108cf00a9603bda287020422256", "lat": 38.907445833333334, "fusion_lon": 0.0, "fusion_lat": 0.0, "type": "electric_scooter", "name": "4ec7e108cf00a9603bda287020422256", "is_disabled": 0, "rental_uris": {"ios": "https://dc.lft.to/lastmile_qr_scan", "android": "https://dc.lft.to/lastmile_qr_scan"}, "is_reserved": 0}, {"lon": -77.0235575, "bike_id": "2f89ad9cb65125586f222e12cfd03aaa", "lat": 38.89976983333333, "fusion_lon": 0.0, "fusion_lat": 0.0, "type": "electric_scooter", "name": "2f89ad9cb65125586f222e12cfd03aaa", "is_disabled": 0, "rental_uris": {"ios": "https://dc.lft.to/lastmile_qr_scan", "android": "https://dc.lft.to/lastmile_qr_scan"}, "is_reserved": 0}, {"lon": -77.0006285, "bike_id": "47be61acce06467479d802cfdae95f3c", "lat": 38.91904533333334, "fusion_lon": 0.0, "fusion_lat": 0.0, "type": "electric_scooter", "name": "47be61acce06467479d802cfdae95f3c", "is_disabled": 0, "rental_uris": {"ios": "https://dc.lft.to/lastmile_qr_scan", "android": "https://dc.lft.to/lastmile_qr_scan"}, "is_reserved": 0}, {"lon": -76.96907733333333, "bike_id": "b0ddae767a2b1b8d427b4b63565490f5", "lat": 38.8461015, "fusion_lon": 0.0, "fusion_lat": 0.0, "type": "electric_bike", "name": "b0ddae767a2b1b8d427b4b63565490f5", "is_disabled": 0, "rental_uris": {"ios": "https://dc.lft.to/lastmile_qr_scan", "android": "https://dc.lft.to/lastmile_qr_scan"}, "is_reserved": 0}, {"lon": -77.03343283333334, "bike_id": "6b17f10fb2748ca02da68defa5f27bcd", "lat": 38.94513466666667, "fusion_lon": 0.0, "fusion_lat": 0.0, "type": "electric_bike", "name": "6b17f10fb2748ca02da68defa5f27bcd", "is_disabled": 0, "rental_uris": {"ios": "https://dc.lft.to/lastmile_qr_scan", "android": "https://dc.lft.to/lastmile_qr_scan"}, "is_reserved": 0}, {"lon": -77.01388733333333, "bike_id": "fb1374fc88313f1cbc16ceeeb102edcc", "lat": 38.928589333333335, "fusion_lon": 0.0, "fusion_lat": 0.0, "type": "electric_scooter", "name": "fb1374fc88313f1cbc16ceeeb102edcc", "is_disabled": 0, "rental_uris": {"ios": "https://dc.lft.to/lastmile_qr_scan", "android": "https://dc.lft.to/lastmile_qr_scan"}, "is_reserved": 0}, {"lon": -77.01711866666666, "bike_id": "41bb0b015683bbf7a199071616c00acb", "lat": 38.913624666666664, "fusion_lon": 0.0, "fusion_lat": 0.0, "type": "electric_scooter", "name": "41bb0b015683bbf7a199071616c00acb", "is_disabled": 0, "rental_uris": {"ios": "https://dc.lft.to/lastmile_qr_scan", "android": "https://dc.lft.to/lastmile_qr_scan"}, "is_reserved": 0}, {"lon": -77.02031666666667, "bike_id": "3855d9c38be37ab82de738accfc9cf08", "lat": 38.91665233333333, "fusion_lon": 0.0, "fusion_lat": 0.0, "type": "electric_scooter", "name": "3855d9c38be37ab82de738accfc9cf08", "is_disabled": 0, "rental_uris": {"ios": "https://dc.lft.to/lastmile_qr_scan", "android": "https://dc.lft.to/lastmile_qr_scan"}, "is_reserved": 0}, {"lon": -77.0022625, "bike_id": "b90efffe3afd61dffbdd83d98513a79f", "lat": 38.90250116666667, "fusion_lon": 0.0, "fusion_lat": 0.0, "type": "electric_scooter", "name": "b90efffe3afd61dffbdd83d98513a79f", "is_disabled": 0, "rental_uris": {"ios": "https://dc.lft.to/lastmile_qr_scan", "android": "https://dc.lft.to/lastmile_qr_scan"}, "is_reserved": 0}, {"lon": -77.03662183333333, "bike_id": "60838ef01d66cc16479e1f7a5afc48e9", "lat": 38.91749816666667, "fusion_lon": 0.0, "fusion_lat": 0.0, "type": "electric_scooter", "name": "60838ef01d66cc16479e1f7a5afc48e9", "is_disabled": 0, "rental_uris": {"ios": "https://dc.lft.to/lastmile_qr_scan", "android": "https://dc.lft.to/lastmile_qr_scan"}, "is_reserved": 0}, {"lon": -77.01062033333334, "bike_id": "c959a140a7e66412e25736cfc4156cb6", "lat": 38.96347566666667, "fusion_lon": 0.0, "fusion_lat": 0.0, "type": "electric_scooter", "name": "c959a140a7e66412e25736cfc4156cb6", "is_disabled": 0, "rental_uris": {"ios": "https://dc.lft.to/lastmile_qr_scan", "android": "https://dc.lft.to/lastmile_qr_scan"}, "is_reserved": 0}, {"lon": -77.11914416666667, "bike_id": "98520a15c5f5fe053cab748878839497", "lat": 38.87634716666667, "fusion_lon": 0.0, "fusion_lat": 0.0, "type": "electric_bike", "name": "98520a15c5f5fe053cab748878839497", "is_disabled": 0, "rental_uris": {"ios": "https://dc.lft.to/lastmile_qr_scan", "android": "https://dc.lft.to/lastmile_qr_scan"}, "is_reserved": 0}, {"lon": -77.04392033333333, "bike_id": "8cd9f20a5a963e3a5ca94b8c94cfaa9e", "lat": 38.910098, "fusion_lon": 0.0, "fusion_lat": 0.0, "type": "electric_scooter", "name": "8cd9f20a5a963e3a5ca94b8c94cfaa9e", "is_disabled": 0, "rental_uris": {"ios": "https://dc.lft.to/lastmile_qr_scan", "android": "https://dc.lft.to/lastmile_qr_scan"}, "is_reserved": 0}, {"lon": -77.026013, "bike_id": "b9737be2428603a6d76ba008a48823dc", "lat": 38.92795266666667, "fusion_lon": 0.0, "fusion_lat": 0.0, "type": "electric_scooter", "name": "b9737be2428603a6d76ba008a48823dc", "is_disabled": 0, "rental_uris": {"ios": "https://dc.lft.to/lastmile_qr_scan", "android": "https://dc.lft.to/lastmile_qr_scan"}, "is_reserved": 0}, {"lon": -77.0056575, "bike_id": "5ce000a3db78f045bc8a4bdc51f59251", "lat": 38.87682183333333, "fusion_lon": 0.0, "fusion_lat": 0.0, "type": "electric_scooter", "name": "5ce000a3db78f045bc8a4bdc51f59251", "is_disabled": 0, "rental_uris": {"ios": "https://dc.lft.to/lastmile_qr_scan", "android": "https://dc.lft.to/lastmile_qr_scan"}, "is_reserved": 0}, {"lon": -77.018863, "bike_id": "c629c5d039d995a77b68795eb03790ee", "lat": 38.874797666666666, "fusion_lon": 0.0, "fusion_lat": 0.0, "type": "electric_scooter", "name": "c629c5d039d995a77b68795eb03790ee", "is_disabled": 0, "rental_uris": {"ios": "https://dc.lft.to/lastmile_qr_scan", "android": "https://dc.lft.to/lastmile_qr_scan"}, "is_reserved": 0}, {"lon": -77.05332166666666, "bike_id": "1dc93eeee05ebaefcea29679d02f9a4e", "lat": 38.8987475, "fusion_lon": 0.0, "fusion_lat": 0.0, "type": "electric_scooter", "name": "1dc93eeee05ebaefcea29679d02f9a4e", "is_disabled": 0, "rental_uris": {"ios": "https://dc.lft.to/lastmile_qr_scan", "android": "https://dc.lft.to/lastmile_qr_scan"}, "is_reserved": 0}, {"lon": -76.9950375, "bike_id": "2ed4eb8ebe24d50c9a574d66d1bcb3ab", "lat": 38.88335933333333, "fusion_lon": 0.0, "fusion_lat": 0.0, "type": "electric_scooter", "name": "2ed4eb8ebe24d50c9a574d66d1bcb3ab", "is_disabled": 0, "rental_uris": {"ios": "https://dc.lft.to/lastmile_qr_scan", "android": "https://dc.lft.to/lastmile_qr_scan"}, "is_reserved": 0}, {"lon": -77.06292783333333, "bike_id": "a982189b1dcbef0c537155b89809a19f", "lat": 38.903916333333335, "fusion_lon": 0.0, "fusion_lat": 0.0, "type": "electric_scooter", "name": "a982189b1dcbef0c537155b89809a19f", "is_disabled": 0, "rental_uris": {"ios": "https://dc.lft.to/lastmile_qr_scan", "android": "https://dc.lft.to/lastmile_qr_scan"}, "is_reserved": 0}, {"lon": -77.021973, "bike_id": "1309013718f655b930a3d17f4bce74c3", "lat": 38.8999365, "fusion_lon": 0.0, "fusion_lat": 0.0, "type": "electric_scooter", "name": "1309013718f655b930a3d17f4bce74c3", "is_disabled": 0, "rental_uris": {"ios": "https://dc.lft.to/lastmile_qr_scan", "android": "https://dc.lft.to/lastmile_qr_scan"}, "is_reserved": 0}, {"lon": -76.97489083333333, "bike_id": "b4c05f28f4e9759acba3a09a28266e6a", "lat": 38.919213166666665, "fusion_lon": 0.0, "fusion_lat": 0.0, "type": "electric_scooter", "name": "b4c05f28f4e9759acba3a09a28266e6a", "is_disabled": 0, "rental_uris": {"ios": "https://dc.lft.to/lastmile_qr_scan", "android": "https://dc.lft.to/lastmile_qr_scan"}, "is_reserved": 0}, {"lon": -76.94400766666666, "bike_id": "86db9749825e8c19747c9ebf4f83e43f", "lat": 38.881389666666664, "fusion_lon": 0.0, "fusion_lat": 0.0, "type": "electric_scooter", "name": "86db9749825e8c19747c9ebf4f83e43f", "is_disabled": 0, "rental_uris": {"ios": "https://dc.lft.to/lastmile_qr_scan", "android": "https://dc.lft.to/lastmile_qr_scan"}, "is_reserved": 0}, {"lon": -77.02270983333334, "bike_id": "d858f8d3114ec6952057c7692787dad3", "lat": 38.927255833333334, "fusion_lon": 0.0, "fusion_lat": 0.0, "type": "electric_scooter", "name": "d858f8d3114ec6952057c7692787dad3", "is_disabled": 0, "rental_uris": {"ios": "https://dc.lft.to/lastmile_qr_scan", "android": "https://dc.lft.to/lastmile_qr_scan"}, "is_reserved": 0}, {"lon": -76.99351316666667, "bike_id": "6fa23257a37caad8dca17c8d9b77067b", "lat": 38.8450605, "fusion_lon": 0.0, "fusion_lat": 0.0, "type": "electric_bike", "name": "6fa23257a37caad8dca17c8d9b77067b", "is_disabled": 0, "rental_uris": {"ios": "https://dc.lft.to/lastmile_qr_scan", "android": "https://dc.lft.to/lastmile_qr_scan"}, "is_reserved": 0}, {"lon": -77.029653, "bike_id": "79965449fb430e5119ad5637bc38a8e4", "lat": 38.91688116666667, "fusion_lon": 0.0, "fusion_lat": 0.0, "type": "electric_scooter", "name": "79965449fb430e5119ad5637bc38a8e4", "is_disabled": 0, "rental_uris": {"ios": "https://dc.lft.to/lastmile_qr_scan", "android": "https://dc.lft.to/lastmile_qr_scan"}, "is_reserved": 0}, {"lon": -77.0456865, "bike_id": "2e167f1d84c600dbc2895596f7126baa", "lat": 38.92122616666666, "fusion_lon": 0.0, "fusion_lat": 0.0, "type": "electric_scooter", "name": "2e167f1d84c600dbc2895596f7126baa", "is_disabled": 0, "rental_uris": {"ios": "https://dc.lft.to/lastmile_qr_scan", "android": "https://dc.lft.to/lastmile_qr_scan"}, "is_reserved": 0}, {"lon": -77.033028, "bike_id": "c1f96bcf1c1acace1afee1a8c4ead6b2", "lat": 38.92349883333333, "fusion_lon": 0.0, "fusion_lat": 0.0, "type": "electric_scooter", "name": "c1f96bcf1c1acace1afee1a8c4ead6b2", "is_disabled": 0, "rental_uris": {"ios": "https://dc.lft.to/lastmile_qr_scan", "android": "https://dc.lft.to/lastmile_qr_scan"}, "is_reserved": 0}, {"lon": -77.00051783333333, "bike_id": "a9b816c44543c0635869ce52dee65df0", "lat": 38.87655983333333, "fusion_lon": 0.0, "fusion_lat": 0.0, "type": "electric_scooter", "name": "a9b816c44543c0635869ce52dee65df0", "is_disabled": 0, "rental_uris": {"ios": "https://dc.lft.to/lastmile_qr_scan", "android": "https://dc.lft.to/lastmile_qr_scan"}, "is_reserved": 0}, {"lon": -77.03833583333333, "bike_id": "b5718e3cf7a3b552f10186361af3784d", "lat": 38.90359316666667, "fusion_lon": 0.0, "fusion_lat": 0.0, "type": "electric_scooter", "name": "b5718e3cf7a3b552f10186361af3784d", "is_disabled": 0, "rental_uris": {"ios": "https://dc.lft.to/lastmile_qr_scan", "android": "https://dc.lft.to/lastmile_qr_scan"}, "is_reserved": 0}, {"lon": -76.93734116666667, "bike_id": "00864b2cce2b641dcebab5664723ef2d", "lat": 38.89011766666667, "fusion_lon": 0.0, "fusion_lat": 0.0, "type": "electric_scooter", "name": "00864b2cce2b641dcebab5664723ef2d", "is_disabled": 0, "rental_uris": {"ios": "https://dc.lft.to/lastmile_qr_scan", "android": "https://dc.lft.to/lastmile_qr_scan"}, "is_reserved": 0}, {"lon": -77.02469766666667, "bike_id": "5a58309958b6f93c3606cbe277f49458", "lat": 38.93878, "fusion_lon": 0.0, "fusion_lat": 0.0, "type": "electric_scooter", "name": "5a58309958b6f93c3606cbe277f49458", "is_disabled": 0, "rental_uris": {"ios": "https://dc.lft.to/lastmile_qr_scan", "android": "https://dc.lft.to/lastmile_qr_scan"}, "is_reserved": 0}, {"lon": -77.06478616666666, "bike_id": "817cf61bf45a57da64c2ec3f39839dae", "lat": 38.9465285, "fusion_lon": 0.0, "fusion_lat": 0.0, "type": "electric_scooter", "name": "817cf61bf45a57da64c2ec3f39839dae", "is_disabled": 0, "rental_uris": {"ios": "https://dc.lft.to/lastmile_qr_scan", "android": "https://dc.lft.to/lastmile_qr_scan"}, "is_reserved": 0}, {"lon": -76.98689533333334, "bike_id": "4d8702e4c6588d704c875093ea067ddb", "lat": 38.862518, "fusion_lon": 0.0, "fusion_lat": 0.0, "type": "electric_scooter", "name": "4d8702e4c6588d704c875093ea067ddb", "is_disabled": 0, "rental_uris": {"ios": "https://dc.lft.to/lastmile_qr_scan", "android": "https://dc.lft.to/lastmile_qr_scan"}, "is_reserved": 0}, {"lon": -76.9760675, "bike_id": "a8413c4d2c4332074d1849654aa8d22c", "lat": 38.905699, "fusion_lon": 0.0, "fusion_lat": 0.0, "type": "electric_scooter", "name": "a8413c4d2c4332074d1849654aa8d22c", "is_disabled": 0, "rental_uris": {"ios": "https://dc.lft.to/lastmile_qr_scan", "android": "https://dc.lft.to/lastmile_qr_scan"}, "is_reserved": 0}, {"lon": -77.00109366666666, "bike_id": "acebc8ebc92e802528196c2380fa8aad", "lat": 38.900070166666666, "fusion_lon": 0.0, "fusion_lat": 0.0, "type": "electric_scooter", "name": "acebc8ebc92e802528196c2380fa8aad", "is_disabled": 0, "rental_uris": {"ios": "https://dc.lft.to/lastmile_qr_scan", "android": "https://dc.lft.to/lastmile_qr_scan"}, "is_reserved": 0}, {"lon": -77.03412666666667, "bike_id": "5606d26bdc413299be41d2eb99a1d184", "lat": 38.9039205, "fusion_lon": 0.0, "fusion_lat": 0.0, "type": "electric_bike", "name": "5606d26bdc413299be41d2eb99a1d184", "is_disabled": 0, "rental_uris": {"ios": "https://dc.lft.to/lastmile_qr_scan", "android": "https://dc.lft.to/lastmile_qr_scan"}, "is_reserved": 0}, {"lon": -77.02279283333333, "bike_id": "8d20c1c4a8f851fcdb4e625967fd1c53", "lat": 38.916544, "fusion_lon": 0.0, "fusion_lat": 0.0, "type": "electric_scooter", "name": "8d20c1c4a8f851fcdb4e625967fd1c53", "is_disabled": 0, "rental_uris": {"ios": "https://dc.lft.to/lastmile_qr_scan", "android": "https://dc.lft.to/lastmile_qr_scan"}, "is_reserved": 0}, {"lon": -77.005307, "bike_id": "7e8aba4198482b06b884874cda537144", "lat": 38.92975366666667, "fusion_lon": 0.0, "fusion_lat": 0.0, "type": "electric_scooter", "name": "7e8aba4198482b06b884874cda537144", "is_disabled": 0, "rental_uris": {"ios": "https://dc.lft.to/lastmile_qr_scan", "android": "https://dc.lft.to/lastmile_qr_scan"}, "is_reserved": 0}, {"lon": -77.02643366666666, "bike_id": "38fb79cfe880d5b3149409cec2bd47c3", "lat": 38.8922, "fusion_lon": 0.0, "fusion_lat": 0.0, "type": "electric_scooter", "name": "38fb79cfe880d5b3149409cec2bd47c3", "is_disabled": 0, "rental_uris": {"ios": "https://dc.lft.to/lastmile_qr_scan", "android": "https://dc.lft.to/lastmile_qr_scan"}, "is_reserved": 0}, {"lon": -77.04658466666666, "bike_id": "8f11d845d00c30468c7d81c74630491b", "lat": 38.90972416666666, "fusion_lon": 0.0, "fusion_lat": 0.0, "type": "electric_scooter", "name": "8f11d845d00c30468c7d81c74630491b", "is_disabled": 0, "rental_uris": {"ios": "https://dc.lft.to/lastmile_qr_scan", "android": "https://dc.lft.to/lastmile_qr_scan"}, "is_reserved": 0}, {"lon": -77.00207, "bike_id": "b3427be5cc828a21294e1514f248a798", "lat": 38.89542733333333, "fusion_lon": 0.0, "fusion_lat": 0.0, "type": "electric_scooter", "name": "b3427be5cc828a21294e1514f248a798", "is_disabled": 0, "rental_uris": {"ios": "https://dc.lft.to/lastmile_qr_scan", "android": "https://dc.lft.to/lastmile_qr_scan"}, "is_reserved": 0}, {"lon": -77.03444933333333, "bike_id": "d9799df57e07cdcae18676a2ce595fb2", "lat": 38.91744883333333, "fusion_lon": 0.0, "fusion_lat": 0.0, "type": "electric_scooter", "name": "d9799df57e07cdcae18676a2ce595fb2", "is_disabled": 0, "rental_uris": {"ios": "https://dc.lft.to/lastmile_qr_scan", "android": "https://dc.lft.to/lastmile_qr_scan"}, "is_reserved": 0}, {"lon": -77.028277, "bike_id": "b2df5fb2e20b8c2df71d1e841d162e7c", "lat": 38.88732316666667, "fusion_lon": 0.0, "fusion_lat": 0.0, "type": "electric_scooter", "name": "b2df5fb2e20b8c2df71d1e841d162e7c", "is_disabled": 0, "rental_uris": {"ios": "https://dc.lft.to/lastmile_qr_scan", "android": "https://dc.lft.to/lastmile_qr_scan"}, "is_reserved": 0}, {"lon": -77.03851216666666, "bike_id": "7a8daebbed8f8c78b9e0782e4d5debb4", "lat": 38.932004666666664, "fusion_lon": 0.0, "fusion_lat": 0.0, "type": "electric_scooter", "name": "7a8daebbed8f8c78b9e0782e4d5debb4", "is_disabled": 0, "rental_uris": {"ios": "https://dc.lft.to/lastmile_qr_scan", "android": "https://dc.lft.to/lastmile_qr_scan"}, "is_reserved": 0}, {"lon": -77.0400415, "bike_id": "104e851204272b94719f871558faa199", "lat": 38.9100465, "fusion_lon": 0.0, "fusion_lat": 0.0, "type": "electric_scooter", "name": "104e851204272b94719f871558faa199", "is_disabled": 0, "rental_uris": {"ios": "https://dc.lft.to/lastmile_qr_scan", "android": "https://dc.lft.to/lastmile_qr_scan"}, "is_reserved": 0}, {"lon": -77.0320555, "bike_id": "1094e6863955bd3b1e92739b2fcfa114", "lat": 38.93965733333334, "fusion_lon": 0.0, "fusion_lat": 0.0, "type": "electric_scooter", "name": "1094e6863955bd3b1e92739b2fcfa114", "is_disabled": 0, "rental_uris": {"ios": "https://dc.lft.to/lastmile_qr_scan", "android": "https://dc.lft.to/lastmile_qr_scan"}, "is_reserved": 0}, {"lon": -77.02796183333334, "bike_id": "22d6aa3857764300ec1c49fe318e3216", "lat": 38.935371833333335, "fusion_lon": 0.0, "fusion_lat": 0.0, "type": "electric_scooter", "name": "22d6aa3857764300ec1c49fe318e3216", "is_disabled": 0, "rental_uris": {"ios": "https://dc.lft.to/lastmile_qr_scan", "android": "https://dc.lft.to/lastmile_qr_scan"}, "is_reserved": 0}, {"lon": -77.02918416666667, "bike_id": "3355da32f0bad3dc07b7ba2fdaffe8a0", "lat": 38.923688166666665, "fusion_lon": 0.0, "fusion_lat": 0.0, "type": "electric_scooter", "name": "3355da32f0bad3dc07b7ba2fdaffe8a0", "is_disabled": 0, "rental_uris": {"ios": "https://dc.lft.to/lastmile_qr_scan", "android": "https://dc.lft.to/lastmile_qr_scan"}, "is_reserved": 0}, {"lon": -77.02093733333334, "bike_id": "54b3fb3ae1ce1365796e9d650cb53076", "lat": 38.901468666666666, "fusion_lon": 0.0, "fusion_lat": 0.0, "type": "electric_scooter", "name": "54b3fb3ae1ce1365796e9d650cb53076", "is_disabled": 0, "rental_uris": {"ios": "https://dc.lft.to/lastmile_qr_scan", "android": "https://dc.lft.to/lastmile_qr_scan"}, "is_reserved": 0}, {"lon": -77.03186683333334, "bike_id": "69ed790f4cbdd055d251080c09523c1d", "lat": 38.915564333333336, "fusion_lon": 0.0, "fusion_lat": 0.0, "type": "electric_scooter", "name": "69ed790f4cbdd055d251080c09523c1d", "is_disabled": 0, "rental_uris": {"ios": "https://dc.lft.to/lastmile_qr_scan", "android": "https://dc.lft.to/lastmile_qr_scan"}, "is_reserved": 0}, {"lon": -77.04419566666667, "bike_id": "a760fe7db9747255ddecf2fb4d6f13bf", "lat": 38.92121383333333, "fusion_lon": 0.0, "fusion_lat": 0.0, "type": "electric_scooter", "name": "a760fe7db9747255ddecf2fb4d6f13bf", "is_disabled": 0, "rental_uris": {"ios": "https://dc.lft.to/lastmile_qr_scan", "android": "https://dc.lft.to/lastmile_qr_scan"}, "is_reserved": 0}, {"lon": -77.01403966666666, "bike_id": "012f9aa957ba6985917ccf84988dac99", "lat": 38.928595333333334, "fusion_lon": 0.0, "fusion_lat": 0.0, "type": "electric_scooter", "name": "012f9aa957ba6985917ccf84988dac99", "is_disabled": 0, "rental_uris": {"ios": "https://dc.lft.to/lastmile_qr_scan", "android": "https://dc.lft.to/lastmile_qr_scan"}, "is_reserved": 0}, {"lon": -77.04441083333333, "bike_id": "0f7753172d68d692b174160997217a26", "lat": 38.921625166666665, "fusion_lon": 0.0, "fusion_lat": 0.0, "type": "electric_scooter", "name": "0f7753172d68d692b174160997217a26", "is_disabled": 0, "rental_uris": {"ios": "https://dc.lft.to/lastmile_qr_scan", "android": "https://dc.lft.to/lastmile_qr_scan"}, "is_reserved": 0}, {"lon": -76.97725666666666, "bike_id": "af11991baa8bcfb15619f5ae348de160", "lat": 38.8728875, "fusion_lon": 0.0, "fusion_lat": 0.0, "type": "electric_scooter", "name": "af11991baa8bcfb15619f5ae348de160", "is_disabled": 0, "rental_uris": {"ios": "https://dc.lft.to/lastmile_qr_scan", "android": "https://dc.lft.to/lastmile_qr_scan"}, "is_reserved": 0}, {"lon": -77.04864533333334, "bike_id": "60e3cbb96c097505fb6a2afa02bcad9a", "lat": 38.8922225, "fusion_lon": 0.0, "fusion_lat": 0.0, "type": "electric_scooter", "name": "60e3cbb96c097505fb6a2afa02bcad9a", "is_disabled": 0, "rental_uris": {"ios": "https://dc.lft.to/lastmile_qr_scan", "android": "https://dc.lft.to/lastmile_qr_scan"}, "is_reserved": 0}, {"lon": -77.06280466666666, "bike_id": "04273563b5cf00c002f887a578207cc2", "lat": 38.90616383333333, "fusion_lon": 0.0, "fusion_lat": 0.0, "type": "electric_scooter", "name": "04273563b5cf00c002f887a578207cc2", "is_disabled": 0, "rental_uris": {"ios": "https://dc.lft.to/lastmile_qr_scan", "android": "https://dc.lft.to/lastmile_qr_scan"}, "is_reserved": 0}, {"lon": -77.0165645, "bike_id": "3692c0f00774a20896dc89004b7b3528", "lat": 38.87706133333333, "fusion_lon": 0.0, "fusion_lat": 0.0, "type": "electric_scooter", "name": "3692c0f00774a20896dc89004b7b3528", "is_disabled": 0, "rental_uris": {"ios": "https://dc.lft.to/lastmile_qr_scan", "android": "https://dc.lft.to/lastmile_qr_scan"}, "is_reserved": 0}, {"lon": -77.019955, "bike_id": "9339f0d9481b9547d1911acf7d31071e", "lat": 38.966276, "fusion_lon": 0.0, "fusion_lat": 0.0, "type": "electric_scooter", "name": "9339f0d9481b9547d1911acf7d31071e", "is_disabled": 0, "rental_uris": {"ios": "https://dc.lft.to/lastmile_qr_scan", "android": "https://dc.lft.to/lastmile_qr_scan"}, "is_reserved": 0}, {"lon": -77.02201833333334, "bike_id": "041e34b90007db9604ad86c95b499f9e", "lat": 38.905448166666666, "fusion_lon": 0.0, "fusion_lat": 0.0, "type": "electric_scooter", "name": "041e34b90007db9604ad86c95b499f9e", "is_disabled": 0, "rental_uris": {"ios": "https://dc.lft.to/lastmile_qr_scan", "android": "https://dc.lft.to/lastmile_qr_scan"}, "is_reserved": 0}, {"lon": -77.03625283333334, "bike_id": "47af76ac9d93529140b6a9ebd6c44e39", "lat": 38.91691266666667, "fusion_lon": 0.0, "fusion_lat": 0.0, "type": "electric_scooter", "name": "47af76ac9d93529140b6a9ebd6c44e39", "is_disabled": 0, "rental_uris": {"ios": "https://dc.lft.to/lastmile_qr_scan", "android": "https://dc.lft.to/lastmile_qr_scan"}, "is_reserved": 0}, {"lon": -77.03621616666666, "bike_id": "68244c78c4ebdcd3c2759bfa9e3c71df", "lat": 38.93674883333333, "fusion_lon": 0.0, "fusion_lat": 0.0, "type": "electric_scooter", "name": "68244c78c4ebdcd3c2759bfa9e3c71df", "is_disabled": 0, "rental_uris": {"ios": "https://dc.lft.to/lastmile_qr_scan", "android": "https://dc.lft.to/lastmile_qr_scan"}, "is_reserved": 0}, {"lon": -77.03183366666667, "bike_id": "1e53a004894c8f4a6485b306c0391554", "lat": 38.91329066666667, "fusion_lon": 0.0, "fusion_lat": 0.0, "type": "electric_scooter", "name": "1e53a004894c8f4a6485b306c0391554", "is_disabled": 0, "rental_uris": {"ios": "https://dc.lft.to/lastmile_qr_scan", "android": "https://dc.lft.to/lastmile_qr_scan"}, "is_reserved": 0}, {"lon": -77.0280485, "bike_id": "3bb61bff31898451c81a706e26b5d736", "lat": 38.881844666666666, "fusion_lon": 0.0, "fusion_lat": 0.0, "type": "electric_scooter", "name": "3bb61bff31898451c81a706e26b5d736", "is_disabled": 0, "rental_uris": {"ios": "https://dc.lft.to/lastmile_qr_scan", "android": "https://dc.lft.to/lastmile_qr_scan"}, "is_reserved": 0}, {"lon": -77.0186895, "bike_id": "3bb314bed19a9b66c0f9b7cdd506e397", "lat": 38.898528, "fusion_lon": 0.0, "fusion_lat": 0.0, "type": "electric_scooter", "name": "3bb314bed19a9b66c0f9b7cdd506e397", "is_disabled": 0, "rental_uris": {"ios": "https://dc.lft.to/lastmile_qr_scan", "android": "https://dc.lft.to/lastmile_qr_scan"}, "is_reserved": 0}, {"lon": -76.9846655, "bike_id": "71cc26bd95b9bc7fb0de1bb84db59d3b", "lat": 38.903998666666666, "fusion_lon": 0.0, "fusion_lat": 0.0, "type": "electric_scooter", "name": "71cc26bd95b9bc7fb0de1bb84db59d3b", "is_disabled": 0, "rental_uris": {"ios": "https://dc.lft.to/lastmile_qr_scan", "android": "https://dc.lft.to/lastmile_qr_scan"}, "is_reserved": 0}, {"lon": -77.0276345, "bike_id": "e8c59cbb17aa9e8151965c37318aa9fa", "lat": 38.954283833333335, "fusion_lon": 0.0, "fusion_lat": 0.0, "type": "electric_scooter", "name": "e8c59cbb17aa9e8151965c37318aa9fa", "is_disabled": 0, "rental_uris": {"ios": "https://dc.lft.to/lastmile_qr_scan", "android": "https://dc.lft.to/lastmile_qr_scan"}, "is_reserved": 0}, {"lon": -77.01516183333334, "bike_id": "dd19c6b09420111b04996f80455847e5", "lat": 38.926667, "fusion_lon": 0.0, "fusion_lat": 0.0, "type": "electric_scooter", "name": "dd19c6b09420111b04996f80455847e5", "is_disabled": 0, "rental_uris": {"ios": "https://dc.lft.to/lastmile_qr_scan", "android": "https://dc.lft.to/lastmile_qr_scan"}, "is_reserved": 0}, {"lon": -76.989406, "bike_id": "36327bef8ba3edd741b3c3c032096c3b", "lat": 38.91841316666667, "fusion_lon": 0.0, "fusion_lat": 0.0, "type": "electric_scooter", "name": "36327bef8ba3edd741b3c3c032096c3b", "is_disabled": 0, "rental_uris": {"ios": "https://dc.lft.to/lastmile_qr_scan", "android": "https://dc.lft.to/lastmile_qr_scan"}, "is_reserved": 0}, {"lon": -77.04333966666667, "bike_id": "d831a2f1834e78a46b4a02eb46ec867b", "lat": 38.907976833333336, "fusion_lon": 0.0, "fusion_lat": 0.0, "type": "electric_scooter", "name": "d831a2f1834e78a46b4a02eb46ec867b", "is_disabled": 0, "rental_uris": {"ios": "https://dc.lft.to/lastmile_qr_scan", "android": "https://dc.lft.to/lastmile_qr_scan"}, "is_reserved": 0}, {"lon": -77.0513255, "bike_id": "5af35457c8ccb5825bc196eef1baed3f", "lat": 38.898695333333336, "fusion_lon": 0.0, "fusion_lat": 0.0, "type": "electric_scooter", "name": "5af35457c8ccb5825bc196eef1baed3f", "is_disabled": 0, "rental_uris": {"ios": "https://dc.lft.to/lastmile_qr_scan", "android": "https://dc.lft.to/lastmile_qr_scan"}, "is_reserved": 0}, {"lon": -77.01943516666667, "bike_id": "d565df5a0e329ab6cf75cbbc79e1f540", "lat": 38.92416983333333, "fusion_lon": 0.0, "fusion_lat": 0.0, "type": "electric_scooter", "name": "d565df5a0e329ab6cf75cbbc79e1f540", "is_disabled": 0, "rental_uris": {"ios": "https://dc.lft.to/lastmile_qr_scan", "android": "https://dc.lft.to/lastmile_qr_scan"}, "is_reserved": 0}, {"lon": -77.02146433333333, "bike_id": "317a31e728674c4e15086a8e2e3c91a9", "lat": 38.8940695, "fusion_lon": 0.0, "fusion_lat": 0.0, "type": "electric_scooter", "name": "317a31e728674c4e15086a8e2e3c91a9", "is_disabled": 0, "rental_uris": {"ios": "https://dc.lft.to/lastmile_qr_scan", "android": "https://dc.lft.to/lastmile_qr_scan"}, "is_reserved": 0}, {"lon": -77.0128615, "bike_id": "5565b25eed58c054d30f77627ac3a55d", "lat": 38.91039133333334, "fusion_lon": 0.0, "fusion_lat": 0.0, "type": "electric_scooter", "name": "5565b25eed58c054d30f77627ac3a55d", "is_disabled": 0, "rental_uris": {"ios": "https://dc.lft.to/lastmile_qr_scan", "android": "https://dc.lft.to/lastmile_qr_scan"}, "is_reserved": 0}, {"lon": -77.0499525, "bike_id": "c1b1f2f508d43d30c8736e95fe7e2f25", "lat": 38.89232883333333, "fusion_lon": 0.0, "fusion_lat": 0.0, "type": "electric_scooter", "name": "c1b1f2f508d43d30c8736e95fe7e2f25", "is_disabled": 0, "rental_uris": {"ios": "https://dc.lft.to/lastmile_qr_scan", "android": "https://dc.lft.to/lastmile_qr_scan"}, "is_reserved": 0}, {"lon": -77.0318485, "bike_id": "00a39e79e8abbb3e3f35169b9e2c839b", "lat": 38.91560616666666, "fusion_lon": 0.0, "fusion_lat": 0.0, "type": "electric_scooter", "name": "00a39e79e8abbb3e3f35169b9e2c839b", "is_disabled": 0, "rental_uris": {"ios": "https://dc.lft.to/lastmile_qr_scan", "android": "https://dc.lft.to/lastmile_qr_scan"}, "is_reserved": 0}, {"lon": -77.050179, "bike_id": "47f33b4238477d04dfdec110649622c0", "lat": 38.90190316666666, "fusion_lon": 0.0, "fusion_lat": 0.0, "type": "electric_scooter", "name": "47f33b4238477d04dfdec110649622c0", "is_disabled": 0, "rental_uris": {"ios": "https://dc.lft.to/lastmile_qr_scan", "android": "https://dc.lft.to/lastmile_qr_scan"}, "is_reserved": 0}, {"lon": -77.03775466666667, "bike_id": "cb4da4505667cab42f25f67833b23c08", "lat": 38.92966466666667, "fusion_lon": 0.0, "fusion_lat": 0.0, "type": "electric_scooter", "name": "cb4da4505667cab42f25f67833b23c08", "is_disabled": 0, "rental_uris": {"ios": "https://dc.lft.to/lastmile_qr_scan", "android": "https://dc.lft.to/lastmile_qr_scan"}, "is_reserved": 0}, {"lon": -77.03656166666667, "bike_id": "808dfc0c9051e0e2e4da2a677d2fa5b4", "lat": 38.918669666666666, "fusion_lon": 0.0, "fusion_lat": 0.0, "type": "electric_scooter", "name": "808dfc0c9051e0e2e4da2a677d2fa5b4", "is_disabled": 0, "rental_uris": {"ios": "https://dc.lft.to/lastmile_qr_scan", "android": "https://dc.lft.to/lastmile_qr_scan"}, "is_reserved": 0}, {"lon": -77.02341, "bike_id": "ffa5ed96f66402e69c028585b5773c11", "lat": 38.85991833333333, "fusion_lon": 0.0, "fusion_lat": 0.0, "type": "electric_scooter", "name": "ffa5ed96f66402e69c028585b5773c11", "is_disabled": 0, "rental_uris": {"ios": "https://dc.lft.to/lastmile_qr_scan", "android": "https://dc.lft.to/lastmile_qr_scan"}, "is_reserved": 0}, {"lon": -77.0258265, "bike_id": "e67e0010b06e49944441d433165db577", "lat": 38.9049665, "fusion_lon": 0.0, "fusion_lat": 0.0, "type": "electric_scooter", "name": "e67e0010b06e49944441d433165db577", "is_disabled": 0, "rental_uris": {"ios": "https://dc.lft.to/lastmile_qr_scan", "android": "https://dc.lft.to/lastmile_qr_scan"}, "is_reserved": 0}, {"lon": -77.01015133333334, "bike_id": "0f3d96f0396cd03a59e2e297c1b4c145", "lat": 38.908537833333334, "fusion_lon": 0.0, "fusion_lat": 0.0, "type": "electric_scooter", "name": "0f3d96f0396cd03a59e2e297c1b4c145", "is_disabled": 0, "rental_uris": {"ios": "https://dc.lft.to/lastmile_qr_scan", "android": "https://dc.lft.to/lastmile_qr_scan"}, "is_reserved": 0}, {"lon": -77.02263733333334, "bike_id": "1d4ca2dff529ef975cc0143530be546e", "lat": 38.92740366666666, "fusion_lon": 0.0, "fusion_lat": 0.0, "type": "electric_scooter", "name": "1d4ca2dff529ef975cc0143530be546e", "is_disabled": 0, "rental_uris": {"ios": "https://dc.lft.to/lastmile_qr_scan", "android": "https://dc.lft.to/lastmile_qr_scan"}, "is_reserved": 0}, {"lon": -77.032301, "bike_id": "7d8f1a2e512ac032ca366c4f68a8f51a", "lat": 38.92747466666667, "fusion_lon": 0.0, "fusion_lat": 0.0, "type": "electric_scooter", "name": "7d8f1a2e512ac032ca366c4f68a8f51a", "is_disabled": 0, "rental_uris": {"ios": "https://dc.lft.to/lastmile_qr_scan", "android": "https://dc.lft.to/lastmile_qr_scan"}, "is_reserved": 0}, {"lon": -77.03941083333333, "bike_id": "be1b0afbb39d1c2743cab5ce7427030d", "lat": 38.915659833333336, "fusion_lon": 0.0, "fusion_lat": 0.0, "type": "electric_scooter", "name": "be1b0afbb39d1c2743cab5ce7427030d", "is_disabled": 0, "rental_uris": {"ios": "https://dc.lft.to/lastmile_qr_scan", "android": "https://dc.lft.to/lastmile_qr_scan"}, "is_reserved": 0}, {"lon": -76.9806265, "bike_id": "0d154724e2db292f14f2a0a051d3c74c", "lat": 38.884950333333336, "fusion_lon": 0.0, "fusion_lat": 0.0, "type": "electric_scooter", "name": "0d154724e2db292f14f2a0a051d3c74c", "is_disabled": 0, "rental_uris": {"ios": "https://dc.lft.to/lastmile_qr_scan", "android": "https://dc.lft.to/lastmile_qr_scan"}, "is_reserved": 0}, {"lon": -77.08804933333333, "bike_id": "037fcca916c5e64b4b52eb5493777e84", "lat": 38.91176383333333, "fusion_lon": 0.0, "fusion_lat": 0.0, "type": "electric_scooter", "name": "037fcca916c5e64b4b52eb5493777e84", "is_disabled": 0, "rental_uris": {"ios": "https://dc.lft.to/lastmile_qr_scan", "android": "https://dc.lft.to/lastmile_qr_scan"}, "is_reserved": 0}, {"lon": -77.02446916666666, "bike_id": "8d0106a77ac87ad8ecb4373ebb14d6a5", "lat": 38.91885383333333, "fusion_lon": 0.0, "fusion_lat": 0.0, "type": "electric_scooter", "name": "8d0106a77ac87ad8ecb4373ebb14d6a5", "is_disabled": 0, "rental_uris": {"ios": "https://dc.lft.to/lastmile_qr_scan", "android": "https://dc.lft.to/lastmile_qr_scan"}, "is_reserved": 0}, {"lon": -77.0261215, "bike_id": "66995bedd59e46f8e2cd539f28d107be", "lat": 38.91692116666667, "fusion_lon": 0.0, "fusion_lat": 0.0, "type": "electric_scooter", "name": "66995bedd59e46f8e2cd539f28d107be", "is_disabled": 0, "rental_uris": {"ios": "https://dc.lft.to/lastmile_qr_scan", "android": "https://dc.lft.to/lastmile_qr_scan"}, "is_reserved": 0}, {"lon": -77.00312666666666, "bike_id": "e1fafb15580d5b0aa19d791b8edf83a6", "lat": 38.90913366666667, "fusion_lon": 0.0, "fusion_lat": 0.0, "type": "electric_scooter", "name": "e1fafb15580d5b0aa19d791b8edf83a6", "is_disabled": 0, "rental_uris": {"ios": "https://dc.lft.to/lastmile_qr_scan", "android": "https://dc.lft.to/lastmile_qr_scan"}, "is_reserved": 0}, {"lon": -76.9950035, "bike_id": "f9b3a4fd50c14da6db120b8047531b36", "lat": 38.88255816666667, "fusion_lon": 0.0, "fusion_lat": 0.0, "type": "electric_scooter", "name": "f9b3a4fd50c14da6db120b8047531b36", "is_disabled": 0, "rental_uris": {"ios": "https://dc.lft.to/lastmile_qr_scan", "android": "https://dc.lft.to/lastmile_qr_scan"}, "is_reserved": 0}, {"lon": -76.97396283333333, "bike_id": "a320d3dc5f3d5504af8fe6789ecb645e", "lat": 38.90298083333333, "fusion_lon": 0.0, "fusion_lat": 0.0, "type": "electric_scooter", "name": "a320d3dc5f3d5504af8fe6789ecb645e", "is_disabled": 0, "rental_uris": {"ios": "https://dc.lft.to/lastmile_qr_scan", "android": "https://dc.lft.to/lastmile_qr_scan"}, "is_reserved": 0}, {"lon": -76.94585616666667, "bike_id": "54076f0d1d67ea81109f68732e219afb", "lat": 38.90152783333333, "fusion_lon": 0.0, "fusion_lat": 0.0, "type": "electric_scooter", "name": "54076f0d1d67ea81109f68732e219afb", "is_disabled": 0, "rental_uris": {"ios": "https://dc.lft.to/lastmile_qr_scan", "android": "https://dc.lft.to/lastmile_qr_scan"}, "is_reserved": 0}, {"lon": -76.98916483333333, "bike_id": "dfbaab03cdc2ade698bffd710bb13b76", "lat": 38.864933, "fusion_lon": 0.0, "fusion_lat": 0.0, "type": "electric_scooter", "name": "dfbaab03cdc2ade698bffd710bb13b76", "is_disabled": 0, "rental_uris": {"ios": "https://dc.lft.to/lastmile_qr_scan", "android": "https://dc.lft.to/lastmile_qr_scan"}, "is_reserved": 0}, {"lon": -77.0303165, "bike_id": "ddedfa6c45f39cdcca27908f3877baa2", "lat": 38.93712716666667, "fusion_lon": 0.0, "fusion_lat": 0.0, "type": "electric_scooter", "name": "ddedfa6c45f39cdcca27908f3877baa2", "is_disabled": 0, "rental_uris": {"ios": "https://dc.lft.to/lastmile_qr_scan", "android": "https://dc.lft.to/lastmile_qr_scan"}, "is_reserved": 0}, {"lon": -77.03996066666667, "bike_id": "f59a2db17c58045c0d75785f45047ba0", "lat": 38.934276833333335, "fusion_lon": 0.0, "fusion_lat": 0.0, "type": "electric_scooter", "name": "f59a2db17c58045c0d75785f45047ba0", "is_disabled": 0, "rental_uris": {"ios": "https://dc.lft.to/lastmile_qr_scan", "android": "https://dc.lft.to/lastmile_qr_scan"}, "is_reserved": 0}, {"lon": -77.090387, "bike_id": "b8acc9f8a92672f5f63321ab320c34f2", "lat": 38.849698333333336, "fusion_lon": 0.0, "fusion_lat": 0.0, "type": "electric_bike", "name": "b8acc9f8a92672f5f63321ab320c34f2", "is_disabled": 0, "rental_uris": {"ios": "https://dc.lft.to/lastmile_qr_scan", "android": "https://dc.lft.to/lastmile_qr_scan"}, "is_reserved": 0}, {"lon": -77.02434266666667, "bike_id": "4cb8bb4a37eb832bf273172563c9b23c", "lat": 38.937009833333335, "fusion_lon": 0.0, "fusion_lat": 0.0, "type": "electric_scooter", "name": "4cb8bb4a37eb832bf273172563c9b23c", "is_disabled": 0, "rental_uris": {"ios": "https://dc.lft.to/lastmile_qr_scan", "android": "https://dc.lft.to/lastmile_qr_scan"}, "is_reserved": 0}, {"lon": -77.07411133333333, "bike_id": "415929d3e26b86e9c517854eec5e5c12", "lat": 38.928857666666666, "fusion_lon": 0.0, "fusion_lat": 0.0, "type": "electric_scooter", "name": "415929d3e26b86e9c517854eec5e5c12", "is_disabled": 0, "rental_uris": {"ios": "https://dc.lft.to/lastmile_qr_scan", "android": "https://dc.lft.to/lastmile_qr_scan"}, "is_reserved": 0}, {"lon": -77.02631416666667, "bike_id": "2e99301c2155ca938d40a3bdcd257b09", "lat": 38.90094916666666, "fusion_lon": 0.0, "fusion_lat": 0.0, "type": "electric_scooter", "name": "2e99301c2155ca938d40a3bdcd257b09", "is_disabled": 0, "rental_uris": {"ios": "https://dc.lft.to/lastmile_qr_scan", "android": "https://dc.lft.to/lastmile_qr_scan"}, "is_reserved": 0}, {"lon": -77.032438, "bike_id": "85d187475189a23e6fa722bb3862e375", "lat": 38.927701666666664, "fusion_lon": 0.0, "fusion_lat": 0.0, "type": "electric_scooter", "name": "85d187475189a23e6fa722bb3862e375", "is_disabled": 0, "rental_uris": {"ios": "https://dc.lft.to/lastmile_qr_scan", "android": "https://dc.lft.to/lastmile_qr_scan"}, "is_reserved": 0}, {"lon": -76.99704133333333, "bike_id": "9bd5eb59a5b9edcb6773d677fd2efd11", "lat": 38.844277, "fusion_lon": 0.0, "fusion_lat": 0.0, "type": "electric_scooter", "name": "9bd5eb59a5b9edcb6773d677fd2efd11", "is_disabled": 0, "rental_uris": {"ios": "https://dc.lft.to/lastmile_qr_scan", "android": "https://dc.lft.to/lastmile_qr_scan"}, "is_reserved": 0}, {"lon": -77.01768966666667, "bike_id": "44ab06f9c9f4afc16fcb820f89c98465", "lat": 38.881956833333334, "fusion_lon": 0.0, "fusion_lat": 0.0, "type": "electric_scooter", "name": "44ab06f9c9f4afc16fcb820f89c98465", "is_disabled": 0, "rental_uris": {"ios": "https://dc.lft.to/lastmile_qr_scan", "android": "https://dc.lft.to/lastmile_qr_scan"}, "is_reserved": 0}, {"lon": -77.03163066666667, "bike_id": "8b8d23742224d4d344ff0ea5f06a5d5a", "lat": 38.89223633333334, "fusion_lon": 0.0, "fusion_lat": 0.0, "type": "electric_scooter", "name": "8b8d23742224d4d344ff0ea5f06a5d5a", "is_disabled": 0, "rental_uris": {"ios": "https://dc.lft.to/lastmile_qr_scan", "android": "https://dc.lft.to/lastmile_qr_scan"}, "is_reserved": 0}, {"lon": -77.00537116666666, "bike_id": "b3001aaab65ab103f469e8ff83a15759", "lat": 38.87546866666667, "fusion_lon": 0.0, "fusion_lat": 0.0, "type": "electric_scooter", "name": "b3001aaab65ab103f469e8ff83a15759", "is_disabled": 0, "rental_uris": {"ios": "https://dc.lft.to/lastmile_qr_scan", "android": "https://dc.lft.to/lastmile_qr_scan"}, "is_reserved": 0}, {"lon": -77.02961583333334, "bike_id": "825c28bf7f292fa576ca52e75abfc5a2", "lat": 38.922896, "fusion_lon": 0.0, "fusion_lat": 0.0, "type": "electric_scooter", "name": "825c28bf7f292fa576ca52e75abfc5a2", "is_disabled": 0, "rental_uris": {"ios": "https://dc.lft.to/lastmile_qr_scan", "android": "https://dc.lft.to/lastmile_qr_scan"}, "is_reserved": 0}, {"lon": -76.9788995, "bike_id": "ccf4e278ecefd70eac64561a664d2660", "lat": 38.885406333333336, "fusion_lon": 0.0, "fusion_lat": 0.0, "type": "electric_scooter", "name": "ccf4e278ecefd70eac64561a664d2660", "is_disabled": 0, "rental_uris": {"ios": "https://dc.lft.to/lastmile_qr_scan", "android": "https://dc.lft.to/lastmile_qr_scan"}, "is_reserved": 0}, {"lon": -77.0251295, "bike_id": "2430fc6f73c99c4d9e2cb3ab1cb9c810", "lat": 38.942037, "fusion_lon": 0.0, "fusion_lat": 0.0, "type": "electric_scooter", "name": "2430fc6f73c99c4d9e2cb3ab1cb9c810", "is_disabled": 0, "rental_uris": {"ios": "https://dc.lft.to/lastmile_qr_scan", "android": "https://dc.lft.to/lastmile_qr_scan"}, "is_reserved": 0}, {"lon": -76.98337333333333, "bike_id": "bacaa2233cb91612dfcfc022c3dce366", "lat": 38.8954795, "fusion_lon": 0.0, "fusion_lat": 0.0, "type": "electric_scooter", "name": "bacaa2233cb91612dfcfc022c3dce366", "is_disabled": 0, "rental_uris": {"ios": "https://dc.lft.to/lastmile_qr_scan", "android": "https://dc.lft.to/lastmile_qr_scan"}, "is_reserved": 0}, {"lon": -77.02186283333333, "bike_id": "406335b810733c5671e657dcb5db8586", "lat": 38.91990283333333, "fusion_lon": 0.0, "fusion_lat": 0.0, "type": "electric_scooter", "name": "406335b810733c5671e657dcb5db8586", "is_disabled": 0, "rental_uris": {"ios": "https://dc.lft.to/lastmile_qr_scan", "android": "https://dc.lft.to/lastmile_qr_scan"}, "is_reserved": 0}, {"lon": -77.02967733333334, "bike_id": "e348536b7a57c6f4455ed20e9f7f7131", "lat": 38.912709, "fusion_lon": 0.0, "fusion_lat": 0.0, "type": "electric_scooter", "name": "e348536b7a57c6f4455ed20e9f7f7131", "is_disabled": 0, "rental_uris": {"ios": "https://dc.lft.to/lastmile_qr_scan", "android": "https://dc.lft.to/lastmile_qr_scan"}, "is_reserved": 0}, {"lon": -77.04356766666666, "bike_id": "1b77a94de59ca4b59761d730e01fe001", "lat": 38.91587466666667, "fusion_lon": 0.0, "fusion_lat": 0.0, "type": "electric_scooter", "name": "1b77a94de59ca4b59761d730e01fe001", "is_disabled": 0, "rental_uris": {"ios": "https://dc.lft.to/lastmile_qr_scan", "android": "https://dc.lft.to/lastmile_qr_scan"}, "is_reserved": 0}, {"lon": -77.007378, "bike_id": "1d1748667919e15effed5c7e98fabfb0", "lat": 38.89851866666667, "fusion_lon": 0.0, "fusion_lat": 0.0, "type": "electric_scooter", "name": "1d1748667919e15effed5c7e98fabfb0", "is_disabled": 0, "rental_uris": {"ios": "https://dc.lft.to/lastmile_qr_scan", "android": "https://dc.lft.to/lastmile_qr_scan"}, "is_reserved": 0}, {"lon": -77.00213, "bike_id": "3864a0d1adc7ea7a5696cd3ae083a7de", "lat": 38.88513583333334, "fusion_lon": 0.0, "fusion_lat": 0.0, "type": "electric_scooter", "name": "3864a0d1adc7ea7a5696cd3ae083a7de", "is_disabled": 0, "rental_uris": {"ios": "https://dc.lft.to/lastmile_qr_scan", "android": "https://dc.lft.to/lastmile_qr_scan"}, "is_reserved": 0}, {"lon": -76.94995666666667, "bike_id": "ccf0554eada7195867a386984746153a", "lat": 38.893856166666666, "fusion_lon": 0.0, "fusion_lat": 0.0, "type": "electric_scooter", "name": "ccf0554eada7195867a386984746153a", "is_disabled": 0, "rental_uris": {"ios": "https://dc.lft.to/lastmile_qr_scan", "android": "https://dc.lft.to/lastmile_qr_scan"}, "is_reserved": 0}, {"lon": -77.022549, "bike_id": "8a4d81bcdb8bad45517e22ae4de7b041", "lat": 38.925235, "fusion_lon": 0.0, "fusion_lat": 0.0, "type": "electric_scooter", "name": "8a4d81bcdb8bad45517e22ae4de7b041", "is_disabled": 0, "rental_uris": {"ios": "https://dc.lft.to/lastmile_qr_scan", "android": "https://dc.lft.to/lastmile_qr_scan"}, "is_reserved": 0}, {"lon": -77.0758675, "bike_id": "66d8f4bd5ac3184f79b864e610110bed", "lat": 38.9121425, "fusion_lon": 0.0, "fusion_lat": 0.0, "type": "electric_scooter", "name": "66d8f4bd5ac3184f79b864e610110bed", "is_disabled": 0, "rental_uris": {"ios": "https://dc.lft.to/lastmile_qr_scan", "android": "https://dc.lft.to/lastmile_qr_scan"}, "is_reserved": 0}, {"lon": -77.03837433333334, "bike_id": "29e9c8e42efd9898b8af2a2f3d6500bd", "lat": 38.91564, "fusion_lon": 0.0, "fusion_lat": 0.0, "type": "electric_scooter", "name": "29e9c8e42efd9898b8af2a2f3d6500bd", "is_disabled": 0, "rental_uris": {"ios": "https://dc.lft.to/lastmile_qr_scan", "android": "https://dc.lft.to/lastmile_qr_scan"}, "is_reserved": 0}, {"lon": -77.02764183333333, "bike_id": "02e14763d26ee6296b42904366b19cfe", "lat": 38.954209666666664, "fusion_lon": 0.0, "fusion_lat": 0.0, "type": "electric_scooter", "name": "02e14763d26ee6296b42904366b19cfe", "is_disabled": 0, "rental_uris": {"ios": "https://dc.lft.to/lastmile_qr_scan", "android": "https://dc.lft.to/lastmile_qr_scan"}, "is_reserved": 0}, {"lon": -77.040876, "bike_id": "f4df90c903380f054b39ff5f110128a7", "lat": 38.905915, "fusion_lon": 0.0, "fusion_lat": 0.0, "type": "electric_scooter", "name": "f4df90c903380f054b39ff5f110128a7", "is_disabled": 0, "rental_uris": {"ios": "https://dc.lft.to/lastmile_qr_scan", "android": "https://dc.lft.to/lastmile_qr_scan"}, "is_reserved": 0}, {"lon": -77.01541483333334, "bike_id": "e5f7372ef54ad64b1eea06e389fff613", "lat": 38.88497983333333, "fusion_lon": 0.0, "fusion_lat": 0.0, "type": "electric_scooter", "name": "e5f7372ef54ad64b1eea06e389fff613", "is_disabled": 0, "rental_uris": {"ios": "https://dc.lft.to/lastmile_qr_scan", "android": "https://dc.lft.to/lastmile_qr_scan"}, "is_reserved": 0}, {"lon": -77.03751233333334, "bike_id": "b570a67a017e38d5eec77f1501cf10a9", "lat": 38.9119335, "fusion_lon": 0.0, "fusion_lat": 0.0, "type": "electric_scooter", "name": "b570a67a017e38d5eec77f1501cf10a9", "is_disabled": 0, "rental_uris": {"ios": "https://dc.lft.to/lastmile_qr_scan", "android": "https://dc.lft.to/lastmile_qr_scan"}, "is_reserved": 0}, {"lon": -76.99751383333333, "bike_id": "e956d79a3dfb101e56d9f290e097eb07", "lat": 38.9501205, "fusion_lon": 0.0, "fusion_lat": 0.0, "type": "electric_bike", "name": "e956d79a3dfb101e56d9f290e097eb07", "is_disabled": 0, "rental_uris": {"ios": "https://dc.lft.to/lastmile_qr_scan", "android": "https://dc.lft.to/lastmile_qr_scan"}, "is_reserved": 0}, {"lon": -77.024633, "bike_id": "8a18c206f4a3e2f00c68c5fe5c1f9f6a", "lat": 38.90394416666667, "fusion_lon": 0.0, "fusion_lat": 0.0, "type": "electric_scooter", "name": "8a18c206f4a3e2f00c68c5fe5c1f9f6a", "is_disabled": 0, "rental_uris": {"ios": "https://dc.lft.to/lastmile_qr_scan", "android": "https://dc.lft.to/lastmile_qr_scan"}, "is_reserved": 0}, {"lon": -77.00206316666667, "bike_id": "7c8d8be6b092d1a0227652d32e7c12f7", "lat": 38.897227, "fusion_lon": 0.0, "fusion_lat": 0.0, "type": "electric_scooter", "name": "7c8d8be6b092d1a0227652d32e7c12f7", "is_disabled": 0, "rental_uris": {"ios": "https://dc.lft.to/lastmile_qr_scan", "android": "https://dc.lft.to/lastmile_qr_scan"}, "is_reserved": 0}, {"lon": -76.96381383333333, "bike_id": "fec5890eb7e007737fdfdb29e660b796", "lat": 38.95177416666667, "fusion_lon": 0.0, "fusion_lat": 0.0, "type": "electric_bike", "name": "fec5890eb7e007737fdfdb29e660b796", "is_disabled": 0, "rental_uris": {"ios": "https://dc.lft.to/lastmile_qr_scan", "android": "https://dc.lft.to/lastmile_qr_scan"}, "is_reserved": 0}, {"lon": -76.99536033333334, "bike_id": "de9d7d9e716a37e38e256ff12b8ccc6c", "lat": 38.86261983333333, "fusion_lon": 0.0, "fusion_lat": 0.0, "type": "electric_scooter", "name": "de9d7d9e716a37e38e256ff12b8ccc6c", "is_disabled": 0, "rental_uris": {"ios": "https://dc.lft.to/lastmile_qr_scan", "android": "https://dc.lft.to/lastmile_qr_scan"}, "is_reserved": 0}, {"lon": -77.0280785, "bike_id": "30cc37d69fe8ecf1b4a19559cf068dbd", "lat": 38.88182616666667, "fusion_lon": 0.0, "fusion_lat": 0.0, "type": "electric_scooter", "name": "30cc37d69fe8ecf1b4a19559cf068dbd", "is_disabled": 0, "rental_uris": {"ios": "https://dc.lft.to/lastmile_qr_scan", "android": "https://dc.lft.to/lastmile_qr_scan"}, "is_reserved": 0}, {"lon": -77.04801233333333, "bike_id": "750d40933f087eb19a331eab8a2f5d12", "lat": 38.916378333333334, "fusion_lon": 0.0, "fusion_lat": 0.0, "type": "electric_scooter", "name": "750d40933f087eb19a331eab8a2f5d12", "is_disabled": 0, "rental_uris": {"ios": "https://dc.lft.to/lastmile_qr_scan", "android": "https://dc.lft.to/lastmile_qr_scan"}, "is_reserved": 0}, {"lon": -76.991189, "bike_id": "d94bc66ac165fda2db8700c2011d3b29", "lat": 38.92264616666667, "fusion_lon": 0.0, "fusion_lat": 0.0, "type": "electric_scooter", "name": "d94bc66ac165fda2db8700c2011d3b29", "is_disabled": 0, "rental_uris": {"ios": "https://dc.lft.to/lastmile_qr_scan", "android": "https://dc.lft.to/lastmile_qr_scan"}, "is_reserved": 0}, {"lon": -77.03873533333334, "bike_id": "93b48240eed754837da7b8631061b050", "lat": 38.914167, "fusion_lon": 0.0, "fusion_lat": 0.0, "type": "electric_scooter", "name": "93b48240eed754837da7b8631061b050", "is_disabled": 0, "rental_uris": {"ios": "https://dc.lft.to/lastmile_qr_scan", "android": "https://dc.lft.to/lastmile_qr_scan"}, "is_reserved": 0}, {"lon": -77.0267645, "bike_id": "632ad2bbc147287c045ea6296e33047d", "lat": 38.98460266666667, "fusion_lon": 0.0, "fusion_lat": 0.0, "type": "electric_scooter", "name": "632ad2bbc147287c045ea6296e33047d", "is_disabled": 0, "rental_uris": {"ios": "https://dc.lft.to/lastmile_qr_scan", "android": "https://dc.lft.to/lastmile_qr_scan"}, "is_reserved": 0}, {"lon": -77.01999466666666, "bike_id": "61e59552d87c847f12fb7ffe5f1df4e5", "lat": 38.90445733333333, "fusion_lon": 0.0, "fusion_lat": 0.0, "type": "electric_scooter", "name": "61e59552d87c847f12fb7ffe5f1df4e5", "is_disabled": 0, "rental_uris": {"ios": "https://dc.lft.to/lastmile_qr_scan", "android": "https://dc.lft.to/lastmile_qr_scan"}, "is_reserved": 0}, {"lon": -77.024428, "bike_id": "5fab329ec8439e48dd363fbad1847107", "lat": 38.924921, "fusion_lon": 0.0, "fusion_lat": 0.0, "type": "electric_scooter", "name": "5fab329ec8439e48dd363fbad1847107", "is_disabled": 0, "rental_uris": {"ios": "https://dc.lft.to/lastmile_qr_scan", "android": "https://dc.lft.to/lastmile_qr_scan"}, "is_reserved": 0}, {"lon": -77.03259066666666, "bike_id": "1addbf88e75e0ebc2d6d6bd619a72672", "lat": 38.94271916666667, "fusion_lon": 0.0, "fusion_lat": 0.0, "type": "electric_scooter", "name": "1addbf88e75e0ebc2d6d6bd619a72672", "is_disabled": 0, "rental_uris": {"ios": "https://dc.lft.to/lastmile_qr_scan", "android": "https://dc.lft.to/lastmile_qr_scan"}, "is_reserved": 0}, {"lon": -77.02896066666666, "bike_id": "cf5545c61197c320c8c0a9534d96323c", "lat": 38.900124, "fusion_lon": 0.0, "fusion_lat": 0.0, "type": "electric_scooter", "name": "cf5545c61197c320c8c0a9534d96323c", "is_disabled": 0, "rental_uris": {"ios": "https://dc.lft.to/lastmile_qr_scan", "android": "https://dc.lft.to/lastmile_qr_scan"}, "is_reserved": 0}, {"lon": -77.0297685, "bike_id": "b44fc67f76c20d24421d7e76d797595a", "lat": 38.92194383333333, "fusion_lon": 0.0, "fusion_lat": 0.0, "type": "electric_scooter", "name": "b44fc67f76c20d24421d7e76d797595a", "is_disabled": 0, "rental_uris": {"ios": "https://dc.lft.to/lastmile_qr_scan", "android": "https://dc.lft.to/lastmile_qr_scan"}, "is_reserved": 0}, {"lon": -76.98713316666667, "bike_id": "b74c36f0a88f8ef352cfe8e53d740ba3", "lat": 38.9002305, "fusion_lon": 0.0, "fusion_lat": 0.0, "type": "electric_scooter", "name": "b74c36f0a88f8ef352cfe8e53d740ba3", "is_disabled": 0, "rental_uris": {"ios": "https://dc.lft.to/lastmile_qr_scan", "android": "https://dc.lft.to/lastmile_qr_scan"}, "is_reserved": 0}, {"lon": -77.03155816666667, "bike_id": "a559d8014ab80995b8c3d260c7f17bdb", "lat": 38.920081333333336, "fusion_lon": 0.0, "fusion_lat": 0.0, "type": "electric_scooter", "name": "a559d8014ab80995b8c3d260c7f17bdb", "is_disabled": 0, "rental_uris": {"ios": "https://dc.lft.to/lastmile_qr_scan", "android": "https://dc.lft.to/lastmile_qr_scan"}, "is_reserved": 0}, {"lon": -77.021, "bike_id": "de6da5c070e4a04617803e3afe2306f7", "lat": 38.90976083333334, "fusion_lon": 0.0, "fusion_lat": 0.0, "type": "electric_scooter", "name": "de6da5c070e4a04617803e3afe2306f7", "is_disabled": 0, "rental_uris": {"ios": "https://dc.lft.to/lastmile_qr_scan", "android": "https://dc.lft.to/lastmile_qr_scan"}, "is_reserved": 0}, {"lon": -77.03436616666667, "bike_id": "2e7b805e001d737c05519e535fce12b2", "lat": 38.9028105, "fusion_lon": 0.0, "fusion_lat": 0.0, "type": "electric_scooter", "name": "2e7b805e001d737c05519e535fce12b2", "is_disabled": 0, "rental_uris": {"ios": "https://dc.lft.to/lastmile_qr_scan", "android": "https://dc.lft.to/lastmile_qr_scan"}, "is_reserved": 0}, {"lon": -77.0363875, "bike_id": "9a53e535510ecac15891bdb27694987a", "lat": 38.9284815, "fusion_lon": 0.0, "fusion_lat": 0.0, "type": "electric_scooter", "name": "9a53e535510ecac15891bdb27694987a", "is_disabled": 0, "rental_uris": {"ios": "https://dc.lft.to/lastmile_qr_scan", "android": "https://dc.lft.to/lastmile_qr_scan"}, "is_reserved": 0}, {"lon": -76.98838733333334, "bike_id": "2170e6326bc0ce77ab6ff6fb84ee8a8e", "lat": 38.9007305, "fusion_lon": 0.0, "fusion_lat": 0.0, "type": "electric_scooter", "name": "2170e6326bc0ce77ab6ff6fb84ee8a8e", "is_disabled": 0, "rental_uris": {"ios": "https://dc.lft.to/lastmile_qr_scan", "android": "https://dc.lft.to/lastmile_qr_scan"}, "is_reserved": 0}, {"lon": -77.024702, "bike_id": "4ca91c7d2ff7afc9a7488c2672135dd0", "lat": 38.91700816666667, "fusion_lon": 0.0, "fusion_lat": 0.0, "type": "electric_scooter", "name": "4ca91c7d2ff7afc9a7488c2672135dd0", "is_disabled": 0, "rental_uris": {"ios": "https://dc.lft.to/lastmile_qr_scan", "android": "https://dc.lft.to/lastmile_qr_scan"}, "is_reserved": 0}, {"lon": -77.02605133333333, "bike_id": "4abfc375ea85f351afc4469903684e62", "lat": 38.901851, "fusion_lon": 0.0, "fusion_lat": 0.0, "type": "electric_scooter", "name": "4abfc375ea85f351afc4469903684e62", "is_disabled": 0, "rental_uris": {"ios": "https://dc.lft.to/lastmile_qr_scan", "android": "https://dc.lft.to/lastmile_qr_scan"}, "is_reserved": 0}, {"lon": -77.04019533333333, "bike_id": "30710173af12b9bbca7fb63918494644", "lat": 38.91606183333333, "fusion_lon": 0.0, "fusion_lat": 0.0, "type": "electric_scooter", "name": "30710173af12b9bbca7fb63918494644", "is_disabled": 0, "rental_uris": {"ios": "https://dc.lft.to/lastmile_qr_scan", "android": "https://dc.lft.to/lastmile_qr_scan"}, "is_reserved": 0}, {"lon": -77.06102433333334, "bike_id": "2224236f18627dce15031e436852d555", "lat": 38.94369666666667, "fusion_lon": 0.0, "fusion_lat": 0.0, "type": "electric_scooter", "name": "2224236f18627dce15031e436852d555", "is_disabled": 0, "rental_uris": {"ios": "https://dc.lft.to/lastmile_qr_scan", "android": "https://dc.lft.to/lastmile_qr_scan"}, "is_reserved": 0}, {"lon": -76.98366216666666, "bike_id": "04496a8b7168e4108d749a84eded765d", "lat": 38.89142616666667, "fusion_lon": 0.0, "fusion_lat": 0.0, "type": "electric_scooter", "name": "04496a8b7168e4108d749a84eded765d", "is_disabled": 0, "rental_uris": {"ios": "https://dc.lft.to/lastmile_qr_scan", "android": "https://dc.lft.to/lastmile_qr_scan"}, "is_reserved": 0}, {"lon": -77.019254, "bike_id": "fc24b714652a297fc36dbd99c0307d98", "lat": 38.892421, "fusion_lon": 0.0, "fusion_lat": 0.0, "type": "electric_scooter", "name": "fc24b714652a297fc36dbd99c0307d98", "is_disabled": 0, "rental_uris": {"ios": "https://dc.lft.to/lastmile_qr_scan", "android": "https://dc.lft.to/lastmile_qr_scan"}, "is_reserved": 0}, {"lon": -76.98567266666667, "bike_id": "2fd5de0a3eb01bf943b159d4d0dc9aa1", "lat": 38.896203666666665, "fusion_lon": 0.0, "fusion_lat": 0.0, "type": "electric_scooter", "name": "2fd5de0a3eb01bf943b159d4d0dc9aa1", "is_disabled": 0, "rental_uris": {"ios": "https://dc.lft.to/lastmile_qr_scan", "android": "https://dc.lft.to/lastmile_qr_scan"}, "is_reserved": 0}, {"lon": -77.03178316666667, "bike_id": "50ef23727f416a971c19dd9781c7efeb", "lat": 38.9360595, "fusion_lon": 0.0, "fusion_lat": 0.0, "type": "electric_scooter", "name": "50ef23727f416a971c19dd9781c7efeb", "is_disabled": 0, "rental_uris": {"ios": "https://dc.lft.to/lastmile_qr_scan", "android": "https://dc.lft.to/lastmile_qr_scan"}, "is_reserved": 0}, {"lon": -77.00918866666666, "bike_id": "ff21f480764fbf1539315f556dc0a38d", "lat": 38.91063483333333, "fusion_lon": 0.0, "fusion_lat": 0.0, "type": "electric_scooter", "name": "ff21f480764fbf1539315f556dc0a38d", "is_disabled": 0, "rental_uris": {"ios": "https://dc.lft.to/lastmile_qr_scan", "android": "https://dc.lft.to/lastmile_qr_scan"}, "is_reserved": 0}, {"lon": -77.038665, "bike_id": "dd3f85b70843aa7f55dbf6e0cca9bf4c", "lat": 38.9171135, "fusion_lon": 0.0, "fusion_lat": 0.0, "type": "electric_scooter", "name": "dd3f85b70843aa7f55dbf6e0cca9bf4c", "is_disabled": 0, "rental_uris": {"ios": "https://dc.lft.to/lastmile_qr_scan", "android": "https://dc.lft.to/lastmile_qr_scan"}, "is_reserved": 0}, {"lon": -77.025725, "bike_id": "77a6c7c8593310a6361332a19eab8b6c", "lat": 38.887429833333336, "fusion_lon": 0.0, "fusion_lat": 0.0, "type": "electric_scooter", "name": "77a6c7c8593310a6361332a19eab8b6c", "is_disabled": 0, "rental_uris": {"ios": "https://dc.lft.to/lastmile_qr_scan", "android": "https://dc.lft.to/lastmile_qr_scan"}, "is_reserved": 0}, {"lon": -77.0572855, "bike_id": "5880810305e4f753d8bad3514f34792f", "lat": 38.933756833333334, "fusion_lon": 0.0, "fusion_lat": 0.0, "type": "electric_scooter", "name": "5880810305e4f753d8bad3514f34792f", "is_disabled": 0, "rental_uris": {"ios": "https://dc.lft.to/lastmile_qr_scan", "android": "https://dc.lft.to/lastmile_qr_scan"}, "is_reserved": 0}, {"lon": -77.02597266666666, "bike_id": "67c904047629c1e71cfe3213306aa11b", "lat": 38.9204205, "fusion_lon": 0.0, "fusion_lat": 0.0, "type": "electric_scooter", "name": "67c904047629c1e71cfe3213306aa11b", "is_disabled": 0, "rental_uris": {"ios": "https://dc.lft.to/lastmile_qr_scan", "android": "https://dc.lft.to/lastmile_qr_scan"}, "is_reserved": 0}, {"lon": -76.9982585, "bike_id": "b078f02750e3ba6737d025b3cfdd2945", "lat": 38.8853275, "fusion_lon": 0.0, "fusion_lat": 0.0, "type": "electric_scooter", "name": "b078f02750e3ba6737d025b3cfdd2945", "is_disabled": 0, "rental_uris": {"ios": "https://dc.lft.to/lastmile_qr_scan", "android": "https://dc.lft.to/lastmile_qr_scan"}, "is_reserved": 0}, {"lon": -77.0005065, "bike_id": "2a482bd262f05068a53a16c04a2aa304", "lat": 38.9239405, "fusion_lon": 0.0, "fusion_lat": 0.0, "type": "electric_scooter", "name": "2a482bd262f05068a53a16c04a2aa304", "is_disabled": 0, "rental_uris": {"ios": "https://dc.lft.to/lastmile_qr_scan", "android": "https://dc.lft.to/lastmile_qr_scan"}, "is_reserved": 0}, {"lon": -76.97049466666667, "bike_id": "dbcd19f6fbeec2ccbc2258bf634bcc0d", "lat": 38.8976765, "fusion_lon": 0.0, "fusion_lat": 0.0, "type": "electric_scooter", "name": "dbcd19f6fbeec2ccbc2258bf634bcc0d", "is_disabled": 0, "rental_uris": {"ios": "https://dc.lft.to/lastmile_qr_scan", "android": "https://dc.lft.to/lastmile_qr_scan"}, "is_reserved": 0}, {"lon": -77.07234933333334, "bike_id": "2da55d0578a96af4a1e1077e529c49ea", "lat": 38.898895, "fusion_lon": 0.0, "fusion_lat": 0.0, "type": "electric_scooter", "name": "2da55d0578a96af4a1e1077e529c49ea", "is_disabled": 0, "rental_uris": {"ios": "https://dc.lft.to/lastmile_qr_scan", "android": "https://dc.lft.to/lastmile_qr_scan"}, "is_reserved": 0}, {"lon": -77.0461635, "bike_id": "d49b5214d2aaa5ece3790e543439624c", "lat": 38.905535, "fusion_lon": 0.0, "fusion_lat": 0.0, "type": "electric_scooter", "name": "d49b5214d2aaa5ece3790e543439624c", "is_disabled": 0, "rental_uris": {"ios": "https://dc.lft.to/lastmile_qr_scan", "android": "https://dc.lft.to/lastmile_qr_scan"}, "is_reserved": 0}, {"lon": -77.02413616666666, "bike_id": "f4432160e4d491de58ea90d1ddddb34e", "lat": 38.91780466666667, "fusion_lon": 0.0, "fusion_lat": 0.0, "type": "electric_scooter", "name": "f4432160e4d491de58ea90d1ddddb34e", "is_disabled": 0, "rental_uris": {"ios": "https://dc.lft.to/lastmile_qr_scan", "android": "https://dc.lft.to/lastmile_qr_scan"}, "is_reserved": 0}, {"lon": -77.0296045, "bike_id": "ec885328308ab8c195382ac15b93b2ab", "lat": 38.912533, "fusion_lon": 0.0, "fusion_lat": 0.0, "type": "electric_scooter", "name": "ec885328308ab8c195382ac15b93b2ab", "is_disabled": 0, "rental_uris": {"ios": "https://dc.lft.to/lastmile_qr_scan", "android": "https://dc.lft.to/lastmile_qr_scan"}, "is_reserved": 0}, {"lon": -77.02666916666666, "bike_id": "3d57d4a109296c495b63d193bb278afd", "lat": 38.9276855, "fusion_lon": 0.0, "fusion_lat": 0.0, "type": "electric_scooter", "name": "3d57d4a109296c495b63d193bb278afd", "is_disabled": 0, "rental_uris": {"ios": "https://dc.lft.to/lastmile_qr_scan", "android": "https://dc.lft.to/lastmile_qr_scan"}, "is_reserved": 0}, {"lon": -77.03477066666666, "bike_id": "9c7c565c92ab00d1c1ff07052ad23b10", "lat": 38.91913683333333, "fusion_lon": 0.0, "fusion_lat": 0.0, "type": "electric_scooter", "name": "9c7c565c92ab00d1c1ff07052ad23b10", "is_disabled": 0, "rental_uris": {"ios": "https://dc.lft.to/lastmile_qr_scan", "android": "https://dc.lft.to/lastmile_qr_scan"}, "is_reserved": 0}, {"lon": -77.04484016666666, "bike_id": "0616885d8284cbf6d2c3d891ccac7af2", "lat": 38.9127085, "fusion_lon": 0.0, "fusion_lat": 0.0, "type": "electric_scooter", "name": "0616885d8284cbf6d2c3d891ccac7af2", "is_disabled": 0, "rental_uris": {"ios": "https://dc.lft.to/lastmile_qr_scan", "android": "https://dc.lft.to/lastmile_qr_scan"}, "is_reserved": 0}, {"lon": -77.04597683333333, "bike_id": "21119087b2078e93d1a4ee42bd09dc01", "lat": 38.85304683333333, "fusion_lon": 0.0, "fusion_lat": 0.0, "type": "electric_bike", "name": "21119087b2078e93d1a4ee42bd09dc01", "is_disabled": 0, "rental_uris": {"ios": "https://dc.lft.to/lastmile_qr_scan", "android": "https://dc.lft.to/lastmile_qr_scan"}, "is_reserved": 0}, {"lon": -77.02269483333333, "bike_id": "868ceaf6e2ba83b0f26c1cc2fb17a8d9", "lat": 38.916286666666664, "fusion_lon": 0.0, "fusion_lat": 0.0, "type": "electric_scooter", "name": "868ceaf6e2ba83b0f26c1cc2fb17a8d9", "is_disabled": 0, "rental_uris": {"ios": "https://dc.lft.to/lastmile_qr_scan", "android": "https://dc.lft.to/lastmile_qr_scan"}, "is_reserved": 0}, {"lon": -77.023666, "bike_id": "d42a7c7e4c45191ed439aaf52e17ce09", "lat": 38.892172, "fusion_lon": 0.0, "fusion_lat": 0.0, "type": "electric_scooter", "name": "d42a7c7e4c45191ed439aaf52e17ce09", "is_disabled": 0, "rental_uris": {"ios": "https://dc.lft.to/lastmile_qr_scan", "android": "https://dc.lft.to/lastmile_qr_scan"}, "is_reserved": 0}, {"lon": -77.03184966666667, "bike_id": "7d3ed55a46eee6a85aedaa4222f0887e", "lat": 38.914219, "fusion_lon": 0.0, "fusion_lat": 0.0, "type": "electric_scooter", "name": "7d3ed55a46eee6a85aedaa4222f0887e", "is_disabled": 0, "rental_uris": {"ios": "https://dc.lft.to/lastmile_qr_scan", "android": "https://dc.lft.to/lastmile_qr_scan"}, "is_reserved": 0}, {"lon": -76.98834916666667, "bike_id": "0edcc15d6e9d986761555a78063eee7c", "lat": 38.896648166666665, "fusion_lon": 0.0, "fusion_lat": 0.0, "type": "electric_scooter", "name": "0edcc15d6e9d986761555a78063eee7c", "is_disabled": 0, "rental_uris": {"ios": "https://dc.lft.to/lastmile_qr_scan", "android": "https://dc.lft.to/lastmile_qr_scan"}, "is_reserved": 0}, {"lon": -76.9854525, "bike_id": "e9338c416e5f66a53f22cf8b5f514f55", "lat": 38.9250335, "fusion_lon": 0.0, "fusion_lat": 0.0, "type": "electric_bike", "name": "e9338c416e5f66a53f22cf8b5f514f55", "is_disabled": 0, "rental_uris": {"ios": "https://dc.lft.to/lastmile_qr_scan", "android": "https://dc.lft.to/lastmile_qr_scan"}, "is_reserved": 0}, {"lon": -77.10803716666666, "bike_id": "6d21c2b90731c4ac3251919129b3b7dc", "lat": 38.812026833333334, "fusion_lon": 0.0, "fusion_lat": 0.0, "type": "electric_bike", "name": "6d21c2b90731c4ac3251919129b3b7dc", "is_disabled": 0, "rental_uris": {"ios": "https://dc.lft.to/lastmile_qr_scan", "android": "https://dc.lft.to/lastmile_qr_scan"}, "is_reserved": 0}, {"lon": -77.02302966666667, "bike_id": "086f967f98619cdfc7e5aea4638ea219", "lat": 38.92729716666667, "fusion_lon": 0.0, "fusion_lat": 0.0, "type": "electric_scooter", "name": "086f967f98619cdfc7e5aea4638ea219", "is_disabled": 0, "rental_uris": {"ios": "https://dc.lft.to/lastmile_qr_scan", "android": "https://dc.lft.to/lastmile_qr_scan"}, "is_reserved": 0}, {"lon": -77.015257, "bike_id": "301e0219026364868b0566d68c7ac8f2", "lat": 38.88495733333333, "fusion_lon": 0.0, "fusion_lat": 0.0, "type": "electric_scooter", "name": "301e0219026364868b0566d68c7ac8f2", "is_disabled": 0, "rental_uris": {"ios": "https://dc.lft.to/lastmile_qr_scan", "android": "https://dc.lft.to/lastmile_qr_scan"}, "is_reserved": 0}, {"lon": -77.04511716666667, "bike_id": "dcb22b282d052e259ba28e21b26e7141", "lat": 38.919533333333334, "fusion_lon": 0.0, "fusion_lat": 0.0, "type": "electric_scooter", "name": "dcb22b282d052e259ba28e21b26e7141", "is_disabled": 0, "rental_uris": {"ios": "https://dc.lft.to/lastmile_qr_scan", "android": "https://dc.lft.to/lastmile_qr_scan"}, "is_reserved": 0}, {"lon": -77.000046, "bike_id": "d449aae98186ea014653317704ec9c67", "lat": 38.897409833333334, "fusion_lon": 0.0, "fusion_lat": 0.0, "type": "electric_scooter", "name": "d449aae98186ea014653317704ec9c67", "is_disabled": 0, "rental_uris": {"ios": "https://dc.lft.to/lastmile_qr_scan", "android": "https://dc.lft.to/lastmile_qr_scan"}, "is_reserved": 0}, {"lon": -77.0280005, "bike_id": "069f4be913dd1e358e26375620c5d44b", "lat": 38.90740666666667, "fusion_lon": 0.0, "fusion_lat": 0.0, "type": "electric_scooter", "name": "069f4be913dd1e358e26375620c5d44b", "is_disabled": 0, "rental_uris": {"ios": "https://dc.lft.to/lastmile_qr_scan", "android": "https://dc.lft.to/lastmile_qr_scan"}, "is_reserved": 0}, {"lon": -76.96493583333333, "bike_id": "3cb7ca06012191b781d4997dcbe29c48", "lat": 38.876482, "fusion_lon": 0.0, "fusion_lat": 0.0, "type": "electric_scooter", "name": "3cb7ca06012191b781d4997dcbe29c48", "is_disabled": 0, "rental_uris": {"ios": "https://dc.lft.to/lastmile_qr_scan", "android": "https://dc.lft.to/lastmile_qr_scan"}, "is_reserved": 0}, {"lon": -77.01682766666667, "bike_id": "47ac17bfb7f5d53b6081a3deb6b19c0f", "lat": 38.881302833333336, "fusion_lon": 0.0, "fusion_lat": 0.0, "type": "electric_bike", "name": "47ac17bfb7f5d53b6081a3deb6b19c0f", "is_disabled": 0, "rental_uris": {"ios": "https://dc.lft.to/lastmile_qr_scan", "android": "https://dc.lft.to/lastmile_qr_scan"}, "is_reserved": 0}, {"lon": -76.99749166666666, "bike_id": "16b3b418f0ccf65a8e38c0c4029afc90", "lat": 38.88770366666667, "fusion_lon": 0.0, "fusion_lat": 0.0, "type": "electric_scooter", "name": "16b3b418f0ccf65a8e38c0c4029afc90", "is_disabled": 0, "rental_uris": {"ios": "https://dc.lft.to/lastmile_qr_scan", "android": "https://dc.lft.to/lastmile_qr_scan"}, "is_reserved": 0}, {"lon": -77.05754016666667, "bike_id": "3f97c30cbc4b36f7f8c121580644bd79", "lat": 38.92498333333333, "fusion_lon": 0.0, "fusion_lat": 0.0, "type": "electric_bike", "name": "3f97c30cbc4b36f7f8c121580644bd79", "is_disabled": 0, "rental_uris": {"ios": "https://dc.lft.to/lastmile_qr_scan", "android": "https://dc.lft.to/lastmile_qr_scan"}, "is_reserved": 0}, {"lon": -77.03408616666667, "bike_id": "c924982e5a176e008d798d447abdd6a8", "lat": 38.92740716666667, "fusion_lon": 0.0, "fusion_lat": 0.0, "type": "electric_scooter", "name": "c924982e5a176e008d798d447abdd6a8", "is_disabled": 0, "rental_uris": {"ios": "https://dc.lft.to/lastmile_qr_scan", "android": "https://dc.lft.to/lastmile_qr_scan"}, "is_reserved": 0}, {"lon": -77.04872516666667, "bike_id": "0b7b308255ea954f78fdaa6b9b982e37", "lat": 38.892450333333336, "fusion_lon": 0.0, "fusion_lat": 0.0, "type": "electric_scooter", "name": "0b7b308255ea954f78fdaa6b9b982e37", "is_disabled": 0, "rental_uris": {"ios": "https://dc.lft.to/lastmile_qr_scan", "android": "https://dc.lft.to/lastmile_qr_scan"}, "is_reserved": 0}, {"lon": -77.02400866666666, "bike_id": "09406d2f3e745546d984d19b0a7046d7", "lat": 38.905973, "fusion_lon": 0.0, "fusion_lat": 0.0, "type": "electric_scooter", "name": "09406d2f3e745546d984d19b0a7046d7", "is_disabled": 0, "rental_uris": {"ios": "https://dc.lft.to/lastmile_qr_scan", "android": "https://dc.lft.to/lastmile_qr_scan"}, "is_reserved": 0}, {"lon": -77.00969166666667, "bike_id": "72ed96d6946713c45a1836f3b66d3a21", "lat": 38.91411133333333, "fusion_lon": 0.0, "fusion_lat": 0.0, "type": "electric_scooter", "name": "72ed96d6946713c45a1836f3b66d3a21", "is_disabled": 0, "rental_uris": {"ios": "https://dc.lft.to/lastmile_qr_scan", "android": "https://dc.lft.to/lastmile_qr_scan"}, "is_reserved": 0}, {"lon": -76.93751416666667, "bike_id": "25f420bc3b8b2fbfd88dc30ac5eb8f50", "lat": 38.89047083333333, "fusion_lon": 0.0, "fusion_lat": 0.0, "type": "electric_scooter", "name": "25f420bc3b8b2fbfd88dc30ac5eb8f50", "is_disabled": 0, "rental_uris": {"ios": "https://dc.lft.to/lastmile_qr_scan", "android": "https://dc.lft.to/lastmile_qr_scan"}, "is_reserved": 0}, {"lon": -77.03433633333333, "bike_id": "090ed7f8cb5a9756bc30fe4616452774", "lat": 38.90870016666667, "fusion_lon": 0.0, "fusion_lat": 0.0, "type": "electric_scooter", "name": "090ed7f8cb5a9756bc30fe4616452774", "is_disabled": 0, "rental_uris": {"ios": "https://dc.lft.to/lastmile_qr_scan", "android": "https://dc.lft.to/lastmile_qr_scan"}, "is_reserved": 0}, {"lon": -77.035981, "bike_id": "2465cf17aeaa6ce7f879b78bde5f33ab", "lat": 38.926748333333336, "fusion_lon": 0.0, "fusion_lat": 0.0, "type": "electric_scooter", "name": "2465cf17aeaa6ce7f879b78bde5f33ab", "is_disabled": 0, "rental_uris": {"ios": "https://dc.lft.to/lastmile_qr_scan", "android": "https://dc.lft.to/lastmile_qr_scan"}, "is_reserved": 0}, {"lon": -77.02712916666667, "bike_id": "f943e5a66fad501ef8ae9932762df5e2", "lat": 38.90662733333333, "fusion_lon": 0.0, "fusion_lat": 0.0, "type": "electric_scooter", "name": "f943e5a66fad501ef8ae9932762df5e2", "is_disabled": 0, "rental_uris": {"ios": "https://dc.lft.to/lastmile_qr_scan", "android": "https://dc.lft.to/lastmile_qr_scan"}, "is_reserved": 0}, {"lon": -77.04319866666667, "bike_id": "4468920707fc021bb767c3f7a6c3b4b0", "lat": 38.922015, "fusion_lon": 0.0, "fusion_lat": 0.0, "type": "electric_scooter", "name": "4468920707fc021bb767c3f7a6c3b4b0", "is_disabled": 0, "rental_uris": {"ios": "https://dc.lft.to/lastmile_qr_scan", "android": "https://dc.lft.to/lastmile_qr_scan"}, "is_reserved": 0}, {"lon": -77.11606066666667, "bike_id": "80f9d882c991e196b6d683113081f9a9", "lat": 38.854854, "fusion_lon": 0.0, "fusion_lat": 0.0, "type": "electric_bike", "name": "80f9d882c991e196b6d683113081f9a9", "is_disabled": 0, "rental_uris": {"ios": "https://dc.lft.to/lastmile_qr_scan", "android": "https://dc.lft.to/lastmile_qr_scan"}, "is_reserved": 0}, {"lon": -77.036687, "bike_id": "edd2e8f8d23836d203c84d3efa517f59", "lat": 38.9095705, "fusion_lon": 0.0, "fusion_lat": 0.0, "type": "electric_scooter", "name": "edd2e8f8d23836d203c84d3efa517f59", "is_disabled": 0, "rental_uris": {"ios": "https://dc.lft.to/lastmile_qr_scan", "android": "https://dc.lft.to/lastmile_qr_scan"}, "is_reserved": 0}, {"lon": -77.025485, "bike_id": "494ced15bed114d074ce047172fb8931", "lat": 38.9309435, "fusion_lon": 0.0, "fusion_lat": 0.0, "type": "electric_scooter", "name": "494ced15bed114d074ce047172fb8931", "is_disabled": 0, "rental_uris": {"ios": "https://dc.lft.to/lastmile_qr_scan", "android": "https://dc.lft.to/lastmile_qr_scan"}, "is_reserved": 0}, {"lon": -76.973252, "bike_id": "5f18fa11dc7e562985a68326a3bcb213", "lat": 38.90482333333333, "fusion_lon": 0.0, "fusion_lat": 0.0, "type": "electric_bike", "name": "5f18fa11dc7e562985a68326a3bcb213", "is_disabled": 0, "rental_uris": {"ios": "https://dc.lft.to/lastmile_qr_scan", "android": "https://dc.lft.to/lastmile_qr_scan"}, "is_reserved": 0}, {"lon": -77.03841016666667, "bike_id": "15c26c308bd121ff1527a3f260b9761c", "lat": 38.90683416666667, "fusion_lon": 0.0, "fusion_lat": 0.0, "type": "electric_scooter", "name": "15c26c308bd121ff1527a3f260b9761c", "is_disabled": 0, "rental_uris": {"ios": "https://dc.lft.to/lastmile_qr_scan", "android": "https://dc.lft.to/lastmile_qr_scan"}, "is_reserved": 0}, {"lon": -77.00565133333333, "bike_id": "5c01270e56cfff57494ca4ad3baeba16", "lat": 38.90923866666667, "fusion_lon": 0.0, "fusion_lat": 0.0, "type": "electric_scooter", "name": "5c01270e56cfff57494ca4ad3baeba16", "is_disabled": 0, "rental_uris": {"ios": "https://dc.lft.to/lastmile_qr_scan", "android": "https://dc.lft.to/lastmile_qr_scan"}, "is_reserved": 0}, {"lon": -76.995249, "bike_id": "b5f89b27cee5a459e08c946d2e63395c", "lat": 38.894758833333334, "fusion_lon": 0.0, "fusion_lat": 0.0, "type": "electric_scooter", "name": "b5f89b27cee5a459e08c946d2e63395c", "is_disabled": 0, "rental_uris": {"ios": "https://dc.lft.to/lastmile_qr_scan", "android": "https://dc.lft.to/lastmile_qr_scan"}, "is_reserved": 0}, {"lon": -76.99793233333334, "bike_id": "5074271d49c66419d74cb7cda2a1371a", "lat": 38.95643316666666, "fusion_lon": 0.0, "fusion_lat": 0.0, "type": "electric_bike", "name": "5074271d49c66419d74cb7cda2a1371a", "is_disabled": 0, "rental_uris": {"ios": "https://dc.lft.to/lastmile_qr_scan", "android": "https://dc.lft.to/lastmile_qr_scan"}, "is_reserved": 0}, {"lon": -76.95524416666666, "bike_id": "10ebefb9ee52a283fc0d10b3134ac984", "lat": 38.887734, "fusion_lon": 0.0, "fusion_lat": 0.0, "type": "electric_scooter", "name": "10ebefb9ee52a283fc0d10b3134ac984", "is_disabled": 0, "rental_uris": {"ios": "https://dc.lft.to/lastmile_qr_scan", "android": "https://dc.lft.to/lastmile_qr_scan"}, "is_reserved": 0}, {"lon": -77.03869916666666, "bike_id": "4a15d1d9924cf6f9fe48df985d9a9211", "lat": 38.925289166666666, "fusion_lon": 0.0, "fusion_lat": 0.0, "type": "electric_scooter", "name": "4a15d1d9924cf6f9fe48df985d9a9211", "is_disabled": 0, "rental_uris": {"ios": "https://dc.lft.to/lastmile_qr_scan", "android": "https://dc.lft.to/lastmile_qr_scan"}, "is_reserved": 0}, {"lon": -76.98491733333333, "bike_id": "b0d2da4ca2e170a4d8f381b119e729b0", "lat": 38.893555166666665, "fusion_lon": 0.0, "fusion_lat": 0.0, "type": "electric_scooter", "name": "b0d2da4ca2e170a4d8f381b119e729b0", "is_disabled": 0, "rental_uris": {"ios": "https://dc.lft.to/lastmile_qr_scan", "android": "https://dc.lft.to/lastmile_qr_scan"}, "is_reserved": 0}, {"lon": -76.97899516666666, "bike_id": "e9414107af04f664669d07cfea210c74", "lat": 38.92456266666667, "fusion_lon": 0.0, "fusion_lat": 0.0, "type": "electric_bike", "name": "e9414107af04f664669d07cfea210c74", "is_disabled": 0, "rental_uris": {"ios": "https://dc.lft.to/lastmile_qr_scan", "android": "https://dc.lft.to/lastmile_qr_scan"}, "is_reserved": 0}, {"lon": -77.04095983333333, "bike_id": "944fec3af0257c974e2331af9f9ad9cf", "lat": 38.925309666666664, "fusion_lon": 0.0, "fusion_lat": 0.0, "type": "electric_scooter", "name": "944fec3af0257c974e2331af9f9ad9cf", "is_disabled": 0, "rental_uris": {"ios": "https://dc.lft.to/lastmile_qr_scan", "android": "https://dc.lft.to/lastmile_qr_scan"}, "is_reserved": 0}, {"lon": -77.03498333333333, "bike_id": "085c372a3885d8a99ca6322ab0140e93", "lat": 38.917017, "fusion_lon": 0.0, "fusion_lat": 0.0, "type": "electric_scooter", "name": "085c372a3885d8a99ca6322ab0140e93", "is_disabled": 0, "rental_uris": {"ios": "https://dc.lft.to/lastmile_qr_scan", "android": "https://dc.lft.to/lastmile_qr_scan"}, "is_reserved": 0}, {"lon": -77.02968883333334, "bike_id": "71d58f7f7073454189c48cd67d525344", "lat": 38.91677166666667, "fusion_lon": 0.0, "fusion_lat": 0.0, "type": "electric_scooter", "name": "71d58f7f7073454189c48cd67d525344", "is_disabled": 0, "rental_uris": {"ios": "https://dc.lft.to/lastmile_qr_scan", "android": "https://dc.lft.to/lastmile_qr_scan"}, "is_reserved": 0}, {"lon": -77.02682966666667, "bike_id": "360fa08f2aa20632df530c2fa88cf6f6", "lat": 38.9125875, "fusion_lon": 0.0, "fusion_lat": 0.0, "type": "electric_scooter", "name": "360fa08f2aa20632df530c2fa88cf6f6", "is_disabled": 0, "rental_uris": {"ios": "https://dc.lft.to/lastmile_qr_scan", "android": "https://dc.lft.to/lastmile_qr_scan"}, "is_reserved": 0}, {"lon": -77.0448795, "bike_id": "8b6cf4e2bba8eb7e6daa7f327ca8d53b", "lat": 38.90549516666667, "fusion_lon": 0.0, "fusion_lat": 0.0, "type": "electric_scooter", "name": "8b6cf4e2bba8eb7e6daa7f327ca8d53b", "is_disabled": 0, "rental_uris": {"ios": "https://dc.lft.to/lastmile_qr_scan", "android": "https://dc.lft.to/lastmile_qr_scan"}, "is_reserved": 0}, {"lon": -77.04322683333334, "bike_id": "433baab0b6887601495432692473fe90", "lat": 38.89222766666666, "fusion_lon": 0.0, "fusion_lat": 0.0, "type": "electric_scooter", "name": "433baab0b6887601495432692473fe90", "is_disabled": 0, "rental_uris": {"ios": "https://dc.lft.to/lastmile_qr_scan", "android": "https://dc.lft.to/lastmile_qr_scan"}, "is_reserved": 0}, {"lon": -77.03464916666667, "bike_id": "898c69ba3dd7b62f84660623753728c3", "lat": 38.918703666666666, "fusion_lon": 0.0, "fusion_lat": 0.0, "type": "electric_scooter", "name": "898c69ba3dd7b62f84660623753728c3", "is_disabled": 0, "rental_uris": {"ios": "https://dc.lft.to/lastmile_qr_scan", "android": "https://dc.lft.to/lastmile_qr_scan"}, "is_reserved": 0}, {"lon": -77.057341, "bike_id": "9bfee1f6cae18c117f799586f0caed5b", "lat": 38.93368783333333, "fusion_lon": 0.0, "fusion_lat": 0.0, "type": "electric_scooter", "name": "9bfee1f6cae18c117f799586f0caed5b", "is_disabled": 0, "rental_uris": {"ios": "https://dc.lft.to/lastmile_qr_scan", "android": "https://dc.lft.to/lastmile_qr_scan"}, "is_reserved": 0}, {"lon": -77.00482683333334, "bike_id": "c177321e991706bbd6be2df5d4292fe8", "lat": 38.874733166666665, "fusion_lon": 0.0, "fusion_lat": 0.0, "type": "electric_scooter", "name": "c177321e991706bbd6be2df5d4292fe8", "is_disabled": 0, "rental_uris": {"ios": "https://dc.lft.to/lastmile_qr_scan", "android": "https://dc.lft.to/lastmile_qr_scan"}, "is_reserved": 0}, {"lon": -77.03259533333333, "bike_id": "1058e457fa3a94866af6db0002bb4d1b", "lat": 38.90968383333333, "fusion_lon": 0.0, "fusion_lat": 0.0, "type": "electric_scooter", "name": "1058e457fa3a94866af6db0002bb4d1b", "is_disabled": 0, "rental_uris": {"ios": "https://dc.lft.to/lastmile_qr_scan", "android": "https://dc.lft.to/lastmile_qr_scan"}, "is_reserved": 0}, {"lon": -77.026119, "bike_id": "7ac319b1fe2d7fe470d0141f26c3921e", "lat": 38.929835, "fusion_lon": 0.0, "fusion_lat": 0.0, "type": "electric_scooter", "name": "7ac319b1fe2d7fe470d0141f26c3921e", "is_disabled": 0, "rental_uris": {"ios": "https://dc.lft.to/lastmile_qr_scan", "android": "https://dc.lft.to/lastmile_qr_scan"}, "is_reserved": 0}, {"lon": -77.03086166666667, "bike_id": "f98b7d4961abe5ffbceff2c3a3c76abc", "lat": 38.90456316666667, "fusion_lon": 0.0, "fusion_lat": 0.0, "type": "electric_scooter", "name": "f98b7d4961abe5ffbceff2c3a3c76abc", "is_disabled": 0, "rental_uris": {"ios": "https://dc.lft.to/lastmile_qr_scan", "android": "https://dc.lft.to/lastmile_qr_scan"}, "is_reserved": 0}, {"lon": -77.11573183333333, "bike_id": "4c573af3c72217f6cf0e7e5fa5d928e3", "lat": 38.9934515, "fusion_lon": 0.0, "fusion_lat": 0.0, "type": "electric_bike", "name": "4c573af3c72217f6cf0e7e5fa5d928e3", "is_disabled": 0, "rental_uris": {"ios": "https://dc.lft.to/lastmile_qr_scan", "android": "https://dc.lft.to/lastmile_qr_scan"}, "is_reserved": 0}, {"lon": -77.01479583333334, "bike_id": "125a9e8b7ad11ce41b2e0cf0778ef395", "lat": 38.958676833333335, "fusion_lon": 0.0, "fusion_lat": 0.0, "type": "electric_scooter", "name": "125a9e8b7ad11ce41b2e0cf0778ef395", "is_disabled": 0, "rental_uris": {"ios": "https://dc.lft.to/lastmile_qr_scan", "android": "https://dc.lft.to/lastmile_qr_scan"}, "is_reserved": 0}, {"lon": -77.03220366666666, "bike_id": "fe117c16cc41d397b6d9aa5cb09b4870", "lat": 38.91636066666667, "fusion_lon": 0.0, "fusion_lat": 0.0, "type": "electric_scooter", "name": "fe117c16cc41d397b6d9aa5cb09b4870", "is_disabled": 0, "rental_uris": {"ios": "https://dc.lft.to/lastmile_qr_scan", "android": "https://dc.lft.to/lastmile_qr_scan"}, "is_reserved": 0}, {"lon": -77.13894233333333, "bike_id": "2bba18b114a343caa0bbc8e1de0adf55", "lat": 38.89673716666667, "fusion_lon": 0.0, "fusion_lat": 0.0, "type": "electric_bike", "name": "2bba18b114a343caa0bbc8e1de0adf55", "is_disabled": 0, "rental_uris": {"ios": "https://dc.lft.to/lastmile_qr_scan", "android": "https://dc.lft.to/lastmile_qr_scan"}, "is_reserved": 0}, {"lon": -77.01883933333333, "bike_id": "9c58a573bbc85c3b32344d202b4a615d", "lat": 38.901462, "fusion_lon": 0.0, "fusion_lat": 0.0, "type": "electric_scooter", "name": "9c58a573bbc85c3b32344d202b4a615d", "is_disabled": 0, "rental_uris": {"ios": "https://dc.lft.to/lastmile_qr_scan", "android": "https://dc.lft.to/lastmile_qr_scan"}, "is_reserved": 0}, {"lon": -77.03356633333334, "bike_id": "6134743e79d406c5b764289361d48f1f", "lat": 38.93575466666667, "fusion_lon": 0.0, "fusion_lat": 0.0, "type": "electric_scooter", "name": "6134743e79d406c5b764289361d48f1f", "is_disabled": 0, "rental_uris": {"ios": "https://dc.lft.to/lastmile_qr_scan", "android": "https://dc.lft.to/lastmile_qr_scan"}, "is_reserved": 0}, {"lon": -77.08774883333334, "bike_id": "7e0150717aab0a2a0d0d511572faac64", "lat": 38.83898133333334, "fusion_lon": 0.0, "fusion_lat": 0.0, "type": "electric_bike", "name": "7e0150717aab0a2a0d0d511572faac64", "is_disabled": 0, "rental_uris": {"ios": "https://dc.lft.to/lastmile_qr_scan", "android": "https://dc.lft.to/lastmile_qr_scan"}, "is_reserved": 0}, {"lon": -76.97711083333333, "bike_id": "2db077a9e02a72be1956ff2cf4dc271c", "lat": 38.88776566666667, "fusion_lon": 0.0, "fusion_lat": 0.0, "type": "electric_scooter", "name": "2db077a9e02a72be1956ff2cf4dc271c", "is_disabled": 0, "rental_uris": {"ios": "https://dc.lft.to/lastmile_qr_scan", "android": "https://dc.lft.to/lastmile_qr_scan"}, "is_reserved": 0}, {"lon": -77.02654766666667, "bike_id": "8577419f0d6a98657a6a8a28dc27bc4f", "lat": 38.97814233333333, "fusion_lon": 0.0, "fusion_lat": 0.0, "type": "electric_scooter", "name": "8577419f0d6a98657a6a8a28dc27bc4f", "is_disabled": 0, "rental_uris": {"ios": "https://dc.lft.to/lastmile_qr_scan", "android": "https://dc.lft.to/lastmile_qr_scan"}, "is_reserved": 0}, {"lon": -76.97867183333334, "bike_id": "3ed8f025e9c67574f7a41783ac2b234e", "lat": 38.883027166666665, "fusion_lon": 0.0, "fusion_lat": 0.0, "type": "electric_scooter", "name": "3ed8f025e9c67574f7a41783ac2b234e", "is_disabled": 0, "rental_uris": {"ios": "https://dc.lft.to/lastmile_qr_scan", "android": "https://dc.lft.to/lastmile_qr_scan"}, "is_reserved": 0}, {"lon": -77.04482833333333, "bike_id": "7c858187229129a16a53ab076b5ee57d", "lat": 38.903489, "fusion_lon": 0.0, "fusion_lat": 0.0, "type": "electric_scooter", "name": "7c858187229129a16a53ab076b5ee57d", "is_disabled": 0, "rental_uris": {"ios": "https://dc.lft.to/lastmile_qr_scan", "android": "https://dc.lft.to/lastmile_qr_scan"}, "is_reserved": 0}, {"lon": -77.04114333333334, "bike_id": "8bb16b347777df6b36e335d0e488e923", "lat": 38.93465783333333, "fusion_lon": 0.0, "fusion_lat": 0.0, "type": "electric_scooter", "name": "8bb16b347777df6b36e335d0e488e923", "is_disabled": 0, "rental_uris": {"ios": "https://dc.lft.to/lastmile_qr_scan", "android": "https://dc.lft.to/lastmile_qr_scan"}, "is_reserved": 0}, {"lon": -77.01352516666667, "bike_id": "f496f76d452dcc72c8595c7f0daa2128", "lat": 38.89713783333333, "fusion_lon": 0.0, "fusion_lat": 0.0, "type": "electric_scooter", "name": "f496f76d452dcc72c8595c7f0daa2128", "is_disabled": 0, "rental_uris": {"ios": "https://dc.lft.to/lastmile_qr_scan", "android": "https://dc.lft.to/lastmile_qr_scan"}, "is_reserved": 0}, {"lon": -76.9960415, "bike_id": "93768985ad259f715b4979557f9edf21", "lat": 38.887510666666664, "fusion_lon": 0.0, "fusion_lat": 0.0, "type": "electric_scooter", "name": "93768985ad259f715b4979557f9edf21", "is_disabled": 0, "rental_uris": {"ios": "https://dc.lft.to/lastmile_qr_scan", "android": "https://dc.lft.to/lastmile_qr_scan"}, "is_reserved": 0}, {"lon": -76.982143, "bike_id": "bda4407ec997b143b62934a81a67d0d3", "lat": 38.900991166666664, "fusion_lon": 0.0, "fusion_lat": 0.0, "type": "electric_scooter", "name": "bda4407ec997b143b62934a81a67d0d3", "is_disabled": 0, "rental_uris": {"ios": "https://dc.lft.to/lastmile_qr_scan", "android": "https://dc.lft.to/lastmile_qr_scan"}, "is_reserved": 0}, {"lon": -77.02188183333334, "bike_id": "e8f85d4d0f101675ff6f6141b8c4671b", "lat": 38.9112785, "fusion_lon": 0.0, "fusion_lat": 0.0, "type": "electric_scooter", "name": "e8f85d4d0f101675ff6f6141b8c4671b", "is_disabled": 0, "rental_uris": {"ios": "https://dc.lft.to/lastmile_qr_scan", "android": "https://dc.lft.to/lastmile_qr_scan"}, "is_reserved": 0}, {"lon": -77.0488015, "bike_id": "08db05cb33cc6cd73476ed82cee4f7f5", "lat": 38.90537533333333, "fusion_lon": 0.0, "fusion_lat": 0.0, "type": "electric_scooter", "name": "08db05cb33cc6cd73476ed82cee4f7f5", "is_disabled": 0, "rental_uris": {"ios": "https://dc.lft.to/lastmile_qr_scan", "android": "https://dc.lft.to/lastmile_qr_scan"}, "is_reserved": 0}, {"lon": -77.0079085, "bike_id": "59d6e7310b4dd3d787b5f32d0c8616e2", "lat": 38.896447333333334, "fusion_lon": 0.0, "fusion_lat": 0.0, "type": "electric_scooter", "name": "59d6e7310b4dd3d787b5f32d0c8616e2", "is_disabled": 0, "rental_uris": {"ios": "https://dc.lft.to/lastmile_qr_scan", "android": "https://dc.lft.to/lastmile_qr_scan"}, "is_reserved": 0}, {"lon": -77.0363405, "bike_id": "00cf5cb74536bfa03cfdc62eb83d965f", "lat": 38.9449655, "fusion_lon": 0.0, "fusion_lat": 0.0, "type": "electric_scooter", "name": "00cf5cb74536bfa03cfdc62eb83d965f", "is_disabled": 0, "rental_uris": {"ios": "https://dc.lft.to/lastmile_qr_scan", "android": "https://dc.lft.to/lastmile_qr_scan"}, "is_reserved": 0}, {"lon": -77.02846733333334, "bike_id": "721376e0ed71e9ec46d737895f76f889", "lat": 38.92760366666667, "fusion_lon": 0.0, "fusion_lat": 0.0, "type": "electric_scooter", "name": "721376e0ed71e9ec46d737895f76f889", "is_disabled": 0, "rental_uris": {"ios": "https://dc.lft.to/lastmile_qr_scan", "android": "https://dc.lft.to/lastmile_qr_scan"}, "is_reserved": 0}, {"lon": -77.02703516666666, "bike_id": "cfef90678a83e9d68d55a747a172334e", "lat": 38.90666683333333, "fusion_lon": 0.0, "fusion_lat": 0.0, "type": "electric_scooter", "name": "cfef90678a83e9d68d55a747a172334e", "is_disabled": 0, "rental_uris": {"ios": "https://dc.lft.to/lastmile_qr_scan", "android": "https://dc.lft.to/lastmile_qr_scan"}, "is_reserved": 0}, {"lon": -77.01345516666666, "bike_id": "75775a78105736217df346f7010c40a8", "lat": 38.87814133333333, "fusion_lon": 0.0, "fusion_lat": 0.0, "type": "electric_scooter", "name": "75775a78105736217df346f7010c40a8", "is_disabled": 0, "rental_uris": {"ios": "https://dc.lft.to/lastmile_qr_scan", "android": "https://dc.lft.to/lastmile_qr_scan"}, "is_reserved": 0}, {"lon": -77.03280433333333, "bike_id": "05218c1f4da7cf828f16782f95bd5e64", "lat": 38.92853566666667, "fusion_lon": 0.0, "fusion_lat": 0.0, "type": "electric_scooter", "name": "05218c1f4da7cf828f16782f95bd5e64", "is_disabled": 0, "rental_uris": {"ios": "https://dc.lft.to/lastmile_qr_scan", "android": "https://dc.lft.to/lastmile_qr_scan"}, "is_reserved": 0}, {"lon": -77.03535366666667, "bike_id": "3298956973dd1fef018e14bd172ae1b6", "lat": 38.916839333333336, "fusion_lon": 0.0, "fusion_lat": 0.0, "type": "electric_scooter", "name": "3298956973dd1fef018e14bd172ae1b6", "is_disabled": 0, "rental_uris": {"ios": "https://dc.lft.to/lastmile_qr_scan", "android": "https://dc.lft.to/lastmile_qr_scan"}, "is_reserved": 0}, {"lon": -77.06173816666667, "bike_id": "ff766741e15712df1962fdb5978b1a2a", "lat": 38.90532433333333, "fusion_lon": 0.0, "fusion_lat": 0.0, "type": "electric_scooter", "name": "ff766741e15712df1962fdb5978b1a2a", "is_disabled": 0, "rental_uris": {"ios": "https://dc.lft.to/lastmile_qr_scan", "android": "https://dc.lft.to/lastmile_qr_scan"}, "is_reserved": 0}, {"lon": -77.03186516666666, "bike_id": "945aa68858183b992e4441184ef0c940", "lat": 38.916469666666664, "fusion_lon": 0.0, "fusion_lat": 0.0, "type": "electric_scooter", "name": "945aa68858183b992e4441184ef0c940", "is_disabled": 0, "rental_uris": {"ios": "https://dc.lft.to/lastmile_qr_scan", "android": "https://dc.lft.to/lastmile_qr_scan"}, "is_reserved": 0}, {"lon": -77.04746283333333, "bike_id": "5a3cd83aa4daac8992de19db332bc25f", "lat": 38.917724166666666, "fusion_lon": 0.0, "fusion_lat": 0.0, "type": "electric_scooter", "name": "5a3cd83aa4daac8992de19db332bc25f", "is_disabled": 0, "rental_uris": {"ios": "https://dc.lft.to/lastmile_qr_scan", "android": "https://dc.lft.to/lastmile_qr_scan"}, "is_reserved": 0}, {"lon": -76.98531833333334, "bike_id": "90e66eb78116b9dfdde0c6af8d7c2027", "lat": 38.9045995, "fusion_lon": 0.0, "fusion_lat": 0.0, "type": "electric_scooter", "name": "90e66eb78116b9dfdde0c6af8d7c2027", "is_disabled": 0, "rental_uris": {"ios": "https://dc.lft.to/lastmile_qr_scan", "android": "https://dc.lft.to/lastmile_qr_scan"}, "is_reserved": 0}, {"lon": -77.03276666666666, "bike_id": "32edcff4792f1535daab8e36f2920444", "lat": 38.928731, "fusion_lon": 0.0, "fusion_lat": 0.0, "type": "electric_scooter", "name": "32edcff4792f1535daab8e36f2920444", "is_disabled": 0, "rental_uris": {"ios": "https://dc.lft.to/lastmile_qr_scan", "android": "https://dc.lft.to/lastmile_qr_scan"}, "is_reserved": 0}, {"lon": -77.03844083333334, "bike_id": "edc32f78857d72f03e109448772e9e61", "lat": 38.906857333333335, "fusion_lon": 0.0, "fusion_lat": 0.0, "type": "electric_scooter", "name": "edc32f78857d72f03e109448772e9e61", "is_disabled": 0, "rental_uris": {"ios": "https://dc.lft.to/lastmile_qr_scan", "android": "https://dc.lft.to/lastmile_qr_scan"}, "is_reserved": 0}, {"lon": -76.99806533333333, "bike_id": "5c3730c8117b5464904e3d5fe9cc9dd3", "lat": 38.82914933333333, "fusion_lon": 0.0, "fusion_lat": 0.0, "type": "electric_bike", "name": "5c3730c8117b5464904e3d5fe9cc9dd3", "is_disabled": 0, "rental_uris": {"ios": "https://dc.lft.to/lastmile_qr_scan", "android": "https://dc.lft.to/lastmile_qr_scan"}, "is_reserved": 0}, {"lon": -77.1170715, "bike_id": "f87e8f11f82e79a8003094046ea04851", "lat": 38.86744483333333, "fusion_lon": 0.0, "fusion_lat": 0.0, "type": "electric_bike", "name": "f87e8f11f82e79a8003094046ea04851", "is_disabled": 0, "rental_uris": {"ios": "https://dc.lft.to/lastmile_qr_scan", "android": "https://dc.lft.to/lastmile_qr_scan"}, "is_reserved": 0}, {"lon": -77.04805583333334, "bike_id": "a6621e3cfffd41479759f0cacf35139d", "lat": 38.90729566666667, "fusion_lon": 0.0, "fusion_lat": 0.0, "type": "electric_scooter", "name": "a6621e3cfffd41479759f0cacf35139d", "is_disabled": 0, "rental_uris": {"ios": "https://dc.lft.to/lastmile_qr_scan", "android": "https://dc.lft.to/lastmile_qr_scan"}, "is_reserved": 0}, {"lon": -77.00099166666666, "bike_id": "6bb0aac8518866b166d60d40e07e6a3b", "lat": 38.916334666666664, "fusion_lon": 0.0, "fusion_lat": 0.0, "type": "electric_scooter", "name": "6bb0aac8518866b166d60d40e07e6a3b", "is_disabled": 0, "rental_uris": {"ios": "https://dc.lft.to/lastmile_qr_scan", "android": "https://dc.lft.to/lastmile_qr_scan"}, "is_reserved": 0}, {"lon": -77.02161416666667, "bike_id": "df6e780a732e34d044c05ae681eaa2af", "lat": 38.89219533333333, "fusion_lon": 0.0, "fusion_lat": 0.0, "type": "electric_scooter", "name": "df6e780a732e34d044c05ae681eaa2af", "is_disabled": 0, "rental_uris": {"ios": "https://dc.lft.to/lastmile_qr_scan", "android": "https://dc.lft.to/lastmile_qr_scan"}, "is_reserved": 0}, {"lon": -77.0465935, "bike_id": "c9ff210a128ae1020ec59a1127be3451", "lat": 38.90345516666667, "fusion_lon": 0.0, "fusion_lat": 0.0, "type": "electric_scooter", "name": "c9ff210a128ae1020ec59a1127be3451", "is_disabled": 0, "rental_uris": {"ios": "https://dc.lft.to/lastmile_qr_scan", "android": "https://dc.lft.to/lastmile_qr_scan"}, "is_reserved": 0}, {"lon": -77.02388283333333, "bike_id": "bea74210ba0e66531f8daa4b2261fca4", "lat": 38.9198985, "fusion_lon": 0.0, "fusion_lat": 0.0, "type": "electric_scooter", "name": "bea74210ba0e66531f8daa4b2261fca4", "is_disabled": 0, "rental_uris": {"ios": "https://dc.lft.to/lastmile_qr_scan", "android": "https://dc.lft.to/lastmile_qr_scan"}, "is_reserved": 0}, {"lon": -77.00742266666667, "bike_id": "52249610c2e82f9aa915cdb147344447", "lat": 38.898473833333334, "fusion_lon": 0.0, "fusion_lat": 0.0, "type": "electric_bike", "name": "52249610c2e82f9aa915cdb147344447", "is_disabled": 0, "rental_uris": {"ios": "https://dc.lft.to/lastmile_qr_scan", "android": "https://dc.lft.to/lastmile_qr_scan"}, "is_reserved": 0}, {"lon": -77.02601433333334, "bike_id": "06864ae34915645a6f9139a5b83fd53e", "lat": 38.92660266666667, "fusion_lon": 0.0, "fusion_lat": 0.0, "type": "electric_scooter", "name": "06864ae34915645a6f9139a5b83fd53e", "is_disabled": 0, "rental_uris": {"ios": "https://dc.lft.to/lastmile_qr_scan", "android": "https://dc.lft.to/lastmile_qr_scan"}, "is_reserved": 0}, {"lon": -77.0508675, "bike_id": "6dcb4dccaebf64289df6b0153d1faf65", "lat": 39.0367285, "fusion_lon": 0.0, "fusion_lat": 0.0, "type": "electric_bike", "name": "6dcb4dccaebf64289df6b0153d1faf65", "is_disabled": 0, "rental_uris": {"ios": "https://dc.lft.to/lastmile_qr_scan", "android": "https://dc.lft.to/lastmile_qr_scan"}, "is_reserved": 0}, {"lon": -77.00572283333334, "bike_id": "cf75a45c5d5eb8bee439c249f2c0d398", "lat": 38.906489, "fusion_lon": 0.0, "fusion_lat": 0.0, "type": "electric_scooter", "name": "cf75a45c5d5eb8bee439c249f2c0d398", "is_disabled": 0, "rental_uris": {"ios": "https://dc.lft.to/lastmile_qr_scan", "android": "https://dc.lft.to/lastmile_qr_scan"}, "is_reserved": 0}, {"lon": -77.02426616666666, "bike_id": "45cfdc68cfddedd6c464b28164104391", "lat": 38.914060166666665, "fusion_lon": 0.0, "fusion_lat": 0.0, "type": "electric_scooter", "name": "45cfdc68cfddedd6c464b28164104391", "is_disabled": 0, "rental_uris": {"ios": "https://dc.lft.to/lastmile_qr_scan", "android": "https://dc.lft.to/lastmile_qr_scan"}, "is_reserved": 0}, {"lon": -77.02164433333333, "bike_id": "64c17f79d269fd15be92d938f1d56611", "lat": 38.88744966666667, "fusion_lon": 0.0, "fusion_lat": 0.0, "type": "electric_scooter", "name": "64c17f79d269fd15be92d938f1d56611", "is_disabled": 0, "rental_uris": {"ios": "https://dc.lft.to/lastmile_qr_scan", "android": "https://dc.lft.to/lastmile_qr_scan"}, "is_reserved": 0}, {"lon": -77.02404183333333, "bike_id": "45417b3de8bb605bd78aa74490bc12d2", "lat": 38.934766833333335, "fusion_lon": 0.0, "fusion_lat": 0.0, "type": "electric_scooter", "name": "45417b3de8bb605bd78aa74490bc12d2", "is_disabled": 0, "rental_uris": {"ios": "https://dc.lft.to/lastmile_qr_scan", "android": "https://dc.lft.to/lastmile_qr_scan"}, "is_reserved": 0},