{"data": {"bikes": [{"lat": 38.966071, "is_disabled": 0, "type": "electric_scooter", "lon": -77.02055333333334, "bike_id": "0cd5091946e2a57559b9afc3b40133da", "fusion_lat": 0.0, "name": "0cd5091946e2a57559b9afc3b40133da", "is_reserved": 0, "rental_uris": {"android": "https://dc.lft.to/lastmile_qr_scan", "ios": "https://dc.lft.to/lastmile_qr_scan"}, "fusion_lon": 0.0}, {"lat": 38.85805883333333, "is_disabled": 0, "type": "electric_scooter", "lon": -76.98653416666667, "bike_id": "a12046c9584dc870ce4c4c464e1138e5", "fusion_lat": 0.0, "name": "a12046c9584dc870ce4c4c464e1138e5", "is_reserved": 0, "rental_uris": {"android": "https://dc.lft.to/lastmile_qr_scan", "ios": "https://dc.lft.to/lastmile_qr_scan"}, "fusion_lon": 0.0}, {"lat": 38.922519, "is_disabled": 0, "type": "electric_scooter", "lon": -77.0427965, "bike_id": "7e13061c5e8d766ea56a97ec1051894d", "fusion_lat": 0.0, "name": "7e13061c5e8d766ea56a97ec1051894d", "is_reserved": 0, "rental_uris": {"android": "https://dc.lft.to/lastmile_qr_scan", "ios": "https://dc.lft.to/lastmile_qr_scan"}, "fusion_lon": 0.0}, {"lat": 38.92856833333333, "is_disabled": 0, "type": "electric_bike", "lon": -77.22214016666666, "bike_id": "7e1a3d9281687b69a885fd8e84e72456", "fusion_lat": 0.0, "name": "7e1a3d9281687b69a885fd8e84e72456", "is_reserved": 0, "rental_uris": {"android": "https://dc.lft.to/lastmile_qr_scan", "ios": "https://dc.lft.to/lastmile_qr_scan"}, "fusion_lon": 0.0}, {"lat": 38.872173, "is_disabled": 0, "type": "electric_bike", "lon": -77.01527483333334, "bike_id": "908bfee8ab12f1050bb1ae92928ee3d4", "fusion_lat": 0.0, "name": "908bfee8ab12f1050bb1ae92928ee3d4", "is_reserved": 0, "rental_uris": {"android": "https://dc.lft.to/lastmile_qr_scan", "ios": "https://dc.lft.to/lastmile_qr_scan"}, "fusion_lon": 0.0}, {"lat": 38.917723333333335, "is_disabled": 0, "type": "electric_scooter", "lon": -77.02876583333334, "bike_id": "44986e1dda0c0d16d6542f37a40d8755", "fusion_lat": 0.0, "name": "44986e1dda0c0d16d6542f37a40d8755", "is_reserved": 0, "rental_uris": {"android": "https://dc.lft.to/lastmile_qr_scan", "ios": "https://dc.lft.to/lastmile_qr_scan"}, "fusion_lon": 0.0}, {"lat": 39.08855466666667, "is_disabled": 0, "type": "electric_bike", "lon": -77.178384, "bike_id": "f046dae0370e761a6daa7284a617ada1", "fusion_lat": 0.0, "name": "f046dae0370e761a6daa7284a617ada1", "is_reserved": 0, "rental_uris": {"android": "https://dc.lft.to/lastmile_qr_scan", "ios": "https://dc.lft.to/lastmile_qr_scan"}, "fusion_lon": 0.0}, {"lat": 38.9313275, "is_disabled": 0, "type": "electric_scooter", "lon": -77.032574, "bike_id": "1bf2f04252d6f5487a1bf989e696a3f9", "fusion_lat": 0.0, "name": "1bf2f04252d6f5487a1bf989e696a3f9", "is_reserved": 0, "rental_uris": {"android": "https://dc.lft.to/lastmile_qr_scan", "ios": "https://dc.lft.to/lastmile_qr_scan"}, "fusion_lon": 0.0}, {"lat": 38.9017815, "is_disabled": 0, "type": "electric_scooter", "lon": -77.04985283333333, "bike_id": "3a0aeb50e2dc247c7cf2d9641dbf0e70", "fusion_lat": 0.0, "name": "3a0aeb50e2dc247c7cf2d9641dbf0e70", "is_reserved": 0, "rental_uris": {"android": "https://dc.lft.to/lastmile_qr_scan", "ios": "https://dc.lft.to/lastmile_qr_scan"}, "fusion_lon": 0.0}, {"lat": 38.965583, "is_disabled": 0, "type": "electric_bike", "lon": -77.020406, "bike_id": "f6e49385ee34dd402595c504b2a31c10", "fusion_lat": 0.0, "name": "f6e49385ee34dd402595c504b2a31c10", "is_reserved": 0, "rental_uris": {"android": "https://dc.lft.to/lastmile_qr_scan", "ios": "https://dc.lft.to/lastmile_qr_scan"}, "fusion_lon": 0.0}, {"lat": 38.897088, "is_disabled": 0, "type": "electric_bike", "lon": -77.0035235, "bike_id": "92c009eeaf6aefd23dfc88f0bc810a28", "fusion_lat": 0.0, "name": "92c009eeaf6aefd23dfc88f0bc810a28", "is_reserved": 0, "rental_uris": {"android": "https://dc.lft.to/lastmile_qr_scan", "ios": "https://dc.lft.to/lastmile_qr_scan"}, "fusion_lon": 0.0}, {"lat": 38.931393166666666, "is_disabled": 0, "type": "electric_scooter", "lon": -77.03276816666667, "bike_id": "585125584cadbb06fd57fc29f2807ed9", "fusion_lat": 0.0, "name": "585125584cadbb06fd57fc29f2807ed9", "is_reserved": 0, "rental_uris": {"android": "https://dc.lft.to/lastmile_qr_scan", "ios": "https://dc.lft.to/lastmile_qr_scan"}, "fusion_lon": 0.0}, {"lat": 38.922037333333336, "is_disabled": 0, "type": "electric_scooter", "lon": -76.95660666666667, "bike_id": "039e73091a47f148bce31bf6a4a72ab8", "fusion_lat": 0.0, "name": "039e73091a47f148bce31bf6a4a72ab8", "is_reserved": 0, "rental_uris": {"android": "https://dc.lft.to/lastmile_qr_scan", "ios": "https://dc.lft.to/lastmile_qr_scan"}, "fusion_lon": 0.0}, {"lat": 38.90237066666667, "is_disabled": 0, "type": "electric_scooter", "lon": -77.043315, "bike_id": "4026f888c0d52e2d21963b8fcbca5e18", "fusion_lat": 0.0, "name": "4026f888c0d52e2d21963b8fcbca5e18", "is_reserved": 0, "rental_uris": {"android": "https://dc.lft.to/lastmile_qr_scan", "ios": "https://dc.lft.to/lastmile_qr_scan"}, "fusion_lon": 0.0}, {"lat": 38.899751, "is_disabled": 0, "type": "electric_scooter", "lon": -77.02302416666667, "bike_id": "8e59f05a37eb5e98b82f4699ef61d551", "fusion_lat": 0.0, "name": "8e59f05a37eb5e98b82f4699ef61d551", "is_reserved": 0, "rental_uris": {"android": "https://dc.lft.to/lastmile_qr_scan", "ios": "https://dc.lft.to/lastmile_qr_scan"}, "fusion_lon": 0.0}, {"lat": 38.90329366666667, "is_disabled": 0, "type": "electric_scooter", "lon": -77.02901533333333, "bike_id": "4aab63bab081d72e0cd0f3dd901c2d89", "fusion_lat": 0.0, "name": "4aab63bab081d72e0cd0f3dd901c2d89", "is_reserved": 0, "rental_uris": {"android": "https://dc.lft.to/lastmile_qr_scan", "ios": "https://dc.lft.to/lastmile_qr_scan"}, "fusion_lon": 0.0}, {"lat": 38.80057133333333, "is_disabled": 0, "type": "electric_bike", "lon": -77.0711615, "bike_id": "25f2b8cf168c48c089a0eddc4e272830", "fusion_lat": 0.0, "name": "25f2b8cf168c48c089a0eddc4e272830", "is_reserved": 0, "rental_uris": {"android": "https://dc.lft.to/lastmile_qr_scan", "ios": "https://dc.lft.to/lastmile_qr_scan"}, "fusion_lon": 0.0}, {"lat": 38.886818, "is_disabled": 0, "type": "electric_scooter", "lon": -77.01361, "bike_id": "5416dbebed5522f976093f54e3c6c5d1", "fusion_lat": 0.0, "name": "5416dbebed5522f976093f54e3c6c5d1", "is_reserved": 0, "rental_uris": {"android": "https://dc.lft.to/lastmile_qr_scan", "ios": "https://dc.lft.to/lastmile_qr_scan"}, "fusion_lon": 0.0}, {"lat": 38.91113683333333, "is_disabled": 0, "type": "electric_scooter", "lon": -77.03818783333334, "bike_id": "2c5a8337916d415a481f853880ef7c67", "fusion_lat": 0.0, "name": "2c5a8337916d415a481f853880ef7c67", "is_reserved": 0, "rental_uris": {"android": "https://dc.lft.to/lastmile_qr_scan", "ios": "https://dc.lft.to/lastmile_qr_scan"}, "fusion_lon": 0.0}, {"lat": 38.8849105, "is_disabled": 0, "type": "electric_scooter", "lon": -77.00711033333333, "bike_id": "e112577e6618e3cace95bf7eaa663f3d", "fusion_lat": 0.0, "name": "e112577e6618e3cace95bf7eaa663f3d", "is_reserved": 0, "rental_uris": {"android": "https://dc.lft.to/lastmile_qr_scan", "ios": "https://dc.lft.to/lastmile_qr_scan"}, "fusion_lon": 0.0}, {"lat": 38.8665575, "is_disabled": 0, "type": "electric_scooter", "lon": -76.988926, "bike_id": "90fce820a0d0f5cc47d97bdc8dd51d62", "fusion_lat": 0.0, "name": "90fce820a0d0f5cc47d97bdc8dd51d62", "is_reserved": 0, "rental_uris": {"android": "https://dc.lft.to/lastmile_qr_scan", "ios": "https://dc.lft.to/lastmile_qr_scan"}, "fusion_lon": 0.0}, {"lat": 38.941730166666666, "is_disabled": 0, "type": "electric_bike", "lon": -76.984867, "bike_id": "13e687969ae88dd95b3a650cd13d7e02", "fusion_lat": 0.0, "name": "13e687969ae88dd95b3a650cd13d7e02", "is_reserved": 0, "rental_uris": {"android": "https://dc.lft.to/lastmile_qr_scan", "ios": "https://dc.lft.to/lastmile_qr_scan"}, "fusion_lon": 0.0}, {"lat": 38.919093, "is_disabled": 0, "type": "electric_scooter", "lon": -77.041583, "bike_id": "6ea0d3d24723f31a3661cf1328fae5f1", "fusion_lat": 0.0, "name": "6ea0d3d24723f31a3661cf1328fae5f1", "is_reserved": 0, "rental_uris": {"android": "https://dc.lft.to/lastmile_qr_scan", "ios": "https://dc.lft.to/lastmile_qr_scan"}, "fusion_lon": 0.0}, {"lat": 38.998172, "is_disabled": 0, "type": "electric_bike", "lon": -76.88375366666666, "bike_id": "ed26784507175850664be631973612cf", "fusion_lat": 0.0, "name": "ed26784507175850664be631973612cf", "is_reserved": 0, "rental_uris": {"android": "https://dc.lft.to/lastmile_qr_scan", "ios": "https://dc.lft.to/lastmile_qr_scan"}, "fusion_lon": 0.0}, {"lat": 38.902122166666665, "is_disabled": 0, "type": "electric_scooter", "lon": -77.0238205, "bike_id": "11a9d09a17620cd00594230ded8f3cd6", "fusion_lat": 0.0, "name": "11a9d09a17620cd00594230ded8f3cd6", "is_reserved": 0, "rental_uris": {"android": "https://dc.lft.to/lastmile_qr_scan", "ios": "https://dc.lft.to/lastmile_qr_scan"}, "fusion_lon": 0.0}, {"lat": 38.90127533333333, "is_disabled": 0, "type": "electric_scooter", "lon": -77.02888616666667, "bike_id": "86d46c4df640e364e2ac86e92b799d22", "fusion_lat": 0.0, "name": "86d46c4df640e364e2ac86e92b799d22", "is_reserved": 0, "rental_uris": {"android": "https://dc.lft.to/lastmile_qr_scan", "ios": "https://dc.lft.to/lastmile_qr_scan"}, "fusion_lon": 0.0}, {"lat": 39.03042266666667, "is_disabled": 0, "type": "electric_bike", "lon": -77.09483083333333, "bike_id": "1bac2dd607577510090dd2b878a2ec9f", "fusion_lat": 0.0, "name": "1bac2dd607577510090dd2b878a2ec9f", "is_reserved": 0, "rental_uris": {"android": "https://dc.lft.to/lastmile_qr_scan", "ios": "https://dc.lft.to/lastmile_qr_scan"}, "fusion_lon": 0.0}, {"lat": 38.949765666666664, "is_disabled": 0, "type": "electric_scooter", "lon": -77.06762383333333, "bike_id": "0268d04bbd06d552e57d8d1170a67993", "fusion_lat": 0.0, "name": "0268d04bbd06d552e57d8d1170a67993", "is_reserved": 0, "rental_uris": {"android": "https://dc.lft.to/lastmile_qr_scan", "ios": "https://dc.lft.to/lastmile_qr_scan"}, "fusion_lon": 0.0}, {"lat": 39.024293666666665, "is_disabled": 0, "type": "electric_bike", "lon": -77.131011, "bike_id": "e1d2e891f8355dcf3be878925778b6c4", "fusion_lat": 0.0, "name": "e1d2e891f8355dcf3be878925778b6c4", "is_reserved": 0, "rental_uris": {"android": "https://dc.lft.to/lastmile_qr_scan", "ios": "https://dc.lft.to/lastmile_qr_scan"}, "fusion_lon": 0.0}, {"lat": 38.9365025, "is_disabled": 0, "type": "electric_scooter", "lon": -77.03658716666666, "bike_id": "c809c42abee1f6797b2a9570ad86185d", "fusion_lat": 0.0, "name": "c809c42abee1f6797b2a9570ad86185d", "is_reserved": 0, "rental_uris": {"android": "https://dc.lft.to/lastmile_qr_scan", "ios": "https://dc.lft.to/lastmile_qr_scan"}, "fusion_lon": 0.0}, {"lat": 38.906221333333335, "is_disabled": 0, "type": "electric_scooter", "lon": -76.98701883333334, "bike_id": "d67a5c81a0b807c030f2fb4942799031", "fusion_lat": 0.0, "name": "d67a5c81a0b807c030f2fb4942799031", "is_reserved": 0, "rental_uris": {"android": "https://dc.lft.to/lastmile_qr_scan", "ios": "https://dc.lft.to/lastmile_qr_scan"}, "fusion_lon": 0.0}, {"lat": 38.951574666666666, "is_disabled": 0, "type": "electric_scooter", "lon": -77.06768666666666, "bike_id": "51de17312d3814d50811316796526b3f", "fusion_lat": 0.0, "name": "51de17312d3814d50811316796526b3f", "is_reserved": 0, "rental_uris": {"android": "https://dc.lft.to/lastmile_qr_scan", "ios": "https://dc.lft.to/lastmile_qr_scan"}, "fusion_lon": 0.0}, {"lat": 38.913177, "is_disabled": 0, "type": "electric_scooter", "lon": -76.98644350000001, "bike_id": "6a182833b759138aa5435625c059c652", "fusion_lat": 0.0, "name": "6a182833b759138aa5435625c059c652", "is_reserved": 0, "rental_uris": {"android": "https://dc.lft.to/lastmile_qr_scan", "ios": "https://dc.lft.to/lastmile_qr_scan"}, "fusion_lon": 0.0}, {"lat": 38.874681, "is_disabled": 0, "type": "electric_scooter", "lon": -77.0052135, "bike_id": "ce1306528206dcff014d9f9ad084834e", "fusion_lat": 0.0, "name": "ce1306528206dcff014d9f9ad084834e", "is_reserved": 0, "rental_uris": {"android": "https://dc.lft.to/lastmile_qr_scan", "ios": "https://dc.lft.to/lastmile_qr_scan"}, "fusion_lon": 0.0}, {"lat": 38.90774016666667, "is_disabled": 0, "type": "electric_scooter", "lon": -77.03861366666666, "bike_id": "5d4b7c08c9023be24930053f166bc5ef", "fusion_lat": 0.0, "name": "5d4b7c08c9023be24930053f166bc5ef", "is_reserved": 0, "rental_uris": {"android": "https://dc.lft.to/lastmile_qr_scan", "ios": "https://dc.lft.to/lastmile_qr_scan"}, "fusion_lon": 0.0}, {"lat": 38.9147885, "is_disabled": 0, "type": "electric_scooter", "lon": -77.003542, "bike_id": "c5365a7cc9b2ae333ecb59e118f28045", "fusion_lat": 0.0, "name": "c5365a7cc9b2ae333ecb59e118f28045", "is_reserved": 0, "rental_uris": {"android": "https://dc.lft.to/lastmile_qr_scan", "ios": "https://dc.lft.to/lastmile_qr_scan"}, "fusion_lon": 0.0}, {"lat": 38.92187233333333, "is_disabled": 0, "type": "electric_scooter", "lon": -77.03984833333334, "bike_id": "8ae84fdfcb8d01ce071da2cba469d65e", "fusion_lat": 0.0, "name": "8ae84fdfcb8d01ce071da2cba469d65e", "is_reserved": 0, "rental_uris": {"android": "https://dc.lft.to/lastmile_qr_scan", "ios": "https://dc.lft.to/lastmile_qr_scan"}, "fusion_lon": 0.0}, {"lat": 38.914464833333334, "is_disabled": 0, "type": "electric_scooter", "lon": -77.03193816666666, "bike_id": "228c39f3734414e078f898155ca986ab", "fusion_lat": 0.0, "name": "228c39f3734414e078f898155ca986ab", "is_reserved": 0, "rental_uris": {"android": "https://dc.lft.to/lastmile_qr_scan", "ios": "https://dc.lft.to/lastmile_qr_scan"}, "fusion_lon": 0.0}, {"lat": 38.895073833333335, "is_disabled": 0, "type": "electric_scooter", "lon": -77.0221, "bike_id": "14a4645e9abaa348e785d1dc76ef7c39", "fusion_lat": 0.0, "name": "14a4645e9abaa348e785d1dc76ef7c39", "is_reserved": 0, "rental_uris": {"android": "https://dc.lft.to/lastmile_qr_scan", "ios": "https://dc.lft.to/lastmile_qr_scan"}, "fusion_lon": 0.0}, {"lat": 38.9247555, "is_disabled": 0, "type": "electric_scooter", "lon": -77.02834983333334, "bike_id": "83ab461c650f796d2791f945af9536b3", "fusion_lat": 0.0, "name": "83ab461c650f796d2791f945af9536b3", "is_reserved": 0, "rental_uris": {"android": "https://dc.lft.to/lastmile_qr_scan", "ios": "https://dc.lft.to/lastmile_qr_scan"}, "fusion_lon": 0.0}, {"lat": 38.90676066666666, "is_disabled": 0, "type": "electric_scooter", "lon": -77.06267083333333, "bike_id": "2a7673733f2c98b4bd0a3e62c62d0f62", "fusion_lat": 0.0, "name": "2a7673733f2c98b4bd0a3e62c62d0f62", "is_reserved": 0, "rental_uris": {"android": "https://dc.lft.to/lastmile_qr_scan", "ios": "https://dc.lft.to/lastmile_qr_scan"}, "fusion_lon": 0.0}, {"lat": 38.844271166666665, "is_disabled": 0, "type": "electric_scooter", "lon": -76.99780233333334, "bike_id": "3d169fab7522b014204cc84e3a11bd92", "fusion_lat": 0.0, "name": "3d169fab7522b014204cc84e3a11bd92", "is_reserved": 0, "rental_uris": {"android": "https://dc.lft.to/lastmile_qr_scan", "ios": "https://dc.lft.to/lastmile_qr_scan"}, "fusion_lon": 0.0}, {"lat": 38.986531166666666, "is_disabled": 0, "type": "electric_bike", "lon": -77.0564345, "bike_id": "d6fd550c424bfe7305e0eb803460724a", "fusion_lat": 0.0, "name": "d6fd550c424bfe7305e0eb803460724a", "is_reserved": 0, "rental_uris": {"android": "https://dc.lft.to/lastmile_qr_scan", "ios": "https://dc.lft.to/lastmile_qr_scan"}, "fusion_lon": 0.0}, {"lat": 38.88530883333333, "is_disabled": 0, "type": "electric_scooter", "lon": -76.9826735, "bike_id": "e43ef73211579d7b501acbb91d861769", "fusion_lat": 0.0, "name": "e43ef73211579d7b501acbb91d861769", "is_reserved": 0, "rental_uris": {"android": "https://dc.lft.to/lastmile_qr_scan", "ios": "https://dc.lft.to/lastmile_qr_scan"}, "fusion_lon": 0.0}, {"lat": 38.93383083333333, "is_disabled": 0, "type": "electric_scooter", "lon": -76.99517833333333, "bike_id": "084af51afb2ce1e9ee248fccdf479ae3", "fusion_lat": 0.0, "name": "084af51afb2ce1e9ee248fccdf479ae3", "is_reserved": 0, "rental_uris": {"android": "https://dc.lft.to/lastmile_qr_scan", "ios": "https://dc.lft.to/lastmile_qr_scan"}, "fusion_lon": 0.0}, {"lat": 38.98114183333333, "is_disabled": 0, "type": "electric_bike", "lon": -77.09514666666666, "bike_id": "8daa3dc78a5ee3fb06ab05bd8eb20f4a", "fusion_lat": 0.0, "name": "8daa3dc78a5ee3fb06ab05bd8eb20f4a", "is_reserved": 0, "rental_uris": {"android": "https://dc.lft.to/lastmile_qr_scan", "ios": "https://dc.lft.to/lastmile_qr_scan"}, "fusion_lon": 0.0}, {"lat": 38.91758933333333, "is_disabled": 0, "type": "electric_scooter", "lon": -77.04416116666667, "bike_id": "6996f68a379cdcc0b929406a1ee0208e", "fusion_lat": 0.0, "name": "6996f68a379cdcc0b929406a1ee0208e", "is_reserved": 0, "rental_uris": {"android": "https://dc.lft.to/lastmile_qr_scan", "ios": "https://dc.lft.to/lastmile_qr_scan"}, "fusion_lon": 0.0}, {"lat": 38.9245415, "is_disabled": 0, "type": "electric_scooter", "lon": -77.03973683333334, "bike_id": "4cc1246c530ed58af48307d425951594", "fusion_lat": 0.0, "name": "4cc1246c530ed58af48307d425951594", "is_reserved": 0, "rental_uris": {"android": "https://dc.lft.to/lastmile_qr_scan", "ios": "https://dc.lft.to/lastmile_qr_scan"}, "fusion_lon": 0.0}, {"lat": 38.903672666666665, "is_disabled": 0, "type": "electric_scooter", "lon": -77.04472766666666, "bike_id": "81624d6f02274a98ebadc23225c5efc9", "fusion_lat": 0.0, "name": "81624d6f02274a98ebadc23225c5efc9", "is_reserved": 0, "rental_uris": {"android": "https://dc.lft.to/lastmile_qr_scan", "ios": "https://dc.lft.to/lastmile_qr_scan"}, "fusion_lon": 0.0}, {"lat": 38.92798466666667, "is_disabled": 0, "type": "electric_scooter", "lon": -77.02599966666666, "bike_id": "3113d284de40eeab3fefecd5833d1dac", "fusion_lat": 0.0, "name": "3113d284de40eeab3fefecd5833d1dac", "is_reserved": 0, "rental_uris": {"android": "https://dc.lft.to/lastmile_qr_scan", "ios": "https://dc.lft.to/lastmile_qr_scan"}, "fusion_lon": 0.0}, {"lat": 38.897295, "is_disabled": 0, "type": "electric_scooter", "lon": -77.022402, "bike_id": "bf61f97d42a0b196625d7fd0e29939b4", "fusion_lat": 0.0, "name": "bf61f97d42a0b196625d7fd0e29939b4", "is_reserved": 0, "rental_uris": {"android": "https://dc.lft.to/lastmile_qr_scan", "ios": "https://dc.lft.to/lastmile_qr_scan"}, "fusion_lon": 0.0}, {"lat": 38.932837, "is_disabled": 0, "type": "electric_scooter", "lon": -77.0266665, "bike_id": "6e3ed119eac00ee419cc395b05fa8488", "fusion_lat": 0.0, "name": "6e3ed119eac00ee419cc395b05fa8488", "is_reserved": 0, "rental_uris": {"android": "https://dc.lft.to/lastmile_qr_scan", "ios": "https://dc.lft.to/lastmile_qr_scan"}, "fusion_lon": 0.0}, {"lat": 38.9210705, "is_disabled": 0, "type": "electric_scooter", "lon": -77.04679433333334, "bike_id": "c496b660e41b5dcb5ce3f9463ce43de9", "fusion_lat": 0.0, "name": "c496b660e41b5dcb5ce3f9463ce43de9", "is_reserved": 0, "rental_uris": {"android": "https://dc.lft.to/lastmile_qr_scan", "ios": "https://dc.lft.to/lastmile_qr_scan"}, "fusion_lon": 0.0}, {"lat": 38.86361333333333, "is_disabled": 0, "type": "electric_scooter", "lon": -76.99032383333333, "bike_id": "e5697178e54043d755342fc4a1988d5e", "fusion_lat": 0.0, "name": "e5697178e54043d755342fc4a1988d5e", "is_reserved": 0, "rental_uris": {"android": "https://dc.lft.to/lastmile_qr_scan", "ios": "https://dc.lft.to/lastmile_qr_scan"}, "fusion_lon": 0.0}, {"lat": 38.80225033333333, "is_disabled": 0, "type": "electric_bike", "lon": -77.0791745, "bike_id": "56cd944a0acf84c0fea4ff676103fbfb", "fusion_lat": 0.0, "name": "56cd944a0acf84c0fea4ff676103fbfb", "is_reserved": 0, "rental_uris": {"android": "https://dc.lft.to/lastmile_qr_scan", "ios": "https://dc.lft.to/lastmile_qr_scan"}, "fusion_lon": 0.0}, {"lat": 38.9223875, "is_disabled": 0, "type": "electric_scooter", "lon": -77.04572533333334, "bike_id": "686fa8956c76988b4204a5435d65b57a", "fusion_lat": 0.0, "name": "686fa8956c76988b4204a5435d65b57a", "is_reserved": 0, "rental_uris": {"android": "https://dc.lft.to/lastmile_qr_scan", "ios": "https://dc.lft.to/lastmile_qr_scan"}, "fusion_lon": 0.0}, {"lat": 38.901707333333334, "is_disabled": 0, "type": "electric_scooter", "lon": -77.02511816666667, "bike_id": "c94294701dd94ceba8ea082c86fd41a9", "fusion_lat": 0.0, "name": "c94294701dd94ceba8ea082c86fd41a9", "is_reserved": 0, "rental_uris": {"android": "https://dc.lft.to/lastmile_qr_scan", "ios": "https://dc.lft.to/lastmile_qr_scan"}, "fusion_lon": 0.0}, {"lat": 38.89716116666666, "is_disabled": 0, "type": "electric_scooter", "lon": -77.0079855, "bike_id": "75d73249508b43c549b847b1f59d1eed", "fusion_lat": 0.0, "name": "75d73249508b43c549b847b1f59d1eed", "is_reserved": 0, "rental_uris": {"android": "https://dc.lft.to/lastmile_qr_scan", "ios": "https://dc.lft.to/lastmile_qr_scan"}, "fusion_lon": 0.0}, {"lat": 38.89043916666667, "is_disabled": 0, "type": "electric_scooter", "lon": -76.93757033333333, "bike_id": "a00ae5b893f48ba816b2444b8c2feb9c", "fusion_lat": 0.0, "name": "a00ae5b893f48ba816b2444b8c2feb9c", "is_reserved": 0, "rental_uris": {"android": "https://dc.lft.to/lastmile_qr_scan", "ios": "https://dc.lft.to/lastmile_qr_scan"}, "fusion_lon": 0.0}, {"lat": 38.9323185, "is_disabled": 0, "type": "electric_scooter", "lon": -76.99599366666666, "bike_id": "02cbe189d69aedd295091991e40e3a22", "fusion_lat": 0.0, "name": "02cbe189d69aedd295091991e40e3a22", "is_reserved": 0, "rental_uris": {"android": "https://dc.lft.to/lastmile_qr_scan", "ios": "https://dc.lft.to/lastmile_qr_scan"}, "fusion_lon": 0.0}, {"lat": 38.90669366666667, "is_disabled": 0, "type": "electric_scooter", "lon": -77.0270945, "bike_id": "c3ae2948a714cac32d392018d65ad0c4", "fusion_lat": 0.0, "name": "c3ae2948a714cac32d392018d65ad0c4", "is_reserved": 0, "rental_uris": {"android": "https://dc.lft.to/lastmile_qr_scan", "ios": "https://dc.lft.to/lastmile_qr_scan"}, "fusion_lon": 0.0}, {"lat": 38.89735133333333, "is_disabled": 0, "type": "electric_scooter", "lon": -77.04760616666667, "bike_id": "1dab11817bbf76cd0df213984808c4ba", "fusion_lat": 0.0, "name": "1dab11817bbf76cd0df213984808c4ba", "is_reserved": 0, "rental_uris": {"android": "https://dc.lft.to/lastmile_qr_scan", "ios": "https://dc.lft.to/lastmile_qr_scan"}, "fusion_lon": 0.0}, {"lat": 38.850517333333336, "is_disabled": 0, "type": "electric_bike", "lon": -76.9731645, "bike_id": "64ae94c974bd40e98dbd49fade738c27", "fusion_lat": 0.0, "name": "64ae94c974bd40e98dbd49fade738c27", "is_reserved": 0, "rental_uris": {"android": "https://dc.lft.to/lastmile_qr_scan", "ios": "https://dc.lft.to/lastmile_qr_scan"}, "fusion_lon": 0.0}, {"lat": 38.90679166666666, "is_disabled": 0, "type": "electric_scooter", "lon": -77.0375515, "bike_id": "ed4730ca450db7c7dcb1394f075440df", "fusion_lat": 0.0, "name": "ed4730ca450db7c7dcb1394f075440df", "is_reserved": 0, "rental_uris": {"android": "https://dc.lft.to/lastmile_qr_scan", "ios": "https://dc.lft.to/lastmile_qr_scan"}, "fusion_lon": 0.0}, {"lat": 38.9193255, "is_disabled": 0, "type": "electric_scooter", "lon": -77.02304166666667, "bike_id": "d473329a0c86c01710132540992c6967", "fusion_lat": 0.0, "name": "d473329a0c86c01710132540992c6967", "is_reserved": 0, "rental_uris": {"android": "https://dc.lft.to/lastmile_qr_scan", "ios": "https://dc.lft.to/lastmile_qr_scan"}, "fusion_lon": 0.0}, {"lat": 38.908262, "is_disabled": 0, "type": "electric_scooter", "lon": -77.0636975, "bike_id": "e9f3d26ee5fbe22c4f77931b07b4b1fe", "fusion_lat": 0.0, "name": "e9f3d26ee5fbe22c4f77931b07b4b1fe", "is_reserved": 0, "rental_uris": {"android": "https://dc.lft.to/lastmile_qr_scan", "ios": "https://dc.lft.to/lastmile_qr_scan"}, "fusion_lon": 0.0}, {"lat": 38.909669, "is_disabled": 0, "type": "electric_scooter", "lon": -77.03866066666667, "bike_id": "afd47722b0eec2f0adb9288ee8f21cfd", "fusion_lat": 0.0, "name": "afd47722b0eec2f0adb9288ee8f21cfd", "is_reserved": 0, "rental_uris": {"android": "https://dc.lft.to/lastmile_qr_scan", "ios": "https://dc.lft.to/lastmile_qr_scan"}, "fusion_lon": 0.0}, {"lat": 38.92021583333333, "is_disabled": 0, "type": "electric_scooter", "lon": -77.03083916666667, "bike_id": "82a2c54c32bdc80c0e4b8370b3c85677", "fusion_lat": 0.0, "name": "82a2c54c32bdc80c0e4b8370b3c85677", "is_reserved": 0, "rental_uris": {"android": "https://dc.lft.to/lastmile_qr_scan", "ios": "https://dc.lft.to/lastmile_qr_scan"}, "fusion_lon": 0.0}, {"lat": 38.91340316666667, "is_disabled": 0, "type": "electric_scooter", "lon": -77.0319335, "bike_id": "f0a8ff656f2f39dcac0b181074b7c99c", "fusion_lat": 0.0, "name": "f0a8ff656f2f39dcac0b181074b7c99c", "is_reserved": 0, "rental_uris": {"android": "https://dc.lft.to/lastmile_qr_scan", "ios": "https://dc.lft.to/lastmile_qr_scan"}, "fusion_lon": 0.0}, {"lat": 38.923971333333334, "is_disabled": 0, "type": "electric_scooter", "lon": -77.05161983333333, "bike_id": "607fb2c00de35b570e47235d3cead235", "fusion_lat": 0.0, "name": "607fb2c00de35b570e47235d3cead235", "is_reserved": 0, "rental_uris": {"android": "https://dc.lft.to/lastmile_qr_scan", "ios": "https://dc.lft.to/lastmile_qr_scan"}, "fusion_lon": 0.0}, {"lat": 38.8596495, "is_disabled": 0, "type": "electric_bike", "lon": -77.05674566666667, "bike_id": "a7f830d9cb5055e6f5089138ecd5dc7c", "fusion_lat": 0.0, "name": "a7f830d9cb5055e6f5089138ecd5dc7c", "is_reserved": 0, "rental_uris": {"android": "https://dc.lft.to/lastmile_qr_scan", "ios": "https://dc.lft.to/lastmile_qr_scan"}, "fusion_lon": 0.0}, {"lat": 38.90626916666667, "is_disabled": 0, "type": "electric_scooter", "lon": -77.033889, "bike_id": "285aab61844c0b62be4ccc74fc9af651", "fusion_lat": 0.0, "name": "285aab61844c0b62be4ccc74fc9af651", "is_reserved": 0, "rental_uris": {"android": "https://dc.lft.to/lastmile_qr_scan", "ios": "https://dc.lft.to/lastmile_qr_scan"}, "fusion_lon": 0.0}, {"lat": 38.91118433333333, "is_disabled": 0, "type": "electric_scooter", "lon": -77.03826816666667, "bike_id": "82238714d6fb9fb1f7d042705c7b6493", "fusion_lat": 0.0, "name": "82238714d6fb9fb1f7d042705c7b6493", "is_reserved": 0, "rental_uris": {"android": "https://dc.lft.to/lastmile_qr_scan", "ios": "https://dc.lft.to/lastmile_qr_scan"}, "fusion_lon": 0.0}, {"lat": 38.845651333333336, "is_disabled": 0, "type": "electric_bike", "lon": -77.09625, "bike_id": "0c6bd5fe6ca73bac4e86165fb418028b", "fusion_lat": 0.0, "name": "0c6bd5fe6ca73bac4e86165fb418028b", "is_reserved": 0, "rental_uris": {"android": "https://dc.lft.to/lastmile_qr_scan", "ios": "https://dc.lft.to/lastmile_qr_scan"}, "fusion_lon": 0.0}, {"lat": 38.900926166666665, "is_disabled": 0, "type": "electric_scooter", "lon": -77.05057283333333, "bike_id": "970fedfcc0ebf5fd5e603866dd0f03fe", "fusion_lat": 0.0, "name": "970fedfcc0ebf5fd5e603866dd0f03fe", "is_reserved": 0, "rental_uris": {"android": "https://dc.lft.to/lastmile_qr_scan", "ios": "https://dc.lft.to/lastmile_qr_scan"}, "fusion_lon": 0.0}, {"lat": 38.916146166666664, "is_disabled": 0, "type": "electric_scooter", "lon": -77.0329925, "bike_id": "99b0f5d7de07e25528cec3687ccdd0db", "fusion_lat": 0.0, "name": "99b0f5d7de07e25528cec3687ccdd0db", "is_reserved": 0, "rental_uris": {"android": "https://dc.lft.to/lastmile_qr_scan", "ios": "https://dc.lft.to/lastmile_qr_scan"}, "fusion_lon": 0.0}, {"lat": 38.881122, "is_disabled": 0, "type": "electric_scooter", "lon": -76.98336566666667, "bike_id": "2d305ad2e7972f5265bae24780bc2f27", "fusion_lat": 0.0, "name": "2d305ad2e7972f5265bae24780bc2f27", "is_reserved": 0, "rental_uris": {"android": "https://dc.lft.to/lastmile_qr_scan", "ios": "https://dc.lft.to/lastmile_qr_scan"}, "fusion_lon": 0.0}, {"lat": 38.86711183333333, "is_disabled": 0, "type": "electric_scooter", "lon": -76.987263, "bike_id": "379a994e1a7beb97631be5b3caf42b03", "fusion_lat": 0.0, "name": "379a994e1a7beb97631be5b3caf42b03", "is_reserved": 0, "rental_uris": {"android": "https://dc.lft.to/lastmile_qr_scan", "ios": "https://dc.lft.to/lastmile_qr_scan"}, "fusion_lon": 0.0}, {"lat": 38.9366535, "is_disabled": 0, "type": "electric_scooter", "lon": -77.0593085, "bike_id": "7c1fe3c3af3b5b532f36709ed654fd4e", "fusion_lat": 0.0, "name": "7c1fe3c3af3b5b532f36709ed654fd4e", "is_reserved": 0, "rental_uris": {"android": "https://dc.lft.to/lastmile_qr_scan", "ios": "https://dc.lft.to/lastmile_qr_scan"}, "fusion_lon": 0.0}, {"lat": 38.927118, "is_disabled": 0, "type": "electric_scooter", "lon": -77.02094566666666, "bike_id": "df1bda8179e343034c34c33ba3b64b49", "fusion_lat": 0.0, "name": "df1bda8179e343034c34c33ba3b64b49", "is_reserved": 0, "rental_uris": {"android": "https://dc.lft.to/lastmile_qr_scan", "ios": "https://dc.lft.to/lastmile_qr_scan"}, "fusion_lon": 0.0}, {"lat": 38.83692716666667, "is_disabled": 0, "type": "electric_scooter", "lon": -77.10305016666666, "bike_id": "c864c64d9758b41bfe290a4a5e01c7f4", "fusion_lat": 0.0, "name": "c864c64d9758b41bfe290a4a5e01c7f4", "is_reserved": 0, "rental_uris": {"android": "https://dc.lft.to/lastmile_qr_scan", "ios": "https://dc.lft.to/lastmile_qr_scan"}, "fusion_lon": 0.0}, {"lat": 38.87143, "is_disabled": 0, "type": "electric_bike", "lon": -76.93705, "bike_id": "20c6f0d0e5ceb4bddca699656ec57448", "fusion_lat": 0.0, "name": "20c6f0d0e5ceb4bddca699656ec57448", "is_reserved": 0, "rental_uris": {"android": "https://dc.lft.to/lastmile_qr_scan", "ios": "https://dc.lft.to/lastmile_qr_scan"}, "fusion_lon": 0.0}, {"lat": 38.86678633333333, "is_disabled": 0, "type": "electric_scooter", "lon": -76.9854635, "bike_id": "4f33476dc339e5a77a505f5ef3d44817", "fusion_lat": 0.0, "name": "4f33476dc339e5a77a505f5ef3d44817", "is_reserved": 0, "rental_uris": {"android": "https://dc.lft.to/lastmile_qr_scan", "ios": "https://dc.lft.to/lastmile_qr_scan"}, "fusion_lon": 0.0}, {"lat": 38.9343825, "is_disabled": 0, "type": "electric_scooter", "lon": -77.0345705, "bike_id": "2dcd2fe9b970709fa3a2d5a20c1470af", "fusion_lat": 0.0, "name": "2dcd2fe9b970709fa3a2d5a20c1470af", "is_reserved": 0, "rental_uris": {"android": "https://dc.lft.to/lastmile_qr_scan", "ios": "https://dc.lft.to/lastmile_qr_scan"}, "fusion_lon": 0.0}, {"lat": 38.91779666666667, "is_disabled": 0, "type": "electric_scooter", "lon": -77.02313, "bike_id": "59e259136fd8604e1a660bc6e9035c81", "fusion_lat": 0.0, "name": "59e259136fd8604e1a660bc6e9035c81", "is_reserved": 0, "rental_uris": {"android": "https://dc.lft.to/lastmile_qr_scan", "ios": "https://dc.lft.to/lastmile_qr_scan"}, "fusion_lon": 0.0}, {"lat": 38.86211866666667, "is_disabled": 0, "type": "electric_bike", "lon": -76.99779433333333, "bike_id": "dbf0680be9639af5050fb8e3cd32f8ad", "fusion_lat": 0.0, "name": "dbf0680be9639af5050fb8e3cd32f8ad", "is_reserved": 0, "rental_uris": {"android": "https://dc.lft.to/lastmile_qr_scan", "ios": "https://dc.lft.to/lastmile_qr_scan"}, "fusion_lon": 0.0}, {"lat": 38.8706375, "is_disabled": 0, "type": "electric_scooter", "lon": -77.00838633333333, "bike_id": "cb80312feb652f371fab07a36e6accd8", "fusion_lat": 0.0, "name": "cb80312feb652f371fab07a36e6accd8", "is_reserved": 0, "rental_uris": {"android": "https://dc.lft.to/lastmile_qr_scan", "ios": "https://dc.lft.to/lastmile_qr_scan"}, "fusion_lon": 0.0}, {"lat": 38.921128, "is_disabled": 0, "type": "electric_bike", "lon": -77.04827766666666, "bike_id": "813490ff56f16e5b18a6c57fcdb3a5f4", "fusion_lat": 0.0, "name": "813490ff56f16e5b18a6c57fcdb3a5f4", "is_reserved": 0, "rental_uris": {"android": "https://dc.lft.to/lastmile_qr_scan", "ios": "https://dc.lft.to/lastmile_qr_scan"}, "fusion_lon": 0.0}, {"lat": 39.075050166666664, "is_disabled": 0, "type": "electric_bike", "lon": -77.11900433333334, "bike_id": "6883a1575b6331f0159922617c7decad", "fusion_lat": 0.0, "name": "6883a1575b6331f0159922617c7decad", "is_reserved": 0, "rental_uris": {"android": "https://dc.lft.to/lastmile_qr_scan", "ios": "https://dc.lft.to/lastmile_qr_scan"}, "fusion_lon": 0.0}, {"lat": 38.876767, "is_disabled": 0, "type": "electric_scooter", "lon": -77.0001795, "bike_id": "44c6c5a7973f37a2ba3c85646245e8d4", "fusion_lat": 0.0, "name": "44c6c5a7973f37a2ba3c85646245e8d4", "is_reserved": 0, "rental_uris": {"android": "https://dc.lft.to/lastmile_qr_scan", "ios": "https://dc.lft.to/lastmile_qr_scan"}, "fusion_lon": 0.0}, {"lat": 38.921000166666666, "is_disabled": 0, "type": "electric_scooter", "lon": -77.04564366666666, "bike_id": "b465e9bff5f1d74de57554446934724f", "fusion_lat": 0.0, "name": "b465e9bff5f1d74de57554446934724f", "is_reserved": 0, "rental_uris": {"android": "https://dc.lft.to/lastmile_qr_scan", "ios": "https://dc.lft.to/lastmile_qr_scan"}, "fusion_lon": 0.0}, {"lat": 38.90509083333333, "is_disabled": 0, "type": "electric_bike", "lon": -77.056946, "bike_id": "d66ffcba2b1b01d5095373ea72b0f5b1", "fusion_lat": 0.0, "name": "d66ffcba2b1b01d5095373ea72b0f5b1", "is_reserved": 0, "rental_uris": {"android": "https://dc.lft.to/lastmile_qr_scan", "ios": "https://dc.lft.to/lastmile_qr_scan"}, "fusion_lon": 0.0}, {"lat": 38.89845533333333, "is_disabled": 0, "type": "electric_scooter", "lon": -76.944598, "bike_id": "e48884a4578fa1d5d3cbcad78f2b50f8", "fusion_lat": 0.0, "name": "e48884a4578fa1d5d3cbcad78f2b50f8", "is_reserved": 0, "rental_uris": {"android": "https://dc.lft.to/lastmile_qr_scan", "ios": "https://dc.lft.to/lastmile_qr_scan"}, "fusion_lon": 0.0}, {"lat": 38.91579866666667, "is_disabled": 0, "type": "electric_scooter", "lon": -77.04681666666667, "bike_id": "7aac8012b5003747613e59bf93dd5b2b", "fusion_lat": 0.0, "name": "7aac8012b5003747613e59bf93dd5b2b", "is_reserved": 0, "rental_uris": {"android": "https://dc.lft.to/lastmile_qr_scan", "ios": "https://dc.lft.to/lastmile_qr_scan"}, "fusion_lon": 0.0}, {"lat": 38.91455966666667, "is_disabled": 0, "type": "electric_scooter", "lon": -77.002181, "bike_id": "b8900a9a5d6a0a4c2d50f0e1185cdf32", "fusion_lat": 0.0, "name": "b8900a9a5d6a0a4c2d50f0e1185cdf32", "is_reserved": 0, "rental_uris": {"android": "https://dc.lft.to/lastmile_qr_scan", "ios": "https://dc.lft.to/lastmile_qr_scan"}, "fusion_lon": 0.0}, {"lat": 38.899952166666665, "is_disabled": 0, "type": "electric_scooter", "lon": -77.0212215, "bike_id": "e142044d2669eb336752a9964af93ab4", "fusion_lat": 0.0, "name": "e142044d2669eb336752a9964af93ab4", "is_reserved": 0, "rental_uris": {"android": "https://dc.lft.to/lastmile_qr_scan", "ios": "https://dc.lft.to/lastmile_qr_scan"}, "fusion_lon": 0.0}, {"lat": 38.99325283333334, "is_disabled": 0, "type": "electric_bike", "lon": -77.03288183333333, "bike_id": "3b21ef0d39bca9ea1c4b1b40122090a0", "fusion_lat": 0.0, "name": "3b21ef0d39bca9ea1c4b1b40122090a0", "is_reserved": 0, "rental_uris": {"android": "https://dc.lft.to/lastmile_qr_scan", "ios": "https://dc.lft.to/lastmile_qr_scan"}, "fusion_lon": 0.0}, {"lat": 38.873413666666664, "is_disabled": 0, "type": "electric_bike", "lon": -77.0186075, "bike_id": "8f0f80de82da47cc45d901ba62c4733a", "fusion_lat": 0.0, "name": "8f0f80de82da47cc45d901ba62c4733a", "is_reserved": 0, "rental_uris": {"android": "https://dc.lft.to/lastmile_qr_scan", "ios": "https://dc.lft.to/lastmile_qr_scan"}, "fusion_lon": 0.0}, {"lat": 38.902613333333335, "is_disabled": 0, "type": "electric_scooter", "lon": -76.98696566666666, "bike_id": "27f5c2bc73933e3b7ff1a5cfc346765d", "fusion_lat": 0.0, "name": "27f5c2bc73933e3b7ff1a5cfc346765d", "is_reserved": 0, "rental_uris": {"android": "https://dc.lft.to/lastmile_qr_scan", "ios": "https://dc.lft.to/lastmile_qr_scan"}, "fusion_lon": 0.0}, {"lat": 38.90382483333333, "is_disabled": 0, "type": "electric_scooter", "lon": -77.02992616666667, "bike_id": "703684a11f2961e0eab1cb27f1d717a3", "fusion_lat": 0.0, "name": "703684a11f2961e0eab1cb27f1d717a3", "is_reserved": 0, "rental_uris": {"android": "https://dc.lft.to/lastmile_qr_scan", "ios": "https://dc.lft.to/lastmile_qr_scan"}, "fusion_lon": 0.0}, {"lat": 38.89037833333333, "is_disabled": 0, "type": "electric_scooter", "lon": -77.029744, "bike_id": "ebb227a44dc23ffcde1868a8fbc63787", "fusion_lat": 0.0, "name": "ebb227a44dc23ffcde1868a8fbc63787", "is_reserved": 0, "rental_uris": {"android": "https://dc.lft.to/lastmile_qr_scan", "ios": "https://dc.lft.to/lastmile_qr_scan"}, "fusion_lon": 0.0}, {"lat": 38.900709166666665, "is_disabled": 0, "type": "electric_scooter", "lon": -77.00213833333333, "bike_id": "4536b57f3a29e3536cb3a6b043ec3c9a", "fusion_lat": 0.0, "name": "4536b57f3a29e3536cb3a6b043ec3c9a", "is_reserved": 0, "rental_uris": {"android": "https://dc.lft.to/lastmile_qr_scan", "ios": "https://dc.lft.to/lastmile_qr_scan"}, "fusion_lon": 0.0}, {"lat": 38.89989683333334, "is_disabled": 0, "type": "electric_scooter", "lon": -77.05257883333333, "bike_id": "a540a3e70ee407810dbffb4a5f264cad", "fusion_lat": 0.0, "name": "a540a3e70ee407810dbffb4a5f264cad", "is_reserved": 0, "rental_uris": {"android": "https://dc.lft.to/lastmile_qr_scan", "ios": "https://dc.lft.to/lastmile_qr_scan"}, "fusion_lon": 0.0}, {"lat": 38.90414833333333, "is_disabled": 0, "type": "electric_scooter", "lon": -76.9928835, "bike_id": "fdeb038d16e4e0d422b3b4d962cdb634", "fusion_lat": 0.0, "name": "fdeb038d16e4e0d422b3b4d962cdb634", "is_reserved": 0, "rental_uris": {"android": "https://dc.lft.to/lastmile_qr_scan", "ios": "https://dc.lft.to/lastmile_qr_scan"}, "fusion_lon": 0.0}, {"lat": 38.917114, "is_disabled": 0, "type": "electric_scooter", "lon": -77.03476983333333, "bike_id": "b1c35160b430d83d0a6da45de5fe757a", "fusion_lat": 0.0, "name": "b1c35160b430d83d0a6da45de5fe757a", "is_reserved": 0, "rental_uris": {"android": "https://dc.lft.to/lastmile_qr_scan", "ios": "https://dc.lft.to/lastmile_qr_scan"}, "fusion_lon": 0.0}, {"lat": 38.902194333333334, "is_disabled": 0, "type": "electric_scooter", "lon": -77.0231655, "bike_id": "59a45ce24ba05a185768dd2da992673f", "fusion_lat": 0.0, "name": "59a45ce24ba05a185768dd2da992673f", "is_reserved": 0, "rental_uris": {"android": "https://dc.lft.to/lastmile_qr_scan", "ios": "https://dc.lft.to/lastmile_qr_scan"}, "fusion_lon": 0.0}, {"lat": 38.9432395, "is_disabled": 0, "type": "electric_scooter", "lon": -77.01710083333333, "bike_id": "6cb3462438d5fc357ea8da8e96e37ef4", "fusion_lat": 0.0, "name": "6cb3462438d5fc357ea8da8e96e37ef4", "is_reserved": 0, "rental_uris": {"android": "https://dc.lft.to/lastmile_qr_scan", "ios": "https://dc.lft.to/lastmile_qr_scan"}, "fusion_lon": 0.0}, {"lat": 38.908491, "is_disabled": 0, "type": "electric_scooter", "lon": -77.04768633333333, "bike_id": "03faeaceba1c3533d829d59d5d0c24a2", "fusion_lat": 0.0, "name": "03faeaceba1c3533d829d59d5d0c24a2", "is_reserved": 0, "rental_uris": {"android": "https://dc.lft.to/lastmile_qr_scan", "ios": "https://dc.lft.to/lastmile_qr_scan"}, "fusion_lon": 0.0}, {"lat": 38.862541666666665, "is_disabled": 0, "type": "electric_scooter", "lon": -76.99512966666667, "bike_id": "904fc2e46d048adc37936e9756a637cb", "fusion_lat": 0.0, "name": "904fc2e46d048adc37936e9756a637cb", "is_reserved": 0, "rental_uris": {"android": "https://dc.lft.to/lastmile_qr_scan", "ios": "https://dc.lft.to/lastmile_qr_scan"}, "fusion_lon": 0.0}, {"lat": 38.90070083333333, "is_disabled": 0, "type": "electric_scooter", "lon": -77.0271755, "bike_id": "1b92bc47d3d1f9bf3547151aa441b7e2", "fusion_lat": 0.0, "name": "1b92bc47d3d1f9bf3547151aa441b7e2", "is_reserved": 0, "rental_uris": {"android": "https://dc.lft.to/lastmile_qr_scan", "ios": "https://dc.lft.to/lastmile_qr_scan"}, "fusion_lon": 0.0}, {"lat": 38.805633666666665, "is_disabled": 0, "type": "electric_bike", "lon": -77.05154933333333, "bike_id": "4446ae4d5ba7f8be6d3a26643702c1cc", "fusion_lat": 0.0, "name": "4446ae4d5ba7f8be6d3a26643702c1cc", "is_reserved": 0, "rental_uris": {"android": "https://dc.lft.to/lastmile_qr_scan", "ios": "https://dc.lft.to/lastmile_qr_scan"}, "fusion_lon": 0.0}, {"lat": 38.9022695, "is_disabled": 0, "type": "electric_scooter", "lon": -77.04595333333333, "bike_id": "86fc9a2966fb957fb74843cfd6b3defb", "fusion_lat": 0.0, "name": "86fc9a2966fb957fb74843cfd6b3defb", "is_reserved": 0, "rental_uris": {"android": "https://dc.lft.to/lastmile_qr_scan", "ios": "https://dc.lft.to/lastmile_qr_scan"}, "fusion_lon": 0.0}, {"lat": 38.889253, "is_disabled": 0, "type": "electric_scooter", "lon": -76.97374766666667, "bike_id": "0580ff3e0f3bc910a755856c62b80e62", "fusion_lat": 0.0, "name": "0580ff3e0f3bc910a755856c62b80e62", "is_reserved": 0, "rental_uris": {"android": "https://dc.lft.to/lastmile_qr_scan", "ios": "https://dc.lft.to/lastmile_qr_scan"}, "fusion_lon": 0.0}, {"lat": 38.92495016666667, "is_disabled": 0, "type": "electric_scooter", "lon": -77.0214975, "bike_id": "9fae31ca89e885bf0e336d87dca0d4b4", "fusion_lat": 0.0, "name": "9fae31ca89e885bf0e336d87dca0d4b4", "is_reserved": 0, "rental_uris": {"android": "https://dc.lft.to/lastmile_qr_scan", "ios": "https://dc.lft.to/lastmile_qr_scan"}, "fusion_lon": 0.0}, {"lat": 38.900763833333336, "is_disabled": 0, "type": "electric_scooter", "lon": -77.00211733333333, "bike_id": "0d643a87f17f44f8ea7c835c075a5eb9", "fusion_lat": 0.0, "name": "0d643a87f17f44f8ea7c835c075a5eb9", "is_reserved": 0, "rental_uris": {"android": "https://dc.lft.to/lastmile_qr_scan", "ios": "https://dc.lft.to/lastmile_qr_scan"}, "fusion_lon": 0.0}, {"lat": 38.86162083333333, "is_disabled": 0, "type": "electric_bike", "lon": -77.1309415, "bike_id": "0a2fed61208c148761b25031cce45ed0", "fusion_lat": 0.0, "name": "0a2fed61208c148761b25031cce45ed0", "is_reserved": 0, "rental_uris": {"android": "https://dc.lft.to/lastmile_qr_scan", "ios": "https://dc.lft.to/lastmile_qr_scan"}, "fusion_lon": 0.0}, {"lat": 38.93580433333333, "is_disabled": 0, "type": "electric_scooter", "lon": -77.03758016666667, "bike_id": "b75c8935d4d0804280438b649e88dc51", "fusion_lat": 0.0, "name": "b75c8935d4d0804280438b649e88dc51", "is_reserved": 0, "rental_uris": {"android": "https://dc.lft.to/lastmile_qr_scan", "ios": "https://dc.lft.to/lastmile_qr_scan"}, "fusion_lon": 0.0}, {"lat": 38.90760616666667, "is_disabled": 0, "type": "electric_scooter", "lon": -77.04149583333333, "bike_id": "ba885abb8f6f521e3c4f438674f0d159", "fusion_lat": 0.0, "name": "ba885abb8f6f521e3c4f438674f0d159", "is_reserved": 0, "rental_uris": {"android": "https://dc.lft.to/lastmile_qr_scan", "ios": "https://dc.lft.to/lastmile_qr_scan"}, "fusion_lon": 0.0}, {"lat": 38.8827275, "is_disabled": 0, "type": "electric_bike", "lon": -76.93240066666667, "bike_id": "83b6cc1b862944433fb66bc0761f3443", "fusion_lat": 0.0, "name": "83b6cc1b862944433fb66bc0761f3443", "is_reserved": 0, "rental_uris": {"android": "https://dc.lft.to/lastmile_qr_scan", "ios": "https://dc.lft.to/lastmile_qr_scan"}, "fusion_lon": 0.0}, {"lat": 38.90193416666666, "is_disabled": 0, "type": "electric_scooter", "lon": -77.021679, "bike_id": "17aa37a11b9d7d62c2f091a106b7591f", "fusion_lat": 0.0, "name": "17aa37a11b9d7d62c2f091a106b7591f", "is_reserved": 0, "rental_uris": {"android": "https://dc.lft.to/lastmile_qr_scan", "ios": "https://dc.lft.to/lastmile_qr_scan"}, "fusion_lon": 0.0}, {"lat": 38.899703833333334, "is_disabled": 0, "type": "electric_scooter", "lon": -77.0526915, "bike_id": "3ee3c95271a3b141aed09b0a08b88f15", "fusion_lat": 0.0, "name": "3ee3c95271a3b141aed09b0a08b88f15", "is_reserved": 0, "rental_uris": {"android": "https://dc.lft.to/lastmile_qr_scan", "ios": "https://dc.lft.to/lastmile_qr_scan"}, "fusion_lon": 0.0}, {"lat": 38.903336833333334, "is_disabled": 0, "type": "electric_scooter", "lon": -76.97055683333333, "bike_id": "b7199bf52387e0ba8ddffa414ace994e", "fusion_lat": 0.0, "name": "b7199bf52387e0ba8ddffa414ace994e", "is_reserved": 0, "rental_uris": {"android": "https://dc.lft.to/lastmile_qr_scan", "ios": "https://dc.lft.to/lastmile_qr_scan"}, "fusion_lon": 0.0}, {"lat": 38.906329, "is_disabled": 0, "type": "electric_scooter", "lon": -77.00608616666666, "bike_id": "cae0c2944096bc6ee7a7c541b424e52f", "fusion_lat": 0.0, "name": "cae0c2944096bc6ee7a7c541b424e52f", "is_reserved": 0, "rental_uris": {"android": "https://dc.lft.to/lastmile_qr_scan", "ios": "https://dc.lft.to/lastmile_qr_scan"}, "fusion_lon": 0.0}, {"lat": 38.95733383333334, "is_disabled": 0, "type": "electric_scooter", "lon": -77.02382066666667, "bike_id": "54e550458cae354975f9e3e88cf9040f", "fusion_lat": 0.0, "name": "54e550458cae354975f9e3e88cf9040f", "is_reserved": 0, "rental_uris": {"android": "https://dc.lft.to/lastmile_qr_scan", "ios": "https://dc.lft.to/lastmile_qr_scan"}, "fusion_lon": 0.0}, {"lat": 38.91495283333333, "is_disabled": 0, "type": "electric_scooter", "lon": -76.98366716666666, "bike_id": "ce3a963f4f42ab6a57ec2a6705fc68e0", "fusion_lat": 0.0, "name": "ce3a963f4f42ab6a57ec2a6705fc68e0", "is_reserved": 0, "rental_uris": {"android": "https://dc.lft.to/lastmile_qr_scan", "ios": "https://dc.lft.to/lastmile_qr_scan"}, "fusion_lon": 0.0}, {"lat": 38.908842, "is_disabled": 0, "type": "electric_scooter", "lon": -77.03664266666667, "bike_id": "56978ab63de2064e4bbd76e3bf8548ee", "fusion_lat": 0.0, "name": "56978ab63de2064e4bbd76e3bf8548ee", "is_reserved": 0, "rental_uris": {"android": "https://dc.lft.to/lastmile_qr_scan", "ios": "https://dc.lft.to/lastmile_qr_scan"}, "fusion_lon": 0.0}, {"lat": 38.911991666666665, "is_disabled": 0, "type": "electric_scooter", "lon": -77.044903, "bike_id": "48d6ac8523a1b341f87ee39f71a107eb", "fusion_lat": 0.0, "name": "48d6ac8523a1b341f87ee39f71a107eb", "is_reserved": 0, "rental_uris": {"android": "https://dc.lft.to/lastmile_qr_scan", "ios": "https://dc.lft.to/lastmile_qr_scan"}, "fusion_lon": 0.0}, {"lat": 38.86617716666667, "is_disabled": 0, "type": "electric_scooter", "lon": -76.98666433333334, "bike_id": "27e203d5b216af58c4cea24b11c55ccf", "fusion_lat": 0.0, "name": "27e203d5b216af58c4cea24b11c55ccf", "is_reserved": 0, "rental_uris": {"android": "https://dc.lft.to/lastmile_qr_scan", "ios": "https://dc.lft.to/lastmile_qr_scan"}, "fusion_lon": 0.0}, {"lat": 38.90149233333333, "is_disabled": 0, "type": "electric_scooter", "lon": -77.05106133333334, "bike_id": "a04653e4f787f2464a88ca446becd85d", "fusion_lat": 0.0, "name": "a04653e4f787f2464a88ca446becd85d", "is_reserved": 0, "rental_uris": {"android": "https://dc.lft.to/lastmile_qr_scan", "ios": "https://dc.lft.to/lastmile_qr_scan"}, "fusion_lon": 0.0}, {"lat": 38.8942725, "is_disabled": 0, "type": "electric_scooter", "lon": -77.020951, "bike_id": "1d7ba9df3ae9f709a7e8e338b83da861", "fusion_lat": 0.0, "name": "1d7ba9df3ae9f709a7e8e338b83da861", "is_reserved": 0, "rental_uris": {"android": "https://dc.lft.to/lastmile_qr_scan", "ios": "https://dc.lft.to/lastmile_qr_scan"}, "fusion_lon": 0.0}, {"lat": 38.9507655, "is_disabled": 0, "type": "electric_bike", "lon": -77.01195583333333, "bike_id": "5e3ec6547fb56f2a3edba23a3563fec3", "fusion_lat": 0.0, "name": "5e3ec6547fb56f2a3edba23a3563fec3", "is_reserved": 0, "rental_uris": {"android": "https://dc.lft.to/lastmile_qr_scan", "ios": "https://dc.lft.to/lastmile_qr_scan"}, "fusion_lon": 0.0}, {"lat": 38.9057735, "is_disabled": 0, "type": "electric_scooter", "lon": -77.02204383333333, "bike_id": "f604c62199f98bfd1b49cea391a5719e", "fusion_lat": 0.0, "name": "f604c62199f98bfd1b49cea391a5719e", "is_reserved": 0, "rental_uris": {"android": "https://dc.lft.to/lastmile_qr_scan", "ios": "https://dc.lft.to/lastmile_qr_scan"}, "fusion_lon": 0.0}, {"lat": 38.909517, "is_disabled": 0, "type": "electric_scooter", "lon": -77.04796516666667, "bike_id": "003338077ff30165487077d1b64f6ac0", "fusion_lat": 0.0, "name": "003338077ff30165487077d1b64f6ac0", "is_reserved": 0, "rental_uris": {"android": "https://dc.lft.to/lastmile_qr_scan", "ios": "https://dc.lft.to/lastmile_qr_scan"}, "fusion_lon": 0.0}, {"lat": 38.89732566666667, "is_disabled": 0, "type": "electric_scooter", "lon": -77.04984683333333, "bike_id": "a8fa939a4342caed89429f1123d45b9b", "fusion_lat": 0.0, "name": "a8fa939a4342caed89429f1123d45b9b", "is_reserved": 0, "rental_uris": {"android": "https://dc.lft.to/lastmile_qr_scan", "ios": "https://dc.lft.to/lastmile_qr_scan"}, "fusion_lon": 0.0}, {"lat": 38.900746833333336, "is_disabled": 0, "type": "electric_scooter", "lon": -77.049062, "bike_id": "1a1b4be2c7e7f9aa8b110cb0cb20920c", "fusion_lat": 0.0, "name": "1a1b4be2c7e7f9aa8b110cb0cb20920c", "is_reserved": 0, "rental_uris": {"android": "https://dc.lft.to/lastmile_qr_scan", "ios": "https://dc.lft.to/lastmile_qr_scan"}, "fusion_lon": 0.0}, {"lat": 38.90551966666666, "is_disabled": 0, "type": "electric_scooter", "lon": -77.00564066666666, "bike_id": "30d2bbb4a3a3f4169aefe624ce092318", "fusion_lat": 0.0, "name": "30d2bbb4a3a3f4169aefe624ce092318", "is_reserved": 0, "rental_uris": {"android": "https://dc.lft.to/lastmile_qr_scan", "ios": "https://dc.lft.to/lastmile_qr_scan"}, "fusion_lon": 0.0}, {"lat": 38.9925695, "is_disabled": 0, "type": "electric_scooter", "lon": -77.03659016666667, "bike_id": "8d137c49705da70ed04927ddfd984a36", "fusion_lat": 0.0, "name": "8d137c49705da70ed04927ddfd984a36", "is_reserved": 0, "rental_uris": {"android": "https://dc.lft.to/lastmile_qr_scan", "ios": "https://dc.lft.to/lastmile_qr_scan"}, "fusion_lon": 0.0}, {"lat": 38.905331333333336, "is_disabled": 0, "type": "electric_scooter", "lon": -77.0630905, "bike_id": "7b96742048d8265282a6fcd8de1927a9", "fusion_lat": 0.0, "name": "7b96742048d8265282a6fcd8de1927a9", "is_reserved": 0, "rental_uris": {"android": "https://dc.lft.to/lastmile_qr_scan", "ios": "https://dc.lft.to/lastmile_qr_scan"}, "fusion_lon": 0.0}, {"lat": 38.910519666666666, "is_disabled": 0, "type": "electric_scooter", "lon": -77.04377316666667, "bike_id": "3f9a2ae6b032b9a3fb4f566f7f389f32", "fusion_lat": 0.0, "name": "3f9a2ae6b032b9a3fb4f566f7f389f32", "is_reserved": 0, "rental_uris": {"android": "https://dc.lft.to/lastmile_qr_scan", "ios": "https://dc.lft.to/lastmile_qr_scan"}, "fusion_lon": 0.0}, {"lat": 38.94550516666666, "is_disabled": 0, "type": "electric_bike", "lon": -76.89537266666666, "bike_id": "ff8e32bc7bb6a1153445678906c739d3", "fusion_lat": 0.0, "name": "ff8e32bc7bb6a1153445678906c739d3", "is_reserved": 0, "rental_uris": {"android": "https://dc.lft.to/lastmile_qr_scan", "ios": "https://dc.lft.to/lastmile_qr_scan"}, "fusion_lon": 0.0}, {"lat": 38.9365475, "is_disabled": 0, "type": "electric_bike", "lon": -76.95222866666667, "bike_id": "fa32166b64b67e8a1ee9aa36f97db393", "fusion_lat": 0.0, "name": "fa32166b64b67e8a1ee9aa36f97db393", "is_reserved": 0, "rental_uris": {"android": "https://dc.lft.to/lastmile_qr_scan", "ios": "https://dc.lft.to/lastmile_qr_scan"}, "fusion_lon": 0.0}, {"lat": 39.0342245, "is_disabled": 0, "type": "electric_bike", "lon": -77.04315033333333, "bike_id": "26e775463cb44ca7f68a5512db192e3f", "fusion_lat": 0.0, "name": "26e775463cb44ca7f68a5512db192e3f", "is_reserved": 0, "rental_uris": {"android": "https://dc.lft.to/lastmile_qr_scan", "ios": "https://dc.lft.to/lastmile_qr_scan"}, "fusion_lon": 0.0}, {"lat": 38.903740166666665, "is_disabled": 0, "type": "electric_scooter", "lon": -77.03870616666667, "bike_id": "b91a8fe7e97bee4c602f61202fe92999", "fusion_lat": 0.0, "name": "b91a8fe7e97bee4c602f61202fe92999", "is_reserved": 0, "rental_uris": {"android": "https://dc.lft.to/lastmile_qr_scan", "ios": "https://dc.lft.to/lastmile_qr_scan"}, "fusion_lon": 0.0}, {"lat": 38.8625645, "is_disabled": 0, "type": "electric_scooter", "lon": -76.99517833333333, "bike_id": "46be071d5871fab44a4003148f57a493", "fusion_lat": 0.0, "name": "46be071d5871fab44a4003148f57a493", "is_reserved": 0, "rental_uris": {"android": "https://dc.lft.to/lastmile_qr_scan", "ios": "https://dc.lft.to/lastmile_qr_scan"}, "fusion_lon": 0.0}, {"lat": 38.851884166666665, "is_disabled": 0, "type": "electric_scooter", "lon": -76.97620866666666, "bike_id": "1ad1e6b0b5690c1eb6763b4a0ee78a6a", "fusion_lat": 0.0, "name": "1ad1e6b0b5690c1eb6763b4a0ee78a6a", "is_reserved": 0, "rental_uris": {"android": "https://dc.lft.to/lastmile_qr_scan", "ios": "https://dc.lft.to/lastmile_qr_scan"}, "fusion_lon": 0.0}, {"lat": 38.937386000000004, "is_disabled": 0, "type": "electric_scooter", "lon": -77.036167, "bike_id": "1256a7186afcb51cb6c09fc6827d101d", "fusion_lat": 0.0, "name": "1256a7186afcb51cb6c09fc6827d101d", "is_reserved": 0, "rental_uris": {"android": "https://dc.lft.to/lastmile_qr_scan", "ios": "https://dc.lft.to/lastmile_qr_scan"}, "fusion_lon": 0.0}, {"lat": 38.9259375, "is_disabled": 0, "type": "electric_scooter", "lon": -77.0440285, "bike_id": "ee3fec54848a1f2ba57c689eaf631faf", "fusion_lat": 0.0, "name": "ee3fec54848a1f2ba57c689eaf631faf", "is_reserved": 0, "rental_uris": {"android": "https://dc.lft.to/lastmile_qr_scan", "ios": "https://dc.lft.to/lastmile_qr_scan"}, "fusion_lon": 0.0}, {"lat": 38.898506, "is_disabled": 0, "type": "electric_scooter", "lon": -76.99035766666667, "bike_id": "3947fce444952492d1a22507c4b6f1bd", "fusion_lat": 0.0, "name": "3947fce444952492d1a22507c4b6f1bd", "is_reserved": 0, "rental_uris": {"android": "https://dc.lft.to/lastmile_qr_scan", "ios": "https://dc.lft.to/lastmile_qr_scan"}, "fusion_lon": 0.0}, {"lat": 38.844309333333335, "is_disabled": 0, "type": "electric_scooter", "lon": -76.9965995, "bike_id": "85e0958723878c95e2d9d39a1e11453d", "fusion_lat": 0.0, "name": "85e0958723878c95e2d9d39a1e11453d", "is_reserved": 0, "rental_uris": {"android": "https://dc.lft.to/lastmile_qr_scan", "ios": "https://dc.lft.to/lastmile_qr_scan"}, "fusion_lon": 0.0}, {"lat": 38.929596, "is_disabled": 0, "type": "electric_scooter", "lon": -77.03077983333333, "bike_id": "e65c0a636a69059ff0be2b033c822d5d", "fusion_lat": 0.0, "name": "e65c0a636a69059ff0be2b033c822d5d", "is_reserved": 0, "rental_uris": {"android": "https://dc.lft.to/lastmile_qr_scan", "ios": "https://dc.lft.to/lastmile_qr_scan"}, "fusion_lon": 0.0}, {"lat": 38.931097, "is_disabled": 0, "type": "electric_scooter", "lon": -77.03403666666667, "bike_id": "5affd213d0f7231f868dd3064b05991f", "fusion_lat": 0.0, "name": "5affd213d0f7231f868dd3064b05991f", "is_reserved": 0, "rental_uris": {"android": "https://dc.lft.to/lastmile_qr_scan", "ios": "https://dc.lft.to/lastmile_qr_scan"}, "fusion_lon": 0.0}, {"lat": 38.858468333333334, "is_disabled": 0, "type": "electric_bike", "lon": -77.09753983333333, "bike_id": "ca1065bf5c7ebffbba258040c51857e6", "fusion_lat": 0.0, "name": "ca1065bf5c7ebffbba258040c51857e6", "is_reserved": 0, "rental_uris": {"android": "https://dc.lft.to/lastmile_qr_scan", "ios": "https://dc.lft.to/lastmile_qr_scan"}, "fusion_lon": 0.0}, {"lat": 38.90740516666666, "is_disabled": 0, "type": "electric_scooter", "lon": -77.04206766666667, "bike_id": "e0e1ccb5779baadd22addb5a800268e6", "fusion_lat": 0.0, "name": "e0e1ccb5779baadd22addb5a800268e6", "is_reserved": 0, "rental_uris": {"android": "https://dc.lft.to/lastmile_qr_scan", "ios": "https://dc.lft.to/lastmile_qr_scan"}, "fusion_lon": 0.0}, {"lat": 38.921129666666666, "is_disabled": 0, "type": "electric_bike", "lon": -76.98577233333333, "bike_id": "5401ef99edf4f3dab857a9bd909ca3dd", "fusion_lat": 0.0, "name": "5401ef99edf4f3dab857a9bd909ca3dd", "is_reserved": 0, "rental_uris": {"android": "https://dc.lft.to/lastmile_qr_scan", "ios": "https://dc.lft.to/lastmile_qr_scan"}, "fusion_lon": 0.0}, {"lat": 38.904995666666665, "is_disabled": 0, "type": "electric_scooter", "lon": -77.0483555, "bike_id": "8325aa34e0807550d208e526fdf2999f", "fusion_lat": 0.0, "name": "8325aa34e0807550d208e526fdf2999f", "is_reserved": 0, "rental_uris": {"android": "https://dc.lft.to/lastmile_qr_scan", "ios": "https://dc.lft.to/lastmile_qr_scan"}, "fusion_lon": 0.0}, {"lat": 38.913818166666665, "is_disabled": 0, "type": "electric_scooter", "lon": -77.01896766666667, "bike_id": "1a25d909289d694922b54f642a8774bf", "fusion_lat": 0.0, "name": "1a25d909289d694922b54f642a8774bf", "is_reserved": 0, "rental_uris": {"android": "https://dc.lft.to/lastmile_qr_scan", "ios": "https://dc.lft.to/lastmile_qr_scan"}, "fusion_lon": 0.0}, {"lat": 38.940411, "is_disabled": 0, "type": "electric_bike", "lon": -77.0516155, "bike_id": "fcc147afc9e5a16df393a8999db34033", "fusion_lat": 0.0, "name": "fcc147afc9e5a16df393a8999db34033", "is_reserved": 0, "rental_uris": {"android": "https://dc.lft.to/lastmile_qr_scan", "ios": "https://dc.lft.to/lastmile_qr_scan"}, "fusion_lon": 0.0}, {"lat": 38.902848, "is_disabled": 0, "type": "electric_scooter", "lon": -77.0635425, "bike_id": "5741c3163b1b6418129127042debc75f", "fusion_lat": 0.0, "name": "5741c3163b1b6418129127042debc75f", "is_reserved": 0, "rental_uris": {"android": "https://dc.lft.to/lastmile_qr_scan", "ios": "https://dc.lft.to/lastmile_qr_scan"}, "fusion_lon": 0.0}, {"lat": 38.9309855, "is_disabled": 0, "type": "electric_scooter", "lon": -77.02498916666667, "bike_id": "1a1a0f6911bc829ec09e1ef56a65549d", "fusion_lat": 0.0, "name": "1a1a0f6911bc829ec09e1ef56a65549d", "is_reserved": 0, "rental_uris": {"android": "https://dc.lft.to/lastmile_qr_scan", "ios": "https://dc.lft.to/lastmile_qr_scan"}, "fusion_lon": 0.0}, {"lat": 38.90377766666667, "is_disabled": 0, "type": "electric_scooter", "lon": -77.0383285, "bike_id": "ebefe124679f72b9b59e6b3fd89071b6", "fusion_lat": 0.0, "name": "ebefe124679f72b9b59e6b3fd89071b6", "is_reserved": 0, "rental_uris": {"android": "https://dc.lft.to/lastmile_qr_scan", "ios": "https://dc.lft.to/lastmile_qr_scan"}, "fusion_lon": 0.0}, {"lat": 38.90599116666667, "is_disabled": 0, "type": "electric_scooter", "lon": -77.02708133333333, "bike_id": "b3646c73a2357b7502612eba4e1ce9c5", "fusion_lat": 0.0, "name": "b3646c73a2357b7502612eba4e1ce9c5", "is_reserved": 0, "rental_uris": {"android": "https://dc.lft.to/lastmile_qr_scan", "ios": "https://dc.lft.to/lastmile_qr_scan"}, "fusion_lon": 0.0}, {"lat": 38.890437666666664, "is_disabled": 0, "type": "electric_scooter", "lon": -76.94083366666666, "bike_id": "581abba912cda6ad8cbe11e88a65157b", "fusion_lat": 0.0, "name": "581abba912cda6ad8cbe11e88a65157b", "is_reserved": 0, "rental_uris": {"android": "https://dc.lft.to/lastmile_qr_scan", "ios": "https://dc.lft.to/lastmile_qr_scan"}, "fusion_lon": 0.0}, {"lat": 38.911701666666666, "is_disabled": 0, "type": "electric_scooter", "lon": -77.0384435, "bike_id": "6eb8d14f31452ccff32a53264ce1aead", "fusion_lat": 0.0, "name": "6eb8d14f31452ccff32a53264ce1aead", "is_reserved": 0, "rental_uris": {"android": "https://dc.lft.to/lastmile_qr_scan", "ios": "https://dc.lft.to/lastmile_qr_scan"}, "fusion_lon": 0.0}, {"lat": 38.95871866666667, "is_disabled": 0, "type": "electric_bike", "lon": -76.9248315, "bike_id": "9707b433ab6adbf62642d12531f2b501", "fusion_lat": 0.0, "name": "9707b433ab6adbf62642d12531f2b501", "is_reserved": 0, "rental_uris": {"android": "https://dc.lft.to/lastmile_qr_scan", "ios": "https://dc.lft.to/lastmile_qr_scan"}, "fusion_lon": 0.0}, {"lat": 38.917055500000004, "is_disabled": 0, "type": "electric_scooter", "lon": -77.0347265, "bike_id": "982209e5c4dd7c8526faf8d0e886a732", "fusion_lat": 0.0, "name": "982209e5c4dd7c8526faf8d0e886a732", "is_reserved": 0, "rental_uris": {"android": "https://dc.lft.to/lastmile_qr_scan", "ios": "https://dc.lft.to/lastmile_qr_scan"}, "fusion_lon": 0.0}, {"lat": 38.920723333333335, "is_disabled": 0, "type": "electric_scooter", "lon": -77.01432166666666, "bike_id": "0d081b71932e1747a7b83c914d8550fc", "fusion_lat": 0.0, "name": "0d081b71932e1747a7b83c914d8550fc", "is_reserved": 0, "rental_uris": {"android": "https://dc.lft.to/lastmile_qr_scan", "ios": "https://dc.lft.to/lastmile_qr_scan"}, "fusion_lon": 0.0}, {"lat": 38.902241, "is_disabled": 0, "type": "electric_scooter", "lon": -77.02317683333334, "bike_id": "b4b5ca932e53fdd131af40891c2d004c", "fusion_lat": 0.0, "name": "b4b5ca932e53fdd131af40891c2d004c", "is_reserved": 0, "rental_uris": {"android": "https://dc.lft.to/lastmile_qr_scan", "ios": "https://dc.lft.to/lastmile_qr_scan"}, "fusion_lon": 0.0}, {"lat": 38.92746266666666, "is_disabled": 0, "type": "electric_scooter", "lon": -77.0241835, "bike_id": "ecd6e61cd3f0fe52e1f539753468f54f", "fusion_lat": 0.0, "name": "ecd6e61cd3f0fe52e1f539753468f54f", "is_reserved": 0, "rental_uris": {"android": "https://dc.lft.to/lastmile_qr_scan", "ios": "https://dc.lft.to/lastmile_qr_scan"}, "fusion_lon": 0.0}, {"lat": 38.917497833333336, "is_disabled": 0, "type": "electric_scooter", "lon": -77.03594433333333, "bike_id": "022db9cc71a81f99b3e42305caa7e96e", "fusion_lat": 0.0, "name": "022db9cc71a81f99b3e42305caa7e96e", "is_reserved": 0, "rental_uris": {"android": "https://dc.lft.to/lastmile_qr_scan", "ios": "https://dc.lft.to/lastmile_qr_scan"}, "fusion_lon": 0.0}, {"lat": 38.89224866666667, "is_disabled": 0, "type": "electric_scooter", "lon": -77.0241075, "bike_id": "0a3bd6f2fd52d1a730175176baa4038e", "fusion_lat": 0.0, "name": "0a3bd6f2fd52d1a730175176baa4038e", "is_reserved": 0, "rental_uris": {"android": "https://dc.lft.to/lastmile_qr_scan", "ios": "https://dc.lft.to/lastmile_qr_scan"}, "fusion_lon": 0.0}, {"lat": 38.897588666666664, "is_disabled": 0, "type": "electric_scooter", "lon": -77.04661383333334, "bike_id": "a93087764a136c38b7b43ae422c8293b", "fusion_lat": 0.0, "name": "a93087764a136c38b7b43ae422c8293b", "is_reserved": 0, "rental_uris": {"android": "https://dc.lft.to/lastmile_qr_scan", "ios": "https://dc.lft.to/lastmile_qr_scan"}, "fusion_lon": 0.0}, {"lat": 38.901483166666665, "is_disabled": 0, "type": "electric_scooter", "lon": -77.00068933333333, "bike_id": "abd131f6c27c1c59100832f7cf622b58", "fusion_lat": 0.0, "name": "abd131f6c27c1c59100832f7cf622b58", "is_reserved": 0, "rental_uris": {"android": "https://dc.lft.to/lastmile_qr_scan", "ios": "https://dc.lft.to/lastmile_qr_scan"}, "fusion_lon": 0.0}, {"lat": 38.923531, "is_disabled": 0, "type": "electric_scooter", "lon": -77.0414465, "bike_id": "c5a86e5e2121f68c58f09160bdc7259c", "fusion_lat": 0.0, "name": "c5a86e5e2121f68c58f09160bdc7259c", "is_reserved": 0, "rental_uris": {"android": "https://dc.lft.to/lastmile_qr_scan", "ios": "https://dc.lft.to/lastmile_qr_scan"}, "fusion_lon": 0.0}, {"lat": 38.946316333333336, "is_disabled": 0, "type": "electric_scooter", "lon": -77.02518433333333, "bike_id": "eec75fb231ca0d9758af3ea87b5318ff", "fusion_lat": 0.0, "name": "eec75fb231ca0d9758af3ea87b5318ff", "is_reserved": 0, "rental_uris": {"android": "https://dc.lft.to/lastmile_qr_scan", "ios": "https://dc.lft.to/lastmile_qr_scan"}, "fusion_lon": 0.0}, {"lat": 38.95734733333333, "is_disabled": 0, "type": "electric_scooter", "lon": -77.024033, "bike_id": "70400c3be2037f44baf9857efc57c037", "fusion_lat": 0.0, "name": "70400c3be2037f44baf9857efc57c037", "is_reserved": 0, "rental_uris": {"android": "https://dc.lft.to/lastmile_qr_scan", "ios": "https://dc.lft.to/lastmile_qr_scan"}, "fusion_lon": 0.0}, {"lat": 38.90258016666667, "is_disabled": 0, "type": "electric_scooter", "lon": -77.0395595, "bike_id": "9c1de7e3278217b3f6fb38de238a373b", "fusion_lat": 0.0, "name": "9c1de7e3278217b3f6fb38de238a373b", "is_reserved": 0, "rental_uris": {"android": "https://dc.lft.to/lastmile_qr_scan", "ios": "https://dc.lft.to/lastmile_qr_scan"}, "fusion_lon": 0.0}, {"lat": 38.932865, "is_disabled": 0, "type": "electric_scooter", "lon": -77.03549833333334, "bike_id": "aee6b54e40ed253ad4013cbd8ca1a8f8", "fusion_lat": 0.0, "name": "aee6b54e40ed253ad4013cbd8ca1a8f8", "is_reserved": 0, "rental_uris": {"android": "https://dc.lft.to/lastmile_qr_scan", "ios": "https://dc.lft.to/lastmile_qr_scan"}, "fusion_lon": 0.0}, {"lat": 38.957808, "is_disabled": 0, "type": "electric_scooter", "lon": -77.02753633333333, "bike_id": "d10ddb17fbf7e8ef148029721b53e084", "fusion_lat": 0.0, "name": "d10ddb17fbf7e8ef148029721b53e084", "is_reserved": 0, "rental_uris": {"android": "https://dc.lft.to/lastmile_qr_scan", "ios": "https://dc.lft.to/lastmile_qr_scan"}, "fusion_lon": 0.0}, {"lat": 38.9088115, "is_disabled": 0, "type": "electric_scooter", "lon": -77.0367435, "bike_id": "029b1d17b952e1b68523effffcd64fdc", "fusion_lat": 0.0, "name": "029b1d17b952e1b68523effffcd64fdc", "is_reserved": 0, "rental_uris": {"android": "https://dc.lft.to/lastmile_qr_scan", "ios": "https://dc.lft.to/lastmile_qr_scan"}, "fusion_lon": 0.0}, {"lat": 38.92591616666667, "is_disabled": 0, "type": "electric_scooter", "lon": -77.0226975, "bike_id": "0ecee727640c78edc2f58836b5653856", "fusion_lat": 0.0, "name": "0ecee727640c78edc2f58836b5653856", "is_reserved": 0, "rental_uris": {"android": "https://dc.lft.to/lastmile_qr_scan", "ios": "https://dc.lft.to/lastmile_qr_scan"}, "fusion_lon": 0.0}, {"lat": 38.95651483333333, "is_disabled": 0, "type": "electric_scooter", "lon": -77.02398066666667, "bike_id": "50dd729b44b7aebf5ef3eeec7baaa792", "fusion_lat": 0.0, "name": "50dd729b44b7aebf5ef3eeec7baaa792", "is_reserved": 0, "rental_uris": {"android": "https://dc.lft.to/lastmile_qr_scan", "ios": "https://dc.lft.to/lastmile_qr_scan"}, "fusion_lon": 0.0}, {"lat": 38.919130333333335, "is_disabled": 0, "type": "electric_scooter", "lon": -77.03371166666666, "bike_id": "9acbecf88dc5571352edab36e4e34285", "fusion_lat": 0.0, "name": "9acbecf88dc5571352edab36e4e34285", "is_reserved": 0, "rental_uris": {"android": "https://dc.lft.to/lastmile_qr_scan", "ios": "https://dc.lft.to/lastmile_qr_scan"}, "fusion_lon": 0.0}, {"lat": 38.90103666666667, "is_disabled": 0, "type": "electric_scooter", "lon": -77.04929083333333, "bike_id": "e76f7454d568a2f32f1a717727f5474e", "fusion_lat": 0.0, "name": "e76f7454d568a2f32f1a717727f5474e", "is_reserved": 0, "rental_uris": {"android": "https://dc.lft.to/lastmile_qr_scan", "ios": "https://dc.lft.to/lastmile_qr_scan"}, "fusion_lon": 0.0}, {"lat": 38.939746, "is_disabled": 0, "type": "electric_scooter", "lon": -77.03589383333333, "bike_id": "557f57d5f21e8e57c767a428fb6fbbfe", "fusion_lat": 0.0, "name": "557f57d5f21e8e57c767a428fb6fbbfe", "is_reserved": 0, "rental_uris": {"android": "https://dc.lft.to/lastmile_qr_scan", "ios": "https://dc.lft.to/lastmile_qr_scan"}, "fusion_lon": 0.0}, {"lat": 38.911283833333336, "is_disabled": 0, "type": "electric_scooter", "lon": -77.04411266666666, "bike_id": "06bb65e272fc6269feb8a9d71814269b", "fusion_lat": 0.0, "name": "06bb65e272fc6269feb8a9d71814269b", "is_reserved": 0, "rental_uris": {"android": "https://dc.lft.to/lastmile_qr_scan", "ios": "https://dc.lft.to/lastmile_qr_scan"}, "fusion_lon": 0.0}, {"lat": 38.905668, "is_disabled": 0, "type": "electric_scooter", "lon": -77.04668216666667, "bike_id": "0c0c84c619f0fbcc6901d29a9e599bcb", "fusion_lat": 0.0, "name": "0c0c84c619f0fbcc6901d29a9e599bcb", "is_reserved": 0, "rental_uris": {"android": "https://dc.lft.to/lastmile_qr_scan", "ios": "https://dc.lft.to/lastmile_qr_scan"}, "fusion_lon": 0.0}, {"lat": 38.923712333333334, "is_disabled": 0, "type": "electric_scooter", "lon": -77.0316595, "bike_id": "1986c70e4b23505cc26c1edf122bfa5a", "fusion_lat": 0.0, "name": "1986c70e4b23505cc26c1edf122bfa5a", "is_reserved": 0, "rental_uris": {"android": "https://dc.lft.to/lastmile_qr_scan", "ios": "https://dc.lft.to/lastmile_qr_scan"}, "fusion_lon": 0.0}, {"lat": 38.96131166666667, "is_disabled": 0, "type": "electric_scooter", "lon": -77.0223625, "bike_id": "2ab860bd7d7a4f9fc6edc28363ac1b2e", "fusion_lat": 0.0, "name": "2ab860bd7d7a4f9fc6edc28363ac1b2e", "is_reserved": 0, "rental_uris": {"android": "https://dc.lft.to/lastmile_qr_scan", "ios": "https://dc.lft.to/lastmile_qr_scan"}, "fusion_lon": 0.0}, {"lat": 38.9128575, "is_disabled": 0, "type": "electric_scooter", "lon": -77.03847733333333, "bike_id": "b31b9316554ad921a305ec56c14b0615", "fusion_lat": 0.0, "name": "b31b9316554ad921a305ec56c14b0615", "is_reserved": 0, "rental_uris": {"android": "https://dc.lft.to/lastmile_qr_scan", "ios": "https://dc.lft.to/lastmile_qr_scan"}, "fusion_lon": 0.0}, {"lat": 38.9235455, "is_disabled": 0, "type": "electric_bike", "lon": -76.97139466666667, "bike_id": "d9870f43f041c9b834f8ecc6a37b02d5", "fusion_lat": 0.0, "name": "d9870f43f041c9b834f8ecc6a37b02d5", "is_reserved": 0, "rental_uris": {"android": "https://dc.lft.to/lastmile_qr_scan", "ios": "https://dc.lft.to/lastmile_qr_scan"}, "fusion_lon": 0.0}, {"lat": 38.90669033333333, "is_disabled": 0, "type": "electric_scooter", "lon": -77.03857416666666, "bike_id": "412b78c9b1327354054b44829dab728c", "fusion_lat": 0.0, "name": "412b78c9b1327354054b44829dab728c", "is_reserved": 0, "rental_uris": {"android": "https://dc.lft.to/lastmile_qr_scan", "ios": "https://dc.lft.to/lastmile_qr_scan"}, "fusion_lon": 0.0}, {"lat": 38.91021583333333, "is_disabled": 0, "type": "electric_scooter", "lon": -77.034449, "bike_id": "3813ed174d3d857f5212ccbc620c0c1f", "fusion_lat": 0.0, "name": "3813ed174d3d857f5212ccbc620c0c1f", "is_reserved": 0, "rental_uris": {"android": "https://dc.lft.to/lastmile_qr_scan", "ios": "https://dc.lft.to/lastmile_qr_scan"}, "fusion_lon": 0.0}, {"lat": 38.92974383333333, "is_disabled": 0, "type": "electric_scooter", "lon": -77.013023, "bike_id": "da6390cd660440a42d39ed9be8ea1d81", "fusion_lat": 0.0, "name": "da6390cd660440a42d39ed9be8ea1d81", "is_reserved": 0, "rental_uris": {"android": "https://dc.lft.to/lastmile_qr_scan", "ios": "https://dc.lft.to/lastmile_qr_scan"}, "fusion_lon": 0.0}, {"lat": 38.8714675, "is_disabled": 0, "type": "electric_bike", "lon": -76.937032, "bike_id": "34c7d28ae9226f9402760ad68c0d703c", "fusion_lat": 0.0, "name": "34c7d28ae9226f9402760ad68c0d703c", "is_reserved": 0, "rental_uris": {"android": "https://dc.lft.to/lastmile_qr_scan", "ios": "https://dc.lft.to/lastmile_qr_scan"}, "fusion_lon": 0.0}, {"lat": 38.910219, "is_disabled": 0, "type": "electric_scooter", "lon": -77.04870616666666, "bike_id": "0804a313444251f5df1b27334035fac0", "fusion_lat": 0.0, "name": "0804a313444251f5df1b27334035fac0", "is_reserved": 0, "rental_uris": {"android": "https://dc.lft.to/lastmile_qr_scan", "ios": "https://dc.lft.to/lastmile_qr_scan"}, "fusion_lon": 0.0}, {"lat": 38.8570995, "is_disabled": 0, "type": "electric_bike", "lon": -76.97107033333333, "bike_id": "89c03c370c035f21df1c4661343a6fd8", "fusion_lat": 0.0, "name": "89c03c370c035f21df1c4661343a6fd8", "is_reserved": 0, "rental_uris": {"android": "https://dc.lft.to/lastmile_qr_scan", "ios": "https://dc.lft.to/lastmile_qr_scan"}, "fusion_lon": 0.0}, {"lat": 38.91004233333334, "is_disabled": 0, "type": "electric_scooter", "lon": -77.0442565, "bike_id": "9d6985881570a6fb805138eeb18a1a41", "fusion_lat": 0.0, "name": "9d6985881570a6fb805138eeb18a1a41", "is_reserved": 0, "rental_uris": {"android": "https://dc.lft.to/lastmile_qr_scan", "ios": "https://dc.lft.to/lastmile_qr_scan"}, "fusion_lon": 0.0}, {"lat": 38.888853166666664, "is_disabled": 0, "type": "electric_scooter", "lon": -76.9315445, "bike_id": "eb94bb95f15a8309b5ca2a2707e9e004", "fusion_lat": 0.0, "name": "eb94bb95f15a8309b5ca2a2707e9e004", "is_reserved": 0, "rental_uris": {"android": "https://dc.lft.to/lastmile_qr_scan", "ios": "https://dc.lft.to/lastmile_qr_scan"}, "fusion_lon": 0.0}, {"lat": 38.907230166666665, "is_disabled": 0, "type": "electric_scooter", "lon": -77.04644616666667, "bike_id": "bafa3e363d6de3792f5f6f13af9a1ed1", "fusion_lat": 0.0, "name": "bafa3e363d6de3792f5f6f13af9a1ed1", "is_reserved": 0, "rental_uris": {"android": "https://dc.lft.to/lastmile_qr_scan", "ios": "https://dc.lft.to/lastmile_qr_scan"}, "fusion_lon": 0.0}, {"lat": 38.925576, "is_disabled": 0, "type": "electric_scooter", "lon": -77.0334955, "bike_id": "a19337b845b0e472dc41d1e32c4bc65d", "fusion_lat": 0.0, "name": "a19337b845b0e472dc41d1e32c4bc65d", "is_reserved": 0, "rental_uris": {"android": "https://dc.lft.to/lastmile_qr_scan", "ios": "https://dc.lft.to/lastmile_qr_scan"}, "fusion_lon": 0.0}, {"lat": 38.96146683333333, "is_disabled": 0, "type": "electric_scooter", "lon": -77.0279975, "bike_id": "3ca7b6fcddd09e82c7bb82ada84e64a4", "fusion_lat": 0.0, "name": "3ca7b6fcddd09e82c7bb82ada84e64a4", "is_reserved": 0, "rental_uris": {"android": "https://dc.lft.to/lastmile_qr_scan", "ios": "https://dc.lft.to/lastmile_qr_scan"}, "fusion_lon": 0.0}, {"lat": 38.9118165, "is_disabled": 0, "type": "electric_scooter", "lon": -77.04303116666667, "bike_id": "b54bf9dc18e96ef216171a8e7cc2b50a", "fusion_lat": 0.0, "name": "b54bf9dc18e96ef216171a8e7cc2b50a", "is_reserved": 0, "rental_uris": {"android": "https://dc.lft.to/lastmile_qr_scan", "ios": "https://dc.lft.to/lastmile_qr_scan"}, "fusion_lon": 0.0}, {"lat": 38.89041116666667, "is_disabled": 0, "type": "electric_scooter", "lon": -76.95247583333334, "bike_id": "28d614b7eecdb88a6ea0f5a385db66cc", "fusion_lat": 0.0, "name": "28d614b7eecdb88a6ea0f5a385db66cc", "is_reserved": 0, "rental_uris": {"android": "https://dc.lft.to/lastmile_qr_scan", "ios": "https://dc.lft.to/lastmile_qr_scan"}, "fusion_lon": 0.0}, {"lat": 38.902670666666666, "is_disabled": 0, "type": "electric_scooter", "lon": -77.04368933333333, "bike_id": "88cb7a83b9bee54d705ffc7759fbfbfe", "fusion_lat": 0.0, "name": "88cb7a83b9bee54d705ffc7759fbfbfe", "is_reserved": 0, "rental_uris": {"android": "https://dc.lft.to/lastmile_qr_scan", "ios": "https://dc.lft.to/lastmile_qr_scan"}, "fusion_lon": 0.0}, {"lat": 38.924824666666666, "is_disabled": 0, "type": "electric_scooter", "lon": -77.02841416666666, "bike_id": "bf9d6257503fd144917293eb77473562", "fusion_lat": 0.0, "name": "bf9d6257503fd144917293eb77473562", "is_reserved": 0, "rental_uris": {"android": "https://dc.lft.to/lastmile_qr_scan", "ios": "https://dc.lft.to/lastmile_qr_scan"}, "fusion_lon": 0.0}, {"lat": 38.89815316666667, "is_disabled": 0, "type": "electric_scooter", "lon": -76.9969395, "bike_id": "04654fe6b4f73828596dcd9cf2fca414", "fusion_lat": 0.0, "name": "04654fe6b4f73828596dcd9cf2fca414", "is_reserved": 0, "rental_uris": {"android": "https://dc.lft.to/lastmile_qr_scan", "ios": "https://dc.lft.to/lastmile_qr_scan"}, "fusion_lon": 0.0}, {"lat": 38.90822516666667, "is_disabled": 0, "type": "electric_scooter", "lon": -77.00220966666667, "bike_id": "dcb88a41d23ed65e67c07837339f0659", "fusion_lat": 0.0, "name": "dcb88a41d23ed65e67c07837339f0659", "is_reserved": 0, "rental_uris": {"android": "https://dc.lft.to/lastmile_qr_scan", "ios": "https://dc.lft.to/lastmile_qr_scan"}, "fusion_lon": 0.0}, {"lat": 39.056330333333335, "is_disabled": 0, "type": "electric_bike", "lon": -77.1252685, "bike_id": "7242deb46bf74b3ab65ea1ccd44b8825", "fusion_lat": 0.0, "name": "7242deb46bf74b3ab65ea1ccd44b8825", "is_reserved": 0, "rental_uris": {"android": "https://dc.lft.to/lastmile_qr_scan", "ios": "https://dc.lft.to/lastmile_qr_scan"}, "fusion_lon": 0.0}, {"lat": 38.919642333333336, "is_disabled": 0, "type": "electric_scooter", "lon": -77.01213666666666, "bike_id": "c5b8e5c5c9872379475ec74df352e2b4", "fusion_lat": 0.0, "name": "c5b8e5c5c9872379475ec74df352e2b4", "is_reserved": 0, "rental_uris": {"android": "https://dc.lft.to/lastmile_qr_scan", "ios": "https://dc.lft.to/lastmile_qr_scan"}, "fusion_lon": 0.0}, {"lat": 38.91562616666667, "is_disabled": 0, "type": "electric_scooter", "lon": -77.03210383333334, "bike_id": "bf74c4c0ad16e2a0db61b7c57f2a38f8", "fusion_lat": 0.0, "name": "bf74c4c0ad16e2a0db61b7c57f2a38f8", "is_reserved": 0, "rental_uris": {"android": "https://dc.lft.to/lastmile_qr_scan", "ios": "https://dc.lft.to/lastmile_qr_scan"}, "fusion_lon": 0.0}, {"lat": 38.88739983333333, "is_disabled": 0, "type": "electric_scooter", "lon": -77.0153465, "bike_id": "0529fa78cbe03e8af27d250b6d83a0a7", "fusion_lat": 0.0, "name": "0529fa78cbe03e8af27d250b6d83a0a7", "is_reserved": 0, "rental_uris": {"android": "https://dc.lft.to/lastmile_qr_scan", "ios": "https://dc.lft.to/lastmile_qr_scan"}, "fusion_lon": 0.0}, {"lat": 38.88416866666667, "is_disabled": 0, "type": "electric_bike", "lon": -76.9542195, "bike_id": "0e7b03ede92377d288a36a72e71c5ad2", "fusion_lat": 0.0, "name": "0e7b03ede92377d288a36a72e71c5ad2", "is_reserved": 0, "rental_uris": {"android": "https://dc.lft.to/lastmile_qr_scan", "ios": "https://dc.lft.to/lastmile_qr_scan"}, "fusion_lon": 0.0}, {"lat": 38.905607333333336, "is_disabled": 0, "type": "electric_scooter", "lon": -77.03419183333334, "bike_id": "26547d09a6a818a7c7bcfce5769cfce8", "fusion_lat": 0.0, "name": "26547d09a6a818a7c7bcfce5769cfce8", "is_reserved": 0, "rental_uris": {"android": "https://dc.lft.to/lastmile_qr_scan", "ios": "https://dc.lft.to/lastmile_qr_scan"}, "fusion_lon": 0.0}, {"lat": 38.92202983333333, "is_disabled": 0, "type": "electric_scooter", "lon": -77.04014283333333, "bike_id": "2ea0d63d76337da001fd6e516718f2f3", "fusion_lat": 0.0, "name": "2ea0d63d76337da001fd6e516718f2f3", "is_reserved": 0, "rental_uris": {"android": "https://dc.lft.to/lastmile_qr_scan", "ios": "https://dc.lft.to/lastmile_qr_scan"}, "fusion_lon": 0.0}, {"lat": 38.90382566666667, "is_disabled": 0, "type": "electric_scooter", "lon": -77.04345266666667, "bike_id": "5d57c3a1e179822539e521e2b3b9bd06", "fusion_lat": 0.0, "name": "5d57c3a1e179822539e521e2b3b9bd06", "is_reserved": 0, "rental_uris": {"android": "https://dc.lft.to/lastmile_qr_scan", "ios": "https://dc.lft.to/lastmile_qr_scan"}, "fusion_lon": 0.0}, {"lat": 38.86910666666667, "is_disabled": 0, "type": "electric_bike", "lon": -77.1318095, "bike_id": "b1434a886d8eaa0d845747dc6bef13af", "fusion_lat": 0.0, "name": "b1434a886d8eaa0d845747dc6bef13af", "is_reserved": 0, "rental_uris": {"android": "https://dc.lft.to/lastmile_qr_scan", "ios": "https://dc.lft.to/lastmile_qr_scan"}, "fusion_lon": 0.0}, {"lat": 38.9149105, "is_disabled": 0, "type": "electric_scooter", "lon": -77.0325215, "bike_id": "06e006ea7b5e7b357fe9a503425de6cc", "fusion_lat": 0.0, "name": "06e006ea7b5e7b357fe9a503425de6cc", "is_reserved": 0, "rental_uris": {"android": "https://dc.lft.to/lastmile_qr_scan", "ios": "https://dc.lft.to/lastmile_qr_scan"}, "fusion_lon": 0.0}, {"lat": 38.885964333333334, "is_disabled": 0, "type": "electric_scooter", "lon": -77.02192833333334, "bike_id": "4ddecebbf29e7e39dada8795d19dc1b7", "fusion_lat": 0.0, "name": "4ddecebbf29e7e39dada8795d19dc1b7", "is_reserved": 0, "rental_uris": {"android": "https://dc.lft.to/lastmile_qr_scan", "ios": "https://dc.lft.to/lastmile_qr_scan"}, "fusion_lon": 0.0}, {"lat": 38.931722666666666, "is_disabled": 0, "type": "electric_scooter", "lon": -77.02819883333333, "bike_id": "9ab5bf766119f7773496bb3bfe600991", "fusion_lat": 0.0, "name": "9ab5bf766119f7773496bb3bfe600991", "is_reserved": 0, "rental_uris": {"android": "https://dc.lft.to/lastmile_qr_scan", "ios": "https://dc.lft.to/lastmile_qr_scan"}, "fusion_lon": 0.0}, {"lat": 38.890407, "is_disabled": 0, "type": "electric_scooter", "lon": -76.95142933333334, "bike_id": "b02de46335a766db21113f2c2cb3d00f", "fusion_lat": 0.0, "name": "b02de46335a766db21113f2c2cb3d00f", "is_reserved": 0, "rental_uris": {"android": "https://dc.lft.to/lastmile_qr_scan", "ios": "https://dc.lft.to/lastmile_qr_scan"}, "fusion_lon": 0.0}, {"lat": 38.90779583333333, "is_disabled": 0, "type": "electric_scooter", "lon": -77.0425195, "bike_id": "0c86f7cb9839814830b3bf7d579b7307", "fusion_lat": 0.0, "name": "0c86f7cb9839814830b3bf7d579b7307", "is_reserved": 0, "rental_uris": {"android": "https://dc.lft.to/lastmile_qr_scan", "ios": "https://dc.lft.to/lastmile_qr_scan"}, "fusion_lon": 0.0}, {"lat": 38.90652, "is_disabled": 0, "type": "electric_scooter", "lon": -77.02595716666667, "bike_id": "b2b8f09990339cda9676ccca9412335d", "fusion_lat": 0.0, "name": "b2b8f09990339cda9676ccca9412335d", "is_reserved": 0, "rental_uris": {"android": "https://dc.lft.to/lastmile_qr_scan", "ios": "https://dc.lft.to/lastmile_qr_scan"}, "fusion_lon": 0.0}, {"lat": 38.917792, "is_disabled": 0, "type": "electric_scooter", "lon": -77.02315166666666, "bike_id": "dc867e329eaa04ef3239029aba45960d", "fusion_lat": 0.0, "name": "dc867e329eaa04ef3239029aba45960d", "is_reserved": 0, "rental_uris": {"android": "https://dc.lft.to/lastmile_qr_scan", "ios": "https://dc.lft.to/lastmile_qr_scan"}, "fusion_lon": 0.0}, {"lat": 38.840266, "is_disabled": 0, "type": "electric_bike", "lon": -76.97613133333333, "bike_id": "491c5aac4b29f565f67ab50778eceba0", "fusion_lat": 0.0, "name": "491c5aac4b29f565f67ab50778eceba0", "is_reserved": 0, "rental_uris": {"android": "https://dc.lft.to/lastmile_qr_scan", "ios": "https://dc.lft.to/lastmile_qr_scan"}, "fusion_lon": 0.0}, {"lat": 38.9161025, "is_disabled": 0, "type": "electric_scooter", "lon": -77.0212695, "bike_id": "e2c75b26d161d1e0920efb71c2a1ba7e", "fusion_lat": 0.0, "name": "e2c75b26d161d1e0920efb71c2a1ba7e", "is_reserved": 0, "rental_uris": {"android": "https://dc.lft.to/lastmile_qr_scan", "ios": "https://dc.lft.to/lastmile_qr_scan"}, "fusion_lon": 0.0}, {"lat": 38.92005183333333, "is_disabled": 0, "type": "electric_scooter", "lon": -77.02060066666667, "bike_id": "8dc9958851e954eeb1fbab02eda69468", "fusion_lat": 0.0, "name": "8dc9958851e954eeb1fbab02eda69468", "is_reserved": 0, "rental_uris": {"android": "https://dc.lft.to/lastmile_qr_scan", "ios": "https://dc.lft.to/lastmile_qr_scan"}, "fusion_lon": 0.0}, {"lat": 38.94578, "is_disabled": 0, "type": "electric_scooter", "lon": -77.0645395, "bike_id": "7519aec7ad8130458fdaeb8b43066995", "fusion_lat": 0.0, "name": "7519aec7ad8130458fdaeb8b43066995", "is_reserved": 0, "rental_uris": {"android": "https://dc.lft.to/lastmile_qr_scan", "ios": "https://dc.lft.to/lastmile_qr_scan"}, "fusion_lon": 0.0}, {"lat": 38.897168666666666, "is_disabled": 0, "type": "electric_scooter", "lon": -77.00800566666666, "bike_id": "b7f00b7000610cde68721af645029f99", "fusion_lat": 0.0, "name": "b7f00b7000610cde68721af645029f99", "is_reserved": 0, "rental_uris": {"android": "https://dc.lft.to/lastmile_qr_scan", "ios": "https://dc.lft.to/lastmile_qr_scan"}, "fusion_lon": 0.0}, {"lat": 38.90579283333334, "is_disabled": 0, "type": "electric_scooter", "lon": -77.02932066666666, "bike_id": "f2b95170bdfbf2b158ae2272b141bf82", "fusion_lat": 0.0, "name": "f2b95170bdfbf2b158ae2272b141bf82", "is_reserved": 0, "rental_uris": {"android": "https://dc.lft.to/lastmile_qr_scan", "ios": "https://dc.lft.to/lastmile_qr_scan"}, "fusion_lon": 0.0}, {"lat": 38.917057666666665, "is_disabled": 0, "type": "electric_bike", "lon": -77.02738983333333, "bike_id": "a3df669b780de1fc1f2f849c8966ac4c", "fusion_lat": 0.0, "name": "a3df669b780de1fc1f2f849c8966ac4c", "is_reserved": 0, "rental_uris": {"android": "https://dc.lft.to/lastmile_qr_scan", "ios": "https://dc.lft.to/lastmile_qr_scan"}, "fusion_lon": 0.0}, {"lat": 38.91049266666667, "is_disabled": 0, "type": "electric_scooter", "lon": -77.01512616666666, "bike_id": "5322d68f7b97b6c6cff48c0d5b56c8f5", "fusion_lat": 0.0, "name": "5322d68f7b97b6c6cff48c0d5b56c8f5", "is_reserved": 0, "rental_uris": {"android": "https://dc.lft.to/lastmile_qr_scan", "ios": "https://dc.lft.to/lastmile_qr_scan"}, "fusion_lon": 0.0}, {"lat": 38.95404166666667, "is_disabled": 0, "type": "electric_scooter", "lon": -77.03629316666667, "bike_id": "837d900e48d4d9e69e9dd36342c838ff", "fusion_lat": 0.0, "name": "837d900e48d4d9e69e9dd36342c838ff", "is_reserved": 0, "rental_uris": {"android": "https://dc.lft.to/lastmile_qr_scan", "ios": "https://dc.lft.to/lastmile_qr_scan"}, "fusion_lon": 0.0}, {"lat": 38.88661466666667, "is_disabled": 0, "type": "electric_bike", "lon": -77.16234016666667, "bike_id": "0cc71dca134eb56f75ac0935306390bc", "fusion_lat": 0.0, "name": "0cc71dca134eb56f75ac0935306390bc", "is_reserved": 0, "rental_uris": {"android": "https://dc.lft.to/lastmile_qr_scan", "ios": "https://dc.lft.to/lastmile_qr_scan"}, "fusion_lon": 0.0}, {"lat": 38.9128865, "is_disabled": 0, "type": "electric_scooter", "lon": -77.0238865, "bike_id": "647c8458c77357b219829ca073f18cfd", "fusion_lat": 0.0, "name": "647c8458c77357b219829ca073f18cfd", "is_reserved": 0, "rental_uris": {"android": "https://dc.lft.to/lastmile_qr_scan", "ios": "https://dc.lft.to/lastmile_qr_scan"}, "fusion_lon": 0.0}, {"lat": 38.90416416666667, "is_disabled": 0, "type": "electric_scooter", "lon": -77.0689, "bike_id": "d5a72448a2f5fe6da8a3ba87048fe80a", "fusion_lat": 0.0, "name": "d5a72448a2f5fe6da8a3ba87048fe80a", "is_reserved": 0, "rental_uris": {"android": "https://dc.lft.to/lastmile_qr_scan", "ios": "https://dc.lft.to/lastmile_qr_scan"}, "fusion_lon": 0.0}, {"lat": 38.90263083333333, "is_disabled": 0, "type": "electric_scooter", "lon": -77.00215116666666, "bike_id": "6fac6d96cb2eda6efb279ffc7b600227", "fusion_lat": 0.0, "name": "6fac6d96cb2eda6efb279ffc7b600227", "is_reserved": 0, "rental_uris": {"android": "https://dc.lft.to/lastmile_qr_scan", "ios": "https://dc.lft.to/lastmile_qr_scan"}, "fusion_lon": 0.0}, {"lat": 38.92048483333333, "is_disabled": 0, "type": "electric_scooter", "lon": -77.0347285, "bike_id": "5a97675017bc74c01669629bf453b85a", "fusion_lat": 0.0, "name": "5a97675017bc74c01669629bf453b85a", "is_reserved": 0, "rental_uris": {"android": "https://dc.lft.to/lastmile_qr_scan", "ios": "https://dc.lft.to/lastmile_qr_scan"}, "fusion_lon": 0.0}, {"lat": 38.89659366666667, "is_disabled": 0, "type": "electric_scooter", "lon": -77.0397635, "bike_id": "ed76cbb86e9d283bf29682cace297708", "fusion_lat": 0.0, "name": "ed76cbb86e9d283bf29682cace297708", "is_reserved": 0, "rental_uris": {"android": "https://dc.lft.to/lastmile_qr_scan", "ios": "https://dc.lft.to/lastmile_qr_scan"}, "fusion_lon": 0.0}, {"lat": 38.90057133333333, "is_disabled": 0, "type": "electric_scooter", "lon": -77.00197483333334, "bike_id": "ae114a0e68e8270b1de3e0a45dbb9a9f", "fusion_lat": 0.0, "name": "ae114a0e68e8270b1de3e0a45dbb9a9f", "is_reserved": 0, "rental_uris": {"android": "https://dc.lft.to/lastmile_qr_scan", "ios": "https://dc.lft.to/lastmile_qr_scan"}, "fusion_lon": 0.0}, {"lat": 38.90577833333333, "is_disabled": 0, "type": "electric_scooter", "lon": -77.00887083333333, "bike_id": "2e4c8b6a17e180846b4471704cd78574", "fusion_lat": 0.0, "name": "2e4c8b6a17e180846b4471704cd78574", "is_reserved": 0, "rental_uris": {"android": "https://dc.lft.to/lastmile_qr_scan", "ios": "https://dc.lft.to/lastmile_qr_scan"}, "fusion_lon": 0.0}, {"lat": 38.9079255, "is_disabled": 0, "type": "electric_scooter", "lon": -77.0436375, "bike_id": "799de68fdb0b86c805a1d3eb8662aaa2", "fusion_lat": 0.0, "name": "799de68fdb0b86c805a1d3eb8662aaa2", "is_reserved": 0, "rental_uris": {"android": "https://dc.lft.to/lastmile_qr_scan", "ios": "https://dc.lft.to/lastmile_qr_scan"}, "fusion_lon": 0.0}, {"lat": 38.9388775, "is_disabled": 0, "type": "electric_scooter", "lon": -77.03283366666666, "bike_id": "6776ec781ef7aaafe12024ce70f2b194", "fusion_lat": 0.0, "name": "6776ec781ef7aaafe12024ce70f2b194", "is_reserved": 0, "rental_uris": {"android": "https://dc.lft.to/lastmile_qr_scan", "ios": "https://dc.lft.to/lastmile_qr_scan"}, "fusion_lon": 0.0}, {"lat": 38.916076, "is_disabled": 0, "type": "electric_scooter", "lon": -77.03862166666667, "bike_id": "69978ac2e4f39307d70872972ffa6add", "fusion_lat": 0.0, "name": "69978ac2e4f39307d70872972ffa6add", "is_reserved": 0, "rental_uris": {"android": "https://dc.lft.to/lastmile_qr_scan", "ios": "https://dc.lft.to/lastmile_qr_scan"}, "fusion_lon": 0.0}, {"lat": 38.903684, "is_disabled": 0, "type": "electric_scooter", "lon": -77.0386265, "bike_id": "ec05adad7da822da4509fecda0265072", "fusion_lat": 0.0, "name": "ec05adad7da822da4509fecda0265072", "is_reserved": 0, "rental_uris": {"android": "https://dc.lft.to/lastmile_qr_scan", "ios": "https://dc.lft.to/lastmile_qr_scan"}, "fusion_lon": 0.0}, {"lat": 38.904530666666666, "is_disabled": 0, "type": "electric_scooter", "lon": -76.9946025, "bike_id": "e84f6ecae68223ae5ca61e64bb46c944", "fusion_lat": 0.0, "name": "e84f6ecae68223ae5ca61e64bb46c944", "is_reserved": 0, "rental_uris": {"android": "https://dc.lft.to/lastmile_qr_scan", "ios": "https://dc.lft.to/lastmile_qr_scan"}, "fusion_lon": 0.0}, {"lat": 38.923984, "is_disabled": 0, "type": "electric_scooter", "lon": -77.07328733333334, "bike_id": "682b4adfad448164141c66d28f35a62e", "fusion_lat": 0.0, "name": "682b4adfad448164141c66d28f35a62e", "is_reserved": 0, "rental_uris": {"android": "https://dc.lft.to/lastmile_qr_scan", "ios": "https://dc.lft.to/lastmile_qr_scan"}, "fusion_lon": 0.0}, {"lat": 38.918854, "is_disabled": 0, "type": "electric_scooter", "lon": -77.03907216666667, "bike_id": "46ac731f0ad2260c557dcf2075bd3edd", "fusion_lat": 0.0, "name": "46ac731f0ad2260c557dcf2075bd3edd", "is_reserved": 0, "rental_uris": {"android": "https://dc.lft.to/lastmile_qr_scan", "ios": "https://dc.lft.to/lastmile_qr_scan"}, "fusion_lon": 0.0}, {"lat": 38.810503833333335, "is_disabled": 0, "type": "electric_bike", "lon": -77.08509666666667, "bike_id": "00b918d3a397520929dacd1d87576151", "fusion_lat": 0.0, "name": "00b918d3a397520929dacd1d87576151", "is_reserved": 0, "rental_uris": {"android": "https://dc.lft.to/lastmile_qr_scan", "ios": "https://dc.lft.to/lastmile_qr_scan"}, "fusion_lon": 0.0}, {"lat": 38.946062, "is_disabled": 0, "type": "electric_scooter", "lon": -77.07036266666667, "bike_id": "f82e33ba48dd63d16e647468e49d4782", "fusion_lat": 0.0, "name": "f82e33ba48dd63d16e647468e49d4782", "is_reserved": 0, "rental_uris": {"android": "https://dc.lft.to/lastmile_qr_scan", "ios": "https://dc.lft.to/lastmile_qr_scan"}, "fusion_lon": 0.0}, {"lat": 38.934182166666666, "is_disabled": 0, "type": "electric_scooter", "lon": -77.02845016666667, "bike_id": "e247ecc7bb337fd73ab2ec12bd3386bb", "fusion_lat": 0.0, "name": "e247ecc7bb337fd73ab2ec12bd3386bb", "is_reserved": 0, "rental_uris": {"android": "https://dc.lft.to/lastmile_qr_scan", "ios": "https://dc.lft.to/lastmile_qr_scan"}, "fusion_lon": 0.0}, {"lat": 38.92381833333334, "is_disabled": 0, "type": "electric_scooter", "lon": -77.02761133333334, "bike_id": "0d9c2ea2ffe1c38d8fc0e81b2deee076", "fusion_lat": 0.0, "name": "0d9c2ea2ffe1c38d8fc0e81b2deee076", "is_reserved": 0, "rental_uris": {"android": "https://dc.lft.to/lastmile_qr_scan", "ios": "https://dc.lft.to/lastmile_qr_scan"}, "fusion_lon": 0.0}, {"lat": 38.854349166666665, "is_disabled": 0, "type": "electric_bike", "lon": -76.90975583333334, "bike_id": "2c89555f01519fa8d0f1d670cb32c61d", "fusion_lat": 0.0, "name": "2c89555f01519fa8d0f1d670cb32c61d", "is_reserved": 0, "rental_uris": {"android": "https://dc.lft.to/lastmile_qr_scan", "ios": "https://dc.lft.to/lastmile_qr_scan"}, "fusion_lon": 0.0}, {"lat": 38.84430966666667, "is_disabled": 0, "type": "electric_scooter", "lon": -76.99815083333333, "bike_id": "86d9bf19e402398cca591f4a5d5078b0", "fusion_lat": 0.0, "name": "86d9bf19e402398cca591f4a5d5078b0", "is_reserved": 0, "rental_uris": {"android": "https://dc.lft.to/lastmile_qr_scan", "ios": "https://dc.lft.to/lastmile_qr_scan"}, "fusion_lon": 0.0}, {"lat": 38.915515666666664, "is_disabled": 0, "type": "electric_scooter", "lon": -77.00978283333333, "bike_id": "00ba35ed52e0f2a01e78c3107463b840", "fusion_lat": 0.0, "name": "00ba35ed52e0f2a01e78c3107463b840", "is_reserved": 0, "rental_uris": {"android": "https://dc.lft.to/lastmile_qr_scan", "ios": "https://dc.lft.to/lastmile_qr_scan"}, "fusion_lon": 0.0}, {"lat": 38.922381333333334, "is_disabled": 0, "type": "electric_scooter", "lon": -77.02990966666667, "bike_id": "7c5fc1d483e5c08e7ae444eec1fa44e5", "fusion_lat": 0.0, "name": "7c5fc1d483e5c08e7ae444eec1fa44e5", "is_reserved": 0, "rental_uris": {"android": "https://dc.lft.to/lastmile_qr_scan", "ios": "https://dc.lft.to/lastmile_qr_scan"}, "fusion_lon": 0.0}, {"lat": 38.931881833333335, "is_disabled": 0, "type": "electric_scooter", "lon": -77.03867766666667, "bike_id": "c230c238b5ab94f5cf339a370bf78e8b", "fusion_lat": 0.0, "name": "c230c238b5ab94f5cf339a370bf78e8b", "is_reserved": 0, "rental_uris": {"android": "https://dc.lft.to/lastmile_qr_scan", "ios": "https://dc.lft.to/lastmile_qr_scan"}, "fusion_lon": 0.0}, {"lat": 38.90387583333333, "is_disabled": 0, "type": "electric_scooter", "lon": -76.98488316666666, "bike_id": "01b63365df1ec798cdd159b51d5bfa87", "fusion_lat": 0.0, "name": "01b63365df1ec798cdd159b51d5bfa87", "is_reserved": 0, "rental_uris": {"android": "https://dc.lft.to/lastmile_qr_scan", "ios": "https://dc.lft.to/lastmile_qr_scan"}, "fusion_lon": 0.0}, {"lat": 38.93859233333333, "is_disabled": 0, "type": "electric_scooter", "lon": -77.02595116666667, "bike_id": "1b8576b2e89ad47e6d84e54a63ec666f", "fusion_lat": 0.0, "name": "1b8576b2e89ad47e6d84e54a63ec666f", "is_reserved": 0, "rental_uris": {"android": "https://dc.lft.to/lastmile_qr_scan", "ios": "https://dc.lft.to/lastmile_qr_scan"}, "fusion_lon": 0.0}, {"lat": 38.912637833333335, "is_disabled": 0, "type": "electric_scooter", "lon": -77.0303225, "bike_id": "e9e4571a3b827826fd499655f0751462", "fusion_lat": 0.0, "name": "e9e4571a3b827826fd499655f0751462", "is_reserved": 0, "rental_uris": {"android": "https://dc.lft.to/lastmile_qr_scan", "ios": "https://dc.lft.to/lastmile_qr_scan"}, "fusion_lon": 0.0}, {"lat": 38.921053, "is_disabled": 0, "type": "electric_scooter", "lon": -77.04216283333334, "bike_id": "74b25e81fd1ba77fe9e14c0e2cf40ff2", "fusion_lat": 0.0, "name": "74b25e81fd1ba77fe9e14c0e2cf40ff2", "is_reserved": 0, "rental_uris": {"android": "https://dc.lft.to/lastmile_qr_scan", "ios": "https://dc.lft.to/lastmile_qr_scan"}, "fusion_lon": 0.0}, {"lat": 38.902629166666664, "is_disabled": 0, "type": "electric_scooter", "lon": -77.03946016666667, "bike_id": "eabbe46e918b3bfd8adbb67b0c6f317c", "fusion_lat": 0.0, "name": "eabbe46e918b3bfd8adbb67b0c6f317c", "is_reserved": 0, "rental_uris": {"android": "https://dc.lft.to/lastmile_qr_scan", "ios": "https://dc.lft.to/lastmile_qr_scan"}, "fusion_lon": 0.0}, {"lat": 38.93424433333333, "is_disabled": 0, "type": "electric_scooter", "lon": -77.02845283333333, "bike_id": "7023545d674b7b5d114079144a75f35b", "fusion_lat": 0.0, "name": "7023545d674b7b5d114079144a75f35b", "is_reserved": 0, "rental_uris": {"android": "https://dc.lft.to/lastmile_qr_scan", "ios": "https://dc.lft.to/lastmile_qr_scan"}, "fusion_lon": 0.0}, {"lat": 38.901032666666666, "is_disabled": 0, "type": "electric_scooter", "lon": -77.05904616666666, "bike_id": "a55ee5809ac73dbf209f74ece2255f3e", "fusion_lat": 0.0, "name": "a55ee5809ac73dbf209f74ece2255f3e", "is_reserved": 0, "rental_uris": {"android": "https://dc.lft.to/lastmile_qr_scan", "ios": "https://dc.lft.to/lastmile_qr_scan"}, "fusion_lon": 0.0}, {"lat": 38.9398135, "is_disabled": 0, "type": "electric_scooter", "lon": -77.02628766666666, "bike_id": "8cb1cee886e08f2616172e8e9f6002d3", "fusion_lat": 0.0, "name": "8cb1cee886e08f2616172e8e9f6002d3", "is_reserved": 0, "rental_uris": {"android": "https://dc.lft.to/lastmile_qr_scan", "ios": "https://dc.lft.to/lastmile_qr_scan"}, "fusion_lon": 0.0}, {"lat": 38.87290866666667, "is_disabled": 0, "type": "electric_scooter", "lon": -77.00926616666666, "bike_id": "31551953f2d794fe2551fd83d6b761a8", "fusion_lat": 0.0, "name": "31551953f2d794fe2551fd83d6b761a8", "is_reserved": 0, "rental_uris": {"android": "https://dc.lft.to/lastmile_qr_scan", "ios": "https://dc.lft.to/lastmile_qr_scan"}, "fusion_lon": 0.0}, {"lat": 38.918234166666664, "is_disabled": 0, "type": "electric_scooter", "lon": -77.04516283333334, "bike_id": "d888edd79ef3605970d095feb3a7b2ce", "fusion_lat": 0.0, "name": "d888edd79ef3605970d095feb3a7b2ce", "is_reserved": 0, "rental_uris": {"android": "https://dc.lft.to/lastmile_qr_scan", "ios": "https://dc.lft.to/lastmile_qr_scan"}, "fusion_lon": 0.0}, {"lat": 38.8989865, "is_disabled": 0, "type": "electric_scooter", "lon": -77.07234033333333, "bike_id": "a5306f5ad7e1e27f2763881d68e88301", "fusion_lat": 0.0, "name": "a5306f5ad7e1e27f2763881d68e88301", "is_reserved": 0, "rental_uris": {"android": "https://dc.lft.to/lastmile_qr_scan", "ios": "https://dc.lft.to/lastmile_qr_scan"}, "fusion_lon": 0.0}, {"lat": 38.932967, "is_disabled": 0, "type": "electric_scooter", "lon": -77.02196566666667, "bike_id": "95efabaa26297c0e58c90da1e7e09ec4", "fusion_lat": 0.0, "name": "95efabaa26297c0e58c90da1e7e09ec4", "is_reserved": 0, "rental_uris": {"android": "https://dc.lft.to/lastmile_qr_scan", "ios": "https://dc.lft.to/lastmile_qr_scan"}, "fusion_lon": 0.0}, {"lat": 38.912417166666664, "is_disabled": 0, "type": "electric_scooter", "lon": -77.046633, "bike_id": "30e8b0c3bc2d6208a231c674c434fb48", "fusion_lat": 0.0, "name": "30e8b0c3bc2d6208a231c674c434fb48", "is_reserved": 0, "rental_uris": {"android": "https://dc.lft.to/lastmile_qr_scan", "ios": "https://dc.lft.to/lastmile_qr_scan"}, "fusion_lon": 0.0}, {"lat": 38.90694516666667, "is_disabled": 0, "type": "electric_bike", "lon": -77.08200083333334, "bike_id": "7efbe38d820ec0a466dcd9a073f0e217", "fusion_lat": 0.0, "name": "7efbe38d820ec0a466dcd9a073f0e217", "is_reserved": 0, "rental_uris": {"android": "https://dc.lft.to/lastmile_qr_scan", "ios": "https://dc.lft.to/lastmile_qr_scan"}, "fusion_lon": 0.0}, {"lat": 38.90345516666667, "is_disabled": 0, "type": "electric_scooter", "lon": -77.0448415, "bike_id": "0707ce019d10c3c86e90e07e92a4dec6", "fusion_lat": 0.0, "name": "0707ce019d10c3c86e90e07e92a4dec6", "is_reserved": 0, "rental_uris": {"android": "https://dc.lft.to/lastmile_qr_scan", "ios": "https://dc.lft.to/lastmile_qr_scan"}, "fusion_lon": 0.0}, {"lat": 38.90128, "is_disabled": 0, "type": "electric_scooter", "lon": -77.0334435, "bike_id": "a51889a3efcd6a4c0ef8d72ed72d0390", "fusion_lat": 0.0, "name": "a51889a3efcd6a4c0ef8d72ed72d0390", "is_reserved": 0, "rental_uris": {"android": "https://dc.lft.to/lastmile_qr_scan", "ios": "https://dc.lft.to/lastmile_qr_scan"}, "fusion_lon": 0.0}, {"lat": 38.9036775, "is_disabled": 0, "type": "electric_scooter", "lon": -77.03646966666666, "bike_id": "d9f5647194e54fa266164df8519f185b", "fusion_lat": 0.0, "name": "d9f5647194e54fa266164df8519f185b", "is_reserved": 0, "rental_uris": {"android": "https://dc.lft.to/lastmile_qr_scan", "ios": "https://dc.lft.to/lastmile_qr_scan"}, "fusion_lon": 0.0}, {"lat": 38.922982, "is_disabled": 0, "type": "electric_scooter", "lon": -77.02333, "bike_id": "92878df93d32bef818c136ff87361b8e", "fusion_lat": 0.0, "name": "92878df93d32bef818c136ff87361b8e", "is_reserved": 0, "rental_uris": {"android": "https://dc.lft.to/lastmile_qr_scan", "ios": "https://dc.lft.to/lastmile_qr_scan"}, "fusion_lon": 0.0}, {"lat": 38.8991565, "is_disabled": 0, "type": "electric_scooter", "lon": -76.93383483333334, "bike_id": "aa3cd579347040643088a4d789801875", "fusion_lat": 0.0, "name": "aa3cd579347040643088a4d789801875", "is_reserved": 0, "rental_uris": {"android": "https://dc.lft.to/lastmile_qr_scan", "ios": "https://dc.lft.to/lastmile_qr_scan"}, "fusion_lon": 0.0}, {"lat": 38.88277683333333, "is_disabled": 0, "type": "electric_bike", "lon": -76.98779733333333, "bike_id": "d70602bce3472f6e92eb021997579e86", "fusion_lat": 0.0, "name": "d70602bce3472f6e92eb021997579e86", "is_reserved": 0, "rental_uris": {"android": "https://dc.lft.to/lastmile_qr_scan", "ios": "https://dc.lft.to/lastmile_qr_scan"}, "fusion_lon": 0.0}, {"lat": 38.86346533333333, "is_disabled": 0, "type": "electric_scooter", "lon": -76.990015, "bike_id": "9f050fd307a9f48dd1694a83b382cce7", "fusion_lat": 0.0, "name": "9f050fd307a9f48dd1694a83b382cce7", "is_reserved": 0, "rental_uris": {"android": "https://dc.lft.to/lastmile_qr_scan", "ios": "https://dc.lft.to/lastmile_qr_scan"}, "fusion_lon": 0.0}, {"lat": 38.95557483333333, "is_disabled": 0, "type": "electric_bike", "lon": -76.93543833333334, "bike_id": "ba077fa8fec01c01a102e9ddf80da24c", "fusion_lat": 0.0, "name": "ba077fa8fec01c01a102e9ddf80da24c", "is_reserved": 0, "rental_uris": {"android": "https://dc.lft.to/lastmile_qr_scan", "ios": "https://dc.lft.to/lastmile_qr_scan"}, "fusion_lon": 0.0}, {"lat": 38.915531, "is_disabled": 0, "type": "electric_scooter", "lon": -77.02429833333333, "bike_id": "39508d4da89250512a2658f026d8a333", "fusion_lat": 0.0, "name": "39508d4da89250512a2658f026d8a333", "is_reserved": 0, "rental_uris": {"android": "https://dc.lft.to/lastmile_qr_scan", "ios": "https://dc.lft.to/lastmile_qr_scan"}, "fusion_lon": 0.0}, {"lat": 38.91250483333334, "is_disabled": 0, "type": "electric_scooter", "lon": -77.0476595, "bike_id": "755c3c780f2415a1598cf87c58b049d8", "fusion_lat": 0.0, "name": "755c3c780f2415a1598cf87c58b049d8", "is_reserved": 0, "rental_uris": {"android": "https://dc.lft.to/lastmile_qr_scan", "ios": "https://dc.lft.to/lastmile_qr_scan"}, "fusion_lon": 0.0}, {"lat": 38.848650666666664, "is_disabled": 0, "type": "electric_scooter", "lon": -76.976962, "bike_id": "803bca5232cfb360f62adb62d1105007", "fusion_lat": 0.0, "name": "803bca5232cfb360f62adb62d1105007", "is_reserved": 0, "rental_uris": {"android": "https://dc.lft.to/lastmile_qr_scan", "ios": "https://dc.lft.to/lastmile_qr_scan"}, "fusion_lon": 0.0}, {"lat": 38.89879233333333, "is_disabled": 0, "type": "electric_scooter", "lon": -77.05341633333333, "bike_id": "935527e7e700c592e3e1a5c6d6d935e4", "fusion_lat": 0.0, "name": "935527e7e700c592e3e1a5c6d6d935e4", "is_reserved": 0, "rental_uris": {"android": "https://dc.lft.to/lastmile_qr_scan", "ios": "https://dc.lft.to/lastmile_qr_scan"}, "fusion_lon": 0.0},