{"data": {"bikes": [{"rental_uris": {"ios": "https://dc.lft.to/lastmile_qr_scan", "android": "https://dc.lft.to/lastmile_qr_scan"}, "type": "electric_bike", "name": "b802f006ab28e53cead8efeedb7b4c47", "is_reserved": 0, "lon": -77.10077666666666, "is_disabled": 0, "fusion_lat": 0.0, "lat": 38.85741466666666, "bike_id": "b802f006ab28e53cead8efeedb7b4c47", "fusion_lon": 0.0}, {"rental_uris": {"ios": "https://dc.lft.to/lastmile_qr_scan", "android": "https://dc.lft.to/lastmile_qr_scan"}, "type": "electric_scooter", "name": "1ff39afa39235c607970b6bb6d759f26", "is_reserved": 0, "lon": -77.04487783333333, "is_disabled": 0, "fusion_lat": 0.0, "lat": 38.915875166666666, "bike_id": "1ff39afa39235c607970b6bb6d759f26", "fusion_lon": 0.0}, {"rental_uris": {"ios": "https://dc.lft.to/lastmile_qr_scan", "android": "https://dc.lft.to/lastmile_qr_scan"}, "type": "electric_scooter", "name": "a23d9edadc8c098341a4b2f118036227", "is_reserved": 0, "lon": -76.98535966666667, "is_disabled": 0, "fusion_lat": 0.0, "lat": 38.85853616666667, "bike_id": "a23d9edadc8c098341a4b2f118036227", "fusion_lon": 0.0}, {"rental_uris": {"ios": "https://dc.lft.to/lastmile_qr_scan", "android": "https://dc.lft.to/lastmile_qr_scan"}, "type": "electric_bike", "name": "d0f35612262ab2e03ab1caa6885bd5d4", "is_reserved": 0, "lon": -76.973381, "is_disabled": 0, "fusion_lat": 0.0, "lat": 38.865216, "bike_id": "d0f35612262ab2e03ab1caa6885bd5d4", "fusion_lon": 0.0}, {"rental_uris": {"ios": "https://dc.lft.to/lastmile_qr_scan", "android": "https://dc.lft.to/lastmile_qr_scan"}, "type": "electric_scooter", "name": "e2832fa0e09801a88289bb3ed93e8c01", "is_reserved": 0, "lon": -77.02308633333334, "is_disabled": 0, "fusion_lat": 0.0, "lat": 38.89851816666667, "bike_id": "e2832fa0e09801a88289bb3ed93e8c01", "fusion_lon": 0.0}, {"rental_uris": {"ios": "https://dc.lft.to/lastmile_qr_scan", "android": "https://dc.lft.to/lastmile_qr_scan"}, "type": "electric_scooter", "name": "47d21bc7f776886b660cf9bc4b57d9ec", "is_reserved": 0, "lon": -77.03152283333333, "is_disabled": 0, "fusion_lat": 0.0, "lat": 38.905886833333334, "bike_id": "47d21bc7f776886b660cf9bc4b57d9ec", "fusion_lon": 0.0}, {"rental_uris": {"ios": "https://dc.lft.to/lastmile_qr_scan", "android": "https://dc.lft.to/lastmile_qr_scan"}, "type": "electric_scooter", "name": "a5bbf57167b19057e5078a115ca1f9bf", "is_reserved": 0, "lon": -77.045187, "is_disabled": 0, "fusion_lat": 0.0, "lat": 38.911131833333336, "bike_id": "a5bbf57167b19057e5078a115ca1f9bf", "fusion_lon": 0.0}, {"rental_uris": {"ios": "https://dc.lft.to/lastmile_qr_scan", "android": "https://dc.lft.to/lastmile_qr_scan"}, "type": "electric_scooter", "name": "763b80084f8d22c4e0fef93fdf584d2d", "is_reserved": 0, "lon": -77.00365583333334, "is_disabled": 0, "fusion_lat": 0.0, "lat": 38.8767405, "bike_id": "763b80084f8d22c4e0fef93fdf584d2d", "fusion_lon": 0.0}, {"rental_uris": {"ios": "https://dc.lft.to/lastmile_qr_scan", "android": "https://dc.lft.to/lastmile_qr_scan"}, "type": "electric_scooter", "name": "69a2f62934451d38901740ec48424bdc", "is_reserved": 0, "lon": -77.031745, "is_disabled": 0, "fusion_lat": 0.0, "lat": 38.92907483333333, "bike_id": "69a2f62934451d38901740ec48424bdc", "fusion_lon": 0.0}, {"rental_uris": {"ios": "https://dc.lft.to/lastmile_qr_scan", "android": "https://dc.lft.to/lastmile_qr_scan"}, "type": "electric_scooter", "name": "134eea3130b3b7b5e6a1e25be623ee9c", "is_reserved": 0, "lon": -77.00222916666667, "is_disabled": 0, "fusion_lat": 0.0, "lat": 38.89449583333333, "bike_id": "134eea3130b3b7b5e6a1e25be623ee9c", "fusion_lon": 0.0}, {"rental_uris": {"ios": "https://dc.lft.to/lastmile_qr_scan", "android": "https://dc.lft.to/lastmile_qr_scan"}, "type": "electric_scooter", "name": "5c3460015d083ec373241502a4e64f2e", "is_reserved": 0, "lon": -77.0027825, "is_disabled": 0, "fusion_lat": 0.0, "lat": 38.887694833333335, "bike_id": "5c3460015d083ec373241502a4e64f2e", "fusion_lon": 0.0}, {"rental_uris": {"ios": "https://dc.lft.to/lastmile_qr_scan", "android": "https://dc.lft.to/lastmile_qr_scan"}, "type": "electric_scooter", "name": "d80ee3b57cf93293cec2efd5adad62fa", "is_reserved": 0, "lon": -77.03444216666666, "is_disabled": 0, "fusion_lat": 0.0, "lat": 38.9073795, "bike_id": "d80ee3b57cf93293cec2efd5adad62fa", "fusion_lon": 0.0}, {"rental_uris": {"ios": "https://dc.lft.to/lastmile_qr_scan", "android": "https://dc.lft.to/lastmile_qr_scan"}, "type": "electric_scooter", "name": "6115cb9b382b5914f42c2398bbfc47e5", "is_reserved": 0, "lon": -77.033755, "is_disabled": 0, "fusion_lat": 0.0, "lat": 38.93861883333334, "bike_id": "6115cb9b382b5914f42c2398bbfc47e5", "fusion_lon": 0.0}, {"rental_uris": {"ios": "https://dc.lft.to/lastmile_qr_scan", "android": "https://dc.lft.to/lastmile_qr_scan"}, "type": "electric_scooter", "name": "f11ad42467b027c8a172abdda846a7ed", "is_reserved": 0, "lon": -77.04270933333333, "is_disabled": 0, "fusion_lat": 0.0, "lat": 38.9042565, "bike_id": "f11ad42467b027c8a172abdda846a7ed", "fusion_lon": 0.0}, {"rental_uris": {"ios": "https://dc.lft.to/lastmile_qr_scan", "android": "https://dc.lft.to/lastmile_qr_scan"}, "type": "electric_scooter", "name": "30075ab630a7040cc312287a11a845fb", "is_reserved": 0, "lon": -77.044058, "is_disabled": 0, "fusion_lat": 0.0, "lat": 38.929506, "bike_id": "30075ab630a7040cc312287a11a845fb", "fusion_lon": 0.0}, {"rental_uris": {"ios": "https://dc.lft.to/lastmile_qr_scan", "android": "https://dc.lft.to/lastmile_qr_scan"}, "type": "electric_scooter", "name": "1fccd551099fbd0db3e4e478b17bd5e7", "is_reserved": 0, "lon": -76.932123, "is_disabled": 0, "fusion_lat": 0.0, "lat": 38.89673633333334, "bike_id": "1fccd551099fbd0db3e4e478b17bd5e7", "fusion_lon": 0.0}, {"rental_uris": {"ios": "https://dc.lft.to/lastmile_qr_scan", "android": "https://dc.lft.to/lastmile_qr_scan"}, "type": "electric_scooter", "name": "bf76dacbe00e55fd28bdcc051b4b6fef", "is_reserved": 0, "lon": -76.99946183333333, "is_disabled": 0, "fusion_lat": 0.0, "lat": 38.891652666666666, "bike_id": "bf76dacbe00e55fd28bdcc051b4b6fef", "fusion_lon": 0.0}, {"rental_uris": {"ios": "https://dc.lft.to/lastmile_qr_scan", "android": "https://dc.lft.to/lastmile_qr_scan"}, "type": "electric_bike", "name": "51c2bd0fa1b93ec94c22de69ab2c5b26", "is_reserved": 0, "lon": -77.00407533333333, "is_disabled": 0, "fusion_lat": 0.0, "lat": 38.9854505, "bike_id": "51c2bd0fa1b93ec94c22de69ab2c5b26", "fusion_lon": 0.0}, {"rental_uris": {"ios": "https://dc.lft.to/lastmile_qr_scan", "android": "https://dc.lft.to/lastmile_qr_scan"}, "type": "electric_scooter", "name": "042db93c0cf87f19754f03bb878cc77b", "is_reserved": 0, "lon": -77.02552883333334, "is_disabled": 0, "fusion_lat": 0.0, "lat": 38.93091833333333, "bike_id": "042db93c0cf87f19754f03bb878cc77b", "fusion_lon": 0.0}, {"rental_uris": {"ios": "https://dc.lft.to/lastmile_qr_scan", "android": "https://dc.lft.to/lastmile_qr_scan"}, "type": "electric_bike", "name": "ce5a78509293cd535606e377fb271168", "is_reserved": 0, "lon": -77.098194, "is_disabled": 0, "fusion_lat": 0.0, "lat": 38.85021716666667, "bike_id": "ce5a78509293cd535606e377fb271168", "fusion_lon": 0.0}, {"rental_uris": {"ios": "https://dc.lft.to/lastmile_qr_scan", "android": "https://dc.lft.to/lastmile_qr_scan"}, "type": "electric_scooter", "name": "539a466645ba3d80362fda7ae69a66c9", "is_reserved": 0, "lon": -77.01344, "is_disabled": 0, "fusion_lat": 0.0, "lat": 38.896062, "bike_id": "539a466645ba3d80362fda7ae69a66c9", "fusion_lon": 0.0}, {"rental_uris": {"ios": "https://dc.lft.to/lastmile_qr_scan", "android": "https://dc.lft.to/lastmile_qr_scan"}, "type": "electric_scooter", "name": "f9c28928a0e283c02f9327434edce4aa", "is_reserved": 0, "lon": -77.04491983333334, "is_disabled": 0, "fusion_lat": 0.0, "lat": 38.918545333333334, "bike_id": "f9c28928a0e283c02f9327434edce4aa", "fusion_lon": 0.0}, {"rental_uris": {"ios": "https://dc.lft.to/lastmile_qr_scan", "android": "https://dc.lft.to/lastmile_qr_scan"}, "type": "electric_scooter", "name": "f3f091a6f38bfaf88626a598a6452b96", "is_reserved": 0, "lon": -77.00607183333334, "is_disabled": 0, "fusion_lat": 0.0, "lat": 38.87567416666667, "bike_id": "f3f091a6f38bfaf88626a598a6452b96", "fusion_lon": 0.0}, {"rental_uris": {"ios": "https://dc.lft.to/lastmile_qr_scan", "android": "https://dc.lft.to/lastmile_qr_scan"}, "type": "electric_scooter", "name": "5d82c3f00eb076b21030ce97efa939a7", "is_reserved": 0, "lon": -77.04429683333333, "is_disabled": 0, "fusion_lat": 0.0, "lat": 38.897353833333334, "bike_id": "5d82c3f00eb076b21030ce97efa939a7", "fusion_lon": 0.0}, {"rental_uris": {"ios": "https://dc.lft.to/lastmile_qr_scan", "android": "https://dc.lft.to/lastmile_qr_scan"}, "type": "electric_bike", "name": "e433e32ea492d86655e4a49dd6a42a2a", "is_reserved": 0, "lon": -77.00210066666666, "is_disabled": 0, "fusion_lat": 0.0, "lat": 38.98850866666667, "bike_id": "e433e32ea492d86655e4a49dd6a42a2a", "fusion_lon": 0.0}, {"rental_uris": {"ios": "https://dc.lft.to/lastmile_qr_scan", "android": "https://dc.lft.to/lastmile_qr_scan"}, "type": "electric_scooter", "name": "6b250b0033940f04cfe29719cf5167eb", "is_reserved": 0, "lon": -77.02303983333333, "is_disabled": 0, "fusion_lat": 0.0, "lat": 38.96128516666667, "bike_id": "6b250b0033940f04cfe29719cf5167eb", "fusion_lon": 0.0}, {"rental_uris": {"ios": "https://dc.lft.to/lastmile_qr_scan", "android": "https://dc.lft.to/lastmile_qr_scan"}, "type": "electric_scooter", "name": "c7c85ab4c7e950efa351fc2ab8043845", "is_reserved": 0, "lon": -77.03340966666667, "is_disabled": 0, "fusion_lat": 0.0, "lat": 38.902532666666666, "bike_id": "c7c85ab4c7e950efa351fc2ab8043845", "fusion_lon": 0.0}, {"rental_uris": {"ios": "https://dc.lft.to/lastmile_qr_scan", "android": "https://dc.lft.to/lastmile_qr_scan"}, "type": "electric_scooter", "name": "838b810b99d4e5e5344c9fa6195fc7d4", "is_reserved": 0, "lon": -77.03465216666666, "is_disabled": 0, "fusion_lat": 0.0, "lat": 38.9084495, "bike_id": "838b810b99d4e5e5344c9fa6195fc7d4", "fusion_lon": 0.0}, {"rental_uris": {"ios": "https://dc.lft.to/lastmile_qr_scan", "android": "https://dc.lft.to/lastmile_qr_scan"}, "type": "electric_scooter", "name": "bf232de2b767467df46fba2c917844b9", "is_reserved": 0, "lon": -77.02403216666667, "is_disabled": 0, "fusion_lat": 0.0, "lat": 38.9171325, "bike_id": "bf232de2b767467df46fba2c917844b9", "fusion_lon": 0.0}, {"rental_uris": {"ios": "https://dc.lft.to/lastmile_qr_scan", "android": "https://dc.lft.to/lastmile_qr_scan"}, "type": "electric_scooter", "name": "017704d9ca6e7606a577540590c0d0b4", "is_reserved": 0, "lon": -77.03367516666667, "is_disabled": 0, "fusion_lat": 0.0, "lat": 38.91038533333333, "bike_id": "017704d9ca6e7606a577540590c0d0b4", "fusion_lon": 0.0}, {"rental_uris": {"ios": "https://dc.lft.to/lastmile_qr_scan", "android": "https://dc.lft.to/lastmile_qr_scan"}, "type": "electric_scooter", "name": "2376b098963092b9bbc842024515acd5", "is_reserved": 0, "lon": -77.02817683333333, "is_disabled": 0, "fusion_lat": 0.0, "lat": 38.95644983333333, "bike_id": "2376b098963092b9bbc842024515acd5", "fusion_lon": 0.0}, {"rental_uris": {"ios": "https://dc.lft.to/lastmile_qr_scan", "android": "https://dc.lft.to/lastmile_qr_scan"}, "type": "electric_scooter", "name": "052499f4e8b7773781001a8938ccbce1", "is_reserved": 0, "lon": -76.99624733333333, "is_disabled": 0, "fusion_lat": 0.0, "lat": 38.87742633333333, "bike_id": "052499f4e8b7773781001a8938ccbce1", "fusion_lon": 0.0}, {"rental_uris": {"ios": "https://dc.lft.to/lastmile_qr_scan", "android": "https://dc.lft.to/lastmile_qr_scan"}, "type": "electric_scooter", "name": "7aa74bd6c2f7a2f13d346b3026ff9019", "is_reserved": 0, "lon": -77.03222766666667, "is_disabled": 0, "fusion_lat": 0.0, "lat": 38.892271666666666, "bike_id": "7aa74bd6c2f7a2f13d346b3026ff9019", "fusion_lon": 0.0}, {"rental_uris": {"ios": "https://dc.lft.to/lastmile_qr_scan", "android": "https://dc.lft.to/lastmile_qr_scan"}, "type": "electric_scooter", "name": "21244be5d617ac704a1d4bdeca195bff", "is_reserved": 0, "lon": -77.0211095, "is_disabled": 0, "fusion_lat": 0.0, "lat": 38.90601133333333, "bike_id": "21244be5d617ac704a1d4bdeca195bff", "fusion_lon": 0.0}, {"rental_uris": {"ios": "https://dc.lft.to/lastmile_qr_scan", "android": "https://dc.lft.to/lastmile_qr_scan"}, "type": "electric_scooter", "name": "ee45d44331bcb0d21496f76f5a1d02c1", "is_reserved": 0, "lon": -77.02127666666667, "is_disabled": 0, "fusion_lat": 0.0, "lat": 38.924075333333334, "bike_id": "ee45d44331bcb0d21496f76f5a1d02c1", "fusion_lon": 0.0}, {"rental_uris": {"ios": "https://dc.lft.to/lastmile_qr_scan", "android": "https://dc.lft.to/lastmile_qr_scan"}, "type": "electric_scooter", "name": "b6b9d9ab741ee7ef1dde5ff2561e006a", "is_reserved": 0, "lon": -76.9884305, "is_disabled": 0, "fusion_lat": 0.0, "lat": 38.842928666666666, "bike_id": "b6b9d9ab741ee7ef1dde5ff2561e006a", "fusion_lon": 0.0}, {"rental_uris": {"ios": "https://dc.lft.to/lastmile_qr_scan", "android": "https://dc.lft.to/lastmile_qr_scan"}, "type": "electric_scooter", "name": "420239f21af774e3d85b3317cb13e6f3", "is_reserved": 0, "lon": -77.02683016666667, "is_disabled": 0, "fusion_lat": 0.0, "lat": 38.92576583333334, "bike_id": "420239f21af774e3d85b3317cb13e6f3", "fusion_lon": 0.0}, {"rental_uris": {"ios": "https://dc.lft.to/lastmile_qr_scan", "android": "https://dc.lft.to/lastmile_qr_scan"}, "type": "electric_scooter", "name": "6cf5f94cef1c9820024c516659d4653d", "is_reserved": 0, "lon": -77.02389483333333, "is_disabled": 0, "fusion_lat": 0.0, "lat": 38.92077716666667, "bike_id": "6cf5f94cef1c9820024c516659d4653d", "fusion_lon": 0.0}, {"rental_uris": {"ios": "https://dc.lft.to/lastmile_qr_scan", "android": "https://dc.lft.to/lastmile_qr_scan"}, "type": "electric_scooter", "name": "38d5d3950cbf4dac48da04f6134f2e2f", "is_reserved": 0, "lon": -77.02411733333334, "is_disabled": 0, "fusion_lat": 0.0, "lat": 38.935630333333336, "bike_id": "38d5d3950cbf4dac48da04f6134f2e2f", "fusion_lon": 0.0}, {"rental_uris": {"ios": "https://dc.lft.to/lastmile_qr_scan", "android": "https://dc.lft.to/lastmile_qr_scan"}, "type": "electric_scooter", "name": "91df91a32d7fa7a7ffef94b3fa631171", "is_reserved": 0, "lon": -77.03429133333333, "is_disabled": 0, "fusion_lat": 0.0, "lat": 38.91912633333333, "bike_id": "91df91a32d7fa7a7ffef94b3fa631171", "fusion_lon": 0.0}, {"rental_uris": {"ios": "https://dc.lft.to/lastmile_qr_scan", "android": "https://dc.lft.to/lastmile_qr_scan"}, "type": "electric_scooter", "name": "ed80e9ab97e33df90d5db25968d4c89e", "is_reserved": 0, "lon": -76.99036233333334, "is_disabled": 0, "fusion_lat": 0.0, "lat": 38.898538, "bike_id": "ed80e9ab97e33df90d5db25968d4c89e", "fusion_lon": 0.0}, {"rental_uris": {"ios": "https://dc.lft.to/lastmile_qr_scan", "android": "https://dc.lft.to/lastmile_qr_scan"}, "type": "electric_scooter", "name": "af17435ad410be2ace6d78d69b31d50d", "is_reserved": 0, "lon": -76.9837665, "is_disabled": 0, "fusion_lat": 0.0, "lat": 38.86032466666666, "bike_id": "af17435ad410be2ace6d78d69b31d50d", "fusion_lon": 0.0}, {"rental_uris": {"ios": "https://dc.lft.to/lastmile_qr_scan", "android": "https://dc.lft.to/lastmile_qr_scan"}, "type": "electric_scooter", "name": "20091dfc8d1f738f7c1bc4b8cbf9d850", "is_reserved": 0, "lon": -77.03223733333333, "is_disabled": 0, "fusion_lat": 0.0, "lat": 38.904965, "bike_id": "20091dfc8d1f738f7c1bc4b8cbf9d850", "fusion_lon": 0.0}, {"rental_uris": {"ios": "https://dc.lft.to/lastmile_qr_scan", "android": "https://dc.lft.to/lastmile_qr_scan"}, "type": "electric_scooter", "name": "5c239aa842889ecb6b470f280caed824", "is_reserved": 0, "lon": -77.03909666666667, "is_disabled": 0, "fusion_lat": 0.0, "lat": 38.914227, "bike_id": "5c239aa842889ecb6b470f280caed824", "fusion_lon": 0.0}, {"rental_uris": {"ios": "https://dc.lft.to/lastmile_qr_scan", "android": "https://dc.lft.to/lastmile_qr_scan"}, "type": "electric_scooter", "name": "8c78253e6195e4173de17aa9a252730e", "is_reserved": 0, "lon": -77.02153716666666, "is_disabled": 0, "fusion_lat": 0.0, "lat": 38.887457, "bike_id": "8c78253e6195e4173de17aa9a252730e", "fusion_lon": 0.0}, {"rental_uris": {"ios": "https://dc.lft.to/lastmile_qr_scan", "android": "https://dc.lft.to/lastmile_qr_scan"}, "type": "electric_scooter", "name": "a87a7c61081cbc26fe792d90a22011bc", "is_reserved": 0, "lon": -77.03876033333333, "is_disabled": 0, "fusion_lat": 0.0, "lat": 38.91564116666667, "bike_id": "a87a7c61081cbc26fe792d90a22011bc", "fusion_lon": 0.0}, {"rental_uris": {"ios": "https://dc.lft.to/lastmile_qr_scan", "android": "https://dc.lft.to/lastmile_qr_scan"}, "type": "electric_scooter", "name": "3a3eb5ade66789ca72699c33b5143416", "is_reserved": 0, "lon": -77.0328905, "is_disabled": 0, "fusion_lat": 0.0, "lat": 38.92841633333333, "bike_id": "3a3eb5ade66789ca72699c33b5143416", "fusion_lon": 0.0}, {"rental_uris": {"ios": "https://dc.lft.to/lastmile_qr_scan", "android": "https://dc.lft.to/lastmile_qr_scan"}, "type": "electric_scooter", "name": "de81f1d66ac34df8fd23b463bbc7bd22", "is_reserved": 0, "lon": -77.02957716666667, "is_disabled": 0, "fusion_lat": 0.0, "lat": 38.902719166666664, "bike_id": "de81f1d66ac34df8fd23b463bbc7bd22", "fusion_lon": 0.0}, {"rental_uris": {"ios": "https://dc.lft.to/lastmile_qr_scan", "android": "https://dc.lft.to/lastmile_qr_scan"}, "type": "electric_scooter", "name": "f48851f67835a801921f03aaa4f4488d", "is_reserved": 0, "lon": -76.99128933333333, "is_disabled": 0, "fusion_lat": 0.0, "lat": 38.90902083333334, "bike_id": "f48851f67835a801921f03aaa4f4488d", "fusion_lon": 0.0}, {"rental_uris": {"ios": "https://dc.lft.to/lastmile_qr_scan", "android": "https://dc.lft.to/lastmile_qr_scan"}, "type": "electric_scooter", "name": "80922740bce44a711cf4e61b6f2a3c55", "is_reserved": 0, "lon": -77.0272975, "is_disabled": 0, "fusion_lat": 0.0, "lat": 38.9345385, "bike_id": "80922740bce44a711cf4e61b6f2a3c55", "fusion_lon": 0.0}, {"rental_uris": {"ios": "https://dc.lft.to/lastmile_qr_scan", "android": "https://dc.lft.to/lastmile_qr_scan"}, "type": "electric_scooter", "name": "f7d9b93c9963e8a754ed9fe2c7a86624", "is_reserved": 0, "lon": -77.003567, "is_disabled": 0, "fusion_lat": 0.0, "lat": 38.87658966666667, "bike_id": "f7d9b93c9963e8a754ed9fe2c7a86624", "fusion_lon": 0.0}, {"rental_uris": {"ios": "https://dc.lft.to/lastmile_qr_scan", "android": "https://dc.lft.to/lastmile_qr_scan"}, "type": "electric_scooter", "name": "1545f0cf8260d4c099ed0aca00efb5c3", "is_reserved": 0, "lon": -77.01988033333333, "is_disabled": 0, "fusion_lat": 0.0, "lat": 38.87606533333334, "bike_id": "1545f0cf8260d4c099ed0aca00efb5c3", "fusion_lon": 0.0}, {"rental_uris": {"ios": "https://dc.lft.to/lastmile_qr_scan", "android": "https://dc.lft.to/lastmile_qr_scan"}, "type": "electric_scooter", "name": "257566275ae4b4bdc02b325663bfa394", "is_reserved": 0, "lon": -77.038628, "is_disabled": 0, "fusion_lat": 0.0, "lat": 38.91262733333333, "bike_id": "257566275ae4b4bdc02b325663bfa394", "fusion_lon": 0.0}, {"rental_uris": {"ios": "https://dc.lft.to/lastmile_qr_scan", "android": "https://dc.lft.to/lastmile_qr_scan"}, "type": "electric_bike", "name": "012b0f7f7d99ee61b3deb1dd90bf2da3", "is_reserved": 0, "lon": -77.1283965, "is_disabled": 0, "fusion_lat": 0.0, "lat": 38.80054916666667, "bike_id": "012b0f7f7d99ee61b3deb1dd90bf2da3", "fusion_lon": 0.0}, {"rental_uris": {"ios": "https://dc.lft.to/lastmile_qr_scan", "android": "https://dc.lft.to/lastmile_qr_scan"}, "type": "electric_scooter", "name": "536ba566fccad4d47d01bccce504dbf3", "is_reserved": 0, "lon": -77.00226716666667, "is_disabled": 0, "fusion_lat": 0.0, "lat": 38.900616166666666, "bike_id": "536ba566fccad4d47d01bccce504dbf3", "fusion_lon": 0.0}, {"rental_uris": {"ios": "https://dc.lft.to/lastmile_qr_scan", "android": "https://dc.lft.to/lastmile_qr_scan"}, "type": "electric_scooter", "name": "dff8c3cb8026d241139853b11e4d2f92", "is_reserved": 0, "lon": -77.06092733333334, "is_disabled": 0, "fusion_lat": 0.0, "lat": 38.93993116666667, "bike_id": "dff8c3cb8026d241139853b11e4d2f92", "fusion_lon": 0.0}, {"rental_uris": {"ios": "https://dc.lft.to/lastmile_qr_scan", "android": "https://dc.lft.to/lastmile_qr_scan"}, "type": "electric_scooter", "name": "29aacbf6d55ce918919dcb026a39c11d", "is_reserved": 0, "lon": -77.06844733333334, "is_disabled": 0, "fusion_lat": 0.0, "lat": 38.90410516666667, "bike_id": "29aacbf6d55ce918919dcb026a39c11d", "fusion_lon": 0.0}, {"rental_uris": {"ios": "https://dc.lft.to/lastmile_qr_scan", "android": "https://dc.lft.to/lastmile_qr_scan"}, "type": "electric_scooter", "name": "cd81de357e27d63e913507ae536732b2", "is_reserved": 0, "lon": -77.048223, "is_disabled": 0, "fusion_lat": 0.0, "lat": 38.91486033333334, "bike_id": "cd81de357e27d63e913507ae536732b2", "fusion_lon": 0.0}, {"rental_uris": {"ios": "https://dc.lft.to/lastmile_qr_scan", "android": "https://dc.lft.to/lastmile_qr_scan"}, "type": "electric_scooter", "name": "addd3e9748d0133446d5d6e9e49a8c41", "is_reserved": 0, "lon": -77.01514466666667, "is_disabled": 0, "fusion_lat": 0.0, "lat": 38.88487333333333, "bike_id": "addd3e9748d0133446d5d6e9e49a8c41", "fusion_lon": 0.0}, {"rental_uris": {"ios": "https://dc.lft.to/lastmile_qr_scan", "android": "https://dc.lft.to/lastmile_qr_scan"}, "type": "electric_scooter", "name": "8885130847b750b55d1f6d0ad5fa191c", "is_reserved": 0, "lon": -76.97330483333333, "is_disabled": 0, "fusion_lat": 0.0, "lat": 38.9041205, "bike_id": "8885130847b750b55d1f6d0ad5fa191c", "fusion_lon": 0.0}, {"rental_uris": {"ios": "https://dc.lft.to/lastmile_qr_scan", "android": "https://dc.lft.to/lastmile_qr_scan"}, "type": "electric_scooter", "name": "adb706931de4794c58c4a034635b009d", "is_reserved": 0, "lon": -77.01152283333333, "is_disabled": 0, "fusion_lat": 0.0, "lat": 38.90964733333333, "bike_id": "adb706931de4794c58c4a034635b009d", "fusion_lon": 0.0}, {"rental_uris": {"ios": "https://dc.lft.to/lastmile_qr_scan", "android": "https://dc.lft.to/lastmile_qr_scan"}, "type": "electric_scooter", "name": "366b962ce0ac4f6103af969c9681d2c4", "is_reserved": 0, "lon": -77.0397495, "is_disabled": 0, "fusion_lat": 0.0, "lat": 38.931506166666665, "bike_id": "366b962ce0ac4f6103af969c9681d2c4", "fusion_lon": 0.0}, {"rental_uris": {"ios": "https://dc.lft.to/lastmile_qr_scan", "android": "https://dc.lft.to/lastmile_qr_scan"}, "type": "electric_bike", "name": "5f78ebc8179bb0519b4d89d52c92d1f5", "is_reserved": 0, "lon": -77.06956066666666, "is_disabled": 0, "fusion_lat": 0.0, "lat": 38.836306666666665, "bike_id": "5f78ebc8179bb0519b4d89d52c92d1f5", "fusion_lon": 0.0}, {"rental_uris": {"ios": "https://dc.lft.to/lastmile_qr_scan", "android": "https://dc.lft.to/lastmile_qr_scan"}, "type": "electric_bike", "name": "201af38c3c220cbaa2d0fc2f2b9e6f91", "is_reserved": 0, "lon": -76.9935395, "is_disabled": 0, "fusion_lat": 0.0, "lat": 38.845087166666666, "bike_id": "201af38c3c220cbaa2d0fc2f2b9e6f91", "fusion_lon": 0.0}, {"rental_uris": {"ios": "https://dc.lft.to/lastmile_qr_scan", "android": "https://dc.lft.to/lastmile_qr_scan"}, "type": "electric_scooter", "name": "1e458054b7873f4a25c8d3cc77b88d33", "is_reserved": 0, "lon": -77.04902466666667, "is_disabled": 0, "fusion_lat": 0.0, "lat": 38.900960166666664, "bike_id": "1e458054b7873f4a25c8d3cc77b88d33", "fusion_lon": 0.0}, {"rental_uris": {"ios": "https://dc.lft.to/lastmile_qr_scan", "android": "https://dc.lft.to/lastmile_qr_scan"}, "type": "electric_scooter", "name": "dccee155999e46bf2727e34c2c023d55", "is_reserved": 0, "lon": -76.99591333333333, "is_disabled": 0, "fusion_lat": 0.0, "lat": 38.909432333333335, "bike_id": "dccee155999e46bf2727e34c2c023d55", "fusion_lon": 0.0}, {"rental_uris": {"ios": "https://dc.lft.to/lastmile_qr_scan", "android": "https://dc.lft.to/lastmile_qr_scan"}, "type": "electric_scooter", "name": "6ac3880cad934a3b5ce7f45ff1b34fd9", "is_reserved": 0, "lon": -77.05507066666667, "is_disabled": 0, "fusion_lat": 0.0, "lat": 38.9282985, "bike_id": "6ac3880cad934a3b5ce7f45ff1b34fd9", "fusion_lon": 0.0}, {"rental_uris": {"ios": "https://dc.lft.to/lastmile_qr_scan", "android": "https://dc.lft.to/lastmile_qr_scan"}, "type": "electric_scooter", "name": "36d76328530728e3076c573f55421a3d", "is_reserved": 0, "lon": -77.04127766666667, "is_disabled": 0, "fusion_lat": 0.0, "lat": 38.933857, "bike_id": "36d76328530728e3076c573f55421a3d", "fusion_lon": 0.0}, {"rental_uris": {"ios": "https://dc.lft.to/lastmile_qr_scan", "android": "https://dc.lft.to/lastmile_qr_scan"}, "type": "electric_bike", "name": "720a909fb5f2c0b61a571f4043bbe9bd", "is_reserved": 0, "lon": -77.0972355, "is_disabled": 0, "fusion_lat": 0.0, "lat": 38.80739883333333, "bike_id": "720a909fb5f2c0b61a571f4043bbe9bd", "fusion_lon": 0.0}, {"rental_uris": {"ios": "https://dc.lft.to/lastmile_qr_scan", "android": "https://dc.lft.to/lastmile_qr_scan"}, "type": "electric_bike", "name": "2a2773f19b26487707177e3a2ad1d23f", "is_reserved": 0, "lon": -77.21665366666667, "is_disabled": 0, "fusion_lat": 0.0, "lat": 38.895066666666665, "bike_id": "2a2773f19b26487707177e3a2ad1d23f", "fusion_lon": 0.0}, {"rental_uris": {"ios": "https://dc.lft.to/lastmile_qr_scan", "android": "https://dc.lft.to/lastmile_qr_scan"}, "type": "electric_bike", "name": "4bb20333ffc4ad3fc7e22e6c7d739e9f", "is_reserved": 0, "lon": -77.03246483333334, "is_disabled": 0, "fusion_lat": 0.0, "lat": 38.96156633333333, "bike_id": "4bb20333ffc4ad3fc7e22e6c7d739e9f", "fusion_lon": 0.0}, {"rental_uris": {"ios": "https://dc.lft.to/lastmile_qr_scan", "android": "https://dc.lft.to/lastmile_qr_scan"}, "type": "electric_scooter", "name": "c96e45df13cff4f8bcf73a924edb40ca", "is_reserved": 0, "lon": -77.02602166666667, "is_disabled": 0, "fusion_lat": 0.0, "lat": 38.94608216666666, "bike_id": "c96e45df13cff4f8bcf73a924edb40ca", "fusion_lon": 0.0}, {"rental_uris": {"ios": "https://dc.lft.to/lastmile_qr_scan", "android": "https://dc.lft.to/lastmile_qr_scan"}, "type": "electric_bike", "name": "7d4a08ab43b213b5575540020a24c88a", "is_reserved": 0, "lon": -77.06531266666667, "is_disabled": 0, "fusion_lat": 0.0, "lat": 38.992386833333335, "bike_id": "7d4a08ab43b213b5575540020a24c88a", "fusion_lon": 0.0}, {"rental_uris": {"ios": "https://dc.lft.to/lastmile_qr_scan", "android": "https://dc.lft.to/lastmile_qr_scan"}, "type": "electric_scooter", "name": "ecf8abe920bad1387b568220c3fe20dd", "is_reserved": 0, "lon": -77.0151745, "is_disabled": 0, "fusion_lat": 0.0, "lat": 38.90978616666666, "bike_id": "ecf8abe920bad1387b568220c3fe20dd", "fusion_lon": 0.0}, {"rental_uris": {"ios": "https://dc.lft.to/lastmile_qr_scan", "android": "https://dc.lft.to/lastmile_qr_scan"}, "type": "electric_scooter", "name": "ef302ca9f929eb4b5874e0f439375b42", "is_reserved": 0, "lon": -77.04079833333333, "is_disabled": 0, "fusion_lat": 0.0, "lat": 38.905459666666665, "bike_id": "ef302ca9f929eb4b5874e0f439375b42", "fusion_lon": 0.0}, {"rental_uris": {"ios": "https://dc.lft.to/lastmile_qr_scan", "android": "https://dc.lft.to/lastmile_qr_scan"}, "type": "electric_scooter", "name": "3c784f6c88c26f2b3fbdee3cd4de1db6", "is_reserved": 0, "lon": -77.0157205, "is_disabled": 0, "fusion_lat": 0.0, "lat": 38.876591833333336, "bike_id": "3c784f6c88c26f2b3fbdee3cd4de1db6", "fusion_lon": 0.0}, {"rental_uris": {"ios": "https://dc.lft.to/lastmile_qr_scan", "android": "https://dc.lft.to/lastmile_qr_scan"}, "type": "electric_scooter", "name": "32d53accf1ecbe784513476ee34947c9", "is_reserved": 0, "lon": -77.0294685, "is_disabled": 0, "fusion_lat": 0.0, "lat": 38.91703183333333, "bike_id": "32d53accf1ecbe784513476ee34947c9", "fusion_lon": 0.0}, {"rental_uris": {"ios": "https://dc.lft.to/lastmile_qr_scan", "android": "https://dc.lft.to/lastmile_qr_scan"}, "type": "electric_bike", "name": "82385e5f42514d75176f75e08849b597", "is_reserved": 0, "lon": -77.03883283333333, "is_disabled": 0, "fusion_lat": 0.0, "lat": 39.026363, "bike_id": "82385e5f42514d75176f75e08849b597", "fusion_lon": 0.0}, {"rental_uris": {"ios": "https://dc.lft.to/lastmile_qr_scan", "android": "https://dc.lft.to/lastmile_qr_scan"}, "type": "electric_bike", "name": "3998df71a0b5a4a44a361f5fe951a150", "is_reserved": 0, "lon": -77.09628666666667, "is_disabled": 0, "fusion_lat": 0.0, "lat": 38.952514, "bike_id": "3998df71a0b5a4a44a361f5fe951a150", "fusion_lon": 0.0}, {"rental_uris": {"ios": "https://dc.lft.to/lastmile_qr_scan", "android": "https://dc.lft.to/lastmile_qr_scan"}, "type": "electric_scooter", "name": "dd8ebdbef2b9b4d2455af5f48a642336", "is_reserved": 0, "lon": -77.06067016666667, "is_disabled": 0, "fusion_lat": 0.0, "lat": 38.88612833333333, "bike_id": "dd8ebdbef2b9b4d2455af5f48a642336", "fusion_lon": 0.0}, {"rental_uris": {"ios": "https://dc.lft.to/lastmile_qr_scan", "android": "https://dc.lft.to/lastmile_qr_scan"}, "type": "electric_bike", "name": "d5cfc22f5db6e30e18fe25e7cb643000", "is_reserved": 0, "lon": -77.12742233333333, "is_disabled": 0, "fusion_lat": 0.0, "lat": 38.895658, "bike_id": "d5cfc22f5db6e30e18fe25e7cb643000", "fusion_lon": 0.0}, {"rental_uris": {"ios": "https://dc.lft.to/lastmile_qr_scan", "android": "https://dc.lft.to/lastmile_qr_scan"}, "type": "electric_scooter", "name": "b18a33fabc8870356b1fe9b6f1588e92", "is_reserved": 0, "lon": -77.03729416666667, "is_disabled": 0, "fusion_lat": 0.0, "lat": 38.92830033333333, "bike_id": "b18a33fabc8870356b1fe9b6f1588e92", "fusion_lon": 0.0}, {"rental_uris": {"ios": "https://dc.lft.to/lastmile_qr_scan", "android": "https://dc.lft.to/lastmile_qr_scan"}, "type": "electric_scooter", "name": "029e8d49c788dc884527e87661631f07", "is_reserved": 0, "lon": -77.0142795, "is_disabled": 0, "fusion_lat": 0.0, "lat": 38.928508666666666, "bike_id": "029e8d49c788dc884527e87661631f07", "fusion_lon": 0.0}, {"rental_uris": {"ios": "https://dc.lft.to/lastmile_qr_scan", "android": "https://dc.lft.to/lastmile_qr_scan"}, "type": "electric_scooter", "name": "6301ab5883148b2acdd629f760a8536f", "is_reserved": 0, "lon": -77.043375, "is_disabled": 0, "fusion_lat": 0.0, "lat": 38.906516833333335, "bike_id": "6301ab5883148b2acdd629f760a8536f", "fusion_lon": 0.0}, {"rental_uris": {"ios": "https://dc.lft.to/lastmile_qr_scan", "android": "https://dc.lft.to/lastmile_qr_scan"}, "type": "electric_scooter", "name": "8095ca741ee3fbf068d7f7bc4bfb0ce3", "is_reserved": 0, "lon": -77.03547366666666, "is_disabled": 0, "fusion_lat": 0.0, "lat": 38.9239435, "bike_id": "8095ca741ee3fbf068d7f7bc4bfb0ce3", "fusion_lon": 0.0}, {"rental_uris": {"ios": "https://dc.lft.to/lastmile_qr_scan", "android": "https://dc.lft.to/lastmile_qr_scan"}, "type": "electric_scooter", "name": "e37898add82bb2f046f58d6031aac5fd", "is_reserved": 0, "lon": -76.96554566666667, "is_disabled": 0, "fusion_lat": 0.0, "lat": 38.91842, "bike_id": "e37898add82bb2f046f58d6031aac5fd", "fusion_lon": 0.0}, {"rental_uris": {"ios": "https://dc.lft.to/lastmile_qr_scan", "android": "https://dc.lft.to/lastmile_qr_scan"}, "type": "electric_scooter", "name": "0c1bbd187c18a04a5075c63d92af516f", "is_reserved": 0, "lon": -77.03292383333333, "is_disabled": 0, "fusion_lat": 0.0, "lat": 38.924579666666666, "bike_id": "0c1bbd187c18a04a5075c63d92af516f", "fusion_lon": 0.0}, {"rental_uris": {"ios": "https://dc.lft.to/lastmile_qr_scan", "android": "https://dc.lft.to/lastmile_qr_scan"}, "type": "electric_scooter", "name": "db94ab21a1a2ad9644317c327a970201", "is_reserved": 0, "lon": -77.02131833333334, "is_disabled": 0, "fusion_lat": 0.0, "lat": 38.91338116666667, "bike_id": "db94ab21a1a2ad9644317c327a970201", "fusion_lon": 0.0}, {"rental_uris": {"ios": "https://dc.lft.to/lastmile_qr_scan", "android": "https://dc.lft.to/lastmile_qr_scan"}, "type": "electric_scooter", "name": "0014b2718844b9123a38b133851d5861", "is_reserved": 0, "lon": -77.026954, "is_disabled": 0, "fusion_lat": 0.0, "lat": 38.9115365, "bike_id": "0014b2718844b9123a38b133851d5861", "fusion_lon": 0.0}, {"rental_uris": {"ios": "https://dc.lft.to/lastmile_qr_scan", "android": "https://dc.lft.to/lastmile_qr_scan"}, "type": "electric_scooter", "name": "f5fd956d91072bc3bfb25bf4e6031322", "is_reserved": 0, "lon": -76.991323, "is_disabled": 0, "fusion_lat": 0.0, "lat": 38.900160166666666, "bike_id": "f5fd956d91072bc3bfb25bf4e6031322", "fusion_lon": 0.0}, {"rental_uris": {"ios": "https://dc.lft.to/lastmile_qr_scan", "android": "https://dc.lft.to/lastmile_qr_scan"}, "type": "electric_scooter", "name": "e92d04d59780069fa3025f212a937a56", "is_reserved": 0, "lon": -77.02306183333333, "is_disabled": 0, "fusion_lat": 0.0, "lat": 38.89851933333333, "bike_id": "e92d04d59780069fa3025f212a937a56", "fusion_lon": 0.0}, {"rental_uris": {"ios": "https://dc.lft.to/lastmile_qr_scan", "android": "https://dc.lft.to/lastmile_qr_scan"}, "type": "electric_bike", "name": "c7ad7bf962defd593db2a3601c6e773b", "is_reserved": 0, "lon": -77.04270666666666, "is_disabled": 0, "fusion_lat": 0.0, "lat": 38.849109166666665, "bike_id": "c7ad7bf962defd593db2a3601c6e773b", "fusion_lon": 0.0}, {"rental_uris": {"ios": "https://dc.lft.to/lastmile_qr_scan", "android": "https://dc.lft.to/lastmile_qr_scan"}, "type": "electric_scooter", "name": "28edc1806e43369034c1920aada5ef54", "is_reserved": 0, "lon": -77.0380455, "is_disabled": 0, "fusion_lat": 0.0, "lat": 38.925117, "bike_id": "28edc1806e43369034c1920aada5ef54", "fusion_lon": 0.0}, {"rental_uris": {"ios": "https://dc.lft.to/lastmile_qr_scan", "android": "https://dc.lft.to/lastmile_qr_scan"}, "type": "electric_scooter", "name": "6dea8b879eabd89878c69a04795afbc7", "is_reserved": 0, "lon": -77.0560345, "is_disabled": 0, "fusion_lat": 0.0, "lat": 38.89427466666667, "bike_id": "6dea8b879eabd89878c69a04795afbc7", "fusion_lon": 0.0}, {"rental_uris": {"ios": "https://dc.lft.to/lastmile_qr_scan", "android": "https://dc.lft.to/lastmile_qr_scan"}, "type": "electric_scooter", "name": "8d823f0bbb972366e496a8e057979cb3", "is_reserved": 0, "lon": -77.03549216666667, "is_disabled": 0, "fusion_lat": 0.0, "lat": 38.91719366666667, "bike_id": "8d823f0bbb972366e496a8e057979cb3", "fusion_lon": 0.0}, {"rental_uris": {"ios": "https://dc.lft.to/lastmile_qr_scan", "android": "https://dc.lft.to/lastmile_qr_scan"}, "type": "electric_scooter", "name": "e3783d9df7f3e38fa90584f19d3f0b55", "is_reserved": 0, "lon": -77.03289666666667, "is_disabled": 0, "fusion_lat": 0.0, "lat": 38.90458366666667, "bike_id": "e3783d9df7f3e38fa90584f19d3f0b55", "fusion_lon": 0.0}, {"rental_uris": {"ios": "https://dc.lft.to/lastmile_qr_scan", "android": "https://dc.lft.to/lastmile_qr_scan"}, "type": "electric_scooter", "name": "4af0131be096501d96732eff8ad44d12", "is_reserved": 0, "lon": -77.02357383333333, "is_disabled": 0, "fusion_lat": 0.0, "lat": 38.94197066666667, "bike_id": "4af0131be096501d96732eff8ad44d12", "fusion_lon": 0.0}, {"rental_uris": {"ios": "https://dc.lft.to/lastmile_qr_scan", "android": "https://dc.lft.to/lastmile_qr_scan"}, "type": "electric_scooter", "name": "f7e2ca371ac47e80875d698f7fcec863", "is_reserved": 0, "lon": -77.01455066666666, "is_disabled": 0, "fusion_lat": 0.0, "lat": 38.91774066666667, "bike_id": "f7e2ca371ac47e80875d698f7fcec863", "fusion_lon": 0.0}, {"rental_uris": {"ios": "https://dc.lft.to/lastmile_qr_scan", "android": "https://dc.lft.to/lastmile_qr_scan"}, "type": "electric_scooter", "name": "3d13607f13aa7fc460262898811e730f", "is_reserved": 0, "lon": -77.00590266666667, "is_disabled": 0, "fusion_lat": 0.0, "lat": 38.906888, "bike_id": "3d13607f13aa7fc460262898811e730f", "fusion_lon": 0.0}, {"rental_uris": {"ios": "https://dc.lft.to/lastmile_qr_scan", "android": "https://dc.lft.to/lastmile_qr_scan"}, "type": "electric_scooter", "name": "bbd92c23d59b6692b3d3e3606a8afa80", "is_reserved": 0, "lon": -76.92896133333333, "is_disabled": 0, "fusion_lat": 0.0, "lat": 38.879484833333336, "bike_id": "bbd92c23d59b6692b3d3e3606a8afa80", "fusion_lon": 0.0}, {"rental_uris": {"ios": "https://dc.lft.to/lastmile_qr_scan", "android": "https://dc.lft.to/lastmile_qr_scan"}, "type": "electric_scooter", "name": "d1dade52e44e50950f5e38cff4c10238", "is_reserved": 0, "lon": -77.00040966666667, "is_disabled": 0, "fusion_lat": 0.0, "lat": 38.900134333333334, "bike_id": "d1dade52e44e50950f5e38cff4c10238", "fusion_lon": 0.0}, {"rental_uris": {"ios": "https://dc.lft.to/lastmile_qr_scan", "android": "https://dc.lft.to/lastmile_qr_scan"}, "type": "electric_scooter", "name": "6c5270429d21a4eabe2cf7ecfa0da9c9", "is_reserved": 0, "lon": -77.04043516666667, "is_disabled": 0, "fusion_lat": 0.0, "lat": 38.92453783333333, "bike_id": "6c5270429d21a4eabe2cf7ecfa0da9c9", "fusion_lon": 0.0}, {"rental_uris": {"ios": "https://dc.lft.to/lastmile_qr_scan", "android": "https://dc.lft.to/lastmile_qr_scan"}, "type": "electric_scooter", "name": "20e59e8c99606a54ff081660d04d2072", "is_reserved": 0, "lon": -76.98498483333333, "is_disabled": 0, "fusion_lat": 0.0, "lat": 38.903609833333334, "bike_id": "20e59e8c99606a54ff081660d04d2072", "fusion_lon": 0.0}, {"rental_uris": {"ios": "https://dc.lft.to/lastmile_qr_scan", "android": "https://dc.lft.to/lastmile_qr_scan"}, "type": "electric_scooter", "name": "04d2be752737c7bcbc85ad95eede7e98", "is_reserved": 0, "lon": -77.01141783333334, "is_disabled": 0, "fusion_lat": 0.0, "lat": 38.90646233333333, "bike_id": "04d2be752737c7bcbc85ad95eede7e98", "fusion_lon": 0.0}, {"rental_uris": {"ios": "https://dc.lft.to/lastmile_qr_scan", "android": "https://dc.lft.to/lastmile_qr_scan"}, "type": "electric_scooter", "name": "f4b4ba131434c53bdd9e1ee939e12735", "is_reserved": 0, "lon": -77.03668916666666, "is_disabled": 0, "fusion_lat": 0.0, "lat": 38.923605333333334, "bike_id": "f4b4ba131434c53bdd9e1ee939e12735", "fusion_lon": 0.0}, {"rental_uris": {"ios": "https://dc.lft.to/lastmile_qr_scan", "android": "https://dc.lft.to/lastmile_qr_scan"}, "type": "electric_scooter", "name": "b2230ad94654f77f37414d64dbf2be14", "is_reserved": 0, "lon": -77.040155, "is_disabled": 0, "fusion_lat": 0.0, "lat": 38.92250333333333, "bike_id": "b2230ad94654f77f37414d64dbf2be14", "fusion_lon": 0.0}, {"rental_uris": {"ios": "https://dc.lft.to/lastmile_qr_scan", "android": "https://dc.lft.to/lastmile_qr_scan"}, "type": "electric_scooter", "name": "b83451752478a08fb8c4ddd4c272875f", "is_reserved": 0, "lon": -77.005087, "is_disabled": 0, "fusion_lat": 0.0, "lat": 38.87851883333333, "bike_id": "b83451752478a08fb8c4ddd4c272875f", "fusion_lon": 0.0}, {"rental_uris": {"ios": "https://dc.lft.to/lastmile_qr_scan", "android": "https://dc.lft.to/lastmile_qr_scan"}, "type": "electric_scooter", "name": "c39311b7b92870e2f7bde4e93ec6815c", "is_reserved": 0, "lon": -77.00958283333334, "is_disabled": 0, "fusion_lat": 0.0, "lat": 38.87463616666667, "bike_id": "c39311b7b92870e2f7bde4e93ec6815c", "fusion_lon": 0.0}, {"rental_uris": {"ios": "https://dc.lft.to/lastmile_qr_scan", "android": "https://dc.lft.to/lastmile_qr_scan"}, "type": "electric_bike", "name": "a31f9e924965e6d2504f431b796d631c", "is_reserved": 0, "lon": -76.93331033333334, "is_disabled": 0, "fusion_lat": 0.0, "lat": 38.951530166666664, "bike_id": "a31f9e924965e6d2504f431b796d631c", "fusion_lon": 0.0}, {"rental_uris": {"ios": "https://dc.lft.to/lastmile_qr_scan", "android": "https://dc.lft.to/lastmile_qr_scan"}, "type": "electric_scooter", "name": "a935b133d9b85e0f763a7914465f1f8f", "is_reserved": 0, "lon": -77.07868783333333, "is_disabled": 0, "fusion_lat": 0.0, "lat": 38.93171383333333, "bike_id": "a935b133d9b85e0f763a7914465f1f8f", "fusion_lon": 0.0}, {"rental_uris": {"ios": "https://dc.lft.to/lastmile_qr_scan", "android": "https://dc.lft.to/lastmile_qr_scan"}, "type": "electric_scooter", "name": "0f999587d808a00814a3d1a32cc4f318", "is_reserved": 0, "lon": -77.02982116666666, "is_disabled": 0, "fusion_lat": 0.0, "lat": 38.9236555, "bike_id": "0f999587d808a00814a3d1a32cc4f318", "fusion_lon": 0.0}, {"rental_uris": {"ios": "https://dc.lft.to/lastmile_qr_scan", "android": "https://dc.lft.to/lastmile_qr_scan"}, "type": "electric_bike", "name": "dc26e4151b286f1faf5b1192afaac712", "is_reserved": 0, "lon": -77.02345716666666, "is_disabled": 0, "fusion_lat": 0.0, "lat": 38.9198385, "bike_id": "dc26e4151b286f1faf5b1192afaac712", "fusion_lon": 0.0}, {"rental_uris": {"ios": "https://dc.lft.to/lastmile_qr_scan", "android": "https://dc.lft.to/lastmile_qr_scan"}, "type": "electric_scooter", "name": "a77dc22e1c6454d4593c1bb7cace6996", "is_reserved": 0, "lon": -77.0190525, "is_disabled": 0, "fusion_lat": 0.0, "lat": 38.90574016666667, "bike_id": "a77dc22e1c6454d4593c1bb7cace6996", "fusion_lon": 0.0}, {"rental_uris": {"ios": "https://dc.lft.to/lastmile_qr_scan", "android": "https://dc.lft.to/lastmile_qr_scan"}, "type": "electric_scooter", "name": "5682f4aa112f9784b777aaaf1fcc61db", "is_reserved": 0, "lon": -77.0574425, "is_disabled": 0, "fusion_lat": 0.0, "lat": 38.9303785, "bike_id": "5682f4aa112f9784b777aaaf1fcc61db", "fusion_lon": 0.0}, {"rental_uris": {"ios": "https://dc.lft.to/lastmile_qr_scan", "android": "https://dc.lft.to/lastmile_qr_scan"}, "type": "electric_bike", "name": "68ea257c75c6da27f34fc16e57dd119e", "is_reserved": 0, "lon": -77.09622, "is_disabled": 0, "fusion_lat": 0.0, "lat": 38.97436916666667, "bike_id": "68ea257c75c6da27f34fc16e57dd119e", "fusion_lon": 0.0}, {"rental_uris": {"ios": "https://dc.lft.to/lastmile_qr_scan", "android": "https://dc.lft.to/lastmile_qr_scan"}, "type": "electric_scooter", "name": "b065c646b29a32d853cf5368b097c369", "is_reserved": 0, "lon": -77.04370616666667, "is_disabled": 0, "fusion_lat": 0.0, "lat": 38.892275, "bike_id": "b065c646b29a32d853cf5368b097c369", "fusion_lon": 0.0}, {"rental_uris": {"ios": "https://dc.lft.to/lastmile_qr_scan", "android": "https://dc.lft.to/lastmile_qr_scan"}, "type": "electric_scooter", "name": "96038e64fe5529c3a178568c6f28bc86", "is_reserved": 0, "lon": -77.02163466666667, "is_disabled": 0, "fusion_lat": 0.0, "lat": 38.924987, "bike_id": "96038e64fe5529c3a178568c6f28bc86", "fusion_lon": 0.0}, {"rental_uris": {"ios": "https://dc.lft.to/lastmile_qr_scan", "android": "https://dc.lft.to/lastmile_qr_scan"}, "type": "electric_scooter", "name": "162d69dd33ec87744b276d7175a7ba47", "is_reserved": 0, "lon": -77.05815866666667, "is_disabled": 0, "fusion_lat": 0.0, "lat": 38.93517416666667, "bike_id": "162d69dd33ec87744b276d7175a7ba47", "fusion_lon": 0.0}, {"rental_uris": {"ios": "https://dc.lft.to/lastmile_qr_scan", "android": "https://dc.lft.to/lastmile_qr_scan"}, "type": "electric_bike", "name": "a289ec5bd2104364a870bb9734dde7c3", "is_reserved": 0, "lon": -77.12940483333334, "is_disabled": 0, "fusion_lat": 0.0, "lat": 38.865945833333335, "bike_id": "a289ec5bd2104364a870bb9734dde7c3", "fusion_lon": 0.0}, {"rental_uris": {"ios": "https://dc.lft.to/lastmile_qr_scan", "android": "https://dc.lft.to/lastmile_qr_scan"}, "type": "electric_scooter", "name": "bc6996412eabde1b865c543983ed487e", "is_reserved": 0, "lon": -77.07024416666667, "is_disabled": 0, "fusion_lat": 0.0, "lat": 38.89352566666667, "bike_id": "bc6996412eabde1b865c543983ed487e", "fusion_lon": 0.0}, {"rental_uris": {"ios": "https://dc.lft.to/lastmile_qr_scan", "android": "https://dc.lft.to/lastmile_qr_scan"}, "type": "electric_scooter", "name": "51653e947540bb4ce2b47e685127855a", "is_reserved": 0, "lon": -76.93189883333334, "is_disabled": 0, "fusion_lat": 0.0, "lat": 38.89877633333333, "bike_id": "51653e947540bb4ce2b47e685127855a", "fusion_lon": 0.0}, {"rental_uris": {"ios": "https://dc.lft.to/lastmile_qr_scan", "android": "https://dc.lft.to/lastmile_qr_scan"}, "type": "electric_scooter", "name": "8de0881e230e23fb63be0123ddd847fa", "is_reserved": 0, "lon": -77.00045483333334, "is_disabled": 0, "fusion_lat": 0.0, "lat": 38.874638833333336, "bike_id": "8de0881e230e23fb63be0123ddd847fa", "fusion_lon": 0.0}, {"rental_uris": {"ios": "https://dc.lft.to/lastmile_qr_scan", "android": "https://dc.lft.to/lastmile_qr_scan"}, "type": "electric_scooter", "name": "e85100af71d35bbc9ee9b5019f2eb3f9", "is_reserved": 0, "lon": -77.02477433333334, "is_disabled": 0, "fusion_lat": 0.0, "lat": 38.918185333333334, "bike_id": "e85100af71d35bbc9ee9b5019f2eb3f9", "fusion_lon": 0.0}, {"rental_uris": {"ios": "https://dc.lft.to/lastmile_qr_scan", "android": "https://dc.lft.to/lastmile_qr_scan"}, "type": "electric_scooter", "name": "25b4d1e9c5d1fdc83272c93659e21f57", "is_reserved": 0, "lon": -77.04574916666667, "is_disabled": 0, "fusion_lat": 0.0, "lat": 38.90960466666667, "bike_id": "25b4d1e9c5d1fdc83272c93659e21f57", "fusion_lon": 0.0}, {"rental_uris": {"ios": "https://dc.lft.to/lastmile_qr_scan", "android": "https://dc.lft.to/lastmile_qr_scan"}, "type": "electric_scooter", "name": "5f7600a0c479f78c47b286f5d75d5f69", "is_reserved": 0, "lon": -77.00198983333334, "is_disabled": 0, "fusion_lat": 0.0, "lat": 38.91193, "bike_id": "5f7600a0c479f78c47b286f5d75d5f69", "fusion_lon": 0.0}, {"rental_uris": {"ios": "https://dc.lft.to/lastmile_qr_scan", "android": "https://dc.lft.to/lastmile_qr_scan"}, "type": "electric_scooter", "name": "6cb9138148aaf681e777b20cd19eb909", "is_reserved": 0, "lon": -77.055288, "is_disabled": 0, "fusion_lat": 0.0, "lat": 38.9100385, "bike_id": "6cb9138148aaf681e777b20cd19eb909", "fusion_lon": 0.0}, {"rental_uris": {"ios": "https://dc.lft.to/lastmile_qr_scan", "android": "https://dc.lft.to/lastmile_qr_scan"}, "type": "electric_scooter", "name": "e6854fbb8e314bf5abf7c8f138493d1c", "is_reserved": 0, "lon": -76.989928, "is_disabled": 0, "fusion_lat": 0.0, "lat": 38.86425716666667, "bike_id": "e6854fbb8e314bf5abf7c8f138493d1c", "fusion_lon": 0.0}, {"rental_uris": {"ios": "https://dc.lft.to/lastmile_qr_scan", "android": "https://dc.lft.to/lastmile_qr_scan"}, "type": "electric_bike", "name": "fc9d0681b65181f2e3762e04687970ab", "is_reserved": 0, "lon": -76.941514, "is_disabled": 0, "fusion_lat": 0.0, "lat": 38.890194, "bike_id": "fc9d0681b65181f2e3762e04687970ab", "fusion_lon": 0.0}, {"rental_uris": {"ios": "https://dc.lft.to/lastmile_qr_scan", "android": "https://dc.lft.to/lastmile_qr_scan"}, "type": "electric_scooter", "name": "59615ec1876b04e8257954fdeab6f541", "is_reserved": 0, "lon": -77.038286, "is_disabled": 0, "fusion_lat": 0.0, "lat": 38.9626605, "bike_id": "59615ec1876b04e8257954fdeab6f541", "fusion_lon": 0.0}, {"rental_uris": {"ios": "https://dc.lft.to/lastmile_qr_scan", "android": "https://dc.lft.to/lastmile_qr_scan"}, "type": "electric_scooter", "name": "69877b203391be12adce9515b7cc198a", "is_reserved": 0, "lon": -77.04600133333334, "is_disabled": 0, "fusion_lat": 0.0, "lat": 38.91864016666667, "bike_id": "69877b203391be12adce9515b7cc198a", "fusion_lon": 0.0}, {"rental_uris": {"ios": "https://dc.lft.to/lastmile_qr_scan", "android": "https://dc.lft.to/lastmile_qr_scan"}, "type": "electric_scooter", "name": "139668907f6fe017dbeea560cbc24bd0", "is_reserved": 0, "lon": -76.9992135, "is_disabled": 0, "fusion_lat": 0.0, "lat": 38.90067766666667, "bike_id": "139668907f6fe017dbeea560cbc24bd0", "fusion_lon": 0.0}, {"rental_uris": {"ios": "https://dc.lft.to/lastmile_qr_scan", "android": "https://dc.lft.to/lastmile_qr_scan"}, "type": "electric_scooter", "name": "95737be18dcc8b5ad7d5af9d7568c183", "is_reserved": 0, "lon": -77.03860833333333, "is_disabled": 0, "fusion_lat": 0.0, "lat": 38.917152333333334, "bike_id": "95737be18dcc8b5ad7d5af9d7568c183", "fusion_lon": 0.0}, {"rental_uris": {"ios": "https://dc.lft.to/lastmile_qr_scan", "android": "https://dc.lft.to/lastmile_qr_scan"}, "type": "electric_bike", "name": "7f167d26a52e4351a4583bc36541cf43", "is_reserved": 0, "lon": -77.12651733333334, "is_disabled": 0, "fusion_lat": 0.0, "lat": 38.8190965, "bike_id": "7f167d26a52e4351a4583bc36541cf43", "fusion_lon": 0.0}, {"rental_uris": {"ios": "https://dc.lft.to/lastmile_qr_scan", "android": "https://dc.lft.to/lastmile_qr_scan"}, "type": "electric_bike", "name": "26eeff08e53ab655947d47cbecd374a5", "is_reserved": 0, "lon": -76.95253133333334, "is_disabled": 0, "fusion_lat": 0.0, "lat": 38.906949, "bike_id": "26eeff08e53ab655947d47cbecd374a5", "fusion_lon": 0.0}, {"rental_uris": {"ios": "https://dc.lft.to/lastmile_qr_scan", "android": "https://dc.lft.to/lastmile_qr_scan"}, "type": "electric_bike", "name": "e3475db098e8578b43123d1d0ec8fdca", "is_reserved": 0, "lon": -77.07903116666667, "is_disabled": 0, "fusion_lat": 0.0, "lat": 38.839392833333335, "bike_id": "e3475db098e8578b43123d1d0ec8fdca", "fusion_lon": 0.0}, {"rental_uris": {"ios": "https://dc.lft.to/lastmile_qr_scan", "android": "https://dc.lft.to/lastmile_qr_scan"}, "type": "electric_scooter", "name": "1fbe737eaef7c109197510dbf6e60cfd", "is_reserved": 0, "lon": -77.063761, "is_disabled": 0, "fusion_lat": 0.0, "lat": 38.935605833333334, "bike_id": "1fbe737eaef7c109197510dbf6e60cfd", "fusion_lon": 0.0}, {"rental_uris": {"ios": "https://dc.lft.to/lastmile_qr_scan", "android": "https://dc.lft.to/lastmile_qr_scan"}, "type": "electric_scooter", "name": "52bfab8b8dd3c5d0bc9752c6d133b82c", "is_reserved": 0, "lon": -76.9771855, "is_disabled": 0, "fusion_lat": 0.0, "lat": 38.88818066666666, "bike_id": "52bfab8b8dd3c5d0bc9752c6d133b82c", "fusion_lon": 0.0}, {"rental_uris": {"ios": "https://dc.lft.to/lastmile_qr_scan", "android": "https://dc.lft.to/lastmile_qr_scan"}, "type": "electric_scooter", "name": "1dc18787cb37818f083e950be0478eb5", "is_reserved": 0, "lon": -77.03818766666667, "is_disabled": 0, "fusion_lat": 0.0, "lat": 38.931126666666664, "bike_id": "1dc18787cb37818f083e950be0478eb5", "fusion_lon": 0.0}, {"rental_uris": {"ios": "https://dc.lft.to/lastmile_qr_scan", "android": "https://dc.lft.to/lastmile_qr_scan"}, "type": "electric_scooter", "name": "b267e65afb37e35cda482aa8f3ed1df2", "is_reserved": 0, "lon": -77.03480183333333, "is_disabled": 0, "fusion_lat": 0.0, "lat": 38.90568433333333, "bike_id": "b267e65afb37e35cda482aa8f3ed1df2", "fusion_lon": 0.0}, {"rental_uris": {"ios": "https://dc.lft.to/lastmile_qr_scan", "android": "https://dc.lft.to/lastmile_qr_scan"}, "type": "electric_scooter", "name": "6cfb949b1f84d4fe21350024bd9328f5", "is_reserved": 0, "lon": -77.03370283333334, "is_disabled": 0, "fusion_lat": 0.0, "lat": 38.90116066666667, "bike_id": "6cfb949b1f84d4fe21350024bd9328f5", "fusion_lon": 0.0}, {"rental_uris": {"ios": "https://dc.lft.to/lastmile_qr_scan", "android": "https://dc.lft.to/lastmile_qr_scan"}, "type": "electric_scooter", "name": "d54c19b7b0993cc98a620c9d430efaf9", "is_reserved": 0, "lon": -77.02418166666666, "is_disabled": 0, "fusion_lat": 0.0, "lat": 38.903934166666666, "bike_id": "d54c19b7b0993cc98a620c9d430efaf9", "fusion_lon": 0.0}, {"rental_uris": {"ios": "https://dc.lft.to/lastmile_qr_scan", "android": "https://dc.lft.to/lastmile_qr_scan"}, "type": "electric_scooter", "name": "85f86f7f85f4c08c0731ce807b8b3974", "is_reserved": 0, "lon": -77.01287483333333, "is_disabled": 0, "fusion_lat": 0.0, "lat": 38.910358, "bike_id": "85f86f7f85f4c08c0731ce807b8b3974", "fusion_lon": 0.0}, {"rental_uris": {"ios": "https://dc.lft.to/lastmile_qr_scan", "android": "https://dc.lft.to/lastmile_qr_scan"}, "type": "electric_scooter", "name": "cf7e09acbbabf75440eb235a3c02821f", "is_reserved": 0, "lon": -77.03322183333333, "is_disabled": 0, "fusion_lat": 0.0, "lat": 38.90012383333333, "bike_id": "cf7e09acbbabf75440eb235a3c02821f", "fusion_lon": 0.0}, {"rental_uris": {"ios": "https://dc.lft.to/lastmile_qr_scan", "android": "https://dc.lft.to/lastmile_qr_scan"}, "type": "electric_scooter", "name": "3ea220b26e967cdcaac3c3ed2c836ce8", "is_reserved": 0, "lon": -77.03517933333333, "is_disabled": 0, "fusion_lat": 0.0, "lat": 38.906639, "bike_id": "3ea220b26e967cdcaac3c3ed2c836ce8", "fusion_lon": 0.0}, {"rental_uris": {"ios": "https://dc.lft.to/lastmile_qr_scan", "android": "https://dc.lft.to/lastmile_qr_scan"}, "type": "electric_bike", "name": "912c29f5d83b566e36089336e5a1d309", "is_reserved": 0, "lon": -77.02454233333333, "is_disabled": 0, "fusion_lat": 0.0, "lat": 38.95726833333333, "bike_id": "912c29f5d83b566e36089336e5a1d309", "fusion_lon": 0.0}, {"rental_uris": {"ios": "https://dc.lft.to/lastmile_qr_scan", "android": "https://dc.lft.to/lastmile_qr_scan"}, "type": "electric_scooter", "name": "488b5e8b88ff33d4f070c31415750428", "is_reserved": 0, "lon": -77.0359555, "is_disabled": 0, "fusion_lat": 0.0, "lat": 38.92791783333333, "bike_id": "488b5e8b88ff33d4f070c31415750428", "fusion_lon": 0.0}, {"rental_uris": {"ios": "https://dc.lft.to/lastmile_qr_scan", "android": "https://dc.lft.to/lastmile_qr_scan"}, "type": "electric_scooter", "name": "c461f408f55515c5dbe6e3c9ac953eda", "is_reserved": 0, "lon": -77.07223333333333, "is_disabled": 0, "fusion_lat": 0.0, "lat": 38.9197275, "bike_id": "c461f408f55515c5dbe6e3c9ac953eda", "fusion_lon": 0.0}, {"rental_uris": {"ios": "https://dc.lft.to/lastmile_qr_scan", "android": "https://dc.lft.to/lastmile_qr_scan"}, "type": "electric_scooter", "name": "44151ac2ad3e419db63022f9818b4f30", "is_reserved": 0, "lon": -77.00625333333333, "is_disabled": 0, "fusion_lat": 0.0, "lat": 38.871767166666665, "bike_id": "44151ac2ad3e419db63022f9818b4f30", "fusion_lon": 0.0}, {"rental_uris": {"ios": "https://dc.lft.to/lastmile_qr_scan", "android": "https://dc.lft.to/lastmile_qr_scan"}, "type": "electric_scooter", "name": "5e126cd8188aa9d73e0f82d8bc0756fd", "is_reserved": 0, "lon": -77.040092, "is_disabled": 0, "fusion_lat": 0.0, "lat": 38.88866016666667, "bike_id": "5e126cd8188aa9d73e0f82d8bc0756fd", "fusion_lon": 0.0}, {"rental_uris": {"ios": "https://dc.lft.to/lastmile_qr_scan", "android": "https://dc.lft.to/lastmile_qr_scan"}, "type": "electric_scooter", "name": "6f5ba9611fec3e56104ee33d40ac392b", "is_reserved": 0, "lon": -77.025837, "is_disabled": 0, "fusion_lat": 0.0, "lat": 38.88494816666667, "bike_id": "6f5ba9611fec3e56104ee33d40ac392b", "fusion_lon": 0.0}, {"rental_uris": {"ios": "https://dc.lft.to/lastmile_qr_scan", "android": "https://dc.lft.to/lastmile_qr_scan"}, "type": "electric_scooter", "name": "fc49caaf679ef6161c6fd757a801b751", "is_reserved": 0, "lon": -77.0834035, "is_disabled": 0, "fusion_lat": 0.0, "lat": 38.894226, "bike_id": "fc49caaf679ef6161c6fd757a801b751", "fusion_lon": 0.0}, {"rental_uris": {"ios": "https://dc.lft.to/lastmile_qr_scan", "android": "https://dc.lft.to/lastmile_qr_scan"}, "type": "electric_scooter", "name": "8adac827cdb3cb0fcdbe9c95e3ae6661", "is_reserved": 0, "lon": -77.04528816666667, "is_disabled": 0, "fusion_lat": 0.0, "lat": 38.91111266666667, "bike_id": "8adac827cdb3cb0fcdbe9c95e3ae6661", "fusion_lon": 0.0}, {"rental_uris": {"ios": "https://dc.lft.to/lastmile_qr_scan", "android": "https://dc.lft.to/lastmile_qr_scan"}, "type": "electric_scooter", "name": "8472f5016044fe718f05e96754f4599d", "is_reserved": 0, "lon": -77.033415, "is_disabled": 0, "fusion_lat": 0.0, "lat": 38.902464, "bike_id": "8472f5016044fe718f05e96754f4599d", "fusion_lon": 0.0}, {"rental_uris": {"ios": "https://dc.lft.to/lastmile_qr_scan", "android": "https://dc.lft.to/lastmile_qr_scan"}, "type": "electric_scooter", "name": "bcabda29ddc2180f63b5e62d033995a1", "is_reserved": 0, "lon": -77.01819033333334, "is_disabled": 0, "fusion_lat": 0.0, "lat": 38.922236, "bike_id": "bcabda29ddc2180f63b5e62d033995a1", "fusion_lon": 0.0}, {"rental_uris": {"ios": "https://dc.lft.to/lastmile_qr_scan", "android": "https://dc.lft.to/lastmile_qr_scan"}, "type": "electric_scooter", "name": "dd35aec2c3effd4081885c5d238704ac", "is_reserved": 0, "lon": -76.99780316666667, "is_disabled": 0, "fusion_lat": 0.0, "lat": 38.923008, "bike_id": "dd35aec2c3effd4081885c5d238704ac", "fusion_lon": 0.0}, {"rental_uris": {"ios": "https://dc.lft.to/lastmile_qr_scan", "android": "https://dc.lft.to/lastmile_qr_scan"}, "type": "electric_scooter", "name": "05a01f510f43c11a5f141ca670284fc8", "is_reserved": 0, "lon": -77.01360083333333, "is_disabled": 0, "fusion_lat": 0.0, "lat": 38.91924483333333, "bike_id": "05a01f510f43c11a5f141ca670284fc8", "fusion_lon": 0.0}, {"rental_uris": {"ios": "https://dc.lft.to/lastmile_qr_scan", "android": "https://dc.lft.to/lastmile_qr_scan"}, "type": "electric_scooter", "name": "9531a053a83a2d8e1579296f4fabfe71", "is_reserved": 0, "lon": -77.01580616666666, "is_disabled": 0, "fusion_lat": 0.0, "lat": 38.876500166666666, "bike_id": "9531a053a83a2d8e1579296f4fabfe71", "fusion_lon": 0.0}, {"rental_uris": {"ios": "https://dc.lft.to/lastmile_qr_scan", "android": "https://dc.lft.to/lastmile_qr_scan"}, "type": "electric_scooter", "name": "952635db101aa68471b644e420a5097c", "is_reserved": 0, "lon": -77.04344916666666, "is_disabled": 0, "fusion_lat": 0.0, "lat": 38.91374716666667, "bike_id": "952635db101aa68471b644e420a5097c", "fusion_lon": 0.0}, {"rental_uris": {"ios": "https://dc.lft.to/lastmile_qr_scan", "android": "https://dc.lft.to/lastmile_qr_scan"}, "type": "electric_scooter", "name": "927196e0e7e88ce7f67a0ca0543e9d12", "is_reserved": 0, "lon": -77.01902133333333, "is_disabled": 0, "fusion_lat": 0.0, "lat": 38.903650666666664, "bike_id": "927196e0e7e88ce7f67a0ca0543e9d12", "fusion_lon": 0.0}, {"rental_uris": {"ios": "https://dc.lft.to/lastmile_qr_scan", "android": "https://dc.lft.to/lastmile_qr_scan"}, "type": "electric_scooter", "name": "c23b47b91c2321efeb08cb49f308f51c", "is_reserved": 0, "lon": -77.00915233333333, "is_disabled": 0, "fusion_lat": 0.0, "lat": 38.899016333333336, "bike_id": "c23b47b91c2321efeb08cb49f308f51c", "fusion_lon": 0.0}, {"rental_uris": {"ios": "https://dc.lft.to/lastmile_qr_scan", "android": "https://dc.lft.to/lastmile_qr_scan"}, "type": "electric_scooter", "name": "cefa32461fcf52d35d5863bf8cff518f", "is_reserved": 0, "lon": -77.00925616666666, "is_disabled": 0, "fusion_lat": 0.0, "lat": 38.89611283333333, "bike_id": "cefa32461fcf52d35d5863bf8cff518f", "fusion_lon": 0.0}, {"rental_uris": {"ios": "https://dc.lft.to/lastmile_qr_scan", "android": "https://dc.lft.to/lastmile_qr_scan"}, "type": "electric_scooter", "name": "deb0473d9fb0844c839e3568908b73bc", "is_reserved": 0, "lon": -77.05789666666666, "is_disabled": 0, "fusion_lat": 0.0, "lat": 38.90513033333333, "bike_id": "deb0473d9fb0844c839e3568908b73bc", "fusion_lon": 0.0}, {"rental_uris": {"ios": "https://dc.lft.to/lastmile_qr_scan", "android": "https://dc.lft.to/lastmile_qr_scan"}, "type": "electric_scooter", "name": "515b33f481b1082ac62590fc5a65b789", "is_reserved": 0, "lon": -77.03508433333333, "is_disabled": 0, "fusion_lat": 0.0, "lat": 38.921519333333336, "bike_id": "515b33f481b1082ac62590fc5a65b789", "fusion_lon": 0.0}, {"rental_uris": {"ios": "https://dc.lft.to/lastmile_qr_scan", "android": "https://dc.lft.to/lastmile_qr_scan"}, "type": "electric_scooter", "name": "133c77b15d773436b8caa7d3c462879c", "is_reserved": 0, "lon": -77.033274, "is_disabled": 0, "fusion_lat": 0.0, "lat": 38.919101166666664, "bike_id": "133c77b15d773436b8caa7d3c462879c", "fusion_lon": 0.0}, {"rental_uris": {"ios": "https://dc.lft.to/lastmile_qr_scan", "android": "https://dc.lft.to/lastmile_qr_scan"}, "type": "electric_scooter", "name": "d0f86acf1d892f99f1c1b64b4d446d1f", "is_reserved": 0, "lon": -76.99641266666667, "is_disabled": 0, "fusion_lat": 0.0, "lat": 38.887647333333334, "bike_id": "d0f86acf1d892f99f1c1b64b4d446d1f", "fusion_lon": 0.0}, {"rental_uris": {"ios": "https://dc.lft.to/lastmile_qr_scan", "android": "https://dc.lft.to/lastmile_qr_scan"}, "type": "electric_bike", "name": "f44a57f80dd110ea0e2b53471ac7cda8", "is_reserved": 0, "lon": -76.9809375, "is_disabled": 0, "fusion_lat": 0.0, "lat": 38.95357583333333, "bike_id": "f44a57f80dd110ea0e2b53471ac7cda8", "fusion_lon": 0.0}, {"rental_uris": {"ios": "https://dc.lft.to/lastmile_qr_scan", "android": "https://dc.lft.to/lastmile_qr_scan"}, "type": "electric_scooter", "name": "862e0c83bc6a58a52f2a5fb11829355f", "is_reserved": 0, "lon": -77.02154666666667, "is_disabled": 0, "fusion_lat": 0.0, "lat": 38.887434166666665, "bike_id": "862e0c83bc6a58a52f2a5fb11829355f", "fusion_lon": 0.0}, {"rental_uris": {"ios": "https://dc.lft.to/lastmile_qr_scan", "android": "https://dc.lft.to/lastmile_qr_scan"}, "type": "electric_scooter", "name": "c62de74dcbd9faf4bf06b17150efeae5", "is_reserved": 0, "lon": -77.02639066666667, "is_disabled": 0, "fusion_lat": 0.0, "lat": 38.92676816666667, "bike_id": "c62de74dcbd9faf4bf06b17150efeae5", "fusion_lon": 0.0}, {"rental_uris": {"ios": "https://dc.lft.to/lastmile_qr_scan", "android": "https://dc.lft.to/lastmile_qr_scan"}, "type": "electric_scooter", "name": "f903dd7e860833b79f55dd170ec12f6b", "is_reserved": 0, "lon": -76.97937183333333, "is_disabled": 0, "fusion_lat": 0.0, "lat": 38.90662716666667, "bike_id": "f903dd7e860833b79f55dd170ec12f6b", "fusion_lon": 0.0}, {"rental_uris": {"ios": "https://dc.lft.to/lastmile_qr_scan", "android": "https://dc.lft.to/lastmile_qr_scan"}, "type": "electric_scooter", "name": "17ca685e1d13128eee20c5dc6dc00e99", "is_reserved": 0, "lon": -76.95288333333333, "is_disabled": 0, "fusion_lat": 0.0, "lat": 38.8902865, "bike_id": "17ca685e1d13128eee20c5dc6dc00e99", "fusion_lon": 0.0}, {"rental_uris": {"ios": "https://dc.lft.to/lastmile_qr_scan", "android": "https://dc.lft.to/lastmile_qr_scan"}, "type": "electric_bike", "name": "54399e7eeff296f1718f8b01abe05b2e", "is_reserved": 0, "lon": -76.99546, "is_disabled": 0, "fusion_lat": 0.0, "lat": 38.831597, "bike_id": "54399e7eeff296f1718f8b01abe05b2e", "fusion_lon": 0.0}, {"rental_uris": {"ios": "https://dc.lft.to/lastmile_qr_scan", "android": "https://dc.lft.to/lastmile_qr_scan"}, "type": "electric_scooter", "name": "acfd76968c19effb4c1b47b677927403", "is_reserved": 0, "lon": -77.0209055, "is_disabled": 0, "fusion_lat": 0.0, "lat": 38.9291495, "bike_id": "acfd76968c19effb4c1b47b677927403", "fusion_lon": 0.0}, {"rental_uris": {"ios": "https://dc.lft.to/lastmile_qr_scan", "android": "https://dc.lft.to/lastmile_qr_scan"}, "type": "electric_scooter", "name": "f3bfd59a5c76cf15acdaf9a24758c886", "is_reserved": 0, "lon": -77.0272665, "is_disabled": 0, "fusion_lat": 0.0, "lat": 38.91064166666666, "bike_id": "f3bfd59a5c76cf15acdaf9a24758c886", "fusion_lon": 0.0}, {"rental_uris": {"ios": "https://dc.lft.to/lastmile_qr_scan", "android": "https://dc.lft.to/lastmile_qr_scan"}, "type": "electric_scooter", "name": "b3fb4ae5dbce51b670f9cfa1148f9d28", "is_reserved": 0, "lon": -77.00358683333333, "is_disabled": 0, "fusion_lat": 0.0, "lat": 38.87664566666667, "bike_id": "b3fb4ae5dbce51b670f9cfa1148f9d28", "fusion_lon": 0.0}, {"rental_uris": {"ios": "https://dc.lft.to/lastmile_qr_scan", "android": "https://dc.lft.to/lastmile_qr_scan"}, "type": "electric_scooter", "name": "ae658ac71ae90331215f10240d6c5aa8", "is_reserved": 0, "lon": -77.0613275, "is_disabled": 0, "fusion_lat": 0.0, "lat": 38.903783, "bike_id": "ae658ac71ae90331215f10240d6c5aa8", "fusion_lon": 0.0}, {"rental_uris": {"ios": "https://dc.lft.to/lastmile_qr_scan", "android": "https://dc.lft.to/lastmile_qr_scan"}, "type": "electric_scooter", "name": "c716c6b94eb8b4f9be3d3833d1ccd2eb", "is_reserved": 0, "lon": -77.00312066666666, "is_disabled": 0, "fusion_lat": 0.0, "lat": 38.87704, "bike_id": "c716c6b94eb8b4f9be3d3833d1ccd2eb", "fusion_lon": 0.0}, {"rental_uris": {"ios": "https://dc.lft.to/lastmile_qr_scan", "android": "https://dc.lft.to/lastmile_qr_scan"}, "type": "electric_scooter", "name": "4dc7ab89ede3379365c67d93cfcef92e", "is_reserved": 0, "lon": -77.01236183333333, "is_disabled": 0, "fusion_lat": 0.0, "lat": 38.88107633333333, "bike_id": "4dc7ab89ede3379365c67d93cfcef92e", "fusion_lon": 0.0}, {"rental_uris": {"ios": "https://dc.lft.to/lastmile_qr_scan", "android": "https://dc.lft.to/lastmile_qr_scan"}, "type": "electric_scooter", "name": "e76eb118d7749878ac52c39e5f3fe720", "is_reserved": 0, "lon": -77.02970366666666, "is_disabled": 0, "fusion_lat": 0.0, "lat": 38.923192666666665, "bike_id": "e76eb118d7749878ac52c39e5f3fe720", "fusion_lon": 0.0}, {"rental_uris": {"ios": "https://dc.lft.to/lastmile_qr_scan", "android": "https://dc.lft.to/lastmile_qr_scan"}, "type": "electric_scooter", "name": "006b3b9efca9da16d5378518357ce618", "is_reserved": 0, "lon": -77.00251833333333, "is_disabled": 0, "fusion_lat": 0.0, "lat": 38.902637, "bike_id": "006b3b9efca9da16d5378518357ce618", "fusion_lon": 0.0}, {"rental_uris": {"ios": "https://dc.lft.to/lastmile_qr_scan", "android": "https://dc.lft.to/lastmile_qr_scan"}, "type": "electric_scooter", "name": "cd0abce2c00e05cf044d7158edbb5667", "is_reserved": 0, "lon": -76.98696133333334, "is_disabled": 0, "fusion_lat": 0.0, "lat": 38.912994833333336, "bike_id": "cd0abce2c00e05cf044d7158edbb5667", "fusion_lon": 0.0}, {"rental_uris": {"ios": "https://dc.lft.to/lastmile_qr_scan", "android": "https://dc.lft.to/lastmile_qr_scan"}, "type": "electric_scooter", "name": "13d87acd31948bca9ff096caec5ffc30", "is_reserved": 0, "lon": -77.06697416666667, "is_disabled": 0, "fusion_lat": 0.0, "lat": 38.90976116666667, "bike_id": "13d87acd31948bca9ff096caec5ffc30", "fusion_lon": 0.0}, {"rental_uris": {"ios": "https://dc.lft.to/lastmile_qr_scan", "android": "https://dc.lft.to/lastmile_qr_scan"}, "type": "electric_scooter", "name": "9c270fb2650f4681761cf339045d9197", "is_reserved": 0, "lon": -77.00288416666666, "is_disabled": 0, "fusion_lat": 0.0, "lat": 38.901281, "bike_id": "9c270fb2650f4681761cf339045d9197", "fusion_lon": 0.0}, {"rental_uris": {"ios": "https://dc.lft.to/lastmile_qr_scan", "android": "https://dc.lft.to/lastmile_qr_scan"}, "type": "electric_scooter", "name": "f5183cb179e6c8388fce30861eb49a22", "is_reserved": 0, "lon": -77.00161133333333, "is_disabled": 0, "fusion_lat": 0.0, "lat": 38.873859333333336, "bike_id": "f5183cb179e6c8388fce30861eb49a22", "fusion_lon": 0.0}, {"rental_uris": {"ios": "https://dc.lft.to/lastmile_qr_scan", "android": "https://dc.lft.to/lastmile_qr_scan"}, "type": "electric_scooter", "name": "887a9df5759ff7fa73991b2b751761eb", "is_reserved": 0, "lon": -77.01660766666667, "is_disabled": 0, "fusion_lat": 0.0, "lat": 38.9293495, "bike_id": "887a9df5759ff7fa73991b2b751761eb", "fusion_lon": 0.0}, {"rental_uris": {"ios": "https://dc.lft.to/lastmile_qr_scan", "android": "https://dc.lft.to/lastmile_qr_scan"}, "type": "electric_scooter", "name": "826302bf584c40fd63a01e6616356e22", "is_reserved": 0, "lon": -77.02915183333333, "is_disabled": 0, "fusion_lat": 0.0, "lat": 38.934585166666665, "bike_id": "826302bf584c40fd63a01e6616356e22", "fusion_lon": 0.0}, {"rental_uris": {"ios": "https://dc.lft.to/lastmile_qr_scan", "android": "https://dc.lft.to/lastmile_qr_scan"}, "type": "electric_scooter", "name": "7ced88f06abbc7381c68a2bcce1ffa92", "is_reserved": 0, "lon": -77.03640516666667, "is_disabled": 0, "fusion_lat": 0.0, "lat": 38.90621483333334, "bike_id": "7ced88f06abbc7381c68a2bcce1ffa92", "fusion_lon": 0.0}, {"rental_uris": {"ios": "https://dc.lft.to/lastmile_qr_scan", "android": "https://dc.lft.to/lastmile_qr_scan"}, "type": "electric_scooter", "name": "d35588ece6e4e38df8d21af92cb2e504", "is_reserved": 0, "lon": -77.03344816666667, "is_disabled": 0, "fusion_lat": 0.0, "lat": 38.897393666666666, "bike_id": "d35588ece6e4e38df8d21af92cb2e504", "fusion_lon": 0.0}, {"rental_uris": {"ios": "https://dc.lft.to/lastmile_qr_scan", "android": "https://dc.lft.to/lastmile_qr_scan"}, "type": "electric_scooter", "name": "4c055bf255300e0bf2504dabf02d0871", "is_reserved": 0, "lon": -77.027988, "is_disabled": 0, "fusion_lat": 0.0, "lat": 38.95604316666667, "bike_id": "4c055bf255300e0bf2504dabf02d0871", "fusion_lon": 0.0}, {"rental_uris": {"ios": "https://dc.lft.to/lastmile_qr_scan", "android": "https://dc.lft.to/lastmile_qr_scan"}, "type": "electric_scooter", "name": "95244a8e3d70ecc42d46d8c1b9b890bf", "is_reserved": 0, "lon": -77.017591, "is_disabled": 0, "fusion_lat": 0.0, "lat": 38.87687316666667, "bike_id": "95244a8e3d70ecc42d46d8c1b9b890bf", "fusion_lon": 0.0}, {"rental_uris": {"ios": "https://dc.lft.to/lastmile_qr_scan", "android": "https://dc.lft.to/lastmile_qr_scan"}, "type": "electric_scooter", "name": "4f1e46c1fef19eb86795d0285101c4c1", "is_reserved": 0, "lon": -77.03663833333333, "is_disabled": 0, "fusion_lat": 0.0, "lat": 38.92287066666667, "bike_id": "4f1e46c1fef19eb86795d0285101c4c1", "fusion_lon": 0.0}, {"rental_uris": {"ios": "https://dc.lft.to/lastmile_qr_scan", "android": "https://dc.lft.to/lastmile_qr_scan"}, "type": "electric_scooter", "name": "0fbf3a5abaf4cb91f13b3ae4ee15a4ba", "is_reserved": 0, "lon": -77.02170166666667, "is_disabled": 0, "fusion_lat": 0.0, "lat": 38.89493933333333, "bike_id": "0fbf3a5abaf4cb91f13b3ae4ee15a4ba", "fusion_lon": 0.0}, {"rental_uris": {"ios": "https://dc.lft.to/lastmile_qr_scan", "android": "https://dc.lft.to/lastmile_qr_scan"}, "type": "electric_scooter", "name": "082f7472bac035d4dade258930445f34", "is_reserved": 0, "lon": -77.0352895, "is_disabled": 0, "fusion_lat": 0.0, "lat": 38.9239215, "bike_id": "082f7472bac035d4dade258930445f34", "fusion_lon": 0.0}, {"rental_uris": {"ios": "https://dc.lft.to/lastmile_qr_scan", "android": "https://dc.lft.to/lastmile_qr_scan"}, "type": "electric_scooter", "name": "82575148df99cba6b0c59903a3b6839e", "is_reserved": 0, "lon": -76.97048016666666, "is_disabled": 0, "fusion_lat": 0.0, "lat": 38.8732585, "bike_id": "82575148df99cba6b0c59903a3b6839e", "fusion_lon": 0.0}, {"rental_uris": {"ios": "https://dc.lft.to/lastmile_qr_scan", "android": "https://dc.lft.to/lastmile_qr_scan"}, "type": "electric_scooter", "name": "38874447394f9f2ad9b8e324cda4237d", "is_reserved": 0, "lon": -77.028984, "is_disabled": 0, "fusion_lat": 0.0, "lat": 38.94042133333333, "bike_id": "38874447394f9f2ad9b8e324cda4237d", "fusion_lon": 0.0}, {"rental_uris": {"ios": "https://dc.lft.to/lastmile_qr_scan", "android": "https://dc.lft.to/lastmile_qr_scan"}, "type": "electric_scooter", "name": "1afad8e909ebef47728c9d90d600676c", "is_reserved": 0, "lon": -77.03238883333333, "is_disabled": 0, "fusion_lat": 0.0, "lat": 38.910409333333334, "bike_id": "1afad8e909ebef47728c9d90d600676c", "fusion_lon": 0.0}, {"rental_uris": {"ios": "https://dc.lft.to/lastmile_qr_scan", "android": "https://dc.lft.to/lastmile_qr_scan"}, "type": "electric_scooter", "name": "a7eeb7b97c68d559f31dcf2cffa17896", "is_reserved": 0, "lon": -77.02063466666667, "is_disabled": 0, "fusion_lat": 0.0, "lat": 38.908496666666665, "bike_id": "a7eeb7b97c68d559f31dcf2cffa17896", "fusion_lon": 0.0}, {"rental_uris": {"ios": "https://dc.lft.to/lastmile_qr_scan", "android": "https://dc.lft.to/lastmile_qr_scan"}, "type": "electric_scooter", "name": "b71eca4f1bd8f190f8267ed35b849081", "is_reserved": 0, "lon": -77.0087975, "is_disabled": 0, "fusion_lat": 0.0, "lat": 38.915477833333334, "bike_id": "b71eca4f1bd8f190f8267ed35b849081", "fusion_lon": 0.0}, {"rental_uris": {"ios": "https://dc.lft.to/lastmile_qr_scan", "android": "https://dc.lft.to/lastmile_qr_scan"}, "type": "electric_scooter", "name": "e21ba7d53310a44a3575d924440e0be2", "is_reserved": 0, "lon": -77.01870766666667, "is_disabled": 0, "fusion_lat": 0.0, "lat": 38.930552666666664, "bike_id": "e21ba7d53310a44a3575d924440e0be2", "fusion_lon": 0.0}, {"rental_uris": {"ios": "https://dc.lft.to/lastmile_qr_scan", "android": "https://dc.lft.to/lastmile_qr_scan"}, "type": "electric_scooter", "name": "051ebd73db2ee45740a00e9dc7e632e8", "is_reserved": 0, "lon": -77.03864433333334, "is_disabled": 0, "fusion_lat": 0.0, "lat": 38.90881816666667, "bike_id": "051ebd73db2ee45740a00e9dc7e632e8", "fusion_lon": 0.0}, {"rental_uris": {"ios": "https://dc.lft.to/lastmile_qr_scan", "android": "https://dc.lft.to/lastmile_qr_scan"}, "type": "electric_scooter", "name": "7297ef28806313d27adcf11c9c79fe1a", "is_reserved": 0, "lon": -77.05335516666666, "is_disabled": 0, "fusion_lat": 0.0, "lat": 38.902301, "bike_id": "7297ef28806313d27adcf11c9c79fe1a", "fusion_lon": 0.0}, {"rental_uris": {"ios": "https://dc.lft.to/lastmile_qr_scan", "android": "https://dc.lft.to/lastmile_qr_scan"}, "type": "electric_scooter", "name": "051b092d3c903d239fef75998dd06cbd", "is_reserved": 0, "lon": -77.02281733333334, "is_disabled": 0, "fusion_lat": 0.0, "lat": 38.924126333333334, "bike_id": "051b092d3c903d239fef75998dd06cbd", "fusion_lon": 0.0}, {"rental_uris": {"ios": "https://dc.lft.to/lastmile_qr_scan", "android": "https://dc.lft.to/lastmile_qr_scan"}, "type": "electric_scooter", "name": "4d6c2bbda840f7c20a4bebb59e389eee", "is_reserved": 0, "lon": -77.04175733333334, "is_disabled": 0, "fusion_lat": 0.0, "lat": 38.90374, "bike_id": "4d6c2bbda840f7c20a4bebb59e389eee", "fusion_lon": 0.0}, {"rental_uris": {"ios": "https://dc.lft.to/lastmile_qr_scan", "android": "https://dc.lft.to/lastmile_qr_scan"}, "type": "electric_scooter", "name": "59fbbe591946d7e7a6816c77a6e9b7cc", "is_reserved": 0, "lon": -76.9375015, "is_disabled": 0, "fusion_lat": 0.0, "lat": 38.89013833333333, "bike_id": "59fbbe591946d7e7a6816c77a6e9b7cc", "fusion_lon": 0.0}, {"rental_uris": {"ios": "https://dc.lft.to/lastmile_qr_scan", "android": "https://dc.lft.to/lastmile_qr_scan"}, "type": "electric_scooter", "name": "89da41a2e924fbf99cf0c73b4524583b", "is_reserved": 0, "lon": -77.00802883333333, "is_disabled": 0, "fusion_lat": 0.0, "lat": 38.87836883333333, "bike_id": "89da41a2e924fbf99cf0c73b4524583b", "fusion_lon": 0.0}, {"rental_uris": {"ios": "https://dc.lft.to/lastmile_qr_scan", "android": "https://dc.lft.to/lastmile_qr_scan"}, "type": "electric_scooter", "name": "a0cb9eb9b03b9cac40835a33a042b4bd", "is_reserved": 0, "lon": -77.03541883333334, "is_disabled": 0, "fusion_lat": 0.0, "lat": 38.90377133333333, "bike_id": "a0cb9eb9b03b9cac40835a33a042b4bd", "fusion_lon": 0.0}, {"rental_uris": {"ios": "https://dc.lft.to/lastmile_qr_scan", "android": "https://dc.lft.to/lastmile_qr_scan"}, "type": "electric_bike", "name": "e016b406177e80a5b2e638f86926b9b3", "is_reserved": 0, "lon": -77.0669935, "is_disabled": 0, "fusion_lat": 0.0, "lat": 38.83172716666667, "bike_id": "e016b406177e80a5b2e638f86926b9b3", "fusion_lon": 0.0}, {"rental_uris": {"ios": "https://dc.lft.to/lastmile_qr_scan", "android": "https://dc.lft.to/lastmile_qr_scan"}, "type": "electric_scooter", "name": "f4cf1eca98025e8f9c67e2de763933c6", "is_reserved": 0, "lon": -76.99519516666666, "is_disabled": 0, "fusion_lat": 0.0, "lat": 38.889927, "bike_id": "f4cf1eca98025e8f9c67e2de763933c6", "fusion_lon": 0.0}, {"rental_uris": {"ios": "https://dc.lft.to/lastmile_qr_scan", "android": "https://dc.lft.to/lastmile_qr_scan"}, "type": "electric_scooter", "name": "93a0fed010603a0f0fa65173f7c41171", "is_reserved": 0, "lon": -77.01432066666666, "is_disabled": 0, "fusion_lat": 0.0, "lat": 38.92026466666667, "bike_id": "93a0fed010603a0f0fa65173f7c41171", "fusion_lon": 0.0}, {"rental_uris": {"ios": "https://dc.lft.to/lastmile_qr_scan", "android": "https://dc.lft.to/lastmile_qr_scan"}, "type": "electric_scooter", "name": "c2de8334f0058950a65550f2f69ebbdb", "is_reserved": 0, "lon": -77.03183116666666, "is_disabled": 0, "fusion_lat": 0.0, "lat": 38.919303, "bike_id": "c2de8334f0058950a65550f2f69ebbdb", "fusion_lon": 0.0}, {"rental_uris": {"ios": "https://dc.lft.to/lastmile_qr_scan", "android": "https://dc.lft.to/lastmile_qr_scan"}, "type": "electric_scooter", "name": "ac512e3b79a6675d5d5df2201400ca9b", "is_reserved": 0, "lon": -77.01217316666667, "is_disabled": 0, "fusion_lat": 0.0, "lat": 38.901661833333335, "bike_id": "ac512e3b79a6675d5d5df2201400ca9b", "fusion_lon": 0.0}, {"rental_uris": {"ios": "https://dc.lft.to/lastmile_qr_scan", "android": "https://dc.lft.to/lastmile_qr_scan"}, "type": "electric_scooter", "name": "26edc860e92934bcbb77a213722eb72e", "is_reserved": 0, "lon": -77.0379055, "is_disabled": 0, "fusion_lat": 0.0, "lat": 38.92325733333333, "bike_id": "26edc860e92934bcbb77a213722eb72e", "fusion_lon": 0.0}, {"rental_uris": {"ios": "https://dc.lft.to/lastmile_qr_scan", "android": "https://dc.lft.to/lastmile_qr_scan"}, "type": "electric_scooter", "name": "e4a9bc08f6c1d28e8babbc6ebe766202", "is_reserved": 0, "lon": -77.02715766666667, "is_disabled": 0, "fusion_lat": 0.0, "lat": 38.9101765, "bike_id": "e4a9bc08f6c1d28e8babbc6ebe766202", "fusion_lon": 0.0}, {"rental_uris": {"ios": "https://dc.lft.to/lastmile_qr_scan", "android": "https://dc.lft.to/lastmile_qr_scan"}, "type": "electric_scooter", "name": "63558051e7db39e44a359f835ecb352a", "is_reserved": 0, "lon": -77.04481266666667, "is_disabled": 0, "fusion_lat": 0.0, "lat": 38.903608, "bike_id": "63558051e7db39e44a359f835ecb352a", "fusion_lon": 0.0}, {"rental_uris": {"ios": "https://dc.lft.to/lastmile_qr_scan", "android": "https://dc.lft.to/lastmile_qr_scan"}, "type": "electric_scooter", "name": "ae5ea36febe8e244e584d183b0b431c1", "is_reserved": 0, "lon": -77.04346883333334, "is_disabled": 0, "fusion_lat": 0.0, "lat": 38.908233, "bike_id": "ae5ea36febe8e244e584d183b0b431c1", "fusion_lon": 0.0}, {"rental_uris": {"ios": "https://dc.lft.to/lastmile_qr_scan", "android": "https://dc.lft.to/lastmile_qr_scan"}, "type": "electric_scooter", "name": "9ca5f817d71a3a304f0b22092ac91258", "is_reserved": 0, "lon": -76.985428, "is_disabled": 0, "fusion_lat": 0.0, "lat": 38.8799785, "bike_id": "9ca5f817d71a3a304f0b22092ac91258", "fusion_lon": 0.0}, {"rental_uris": {"ios": "https://dc.lft.to/lastmile_qr_scan", "android": "https://dc.lft.to/lastmile_qr_scan"}, "type": "electric_scooter", "name": "66fb41fdcdeaebddbb75c17ec15ce632", "is_reserved": 0, "lon": -76.98705483333333, "is_disabled": 0, "fusion_lat": 0.0, "lat": 38.85964516666667, "bike_id": "66fb41fdcdeaebddbb75c17ec15ce632", "fusion_lon": 0.0}, {"rental_uris": {"ios": "https://dc.lft.to/lastmile_qr_scan", "android": "https://dc.lft.to/lastmile_qr_scan"}, "type": "electric_scooter", "name": "f2d0b9f3fcf652b507e86314f35fff66", "is_reserved": 0, "lon": -77.00127533333334, "is_disabled": 0, "fusion_lat": 0.0, "lat": 38.87793033333333, "bike_id": "f2d0b9f3fcf652b507e86314f35fff66", "fusion_lon": 0.0}, {"rental_uris": {"ios": "https://dc.lft.to/lastmile_qr_scan", "android": "https://dc.lft.to/lastmile_qr_scan"}, "type": "electric_scooter", "name": "b639b2850d8aee8f081a52cf2e9e99b9", "is_reserved": 0, "lon": -77.0820795, "is_disabled": 0, "fusion_lat": 0.0, "lat": 38.9331075, "bike_id": "b639b2850d8aee8f081a52cf2e9e99b9", "fusion_lon": 0.0}, {"rental_uris": {"ios": "https://dc.lft.to/lastmile_qr_scan", "android": "https://dc.lft.to/lastmile_qr_scan"}, "type": "electric_bike", "name": "d4472da5bd4ed79527fa062cfc10e1f3", "is_reserved": 0, "lon": -76.986919, "is_disabled": 0, "fusion_lat": 0.0, "lat": 38.9447725, "bike_id": "d4472da5bd4ed79527fa062cfc10e1f3", "fusion_lon": 0.0}, {"rental_uris": {"ios": "https://dc.lft.to/lastmile_qr_scan", "android": "https://dc.lft.to/lastmile_qr_scan"}, "type": "electric_scooter", "name": "d96584496f7d5f5219d021aeb6dfb837", "is_reserved": 0, "lon": -77.02393766666667, "is_disabled": 0, "fusion_lat": 0.0, "lat": 38.93389033333333, "bike_id": "d96584496f7d5f5219d021aeb6dfb837", "fusion_lon": 0.0}, {"rental_uris": {"ios": "https://dc.lft.to/lastmile_qr_scan", "android": "https://dc.lft.to/lastmile_qr_scan"}, "type": "electric_scooter", "name": "5f8f6f91eb97f334f22dae6ca3ced33a", "is_reserved": 0, "lon": -77.038462, "is_disabled": 0, "fusion_lat": 0.0, "lat": 38.91176816666667, "bike_id": "5f8f6f91eb97f334f22dae6ca3ced33a", "fusion_lon": 0.0}, {"rental_uris": {"ios": "https://dc.lft.to/lastmile_qr_scan", "android": "https://dc.lft.to/lastmile_qr_scan"}, "type": "electric_scooter", "name": "67d491c0d94940286ef5719098951971", "is_reserved": 0, "lon": -76.98359016666667, "is_disabled": 0, "fusion_lat": 0.0, "lat": 38.887492, "bike_id": "67d491c0d94940286ef5719098951971", "fusion_lon": 0.0}, {"rental_uris": {"ios": "https://dc.lft.to/lastmile_qr_scan", "android": "https://dc.lft.to/lastmile_qr_scan"}, "type": "electric_scooter", "name": "bc618f48be8e8f13b61839f87ec9e301", "is_reserved": 0, "lon": -77.013097, "is_disabled": 0, "fusion_lat": 0.0, "lat": 38.901919, "bike_id": "bc618f48be8e8f13b61839f87ec9e301", "fusion_lon": 0.0}, {"rental_uris": {"ios": "https://dc.lft.to/lastmile_qr_scan", "android": "https://dc.lft.to/lastmile_qr_scan"}, "type": "electric_scooter", "name": "89eb0fe281331019390a99f45a53d99d", "is_reserved": 0, "lon": -77.03032983333334, "is_disabled": 0, "fusion_lat": 0.0, "lat": 38.92672183333333, "bike_id": "89eb0fe281331019390a99f45a53d99d", "fusion_lon": 0.0}, {"rental_uris": {"ios": "https://dc.lft.to/lastmile_qr_scan", "android": "https://dc.lft.to/lastmile_qr_scan"}, "type": "electric_scooter", "name": "3c9620988b5eb65d6f036cd4aec5edab", "is_reserved": 0, "lon": -76.99914883333334, "is_disabled": 0, "fusion_lat": 0.0, "lat": 38.93752966666667, "bike_id": "3c9620988b5eb65d6f036cd4aec5edab", "fusion_lon": 0.0}, {"rental_uris": {"ios": "https://dc.lft.to/lastmile_qr_scan", "android": "https://dc.lft.to/lastmile_qr_scan"}, "type": "electric_scooter", "name": "0f669b8eb9a01f76919bc685a8bfc599", "is_reserved": 0, "lon": -77.021765, "is_disabled": 0, "fusion_lat": 0.0, "lat": 38.92484616666667, "bike_id": "0f669b8eb9a01f76919bc685a8bfc599", "fusion_lon": 0.0}, {"rental_uris": {"ios": "https://dc.lft.to/lastmile_qr_scan", "android": "https://dc.lft.to/lastmile_qr_scan"}, "type": "electric_scooter", "name": "d296e5f8e9924700e7d72568936d6b6c", "is_reserved": 0, "lon": -77.04245833333333, "is_disabled": 0, "fusion_lat": 0.0, "lat": 38.92436266666667, "bike_id": "d296e5f8e9924700e7d72568936d6b6c", "fusion_lon": 0.0}, {"rental_uris": {"ios": "https://dc.lft.to/lastmile_qr_scan", "android": "https://dc.lft.to/lastmile_qr_scan"}, "type": "electric_scooter", "name": "c2a0a0cc42d6c2f84186b51a8a93cab0", "is_reserved": 0, "lon": -77.00708016666667, "is_disabled": 0, "fusion_lat": 0.0, "lat": 38.87814816666667, "bike_id": "c2a0a0cc42d6c2f84186b51a8a93cab0", "fusion_lon": 0.0}, {"rental_uris": {"ios": "https://dc.lft.to/lastmile_qr_scan", "android": "https://dc.lft.to/lastmile_qr_scan"}, "type": "electric_scooter", "name": "dd3efb0df70da692a68de867f50d6485", "is_reserved": 0, "lon": -77.02726533333333, "is_disabled": 0, "fusion_lat": 0.0, "lat": 38.924870166666665, "bike_id": "dd3efb0df70da692a68de867f50d6485", "fusion_lon": 0.0}, {"rental_uris": {"ios": "https://dc.lft.to/lastmile_qr_scan", "android": "https://dc.lft.to/lastmile_qr_scan"}, "type": "electric_scooter", "name": "42be7fbfbdca5aed5222f49e8118cf07", "is_reserved": 0, "lon": -77.02076116666667, "is_disabled": 0, "fusion_lat": 0.0, "lat": 38.92414516666667, "bike_id": "42be7fbfbdca5aed5222f49e8118cf07", "fusion_lon": 0.0}, {"rental_uris": {"ios": "https://dc.lft.to/lastmile_qr_scan", "android": "https://dc.lft.to/lastmile_qr_scan"}, "type": "electric_scooter", "name": "15195226311d9bdc05ed1a6458e624c8", "is_reserved": 0, "lon": -76.98090916666666, "is_disabled": 0, "fusion_lat": 0.0, "lat": 38.904180833333335, "bike_id": "15195226311d9bdc05ed1a6458e624c8", "fusion_lon": 0.0}, {"rental_uris": {"ios": "https://dc.lft.to/lastmile_qr_scan", "android": "https://dc.lft.to/lastmile_qr_scan"}, "type": "electric_scooter", "name": "ce1fd15c5d27381d41e9f21e999cfaa6", "is_reserved": 0, "lon": -77.04677516666666, "is_disabled": 0, "fusion_lat": 0.0, "lat": 38.892272, "bike_id": "ce1fd15c5d27381d41e9f21e999cfaa6", "fusion_lon": 0.0}, {"rental_uris": {"ios": "https://dc.lft.to/lastmile_qr_scan", "android": "https://dc.lft.to/lastmile_qr_scan"}, "type": "electric_bike", "name": "f0b2b367d0baebeecdc9d80543b3885a", "is_reserved": 0, "lon": -77.04354683333334, "is_disabled": 0, "fusion_lat": 0.0, "lat": 38.8974445, "bike_id": "f0b2b367d0baebeecdc9d80543b3885a", "fusion_lon": 0.0}, {"rental_uris": {"ios": "https://dc.lft.to/lastmile_qr_scan", "android": "https://dc.lft.to/lastmile_qr_scan"}, "type": "electric_scooter", "name": "d594c6481cedc11d649cda716158aed8", "is_reserved": 0, "lon": -77.01532316666666, "is_disabled": 0, "fusion_lat": 0.0, "lat": 38.887407, "bike_id": "d594c6481cedc11d649cda716158aed8", "fusion_lon": 0.0}, {"rental_uris": {"ios": "https://dc.lft.to/lastmile_qr_scan", "android": "https://dc.lft.to/lastmile_qr_scan"}, "type": "electric_scooter", "name": "515e6b50d0feed4caaba8f39f33b6965", "is_reserved": 0, "lon": -77.023073, "is_disabled": 0, "fusion_lat": 0.0, "lat": 38.9265715, "bike_id": "515e6b50d0feed4caaba8f39f33b6965", "fusion_lon": 0.0}, {"rental_uris": {"ios": "https://dc.lft.to/lastmile_qr_scan", "android": "https://dc.lft.to/lastmile_qr_scan"}, "type": "electric_scooter", "name": "934fb2d4dcda204d7f679e9974c78834", "is_reserved": 0, "lon": -77.02445566666667, "is_disabled": 0, "fusion_lat": 0.0, "lat": 38.91785483333334, "bike_id": "934fb2d4dcda204d7f679e9974c78834", "fusion_lon": 0.0}, {"rental_uris": {"ios": "https://dc.lft.to/lastmile_qr_scan", "android": "https://dc.lft.to/lastmile_qr_scan"}, "type": "electric_scooter", "name": "c66a7516add42ed25452499e1c32eb77", "is_reserved": 0, "lon": -77.05412416666667, "is_disabled": 0, "fusion_lat": 0.0, "lat": 38.92830633333333, "bike_id": "c66a7516add42ed25452499e1c32eb77", "fusion_lon": 0.0}, {"rental_uris": {"ios": "https://dc.lft.to/lastmile_qr_scan", "android": "https://dc.lft.to/lastmile_qr_scan"}, "type": "electric_scooter", "name": "ba9282bd787bbb367e2027dfb5b22183", "is_reserved": 0, "lon": -77.02202133333333, "is_disabled": 0, "fusion_lat": 0.0, "lat": 38.879070666666664, "bike_id": "ba9282bd787bbb367e2027dfb5b22183", "fusion_lon": 0.0}, {"rental_uris": {"ios": "https://dc.lft.to/lastmile_qr_scan", "android": "https://dc.lft.to/lastmile_qr_scan"}, "type": "electric_scooter", "name": "50e2cbc1e61d2ad7c80d249621af371d", "is_reserved": 0, "lon": -77.03480983333333, "is_disabled": 0, "fusion_lat": 0.0, "lat": 38.93032766666666, "bike_id": "50e2cbc1e61d2ad7c80d249621af371d", "fusion_lon": 0.0}, {"rental_uris": {"ios": "https://dc.lft.to/lastmile_qr_scan", "android": "https://dc.lft.to/lastmile_qr_scan"}, "type": "electric_scooter", "name": "533402294fd98c4c068d21115805f25d", "is_reserved": 0, "lon": -77.03966416666667, "is_disabled": 0, "fusion_lat": 0.0, "lat": 38.93150116666666, "bike_id": "533402294fd98c4c068d21115805f25d", "fusion_lon": 0.0}, {"rental_uris": {"ios": "https://dc.lft.to/lastmile_qr_scan", "android": "https://dc.lft.to/lastmile_qr_scan"}, "type": "electric_scooter", "name": "4a7312324c86696311f950967f575ec5", "is_reserved": 0, "lon": -77.061104, "is_disabled": 0, "fusion_lat": 0.0, "lat": 38.93711066666667, "bike_id": "4a7312324c86696311f950967f575ec5", "fusion_lon": 0.0}, {"rental_uris": {"ios": "https://dc.lft.to/lastmile_qr_scan", "android": "https://dc.lft.to/lastmile_qr_scan"}, "type": "electric_scooter", "name": "95896170b87725c811a0f71038668dbe", "is_reserved": 0, "lon": -77.0231305, "is_disabled": 0, "fusion_lat": 0.0, "lat": 38.918361, "bike_id": "95896170b87725c811a0f71038668dbe", "fusion_lon": 0.0}, {"rental_uris": {"ios": "https://dc.lft.to/lastmile_qr_scan", "android": "https://dc.lft.to/lastmile_qr_scan"}, "type": "electric_scooter", "name": "4f5069f67c0cf62e17d98c1a098b6917", "is_reserved": 0, "lon": -77.038441, "is_disabled": 0, "fusion_lat": 0.0, "lat": 38.90983516666667, "bike_id": "4f5069f67c0cf62e17d98c1a098b6917", "fusion_lon": 0.0}, {"rental_uris": {"ios": "https://dc.lft.to/lastmile_qr_scan", "android": "https://dc.lft.to/lastmile_qr_scan"}, "type": "electric_scooter", "name": "aa918c7ffff591b6ac8964d2e0920969", "is_reserved": 0, "lon": -77.01154666666666, "is_disabled": 0, "fusion_lat": 0.0, "lat": 38.956954833333334, "bike_id": "aa918c7ffff591b6ac8964d2e0920969", "fusion_lon": 0.0}, {"rental_uris": {"ios": "https://dc.lft.to/lastmile_qr_scan", "android": "https://dc.lft.to/lastmile_qr_scan"}, "type": "electric_scooter", "name": "a37bd522ffecbe5c0870b665042dc189", "is_reserved": 0, "lon": -77.03034766666667, "is_disabled": 0, "fusion_lat": 0.0, "lat": 38.89705516666667, "bike_id": "a37bd522ffecbe5c0870b665042dc189", "fusion_lon": 0.0}, {"rental_uris": {"ios": "https://dc.lft.to/lastmile_qr_scan", "android": "https://dc.lft.to/lastmile_qr_scan"}, "type": "electric_scooter", "name": "4780e8dd5b064990cedc24d3e8ba28aa", "is_reserved": 0, "lon": -77.04440116666666, "is_disabled": 0, "fusion_lat": 0.0, "lat": 38.91266566666667, "bike_id": "4780e8dd5b064990cedc24d3e8ba28aa", "fusion_lon": 0.0}, {"rental_uris": {"ios": "https://dc.lft.to/lastmile_qr_scan", "android": "https://dc.lft.to/lastmile_qr_scan"}, "type": "electric_scooter", "name": "47f2a495604abd8d8c7a8c1f795f9999", "is_reserved": 0, "lon": -77.00211583333333, "is_disabled": 0, "fusion_lat": 0.0, "lat": 38.9002145, "bike_id": "47f2a495604abd8d8c7a8c1f795f9999", "fusion_lon": 0.0}, {"rental_uris": {"ios": "https://dc.lft.to/lastmile_qr_scan", "android": "https://dc.lft.to/lastmile_qr_scan"}, "type": "electric_scooter", "name": "f7ce95e92ee2147aa3385adaa2c9dec9", "is_reserved": 0, "lon": -76.982808, "is_disabled": 0, "fusion_lat": 0.0, "lat": 38.90340283333333, "bike_id": "f7ce95e92ee2147aa3385adaa2c9dec9", "fusion_lon": 0.0}, {"rental_uris": {"ios": "https://dc.lft.to/lastmile_qr_scan", "android": "https://dc.lft.to/lastmile_qr_scan"}, "type": "electric_scooter", "name": "87af1bc6362f62f75cf1d33493ac640c", "is_reserved": 0, "lon": -77.03083983333333, "is_disabled": 0, "fusion_lat": 0.0, "lat": 38.92380416666666, "bike_id": "87af1bc6362f62f75cf1d33493ac640c", "fusion_lon": 0.0}, {"rental_uris": {"ios": "https://dc.lft.to/lastmile_qr_scan", "android": "https://dc.lft.to/lastmile_qr_scan"}, "type": "electric_scooter", "name": "1f8fae05c43bebe224d87c55cee5a403", "is_reserved": 0, "lon": -77.02942116666667, "is_disabled": 0, "fusion_lat": 0.0, "lat": 38.89752083333333, "bike_id": "1f8fae05c43bebe224d87c55cee5a403", "fusion_lon": 0.0}, {"rental_uris": {"ios": "https://dc.lft.to/lastmile_qr_scan", "android": "https://dc.lft.to/lastmile_qr_scan"}, "type": "electric_bike", "name": "6d1f0f7db1559a000872b43d6d870c75", "is_reserved": 0, "lon": -77.08566216666667, "is_disabled": 0, "fusion_lat": 0.0, "lat": 38.874229666666665, "bike_id": "6d1f0f7db1559a000872b43d6d870c75", "fusion_lon": 0.0}, {"rental_uris": {"ios": "https://dc.lft.to/lastmile_qr_scan", "android": "https://dc.lft.to/lastmile_qr_scan"}, "type": "electric_scooter", "name": "9d61309032cdcd059f59ad3291af3d1d", "is_reserved": 0, "lon": -77.04407766666667, "is_disabled": 0, "fusion_lat": 0.0, "lat": 38.89598133333333, "bike_id": "9d61309032cdcd059f59ad3291af3d1d", "fusion_lon": 0.0}, {"rental_uris": {"ios": "https://dc.lft.to/lastmile_qr_scan", "android": "https://dc.lft.to/lastmile_qr_scan"}, "type": "electric_scooter", "name": "ca68ac639e11cbb313d35965b897dd25", "is_reserved": 0, "lon": -77.02204166666667, "is_disabled": 0, "fusion_lat": 0.0, "lat": 38.95152733333333, "bike_id": "ca68ac639e11cbb313d35965b897dd25", "fusion_lon": 0.0}, {"rental_uris": {"ios": "https://dc.lft.to/lastmile_qr_scan", "android": "https://dc.lft.to/lastmile_qr_scan"}, "type": "electric_scooter", "name": "10699b1922c25a7b6d8f25d1de511ddd", "is_reserved": 0, "lon": -77.05816666666666, "is_disabled": 0, "fusion_lat": 0.0, "lat": 38.93517966666667, "bike_id": "10699b1922c25a7b6d8f25d1de511ddd", "fusion_lon": 0.0}, {"rental_uris": {"ios": "https://dc.lft.to/lastmile_qr_scan", "android": "https://dc.lft.to/lastmile_qr_scan"}, "type": "electric_scooter", "name": "2c965c4c7ce3a808cb5d8169bfe7032d", "is_reserved": 0, "lon": -77.044029, "is_disabled": 0, "fusion_lat": 0.0, "lat": 38.92041666666667, "bike_id": "2c965c4c7ce3a808cb5d8169bfe7032d", "fusion_lon": 0.0}, {"rental_uris": {"ios": "https://dc.lft.to/lastmile_qr_scan", "android": "https://dc.lft.to/lastmile_qr_scan"}, "type": "electric_bike", "name": "a3296cf161970392371d57ae89d15ace", "is_reserved": 0, "lon": -77.09455533333333, "is_disabled": 0, "fusion_lat": 0.0, "lat": 38.807568833333335, "bike_id": "a3296cf161970392371d57ae89d15ace", "fusion_lon": 0.0}, {"rental_uris": {"ios": "https://dc.lft.to/lastmile_qr_scan", "android": "https://dc.lft.to/lastmile_qr_scan"}, "type": "electric_scooter", "name": "dec86da36813fd8ea624d69b9dd19493", "is_reserved": 0, "lon": -77.01830966666667, "is_disabled": 0, "fusion_lat": 0.0, "lat": 38.92253783333334, "bike_id": "dec86da36813fd8ea624d69b9dd19493", "fusion_lon": 0.0}, {"rental_uris": {"ios": "https://dc.lft.to/lastmile_qr_scan", "android": "https://dc.lft.to/lastmile_qr_scan"}, "type": "electric_scooter", "name": "33040837ed62bd1285af01e2417869df", "is_reserved": 0, "lon": -77.038502, "is_disabled": 0, "fusion_lat": 0.0, "lat": 38.91667066666667, "bike_id": "33040837ed62bd1285af01e2417869df", "fusion_lon": 0.0}, {"rental_uris": {"ios": "https://dc.lft.to/lastmile_qr_scan", "android": "https://dc.lft.to/lastmile_qr_scan"}, "type": "electric_scooter", "name": "2b9e9b21a75670fcab7cc8ddf474b1f9", "is_reserved": 0, "lon": -76.92924233333333, "is_disabled": 0, "fusion_lat": 0.0, "lat": 38.8927615, "bike_id": "2b9e9b21a75670fcab7cc8ddf474b1f9", "fusion_lon": 0.0}, {"rental_uris": {"ios": "https://dc.lft.to/lastmile_qr_scan", "android": "https://dc.lft.to/lastmile_qr_scan"}, "type": "electric_scooter", "name": "43f4ef463c36175ae53852937fe6068c", "is_reserved": 0, "lon": -77.02115283333333, "is_disabled": 0, "fusion_lat": 0.0, "lat": 38.909395833333335, "bike_id": "43f4ef463c36175ae53852937fe6068c", "fusion_lon": 0.0}, {"rental_uris": {"ios": "https://dc.lft.to/lastmile_qr_scan", "android": "https://dc.lft.to/lastmile_qr_scan"}, "type": "electric_scooter", "name": "2ed63f86f313a4aa33595eaf6b84ef5e", "is_reserved": 0, "lon": -77.0147255, "is_disabled": 0, "fusion_lat": 0.0, "lat": 38.87937383333333, "bike_id": "2ed63f86f313a4aa33595eaf6b84ef5e", "fusion_lon": 0.0}, {"rental_uris": {"ios": "https://dc.lft.to/lastmile_qr_scan", "android": "https://dc.lft.to/lastmile_qr_scan"}, "type": "electric_scooter", "name": "cd009c138586f2ab4d2349f08020e8a3", "is_reserved": 0, "lon": -76.9721355, "is_disabled": 0, "fusion_lat": 0.0, "lat": 38.91717716666667, "bike_id": "cd009c138586f2ab4d2349f08020e8a3", "fusion_lon": 0.0}, {"rental_uris": {"ios": "https://dc.lft.to/lastmile_qr_scan", "android": "https://dc.lft.to/lastmile_qr_scan"}, "type": "electric_scooter", "name": "288765e1e26e22ed5996b6245a514283", "is_reserved": 0, "lon": -77.08634933333333, "is_disabled": 0, "fusion_lat": 0.0, "lat": 38.93825966666667, "bike_id": "288765e1e26e22ed5996b6245a514283", "fusion_lon": 0.0}, {"rental_uris": {"ios": "https://dc.lft.to/lastmile_qr_scan", "android": "https://dc.lft.to/lastmile_qr_scan"}, "type": "electric_scooter", "name": "5e80198a5cdfe75f814e0be1a1abf722", "is_reserved": 0, "lon": -77.04229383333333, "is_disabled": 0, "fusion_lat": 0.0, "lat": 38.921634166666664, "bike_id": "5e80198a5cdfe75f814e0be1a1abf722", "fusion_lon": 0.0}, {"rental_uris": {"ios": "https://dc.lft.to/lastmile_qr_scan", "android": "https://dc.lft.to/lastmile_qr_scan"}, "type": "electric_scooter", "name": "e206fbb33d9b23bfe1b3bfc61857cefe", "is_reserved": 0, "lon": -77.0199275, "is_disabled": 0, "fusion_lat": 0.0, "lat": 38.904993, "bike_id": "e206fbb33d9b23bfe1b3bfc61857cefe", "fusion_lon": 0.0}, {"rental_uris": {"ios": "https://dc.lft.to/lastmile_qr_scan", "android": "https://dc.lft.to/lastmile_qr_scan"}, "type": "electric_scooter", "name": "5fd1c2311fb15cf370271ca2f9a0f752", "is_reserved": 0, "lon": -77.0258935, "is_disabled": 0, "fusion_lat": 0.0, "lat": 38.901028333333336, "bike_id": "5fd1c2311fb15cf370271ca2f9a0f752", "fusion_lon": 0.0}, {"rental_uris": {"ios": "https://dc.lft.to/lastmile_qr_scan", "android": "https://dc.lft.to/lastmile_qr_scan"}, "type": "electric_scooter", "name": "0e6c92725911f0c5ffb2608234c485d8", "is_reserved": 0, "lon": -77.047604, "is_disabled": 0, "fusion_lat": 0.0, "lat": 38.94097266666667, "bike_id": "0e6c92725911f0c5ffb2608234c485d8", "fusion_lon": 0.0}, {"rental_uris": {"ios": "https://dc.lft.to/lastmile_qr_scan", "android": "https://dc.lft.to/lastmile_qr_scan"}, "type": "electric_scooter", "name": "f3d75d5e9735453485c0ea479993435d", "is_reserved": 0, "lon": -77.00831316666667, "is_disabled": 0, "fusion_lat": 0.0, "lat": 38.91375216666667, "bike_id": "f3d75d5e9735453485c0ea479993435d", "fusion_lon": 0.0}, {"rental_uris": {"ios": "https://dc.lft.to/lastmile_qr_scan", "android": "https://dc.lft.to/lastmile_qr_scan"}, "type": "electric_scooter", "name": "4d106b8c87ce5d7d3c6a7791f8bd503a", "is_reserved": 0, "lon": -77.04083866666667, "is_disabled": 0, "fusion_lat": 0.0, "lat": 38.927018333333336, "bike_id": "4d106b8c87ce5d7d3c6a7791f8bd503a", "fusion_lon": 0.0}, {"rental_uris": {"ios": "https://dc.lft.to/lastmile_qr_scan", "android": "https://dc.lft.to/lastmile_qr_scan"}, "type": "electric_scooter", "name": "657bde8dedeb3af9c695f581e0b255fa", "is_reserved": 0, "lon": -77.0217505, "is_disabled": 0, "fusion_lat": 0.0, "lat": 38.89497166666666, "bike_id": "657bde8dedeb3af9c695f581e0b255fa", "fusion_lon": 0.0}, {"rental_uris": {"ios": "https://dc.lft.to/lastmile_qr_scan", "android": "https://dc.lft.to/lastmile_qr_scan"}, "type": "electric_scooter", "name": "943a6516e65494122199a439af424414", "is_reserved": 0, "lon": -77.04196816666666, "is_disabled": 0, "fusion_lat": 0.0, "lat": 38.920782, "bike_id": "943a6516e65494122199a439af424414", "fusion_lon": 0.0}, {"rental_uris": {"ios": "https://dc.lft.to/lastmile_qr_scan", "android": "https://dc.lft.to/lastmile_qr_scan"}, "type": "electric_scooter", "name": "b47c13a41f1f64b19b25e0370cbcd3bf", "is_reserved": 0, "lon": -77.03432533333333, "is_disabled": 0, "fusion_lat": 0.0, "lat": 38.9009525, "bike_id": "b47c13a41f1f64b19b25e0370cbcd3bf", "fusion_lon": 0.0}, {"rental_uris": {"ios": "https://dc.lft.to/lastmile_qr_scan", "android": "https://dc.lft.to/lastmile_qr_scan"}, "type": "electric_scooter", "name": "2690c645f792ad81fb2ba489976df7c0", "is_reserved": 0, "lon": -77.038233, "is_disabled": 0, "fusion_lat": 0.0, "lat": 38.90969833333333, "bike_id": "2690c645f792ad81fb2ba489976df7c0", "fusion_lon": 0.0}, {"rental_uris": {"ios": "https://dc.lft.to/lastmile_qr_scan", "android": "https://dc.lft.to/lastmile_qr_scan"}, "type": "electric_scooter", "name": "556fdf42d3ac7f11a9c5b3398f55c54f", "is_reserved": 0, "lon": -77.0122665, "is_disabled": 0, "fusion_lat": 0.0, "lat": 38.867223, "bike_id": "556fdf42d3ac7f11a9c5b3398f55c54f", "fusion_lon": 0.0}, {"rental_uris": {"ios": "https://dc.lft.to/lastmile_qr_scan", "android": "https://dc.lft.to/lastmile_qr_scan"}, "type": "electric_scooter", "name": "92d0c31fd33ea08a461640341dc12a26", "is_reserved": 0, "lon": -76.992342, "is_disabled": 0, "fusion_lat": 0.0, "lat": 38.88748483333333, "bike_id": "92d0c31fd33ea08a461640341dc12a26", "fusion_lon": 0.0}, {"rental_uris": {"ios": "https://dc.lft.to/lastmile_qr_scan", "android": "https://dc.lft.to/lastmile_qr_scan"}, "type": "electric_scooter", "name": "78077f718e0da51da01d9fddd43a86b8", "is_reserved": 0, "lon": -77.0321885, "is_disabled": 0, "fusion_lat": 0.0, "lat": 38.8848175, "bike_id": "78077f718e0da51da01d9fddd43a86b8", "fusion_lon": 0.0}, {"rental_uris": {"ios": "https://dc.lft.to/lastmile_qr_scan", "android": "https://dc.lft.to/lastmile_qr_scan"}, "type": "electric_scooter", "name": "0d2d9060a5fd005774b76d74c3b98d5d", "is_reserved": 0, "lon": -77.03266466666666, "is_disabled": 0, "fusion_lat": 0.0, "lat": 38.93379566666667, "bike_id": "0d2d9060a5fd005774b76d74c3b98d5d", "fusion_lon": 0.0}, {"rental_uris": {"ios": "https://dc.lft.to/lastmile_qr_scan", "android": "https://dc.lft.to/lastmile_qr_scan"}, "type": "electric_bike", "name": "2f33d61672a392f04d32c6511229bcd5", "is_reserved": 0, "lon": -76.9073545, "is_disabled": 0, "fusion_lat": 0.0, "lat": 38.896179833333335, "bike_id": "2f33d61672a392f04d32c6511229bcd5", "fusion_lon": 0.0}, {"rental_uris": {"ios": "https://dc.lft.to/lastmile_qr_scan", "android": "https://dc.lft.to/lastmile_qr_scan"}, "type": "electric_scooter", "name": "2113a173c5325ac1c545d532352d95b4", "is_reserved": 0, "lon": -76.9991485, "is_disabled": 0, "fusion_lat": 0.0, "lat": 38.92459983333333, "bike_id": "2113a173c5325ac1c545d532352d95b4", "fusion_lon": 0.0}, {"rental_uris": {"ios": "https://dc.lft.to/lastmile_qr_scan", "android": "https://dc.lft.to/lastmile_qr_scan"}, "type": "electric_scooter", "name": "2419fd9c363e8759a55b8325b100a5fa", "is_reserved": 0, "lon": -77.03470566666667, "is_disabled": 0, "fusion_lat": 0.0, "lat": 38.909626, "bike_id": "2419fd9c363e8759a55b8325b100a5fa", "fusion_lon": 0.0}, {"rental_uris": {"ios": "https://dc.lft.to/lastmile_qr_scan", "android": "https://dc.lft.to/lastmile_qr_scan"}, "type": "electric_scooter", "name": "7a0aee838943eee7a394162e832fa5c4", "is_reserved": 0, "lon": -77.05065966666666, "is_disabled": 0, "fusion_lat": 0.0, "lat": 38.92357233333333, "bike_id": "7a0aee838943eee7a394162e832fa5c4", "fusion_lon": 0.0}, {"rental_uris": {"ios": "https://dc.lft.to/lastmile_qr_scan", "android": "https://dc.lft.to/lastmile_qr_scan"}, "type": "electric_scooter", "name": "475fb13bc56378d30bf04c0a08983e27", "is_reserved": 0, "lon": -77.02966766666667, "is_disabled": 0, "fusion_lat": 0.0, "lat": 38.93558983333333, "bike_id": "475fb13bc56378d30bf04c0a08983e27", "fusion_lon": 0.0},