{"data": {"bikes": [{"is_reserved": 0, "is_disabled": 0, "fusion_lon": 0.0, "lat": 38.89568766666667, "name": "8e08a308495e7c0c6321879790aeb803", "bike_id": "8e08a308495e7c0c6321879790aeb803", "lon": -76.99407833333333, "fusion_lat": 0.0, "rental_uris": {"android": "https://dc.lft.to/lastmile_qr_scan", "ios": "https://dc.lft.to/lastmile_qr_scan"}, "type": "electric_scooter"}, {"is_reserved": 0, "is_disabled": 0, "fusion_lon": 0.0, "lat": 38.927158, "name": "cd55c3067841b52abf6e066f2cda6017", "bike_id": "cd55c3067841b52abf6e066f2cda6017", "lon": -77.02107183333334, "fusion_lat": 0.0, "rental_uris": {"android": "https://dc.lft.to/lastmile_qr_scan", "ios": "https://dc.lft.to/lastmile_qr_scan"}, "type": "electric_scooter"}, {"is_reserved": 0, "is_disabled": 0, "fusion_lon": 0.0, "lat": 38.90559283333333, "name": "1db525cce35f2f39201f0b011c322fe4", "bike_id": "1db525cce35f2f39201f0b011c322fe4", "lon": -77.00565466666667, "fusion_lat": 0.0, "rental_uris": {"android": "https://dc.lft.to/lastmile_qr_scan", "ios": "https://dc.lft.to/lastmile_qr_scan"}, "type": "electric_scooter"}, {"is_reserved": 0, "is_disabled": 0, "fusion_lon": 0.0, "lat": 38.88328766666667, "name": "750fd2e44e735743c7293b1bfc71d468", "bike_id": "750fd2e44e735743c7293b1bfc71d468", "lon": -77.01371733333333, "fusion_lat": 0.0, "rental_uris": {"android": "https://dc.lft.to/lastmile_qr_scan", "ios": "https://dc.lft.to/lastmile_qr_scan"}, "type": "electric_scooter"}, {"is_reserved": 0, "is_disabled": 0, "fusion_lon": 0.0, "lat": 38.91999366666667, "name": "5d63cb82eaed8b408cd6af0144430f23", "bike_id": "5d63cb82eaed8b408cd6af0144430f23", "lon": -77.02332633333333, "fusion_lat": 0.0, "rental_uris": {"android": "https://dc.lft.to/lastmile_qr_scan", "ios": "https://dc.lft.to/lastmile_qr_scan"}, "type": "electric_scooter"}, {"is_reserved": 0, "is_disabled": 0, "fusion_lon": 0.0, "lat": 38.9002435, "name": "735c17b3ca9e592fa6d1ccbf11ffac68", "bike_id": "735c17b3ca9e592fa6d1ccbf11ffac68", "lon": -77.00209533333333, "fusion_lat": 0.0, "rental_uris": {"android": "https://dc.lft.to/lastmile_qr_scan", "ios": "https://dc.lft.to/lastmile_qr_scan"}, "type": "electric_scooter"}, {"is_reserved": 0, "is_disabled": 0, "fusion_lon": 0.0, "lat": 38.876332166666664, "name": "4a8a04e2ca9ace1b310a71d4143d0efd", "bike_id": "4a8a04e2ca9ace1b310a71d4143d0efd", "lon": -77.00084983333333, "fusion_lat": 0.0, "rental_uris": {"android": "https://dc.lft.to/lastmile_qr_scan", "ios": "https://dc.lft.to/lastmile_qr_scan"}, "type": "electric_scooter"}, {"is_reserved": 0, "is_disabled": 0, "fusion_lon": 0.0, "lat": 38.892236833333335, "name": "5aecc38956b24bb39d1a04fd2e1ce554", "bike_id": "5aecc38956b24bb39d1a04fd2e1ce554", "lon": -77.04800633333333, "fusion_lat": 0.0, "rental_uris": {"android": "https://dc.lft.to/lastmile_qr_scan", "ios": "https://dc.lft.to/lastmile_qr_scan"}, "type": "electric_scooter"}, {"is_reserved": 0, "is_disabled": 0, "fusion_lon": 0.0, "lat": 38.9084215, "name": "f5bb1b0c3458bdf1a16b37657d473628", "bike_id": "f5bb1b0c3458bdf1a16b37657d473628", "lon": -77.00206633333333, "fusion_lat": 0.0, "rental_uris": {"android": "https://dc.lft.to/lastmile_qr_scan", "ios": "https://dc.lft.to/lastmile_qr_scan"}, "type": "electric_scooter"}, {"is_reserved": 0, "is_disabled": 0, "fusion_lon": 0.0, "lat": 38.9002235, "name": "b3bcf8d4e7752491c3c23ee3e789c073", "bike_id": "b3bcf8d4e7752491c3c23ee3e789c073", "lon": -77.04656133333333, "fusion_lat": 0.0, "rental_uris": {"android": "https://dc.lft.to/lastmile_qr_scan", "ios": "https://dc.lft.to/lastmile_qr_scan"}, "type": "electric_scooter"}, {"is_reserved": 0, "is_disabled": 0, "fusion_lon": 0.0, "lat": 38.90969416666667, "name": "e1265b53f511a10f2b9120616c55d542", "bike_id": "e1265b53f511a10f2b9120616c55d542", "lon": -77.0452065, "fusion_lat": 0.0, "rental_uris": {"android": "https://dc.lft.to/lastmile_qr_scan", "ios": "https://dc.lft.to/lastmile_qr_scan"}, "type": "electric_scooter"}, {"is_reserved": 0, "is_disabled": 0, "fusion_lon": 0.0, "lat": 38.924422166666666, "name": "1dd8974a94ea4c996987ff81531f8d44", "bike_id": "1dd8974a94ea4c996987ff81531f8d44", "lon": -77.034064, "fusion_lat": 0.0, "rental_uris": {"android": "https://dc.lft.to/lastmile_qr_scan", "ios": "https://dc.lft.to/lastmile_qr_scan"}, "type": "electric_scooter"}, {"is_reserved": 0, "is_disabled": 0, "fusion_lon": 0.0, "lat": 38.91406883333333, "name": "a6ae4da73231a0ecf8b09186aa8218b0", "bike_id": "a6ae4da73231a0ecf8b09186aa8218b0", "lon": -77.032626, "fusion_lat": 0.0, "rental_uris": {"android": "https://dc.lft.to/lastmile_qr_scan", "ios": "https://dc.lft.to/lastmile_qr_scan"}, "type": "electric_scooter"}, {"is_reserved": 0, "is_disabled": 0, "fusion_lon": 0.0, "lat": 38.92447216666667, "name": "bb4db98bef45c7d319ce15d84b283314", "bike_id": "bb4db98bef45c7d319ce15d84b283314", "lon": -77.040204, "fusion_lat": 0.0, "rental_uris": {"android": "https://dc.lft.to/lastmile_qr_scan", "ios": "https://dc.lft.to/lastmile_qr_scan"}, "type": "electric_scooter"}, {"is_reserved": 0, "is_disabled": 0, "fusion_lon": 0.0, "lat": 38.89822216666666, "name": "ccfee5f299f99af53b865c8d574af804", "bike_id": "ccfee5f299f99af53b865c8d574af804", "lon": -77.02931183333334, "fusion_lat": 0.0, "rental_uris": {"android": "https://dc.lft.to/lastmile_qr_scan", "ios": "https://dc.lft.to/lastmile_qr_scan"}, "type": "electric_scooter"}, {"is_reserved": 0, "is_disabled": 0, "fusion_lon": 0.0, "lat": 38.87548616666667, "name": "ec4ec81fb68a1864de9d98e15e2d1a81", "bike_id": "ec4ec81fb68a1864de9d98e15e2d1a81", "lon": -77.00550133333333, "fusion_lat": 0.0, "rental_uris": {"android": "https://dc.lft.to/lastmile_qr_scan", "ios": "https://dc.lft.to/lastmile_qr_scan"}, "type": "electric_scooter"}, {"is_reserved": 0, "is_disabled": 0, "fusion_lon": 0.0, "lat": 38.9011895, "name": "27d0a47e43585e3e0816d69fb4b3f275", "bike_id": "27d0a47e43585e3e0816d69fb4b3f275", "lon": -77.04996866666667, "fusion_lat": 0.0, "rental_uris": {"android": "https://dc.lft.to/lastmile_qr_scan", "ios": "https://dc.lft.to/lastmile_qr_scan"}, "type": "electric_scooter"}, {"is_reserved": 0, "is_disabled": 0, "fusion_lon": 0.0, "lat": 38.913634333333334, "name": "f23c39e357b264a59eac7aa1aef02c96", "bike_id": "f23c39e357b264a59eac7aa1aef02c96", "lon": -77.01996783333334, "fusion_lat": 0.0, "rental_uris": {"android": "https://dc.lft.to/lastmile_qr_scan", "ios": "https://dc.lft.to/lastmile_qr_scan"}, "type": "electric_scooter"}, {"is_reserved": 0, "is_disabled": 0, "fusion_lon": 0.0, "lat": 38.91716133333333, "name": "b3646cf571c5b7b57b6056a0d36c31fb", "bike_id": "b3646cf571c5b7b57b6056a0d36c31fb", "lon": -77.03208783333334, "fusion_lat": 0.0, "rental_uris": {"android": "https://dc.lft.to/lastmile_qr_scan", "ios": "https://dc.lft.to/lastmile_qr_scan"}, "type": "electric_scooter"}, {"is_reserved": 0, "is_disabled": 0, "fusion_lon": 0.0, "lat": 38.884561833333336, "name": "7811d61c39e5b63255c8eec32acd67ce", "bike_id": "7811d61c39e5b63255c8eec32acd67ce", "lon": -77.00045266666666, "fusion_lat": 0.0, "rental_uris": {"android": "https://dc.lft.to/lastmile_qr_scan", "ios": "https://dc.lft.to/lastmile_qr_scan"}, "type": "electric_scooter"}, {"is_reserved": 0, "is_disabled": 0, "fusion_lon": 0.0, "lat": 38.916245333333336, "name": "aec2d682174c6847d138d74318c5c9e6", "bike_id": "aec2d682174c6847d138d74318c5c9e6", "lon": -77.03220233333333, "fusion_lat": 0.0, "rental_uris": {"android": "https://dc.lft.to/lastmile_qr_scan", "ios": "https://dc.lft.to/lastmile_qr_scan"}, "type": "electric_scooter"}, {"is_reserved": 0, "is_disabled": 0, "fusion_lon": 0.0, "lat": 38.904250166666664, "name": "d99524fc760e45a1ed74fdce09490bf9", "bike_id": "d99524fc760e45a1ed74fdce09490bf9", "lon": -77.0435355, "fusion_lat": 0.0, "rental_uris": {"android": "https://dc.lft.to/lastmile_qr_scan", "ios": "https://dc.lft.to/lastmile_qr_scan"}, "type": "electric_scooter"}, {"is_reserved": 0, "is_disabled": 0, "fusion_lon": 0.0, "lat": 38.8470325, "name": "abf85cfcef5689b9e44cb88dcaaa1bd3", "bike_id": "abf85cfcef5689b9e44cb88dcaaa1bd3", "lon": -76.99617, "fusion_lat": 0.0, "rental_uris": {"android": "https://dc.lft.to/lastmile_qr_scan", "ios": "https://dc.lft.to/lastmile_qr_scan"}, "type": "electric_scooter"}, {"is_reserved": 0, "is_disabled": 0, "fusion_lon": 0.0, "lat": 38.924082, "name": "adffe8edf5871684cc733388a2f002cc", "bike_id": "adffe8edf5871684cc733388a2f002cc", "lon": -77.02718333333333, "fusion_lat": 0.0, "rental_uris": {"android": "https://dc.lft.to/lastmile_qr_scan", "ios": "https://dc.lft.to/lastmile_qr_scan"}, "type": "electric_scooter"}, {"is_reserved": 0, "is_disabled": 0, "fusion_lon": 0.0, "lat": 38.9141255, "name": "c3a896717c7ab9d611b46207d820b60f", "bike_id": "c3a896717c7ab9d611b46207d820b60f", "lon": -77.03165083333333, "fusion_lat": 0.0, "rental_uris": {"android": "https://dc.lft.to/lastmile_qr_scan", "ios": "https://dc.lft.to/lastmile_qr_scan"}, "type": "electric_scooter"}, {"is_reserved": 0, "is_disabled": 0, "fusion_lon": 0.0, "lat": 38.912307166666665, "name": "b21594d398938ecca0075d2a6782566d", "bike_id": "b21594d398938ecca0075d2a6782566d", "lon": -77.07750183333333, "fusion_lat": 0.0, "rental_uris": {"android": "https://dc.lft.to/lastmile_qr_scan", "ios": "https://dc.lft.to/lastmile_qr_scan"}, "type": "electric_scooter"}, {"is_reserved": 0, "is_disabled": 0, "fusion_lon": 0.0, "lat": 38.913531, "name": "28eaad6c1ebfd2fec0035c34f49e404d", "bike_id": "28eaad6c1ebfd2fec0035c34f49e404d", "lon": -77.03184716666667, "fusion_lat": 0.0, "rental_uris": {"android": "https://dc.lft.to/lastmile_qr_scan", "ios": "https://dc.lft.to/lastmile_qr_scan"}, "type": "electric_scooter"}, {"is_reserved": 0, "is_disabled": 0, "fusion_lon": 0.0, "lat": 38.900415333333335, "name": "a6c46b67e0b07f7d834456558331cb29", "bike_id": "a6c46b67e0b07f7d834456558331cb29", "lon": -76.99870066666666, "fusion_lat": 0.0, "rental_uris": {"android": "https://dc.lft.to/lastmile_qr_scan", "ios": "https://dc.lft.to/lastmile_qr_scan"}, "type": "electric_scooter"}, {"is_reserved": 0, "is_disabled": 0, "fusion_lon": 0.0, "lat": 38.91316066666667, "name": "0d1883e7d48edb31a8c34861e8cc4ba8", "bike_id": "0d1883e7d48edb31a8c34861e8cc4ba8", "lon": -77.04654716666667, "fusion_lat": 0.0, "rental_uris": {"android": "https://dc.lft.to/lastmile_qr_scan", "ios": "https://dc.lft.to/lastmile_qr_scan"}, "type": "electric_scooter"}, {"is_reserved": 0, "is_disabled": 0, "fusion_lon": 0.0, "lat": 38.92078866666667, "name": "aa64290089cb88813e03c63a6edfd9f7", "bike_id": "aa64290089cb88813e03c63a6edfd9f7", "lon": -77.02534083333333, "fusion_lat": 0.0, "rental_uris": {"android": "https://dc.lft.to/lastmile_qr_scan", "ios": "https://dc.lft.to/lastmile_qr_scan"}, "type": "electric_scooter"}, {"is_reserved": 0, "is_disabled": 0, "fusion_lon": 0.0, "lat": 38.94450666666667, "name": "26d736642bfd7f37e10dfd718ed8753e", "bike_id": "26d736642bfd7f37e10dfd718ed8753e", "lon": -77.0635075, "fusion_lat": 0.0, "rental_uris": {"android": "https://dc.lft.to/lastmile_qr_scan", "ios": "https://dc.lft.to/lastmile_qr_scan"}, "type": "electric_scooter"}, {"is_reserved": 0, "is_disabled": 0, "fusion_lon": 0.0, "lat": 38.92236316666666, "name": "375908c69e2f6743703d18fa7efeea8d", "bike_id": "375908c69e2f6743703d18fa7efeea8d", "lon": -77.02847866666667, "fusion_lat": 0.0, "rental_uris": {"android": "https://dc.lft.to/lastmile_qr_scan", "ios": "https://dc.lft.to/lastmile_qr_scan"}, "type": "electric_scooter"}, {"is_reserved": 0, "is_disabled": 0, "fusion_lon": 0.0, "lat": 38.919182, "name": "bb8209eb5aaf6a38277673ccae58ec96", "bike_id": "bb8209eb5aaf6a38277673ccae58ec96", "lon": -77.07890916666666, "fusion_lat": 0.0, "rental_uris": {"android": "https://dc.lft.to/lastmile_qr_scan", "ios": "https://dc.lft.to/lastmile_qr_scan"}, "type": "electric_scooter"}, {"is_reserved": 0, "is_disabled": 0, "fusion_lon": 0.0, "lat": 38.87698133333333, "name": "902ba4f96f9a13cc4cd13f28a6817edd", "bike_id": "902ba4f96f9a13cc4cd13f28a6817edd", "lon": -77.01653433333334, "fusion_lat": 0.0, "rental_uris": {"android": "https://dc.lft.to/lastmile_qr_scan", "ios": "https://dc.lft.to/lastmile_qr_scan"}, "type": "electric_scooter"}, {"is_reserved": 0, "is_disabled": 0, "fusion_lon": 0.0, "lat": 38.8972605, "name": "fedfacce72250f5f863803688d352408", "bike_id": "fedfacce72250f5f863803688d352408", "lon": -77.03122933333333, "fusion_lat": 0.0, "rental_uris": {"android": "https://dc.lft.to/lastmile_qr_scan", "ios": "https://dc.lft.to/lastmile_qr_scan"}, "type": "electric_scooter"}, {"is_reserved": 0, "is_disabled": 0, "fusion_lon": 0.0, "lat": 38.921321666666664, "name": "d2c46c08d4fc5fd9c6bf09b52b8db8b9", "bike_id": "d2c46c08d4fc5fd9c6bf09b52b8db8b9", "lon": -77.01808233333334, "fusion_lat": 0.0, "rental_uris": {"android": "https://dc.lft.to/lastmile_qr_scan", "ios": "https://dc.lft.to/lastmile_qr_scan"}, "type": "electric_scooter"}, {"is_reserved": 0, "is_disabled": 0, "fusion_lon": 0.0, "lat": 38.92964333333333, "name": "338af1f689316f4ce4d6c535e6a1609a", "bike_id": "338af1f689316f4ce4d6c535e6a1609a", "lon": -77.04200516666667, "fusion_lat": 0.0, "rental_uris": {"android": "https://dc.lft.to/lastmile_qr_scan", "ios": "https://dc.lft.to/lastmile_qr_scan"}, "type": "electric_scooter"}, {"is_reserved": 0, "is_disabled": 0, "fusion_lon": 0.0, "lat": 38.92222, "name": "c13769127fc0ffbc44ed816985982142", "bike_id": "c13769127fc0ffbc44ed816985982142", "lon": -77.04332316666667, "fusion_lat": 0.0, "rental_uris": {"android": "https://dc.lft.to/lastmile_qr_scan", "ios": "https://dc.lft.to/lastmile_qr_scan"}, "type": "electric_scooter"}, {"is_reserved": 0, "is_disabled": 0, "fusion_lon": 0.0, "lat": 38.87750483333333, "name": "d7782f0928820ab6ea6ff2955b5aa73d", "bike_id": "d7782f0928820ab6ea6ff2955b5aa73d", "lon": -77.00840116666667, "fusion_lat": 0.0, "rental_uris": {"android": "https://dc.lft.to/lastmile_qr_scan", "ios": "https://dc.lft.to/lastmile_qr_scan"}, "type": "electric_scooter"}, {"is_reserved": 0, "is_disabled": 0, "fusion_lon": 0.0, "lat": 38.876800333333335, "name": "5e36fa74a024fea4d4f24274bb218091", "bike_id": "5e36fa74a024fea4d4f24274bb218091", "lon": -77.00354333333334, "fusion_lat": 0.0, "rental_uris": {"android": "https://dc.lft.to/lastmile_qr_scan", "ios": "https://dc.lft.to/lastmile_qr_scan"}, "type": "electric_scooter"}, {"is_reserved": 0, "is_disabled": 0, "fusion_lon": 0.0, "lat": 38.940419166666665, "name": "1a3eb06c7c5c13bda62b2629796c1b91", "bike_id": "1a3eb06c7c5c13bda62b2629796c1b91", "lon": -77.02905483333333, "fusion_lat": 0.0, "rental_uris": {"android": "https://dc.lft.to/lastmile_qr_scan", "ios": "https://dc.lft.to/lastmile_qr_scan"}, "type": "electric_scooter"}, {"is_reserved": 0, "is_disabled": 0, "fusion_lon": 0.0, "lat": 38.90178216666666, "name": "6d04c13b79dc5511fd166056fec46bff", "bike_id": "6d04c13b79dc5511fd166056fec46bff", "lon": -76.98057633333333, "fusion_lat": 0.0, "rental_uris": {"android": "https://dc.lft.to/lastmile_qr_scan", "ios": "https://dc.lft.to/lastmile_qr_scan"}, "type": "electric_scooter"}, {"is_reserved": 0, "is_disabled": 0, "fusion_lon": 0.0, "lat": 38.902707666666664, "name": "9c9c5e99149d1d26d94f885a0554eebc", "bike_id": "9c9c5e99149d1d26d94f885a0554eebc", "lon": -77.06158016666667, "fusion_lat": 0.0, "rental_uris": {"android": "https://dc.lft.to/lastmile_qr_scan", "ios": "https://dc.lft.to/lastmile_qr_scan"}, "type": "electric_scooter"}, {"is_reserved": 0, "is_disabled": 0, "fusion_lon": 0.0, "lat": 38.90174533333333, "name": "4825860f17f8c4fce9392f5085965bd3", "bike_id": "4825860f17f8c4fce9392f5085965bd3", "lon": -77.0230415, "fusion_lat": 0.0, "rental_uris": {"android": "https://dc.lft.to/lastmile_qr_scan", "ios": "https://dc.lft.to/lastmile_qr_scan"}, "type": "electric_scooter"}, {"is_reserved": 0, "is_disabled": 0, "fusion_lon": 0.0, "lat": 38.92602333333333, "name": "e86a112e430a3b2ba4cd24a1da06c3f6", "bike_id": "e86a112e430a3b2ba4cd24a1da06c3f6", "lon": -77.024391, "fusion_lat": 0.0, "rental_uris": {"android": "https://dc.lft.to/lastmile_qr_scan", "ios": "https://dc.lft.to/lastmile_qr_scan"}, "type": "electric_scooter"}, {"is_reserved": 0, "is_disabled": 0, "fusion_lon": 0.0, "lat": 38.875765666666666, "name": "f394647b3ddff393d45faaa8d5f37b6f", "bike_id": "f394647b3ddff393d45faaa8d5f37b6f", "lon": -77.005717, "fusion_lat": 0.0, "rental_uris": {"android": "https://dc.lft.to/lastmile_qr_scan", "ios": "https://dc.lft.to/lastmile_qr_scan"}, "type": "electric_scooter"}, {"is_reserved": 0, "is_disabled": 0, "fusion_lon": 0.0, "lat": 38.8954435, "name": "098146fde85c20f5cfa515be113218b7", "bike_id": "098146fde85c20f5cfa515be113218b7", "lon": -76.98895983333334, "fusion_lat": 0.0, "rental_uris": {"android": "https://dc.lft.to/lastmile_qr_scan", "ios": "https://dc.lft.to/lastmile_qr_scan"}, "type": "electric_scooter"}, {"is_reserved": 0, "is_disabled": 0, "fusion_lon": 0.0, "lat": 38.9655695, "name": "c6d6906b122f95502459b06df7967c16", "bike_id": "c6d6906b122f95502459b06df7967c16", "lon": -77.0230125, "fusion_lat": 0.0, "rental_uris": {"android": "https://dc.lft.to/lastmile_qr_scan", "ios": "https://dc.lft.to/lastmile_qr_scan"}, "type": "electric_bike"}, {"is_reserved": 0, "is_disabled": 0, "fusion_lon": 0.0, "lat": 38.90287266666667, "name": "cac4d291fe244e57a021f4d79c97afe5", "bike_id": "cac4d291fe244e57a021f4d79c97afe5", "lon": -77.03838633333334, "fusion_lat": 0.0, "rental_uris": {"android": "https://dc.lft.to/lastmile_qr_scan", "ios": "https://dc.lft.to/lastmile_qr_scan"}, "type": "electric_scooter"}, {"is_reserved": 0, "is_disabled": 0, "fusion_lon": 0.0, "lat": 38.89225916666667, "name": "acdc5fed7cdaadf9c8cc9b4aadeaf621", "bike_id": "acdc5fed7cdaadf9c8cc9b4aadeaf621", "lon": -77.04334233333333, "fusion_lat": 0.0, "rental_uris": {"android": "https://dc.lft.to/lastmile_qr_scan", "ios": "https://dc.lft.to/lastmile_qr_scan"}, "type": "electric_scooter"}, {"is_reserved": 0, "is_disabled": 0, "fusion_lon": 0.0, "lat": 38.935271166666666, "name": "9f8ca7938ba6ad5ae48ac03ca9227c03", "bike_id": "9f8ca7938ba6ad5ae48ac03ca9227c03", "lon": -77.02849083333334, "fusion_lat": 0.0, "rental_uris": {"android": "https://dc.lft.to/lastmile_qr_scan", "ios": "https://dc.lft.to/lastmile_qr_scan"}, "type": "electric_scooter"}, {"is_reserved": 0, "is_disabled": 0, "fusion_lon": 0.0, "lat": 38.926769666666665, "name": "6d355bceef634c3f95ebff1352bd9c8e", "bike_id": "6d355bceef634c3f95ebff1352bd9c8e", "lon": -77.01494616666666, "fusion_lat": 0.0, "rental_uris": {"android": "https://dc.lft.to/lastmile_qr_scan", "ios": "https://dc.lft.to/lastmile_qr_scan"}, "type": "electric_scooter"}, {"is_reserved": 0, "is_disabled": 0, "fusion_lon": 0.0, "lat": 38.900448833333336, "name": "fbc61ef484add677c0b3afe8029f3473", "bike_id": "fbc61ef484add677c0b3afe8029f3473", "lon": -77.04823333333333, "fusion_lat": 0.0, "rental_uris": {"android": "https://dc.lft.to/lastmile_qr_scan", "ios": "https://dc.lft.to/lastmile_qr_scan"}, "type": "electric_scooter"}, {"is_reserved": 0, "is_disabled": 0, "fusion_lon": 0.0, "lat": 38.9238645, "name": "fc1093f4e9c04f8d3a40bdecc34cd129", "bike_id": "fc1093f4e9c04f8d3a40bdecc34cd129", "lon": -77.036598, "fusion_lat": 0.0, "rental_uris": {"android": "https://dc.lft.to/lastmile_qr_scan", "ios": "https://dc.lft.to/lastmile_qr_scan"}, "type": "electric_scooter"}, {"is_reserved": 0, "is_disabled": 0, "fusion_lon": 0.0, "lat": 38.9102225, "name": "97599c65a08f0c2fe18a4f83a2e81d87", "bike_id": "97599c65a08f0c2fe18a4f83a2e81d87", "lon": -77.052744, "fusion_lat": 0.0, "rental_uris": {"android": "https://dc.lft.to/lastmile_qr_scan", "ios": "https://dc.lft.to/lastmile_qr_scan"}, "type": "electric_scooter"}, {"is_reserved": 0, "is_disabled": 0, "fusion_lon": 0.0, "lat": 38.88540616666667, "name": "dfccd289eab3c0a10a1adbff8c699d32", "bike_id": "dfccd289eab3c0a10a1adbff8c699d32", "lon": -76.9820685, "fusion_lat": 0.0, "rental_uris": {"android": "https://dc.lft.to/lastmile_qr_scan", "ios": "https://dc.lft.to/lastmile_qr_scan"}, "type": "electric_scooter"}, {"is_reserved": 0, "is_disabled": 0, "fusion_lon": 0.0, "lat": 38.928783333333335, "name": "bbac1e2b4d38f8c8b529b0c9585b5ee9", "bike_id": "bbac1e2b4d38f8c8b529b0c9585b5ee9", "lon": -77.03472633333334, "fusion_lat": 0.0, "rental_uris": {"android": "https://dc.lft.to/lastmile_qr_scan", "ios": "https://dc.lft.to/lastmile_qr_scan"}, "type": "electric_scooter"}, {"is_reserved": 0, "is_disabled": 0, "fusion_lon": 0.0, "lat": 38.89746916666667, "name": "6ecc1bc47223ede5974e8f4a7d8a4bb3", "bike_id": "6ecc1bc47223ede5974e8f4a7d8a4bb3", "lon": -77.0318235, "fusion_lat": 0.0, "rental_uris": {"android": "https://dc.lft.to/lastmile_qr_scan", "ios": "https://dc.lft.to/lastmile_qr_scan"}, "type": "electric_scooter"}, {"is_reserved": 0, "is_disabled": 0, "fusion_lon": 0.0, "lat": 38.852472166666665, "name": "f923a90982e1b717d91661d249e4a670", "bike_id": "f923a90982e1b717d91661d249e4a670", "lon": -77.114278, "fusion_lat": 0.0, "rental_uris": {"android": "https://dc.lft.to/lastmile_qr_scan", "ios": "https://dc.lft.to/lastmile_qr_scan"}, "type": "electric_bike"}, {"is_reserved": 0, "is_disabled": 0, "fusion_lon": 0.0, "lat": 38.901819, "name": "98867c77d7b21cd5517023ad371efec5", "bike_id": "98867c77d7b21cd5517023ad371efec5", "lon": -77.00120033333333, "fusion_lat": 0.0, "rental_uris": {"android": "https://dc.lft.to/lastmile_qr_scan", "ios": "https://dc.lft.to/lastmile_qr_scan"}, "type": "electric_scooter"}, {"is_reserved": 0, "is_disabled": 0, "fusion_lon": 0.0, "lat": 38.9172365, "name": "64db1393f1181023b11e3e575f3b9885", "bike_id": "64db1393f1181023b11e3e575f3b9885", "lon": -77.02700766666666, "fusion_lat": 0.0, "rental_uris": {"android": "https://dc.lft.to/lastmile_qr_scan", "ios": "https://dc.lft.to/lastmile_qr_scan"}, "type": "electric_scooter"}, {"is_reserved": 0, "is_disabled": 0, "fusion_lon": 0.0, "lat": 38.921598, "name": "03fe0784b809bda8b2861e07684904b0", "bike_id": "03fe0784b809bda8b2861e07684904b0", "lon": -77.03326116666666, "fusion_lat": 0.0, "rental_uris": {"android": "https://dc.lft.to/lastmile_qr_scan", "ios": "https://dc.lft.to/lastmile_qr_scan"}, "type": "electric_scooter"}, {"is_reserved": 0, "is_disabled": 0, "fusion_lon": 0.0, "lat": 38.988349166666666, "name": "a388a8d508cee38a32f4e8a817d40f3c", "bike_id": "a388a8d508cee38a32f4e8a817d40f3c", "lon": -77.02651266666666, "fusion_lat": 0.0, "rental_uris": {"android": "https://dc.lft.to/lastmile_qr_scan", "ios": "https://dc.lft.to/lastmile_qr_scan"}, "type": "electric_bike"}, {"is_reserved": 0, "is_disabled": 0, "fusion_lon": 0.0, "lat": 38.914105166666666, "name": "944678016808c0492db703c8b3b305cb", "bike_id": "944678016808c0492db703c8b3b305cb", "lon": -77.03169333333334, "fusion_lat": 0.0, "rental_uris": {"android": "https://dc.lft.to/lastmile_qr_scan", "ios": "https://dc.lft.to/lastmile_qr_scan"}, "type": "electric_scooter"}, {"is_reserved": 0, "is_disabled": 0, "fusion_lon": 0.0, "lat": 38.88621416666667, "name": "7a3aad40e260f3193cbc2f8e732c1393", "bike_id": "7a3aad40e260f3193cbc2f8e732c1393", "lon": -77.0315095, "fusion_lat": 0.0, "rental_uris": {"android": "https://dc.lft.to/lastmile_qr_scan", "ios": "https://dc.lft.to/lastmile_qr_scan"}, "type": "electric_scooter"}, {"is_reserved": 0, "is_disabled": 0, "fusion_lon": 0.0, "lat": 38.922799833333336, "name": "45c326b80a674f117d34ffe8dce2e99e", "bike_id": "45c326b80a674f117d34ffe8dce2e99e", "lon": -77.02965866666666, "fusion_lat": 0.0, "rental_uris": {"android": "https://dc.lft.to/lastmile_qr_scan", "ios": "https://dc.lft.to/lastmile_qr_scan"}, "type": "electric_scooter"}, {"is_reserved": 0, "is_disabled": 0, "fusion_lon": 0.0, "lat": 38.8975105, "name": "5a61dda4cd5aa53e1a7fe2285dbdf66b", "bike_id": "5a61dda4cd5aa53e1a7fe2285dbdf66b", "lon": -77.01901066666667, "fusion_lat": 0.0, "rental_uris": {"android": "https://dc.lft.to/lastmile_qr_scan", "ios": "https://dc.lft.to/lastmile_qr_scan"}, "type": "electric_scooter"}, {"is_reserved": 0, "is_disabled": 0, "fusion_lon": 0.0, "lat": 38.89774383333334, "name": "ae9bb7eb3c1425047fd9cb65b88881cc", "bike_id": "ae9bb7eb3c1425047fd9cb65b88881cc", "lon": -77.02696083333333, "fusion_lat": 0.0, "rental_uris": {"android": "https://dc.lft.to/lastmile_qr_scan", "ios": "https://dc.lft.to/lastmile_qr_scan"}, "type": "electric_scooter"}, {"is_reserved": 0, "is_disabled": 0, "fusion_lon": 0.0, "lat": 38.9448035, "name": "e9fb3345eb0ef7833626b344e757a610", "bike_id": "e9fb3345eb0ef7833626b344e757a610", "lon": -77.06370333333334, "fusion_lat": 0.0, "rental_uris": {"android": "https://dc.lft.to/lastmile_qr_scan", "ios": "https://dc.lft.to/lastmile_qr_scan"}, "type": "electric_scooter"}, {"is_reserved": 0, "is_disabled": 0, "fusion_lon": 0.0, "lat": 38.783028333333334, "name": "e6a651bd14f0021a335d1eb39870d2b5", "bike_id": "e6a651bd14f0021a335d1eb39870d2b5", "lon": -77.11415383333333, "fusion_lat": 0.0, "rental_uris": {"android": "https://dc.lft.to/lastmile_qr_scan", "ios": "https://dc.lft.to/lastmile_qr_scan"}, "type": "electric_bike"}, {"is_reserved": 0, "is_disabled": 0, "fusion_lon": 0.0, "lat": 38.89331933333333, "name": "fa337fcdcba0e38ff77f897ff8998938", "bike_id": "fa337fcdcba0e38ff77f897ff8998938", "lon": -76.9392655, "fusion_lat": 0.0, "rental_uris": {"android": "https://dc.lft.to/lastmile_qr_scan", "ios": "https://dc.lft.to/lastmile_qr_scan"}, "type": "electric_scooter"}, {"is_reserved": 0, "is_disabled": 0, "fusion_lon": 0.0, "lat": 38.9261485, "name": "542d92515c9b3fe14119252f751c64b9", "bike_id": "542d92515c9b3fe14119252f751c64b9", "lon": -77.02158983333334, "fusion_lat": 0.0, "rental_uris": {"android": "https://dc.lft.to/lastmile_qr_scan", "ios": "https://dc.lft.to/lastmile_qr_scan"}, "type": "electric_scooter"}, {"is_reserved": 0, "is_disabled": 0, "fusion_lon": 0.0, "lat": 38.9233405, "name": "ec9e8259ea16e970eb36da478b4ef6b6", "bike_id": "ec9e8259ea16e970eb36da478b4ef6b6", "lon": -77.05676933333334, "fusion_lat": 0.0, "rental_uris": {"android": "https://dc.lft.to/lastmile_qr_scan", "ios": "https://dc.lft.to/lastmile_qr_scan"}, "type": "electric_scooter"}, {"is_reserved": 0, "is_disabled": 0, "fusion_lon": 0.0, "lat": 38.8757635, "name": "7d8694a2f08815f86d0d377420a97b7e", "bike_id": "7d8694a2f08815f86d0d377420a97b7e", "lon": -77.00569233333333, "fusion_lat": 0.0, "rental_uris": {"android": "https://dc.lft.to/lastmile_qr_scan", "ios": "https://dc.lft.to/lastmile_qr_scan"}, "type": "electric_scooter"}, {"is_reserved": 0, "is_disabled": 0, "fusion_lon": 0.0, "lat": 38.89607216666667, "name": "9893ffea38d0362ea1bc1e927ad28500", "bike_id": "9893ffea38d0362ea1bc1e927ad28500", "lon": -77.04649816666667, "fusion_lat": 0.0, "rental_uris": {"android": "https://dc.lft.to/lastmile_qr_scan", "ios": "https://dc.lft.to/lastmile_qr_scan"}, "type": "electric_scooter"}, {"is_reserved": 0, "is_disabled": 0, "fusion_lon": 0.0, "lat": 38.90926666666667, "name": "46d21d1eb8eb0178d0d6465ed9e425c1", "bike_id": "46d21d1eb8eb0178d0d6465ed9e425c1", "lon": -76.98470966666666, "fusion_lat": 0.0, "rental_uris": {"android": "https://dc.lft.to/lastmile_qr_scan", "ios": "https://dc.lft.to/lastmile_qr_scan"}, "type": "electric_scooter"}, {"is_reserved": 0, "is_disabled": 0, "fusion_lon": 0.0, "lat": 38.90666916666667, "name": "4e98ddfbe56de0a97735d1a31d56ac20", "bike_id": "4e98ddfbe56de0a97735d1a31d56ac20", "lon": -77.02706866666666, "fusion_lat": 0.0, "rental_uris": {"android": "https://dc.lft.to/lastmile_qr_scan", "ios": "https://dc.lft.to/lastmile_qr_scan"}, "type": "electric_scooter"}, {"is_reserved": 0, "is_disabled": 0, "fusion_lon": 0.0, "lat": 38.90511983333333, "name": "717c9cb4f2ed9e5610c9dbe31b85d253", "bike_id": "717c9cb4f2ed9e5610c9dbe31b85d253", "lon": -77.0271275, "fusion_lat": 0.0, "rental_uris": {"android": "https://dc.lft.to/lastmile_qr_scan", "ios": "https://dc.lft.to/lastmile_qr_scan"}, "type": "electric_scooter"}, {"is_reserved": 0, "is_disabled": 0, "fusion_lon": 0.0, "lat": 38.922489166666665, "name": "37a42ceb2c96b019f2c5cffb8f13ea6b", "bike_id": "37a42ceb2c96b019f2c5cffb8f13ea6b", "lon": -77.03066783333334, "fusion_lat": 0.0, "rental_uris": {"android": "https://dc.lft.to/lastmile_qr_scan", "ios": "https://dc.lft.to/lastmile_qr_scan"}, "type": "electric_scooter"}, {"is_reserved": 0, "is_disabled": 0, "fusion_lon": 0.0, "lat": 38.896051, "name": "2c1c280bde2619f9b85f06ade8a7419f", "bike_id": "2c1c280bde2619f9b85f06ade8a7419f", "lon": -77.04518066666667, "fusion_lat": 0.0, "rental_uris": {"android": "https://dc.lft.to/lastmile_qr_scan", "ios": "https://dc.lft.to/lastmile_qr_scan"}, "type": "electric_scooter"}, {"is_reserved": 0, "is_disabled": 0, "fusion_lon": 0.0, "lat": 38.90033733333333, "name": "9a072a2701a013de8d1ac19ae6940e07", "bike_id": "9a072a2701a013de8d1ac19ae6940e07", "lon": -77.00212066666667, "fusion_lat": 0.0, "rental_uris": {"android": "https://dc.lft.to/lastmile_qr_scan", "ios": "https://dc.lft.to/lastmile_qr_scan"}, "type": "electric_scooter"}, {"is_reserved": 0, "is_disabled": 0, "fusion_lon": 0.0, "lat": 38.880478333333336, "name": "1c3cf594b5e6b2915055e1022644f525", "bike_id": "1c3cf594b5e6b2915055e1022644f525", "lon": -77.011743, "fusion_lat": 0.0, "rental_uris": {"android": "https://dc.lft.to/lastmile_qr_scan", "ios": "https://dc.lft.to/lastmile_qr_scan"}, "type": "electric_scooter"}, {"is_reserved": 0, "is_disabled": 0, "fusion_lon": 0.0, "lat": 38.88356366666667, "name": "41f6ba6efc766dbfdd1b45044a09422d", "bike_id": "41f6ba6efc766dbfdd1b45044a09422d", "lon": -77.0199865, "fusion_lat": 0.0, "rental_uris": {"android": "https://dc.lft.to/lastmile_qr_scan", "ios": "https://dc.lft.to/lastmile_qr_scan"}, "type": "electric_scooter"}, {"is_reserved": 0, "is_disabled": 0, "fusion_lon": 0.0, "lat": 38.88406416666667, "name": "3fa8a6663d414c54cd39b488a18db245", "bike_id": "3fa8a6663d414c54cd39b488a18db245", "lon": -77.01793016666667, "fusion_lat": 0.0, "rental_uris": {"android": "https://dc.lft.to/lastmile_qr_scan", "ios": "https://dc.lft.to/lastmile_qr_scan"}, "type": "electric_scooter"}, {"is_reserved": 0, "is_disabled": 0, "fusion_lon": 0.0, "lat": 38.91740083333333, "name": "385481d57d2ecd1c7317e13a04c3aadb", "bike_id": "385481d57d2ecd1c7317e13a04c3aadb", "lon": -77.01711466666667, "fusion_lat": 0.0, "rental_uris": {"android": "https://dc.lft.to/lastmile_qr_scan", "ios": "https://dc.lft.to/lastmile_qr_scan"}, "type": "electric_scooter"}, {"is_reserved": 0, "is_disabled": 0, "fusion_lon": 0.0, "lat": 38.90608266666667, "name": "4b7ae909c5493f2a815df2ebe0883fde", "bike_id": "4b7ae909c5493f2a815df2ebe0883fde", "lon": -77.128943, "fusion_lat": 0.0, "rental_uris": {"android": "https://dc.lft.to/lastmile_qr_scan", "ios": "https://dc.lft.to/lastmile_qr_scan"}, "type": "electric_bike"}, {"is_reserved": 0, "is_disabled": 0, "fusion_lon": 0.0, "lat": 38.90384316666667, "name": "8f39480537e7fc5eb83fc94f0f160eae", "bike_id": "8f39480537e7fc5eb83fc94f0f160eae", "lon": -77.01880033333333, "fusion_lat": 0.0, "rental_uris": {"android": "https://dc.lft.to/lastmile_qr_scan", "ios": "https://dc.lft.to/lastmile_qr_scan"}, "type": "electric_scooter"}, {"is_reserved": 0, "is_disabled": 0, "fusion_lon": 0.0, "lat": 38.924499833333336, "name": "637e1b442c05c81fcb2bb2797ad0d61f", "bike_id": "637e1b442c05c81fcb2bb2797ad0d61f", "lon": -77.04019416666667, "fusion_lat": 0.0, "rental_uris": {"android": "https://dc.lft.to/lastmile_qr_scan", "ios": "https://dc.lft.to/lastmile_qr_scan"}, "type": "electric_scooter"}, {"is_reserved": 0, "is_disabled": 0, "fusion_lon": 0.0, "lat": 38.90393533333334, "name": "54efb39a52bfc88eb2da8dfd7c7c1a69", "bike_id": "54efb39a52bfc88eb2da8dfd7c7c1a69", "lon": -77.03862833333334, "fusion_lat": 0.0, "rental_uris": {"android": "https://dc.lft.to/lastmile_qr_scan", "ios": "https://dc.lft.to/lastmile_qr_scan"}, "type": "electric_scooter"}, {"is_reserved": 0, "is_disabled": 0, "fusion_lon": 0.0, "lat": 38.9246275, "name": "85fc95e6fe19793ec906acaa8f315e9d", "bike_id": "85fc95e6fe19793ec906acaa8f315e9d", "lon": -77.05756533333333, "fusion_lat": 0.0, "rental_uris": {"android": "https://dc.lft.to/lastmile_qr_scan", "ios": "https://dc.lft.to/lastmile_qr_scan"}, "type": "electric_scooter"}, {"is_reserved": 0, "is_disabled": 0, "fusion_lon": 0.0, "lat": 38.924574166666666, "name": "d81c2df4d2033a25703479acd8edbe9e", "bike_id": "d81c2df4d2033a25703479acd8edbe9e", "lon": -77.039773, "fusion_lat": 0.0, "rental_uris": {"android": "https://dc.lft.to/lastmile_qr_scan", "ios": "https://dc.lft.to/lastmile_qr_scan"}, "type": "electric_scooter"}, {"is_reserved": 0, "is_disabled": 0, "fusion_lon": 0.0, "lat": 38.9114705, "name": "0ef2fbd74d932c1ff491a71c166ee2ba", "bike_id": "0ef2fbd74d932c1ff491a71c166ee2ba", "lon": -77.02191516666667, "fusion_lat": 0.0, "rental_uris": {"android": "https://dc.lft.to/lastmile_qr_scan", "ios": "https://dc.lft.to/lastmile_qr_scan"}, "type": "electric_scooter"}, {"is_reserved": 0, "is_disabled": 0, "fusion_lon": 0.0, "lat": 38.957362833333335, "name": "dc77618bf41411eab38988a88fb8a400", "bike_id": "dc77618bf41411eab38988a88fb8a400", "lon": -77.02419533333334, "fusion_lat": 0.0, "rental_uris": {"android": "https://dc.lft.to/lastmile_qr_scan", "ios": "https://dc.lft.to/lastmile_qr_scan"}, "type": "electric_scooter"}, {"is_reserved": 0, "is_disabled": 0, "fusion_lon": 0.0, "lat": 38.890505, "name": "c72d6c0aafecf97c44debdd3d89d7047", "bike_id": "c72d6c0aafecf97c44debdd3d89d7047", "lon": -77.04493883333333, "fusion_lat": 0.0, "rental_uris": {"android": "https://dc.lft.to/lastmile_qr_scan", "ios": "https://dc.lft.to/lastmile_qr_scan"}, "type": "electric_scooter"}, {"is_reserved": 0, "is_disabled": 0, "fusion_lon": 0.0, "lat": 38.895086666666664, "name": "0fc494d82d958b1ddb53a9da7321977a", "bike_id": "0fc494d82d958b1ddb53a9da7321977a", "lon": -76.94885766666667, "fusion_lat": 0.0, "rental_uris": {"android": "https://dc.lft.to/lastmile_qr_scan", "ios": "https://dc.lft.to/lastmile_qr_scan"}, "type": "electric_scooter"}, {"is_reserved": 0, "is_disabled": 0, "fusion_lon": 0.0, "lat": 38.912203, "name": "b6fc91a865aeaa03af24fc8684e51040", "bike_id": "b6fc91a865aeaa03af24fc8684e51040", "lon": -77.03207083333334, "fusion_lat": 0.0, "rental_uris": {"android": "https://dc.lft.to/lastmile_qr_scan", "ios": "https://dc.lft.to/lastmile_qr_scan"}, "type": "electric_scooter"}, {"is_reserved": 0, "is_disabled": 0, "fusion_lon": 0.0, "lat": 38.930130166666665, "name": "e20631fb533c76391c059a614bf24838", "bike_id": "e20631fb533c76391c059a614bf24838", "lon": -77.06188633333333, "fusion_lat": 0.0, "rental_uris": {"android": "https://dc.lft.to/lastmile_qr_scan", "ios": "https://dc.lft.to/lastmile_qr_scan"}, "type": "electric_scooter"}, {"is_reserved": 0, "is_disabled": 0, "fusion_lon": 0.0, "lat": 38.89748266666667, "name": "ee1f391efe2650057dbef0401d47c8e3", "bike_id": "ee1f391efe2650057dbef0401d47c8e3", "lon": -77.01902116666666, "fusion_lat": 0.0, "rental_uris": {"android": "https://dc.lft.to/lastmile_qr_scan", "ios": "https://dc.lft.to/lastmile_qr_scan"}, "type": "electric_scooter"}, {"is_reserved": 0, "is_disabled": 0, "fusion_lon": 0.0, "lat": 38.902584166666664, "name": "2eb69c838233de0330b5ebed6ede6e7d", "bike_id": "2eb69c838233de0330b5ebed6ede6e7d", "lon": -77.0089, "fusion_lat": 0.0, "rental_uris": {"android": "https://dc.lft.to/lastmile_qr_scan", "ios": "https://dc.lft.to/lastmile_qr_scan"}, "type": "electric_scooter"}, {"is_reserved": 0, "is_disabled": 0, "fusion_lon": 0.0, "lat": 38.8881935, "name": "45e5575dea3133e727be7a139963be5c", "bike_id": "45e5575dea3133e727be7a139963be5c", "lon": -76.977074, "fusion_lat": 0.0, "rental_uris": {"android": "https://dc.lft.to/lastmile_qr_scan", "ios": "https://dc.lft.to/lastmile_qr_scan"}, "type": "electric_scooter"}, {"is_reserved": 0, "is_disabled": 0, "fusion_lon": 0.0, "lat": 38.924340666666666, "name": "4946f14d6e7be0c4dd8da71d459459ef", "bike_id": "4946f14d6e7be0c4dd8da71d459459ef", "lon": -77.00322566666667, "fusion_lat": 0.0, "rental_uris": {"android": "https://dc.lft.to/lastmile_qr_scan", "ios": "https://dc.lft.to/lastmile_qr_scan"}, "type": "electric_scooter"}, {"is_reserved": 0, "is_disabled": 0, "fusion_lon": 0.0, "lat": 38.982232, "name": "99df972ff6c3ffdb66d228b6a8922b2c", "bike_id": "99df972ff6c3ffdb66d228b6a8922b2c", "lon": -77.09649033333334, "fusion_lat": 0.0, "rental_uris": {"android": "https://dc.lft.to/lastmile_qr_scan", "ios": "https://dc.lft.to/lastmile_qr_scan"}, "type": "electric_bike"}, {"is_reserved": 0, "is_disabled": 0, "fusion_lon": 0.0, "lat": 38.926440166666666, "name": "be36bd26860fea37aa4b8e6a1a7e5b16", "bike_id": "be36bd26860fea37aa4b8e6a1a7e5b16", "lon": -77.038428, "fusion_lat": 0.0, "rental_uris": {"android": "https://dc.lft.to/lastmile_qr_scan", "ios": "https://dc.lft.to/lastmile_qr_scan"}, "type": "electric_scooter"}, {"is_reserved": 0, "is_disabled": 0, "fusion_lon": 0.0, "lat": 38.89703166666666, "name": "0a1ebe2835889ef2bdc6f44873fc23e9", "bike_id": "0a1ebe2835889ef2bdc6f44873fc23e9", "lon": -76.93924266666667, "fusion_lat": 0.0, "rental_uris": {"android": "https://dc.lft.to/lastmile_qr_scan", "ios": "https://dc.lft.to/lastmile_qr_scan"}, "type": "electric_scooter"}, {"is_reserved": 0, "is_disabled": 0, "fusion_lon": 0.0, "lat": 38.89358333333333, "name": "df50a49106e860bc7dc22f8a4bd054db", "bike_id": "df50a49106e860bc7dc22f8a4bd054db", "lon": -77.04620366666667, "fusion_lat": 0.0, "rental_uris": {"android": "https://dc.lft.to/lastmile_qr_scan", "ios": "https://dc.lft.to/lastmile_qr_scan"}, "type": "electric_scooter"}, {"is_reserved": 0, "is_disabled": 0, "fusion_lon": 0.0, "lat": 38.876624166666666, "name": "280fedbe57ca457d24ca2c1632a3684f", "bike_id": "280fedbe57ca457d24ca2c1632a3684f", "lon": -77.011702, "fusion_lat": 0.0, "rental_uris": {"android": "https://dc.lft.to/lastmile_qr_scan", "ios": "https://dc.lft.to/lastmile_qr_scan"}, "type": "electric_scooter"}, {"is_reserved": 0, "is_disabled": 0, "fusion_lon": 0.0, "lat": 38.900452, "name": "71bc9e06aad56458a81cf5a10f4efb2d", "bike_id": "71bc9e06aad56458a81cf5a10f4efb2d", "lon": -77.01775933333333, "fusion_lat": 0.0, "rental_uris": {"android": "https://dc.lft.to/lastmile_qr_scan", "ios": "https://dc.lft.to/lastmile_qr_scan"}, "type": "electric_scooter"}, {"is_reserved": 0, "is_disabled": 0, "fusion_lon": 0.0, "lat": 38.899513166666665, "name": "4930710d755d0e97504fbf2bf1f37c49", "bike_id": "4930710d755d0e97504fbf2bf1f37c49", "lon": -77.031738, "fusion_lat": 0.0, "rental_uris": {"android": "https://dc.lft.to/lastmile_qr_scan", "ios": "https://dc.lft.to/lastmile_qr_scan"}, "type": "electric_scooter"}, {"is_reserved": 0, "is_disabled": 0, "fusion_lon": 0.0, "lat": 39.00723333333333, "name": "464ee20830920dc510e1b24d3f619ea1", "bike_id": "464ee20830920dc510e1b24d3f619ea1", "lon": -76.98146516666667, "fusion_lat": 0.0, "rental_uris": {"android": "https://dc.lft.to/lastmile_qr_scan", "ios": "https://dc.lft.to/lastmile_qr_scan"}, "type": "electric_bike"}, {"is_reserved": 0, "is_disabled": 0, "fusion_lon": 0.0, "lat": 38.91895983333333, "name": "95204ee6651e427f30690ceebcbf24c1", "bike_id": "95204ee6651e427f30690ceebcbf24c1", "lon": -77.04463866666667, "fusion_lat": 0.0, "rental_uris": {"android": "https://dc.lft.to/lastmile_qr_scan", "ios": "https://dc.lft.to/lastmile_qr_scan"}, "type": "electric_scooter"}, {"is_reserved": 0, "is_disabled": 0, "fusion_lon": 0.0, "lat": 38.90299266666667, "name": "92eda10cd4e717c8852a7e828fd46b76", "bike_id": "92eda10cd4e717c8852a7e828fd46b76", "lon": -77.04666266666666, "fusion_lat": 0.0, "rental_uris": {"android": "https://dc.lft.to/lastmile_qr_scan", "ios": "https://dc.lft.to/lastmile_qr_scan"}, "type": "electric_scooter"}, {"is_reserved": 0, "is_disabled": 0, "fusion_lon": 0.0, "lat": 38.934133833333334, "name": "0d2e39f0a92addffb6b6450e003ab741", "bike_id": "0d2e39f0a92addffb6b6450e003ab741", "lon": -77.03271666666667, "fusion_lat": 0.0, "rental_uris": {"android": "https://dc.lft.to/lastmile_qr_scan", "ios": "https://dc.lft.to/lastmile_qr_scan"}, "type": "electric_scooter"}, {"is_reserved": 0, "is_disabled": 0, "fusion_lon": 0.0, "lat": 38.91263716666667, "name": "b0668723c8ef602b2c2e663eacbd058e", "bike_id": "b0668723c8ef602b2c2e663eacbd058e", "lon": -77.02446216666667, "fusion_lat": 0.0, "rental_uris": {"android": "https://dc.lft.to/lastmile_qr_scan", "ios": "https://dc.lft.to/lastmile_qr_scan"}, "type": "electric_scooter"}, {"is_reserved": 0, "is_disabled": 0, "fusion_lon": 0.0, "lat": 38.849041666666665, "name": "790cc07753c9164b508ec2b3d9b16ee2", "bike_id": "790cc07753c9164b508ec2b3d9b16ee2", "lon": -77.07801116666667, "fusion_lat": 0.0, "rental_uris": {"android": "https://dc.lft.to/lastmile_qr_scan", "ios": "https://dc.lft.to/lastmile_qr_scan"}, "type": "electric_bike"}, {"is_reserved": 0, "is_disabled": 0, "fusion_lon": 0.0, "lat": 38.92705866666667, "name": "2ad5d4913b77bec909379a974a57f79f", "bike_id": "2ad5d4913b77bec909379a974a57f79f", "lon": -77.0233045, "fusion_lat": 0.0, "rental_uris": {"android": "https://dc.lft.to/lastmile_qr_scan", "ios": "https://dc.lft.to/lastmile_qr_scan"}, "type": "electric_scooter"}, {"is_reserved": 0, "is_disabled": 0, "fusion_lon": 0.0, "lat": 38.9017595, "name": "79fed21ad6fc06a7a07e7993b1c85f48", "bike_id": "79fed21ad6fc06a7a07e7993b1c85f48", "lon": -77.02192616666666, "fusion_lat": 0.0, "rental_uris": {"android": "https://dc.lft.to/lastmile_qr_scan", "ios": "https://dc.lft.to/lastmile_qr_scan"}, "type": "electric_scooter"}, {"is_reserved": 0, "is_disabled": 0, "fusion_lon": 0.0, "lat": 38.8671815, "name": "3fb349e1c99e222f47d1b75caa3c75d8", "bike_id": "3fb349e1c99e222f47d1b75caa3c75d8", "lon": -77.01012133333333, "fusion_lat": 0.0, "rental_uris": {"android": "https://dc.lft.to/lastmile_qr_scan", "ios": "https://dc.lft.to/lastmile_qr_scan"}, "type": "electric_scooter"}, {"is_reserved": 0, "is_disabled": 0, "fusion_lon": 0.0, "lat": 38.928882333333334, "name": "b753cbc1fe0a41c508cef7f8acc0f8c3", "bike_id": "b753cbc1fe0a41c508cef7f8acc0f8c3", "lon": -77.032531, "fusion_lat": 0.0, "rental_uris": {"android": "https://dc.lft.to/lastmile_qr_scan", "ios": "https://dc.lft.to/lastmile_qr_scan"}, "type": "electric_scooter"}, {"is_reserved": 0, "is_disabled": 0, "fusion_lon": 0.0, "lat": 38.915625166666665, "name": "8ec14aa92ae47d44cb3cbb78996ed1d4", "bike_id": "8ec14aa92ae47d44cb3cbb78996ed1d4", "lon": -77.00698216666666, "fusion_lat": 0.0, "rental_uris": {"android": "https://dc.lft.to/lastmile_qr_scan", "ios": "https://dc.lft.to/lastmile_qr_scan"}, "type": "electric_scooter"}, {"is_reserved": 0, "is_disabled": 0, "fusion_lon": 0.0, "lat": 38.922905, "name": "c00de749c71f9695488c3d9fc878d1a0", "bike_id": "c00de749c71f9695488c3d9fc878d1a0", "lon": -77.01948533333334, "fusion_lat": 0.0, "rental_uris": {"android": "https://dc.lft.to/lastmile_qr_scan", "ios": "https://dc.lft.to/lastmile_qr_scan"}, "type": "electric_scooter"}, {"is_reserved": 0, "is_disabled": 0, "fusion_lon": 0.0, "lat": 38.892216833333336, "name": "1dd31c109721fe31e7a82cbc5d6c0376", "bike_id": "1dd31c109721fe31e7a82cbc5d6c0376", "lon": -77.04678283333334, "fusion_lat": 0.0, "rental_uris": {"android": "https://dc.lft.to/lastmile_qr_scan", "ios": "https://dc.lft.to/lastmile_qr_scan"}, "type": "electric_scooter"}, {"is_reserved": 0, "is_disabled": 0, "fusion_lon": 0.0, "lat": 38.9353885, "name": "67a13f3ae214cd679ad6eff8dba8394c", "bike_id": "67a13f3ae214cd679ad6eff8dba8394c", "lon": -77.05828466666667, "fusion_lat": 0.0, "rental_uris": {"android": "https://dc.lft.to/lastmile_qr_scan", "ios": "https://dc.lft.to/lastmile_qr_scan"}, "type": "electric_scooter"}, {"is_reserved": 0, "is_disabled": 0, "fusion_lon": 0.0, "lat": 38.89324883333333, "name": "d7bebf211b373a00f5fece994e1a528d", "bike_id": "d7bebf211b373a00f5fece994e1a528d", "lon": -76.93970216666666, "fusion_lat": 0.0, "rental_uris": {"android": "https://dc.lft.to/lastmile_qr_scan", "ios": "https://dc.lft.to/lastmile_qr_scan"}, "type": "electric_scooter"}, {"is_reserved": 0, "is_disabled": 0, "fusion_lon": 0.0, "lat": 38.92070233333333, "name": "f468ebac32cfaa3897bf6cb8382782c6", "bike_id": "f468ebac32cfaa3897bf6cb8382782c6", "lon": -77.02515483333333, "fusion_lat": 0.0, "rental_uris": {"android": "https://dc.lft.to/lastmile_qr_scan", "ios": "https://dc.lft.to/lastmile_qr_scan"}, "type": "electric_scooter"}, {"is_reserved": 0, "is_disabled": 0, "fusion_lon": 0.0, "lat": 38.8949155, "name": "c08ce48c99a0146ea082ecfbf097871e", "bike_id": "c08ce48c99a0146ea082ecfbf097871e", "lon": -76.94892766666666, "fusion_lat": 0.0, "rental_uris": {"android": "https://dc.lft.to/lastmile_qr_scan", "ios": "https://dc.lft.to/lastmile_qr_scan"}, "type": "electric_scooter"}, {"is_reserved": 0, "is_disabled": 0, "fusion_lon": 0.0, "lat": 38.93865683333333, "name": "ab7175ab7e6f05f444022d974ab28412", "bike_id": "ab7175ab7e6f05f444022d974ab28412", "lon": -77.02489833333334, "fusion_lat": 0.0, "rental_uris": {"android": "https://dc.lft.to/lastmile_qr_scan", "ios": "https://dc.lft.to/lastmile_qr_scan"}, "type": "electric_scooter"}, {"is_reserved": 0, "is_disabled": 0, "fusion_lon": 0.0, "lat": 38.90000116666667, "name": "bac5769a9fb3006f3e763efa37287646", "bike_id": "bac5769a9fb3006f3e763efa37287646", "lon": -77.04115833333333, "fusion_lat": 0.0, "rental_uris": {"android": "https://dc.lft.to/lastmile_qr_scan", "ios": "https://dc.lft.to/lastmile_qr_scan"}, "type": "electric_scooter"}, {"is_reserved": 0, "is_disabled": 0, "fusion_lon": 0.0, "lat": 38.8475445, "name": "678995783f39e8984b6af64c3dc0cc5e", "bike_id": "678995783f39e8984b6af64c3dc0cc5e", "lon": -77.05377916666667, "fusion_lat": 0.0, "rental_uris": {"android": "https://dc.lft.to/lastmile_qr_scan", "ios": "https://dc.lft.to/lastmile_qr_scan"}, "type": "electric_bike"}, {"is_reserved": 0, "is_disabled": 0, "fusion_lon": 0.0, "lat": 38.942903666666666, "name": "1b32fd45c5a77d39c15b374a9c066bd4", "bike_id": "1b32fd45c5a77d39c15b374a9c066bd4", "lon": -77.02795266666666, "fusion_lat": 0.0, "rental_uris": {"android": "https://dc.lft.to/lastmile_qr_scan", "ios": "https://dc.lft.to/lastmile_qr_scan"}, "type": "electric_scooter"}, {"is_reserved": 0, "is_disabled": 0, "fusion_lon": 0.0, "lat": 38.907033166666665, "name": "6c6a4152ec86f3f56c72f101f2c9e1ba", "bike_id": "6c6a4152ec86f3f56c72f101f2c9e1ba", "lon": -76.9885335, "fusion_lat": 0.0, "rental_uris": {"android": "https://dc.lft.to/lastmile_qr_scan", "ios": "https://dc.lft.to/lastmile_qr_scan"}, "type": "electric_scooter"}, {"is_reserved": 0, "is_disabled": 0, "fusion_lon": 0.0, "lat": 38.8850865, "name": "bbf757c354a0cfb5d8f6fcfd042d4f59", "bike_id": "bbf757c354a0cfb5d8f6fcfd042d4f59", "lon": -77.02099333333334, "fusion_lat": 0.0, "rental_uris": {"android": "https://dc.lft.to/lastmile_qr_scan", "ios": "https://dc.lft.to/lastmile_qr_scan"}, "type": "electric_scooter"}, {"is_reserved": 0, "is_disabled": 0, "fusion_lon": 0.0, "lat": 38.9153775, "name": "f2c398ccf38a57728ae57d6886089afd", "bike_id": "f2c398ccf38a57728ae57d6886089afd", "lon": -77.04443516666667, "fusion_lat": 0.0, "rental_uris": {"android": "https://dc.lft.to/lastmile_qr_scan", "ios": "https://dc.lft.to/lastmile_qr_scan"}, "type": "electric_scooter"}, {"is_reserved": 0, "is_disabled": 0, "fusion_lon": 0.0, "lat": 38.895043, "name": "1b9c7897c81711a55d59d1b4a9b297e4", "bike_id": "1b9c7897c81711a55d59d1b4a9b297e4", "lon": -76.93474883333333, "fusion_lat": 0.0, "rental_uris": {"android": "https://dc.lft.to/lastmile_qr_scan", "ios": "https://dc.lft.to/lastmile_qr_scan"}, "type": "electric_scooter"}, {"is_reserved": 0, "is_disabled": 0, "fusion_lon": 0.0, "lat": 38.90521366666667, "name": "84da32e02e791d3be36b39bfd1aab572", "bike_id": "84da32e02e791d3be36b39bfd1aab572", "lon": -77.02955733333333, "fusion_lat": 0.0, "rental_uris": {"android": "https://dc.lft.to/lastmile_qr_scan", "ios": "https://dc.lft.to/lastmile_qr_scan"}, "type": "electric_scooter"}, {"is_reserved": 0, "is_disabled": 0, "fusion_lon": 0.0, "lat": 38.922343833333336, "name": "5c42675d0bef76a68345f2ac8bfb8985", "bike_id": "5c42675d0bef76a68345f2ac8bfb8985", "lon": -77.028521, "fusion_lat": 0.0, "rental_uris": {"android": "https://dc.lft.to/lastmile_qr_scan", "ios": "https://dc.lft.to/lastmile_qr_scan"}, "type": "electric_scooter"}, {"is_reserved": 0, "is_disabled": 0, "fusion_lon": 0.0, "lat": 38.89608966666667, "name": "9f6ef00f6207367b33351464e7cec65c", "bike_id": "9f6ef00f6207367b33351464e7cec65c", "lon": -77.0190685, "fusion_lat": 0.0, "rental_uris": {"android": "https://dc.lft.to/lastmile_qr_scan", "ios": "https://dc.lft.to/lastmile_qr_scan"}, "type": "electric_scooter"}, {"is_reserved": 0, "is_disabled": 0, "fusion_lon": 0.0, "lat": 38.92091883333333, "name": "95713b8ad31af1075e0c8afc0f89f071", "bike_id": "95713b8ad31af1075e0c8afc0f89f071", "lon": -77.02527966666666, "fusion_lat": 0.0, "rental_uris": {"android": "https://dc.lft.to/lastmile_qr_scan", "ios": "https://dc.lft.to/lastmile_qr_scan"}, "type": "electric_scooter"}, {"is_reserved": 0, "is_disabled": 0, "fusion_lon": 0.0, "lat": 38.89688666666667, "name": "d12dcd4a0c908b5d9c9d78398aa186ae", "bike_id": "d12dcd4a0c908b5d9c9d78398aa186ae", "lon": -76.92793733333333, "fusion_lat": 0.0, "rental_uris": {"android": "https://dc.lft.to/lastmile_qr_scan", "ios": "https://dc.lft.to/lastmile_qr_scan"}, "type": "electric_scooter"}, {"is_reserved": 0, "is_disabled": 0, "fusion_lon": 0.0, "lat": 38.92878066666667, "name": "ab08a7dfdd99b1a6b9dfa6f626fca762", "bike_id": "ab08a7dfdd99b1a6b9dfa6f626fca762", "lon": -77.01361383333334, "fusion_lat": 0.0, "rental_uris": {"android": "https://dc.lft.to/lastmile_qr_scan", "ios": "https://dc.lft.to/lastmile_qr_scan"}, "type": "electric_scooter"}, {"is_reserved": 0, "is_disabled": 0, "fusion_lon": 0.0, "lat": 38.903979666666665, "name": "f227b8a6cc3ef63c091c449c38339ca1", "bike_id": "f227b8a6cc3ef63c091c449c38339ca1", "lon": -77.037482, "fusion_lat": 0.0, "rental_uris": {"android": "https://dc.lft.to/lastmile_qr_scan", "ios": "https://dc.lft.to/lastmile_qr_scan"}, "type": "electric_scooter"}, {"is_reserved": 0, "is_disabled": 0, "fusion_lon": 0.0, "lat": 38.89216566666666, "name": "6be215bf82a4d0bc946b83923849aaa3", "bike_id": "6be215bf82a4d0bc946b83923849aaa3", "lon": -77.02369333333333, "fusion_lat": 0.0, "rental_uris": {"android": "https://dc.lft.to/lastmile_qr_scan", "ios": "https://dc.lft.to/lastmile_qr_scan"}, "type": "electric_scooter"}, {"is_reserved": 0, "is_disabled": 0, "fusion_lon": 0.0, "lat": 38.962130333333334, "name": "99a653cf0ee86cd6e94c6f2bebfaaf9f", "bike_id": "99a653cf0ee86cd6e94c6f2bebfaaf9f", "lon": -77.0278175, "fusion_lat": 0.0, "rental_uris": {"android": "https://dc.lft.to/lastmile_qr_scan", "ios": "https://dc.lft.to/lastmile_qr_scan"}, "type": "electric_scooter"}, {"is_reserved": 0, "is_disabled": 0, "fusion_lon": 0.0, "lat": 38.92698566666667, "name": "460dea5d3cf6eaa42e7cfb94e16eb46c", "bike_id": "460dea5d3cf6eaa42e7cfb94e16eb46c", "lon": -77.0149475, "fusion_lat": 0.0, "rental_uris": {"android": "https://dc.lft.to/lastmile_qr_scan", "ios": "https://dc.lft.to/lastmile_qr_scan"}, "type": "electric_scooter"}, {"is_reserved": 0, "is_disabled": 0, "fusion_lon": 0.0, "lat": 38.9247185, "name": "adbd0bdcefc90731e97f93c3c7fc649d", "bike_id": "adbd0bdcefc90731e97f93c3c7fc649d", "lon": -77.02204316666666, "fusion_lat": 0.0, "rental_uris": {"android": "https://dc.lft.to/lastmile_qr_scan", "ios": "https://dc.lft.to/lastmile_qr_scan"}, "type": "electric_scooter"}, {"is_reserved": 0, "is_disabled": 0, "fusion_lon": 0.0, "lat": 38.922393166666666, "name": "7ef5815c02386d59a339992640a42c7d", "bike_id": "7ef5815c02386d59a339992640a42c7d", "lon": -77.036642, "fusion_lat": 0.0, "rental_uris": {"android": "https://dc.lft.to/lastmile_qr_scan", "ios": "https://dc.lft.to/lastmile_qr_scan"}, "type": "electric_scooter"}, {"is_reserved": 0, "is_disabled": 0, "fusion_lon": 0.0, "lat": 38.8922125, "name": "3e782b076e0cdf240cff74c3f5e12cf8", "bike_id": "3e782b076e0cdf240cff74c3f5e12cf8", "lon": -77.04365366666667, "fusion_lat": 0.0, "rental_uris": {"android": "https://dc.lft.to/lastmile_qr_scan", "ios": "https://dc.lft.to/lastmile_qr_scan"}, "type": "electric_scooter"}, {"is_reserved": 0, "is_disabled": 0, "fusion_lon": 0.0, "lat": 38.91803016666667, "name": "d3dfc554f141ce591ef9369a366d0a13", "bike_id": "d3dfc554f141ce591ef9369a366d0a13", "lon": -77.02487383333333, "fusion_lat": 0.0, "rental_uris": {"android": "https://dc.lft.to/lastmile_qr_scan", "ios": "https://dc.lft.to/lastmile_qr_scan"}, "type": "electric_scooter"}, {"is_reserved": 0, "is_disabled": 0, "fusion_lon": 0.0, "lat": 38.9011595, "name": "b1dc0f1084e59876410cc4af18312536", "bike_id": "b1dc0f1084e59876410cc4af18312536", "lon": -77.04993283333333, "fusion_lat": 0.0, "rental_uris": {"android": "https://dc.lft.to/lastmile_qr_scan", "ios": "https://dc.lft.to/lastmile_qr_scan"}, "type": "electric_scooter"}, {"is_reserved": 0, "is_disabled": 0, "fusion_lon": 0.0, "lat": 38.854374, "name": "7c4751d99c685a913459485a5e71cb06", "bike_id": "7c4751d99c685a913459485a5e71cb06", "lon": -76.97165583333333, "fusion_lat": 0.0, "rental_uris": {"android": "https://dc.lft.to/lastmile_qr_scan", "ios": "https://dc.lft.to/lastmile_qr_scan"}, "type": "electric_scooter"}, {"is_reserved": 0, "is_disabled": 0, "fusion_lon": 0.0, "lat": 38.9095965, "name": "ad2f69915a502d90ee233106155e5b64", "bike_id": "ad2f69915a502d90ee233106155e5b64", "lon": -77.04584183333333, "fusion_lat": 0.0, "rental_uris": {"android": "https://dc.lft.to/lastmile_qr_scan", "ios": "https://dc.lft.to/lastmile_qr_scan"}, "type": "electric_bike"}, {"is_reserved": 0, "is_disabled": 0, "fusion_lon": 0.0, "lat": 38.92259416666667, "name": "a6807af33e359750b74a0bd64f20a118", "bike_id": "a6807af33e359750b74a0bd64f20a118", "lon": -76.9864795, "fusion_lat": 0.0, "rental_uris": {"android": "https://dc.lft.to/lastmile_qr_scan", "ios": "https://dc.lft.to/lastmile_qr_scan"}, "type": "electric_bike"}, {"is_reserved": 0, "is_disabled": 0, "fusion_lon": 0.0, "lat": 38.90166283333333, "name": "b3ac52c1d05ba0434500d59790a05cfc", "bike_id": "b3ac52c1d05ba0434500d59790a05cfc", "lon": -76.97687316666666, "fusion_lat": 0.0, "rental_uris": {"android": "https://dc.lft.to/lastmile_qr_scan", "ios": "https://dc.lft.to/lastmile_qr_scan"}, "type": "electric_bike"}, {"is_reserved": 0, "is_disabled": 0, "fusion_lon": 0.0, "lat": 38.9375485, "name": "13cb625c6b77b38717cc5e9275a850f6", "bike_id": "13cb625c6b77b38717cc5e9275a850f6", "lon": -77.059597, "fusion_lat": 0.0, "rental_uris": {"android": "https://dc.lft.to/lastmile_qr_scan", "ios": "https://dc.lft.to/lastmile_qr_scan"}, "type": "electric_scooter"}, {"is_reserved": 0, "is_disabled": 0, "fusion_lon": 0.0, "lat": 38.90516183333333, "name": "73139e35f78f5e7701356abdebeacacf", "bike_id": "73139e35f78f5e7701356abdebeacacf", "lon": -77.02951233333333, "fusion_lat": 0.0, "rental_uris": {"android": "https://dc.lft.to/lastmile_qr_scan", "ios": "https://dc.lft.to/lastmile_qr_scan"}, "type": "electric_scooter"}, {"is_reserved": 0, "is_disabled": 0, "fusion_lon": 0.0, "lat": 38.9199725, "name": "e0feb97087718b3d83fce8b36e281915", "bike_id": "e0feb97087718b3d83fce8b36e281915", "lon": -76.983959, "fusion_lat": 0.0, "rental_uris": {"android": "https://dc.lft.to/lastmile_qr_scan", "ios": "https://dc.lft.to/lastmile_qr_scan"}, "type": "electric_scooter"}, {"is_reserved": 0, "is_disabled": 0, "fusion_lon": 0.0, "lat": 38.901127, "name": "dfc059aa872ed44543a1061d06e61f86", "bike_id": "dfc059aa872ed44543a1061d06e61f86", "lon": -77.03184916666666, "fusion_lat": 0.0, "rental_uris": {"android": "https://dc.lft.to/lastmile_qr_scan", "ios": "https://dc.lft.to/lastmile_qr_scan"}, "type": "electric_scooter"}, {"is_reserved": 0, "is_disabled": 0, "fusion_lon": 0.0, "lat": 38.943279833333335, "name": "da9e10a59b7e5171a52c4428d190de37", "bike_id": "da9e10a59b7e5171a52c4428d190de37", "lon": -77.013087, "fusion_lat": 0.0, "rental_uris": {"android": "https://dc.lft.to/lastmile_qr_scan", "ios": "https://dc.lft.to/lastmile_qr_scan"}, "type": "electric_scooter"}, {"is_reserved": 0, "is_disabled": 0, "fusion_lon": 0.0, "lat": 38.897399, "name": "37cc490769174e2dd7bff3988b44755c", "bike_id": "37cc490769174e2dd7bff3988b44755c", "lon": -77.00928766666667, "fusion_lat": 0.0, "rental_uris": {"android": "https://dc.lft.to/lastmile_qr_scan", "ios": "https://dc.lft.to/lastmile_qr_scan"}, "type": "electric_scooter"}, {"is_reserved": 0, "is_disabled": 0, "fusion_lon": 0.0, "lat": 38.90959316666667, "name": "953f9ca183b90e55c9a2b12491dee249", "bike_id": "953f9ca183b90e55c9a2b12491dee249", "lon": -77.0231405, "fusion_lat": 0.0, "rental_uris": {"android": "https://dc.lft.to/lastmile_qr_scan", "ios": "https://dc.lft.to/lastmile_qr_scan"}, "type": "electric_scooter"}, {"is_reserved": 0, "is_disabled": 0, "fusion_lon": 0.0, "lat": 38.93247016666667, "name": "d027620d82b9663a290f3a7c5b7ba7da", "bike_id": "d027620d82b9663a290f3a7c5b7ba7da", "lon": -77.03268333333334, "fusion_lat": 0.0, "rental_uris": {"android": "https://dc.lft.to/lastmile_qr_scan", "ios": "https://dc.lft.to/lastmile_qr_scan"}, "type": "electric_scooter"}, {"is_reserved": 0, "is_disabled": 0, "fusion_lon": 0.0, "lat": 38.938665, "name": "24d8cdc1a44e2c79529a743f137bc8a7", "bike_id": "24d8cdc1a44e2c79529a743f137bc8a7", "lon": -77.0252275, "fusion_lat": 0.0, "rental_uris": {"android": "https://dc.lft.to/lastmile_qr_scan", "ios": "https://dc.lft.to/lastmile_qr_scan"}, "type": "electric_scooter"}, {"is_reserved": 0, "is_disabled": 0, "fusion_lon": 0.0, "lat": 38.914052, "name": "cfbfae1816d24ab4a37f93f3d01c7884", "bike_id": "cfbfae1816d24ab4a37f93f3d01c7884", "lon": -77.03263116666666, "fusion_lat": 0.0, "rental_uris": {"android": "https://dc.lft.to/lastmile_qr_scan", "ios": "https://dc.lft.to/lastmile_qr_scan"}, "type": "electric_scooter"}, {"is_reserved": 0, "is_disabled": 0, "fusion_lon": 0.0, "lat": 38.915389166666664, "name": "e8d26fb716283dd9bed1ff765cf926db", "bike_id": "e8d26fb716283dd9bed1ff765cf926db", "lon": -77.03647683333334, "fusion_lat": 0.0, "rental_uris": {"android": "https://dc.lft.to/lastmile_qr_scan", "ios": "https://dc.lft.to/lastmile_qr_scan"}, "type": "electric_scooter"}, {"is_reserved": 0, "is_disabled": 0, "fusion_lon": 0.0, "lat": 38.928964, "name": "da47cd58ad10d5944a62e60aeedde79e", "bike_id": "da47cd58ad10d5944a62e60aeedde79e", "lon": -76.98433383333334, "fusion_lat": 0.0, "rental_uris": {"android": "https://dc.lft.to/lastmile_qr_scan", "ios": "https://dc.lft.to/lastmile_qr_scan"}, "type": "electric_scooter"}, {"is_reserved": 0, "is_disabled": 0, "fusion_lon": 0.0, "lat": 38.9609115, "name": "0206a935d732fd582d15cd924e3d81e4", "bike_id": "0206a935d732fd582d15cd924e3d81e4", "lon": -77.0675805, "fusion_lat": 0.0, "rental_uris": {"android": "https://dc.lft.to/lastmile_qr_scan", "ios": "https://dc.lft.to/lastmile_qr_scan"}, "type": "electric_scooter"}, {"is_reserved": 0, "is_disabled": 0, "fusion_lon": 0.0, "lat": 38.92958516666667, "name": "6536c1d3138acd418ec0ad60bb157c12", "bike_id": "6536c1d3138acd418ec0ad60bb157c12", "lon": -77.011481, "fusion_lat": 0.0, "rental_uris": {"android": "https://dc.lft.to/lastmile_qr_scan", "ios": "https://dc.lft.to/lastmile_qr_scan"}, "type": "electric_scooter"}, {"is_reserved": 0, "is_disabled": 0, "fusion_lon": 0.0, "lat": 38.94500033333333, "name": "de6557bc841e93533c2b6d5d69c12148", "bike_id": "de6557bc841e93533c2b6d5d69c12148", "lon": -77.03427983333333, "fusion_lat": 0.0, "rental_uris": {"android": "https://dc.lft.to/lastmile_qr_scan", "ios": "https://dc.lft.to/lastmile_qr_scan"}, "type": "electric_scooter"}, {"is_reserved": 0, "is_disabled": 0, "fusion_lon": 0.0, "lat": 38.90656366666666, "name": "6acb9b9a8bb2aad5103e89e463b0df91", "bike_id": "6acb9b9a8bb2aad5103e89e463b0df91", "lon": -77.0429775, "fusion_lat": 0.0, "rental_uris": {"android": "https://dc.lft.to/lastmile_qr_scan", "ios": "https://dc.lft.to/lastmile_qr_scan"}, "type": "electric_scooter"}, {"is_reserved": 0, "is_disabled": 0, "fusion_lon": 0.0, "lat": 38.91800633333333, "name": "7992eef2eff160979d2bae7c11bcada6", "bike_id": "7992eef2eff160979d2bae7c11bcada6", "lon": -77.04022083333334, "fusion_lat": 0.0, "rental_uris": {"android": "https://dc.lft.to/lastmile_qr_scan", "ios": "https://dc.lft.to/lastmile_qr_scan"}, "type": "electric_scooter"}, {"is_reserved": 0, "is_disabled": 0, "fusion_lon": 0.0, "lat": 38.958947, "name": "47bdc8dab8599b43b99cc856b290d12a", "bike_id": "47bdc8dab8599b43b99cc856b290d12a", "lon": -77.00021366666667, "fusion_lat": 0.0, "rental_uris": {"android": "https://dc.lft.to/lastmile_qr_scan", "ios": "https://dc.lft.to/lastmile_qr_scan"}, "type": "electric_scooter"}, {"is_reserved": 0, "is_disabled": 0, "fusion_lon": 0.0, "lat": 38.924265, "name": "cce4a047283bed276bae7e82edef8da4", "bike_id": "cce4a047283bed276bae7e82edef8da4", "lon": -77.0517725, "fusion_lat": 0.0, "rental_uris": {"android": "https://dc.lft.to/lastmile_qr_scan", "ios": "https://dc.lft.to/lastmile_qr_scan"}, "type": "electric_scooter"}, {"is_reserved": 0, "is_disabled": 0, "fusion_lon": 0.0, "lat": 38.9123285, "name": "69518ad7ebd8762d87d3d9a7f2d225c8", "bike_id": "69518ad7ebd8762d87d3d9a7f2d225c8", "lon": -77.06584616666666, "fusion_lat": 0.0, "rental_uris": {"android": "https://dc.lft.to/lastmile_qr_scan", "ios": "https://dc.lft.to/lastmile_qr_scan"}, "type": "electric_scooter"}, {"is_reserved": 0, "is_disabled": 0, "fusion_lon": 0.0, "lat": 38.91553566666666, "name": "69ae6675be9639bede5a4d5fa1ef45bc", "bike_id": "69ae6675be9639bede5a4d5fa1ef45bc", "lon": -77.04872583333334, "fusion_lat": 0.0, "rental_uris": {"android": "https://dc.lft.to/lastmile_qr_scan", "ios": "https://dc.lft.to/lastmile_qr_scan"}, "type": "electric_scooter"}, {"is_reserved": 0, "is_disabled": 0, "fusion_lon": 0.0, "lat": 38.8962665, "name": "307904eb5a40839a6d84c8d7a5c04826", "bike_id": "307904eb5a40839a6d84c8d7a5c04826", "lon": -77.04057083333333, "fusion_lat": 0.0, "rental_uris": {"android": "https://dc.lft.to/lastmile_qr_scan", "ios": "https://dc.lft.to/lastmile_qr_scan"}, "type": "electric_scooter"}, {"is_reserved": 0, "is_disabled": 0, "fusion_lon": 0.0, "lat": 38.9332395, "name": "15c6181ed0db62846fd32a0b6763df68", "bike_id": "15c6181ed0db62846fd32a0b6763df68", "lon": -77.02929933333333, "fusion_lat": 0.0, "rental_uris": {"android": "https://dc.lft.to/lastmile_qr_scan", "ios": "https://dc.lft.to/lastmile_qr_scan"}, "type": "electric_scooter"}, {"is_reserved": 0, "is_disabled": 0, "fusion_lon": 0.0, "lat": 38.90975983333333, "name": "3e27bc3bb242ea7f87f56713a32ba357", "bike_id": "3e27bc3bb242ea7f87f56713a32ba357", "lon": -76.98464416666667, "fusion_lat": 0.0, "rental_uris": {"android": "https://dc.lft.to/lastmile_qr_scan", "ios": "https://dc.lft.to/lastmile_qr_scan"}, "type": "electric_scooter"}, {"is_reserved": 0, "is_disabled": 0, "fusion_lon": 0.0, "lat": 38.945088, "name": "1f98c2d2f377acf90f49435e730ac1a7", "bike_id": "1f98c2d2f377acf90f49435e730ac1a7", "lon": -77.00681266666666, "fusion_lat": 0.0, "rental_uris": {"android": "https://dc.lft.to/lastmile_qr_scan", "ios": "https://dc.lft.to/lastmile_qr_scan"}, "type": "electric_bike"}, {"is_reserved": 0, "is_disabled": 0, "fusion_lon": 0.0, "lat": 38.92153616666667, "name": "2871985878559dc2da58461a20679ac5", "bike_id": "2871985878559dc2da58461a20679ac5", "lon": -77.02147166666667, "fusion_lat": 0.0, "rental_uris": {"android": "https://dc.lft.to/lastmile_qr_scan", "ios": "https://dc.lft.to/lastmile_qr_scan"}, "type": "electric_scooter"}, {"is_reserved": 0, "is_disabled": 0, "fusion_lon": 0.0, "lat": 38.932499166666666, "name": "58a8d992311dccf7ff13122710c84a97", "bike_id": "58a8d992311dccf7ff13122710c84a97", "lon": -77.02971366666667, "fusion_lat": 0.0, "rental_uris": {"android": "https://dc.lft.to/lastmile_qr_scan", "ios": "https://dc.lft.to/lastmile_qr_scan"}, "type": "electric_scooter"}, {"is_reserved": 0, "is_disabled": 0, "fusion_lon": 0.0, "lat": 38.921512666666665, "name": "5870d3f6c15dffb1c9b643a9cdc55e0c", "bike_id": "5870d3f6c15dffb1c9b643a9cdc55e0c", "lon": -77.042399, "fusion_lat": 0.0, "rental_uris": {"android": "https://dc.lft.to/lastmile_qr_scan", "ios": "https://dc.lft.to/lastmile_qr_scan"}, "type": "electric_scooter"}, {"is_reserved": 0, "is_disabled": 0, "fusion_lon": 0.0, "lat": 38.91268933333333, "name": "9bad8db1b28022d51b1ae8f2a8cf64fb", "bike_id": "9bad8db1b28022d51b1ae8f2a8cf64fb", "lon": -77.01476183333334, "fusion_lat": 0.0, "rental_uris": {"android": "https://dc.lft.to/lastmile_qr_scan", "ios": "https://dc.lft.to/lastmile_qr_scan"}, "type": "electric_scooter"}, {"is_reserved": 0, "is_disabled": 0, "fusion_lon": 0.0, "lat": 38.896926, "name": "4996f31ccd2f2131dfeae59122fe91c7", "bike_id": "4996f31ccd2f2131dfeae59122fe91c7", "lon": -76.93241733333333, "fusion_lat": 0.0, "rental_uris": {"android": "https://dc.lft.to/lastmile_qr_scan", "ios": "https://dc.lft.to/lastmile_qr_scan"}, "type": "electric_bike"}, {"is_reserved": 0, "is_disabled": 0, "fusion_lon": 0.0, "lat": 38.92128183333333, "name": "3cf0430135eddeb67632a962895de45a", "bike_id": "3cf0430135eddeb67632a962895de45a", "lon": -77.018079, "fusion_lat": 0.0, "rental_uris": {"android": "https://dc.lft.to/lastmile_qr_scan", "ios": "https://dc.lft.to/lastmile_qr_scan"}, "type": "electric_scooter"}, {"is_reserved": 0, "is_disabled": 0, "fusion_lon": 0.0, "lat": 38.937127333333336, "name": "eaf111b07bda43a7e5406f13e8d7dea4", "bike_id": "eaf111b07bda43a7e5406f13e8d7dea4", "lon": -77.02427183333333, "fusion_lat": 0.0, "rental_uris": {"android": "https://dc.lft.to/lastmile_qr_scan", "ios": "https://dc.lft.to/lastmile_qr_scan"}, "type": "electric_scooter"}, {"is_reserved": 0, "is_disabled": 0, "fusion_lon": 0.0, "lat": 38.87296516666667, "name": "9f24ec7be7fe51df0d40d2076b614505", "bike_id": "9f24ec7be7fe51df0d40d2076b614505", "lon": -77.00987033333334, "fusion_lat": 0.0, "rental_uris": {"android": "https://dc.lft.to/lastmile_qr_scan", "ios": "https://dc.lft.to/lastmile_qr_scan"}, "type": "electric_scooter"}, {"is_reserved": 0, "is_disabled": 0, "fusion_lon": 0.0, "lat": 38.89715566666667, "name": "ac0b001a5bfc8b83357e0b2115c3962c", "bike_id": "ac0b001a5bfc8b83357e0b2115c3962c", "lon": -77.0083165, "fusion_lat": 0.0, "rental_uris": {"android": "https://dc.lft.to/lastmile_qr_scan", "ios": "https://dc.lft.to/lastmile_qr_scan"}, "type": "electric_scooter"}, {"is_reserved": 0, "is_disabled": 0, "fusion_lon": 0.0, "lat": 38.8751965, "name": "7dfb550cd7225197a3c938b854b0181d", "bike_id": "7dfb550cd7225197a3c938b854b0181d", "lon": -77.0122795, "fusion_lat": 0.0, "rental_uris": {"android": "https://dc.lft.to/lastmile_qr_scan", "ios": "https://dc.lft.to/lastmile_qr_scan"}, "type": "electric_scooter"}, {"is_reserved": 0, "is_disabled": 0, "fusion_lon": 0.0, "lat": 38.925483166666666, "name": "5cc5e9270b692a8487f70ab9742b1977", "bike_id": "5cc5e9270b692a8487f70ab9742b1977", "lon": -77.0006035, "fusion_lat": 0.0, "rental_uris": {"android": "https://dc.lft.to/lastmile_qr_scan", "ios": "https://dc.lft.to/lastmile_qr_scan"}, "type": "electric_scooter"}, {"is_reserved": 0, "is_disabled": 0, "fusion_lon": 0.0, "lat": 38.928254833333334, "name": "51c260bb75fff8e0cca8e20c113cc3b1", "bike_id": "51c260bb75fff8e0cca8e20c113cc3b1", "lon": -77.02299883333333, "fusion_lat": 0.0, "rental_uris": {"android": "https://dc.lft.to/lastmile_qr_scan", "ios": "https://dc.lft.to/lastmile_qr_scan"}, "type": "electric_scooter"}, {"is_reserved": 0, "is_disabled": 0, "fusion_lon": 0.0, "lat": 38.919826, "name": "7b03df1ecadac07b5fcf5b185004a870", "bike_id": "7b03df1ecadac07b5fcf5b185004a870", "lon": -77.0219695, "fusion_lat": 0.0, "rental_uris": {"android": "https://dc.lft.to/lastmile_qr_scan", "ios": "https://dc.lft.to/lastmile_qr_scan"}, "type": "electric_scooter"}, {"is_reserved": 0, "is_disabled": 0, "fusion_lon": 0.0, "lat": 38.92728266666667, "name": "87168bd56fb4705831088c9124dd6cec", "bike_id": "87168bd56fb4705831088c9124dd6cec", "lon": -77.02275, "fusion_lat": 0.0, "rental_uris": {"android": "https://dc.lft.to/lastmile_qr_scan", "ios": "https://dc.lft.to/lastmile_qr_scan"}, "type": "electric_scooter"}, {"is_reserved": 0, "is_disabled": 0, "fusion_lon": 0.0, "lat": 38.90958533333333, "name": "18879f2fd2aa56f033f7e27c27733bde", "bike_id": "18879f2fd2aa56f033f7e27c27733bde", "lon": -77.02386616666666, "fusion_lat": 0.0, "rental_uris": {"android": "https://dc.lft.to/lastmile_qr_scan", "ios": "https://dc.lft.to/lastmile_qr_scan"}, "type": "electric_scooter"}, {"is_reserved": 0, "is_disabled": 0, "fusion_lon": 0.0, "lat": 38.895046, "name": "cfc389fb864b2dea4ac636d24be8f8eb", "bike_id": "cfc389fb864b2dea4ac636d24be8f8eb", "lon": -77.046416, "fusion_lat": 0.0, "rental_uris": {"android": "https://dc.lft.to/lastmile_qr_scan", "ios": "https://dc.lft.to/lastmile_qr_scan"}, "type": "electric_scooter"}, {"is_reserved": 0, "is_disabled": 0, "fusion_lon": 0.0, "lat": 38.918132166666666, "name": "628574f2ea308fde85c772331354b009", "bike_id": "628574f2ea308fde85c772331354b009", "lon": -77.01418283333334, "fusion_lat": 0.0, "rental_uris": {"android": "https://dc.lft.to/lastmile_qr_scan", "ios": "https://dc.lft.to/lastmile_qr_scan"}, "type": "electric_scooter"}, {"is_reserved": 0, "is_disabled": 0, "fusion_lon": 0.0, "lat": 38.957579833333334, "name": "d8e8d24135756a1f5ff6c52c8f455d21", "bike_id": "d8e8d24135756a1f5ff6c52c8f455d21", "lon": -77.00914333333333, "fusion_lat": 0.0, "rental_uris": {"android": "https://dc.lft.to/lastmile_qr_scan", "ios": "https://dc.lft.to/lastmile_qr_scan"}, "type": "electric_scooter"}, {"is_reserved": 0, "is_disabled": 0, "fusion_lon": 0.0, "lat": 38.93075733333333, "name": "d6dd9f036bba4cfd56e7f123d1630d5f", "bike_id": "d6dd9f036bba4cfd56e7f123d1630d5f", "lon": -77.023432, "fusion_lat": 0.0, "rental_uris": {"android": "https://dc.lft.to/lastmile_qr_scan", "ios": "https://dc.lft.to/lastmile_qr_scan"}, "type": "electric_scooter"}, {"is_reserved": 0, "is_disabled": 0, "fusion_lon": 0.0, "lat": 38.87074066666667, "name": "1fa728f14dad249978fd64c77f140b34", "bike_id": "1fa728f14dad249978fd64c77f140b34", "lon": -77.11043216666667, "fusion_lat": 0.0, "rental_uris": {"android": "https://dc.lft.to/lastmile_qr_scan", "ios": "https://dc.lft.to/lastmile_qr_scan"}, "type": "electric_bike"}, {"is_reserved": 0, "is_disabled": 0, "fusion_lon": 0.0, "lat": 38.9240905, "name": "4aa9da4edfbb7e0512922133db90b45e", "bike_id": "4aa9da4edfbb7e0512922133db90b45e", "lon": -77.0195005, "fusion_lat": 0.0, "rental_uris": {"android": "https://dc.lft.to/lastmile_qr_scan", "ios": "https://dc.lft.to/lastmile_qr_scan"}, "type": "electric_scooter"}, {"is_reserved": 0, "is_disabled": 0, "fusion_lon": 0.0, "lat": 38.9119085, "name": "7bcaf5b588f2b95e9b08796292d82272", "bike_id": "7bcaf5b588f2b95e9b08796292d82272", "lon": -77.01080716666667, "fusion_lat": 0.0, "rental_uris": {"android": "https://dc.lft.to/lastmile_qr_scan", "ios": "https://dc.lft.to/lastmile_qr_scan"}, "type": "electric_scooter"}, {"is_reserved": 0, "is_disabled": 0, "fusion_lon": 0.0, "lat": 38.91686266666667, "name": "d9c43f36b985bf4946cd479bcbc765ab", "bike_id": "d9c43f36b985bf4946cd479bcbc765ab", "lon": -77.029532, "fusion_lat": 0.0, "rental_uris": {"android": "https://dc.lft.to/lastmile_qr_scan", "ios": "https://dc.lft.to/lastmile_qr_scan"}, "type": "electric_scooter"}, {"is_reserved": 0, "is_disabled": 0, "fusion_lon": 0.0, "lat": 38.901217333333335, "name": "6f0859ee1cba548a8f0a2ed2555343e3", "bike_id": "6f0859ee1cba548a8f0a2ed2555343e3", "lon": -77.031739, "fusion_lat": 0.0, "rental_uris": {"android": "https://dc.lft.to/lastmile_qr_scan", "ios": "https://dc.lft.to/lastmile_qr_scan"}, "type": "electric_scooter"}, {"is_reserved": 0, "is_disabled": 0, "fusion_lon": 0.0, "lat": 38.919349, "name": "5b653384eba483d73efd37e3287e7236", "bike_id": "5b653384eba483d73efd37e3287e7236", "lon": -77.04555766666667, "fusion_lat": 0.0, "rental_uris": {"android": "https://dc.lft.to/lastmile_qr_scan", "ios": "https://dc.lft.to/lastmile_qr_scan"}, "type": "electric_scooter"}, {"is_reserved": 0, "is_disabled": 0, "fusion_lon": 0.0, "lat": 38.900586833333335, "name": "ccddbecfc7b60391411c8056f5be4c99", "bike_id": "ccddbecfc7b60391411c8056f5be4c99", "lon": -77.04344316666666, "fusion_lat": 0.0, "rental_uris": {"android": "https://dc.lft.to/lastmile_qr_scan", "ios": "https://dc.lft.to/lastmile_qr_scan"}, "type": "electric_scooter"}, {"is_reserved": 0, "is_disabled": 0, "fusion_lon": 0.0, "lat": 38.90386783333334, "name": "bbaee3472dc4bc11a2e6ca313eba35a0", "bike_id": "bbaee3472dc4bc11a2e6ca313eba35a0", "lon": -77.06857633333334, "fusion_lat": 0.0, "rental_uris": {"android": "https://dc.lft.to/lastmile_qr_scan", "ios": "https://dc.lft.to/lastmile_qr_scan"}, "type": "electric_scooter"}, {"is_reserved": 0, "is_disabled": 0, "fusion_lon": 0.0, "lat": 38.903457333333336, "name": "ad3a4c3792503f95447323f298302e73", "bike_id": "ad3a4c3792503f95447323f298302e73", "lon": -76.982758, "fusion_lat": 0.0, "rental_uris": {"android": "https://dc.lft.to/lastmile_qr_scan", "ios": "https://dc.lft.to/lastmile_qr_scan"}, "type": "electric_scooter"}, {"is_reserved": 0, "is_disabled": 0, "fusion_lon": 0.0, "lat": 38.90523316666667, "name": "d3b676c172053ee1206c4963411f96e5", "bike_id": "d3b676c172053ee1206c4963411f96e5", "lon": -77.06451566666667, "fusion_lat": 0.0, "rental_uris": {"android": "https://dc.lft.to/lastmile_qr_scan", "ios": "https://dc.lft.to/lastmile_qr_scan"}, "type": "electric_scooter"}, {"is_reserved": 0, "is_disabled": 0, "fusion_lon": 0.0, "lat": 38.927574666666665, "name": "8304806cd447e15e5e3bc52a49d82f9c", "bike_id": "8304806cd447e15e5e3bc52a49d82f9c", "lon": -77.03205583333333, "fusion_lat": 0.0, "rental_uris": {"android": "https://dc.lft.to/lastmile_qr_scan", "ios": "https://dc.lft.to/lastmile_qr_scan"}, "type": "electric_scooter"}, {"is_reserved": 0, "is_disabled": 0, "fusion_lon": 0.0, "lat": 38.9111285, "name": "1f1699d63c9e0abeab17b792f60eb22f", "bike_id": "1f1699d63c9e0abeab17b792f60eb22f", "lon": -77.045151, "fusion_lat": 0.0, "rental_uris": {"android": "https://dc.lft.to/lastmile_qr_scan", "ios": "https://dc.lft.to/lastmile_qr_scan"}, "type": "electric_scooter"}, {"is_reserved": 0, "is_disabled": 0, "fusion_lon": 0.0, "lat": 38.89972433333333, "name": "c0594deb97beca2fd1eccb72dfa2e5ce", "bike_id": "c0594deb97beca2fd1eccb72dfa2e5ce", "lon": -77.033602, "fusion_lat": 0.0, "rental_uris": {"android": "https://dc.lft.to/lastmile_qr_scan", "ios": "https://dc.lft.to/lastmile_qr_scan"}, "type": "electric_scooter"}, {"is_reserved": 0, "is_disabled": 0, "fusion_lon": 0.0, "lat": 38.938235, "name": "e7dc1f3b31ae5f155d53586cffcbf78c", "bike_id": "e7dc1f3b31ae5f155d53586cffcbf78c", "lon": -77.05988616666667, "fusion_lat": 0.0, "rental_uris": {"android": "https://dc.lft.to/lastmile_qr_scan", "ios": "https://dc.lft.to/lastmile_qr_scan"}, "type": "electric_scooter"}, {"is_reserved": 0, "is_disabled": 0, "fusion_lon": 0.0, "lat": 38.89221166666667, "name": "e3db0f73581ab1b044045199ef6c7637", "bike_id": "e3db0f73581ab1b044045199ef6c7637", "lon": -77.0436405, "fusion_lat": 0.0, "rental_uris": {"android": "https://dc.lft.to/lastmile_qr_scan", "ios": "https://dc.lft.to/lastmile_qr_scan"}, "type": "electric_scooter"}, {"is_reserved": 0, "is_disabled": 0, "fusion_lon": 0.0, "lat": 38.878915166666665, "name": "36055c98f0e75ed06c25ceabbfbf849e", "bike_id": "36055c98f0e75ed06c25ceabbfbf849e", "lon": -77.005781, "fusion_lat": 0.0, "rental_uris": {"android": "https://dc.lft.to/lastmile_qr_scan", "ios": "https://dc.lft.to/lastmile_qr_scan"}, "type": "electric_scooter"}, {"is_reserved": 0, "is_disabled": 0, "fusion_lon": 0.0, "lat": 38.9162995, "name": "a28a98da990e2539ca816e41268ef2cb", "bike_id": "a28a98da990e2539ca816e41268ef2cb", "lon": -77.04811533333333, "fusion_lat": 0.0, "rental_uris": {"android": "https://dc.lft.to/lastmile_qr_scan", "ios": "https://dc.lft.to/lastmile_qr_scan"}, "type": "electric_scooter"}, {"is_reserved": 0, "is_disabled": 0, "fusion_lon": 0.0, "lat": 38.92063516666666, "name": "ab6b8a925dff60bde7c9a852b5bb2e1d", "bike_id": "ab6b8a925dff60bde7c9a852b5bb2e1d", "lon": -77.04195483333334, "fusion_lat": 0.0, "rental_uris": {"android": "https://dc.lft.to/lastmile_qr_scan", "ios": "https://dc.lft.to/lastmile_qr_scan"}, "type": "electric_scooter"}, {"is_reserved": 0, "is_disabled": 0, "fusion_lon": 0.0, "lat": 38.935253833333334, "name": "7b672440a48ccf5b87f5f903946c9ff6", "bike_id": "7b672440a48ccf5b87f5f903946c9ff6", "lon": -77.0543565, "fusion_lat": 0.0, "rental_uris": {"android": "https://dc.lft.to/lastmile_qr_scan", "ios": "https://dc.lft.to/lastmile_qr_scan"}, "type": "electric_scooter"}, {"is_reserved": 0, "is_disabled": 0, "fusion_lon": 0.0, "lat": 38.900348666666666, "name": "ec1b887f89e8152b9eccaacd4481dfa6", "bike_id": "ec1b887f89e8152b9eccaacd4481dfa6", "lon": -77.0020195, "fusion_lat": 0.0, "rental_uris": {"android": "https://dc.lft.to/lastmile_qr_scan", "ios": "https://dc.lft.to/lastmile_qr_scan"}, "type": "electric_scooter"}, {"is_reserved": 0, "is_disabled": 0, "fusion_lon": 0.0, "lat": 38.84502416666667, "name": "45cc314051a6af3b78512e7a304f8768", "bike_id": "45cc314051a6af3b78512e7a304f8768", "lon": -76.99364316666667, "fusion_lat": 0.0, "rental_uris": {"android": "https://dc.lft.to/lastmile_qr_scan", "ios": "https://dc.lft.to/lastmile_qr_scan"}, "type": "electric_bike"}, {"is_reserved": 0, "is_disabled": 0, "fusion_lon": 0.0, "lat": 38.99413766666667, "name": "d60066ce88ac61a083ab22b4aad6de03", "bike_id": "d60066ce88ac61a083ab22b4aad6de03", "lon": -77.0180105, "fusion_lat": 0.0, "rental_uris": {"android": "https://dc.lft.to/lastmile_qr_scan", "ios": "https://dc.lft.to/lastmile_qr_scan"}, "type": "electric_bike"}, {"is_reserved": 0, "is_disabled": 0, "fusion_lon": 0.0, "lat": 38.927937666666665, "name": "fdd9e7012dc36c6e807fdb88dbfdc231", "bike_id": "fdd9e7012dc36c6e807fdb88dbfdc231", "lon": -77.037191, "fusion_lat": 0.0, "rental_uris": {"android": "https://dc.lft.to/lastmile_qr_scan", "ios": "https://dc.lft.to/lastmile_qr_scan"}, "type": "electric_scooter"}, {"is_reserved": 0, "is_disabled": 0, "fusion_lon": 0.0, "lat": 38.921603833333336, "name": "7c421bd3f9e5d92a9c58be3089c3c56a", "bike_id": "7c421bd3f9e5d92a9c58be3089c3c56a", "lon": -77.03382966666666, "fusion_lat": 0.0, "rental_uris": {"android": "https://dc.lft.to/lastmile_qr_scan", "ios": "https://dc.lft.to/lastmile_qr_scan"}, "type": "electric_scooter"}, {"is_reserved": 0, "is_disabled": 0, "fusion_lon": 0.0, "lat": 38.93719, "name": "4f811071c4f63887deee3c60faa9871c", "bike_id": "4f811071c4f63887deee3c60faa9871c", "lon": -77.0328685, "fusion_lat": 0.0, "rental_uris": {"android": "https://dc.lft.to/lastmile_qr_scan", "ios": "https://dc.lft.to/lastmile_qr_scan"}, "type": "electric_scooter"}, {"is_reserved": 0, "is_disabled": 0, "fusion_lon": 0.0, "lat": 38.887116, "name": "c029edc606448f72d5768ab409808ce2", "bike_id": "c029edc606448f72d5768ab409808ce2", "lon": -76.98339516666667, "fusion_lat": 0.0, "rental_uris": {"android": "https://dc.lft.to/lastmile_qr_scan", "ios": "https://dc.lft.to/lastmile_qr_scan"}, "type": "electric_scooter"}, {"is_reserved": 0, "is_disabled": 0, "fusion_lon": 0.0, "lat": 38.9447275, "name": "cf00af0fa85e0cc75ed2e072722ee67f", "bike_id": "cf00af0fa85e0cc75ed2e072722ee67f", "lon": -76.98690633333334, "fusion_lat": 0.0, "rental_uris": {"android": "https://dc.lft.to/lastmile_qr_scan", "ios": "https://dc.lft.to/lastmile_qr_scan"}, "type": "electric_bike"}, {"is_reserved": 0, "is_disabled": 0, "fusion_lon": 0.0, "lat": 38.924831833333336, "name": "4d293ed0d76be4975e9b8c07ed7fc538", "bike_id": "4d293ed0d76be4975e9b8c07ed7fc538", "lon": -77.02272266666667, "fusion_lat": 0.0, "rental_uris": {"android": "https://dc.lft.to/lastmile_qr_scan", "ios": "https://dc.lft.to/lastmile_qr_scan"}, "type": "electric_scooter"}, {"is_reserved": 0, "is_disabled": 0, "fusion_lon": 0.0, "lat": 38.9426485, "name": "6aa73b64e2e2747ea03ae28c3ca8f983", "bike_id": "6aa73b64e2e2747ea03ae28c3ca8f983", "lon": -77.0258725, "fusion_lat": 0.0, "rental_uris": {"android": "https://dc.lft.to/lastmile_qr_scan", "ios": "https://dc.lft.to/lastmile_qr_scan"}, "type": "electric_scooter"}, {"is_reserved": 0, "is_disabled": 0, "fusion_lon": 0.0, "lat": 38.920654166666665, "name": "830b19360946b452c04829d75b61b201", "bike_id": "830b19360946b452c04829d75b61b201", "lon": -77.02215483333333, "fusion_lat": 0.0, "rental_uris": {"android": "https://dc.lft.to/lastmile_qr_scan", "ios": "https://dc.lft.to/lastmile_qr_scan"}, "type": "electric_scooter"}, {"is_reserved": 0, "is_disabled": 0, "fusion_lon": 0.0, "lat": 38.90845433333333, "name": "c771d7ff396808818b1899ac9e9a8637", "bike_id": "c771d7ff396808818b1899ac9e9a8637", "lon": -77.0494535, "fusion_lat": 0.0, "rental_uris": {"android": "https://dc.lft.to/lastmile_qr_scan", "ios": "https://dc.lft.to/lastmile_qr_scan"}, "type": "electric_scooter"}, {"is_reserved": 0, "is_disabled": 0, "fusion_lon": 0.0, "lat": 38.89606716666667, "name": "61eff030a57b7a305184a8ca5a7d2b6c", "bike_id": "61eff030a57b7a305184a8ca5a7d2b6c", "lon": -77.04517633333333, "fusion_lat": 0.0, "rental_uris": {"android": "https://dc.lft.to/lastmile_qr_scan", "ios": "https://dc.lft.to/lastmile_qr_scan"}, "type": "electric_scooter"}, {"is_reserved": 0, "is_disabled": 0, "fusion_lon": 0.0, "lat": 38.92236, "name": "1bda446ed21a9282e94563426f577c07", "bike_id": "1bda446ed21a9282e94563426f577c07", "lon": -77.02150033333334, "fusion_lat": 0.0, "rental_uris": {"android": "https://dc.lft.to/lastmile_qr_scan", "ios": "https://dc.lft.to/lastmile_qr_scan"}, "type": "electric_scooter"}, {"is_reserved": 0, "is_disabled": 0, "fusion_lon": 0.0, "lat": 38.95309533333333, "name": "65f6bada6b43341cce56df4629ea8d17", "bike_id": "65f6bada6b43341cce56df4629ea8d17", "lon": -76.98182883333334, "fusion_lat": 0.0, "rental_uris": {"android": "https://dc.lft.to/lastmile_qr_scan", "ios": "https://dc.lft.to/lastmile_qr_scan"}, "type": "electric_bike"}, {"is_reserved": 0, "is_disabled": 0, "fusion_lon": 0.0, "lat": 38.869478, "name": "e6a489fdf3abc5c259696ca90faf740e", "bike_id": "e6a489fdf3abc5c259696ca90faf740e", "lon": -77.13308916666666, "fusion_lat": 0.0, "rental_uris": {"android": "https://dc.lft.to/lastmile_qr_scan", "ios": "https://dc.lft.to/lastmile_qr_scan"}, "type": "electric_bike"}, {"is_reserved": 0, "is_disabled": 0, "fusion_lon": 0.0, "lat": 38.905765333333335, "name": "7ff27c78da694423ee2b6424c04f04c0", "bike_id": "7ff27c78da694423ee2b6424c04f04c0", "lon": -77.0330175, "fusion_lat": 0.0, "rental_uris": {"android": "https://dc.lft.to/lastmile_qr_scan", "ios": "https://dc.lft.to/lastmile_qr_scan"}, "type": "electric_scooter"}, {"is_reserved": 0, "is_disabled": 0, "fusion_lon": 0.0, "lat": 38.9018005, "name": "ac9098ec8a538aa6dc68c5ffce763979", "bike_id": "ac9098ec8a538aa6dc68c5ffce763979", "lon": -77.0218325, "fusion_lat": 0.0, "rental_uris": {"android": "https://dc.lft.to/lastmile_qr_scan", "ios": "https://dc.lft.to/lastmile_qr_scan"}, "type": "electric_scooter"}, {"is_reserved": 0, "is_disabled": 0, "fusion_lon": 0.0, "lat": 38.919909, "name": "53de0d6fbc0fea3c606f48ea93dafa01", "bike_id": "53de0d6fbc0fea3c606f48ea93dafa01", "lon": -77.02176683333333, "fusion_lat": 0.0, "rental_uris": {"android": "https://dc.lft.to/lastmile_qr_scan", "ios": "https://dc.lft.to/lastmile_qr_scan"}, "type": "electric_scooter"}, {"is_reserved": 0, "is_disabled": 0, "fusion_lon": 0.0, "lat": 38.92296733333333, "name": "f50b76960dbdac4cd8b2a3b6f5d72d22", "bike_id": "f50b76960dbdac4cd8b2a3b6f5d72d22", "lon": -77.01951683333333, "fusion_lat": 0.0, "rental_uris": {"android": "https://dc.lft.to/lastmile_qr_scan", "ios": "https://dc.lft.to/lastmile_qr_scan"}, "type": "electric_scooter"}, {"is_reserved": 0, "is_disabled": 0, "fusion_lon": 0.0, "lat": 38.90870233333333, "name": "131ca2ad2dd8d25564def4a3162754aa", "bike_id": "131ca2ad2dd8d25564def4a3162754aa", "lon": -77.02600933333333, "fusion_lat": 0.0, "rental_uris": {"android": "https://dc.lft.to/lastmile_qr_scan", "ios": "https://dc.lft.to/lastmile_qr_scan"}, "type": "electric_scooter"}, {"is_reserved": 0, "is_disabled": 0, "fusion_lon": 0.0, "lat": 38.92675033333333, "name": "14b54a506545f826737dbbdb43a4cdeb", "bike_id": "14b54a506545f826737dbbdb43a4cdeb", "lon": -77.03232066666666, "fusion_lat": 0.0, "rental_uris": {"android": "https://dc.lft.to/lastmile_qr_scan", "ios": "https://dc.lft.to/lastmile_qr_scan"}, "type": "electric_scooter"}, {"is_reserved": 0, "is_disabled": 0, "fusion_lon": 0.0, "lat": 38.923544166666666, "name": "30894ce381af505117df61314ae8ddcf", "bike_id": "30894ce381af505117df61314ae8ddcf", "lon": -77.01915833333334, "fusion_lat": 0.0, "rental_uris": {"android": "https://dc.lft.to/lastmile_qr_scan", "ios": "https://dc.lft.to/lastmile_qr_scan"}, "type": "electric_scooter"}, {"is_reserved": 0, "is_disabled": 0, "fusion_lon": 0.0, "lat": 38.92612466666667, "name": "2e9c7da5f7f46cfb52a664b552cfff70", "bike_id": "2e9c7da5f7f46cfb52a664b552cfff70", "lon": -77.02162, "fusion_lat": 0.0, "rental_uris": {"android": "https://dc.lft.to/lastmile_qr_scan", "ios": "https://dc.lft.to/lastmile_qr_scan"}, "type": "electric_scooter"}, {"is_reserved": 0, "is_disabled": 0, "fusion_lon": 0.0, "lat": 38.90024733333333, "name": "26e04466043693d79dee0c59cb94c7c8", "bike_id": "26e04466043693d79dee0c59cb94c7c8", "lon": -77.01187716666666, "fusion_lat": 0.0, "rental_uris": {"android": "https://dc.lft.to/lastmile_qr_scan", "ios": "https://dc.lft.to/lastmile_qr_scan"}, "type": "electric_scooter"}, {"is_reserved": 0, "is_disabled": 0, "fusion_lon": 0.0, "lat": 38.93626533333333, "name": "1797db9f76e213562483c70723129a64", "bike_id": "1797db9f76e213562483c70723129a64", "lon": -77.0643375, "fusion_lat": 0.0, "rental_uris": {"android": "https://dc.lft.to/lastmile_qr_scan", "ios": "https://dc.lft.to/lastmile_qr_scan"}, "type": "electric_scooter"}, {"is_reserved": 0, "is_disabled": 0, "fusion_lon": 0.0, "lat": 38.926338, "name": "f92735582c314d77594824e2578967a7", "bike_id": "f92735582c314d77594824e2578967a7", "lon": -77.0133225, "fusion_lat": 0.0, "rental_uris": {"android": "https://dc.lft.to/lastmile_qr_scan", "ios": "https://dc.lft.to/lastmile_qr_scan"}, "type": "electric_scooter"}, {"is_reserved": 0, "is_disabled": 0, "fusion_lon": 0.0, "lat": 38.90778733333333, "name": "cf9fe2b25939e9fe6fc26bc634b5042e", "bike_id": "cf9fe2b25939e9fe6fc26bc634b5042e", "lon": -76.99717266666667, "fusion_lat": 0.0, "rental_uris": {"android": "https://dc.lft.to/lastmile_qr_scan", "ios": "https://dc.lft.to/lastmile_qr_scan"}, "type": "electric_scooter"}, {"is_reserved": 0, "is_disabled": 0, "fusion_lon": 0.0, "lat": 38.91403533333333, "name": "fe76cfb0d44cc1c89b9819888c2b67f2", "bike_id": "fe76cfb0d44cc1c89b9819888c2b67f2", "lon": -77.01827016666667, "fusion_lat": 0.0, "rental_uris": {"android": "https://dc.lft.to/lastmile_qr_scan", "ios": "https://dc.lft.to/lastmile_qr_scan"}, "type": "electric_scooter"}, {"is_reserved": 0, "is_disabled": 0, "fusion_lon": 0.0, "lat": 38.901834, "name": "e2c9f93ce5470e52f1a91d5242616257", "bike_id": "e2c9f93ce5470e52f1a91d5242616257", "lon": -77.05239266666666, "fusion_lat": 0.0, "rental_uris": {"android": "https://dc.lft.to/lastmile_qr_scan", "ios": "https://dc.lft.to/lastmile_qr_scan"}, "type": "electric_scooter"}, {"is_reserved": 0, "is_disabled": 0, "fusion_lon": 0.0, "lat": 38.91329916666667, "name": "884a701716204eb9d1aa66e9d5a85455", "bike_id": "884a701716204eb9d1aa66e9d5a85455", "lon": -77.0318605, "fusion_lat": 0.0, "rental_uris": {"android": "https://dc.lft.to/lastmile_qr_scan", "ios": "https://dc.lft.to/lastmile_qr_scan"}, "type": "electric_scooter"}, {"is_reserved": 0, "is_disabled": 0, "fusion_lon": 0.0, "lat": 38.89941433333333, "name": "63e1e37c3477a9708ee39a58df2a1d90", "bike_id": "63e1e37c3477a9708ee39a58df2a1d90", "lon": -77.045117, "fusion_lat": 0.0, "rental_uris": {"android": "https://dc.lft.to/lastmile_qr_scan", "ios": "https://dc.lft.to/lastmile_qr_scan"}, "type": "electric_scooter"}, {"is_reserved": 0, "is_disabled": 0, "fusion_lon": 0.0, "lat": 38.916299333333335, "name": "9f86910423fedce39556aeb6996543f1", "bike_id": "9f86910423fedce39556aeb6996543f1", "lon": -77.04544833333334, "fusion_lat": 0.0, "rental_uris": {"android": "https://dc.lft.to/lastmile_qr_scan", "ios": "https://dc.lft.to/lastmile_qr_scan"}, "type": "electric_scooter"}, {"is_reserved": 0, "is_disabled": 0, "fusion_lon": 0.0, "lat": 38.92763566666667, "name": "44c3f8224550e0e826337759d67b4cfe", "bike_id": "44c3f8224550e0e826337759d67b4cfe", "lon": -77.0278445, "fusion_lat": 0.0, "rental_uris": {"android": "https://dc.lft.to/lastmile_qr_scan", "ios": "https://dc.lft.to/lastmile_qr_scan"}, "type": "electric_scooter"}, {"is_reserved": 0, "is_disabled": 0, "fusion_lon": 0.0, "lat": 38.950591, "name": "a42b13dc8b1716b1ca117e106ec42c46", "bike_id": "a42b13dc8b1716b1ca117e106ec42c46", "lon": -77.0663625, "fusion_lat": 0.0, "rental_uris": {"android": "https://dc.lft.to/lastmile_qr_scan", "ios": "https://dc.lft.to/lastmile_qr_scan"}, "type": "electric_bike"}, {"is_reserved": 0, "is_disabled": 0, "fusion_lon": 0.0, "lat": 38.9145145, "name": "069df1bc4de3af836e6e7b4addce0720", "bike_id": "069df1bc4de3af836e6e7b4addce0720", "lon": -76.97279833333333, "fusion_lat": 0.0, "rental_uris": {"android": "https://dc.lft.to/lastmile_qr_scan", "ios": "https://dc.lft.to/lastmile_qr_scan"}, "type": "electric_bike"}, {"is_reserved": 0, "is_disabled": 0, "fusion_lon": 0.0, "lat": 38.882754, "name": "ee95fc563887f2725e7f17a8c76cc519", "bike_id": "ee95fc563887f2725e7f17a8c76cc519", "lon": -76.93243383333333, "fusion_lat": 0.0, "rental_uris": {"android": "https://dc.lft.to/lastmile_qr_scan", "ios": "https://dc.lft.to/lastmile_qr_scan"}, "type": "electric_bike"}, {"is_reserved": 0, "is_disabled": 0, "fusion_lon": 0.0, "lat": 38.92452633333333, "name": "25d3e3c27f8f44bdc779c11543e95233", "bike_id": "25d3e3c27f8f44bdc779c11543e95233", "lon": -77.03284633333334, "fusion_lat": 0.0, "rental_uris": {"android": "https://dc.lft.to/lastmile_qr_scan", "ios": "https://dc.lft.to/lastmile_qr_scan"}, "type": "electric_scooter"}, {"is_reserved": 0, "is_disabled": 0, "fusion_lon": 0.0, "lat": 38.922412333333334, "name": "f0e25e874f343df5e9ac56a082032ef3", "bike_id": "f0e25e874f343df5e9ac56a082032ef3", "lon": -77.035215, "fusion_lat": 0.0, "rental_uris": {"android": "https://dc.lft.to/lastmile_qr_scan", "ios": "https://dc.lft.to/lastmile_qr_scan"}, "type": "electric_scooter"}, {"is_reserved": 0, "is_disabled": 0, "fusion_lon": 0.0, "lat": 38.89727633333333, "name": "5055553556402098dcf47b4044e91061", "bike_id": "5055553556402098dcf47b4044e91061", "lon": -77.0318315, "fusion_lat": 0.0, "rental_uris": {"android": "https://dc.lft.to/lastmile_qr_scan", "ios": "https://dc.lft.to/lastmile_qr_scan"}, "type": "electric_scooter"}, {"is_reserved": 0, "is_disabled": 0, "fusion_lon": 0.0, "lat": 38.84690333333333, "name": "a1183eccc45d943b394357578367962e", "bike_id": "a1183eccc45d943b394357578367962e", "lon": -76.996203, "fusion_lat": 0.0, "rental_uris": {"android": "https://dc.lft.to/lastmile_qr_scan", "ios": "https://dc.lft.to/lastmile_qr_scan"}, "type": "electric_bike"}, {"is_reserved": 0, "is_disabled": 0, "fusion_lon": 0.0, "lat": 38.920613, "name": "2bc960f3f7fa9081a26f55ea8a534515", "bike_id": "2bc960f3f7fa9081a26f55ea8a534515", "lon": -77.03477766666667, "fusion_lat": 0.0, "rental_uris": {"android": "https://dc.lft.to/lastmile_qr_scan", "ios": "https://dc.lft.to/lastmile_qr_scan"}, "type": "electric_scooter"}, {"is_reserved": 0, "is_disabled": 0, "fusion_lon": 0.0, "lat": 38.92231483333333, "name": "173f923a0519b2c16a036139bcf5b3e4", "bike_id": "173f923a0519b2c16a036139bcf5b3e4", "lon": -77.02111533333333, "fusion_lat": 0.0, "rental_uris": {"android": "https://dc.lft.to/lastmile_qr_scan", "ios": "https://dc.lft.to/lastmile_qr_scan"}, "type": "electric_scooter"}, {"is_reserved": 0, "is_disabled": 0, "fusion_lon": 0.0, "lat": 38.9023815, "name": "9fe2dfed450df3775648ab068d015d79", "bike_id": "9fe2dfed450df3775648ab068d015d79", "lon": -77.002018, "fusion_lat": 0.0, "rental_uris": {"android": "https://dc.lft.to/lastmile_qr_scan", "ios": "https://dc.lft.to/lastmile_qr_scan"}, "type": "electric_scooter"}, {"is_reserved": 0, "is_disabled": 0, "fusion_lon": 0.0, "lat": 38.909038333333335, "name": "657bbaad3cc14248788427e90fc7f6a1", "bike_id": "657bbaad3cc14248788427e90fc7f6a1", "lon": -77.0726685, "fusion_lat": 0.0, "rental_uris": {"android": "https://dc.lft.to/lastmile_qr_scan", "ios": "https://dc.lft.to/lastmile_qr_scan"}, "type": "electric_scooter"}, {"is_reserved": 0, "is_disabled": 0, "fusion_lon": 0.0, "lat": 38.87668933333333, "name": "e8b6e47d67ea1914bf10daa6b33dda71", "bike_id": "e8b6e47d67ea1914bf10daa6b33dda71", "lon": -77.0041035, "fusion_lat": 0.0, "rental_uris": {"android": "https://dc.lft.to/lastmile_qr_scan", "ios": "https://dc.lft.to/lastmile_qr_scan"}, "type": "electric_scooter"}, {"is_reserved": 0, "is_disabled": 0, "fusion_lon": 0.0, "lat": 38.865246666666664, "name": "8ee180244df02be918cb57ebc76d50d5", "bike_id": "8ee180244df02be918cb57ebc76d50d5", "lon": -76.96910833333334, "fusion_lat": 0.0, "rental_uris": {"android": "https://dc.lft.to/lastmile_qr_scan", "ios": "https://dc.lft.to/lastmile_qr_scan"}, "type": "electric_scooter"}, {"is_reserved": 0, "is_disabled": 0, "fusion_lon": 0.0, "lat": 38.88443433333333, "name": "66b418007b625ce022c2bc8fe0a52534", "bike_id": "66b418007b625ce022c2bc8fe0a52534", "lon": -76.95767983333333, "fusion_lat": 0.0, "rental_uris": {"android": "https://dc.lft.to/lastmile_qr_scan", "ios": "https://dc.lft.to/lastmile_qr_scan"}, "type": "electric_scooter"}, {"is_reserved": 0, "is_disabled": 0, "fusion_lon": 0.0, "lat": 38.9030715, "name": "209cc835a137078943698c063d992d01", "bike_id": "209cc835a137078943698c063d992d01", "lon": -76.97500566666666, "fusion_lat": 0.0, "rental_uris": {"android": "https://dc.lft.to/lastmile_qr_scan", "ios": "https://dc.lft.to/lastmile_qr_scan"}, "type": "electric_scooter"}, {"is_reserved": 0, "is_disabled": 0, "fusion_lon": 0.0, "lat": 38.88429083333333, "name": "4ad18692773bfa48424620d1e51a513a", "bike_id": "4ad18692773bfa48424620d1e51a513a", "lon": -76.9972535, "fusion_lat": 0.0, "rental_uris": {"android": "https://dc.lft.to/lastmile_qr_scan", "ios": "https://dc.lft.to/lastmile_qr_scan"}, "type": "electric_scooter"}, {"is_reserved": 0, "is_disabled": 0, "fusion_lon": 0.0, "lat": 38.92504866666667, "name": "a521e180fce5b345511e96e637731a32", "bike_id": "a521e180fce5b345511e96e637731a32", "lon": -77.02577833333334, "fusion_lat": 0.0, "rental_uris": {"android": "https://dc.lft.to/lastmile_qr_scan", "ios": "https://dc.lft.to/lastmile_qr_scan"}, "type": "electric_scooter"}, {"is_reserved": 0, "is_disabled": 0, "fusion_lon": 0.0, "lat": 38.91980933333333, "name": "20aa337d2e05b42eaee32bae6d9a5403", "bike_id": "20aa337d2e05b42eaee32bae6d9a5403", "lon": -77.02164183333333, "fusion_lat": 0.0, "rental_uris": {"android": "https://dc.lft.to/lastmile_qr_scan", "ios": "https://dc.lft.to/lastmile_qr_scan"}, "type": "electric_scooter"}, {"is_reserved": 0, "is_disabled": 0, "fusion_lon": 0.0, "lat": 38.915811833333336, "name": "98e6528ce2d5ec8ebb00abfee53c0476", "bike_id": "98e6528ce2d5ec8ebb00abfee53c0476", "lon": -77.067788, "fusion_lat": 0.0, "rental_uris": {"android": "https://dc.lft.to/lastmile_qr_scan", "ios": "https://dc.lft.to/lastmile_qr_scan"}, "type": "electric_scooter"}, {"is_reserved": 0, "is_disabled": 0, "fusion_lon": 0.0, "lat": 38.92128433333333, "name": "9dbaf7197bdf04f662c8166efb57b8c1", "bike_id": "9dbaf7197bdf04f662c8166efb57b8c1", "lon": -77.01799633333333, "fusion_lat": 0.0, "rental_uris": {"android": "https://dc.lft.to/lastmile_qr_scan", "ios": "https://dc.lft.to/lastmile_qr_scan"}, "type": "electric_scooter"}, {"is_reserved": 0, "is_disabled": 0, "fusion_lon": 0.0, "lat": 38.92447833333333, "name": "d19cc14b192e8aeba092d3e5b1d0fff7", "bike_id": "d19cc14b192e8aeba092d3e5b1d0fff7", "lon": -76.96826016666667, "fusion_lat": 0.0, "rental_uris": {"android": "https://dc.lft.to/lastmile_qr_scan", "ios": "https://dc.lft.to/lastmile_qr_scan"}, "type": "electric_scooter"}, {"is_reserved": 0, "is_disabled": 0, "fusion_lon": 0.0, "lat": 38.93975533333333, "name": "df3122935dd1d3b497b64a294dc4be44", "bike_id": "df3122935dd1d3b497b64a294dc4be44", "lon": -77.03025066666666, "fusion_lat": 0.0, "rental_uris": {"android": "https://dc.lft.to/lastmile_qr_scan", "ios": "https://dc.lft.to/lastmile_qr_scan"}, "type": "electric_scooter"}, {"is_reserved": 0, "is_disabled": 0, "fusion_lon": 0.0, "lat": 38.91829233333333, "name": "122d2ac7b18ef46d583e94ec23cf40ce", "bike_id": "122d2ac7b18ef46d583e94ec23cf40ce", "lon": -77.061073, "fusion_lat": 0.0, "rental_uris": {"android": "https://dc.lft.to/lastmile_qr_scan", "ios": "https://dc.lft.to/lastmile_qr_scan"}, "type": "electric_bike"}, {"is_reserved": 0, "is_disabled": 0, "fusion_lon": 0.0, "lat": 38.87291183333333, "name": "9deace15f843ea1d5066210447cbbdd8", "bike_id": "9deace15f843ea1d5066210447cbbdd8", "lon": -77.0158465, "fusion_lat": 0.0, "rental_uris": {"android": "https://dc.lft.to/lastmile_qr_scan", "ios": "https://dc.lft.to/lastmile_qr_scan"}, "type": "electric_scooter"}, {"is_reserved": 0, "is_disabled": 0, "fusion_lon": 0.0, "lat": 38.9386175, "name": "c6d6361363856279a4d37e346817c3d6", "bike_id": "c6d6361363856279a4d37e346817c3d6", "lon": -76.9943645, "fusion_lat": 0.0, "rental_uris": {"android": "https://dc.lft.to/lastmile_qr_scan", "ios": "https://dc.lft.to/lastmile_qr_scan"}, "type": "electric_scooter"}, {"is_reserved": 0, "is_disabled": 0, "fusion_lon": 0.0, "lat": 38.931963833333334, "name": "d521f90baeb5713424cd3d740b93ef3d", "bike_id": "d521f90baeb5713424cd3d740b93ef3d", "lon": -77.03750916666667, "fusion_lat": 0.0, "rental_uris": {"android": "https://dc.lft.to/lastmile_qr_scan", "ios": "https://dc.lft.to/lastmile_qr_scan"}, "type": "electric_scooter"}, {"is_reserved": 0, "is_disabled": 0, "fusion_lon": 0.0, "lat": 38.90976783333333, "name": "fa8e0399c07f6a2a0cd4fb353c9997fd", "bike_id": "fa8e0399c07f6a2a0cd4fb353c9997fd", "lon": -77.04737933333334, "fusion_lat": 0.0, "rental_uris": {"android": "https://dc.lft.to/lastmile_qr_scan", "ios": "https://dc.lft.to/lastmile_qr_scan"}, "type": "electric_scooter"}, {"is_reserved": 0, "is_disabled": 0, "fusion_lon": 0.0, "lat": 38.9162445, "name": "bd795d93d2f86e846feba5f2bc53b1b0", "bike_id": "bd795d93d2f86e846feba5f2bc53b1b0", "lon": -77.04865966666667, "fusion_lat": 0.0, "rental_uris": {"android": "https://dc.lft.to/lastmile_qr_scan", "ios": "https://dc.lft.to/lastmile_qr_scan"}, "type": "electric_scooter"}, {"is_reserved": 0, "is_disabled": 0, "fusion_lon": 0.0, "lat": 38.899648666666664, "name": "f4c8c33168ba165f82612a4d1a6afc2f", "bike_id": "f4c8c33168ba165f82612a4d1a6afc2f", "lon": -77.045076, "fusion_lat": 0.0, "rental_uris": {"android": "https://dc.lft.to/lastmile_qr_scan", "ios": "https://dc.lft.to/lastmile_qr_scan"}, "type": "electric_scooter"}, {"is_reserved": 0, "is_disabled": 0, "fusion_lon": 0.0, "lat": 38.89128516666667, "name": "8433aa391c7af55a48a82fb5bfc8470f", "bike_id": "8433aa391c7af55a48a82fb5bfc8470f", "lon": -76.94060466666667, "fusion_lat": 0.0, "rental_uris": {"android": "https://dc.lft.to/lastmile_qr_scan", "ios": "https://dc.lft.to/lastmile_qr_scan"}, "type": "electric_bike"}, {"is_reserved": 0, "is_disabled": 0, "fusion_lon": 0.0, "lat": 38.92332733333333, "name": "243d44272c61e00ec547c706957b16aa", "bike_id": "243d44272c61e00ec547c706957b16aa", "lon": -77.056719, "fusion_lat": 0.0, "rental_uris": {"android": "https://dc.lft.to/lastmile_qr_scan", "ios": "https://dc.lft.to/lastmile_qr_scan"}, "type": "electric_scooter"}, {"is_reserved": 0, "is_disabled": 0, "fusion_lon": 0.0, "lat": 38.90720266666667, "name": "07dff96890fab4043b8e898aa84baee5", "bike_id": "07dff96890fab4043b8e898aa84baee5", "lon": -77.02320933333333, "fusion_lat": 0.0, "rental_uris": {"android": "https://dc.lft.to/lastmile_qr_scan", "ios": "https://dc.lft.to/lastmile_qr_scan"}, "type": "electric_scooter"}, {"is_reserved": 0, "is_disabled": 0, "fusion_lon": 0.0, "lat": 38.921231, "name": "28a222d993adda8d4885647793055280", "bike_id": "28a222d993adda8d4885647793055280", "lon": -77.036553, "fusion_lat": 0.0, "rental_uris": {"android": "https://dc.lft.to/lastmile_qr_scan", "ios": "https://dc.lft.to/lastmile_qr_scan"}, "type": "electric_scooter"},