{"data": {"bikes": [{"fusion_lat": 0.0, "bike_id": "bbb7fb681f92b4f99d4207700f0742b1", "fusion_lon": 0.0, "lon": -76.93874, "lat": 38.956190666666664, "is_reserved": 0, "is_disabled": 0, "rental_uris": {"android": "https://dc.lft.to/lastmile_qr_scan", "ios": "https://dc.lft.to/lastmile_qr_scan"}, "name": "bbb7fb681f92b4f99d4207700f0742b1", "type": "electric_bike"}, {"fusion_lat": 0.0, "bike_id": "f5384f2ac507d7ee27e30629203bb02f", "fusion_lon": 0.0, "lon": -76.98528183333333, "lat": 38.86688216666667, "is_reserved": 0, "is_disabled": 0, "rental_uris": {"android": "https://dc.lft.to/lastmile_qr_scan", "ios": "https://dc.lft.to/lastmile_qr_scan"}, "name": "f5384f2ac507d7ee27e30629203bb02f", "type": "electric_scooter"}, {"fusion_lat": 0.0, "bike_id": "0b9a7ae12d506ad03da8ba11a5050d3c", "fusion_lon": 0.0, "lon": -77.01327583333334, "lat": 38.900222666666664, "is_reserved": 0, "is_disabled": 0, "rental_uris": {"android": "https://dc.lft.to/lastmile_qr_scan", "ios": "https://dc.lft.to/lastmile_qr_scan"}, "name": "0b9a7ae12d506ad03da8ba11a5050d3c", "type": "electric_scooter"}, {"fusion_lat": 0.0, "bike_id": "bbc37df5a9361db13785284b793906ca", "fusion_lon": 0.0, "lon": -77.0364635, "lat": 38.902758166666665, "is_reserved": 0, "is_disabled": 0, "rental_uris": {"android": "https://dc.lft.to/lastmile_qr_scan", "ios": "https://dc.lft.to/lastmile_qr_scan"}, "name": "bbc37df5a9361db13785284b793906ca", "type": "electric_scooter"}, {"fusion_lat": 0.0, "bike_id": "22ddca83e817862017dee42bbe384293", "fusion_lon": 0.0, "lon": -77.04169083333333, "lat": 38.920046, "is_reserved": 0, "is_disabled": 0, "rental_uris": {"android": "https://dc.lft.to/lastmile_qr_scan", "ios": "https://dc.lft.to/lastmile_qr_scan"}, "name": "22ddca83e817862017dee42bbe384293", "type": "electric_scooter"}, {"fusion_lat": 0.0, "bike_id": "65fb27c2f4f763a826df5d142a6d668d", "fusion_lon": 0.0, "lon": -77.0174855, "lat": 38.877215666666665, "is_reserved": 0, "is_disabled": 0, "rental_uris": {"android": "https://dc.lft.to/lastmile_qr_scan", "ios": "https://dc.lft.to/lastmile_qr_scan"}, "name": "65fb27c2f4f763a826df5d142a6d668d", "type": "electric_scooter"}, {"fusion_lat": 0.0, "bike_id": "c1a4d31421143b92b3888259ed3b244a", "fusion_lon": 0.0, "lon": -77.02701, "lat": 38.926561666666665, "is_reserved": 0, "is_disabled": 0, "rental_uris": {"android": "https://dc.lft.to/lastmile_qr_scan", "ios": "https://dc.lft.to/lastmile_qr_scan"}, "name": "c1a4d31421143b92b3888259ed3b244a", "type": "electric_scooter"}, {"fusion_lat": 0.0, "bike_id": "8d0a1be0f77c436ca8480124569f083f", "fusion_lon": 0.0, "lon": -77.03472533333333, "lat": 38.90730416666667, "is_reserved": 0, "is_disabled": 0, "rental_uris": {"android": "https://dc.lft.to/lastmile_qr_scan", "ios": "https://dc.lft.to/lastmile_qr_scan"}, "name": "8d0a1be0f77c436ca8480124569f083f", "type": "electric_scooter"}, {"fusion_lat": 0.0, "bike_id": "f4a42c7d8d728e8f2f4ab33d8ecd8b57", "fusion_lon": 0.0, "lon": -77.036412, "lat": 38.9238115, "is_reserved": 0, "is_disabled": 0, "rental_uris": {"android": "https://dc.lft.to/lastmile_qr_scan", "ios": "https://dc.lft.to/lastmile_qr_scan"}, "name": "f4a42c7d8d728e8f2f4ab33d8ecd8b57", "type": "electric_scooter"}, {"fusion_lat": 0.0, "bike_id": "23a89d6f8b461a42e29040fe73a90d4f", "fusion_lon": 0.0, "lon": -76.96506166666667, "lat": 38.876464666666664, "is_reserved": 0, "is_disabled": 0, "rental_uris": {"android": "https://dc.lft.to/lastmile_qr_scan", "ios": "https://dc.lft.to/lastmile_qr_scan"}, "name": "23a89d6f8b461a42e29040fe73a90d4f", "type": "electric_scooter"}, {"fusion_lat": 0.0, "bike_id": "15a5316d3741d56bb4e445ce5ab3b6d3", "fusion_lon": 0.0, "lon": -77.02273283333334, "lat": 38.924769, "is_reserved": 0, "is_disabled": 0, "rental_uris": {"android": "https://dc.lft.to/lastmile_qr_scan", "ios": "https://dc.lft.to/lastmile_qr_scan"}, "name": "15a5316d3741d56bb4e445ce5ab3b6d3", "type": "electric_scooter"}, {"fusion_lat": 0.0, "bike_id": "7551d7018f5b8db0db076c9fc456446b", "fusion_lon": 0.0, "lon": -76.99499966666667, "lat": 38.899209166666665, "is_reserved": 0, "is_disabled": 0, "rental_uris": {"android": "https://dc.lft.to/lastmile_qr_scan", "ios": "https://dc.lft.to/lastmile_qr_scan"}, "name": "7551d7018f5b8db0db076c9fc456446b", "type": "electric_scooter"}, {"fusion_lat": 0.0, "bike_id": "265da866cfea30a664f6cc6db50dcf1a", "fusion_lon": 0.0, "lon": -76.93301983333333, "lat": 38.8920045, "is_reserved": 0, "is_disabled": 0, "rental_uris": {"android": "https://dc.lft.to/lastmile_qr_scan", "ios": "https://dc.lft.to/lastmile_qr_scan"}, "name": "265da866cfea30a664f6cc6db50dcf1a", "type": "electric_scooter"}, {"fusion_lat": 0.0, "bike_id": "f7c65aab500c7947fedaa2b44e90f1d6", "fusion_lon": 0.0, "lon": -77.04048183333333, "lat": 38.89009466666667, "is_reserved": 0, "is_disabled": 0, "rental_uris": {"android": "https://dc.lft.to/lastmile_qr_scan", "ios": "https://dc.lft.to/lastmile_qr_scan"}, "name": "f7c65aab500c7947fedaa2b44e90f1d6", "type": "electric_scooter"}, {"fusion_lat": 0.0, "bike_id": "bee6402ce339b31d2b96a9a05060f3ed", "fusion_lon": 0.0, "lon": -77.04120483333334, "lat": 38.91710366666667, "is_reserved": 0, "is_disabled": 0, "rental_uris": {"android": "https://dc.lft.to/lastmile_qr_scan", "ios": "https://dc.lft.to/lastmile_qr_scan"}, "name": "bee6402ce339b31d2b96a9a05060f3ed", "type": "electric_scooter"}, {"fusion_lat": 0.0, "bike_id": "6443d0b4b385ce32b71352c33e313a1c", "fusion_lon": 0.0, "lon": -77.000896, "lat": 38.8947635, "is_reserved": 0, "is_disabled": 0, "rental_uris": {"android": "https://dc.lft.to/lastmile_qr_scan", "ios": "https://dc.lft.to/lastmile_qr_scan"}, "name": "6443d0b4b385ce32b71352c33e313a1c", "type": "electric_scooter"}, {"fusion_lat": 0.0, "bike_id": "2ac0b60e63add02c21961fc7a16a1421", "fusion_lon": 0.0, "lon": -77.03414016666666, "lat": 38.919172, "is_reserved": 0, "is_disabled": 0, "rental_uris": {"android": "https://dc.lft.to/lastmile_qr_scan", "ios": "https://dc.lft.to/lastmile_qr_scan"}, "name": "2ac0b60e63add02c21961fc7a16a1421", "type": "electric_scooter"}, {"fusion_lat": 0.0, "bike_id": "758e099e8408e7b2e0d9b3cae568d848", "fusion_lon": 0.0, "lon": -77.021854, "lat": 38.905716166666664, "is_reserved": 0, "is_disabled": 0, "rental_uris": {"android": "https://dc.lft.to/lastmile_qr_scan", "ios": "https://dc.lft.to/lastmile_qr_scan"}, "name": "758e099e8408e7b2e0d9b3cae568d848", "type": "electric_scooter"}, {"fusion_lat": 0.0, "bike_id": "d2667949c5af2880069e87c5414d897e", "fusion_lon": 0.0, "lon": -77.04640866666666, "lat": 38.91581166666667, "is_reserved": 0, "is_disabled": 0, "rental_uris": {"android": "https://dc.lft.to/lastmile_qr_scan", "ios": "https://dc.lft.to/lastmile_qr_scan"}, "name": "d2667949c5af2880069e87c5414d897e", "type": "electric_scooter"}, {"fusion_lat": 0.0, "bike_id": "fc85bedf40ba978863551a859d332cfe", "fusion_lon": 0.0, "lon": -76.9375215, "lat": 38.89035916666667, "is_reserved": 0, "is_disabled": 0, "rental_uris": {"android": "https://dc.lft.to/lastmile_qr_scan", "ios": "https://dc.lft.to/lastmile_qr_scan"}, "name": "fc85bedf40ba978863551a859d332cfe", "type": "electric_scooter"}, {"fusion_lat": 0.0, "bike_id": "73ab7ce82ac5cccf6ed4db9aa4305ea9", "fusion_lon": 0.0, "lon": -77.05157633333333, "lat": 39.043140666666666, "is_reserved": 0, "is_disabled": 0, "rental_uris": {"android": "https://dc.lft.to/lastmile_qr_scan", "ios": "https://dc.lft.to/lastmile_qr_scan"}, "name": "73ab7ce82ac5cccf6ed4db9aa4305ea9", "type": "electric_bike"}, {"fusion_lat": 0.0, "bike_id": "9076d86a8e6c48ac4830ab00018c1fed", "fusion_lon": 0.0, "lon": -77.024212, "lat": 38.892278166666664, "is_reserved": 0, "is_disabled": 0, "rental_uris": {"android": "https://dc.lft.to/lastmile_qr_scan", "ios": "https://dc.lft.to/lastmile_qr_scan"}, "name": "9076d86a8e6c48ac4830ab00018c1fed", "type": "electric_scooter"}, {"fusion_lat": 0.0, "bike_id": "8b58bac38875b429aa99b0409e1e2b19", "fusion_lon": 0.0, "lon": -77.05695333333334, "lat": 38.93721266666667, "is_reserved": 0, "is_disabled": 0, "rental_uris": {"android": "https://dc.lft.to/lastmile_qr_scan", "ios": "https://dc.lft.to/lastmile_qr_scan"}, "name": "8b58bac38875b429aa99b0409e1e2b19", "type": "electric_scooter"}, {"fusion_lat": 0.0, "bike_id": "0d38e22ebb37a02fd95dfd922e02a19b", "fusion_lon": 0.0, "lon": -77.0319155, "lat": 38.911764833333336, "is_reserved": 0, "is_disabled": 0, "rental_uris": {"android": "https://dc.lft.to/lastmile_qr_scan", "ios": "https://dc.lft.to/lastmile_qr_scan"}, "name": "0d38e22ebb37a02fd95dfd922e02a19b", "type": "electric_scooter"}, {"fusion_lat": 0.0, "bike_id": "dc1e014472b07940bd8af9277ddcfa7f", "fusion_lon": 0.0, "lon": -77.01772266666667, "lat": 38.918700333333334, "is_reserved": 0, "is_disabled": 0, "rental_uris": {"android": "https://dc.lft.to/lastmile_qr_scan", "ios": "https://dc.lft.to/lastmile_qr_scan"}, "name": "dc1e014472b07940bd8af9277ddcfa7f", "type": "electric_scooter"}, {"fusion_lat": 0.0, "bike_id": "c08a27bdd11bbe9f567ecf0888312568", "fusion_lon": 0.0, "lon": -77.10476916666667, "lat": 38.856038, "is_reserved": 0, "is_disabled": 0, "rental_uris": {"android": "https://dc.lft.to/lastmile_qr_scan", "ios": "https://dc.lft.to/lastmile_qr_scan"}, "name": "c08a27bdd11bbe9f567ecf0888312568", "type": "electric_bike"}, {"fusion_lat": 0.0, "bike_id": "9325cb1cce11fb2a2ccdd871546bb458", "fusion_lon": 0.0, "lon": -77.040398, "lat": 38.918602166666666, "is_reserved": 0, "is_disabled": 0, "rental_uris": {"android": "https://dc.lft.to/lastmile_qr_scan", "ios": "https://dc.lft.to/lastmile_qr_scan"}, "name": "9325cb1cce11fb2a2ccdd871546bb458", "type": "electric_scooter"}, {"fusion_lat": 0.0, "bike_id": "0407cb2ecd488d16727522f49938f8ad", "fusion_lon": 0.0, "lon": -77.02977766666666, "lat": 38.90766883333333, "is_reserved": 0, "is_disabled": 0, "rental_uris": {"android": "https://dc.lft.to/lastmile_qr_scan", "ios": "https://dc.lft.to/lastmile_qr_scan"}, "name": "0407cb2ecd488d16727522f49938f8ad", "type": "electric_scooter"}, {"fusion_lat": 0.0, "bike_id": "0a06e49723a19292044d43a0aa38cf21", "fusion_lon": 0.0, "lon": -77.04355083333333, "lat": 38.90121416666667, "is_reserved": 0, "is_disabled": 0, "rental_uris": {"android": "https://dc.lft.to/lastmile_qr_scan", "ios": "https://dc.lft.to/lastmile_qr_scan"}, "name": "0a06e49723a19292044d43a0aa38cf21", "type": "electric_scooter"}, {"fusion_lat": 0.0, "bike_id": "ecaac553ae254953501d7bb1148879c9", "fusion_lon": 0.0, "lon": -76.98122083333334, "lat": 38.863291833333335, "is_reserved": 0, "is_disabled": 0, "rental_uris": {"android": "https://dc.lft.to/lastmile_qr_scan", "ios": "https://dc.lft.to/lastmile_qr_scan"}, "name": "ecaac553ae254953501d7bb1148879c9", "type": "electric_scooter"}, {"fusion_lat": 0.0, "bike_id": "6f95060bc3e2e52cd41002fe068761f1", "fusion_lon": 0.0, "lon": -77.0617455, "lat": 38.905073, "is_reserved": 0, "is_disabled": 0, "rental_uris": {"android": "https://dc.lft.to/lastmile_qr_scan", "ios": "https://dc.lft.to/lastmile_qr_scan"}, "name": "6f95060bc3e2e52cd41002fe068761f1", "type": "electric_scooter"}, {"fusion_lat": 0.0, "bike_id": "afc8a15b8e4a7d37bf839172ceb773a2", "fusion_lon": 0.0, "lon": -77.013411, "lat": 38.8781075, "is_reserved": 0, "is_disabled": 0, "rental_uris": {"android": "https://dc.lft.to/lastmile_qr_scan", "ios": "https://dc.lft.to/lastmile_qr_scan"}, "name": "afc8a15b8e4a7d37bf839172ceb773a2", "type": "electric_scooter"}, {"fusion_lat": 0.0, "bike_id": "1312dff0c7f0af79096ae45711625c63", "fusion_lon": 0.0, "lon": -77.02866133333333, "lat": 38.916856333333335, "is_reserved": 0, "is_disabled": 0, "rental_uris": {"android": "https://dc.lft.to/lastmile_qr_scan", "ios": "https://dc.lft.to/lastmile_qr_scan"}, "name": "1312dff0c7f0af79096ae45711625c63", "type": "electric_scooter"}, {"fusion_lat": 0.0, "bike_id": "717f38ff54963650841eecd7ad867387", "fusion_lon": 0.0, "lon": -77.0208525, "lat": 38.8818345, "is_reserved": 0, "is_disabled": 0, "rental_uris": {"android": "https://dc.lft.to/lastmile_qr_scan", "ios": "https://dc.lft.to/lastmile_qr_scan"}, "name": "717f38ff54963650841eecd7ad867387", "type": "electric_scooter"}, {"fusion_lat": 0.0, "bike_id": "7dc7509eecb9dfcd619be47e90395f2a", "fusion_lon": 0.0, "lon": -77.02449966666667, "lat": 38.935137833333336, "is_reserved": 0, "is_disabled": 0, "rental_uris": {"android": "https://dc.lft.to/lastmile_qr_scan", "ios": "https://dc.lft.to/lastmile_qr_scan"}, "name": "7dc7509eecb9dfcd619be47e90395f2a", "type": "electric_scooter"}, {"fusion_lat": 0.0, "bike_id": "592a6e56b5860852b4a19f3fe5080835", "fusion_lon": 0.0, "lon": -77.028431, "lat": 38.9341385, "is_reserved": 0, "is_disabled": 0, "rental_uris": {"android": "https://dc.lft.to/lastmile_qr_scan", "ios": "https://dc.lft.to/lastmile_qr_scan"}, "name": "592a6e56b5860852b4a19f3fe5080835", "type": "electric_scooter"}, {"fusion_lat": 0.0, "bike_id": "61bf36333d2bcace21592fcf98cc93ab", "fusion_lon": 0.0, "lon": -77.02283233333333, "lat": 38.907872166666664, "is_reserved": 0, "is_disabled": 0, "rental_uris": {"android": "https://dc.lft.to/lastmile_qr_scan", "ios": "https://dc.lft.to/lastmile_qr_scan"}, "name": "61bf36333d2bcace21592fcf98cc93ab", "type": "electric_scooter"}, {"fusion_lat": 0.0, "bike_id": "f1a03e7ac8c1cc00457d6006c397f61b", "fusion_lon": 0.0, "lon": -77.05490283333333, "lat": 39.01476183333333, "is_reserved": 0, "is_disabled": 0, "rental_uris": {"android": "https://dc.lft.to/lastmile_qr_scan", "ios": "https://dc.lft.to/lastmile_qr_scan"}, "name": "f1a03e7ac8c1cc00457d6006c397f61b", "type": "electric_bike"}, {"fusion_lat": 0.0, "bike_id": "8d61a5be637fc6dabae309345c9380f5", "fusion_lon": 0.0, "lon": -77.03763583333334, "lat": 38.9077605, "is_reserved": 0, "is_disabled": 0, "rental_uris": {"android": "https://dc.lft.to/lastmile_qr_scan", "ios": "https://dc.lft.to/lastmile_qr_scan"}, "name": "8d61a5be637fc6dabae309345c9380f5", "type": "electric_scooter"}, {"fusion_lat": 0.0, "bike_id": "a1690947a81ce4ee319d10730b25cbdd", "fusion_lon": 0.0, "lon": -77.02767366666667, "lat": 38.891934, "is_reserved": 0, "is_disabled": 0, "rental_uris": {"android": "https://dc.lft.to/lastmile_qr_scan", "ios": "https://dc.lft.to/lastmile_qr_scan"}, "name": "a1690947a81ce4ee319d10730b25cbdd", "type": "electric_scooter"}, {"fusion_lat": 0.0, "bike_id": "6d37680722781180cd3e17ddc8ba962e", "fusion_lon": 0.0, "lon": -77.03380866666667, "lat": 38.90709016666667, "is_reserved": 0, "is_disabled": 0, "rental_uris": {"android": "https://dc.lft.to/lastmile_qr_scan", "ios": "https://dc.lft.to/lastmile_qr_scan"}, "name": "6d37680722781180cd3e17ddc8ba962e", "type": "electric_scooter"}, {"fusion_lat": 0.0, "bike_id": "abe6e1cfbd7a395e52ba575b647f12b7", "fusion_lon": 0.0, "lon": -77.06641683333334, "lat": 38.905955, "is_reserved": 0, "is_disabled": 0, "rental_uris": {"android": "https://dc.lft.to/lastmile_qr_scan", "ios": "https://dc.lft.to/lastmile_qr_scan"}, "name": "abe6e1cfbd7a395e52ba575b647f12b7", "type": "electric_scooter"}, {"fusion_lat": 0.0, "bike_id": "a80b2c3b45b16275ae36656f2579e0f2", "fusion_lon": 0.0, "lon": -77.02215166666667, "lat": 38.91418766666666, "is_reserved": 0, "is_disabled": 0, "rental_uris": {"android": "https://dc.lft.to/lastmile_qr_scan", "ios": "https://dc.lft.to/lastmile_qr_scan"}, "name": "a80b2c3b45b16275ae36656f2579e0f2", "type": "electric_scooter"}, {"fusion_lat": 0.0, "bike_id": "8645414cd01ea1694537400eae301663", "fusion_lon": 0.0, "lon": -76.98191716666666, "lat": 38.96740116666667, "is_reserved": 0, "is_disabled": 0, "rental_uris": {"android": "https://dc.lft.to/lastmile_qr_scan", "ios": "https://dc.lft.to/lastmile_qr_scan"}, "name": "8645414cd01ea1694537400eae301663", "type": "electric_bike"}, {"fusion_lat": 0.0, "bike_id": "ab03ddb40fefb3711dd4c67335f7aabf", "fusion_lon": 0.0, "lon": -77.02214333333333, "lat": 38.924653166666666, "is_reserved": 0, "is_disabled": 0, "rental_uris": {"android": "https://dc.lft.to/lastmile_qr_scan", "ios": "https://dc.lft.to/lastmile_qr_scan"}, "name": "ab03ddb40fefb3711dd4c67335f7aabf", "type": "electric_scooter"}, {"fusion_lat": 0.0, "bike_id": "63eba5fff722d39517e36d84f4b92be8", "fusion_lon": 0.0, "lon": -77.06773283333334, "lat": 38.904907, "is_reserved": 0, "is_disabled": 0, "rental_uris": {"android": "https://dc.lft.to/lastmile_qr_scan", "ios": "https://dc.lft.to/lastmile_qr_scan"}, "name": "63eba5fff722d39517e36d84f4b92be8", "type": "electric_scooter"}, {"fusion_lat": 0.0, "bike_id": "6cf92a2020279f00159cca3d5f68a519", "fusion_lon": 0.0, "lon": -77.01922216666667, "lat": 38.922232, "is_reserved": 0, "is_disabled": 0, "rental_uris": {"android": "https://dc.lft.to/lastmile_qr_scan", "ios": "https://dc.lft.to/lastmile_qr_scan"}, "name": "6cf92a2020279f00159cca3d5f68a519", "type": "electric_scooter"}, {"fusion_lat": 0.0, "bike_id": "6609eec6de3c1523b3c301f1706af17f", "fusion_lon": 0.0, "lon": -77.03157016666667, "lat": 38.93075316666667, "is_reserved": 0, "is_disabled": 0, "rental_uris": {"android": "https://dc.lft.to/lastmile_qr_scan", "ios": "https://dc.lft.to/lastmile_qr_scan"}, "name": "6609eec6de3c1523b3c301f1706af17f", "type": "electric_scooter"}, {"fusion_lat": 0.0, "bike_id": "7108203cddccaf3000abee9a106b939d", "fusion_lon": 0.0, "lon": -77.04196483333334, "lat": 38.918752166666664, "is_reserved": 0, "is_disabled": 0, "rental_uris": {"android": "https://dc.lft.to/lastmile_qr_scan", "ios": "https://dc.lft.to/lastmile_qr_scan"}, "name": "7108203cddccaf3000abee9a106b939d", "type": "electric_scooter"}, {"fusion_lat": 0.0, "bike_id": "28133bc9a43a2db56edc5fd2914080df", "fusion_lon": 0.0, "lon": -77.13099366666667, "lat": 39.024343333333334, "is_reserved": 0, "is_disabled": 0, "rental_uris": {"android": "https://dc.lft.to/lastmile_qr_scan", "ios": "https://dc.lft.to/lastmile_qr_scan"}, "name": "28133bc9a43a2db56edc5fd2914080df", "type": "electric_bike"}, {"fusion_lat": 0.0, "bike_id": "6f242ded0821cfb5e0f1ef1132be65b8", "fusion_lon": 0.0, "lon": -77.02821666666667, "lat": 38.887262, "is_reserved": 0, "is_disabled": 0, "rental_uris": {"android": "https://dc.lft.to/lastmile_qr_scan", "ios": "https://dc.lft.to/lastmile_qr_scan"}, "name": "6f242ded0821cfb5e0f1ef1132be65b8", "type": "electric_scooter"}, {"fusion_lat": 0.0, "bike_id": "e2afcbfdfb498173397115d43890a497", "fusion_lon": 0.0, "lon": -77.03684133333333, "lat": 38.902706333333334, "is_reserved": 0, "is_disabled": 0, "rental_uris": {"android": "https://dc.lft.to/lastmile_qr_scan", "ios": "https://dc.lft.to/lastmile_qr_scan"}, "name": "e2afcbfdfb498173397115d43890a497", "type": "electric_scooter"}, {"fusion_lat": 0.0, "bike_id": "8fb4a312723616f94e537f6733ab3b04", "fusion_lon": 0.0, "lon": -77.0339395, "lat": 38.909589, "is_reserved": 0, "is_disabled": 0, "rental_uris": {"android": "https://dc.lft.to/lastmile_qr_scan", "ios": "https://dc.lft.to/lastmile_qr_scan"}, "name": "8fb4a312723616f94e537f6733ab3b04", "type": "electric_scooter"}, {"fusion_lat": 0.0, "bike_id": "7bd6e456a1cb5d7c69edbd9caac63151", "fusion_lon": 0.0, "lon": -77.043232, "lat": 38.908729, "is_reserved": 0, "is_disabled": 0, "rental_uris": {"android": "https://dc.lft.to/lastmile_qr_scan", "ios": "https://dc.lft.to/lastmile_qr_scan"}, "name": "7bd6e456a1cb5d7c69edbd9caac63151", "type": "electric_scooter"}, {"fusion_lat": 0.0, "bike_id": "9d7d645086aaf7ed6d0cb27daea23687", "fusion_lon": 0.0, "lon": -77.0362685, "lat": 38.936777166666666, "is_reserved": 0, "is_disabled": 0, "rental_uris": {"android": "https://dc.lft.to/lastmile_qr_scan", "ios": "https://dc.lft.to/lastmile_qr_scan"}, "name": "9d7d645086aaf7ed6d0cb27daea23687", "type": "electric_scooter"}, {"fusion_lat": 0.0, "bike_id": "6be64fd4a508af7de14ae91d24ba73ee", "fusion_lon": 0.0, "lon": -76.9914435, "lat": 38.885969, "is_reserved": 0, "is_disabled": 0, "rental_uris": {"android": "https://dc.lft.to/lastmile_qr_scan", "ios": "https://dc.lft.to/lastmile_qr_scan"}, "name": "6be64fd4a508af7de14ae91d24ba73ee", "type": "electric_scooter"}, {"fusion_lat": 0.0, "bike_id": "90d4b007d13600b7c8522749823e4e77", "fusion_lon": 0.0, "lon": -77.01547233333334, "lat": 38.8832845, "is_reserved": 0, "is_disabled": 0, "rental_uris": {"android": "https://dc.lft.to/lastmile_qr_scan", "ios": "https://dc.lft.to/lastmile_qr_scan"}, "name": "90d4b007d13600b7c8522749823e4e77", "type": "electric_scooter"}, {"fusion_lat": 0.0, "bike_id": "0c27ba3ea92aa20c8707d4586ad61dd4", "fusion_lon": 0.0, "lon": -77.04032833333333, "lat": 38.90603766666667, "is_reserved": 0, "is_disabled": 0, "rental_uris": {"android": "https://dc.lft.to/lastmile_qr_scan", "ios": "https://dc.lft.to/lastmile_qr_scan"}, "name": "0c27ba3ea92aa20c8707d4586ad61dd4", "type": "electric_scooter"}, {"fusion_lat": 0.0, "bike_id": "fb567ad9e9429b30d861c3ebf7f88ff9", "fusion_lon": 0.0, "lon": -77.02232916666667, "lat": 38.8922145, "is_reserved": 0, "is_disabled": 0, "rental_uris": {"android": "https://dc.lft.to/lastmile_qr_scan", "ios": "https://dc.lft.to/lastmile_qr_scan"}, "name": "fb567ad9e9429b30d861c3ebf7f88ff9", "type": "electric_scooter"}, {"fusion_lat": 0.0, "bike_id": "0d000daf23b89adafedcc3f013da5ff9", "fusion_lon": 0.0, "lon": -77.00909333333334, "lat": 38.8989065, "is_reserved": 0, "is_disabled": 0, "rental_uris": {"android": "https://dc.lft.to/lastmile_qr_scan", "ios": "https://dc.lft.to/lastmile_qr_scan"}, "name": "0d000daf23b89adafedcc3f013da5ff9", "type": "electric_scooter"}, {"fusion_lat": 0.0, "bike_id": "3926b14c43b7a3b1792c0af620c56e6e", "fusion_lon": 0.0, "lon": -77.0044835, "lat": 38.8766205, "is_reserved": 0, "is_disabled": 0, "rental_uris": {"android": "https://dc.lft.to/lastmile_qr_scan", "ios": "https://dc.lft.to/lastmile_qr_scan"}, "name": "3926b14c43b7a3b1792c0af620c56e6e", "type": "electric_scooter"}, {"fusion_lat": 0.0, "bike_id": "18ce2966e5087b3ad49a937e4ca78aae", "fusion_lon": 0.0, "lon": -77.04639583333334, "lat": 38.906417166666664, "is_reserved": 0, "is_disabled": 0, "rental_uris": {"android": "https://dc.lft.to/lastmile_qr_scan", "ios": "https://dc.lft.to/lastmile_qr_scan"}, "name": "18ce2966e5087b3ad49a937e4ca78aae", "type": "electric_scooter"}, {"fusion_lat": 0.0, "bike_id": "beadca2b803ccf51fa6f7fdc3c3e50c8", "fusion_lon": 0.0, "lon": -76.9937925, "lat": 38.89195816666667, "is_reserved": 0, "is_disabled": 0, "rental_uris": {"android": "https://dc.lft.to/lastmile_qr_scan", "ios": "https://dc.lft.to/lastmile_qr_scan"}, "name": "beadca2b803ccf51fa6f7fdc3c3e50c8", "type": "electric_scooter"}, {"fusion_lat": 0.0, "bike_id": "36981747abaaeba5e65df68f3adb6365", "fusion_lon": 0.0, "lon": -77.04658766666667, "lat": 38.897822166666664, "is_reserved": 0, "is_disabled": 0, "rental_uris": {"android": "https://dc.lft.to/lastmile_qr_scan", "ios": "https://dc.lft.to/lastmile_qr_scan"}, "name": "36981747abaaeba5e65df68f3adb6365", "type": "electric_scooter"}, {"fusion_lat": 0.0, "bike_id": "5c2b762c2dc420db92840c258a3fc6d6", "fusion_lon": 0.0, "lon": -76.948821, "lat": 38.89506333333333, "is_reserved": 0, "is_disabled": 0, "rental_uris": {"android": "https://dc.lft.to/lastmile_qr_scan", "ios": "https://dc.lft.to/lastmile_qr_scan"}, "name": "5c2b762c2dc420db92840c258a3fc6d6", "type": "electric_scooter"}, {"fusion_lat": 0.0, "bike_id": "fcd3af9a1a96d79e257dbde28e264b0a", "fusion_lon": 0.0, "lon": -77.02742516666666, "lat": 38.892401166666666, "is_reserved": 0, "is_disabled": 0, "rental_uris": {"android": "https://dc.lft.to/lastmile_qr_scan", "ios": "https://dc.lft.to/lastmile_qr_scan"}, "name": "fcd3af9a1a96d79e257dbde28e264b0a", "type": "electric_scooter"}, {"fusion_lat": 0.0, "bike_id": "8909bf3dea97508c4dd13fa4806317f8", "fusion_lon": 0.0, "lon": -77.035182, "lat": 38.92192583333333, "is_reserved": 0, "is_disabled": 0, "rental_uris": {"android": "https://dc.lft.to/lastmile_qr_scan", "ios": "https://dc.lft.to/lastmile_qr_scan"}, "name": "8909bf3dea97508c4dd13fa4806317f8", "type": "electric_scooter"}, {"fusion_lat": 0.0, "bike_id": "d893c2fe195ebe32868c1e5fb9b2776d", "fusion_lon": 0.0, "lon": -77.0320385, "lat": 38.914155, "is_reserved": 0, "is_disabled": 0, "rental_uris": {"android": "https://dc.lft.to/lastmile_qr_scan", "ios": "https://dc.lft.to/lastmile_qr_scan"}, "name": "d893c2fe195ebe32868c1e5fb9b2776d", "type": "electric_scooter"}, {"fusion_lat": 0.0, "bike_id": "a9a9908a643c021eed07477b9aba267c", "fusion_lon": 0.0, "lon": -77.04311666666666, "lat": 38.91872216666667, "is_reserved": 0, "is_disabled": 0, "rental_uris": {"android": "https://dc.lft.to/lastmile_qr_scan", "ios": "https://dc.lft.to/lastmile_qr_scan"}, "name": "a9a9908a643c021eed07477b9aba267c", "type": "electric_scooter"}, {"fusion_lat": 0.0, "bike_id": "bf830634c128bac56bbc7301f2e95c77", "fusion_lon": 0.0, "lon": -77.00796966666667, "lat": 38.949188, "is_reserved": 0, "is_disabled": 0, "rental_uris": {"android": "https://dc.lft.to/lastmile_qr_scan", "ios": "https://dc.lft.to/lastmile_qr_scan"}, "name": "bf830634c128bac56bbc7301f2e95c77", "type": "electric_bike"}, {"fusion_lat": 0.0, "bike_id": "8d08be10f46d9b52032a33fc513b4e64", "fusion_lon": 0.0, "lon": -77.0319565, "lat": 38.904196, "is_reserved": 0, "is_disabled": 0, "rental_uris": {"android": "https://dc.lft.to/lastmile_qr_scan", "ios": "https://dc.lft.to/lastmile_qr_scan"}, "name": "8d08be10f46d9b52032a33fc513b4e64", "type": "electric_scooter"}, {"fusion_lat": 0.0, "bike_id": "a09ea743172c11db2b3f9f7183a0f7e4", "fusion_lon": 0.0, "lon": -77.02765616666667, "lat": 38.93463966666667, "is_reserved": 0, "is_disabled": 0, "rental_uris": {"android": "https://dc.lft.to/lastmile_qr_scan", "ios": "https://dc.lft.to/lastmile_qr_scan"}, "name": "a09ea743172c11db2b3f9f7183a0f7e4", "type": "electric_scooter"}, {"fusion_lat": 0.0, "bike_id": "955a035b384ec164bd4aafbb8c6f9033", "fusion_lon": 0.0, "lon": -77.05174983333333, "lat": 38.903053166666666, "is_reserved": 0, "is_disabled": 0, "rental_uris": {"android": "https://dc.lft.to/lastmile_qr_scan", "ios": "https://dc.lft.to/lastmile_qr_scan"}, "name": "955a035b384ec164bd4aafbb8c6f9033", "type": "electric_scooter"}, {"fusion_lat": 0.0, "bike_id": "714dc964bf0b6b81c72b59a0201d9dfd", "fusion_lon": 0.0, "lon": -77.02716266666667, "lat": 38.916709833333336, "is_reserved": 0, "is_disabled": 0, "rental_uris": {"android": "https://dc.lft.to/lastmile_qr_scan", "ios": "https://dc.lft.to/lastmile_qr_scan"}, "name": "714dc964bf0b6b81c72b59a0201d9dfd", "type": "electric_scooter"}, {"fusion_lat": 0.0, "bike_id": "97ac35a03d5c47fc9db28f7e7a4024d8", "fusion_lon": 0.0, "lon": -76.98527266666666, "lat": 38.86687916666666, "is_reserved": 0, "is_disabled": 0, "rental_uris": {"android": "https://dc.lft.to/lastmile_qr_scan", "ios": "https://dc.lft.to/lastmile_qr_scan"}, "name": "97ac35a03d5c47fc9db28f7e7a4024d8", "type": "electric_scooter"}, {"fusion_lat": 0.0, "bike_id": "338c555af1cb465eab55670ef708b342", "fusion_lon": 0.0, "lon": -77.02451183333334, "lat": 38.9139655, "is_reserved": 0, "is_disabled": 0, "rental_uris": {"android": "https://dc.lft.to/lastmile_qr_scan", "ios": "https://dc.lft.to/lastmile_qr_scan"}, "name": "338c555af1cb465eab55670ef708b342", "type": "electric_scooter"}, {"fusion_lat": 0.0, "bike_id": "8c14f1586b6001cc14b5b99098bfd1c4", "fusion_lon": 0.0, "lon": -77.03913116666666, "lat": 38.9257155, "is_reserved": 0, "is_disabled": 0, "rental_uris": {"android": "https://dc.lft.to/lastmile_qr_scan", "ios": "https://dc.lft.to/lastmile_qr_scan"}, "name": "8c14f1586b6001cc14b5b99098bfd1c4", "type": "electric_scooter"}, {"fusion_lat": 0.0, "bike_id": "991a301363ebb76d910e0e8ecfef89bb", "fusion_lon": 0.0, "lon": -77.1013205, "lat": 38.85211733333333, "is_reserved": 0, "is_disabled": 0, "rental_uris": {"android": "https://dc.lft.to/lastmile_qr_scan", "ios": "https://dc.lft.to/lastmile_qr_scan"}, "name": "991a301363ebb76d910e0e8ecfef89bb", "type": "electric_bike"}, {"fusion_lat": 0.0, "bike_id": "a305962ea089372f8b4f0f5d4b7dfa5b", "fusion_lon": 0.0, "lon": -77.03810133333333, "lat": 38.99686833333333, "is_reserved": 0, "is_disabled": 0, "rental_uris": {"android": "https://dc.lft.to/lastmile_qr_scan", "ios": "https://dc.lft.to/lastmile_qr_scan"}, "name": "a305962ea089372f8b4f0f5d4b7dfa5b", "type": "electric_bike"}, {"fusion_lat": 0.0, "bike_id": "b94a852acf5fbcc4c970364aee09b112", "fusion_lon": 0.0, "lon": -77.0417965, "lat": 38.892517, "is_reserved": 0, "is_disabled": 0, "rental_uris": {"android": "https://dc.lft.to/lastmile_qr_scan", "ios": "https://dc.lft.to/lastmile_qr_scan"}, "name": "b94a852acf5fbcc4c970364aee09b112", "type": "electric_scooter"}, {"fusion_lat": 0.0, "bike_id": "1672491af6851b2a9f797ff59f09e5da", "fusion_lon": 0.0, "lon": -77.0209595, "lat": 38.9326205, "is_reserved": 0, "is_disabled": 0, "rental_uris": {"android": "https://dc.lft.to/lastmile_qr_scan", "ios": "https://dc.lft.to/lastmile_qr_scan"}, "name": "1672491af6851b2a9f797ff59f09e5da", "type": "electric_scooter"}, {"fusion_lat": 0.0, "bike_id": "b9c722d51d508277383278fd1ffbcb0d", "fusion_lon": 0.0, "lon": -77.04667766666667, "lat": 38.9109985, "is_reserved": 0, "is_disabled": 0, "rental_uris": {"android": "https://dc.lft.to/lastmile_qr_scan", "ios": "https://dc.lft.to/lastmile_qr_scan"}, "name": "b9c722d51d508277383278fd1ffbcb0d", "type": "electric_scooter"}, {"fusion_lat": 0.0, "bike_id": "07a374ae72c44c02f62e96b73609a0ef", "fusion_lon": 0.0, "lon": -77.02169733333334, "lat": 38.942925833333334, "is_reserved": 0, "is_disabled": 0, "rental_uris": {"android": "https://dc.lft.to/lastmile_qr_scan", "ios": "https://dc.lft.to/lastmile_qr_scan"}, "name": "07a374ae72c44c02f62e96b73609a0ef", "type": "electric_scooter"}, {"fusion_lat": 0.0, "bike_id": "6050c3c3509ca668f19b09ca01083f37", "fusion_lon": 0.0, "lon": -77.035029, "lat": 38.92151633333334, "is_reserved": 0, "is_disabled": 0, "rental_uris": {"android": "https://dc.lft.to/lastmile_qr_scan", "ios": "https://dc.lft.to/lastmile_qr_scan"}, "name": "6050c3c3509ca668f19b09ca01083f37", "type": "electric_scooter"}, {"fusion_lat": 0.0, "bike_id": "bf4f9db6e15113bee3b666bf2325d5f5", "fusion_lon": 0.0, "lon": -76.99776016666667, "lat": 38.844222333333335, "is_reserved": 0, "is_disabled": 0, "rental_uris": {"android": "https://dc.lft.to/lastmile_qr_scan", "ios": "https://dc.lft.to/lastmile_qr_scan"}, "name": "bf4f9db6e15113bee3b666bf2325d5f5", "type": "electric_scooter"}, {"fusion_lat": 0.0, "bike_id": "029b3cf991b8b8e49b10ae8f38c0ee40", "fusion_lon": 0.0, "lon": -77.03091783333333, "lat": 38.938715333333334, "is_reserved": 0, "is_disabled": 0, "rental_uris": {"android": "https://dc.lft.to/lastmile_qr_scan", "ios": "https://dc.lft.to/lastmile_qr_scan"}, "name": "029b3cf991b8b8e49b10ae8f38c0ee40", "type": "electric_scooter"}, {"fusion_lat": 0.0, "bike_id": "f76f355273e04b08f24caf2410bee633", "fusion_lon": 0.0, "lon": -76.94718766666666, "lat": 38.897407, "is_reserved": 0, "is_disabled": 0, "rental_uris": {"android": "https://dc.lft.to/lastmile_qr_scan", "ios": "https://dc.lft.to/lastmile_qr_scan"}, "name": "f76f355273e04b08f24caf2410bee633", "type": "electric_scooter"}, {"fusion_lat": 0.0, "bike_id": "b127f54f615ac9d0c172335c0bdfead4", "fusion_lon": 0.0, "lon": -77.01582933333333, "lat": 38.8848935, "is_reserved": 0, "is_disabled": 0, "rental_uris": {"android": "https://dc.lft.to/lastmile_qr_scan", "ios": "https://dc.lft.to/lastmile_qr_scan"}, "name": "b127f54f615ac9d0c172335c0bdfead4", "type": "electric_scooter"}, {"fusion_lat": 0.0, "bike_id": "01f4aceedb9573a95272ec61b83a5714", "fusion_lon": 0.0, "lon": -77.02477816666666, "lat": 38.918135, "is_reserved": 0, "is_disabled": 0, "rental_uris": {"android": "https://dc.lft.to/lastmile_qr_scan", "ios": "https://dc.lft.to/lastmile_qr_scan"}, "name": "01f4aceedb9573a95272ec61b83a5714", "type": "electric_scooter"}, {"fusion_lat": 0.0, "bike_id": "f7af71889ed9b161346b3ec6ad2fc41f", "fusion_lon": 0.0, "lon": -77.02481233333333, "lat": 38.916950166666666, "is_reserved": 0, "is_disabled": 0, "rental_uris": {"android": "https://dc.lft.to/lastmile_qr_scan", "ios": "https://dc.lft.to/lastmile_qr_scan"}, "name": "f7af71889ed9b161346b3ec6ad2fc41f", "type": "electric_scooter"}, {"fusion_lat": 0.0, "bike_id": "e1094e4fcc0c473ad52c28567240e040", "fusion_lon": 0.0, "lon": -77.035204, "lat": 38.927282, "is_reserved": 0, "is_disabled": 0, "rental_uris": {"android": "https://dc.lft.to/lastmile_qr_scan", "ios": "https://dc.lft.to/lastmile_qr_scan"}, "name": "e1094e4fcc0c473ad52c28567240e040", "type": "electric_scooter"}, {"fusion_lat": 0.0, "bike_id": "568cb7b4d8db10d2b99d052de3accc27", "fusion_lon": 0.0, "lon": -77.03044183333333, "lat": 38.887367, "is_reserved": 0, "is_disabled": 0, "rental_uris": {"android": "https://dc.lft.to/lastmile_qr_scan", "ios": "https://dc.lft.to/lastmile_qr_scan"}, "name": "568cb7b4d8db10d2b99d052de3accc27", "type": "electric_scooter"}, {"fusion_lat": 0.0, "bike_id": "4c3c22484a0450e4173ce62226c2bf9e", "fusion_lon": 0.0, "lon": -77.0254945, "lat": 38.916328666666665, "is_reserved": 0, "is_disabled": 0, "rental_uris": {"android": "https://dc.lft.to/lastmile_qr_scan", "ios": "https://dc.lft.to/lastmile_qr_scan"}, "name": "4c3c22484a0450e4173ce62226c2bf9e", "type": "electric_scooter"}, {"fusion_lat": 0.0, "bike_id": "2de2abf8706c50f6596d463b1e22b1fe", "fusion_lon": 0.0, "lon": -76.98883383333333, "lat": 38.86656133333334, "is_reserved": 0, "is_disabled": 0, "rental_uris": {"android": "https://dc.lft.to/lastmile_qr_scan", "ios": "https://dc.lft.to/lastmile_qr_scan"}, "name": "2de2abf8706c50f6596d463b1e22b1fe", "type": "electric_scooter"}, {"fusion_lat": 0.0, "bike_id": "700190718f74232679d38bfe45e6a6c4", "fusion_lon": 0.0, "lon": -77.044919, "lat": 38.90001916666667, "is_reserved": 0, "is_disabled": 0, "rental_uris": {"android": "https://dc.lft.to/lastmile_qr_scan", "ios": "https://dc.lft.to/lastmile_qr_scan"}, "name": "700190718f74232679d38bfe45e6a6c4", "type": "electric_scooter"}, {"fusion_lat": 0.0, "bike_id": "78fa9ce9ecc3c5b5b5f69dfebe4b8aae", "fusion_lon": 0.0, "lon": -76.9870775, "lat": 38.86701, "is_reserved": 0, "is_disabled": 0, "rental_uris": {"android": "https://dc.lft.to/lastmile_qr_scan", "ios": "https://dc.lft.to/lastmile_qr_scan"}, "name": "78fa9ce9ecc3c5b5b5f69dfebe4b8aae", "type": "electric_scooter"}, {"fusion_lat": 0.0, "bike_id": "b1180324bbe843aa309027478fc09306", "fusion_lon": 0.0, "lon": -77.00746783333334, "lat": 38.9036705, "is_reserved": 0, "is_disabled": 0, "rental_uris": {"android": "https://dc.lft.to/lastmile_qr_scan", "ios": "https://dc.lft.to/lastmile_qr_scan"}, "name": "b1180324bbe843aa309027478fc09306", "type": "electric_scooter"}, {"fusion_lat": 0.0, "bike_id": "bad764f3d0334eec00758bc536e1a5fe", "fusion_lon": 0.0, "lon": -77.00918766666666, "lat": 38.90529266666667, "is_reserved": 0, "is_disabled": 0, "rental_uris": {"android": "https://dc.lft.to/lastmile_qr_scan", "ios": "https://dc.lft.to/lastmile_qr_scan"}, "name": "bad764f3d0334eec00758bc536e1a5fe", "type": "electric_bike"}, {"fusion_lat": 0.0, "bike_id": "10922c832d126f4ffbb1cea7ae3a6f78", "fusion_lon": 0.0, "lon": -76.93727216666667, "lat": 38.89020166666667, "is_reserved": 0, "is_disabled": 0, "rental_uris": {"android": "https://dc.lft.to/lastmile_qr_scan", "ios": "https://dc.lft.to/lastmile_qr_scan"}, "name": "10922c832d126f4ffbb1cea7ae3a6f78", "type": "electric_scooter"}, {"fusion_lat": 0.0, "bike_id": "6b4763be74a8a3ba9a32375573d186a4", "fusion_lon": 0.0, "lon": -77.001943, "lat": 38.90037066666667, "is_reserved": 0, "is_disabled": 0, "rental_uris": {"android": "https://dc.lft.to/lastmile_qr_scan", "ios": "https://dc.lft.to/lastmile_qr_scan"}, "name": "6b4763be74a8a3ba9a32375573d186a4", "type": "electric_scooter"}, {"fusion_lat": 0.0, "bike_id": "df720cc003c43ef824215fd8574826be", "fusion_lon": 0.0, "lon": -77.046736, "lat": 38.8955425, "is_reserved": 0, "is_disabled": 0, "rental_uris": {"android": "https://dc.lft.to/lastmile_qr_scan", "ios": "https://dc.lft.to/lastmile_qr_scan"}, "name": "df720cc003c43ef824215fd8574826be", "type": "electric_scooter"}, {"fusion_lat": 0.0, "bike_id": "d9a6ba845a0bd7c55367d063d4e9060c", "fusion_lon": 0.0, "lon": -77.031844, "lat": 38.899645, "is_reserved": 0, "is_disabled": 0, "rental_uris": {"android": "https://dc.lft.to/lastmile_qr_scan", "ios": "https://dc.lft.to/lastmile_qr_scan"}, "name": "d9a6ba845a0bd7c55367d063d4e9060c", "type": "electric_scooter"}, {"fusion_lat": 0.0, "bike_id": "1a991fb1c1d78e62f0ec43a0538d042a", "fusion_lon": 0.0, "lon": -77.01351883333334, "lat": 38.91891116666667, "is_reserved": 0, "is_disabled": 0, "rental_uris": {"android": "https://dc.lft.to/lastmile_qr_scan", "ios": "https://dc.lft.to/lastmile_qr_scan"}, "name": "1a991fb1c1d78e62f0ec43a0538d042a", "type": "electric_scooter"}, {"fusion_lat": 0.0, "bike_id": "f9f613644d3c2a66695f9eab35797c59", "fusion_lon": 0.0, "lon": -77.03285183333334, "lat": 38.92864016666667, "is_reserved": 0, "is_disabled": 0, "rental_uris": {"android": "https://dc.lft.to/lastmile_qr_scan", "ios": "https://dc.lft.to/lastmile_qr_scan"}, "name": "f9f613644d3c2a66695f9eab35797c59", "type": "electric_scooter"}, {"fusion_lat": 0.0, "bike_id": "568fcb14f6df141336263994479e1119", "fusion_lon": 0.0, "lon": -77.006068, "lat": 38.8729115, "is_reserved": 0, "is_disabled": 0, "rental_uris": {"android": "https://dc.lft.to/lastmile_qr_scan", "ios": "https://dc.lft.to/lastmile_qr_scan"}, "name": "568fcb14f6df141336263994479e1119", "type": "electric_scooter"}, {"fusion_lat": 0.0, "bike_id": "b61ff275e0de821f5b83bd9058772976", "fusion_lon": 0.0, "lon": -76.988145, "lat": 38.879323666666664, "is_reserved": 0, "is_disabled": 0, "rental_uris": {"android": "https://dc.lft.to/lastmile_qr_scan", "ios": "https://dc.lft.to/lastmile_qr_scan"}, "name": "b61ff275e0de821f5b83bd9058772976", "type": "electric_scooter"}, {"fusion_lat": 0.0, "bike_id": "7b795bdb4ee0665b255ea5a9a2dc79aa", "fusion_lon": 0.0, "lon": -77.06769616666666, "lat": 38.90685233333333, "is_reserved": 0, "is_disabled": 0, "rental_uris": {"android": "https://dc.lft.to/lastmile_qr_scan", "ios": "https://dc.lft.to/lastmile_qr_scan"}, "name": "7b795bdb4ee0665b255ea5a9a2dc79aa", "type": "electric_scooter"}, {"fusion_lat": 0.0, "bike_id": "65e303a3662377382ce8ac3217f32a20", "fusion_lon": 0.0, "lon": -77.0420545, "lat": 38.92054433333333, "is_reserved": 0, "is_disabled": 0, "rental_uris": {"android": "https://dc.lft.to/lastmile_qr_scan", "ios": "https://dc.lft.to/lastmile_qr_scan"}, "name": "65e303a3662377382ce8ac3217f32a20", "type": "electric_scooter"}, {"fusion_lat": 0.0, "bike_id": "12abd90bce9bb4241b93cee12f8d10ea", "fusion_lon": 0.0, "lon": -77.0949295, "lat": 38.807650333333335, "is_reserved": 0, "is_disabled": 0, "rental_uris": {"android": "https://dc.lft.to/lastmile_qr_scan", "ios": "https://dc.lft.to/lastmile_qr_scan"}, "name": "12abd90bce9bb4241b93cee12f8d10ea", "type": "electric_bike"}, {"fusion_lat": 0.0, "bike_id": "8a83e8a5468835cc0de12a88509960a9", "fusion_lon": 0.0, "lon": -77.0178585, "lat": 38.920959833333335, "is_reserved": 0, "is_disabled": 0, "rental_uris": {"android": "https://dc.lft.to/lastmile_qr_scan", "ios": "https://dc.lft.to/lastmile_qr_scan"}, "name": "8a83e8a5468835cc0de12a88509960a9", "type": "electric_scooter"}, {"fusion_lat": 0.0, "bike_id": "331ba262fbcd7dafd71d0b6ccc9f2b38", "fusion_lon": 0.0, "lon": -77.05129233333334, "lat": 38.905749, "is_reserved": 0, "is_disabled": 0, "rental_uris": {"android": "https://dc.lft.to/lastmile_qr_scan", "ios": "https://dc.lft.to/lastmile_qr_scan"}, "name": "331ba262fbcd7dafd71d0b6ccc9f2b38", "type": "electric_scooter"}, {"fusion_lat": 0.0, "bike_id": "5837597a1d92c726c41d689cfa0c7d24", "fusion_lon": 0.0, "lon": -77.03436033333334, "lat": 38.918068, "is_reserved": 0, "is_disabled": 0, "rental_uris": {"android": "https://dc.lft.to/lastmile_qr_scan", "ios": "https://dc.lft.to/lastmile_qr_scan"}, "name": "5837597a1d92c726c41d689cfa0c7d24", "type": "electric_scooter"}, {"fusion_lat": 0.0, "bike_id": "026ad3df6263b63ee3dca1b5057628ea", "fusion_lon": 0.0, "lon": -77.03999633333333, "lat": 38.907894166666665, "is_reserved": 0, "is_disabled": 0, "rental_uris": {"android": "https://dc.lft.to/lastmile_qr_scan", "ios": "https://dc.lft.to/lastmile_qr_scan"}, "name": "026ad3df6263b63ee3dca1b5057628ea", "type": "electric_scooter"}, {"fusion_lat": 0.0, "bike_id": "d2bd4dcacaaf7b51e62b74f7b3c8b8de", "fusion_lon": 0.0, "lon": -77.05315333333333, "lat": 38.906566166666664, "is_reserved": 0, "is_disabled": 0, "rental_uris": {"android": "https://dc.lft.to/lastmile_qr_scan", "ios": "https://dc.lft.to/lastmile_qr_scan"}, "name": "d2bd4dcacaaf7b51e62b74f7b3c8b8de", "type": "electric_scooter"}, {"fusion_lat": 0.0, "bike_id": "20fbfa1d2ee139287e9caea1a73cbabf", "fusion_lon": 0.0, "lon": -76.998732, "lat": 38.88640083333333, "is_reserved": 0, "is_disabled": 0, "rental_uris": {"android": "https://dc.lft.to/lastmile_qr_scan", "ios": "https://dc.lft.to/lastmile_qr_scan"}, "name": "20fbfa1d2ee139287e9caea1a73cbabf", "type": "electric_scooter"}, {"fusion_lat": 0.0, "bike_id": "107bfb2eaa785990d2ebe28c09adb732", "fusion_lon": 0.0, "lon": -77.02708916666667, "lat": 38.949873333333336, "is_reserved": 0, "is_disabled": 0, "rental_uris": {"android": "https://dc.lft.to/lastmile_qr_scan", "ios": "https://dc.lft.to/lastmile_qr_scan"}, "name": "107bfb2eaa785990d2ebe28c09adb732", "type": "electric_scooter"}, {"fusion_lat": 0.0, "bike_id": "6a6e76e2362bb1ffed8e28b954c9f1b1", "fusion_lon": 0.0, "lon": -76.98818383333334, "lat": 38.90037216666666, "is_reserved": 0, "is_disabled": 0, "rental_uris": {"android": "https://dc.lft.to/lastmile_qr_scan", "ios": "https://dc.lft.to/lastmile_qr_scan"}, "name": "6a6e76e2362bb1ffed8e28b954c9f1b1", "type": "electric_scooter"}, {"fusion_lat": 0.0, "bike_id": "cf22d0061e7cec3577b5833f40c7137c", "fusion_lon": 0.0, "lon": -77.005415, "lat": 38.874594333333334, "is_reserved": 0, "is_disabled": 0, "rental_uris": {"android": "https://dc.lft.to/lastmile_qr_scan", "ios": "https://dc.lft.to/lastmile_qr_scan"}, "name": "cf22d0061e7cec3577b5833f40c7137c", "type": "electric_scooter"}, {"fusion_lat": 0.0, "bike_id": "1fea53641092f31817b852448a4c0f72", "fusion_lon": 0.0, "lon": -77.037586, "lat": 38.90773733333333, "is_reserved": 0, "is_disabled": 0, "rental_uris": {"android": "https://dc.lft.to/lastmile_qr_scan", "ios": "https://dc.lft.to/lastmile_qr_scan"}, "name": "1fea53641092f31817b852448a4c0f72", "type": "electric_scooter"}, {"fusion_lat": 0.0, "bike_id": "4a5c43ea7a23bb12a9371cf664183f55", "fusion_lon": 0.0, "lon": -76.99563916666666, "lat": 38.85178716666667, "is_reserved": 0, "is_disabled": 0, "rental_uris": {"android": "https://dc.lft.to/lastmile_qr_scan", "ios": "https://dc.lft.to/lastmile_qr_scan"}, "name": "4a5c43ea7a23bb12a9371cf664183f55", "type": "electric_bike"}, {"fusion_lat": 0.0, "bike_id": "6235b578aac0903a8f88b6886eadf270", "fusion_lon": 0.0, "lon": -77.04274233333334, "lat": 38.90961216666667, "is_reserved": 0, "is_disabled": 0, "rental_uris": {"android": "https://dc.lft.to/lastmile_qr_scan", "ios": "https://dc.lft.to/lastmile_qr_scan"}, "name": "6235b578aac0903a8f88b6886eadf270", "type": "electric_scooter"}, {"fusion_lat": 0.0, "bike_id": "8a036c1386156631a32d524d2411bd5f", "fusion_lon": 0.0, "lon": -77.05042366666666, "lat": 38.905257166666665, "is_reserved": 0, "is_disabled": 0, "rental_uris": {"android": "https://dc.lft.to/lastmile_qr_scan", "ios": "https://dc.lft.to/lastmile_qr_scan"}, "name": "8a036c1386156631a32d524d2411bd5f", "type": "electric_scooter"}, {"fusion_lat": 0.0, "bike_id": "7fb5d398b554b5d7c247456ff3aeebe9", "fusion_lon": 0.0, "lon": -77.02885383333333, "lat": 38.9327725, "is_reserved": 0, "is_disabled": 0, "rental_uris": {"android": "https://dc.lft.to/lastmile_qr_scan", "ios": "https://dc.lft.to/lastmile_qr_scan"}, "name": "7fb5d398b554b5d7c247456ff3aeebe9", "type": "electric_scooter"}, {"fusion_lat": 0.0, "bike_id": "42b0d44126402b8e6f1c7c83902ba88d", "fusion_lon": 0.0, "lon": -76.9336655, "lat": 38.8990945, "is_reserved": 0, "is_disabled": 0, "rental_uris": {"android": "https://dc.lft.to/lastmile_qr_scan", "ios": "https://dc.lft.to/lastmile_qr_scan"}, "name": "42b0d44126402b8e6f1c7c83902ba88d", "type": "electric_scooter"}, {"fusion_lat": 0.0, "bike_id": "e331d01ed7121398de6fcd792dec0845", "fusion_lon": 0.0, "lon": -77.01511083333334, "lat": 38.90238766666667, "is_reserved": 0, "is_disabled": 0, "rental_uris": {"android": "https://dc.lft.to/lastmile_qr_scan", "ios": "https://dc.lft.to/lastmile_qr_scan"}, "name": "e331d01ed7121398de6fcd792dec0845", "type": "electric_scooter"}, {"fusion_lat": 0.0, "bike_id": "bbaf7984e9982f7c917b7e3b7b71a91c", "fusion_lon": 0.0, "lon": -77.05312, "lat": 38.91553566666666, "is_reserved": 0, "is_disabled": 0, "rental_uris": {"android": "https://dc.lft.to/lastmile_qr_scan", "ios": "https://dc.lft.to/lastmile_qr_scan"}, "name": "bbaf7984e9982f7c917b7e3b7b71a91c", "type": "electric_scooter"}, {"fusion_lat": 0.0, "bike_id": "7983206328b1d5152d0931c376bce1d5", "fusion_lon": 0.0, "lon": -77.01982066666666, "lat": 38.91563, "is_reserved": 0, "is_disabled": 0, "rental_uris": {"android": "https://dc.lft.to/lastmile_qr_scan", "ios": "https://dc.lft.to/lastmile_qr_scan"}, "name": "7983206328b1d5152d0931c376bce1d5", "type": "electric_scooter"}, {"fusion_lat": 0.0, "bike_id": "86adb7a8583a2225f0869f5c866a3260", "fusion_lon": 0.0, "lon": -76.9488385, "lat": 38.8942085, "is_reserved": 0, "is_disabled": 0, "rental_uris": {"android": "https://dc.lft.to/lastmile_qr_scan", "ios": "https://dc.lft.to/lastmile_qr_scan"}, "name": "86adb7a8583a2225f0869f5c866a3260", "type": "electric_scooter"}, {"fusion_lat": 0.0, "bike_id": "4ec5f01edb592487c1519d27f093cea3", "fusion_lon": 0.0, "lon": -77.00722183333333, "lat": 38.88494033333333, "is_reserved": 0, "is_disabled": 0, "rental_uris": {"android": "https://dc.lft.to/lastmile_qr_scan", "ios": "https://dc.lft.to/lastmile_qr_scan"}, "name": "4ec5f01edb592487c1519d27f093cea3", "type": "electric_scooter"}, {"fusion_lat": 0.0, "bike_id": "b859cfe376a25275f8a230eadf48b18f", "fusion_lon": 0.0, "lon": -77.03638666666667, "lat": 38.927456166666666, "is_reserved": 0, "is_disabled": 0, "rental_uris": {"android": "https://dc.lft.to/lastmile_qr_scan", "ios": "https://dc.lft.to/lastmile_qr_scan"}, "name": "b859cfe376a25275f8a230eadf48b18f", "type": "electric_scooter"}, {"fusion_lat": 0.0, "bike_id": "1e41ead2e5403eb53a21a66837b4473d", "fusion_lon": 0.0, "lon": -77.03324516666666, "lat": 38.909720666666665, "is_reserved": 0, "is_disabled": 0, "rental_uris": {"android": "https://dc.lft.to/lastmile_qr_scan", "ios": "https://dc.lft.to/lastmile_qr_scan"}, "name": "1e41ead2e5403eb53a21a66837b4473d", "type": "electric_scooter"}, {"fusion_lat": 0.0, "bike_id": "2c873c6a5f30e0e57eb86a4b309ab0bf", "fusion_lon": 0.0, "lon": -77.0295365, "lat": 38.916859, "is_reserved": 0, "is_disabled": 0, "rental_uris": {"android": "https://dc.lft.to/lastmile_qr_scan", "ios": "https://dc.lft.to/lastmile_qr_scan"}, "name": "2c873c6a5f30e0e57eb86a4b309ab0bf", "type": "electric_scooter"}, {"fusion_lat": 0.0, "bike_id": "43e6010c5c55940d345bf585573956b3", "fusion_lon": 0.0, "lon": -77.043691, "lat": 38.92098166666667, "is_reserved": 0, "is_disabled": 0, "rental_uris": {"android": "https://dc.lft.to/lastmile_qr_scan", "ios": "https://dc.lft.to/lastmile_qr_scan"}, "name": "43e6010c5c55940d345bf585573956b3", "type": "electric_scooter"}, {"fusion_lat": 0.0, "bike_id": "fde4cfdfec22e91452698a63fe513650", "fusion_lon": 0.0, "lon": -76.9776485, "lat": 38.9515325, "is_reserved": 0, "is_disabled": 0, "rental_uris": {"android": "https://dc.lft.to/lastmile_qr_scan", "ios": "https://dc.lft.to/lastmile_qr_scan"}, "name": "fde4cfdfec22e91452698a63fe513650", "type": "electric_bike"}, {"fusion_lat": 0.0, "bike_id": "28d8ef38706b0225e864c5396dfbaafa", "fusion_lon": 0.0, "lon": -77.02592533333333, "lat": 38.942032, "is_reserved": 0, "is_disabled": 0, "rental_uris": {"android": "https://dc.lft.to/lastmile_qr_scan", "ios": "https://dc.lft.to/lastmile_qr_scan"}, "name": "28d8ef38706b0225e864c5396dfbaafa", "type": "electric_scooter"}, {"fusion_lat": 0.0, "bike_id": "12df3cbbe236ee7198222cacd4d94b1f", "fusion_lon": 0.0, "lon": -77.05144933333334, "lat": 38.90366266666667, "is_reserved": 0, "is_disabled": 0, "rental_uris": {"android": "https://dc.lft.to/lastmile_qr_scan", "ios": "https://dc.lft.to/lastmile_qr_scan"}, "name": "12df3cbbe236ee7198222cacd4d94b1f", "type": "electric_scooter"}, {"fusion_lat": 0.0, "bike_id": "d6160d73ea39b308d7cb462bc03a3d73", "fusion_lon": 0.0, "lon": -77.05250916666667, "lat": 38.92733716666667, "is_reserved": 0, "is_disabled": 0, "rental_uris": {"android": "https://dc.lft.to/lastmile_qr_scan", "ios": "https://dc.lft.to/lastmile_qr_scan"}, "name": "d6160d73ea39b308d7cb462bc03a3d73", "type": "electric_scooter"}, {"fusion_lat": 0.0, "bike_id": "887bf21b992c553cf23052628ef026c3", "fusion_lon": 0.0, "lon": -77.06032933333333, "lat": 38.933555, "is_reserved": 0, "is_disabled": 0, "rental_uris": {"android": "https://dc.lft.to/lastmile_qr_scan", "ios": "https://dc.lft.to/lastmile_qr_scan"}, "name": "887bf21b992c553cf23052628ef026c3", "type": "electric_scooter"}, {"fusion_lat": 0.0, "bike_id": "e3c6b38d24263d0ab4dfed438b7edfb8", "fusion_lon": 0.0, "lon": -77.02950833333334, "lat": 38.885064666666665, "is_reserved": 0, "is_disabled": 0, "rental_uris": {"android": "https://dc.lft.to/lastmile_qr_scan", "ios": "https://dc.lft.to/lastmile_qr_scan"}, "name": "e3c6b38d24263d0ab4dfed438b7edfb8", "type": "electric_scooter"}, {"fusion_lat": 0.0, "bike_id": "e4f7ee2536f11c107d9fd436a3c41ecc", "fusion_lon": 0.0, "lon": -77.03882683333333, "lat": 38.94869816666667, "is_reserved": 0, "is_disabled": 0, "rental_uris": {"android": "https://dc.lft.to/lastmile_qr_scan", "ios": "https://dc.lft.to/lastmile_qr_scan"}, "name": "e4f7ee2536f11c107d9fd436a3c41ecc", "type": "electric_scooter"}, {"fusion_lat": 0.0, "bike_id": "a8953e560676aed42ece2044ea5652a1", "fusion_lon": 0.0, "lon": -76.95653566666667, "lat": 38.8962185, "is_reserved": 0, "is_disabled": 0, "rental_uris": {"android": "https://dc.lft.to/lastmile_qr_scan", "ios": "https://dc.lft.to/lastmile_qr_scan"}, "name": "a8953e560676aed42ece2044ea5652a1", "type": "electric_scooter"}, {"fusion_lat": 0.0, "bike_id": "79129e71f351d936cce81e27eacf43af", "fusion_lon": 0.0, "lon": -77.1873675, "lat": 38.893505166666664, "is_reserved": 0, "is_disabled": 0, "rental_uris": {"android": "https://dc.lft.to/lastmile_qr_scan", "ios": "https://dc.lft.to/lastmile_qr_scan"}, "name": "79129e71f351d936cce81e27eacf43af", "type": "electric_bike"}, {"fusion_lat": 0.0, "bike_id": "71fd15c78a4b454ea3f5b1be17cfc15c", "fusion_lon": 0.0, "lon": -77.00284233333333, "lat": 38.9116345, "is_reserved": 0, "is_disabled": 0, "rental_uris": {"android": "https://dc.lft.to/lastmile_qr_scan", "ios": "https://dc.lft.to/lastmile_qr_scan"}, "name": "71fd15c78a4b454ea3f5b1be17cfc15c", "type": "electric_bike"}, {"fusion_lat": 0.0, "bike_id": "202116a88db22594d116f3ed0e261ad3", "fusion_lon": 0.0, "lon": -77.033334, "lat": 38.9038875, "is_reserved": 0, "is_disabled": 0, "rental_uris": {"android": "https://dc.lft.to/lastmile_qr_scan", "ios": "https://dc.lft.to/lastmile_qr_scan"}, "name": "202116a88db22594d116f3ed0e261ad3", "type": "electric_scooter"}, {"fusion_lat": 0.0, "bike_id": "78d7bfc54a6e99d4f898c6e186ae6126", "fusion_lon": 0.0, "lon": -77.18562583333333, "lat": 38.92969083333333, "is_reserved": 0, "is_disabled": 0, "rental_uris": {"android": "https://dc.lft.to/lastmile_qr_scan", "ios": "https://dc.lft.to/lastmile_qr_scan"}, "name": "78d7bfc54a6e99d4f898c6e186ae6126", "type": "electric_bike"}, {"fusion_lat": 0.0, "bike_id": "ef25cf8095320035f2dbeee582d546a2", "fusion_lon": 0.0, "lon": -77.02466633333333, "lat": 38.94202416666667, "is_reserved": 0, "is_disabled": 0, "rental_uris": {"android": "https://dc.lft.to/lastmile_qr_scan", "ios": "https://dc.lft.to/lastmile_qr_scan"}, "name": "ef25cf8095320035f2dbeee582d546a2", "type": "electric_scooter"}, {"fusion_lat": 0.0, "bike_id": "a226d5fc47d8d18cf16bddde62dacea0", "fusion_lon": 0.0, "lon": -77.0464415, "lat": 39.0550155, "is_reserved": 0, "is_disabled": 0, "rental_uris": {"android": "https://dc.lft.to/lastmile_qr_scan", "ios": "https://dc.lft.to/lastmile_qr_scan"}, "name": "a226d5fc47d8d18cf16bddde62dacea0", "type": "electric_bike"}, {"fusion_lat": 0.0, "bike_id": "5fd7ec909349521b5a19d4e6ddf7c858", "fusion_lon": 0.0, "lon": -77.02482333333333, "lat": 38.9169395, "is_reserved": 0, "is_disabled": 0, "rental_uris": {"android": "https://dc.lft.to/lastmile_qr_scan", "ios": "https://dc.lft.to/lastmile_qr_scan"}, "name": "5fd7ec909349521b5a19d4e6ddf7c858", "type": "electric_scooter"}, {"fusion_lat": 0.0, "bike_id": "499560e591f8c63a1c7f11dc5de281ac", "fusion_lon": 0.0, "lon": -76.88402133333334, "lat": 38.93171066666667, "is_reserved": 0, "is_disabled": 0, "rental_uris": {"android": "https://dc.lft.to/lastmile_qr_scan", "ios": "https://dc.lft.to/lastmile_qr_scan"}, "name": "499560e591f8c63a1c7f11dc5de281ac", "type": "electric_bike"}, {"fusion_lat": 0.0, "bike_id": "5e30bdcdc28ee5cfc5d70209f04fe8e2", "fusion_lon": 0.0, "lon": -77.048898, "lat": 38.892253333333336, "is_reserved": 0, "is_disabled": 0, "rental_uris": {"android": "https://dc.lft.to/lastmile_qr_scan", "ios": "https://dc.lft.to/lastmile_qr_scan"}, "name": "5e30bdcdc28ee5cfc5d70209f04fe8e2", "type": "electric_scooter"}, {"fusion_lat": 0.0, "bike_id": "3b1434d47eea09cba6d8a16aaaaa7e70", "fusion_lon": 0.0, "lon": -77.03296633333333, "lat": 38.92846433333333, "is_reserved": 0, "is_disabled": 0, "rental_uris": {"android": "https://dc.lft.to/lastmile_qr_scan", "ios": "https://dc.lft.to/lastmile_qr_scan"}, "name": "3b1434d47eea09cba6d8a16aaaaa7e70", "type": "electric_scooter"}, {"fusion_lat": 0.0, "bike_id": "cc58bfa5681164a03704099a5aa270c0", "fusion_lon": 0.0, "lon": -77.03209416666667, "lat": 38.916065333333336, "is_reserved": 0, "is_disabled": 0, "rental_uris": {"android": "https://dc.lft.to/lastmile_qr_scan", "ios": "https://dc.lft.to/lastmile_qr_scan"}, "name": "cc58bfa5681164a03704099a5aa270c0", "type": "electric_scooter"}, {"fusion_lat": 0.0, "bike_id": "06640d363179128d7949abf4418fbad3", "fusion_lon": 0.0, "lon": -77.05044533333333, "lat": 38.904960833333334, "is_reserved": 0, "is_disabled": 0, "rental_uris": {"android": "https://dc.lft.to/lastmile_qr_scan", "ios": "https://dc.lft.to/lastmile_qr_scan"}, "name": "06640d363179128d7949abf4418fbad3", "type": "electric_scooter"}, {"fusion_lat": 0.0, "bike_id": "2e821ce0489cc3577d903daf2e95142d", "fusion_lon": 0.0, "lon": -76.9319065, "lat": 38.8988255, "is_reserved": 0, "is_disabled": 0, "rental_uris": {"android": "https://dc.lft.to/lastmile_qr_scan", "ios": "https://dc.lft.to/lastmile_qr_scan"}, "name": "2e821ce0489cc3577d903daf2e95142d", "type": "electric_scooter"}, {"fusion_lat": 0.0, "bike_id": "a01f7e7bb803bb8eb856b6ab459e2540", "fusion_lon": 0.0, "lon": -76.99710683333333, "lat": 38.84536166666667, "is_reserved": 0, "is_disabled": 0, "rental_uris": {"android": "https://dc.lft.to/lastmile_qr_scan", "ios": "https://dc.lft.to/lastmile_qr_scan"}, "name": "a01f7e7bb803bb8eb856b6ab459e2540", "type": "electric_scooter"}, {"fusion_lat": 0.0, "bike_id": "57a1c5606226216285f5dbb1ca78f80d", "fusion_lon": 0.0, "lon": -76.98945166666667, "lat": 38.8669305, "is_reserved": 0, "is_disabled": 0, "rental_uris": {"android": "https://dc.lft.to/lastmile_qr_scan", "ios": "https://dc.lft.to/lastmile_qr_scan"}, "name": "57a1c5606226216285f5dbb1ca78f80d", "type": "electric_bike"}, {"fusion_lat": 0.0, "bike_id": "d5d45d090a83a3d38b391dd3d7316afe", "fusion_lon": 0.0, "lon": -77.03183383333334, "lat": 38.8962175, "is_reserved": 0, "is_disabled": 0, "rental_uris": {"android": "https://dc.lft.to/lastmile_qr_scan", "ios": "https://dc.lft.to/lastmile_qr_scan"}, "name": "d5d45d090a83a3d38b391dd3d7316afe", "type": "electric_scooter"}, {"fusion_lat": 0.0, "bike_id": "a9550096907e026545ea55f738eb8438", "fusion_lon": 0.0, "lon": -76.985938, "lat": 38.86684283333334, "is_reserved": 0, "is_disabled": 0, "rental_uris": {"android": "https://dc.lft.to/lastmile_qr_scan", "ios": "https://dc.lft.to/lastmile_qr_scan"}, "name": "a9550096907e026545ea55f738eb8438", "type": "electric_scooter"}, {"fusion_lat": 0.0, "bike_id": "e9cb43f8ebcfeee5213aaa9e2a0214cd", "fusion_lon": 0.0, "lon": -77.02415333333333, "lat": 38.918222, "is_reserved": 0, "is_disabled": 0, "rental_uris": {"android": "https://dc.lft.to/lastmile_qr_scan", "ios": "https://dc.lft.to/lastmile_qr_scan"}, "name": "e9cb43f8ebcfeee5213aaa9e2a0214cd", "type": "electric_scooter"}, {"fusion_lat": 0.0, "bike_id": "a88aed5c1044773a13cef117f0d40ac0", "fusion_lon": 0.0, "lon": -77.03262616666666, "lat": 38.932624833333335, "is_reserved": 0, "is_disabled": 0, "rental_uris": {"android": "https://dc.lft.to/lastmile_qr_scan", "ios": "https://dc.lft.to/lastmile_qr_scan"}, "name": "a88aed5c1044773a13cef117f0d40ac0", "type": "electric_scooter"}, {"fusion_lat": 0.0, "bike_id": "85a5403774c03dfef947cba2e1fee07d", "fusion_lon": 0.0, "lon": -77.03169066666666, "lat": 38.903489666666665, "is_reserved": 0, "is_disabled": 0, "rental_uris": {"android": "https://dc.lft.to/lastmile_qr_scan", "ios": "https://dc.lft.to/lastmile_qr_scan"}, "name": "85a5403774c03dfef947cba2e1fee07d", "type": "electric_scooter"}, {"fusion_lat": 0.0, "bike_id": "da0687c60e216440ce26bd8ccb797393", "fusion_lon": 0.0, "lon": -77.04724266666666, "lat": 38.8972695, "is_reserved": 0, "is_disabled": 0, "rental_uris": {"android": "https://dc.lft.to/lastmile_qr_scan", "ios": "https://dc.lft.to/lastmile_qr_scan"}, "name": "da0687c60e216440ce26bd8ccb797393", "type": "electric_scooter"}, {"fusion_lat": 0.0, "bike_id": "7ece4a818d71f914da314cd03088dfa4", "fusion_lon": 0.0, "lon": -77.05183483333333, "lat": 38.92424033333333, "is_reserved": 0, "is_disabled": 0, "rental_uris": {"android": "https://dc.lft.to/lastmile_qr_scan", "ios": "https://dc.lft.to/lastmile_qr_scan"}, "name": "7ece4a818d71f914da314cd03088dfa4", "type": "electric_scooter"}, {"fusion_lat": 0.0, "bike_id": "5fa7bc46f9699ec81f60ac1bd87ff8e2", "fusion_lon": 0.0, "lon": -77.056105, "lat": 38.9315935, "is_reserved": 0, "is_disabled": 0, "rental_uris": {"android": "https://dc.lft.to/lastmile_qr_scan", "ios": "https://dc.lft.to/lastmile_qr_scan"}, "name": "5fa7bc46f9699ec81f60ac1bd87ff8e2", "type": "electric_scooter"}, {"fusion_lat": 0.0, "bike_id": "a494358929b7fde45fb76ab22955743e", "fusion_lon": 0.0, "lon": -76.97742116666667, "lat": 38.87149466666666, "is_reserved": 0, "is_disabled": 0, "rental_uris": {"android": "https://dc.lft.to/lastmile_qr_scan", "ios": "https://dc.lft.to/lastmile_qr_scan"}, "name": "a494358929b7fde45fb76ab22955743e", "type": "electric_scooter"}, {"fusion_lat": 0.0, "bike_id": "ad9a36e95094dafc6b97287524467b23", "fusion_lon": 0.0, "lon": -76.98365166666666, "lat": 38.88959333333333, "is_reserved": 0, "is_disabled": 0, "rental_uris": {"android": "https://dc.lft.to/lastmile_qr_scan", "ios": "https://dc.lft.to/lastmile_qr_scan"}, "name": "ad9a36e95094dafc6b97287524467b23", "type": "electric_scooter"}, {"fusion_lat": 0.0, "bike_id": "5bc95119a716cb2129ef989e5315d770", "fusion_lon": 0.0, "lon": -77.03379616666666, "lat": 38.9216165, "is_reserved": 0, "is_disabled": 0, "rental_uris": {"android": "https://dc.lft.to/lastmile_qr_scan", "ios": "https://dc.lft.to/lastmile_qr_scan"}, "name": "5bc95119a716cb2129ef989e5315d770", "type": "electric_scooter"}, {"fusion_lat": 0.0, "bike_id": "679beda6d237539c5e97eecc02692722", "fusion_lon": 0.0, "lon": -77.06107866666666, "lat": 38.939463333333336, "is_reserved": 0, "is_disabled": 0, "rental_uris": {"android": "https://dc.lft.to/lastmile_qr_scan", "ios": "https://dc.lft.to/lastmile_qr_scan"}, "name": "679beda6d237539c5e97eecc02692722", "type": "electric_scooter"}, {"fusion_lat": 0.0, "bike_id": "3e97ad5d671fde4e3b69a6a0fc2729f1", "fusion_lon": 0.0, "lon": -77.06142083333333, "lat": 38.9436955, "is_reserved": 0, "is_disabled": 0, "rental_uris": {"android": "https://dc.lft.to/lastmile_qr_scan", "ios": "https://dc.lft.to/lastmile_qr_scan"}, "name": "3e97ad5d671fde4e3b69a6a0fc2729f1", "type": "electric_scooter"}, {"fusion_lat": 0.0, "bike_id": "74492addcac808f0fc27c212433888b6", "fusion_lon": 0.0, "lon": -77.0296785, "lat": 38.917252500000004, "is_reserved": 0, "is_disabled": 0, "rental_uris": {"android": "https://dc.lft.to/lastmile_qr_scan", "ios": "https://dc.lft.to/lastmile_qr_scan"}, "name": "74492addcac808f0fc27c212433888b6", "type": "electric_scooter"}, {"fusion_lat": 0.0, "bike_id": "26052267054b0444c495e53e69267cc4", "fusion_lon": 0.0, "lon": -77.03083416666666, "lat": 38.92249283333334, "is_reserved": 0, "is_disabled": 0, "rental_uris": {"android": "https://dc.lft.to/lastmile_qr_scan", "ios": "https://dc.lft.to/lastmile_qr_scan"}, "name": "26052267054b0444c495e53e69267cc4", "type": "electric_scooter"}, {"fusion_lat": 0.0, "bike_id": "57c0a928981bec8b13e90c2abf040c63", "fusion_lon": 0.0, "lon": -77.05110833333333, "lat": 38.9072455, "is_reserved": 0, "is_disabled": 0, "rental_uris": {"android": "https://dc.lft.to/lastmile_qr_scan", "ios": "https://dc.lft.to/lastmile_qr_scan"}, "name": "57c0a928981bec8b13e90c2abf040c63", "type": "electric_bike"}, {"fusion_lat": 0.0, "bike_id": "f4de5b877d232ce3601d47a0c868dca4", "fusion_lon": 0.0, "lon": -77.0296995, "lat": 38.9228025, "is_reserved": 0, "is_disabled": 0, "rental_uris": {"android": "https://dc.lft.to/lastmile_qr_scan", "ios": "https://dc.lft.to/lastmile_qr_scan"}, "name": "f4de5b877d232ce3601d47a0c868dca4", "type": "electric_scooter"}, {"fusion_lat": 0.0, "bike_id": "3342c398c0cf0e4486e759c69193cb2d", "fusion_lon": 0.0, "lon": -76.95743866666666, "lat": 38.884235333333336, "is_reserved": 0, "is_disabled": 0, "rental_uris": {"android": "https://dc.lft.to/lastmile_qr_scan", "ios": "https://dc.lft.to/lastmile_qr_scan"}, "name": "3342c398c0cf0e4486e759c69193cb2d", "type": "electric_scooter"}, {"fusion_lat": 0.0, "bike_id": "dcb2f5adbc05ee8fb0b3c09a83c2e5d6", "fusion_lon": 0.0, "lon": -77.117074, "lat": 38.867457333333334, "is_reserved": 0, "is_disabled": 0, "rental_uris": {"android": "https://dc.lft.to/lastmile_qr_scan", "ios": "https://dc.lft.to/lastmile_qr_scan"}, "name": "dcb2f5adbc05ee8fb0b3c09a83c2e5d6", "type": "electric_bike"}, {"fusion_lat": 0.0, "bike_id": "234c3cff48cd2cd9886530449221ef95", "fusion_lon": 0.0, "lon": -77.036096, "lat": 38.93680916666667, "is_reserved": 0, "is_disabled": 0, "rental_uris": {"android": "https://dc.lft.to/lastmile_qr_scan", "ios": "https://dc.lft.to/lastmile_qr_scan"}, "name": "234c3cff48cd2cd9886530449221ef95", "type": "electric_scooter"}, {"fusion_lat": 0.0, "bike_id": "895b264e83c1b69d1260335eb8721a59", "fusion_lon": 0.0, "lon": -77.02096616666667, "lat": 38.93262633333333, "is_reserved": 0, "is_disabled": 0, "rental_uris": {"android": "https://dc.lft.to/lastmile_qr_scan", "ios": "https://dc.lft.to/lastmile_qr_scan"}, "name": "895b264e83c1b69d1260335eb8721a59", "type": "electric_scooter"}, {"fusion_lat": 0.0, "bike_id": "fa98b2dd8344f6a0f7efa644b13ab997", "fusion_lon": 0.0, "lon": -76.9979585, "lat": 38.82908716666667, "is_reserved": 0, "is_disabled": 0, "rental_uris": {"android": "https://dc.lft.to/lastmile_qr_scan", "ios": "https://dc.lft.to/lastmile_qr_scan"}, "name": "fa98b2dd8344f6a0f7efa644b13ab997", "type": "electric_bike"}, {"fusion_lat": 0.0, "bike_id": "e6f6773bda1881188e3403bb8dcb64bd", "fusion_lon": 0.0, "lon": -77.0239255, "lat": 38.91724683333333, "is_reserved": 0, "is_disabled": 0, "rental_uris": {"android": "https://dc.lft.to/lastmile_qr_scan", "ios": "https://dc.lft.to/lastmile_qr_scan"}, "name": "e6f6773bda1881188e3403bb8dcb64bd", "type": "electric_scooter"}, {"fusion_lat": 0.0, "bike_id": "b59895ec51f5af903c4ccf949f160fd0", "fusion_lon": 0.0, "lon": -77.02218266666667, "lat": 38.93549733333333, "is_reserved": 0, "is_disabled": 0, "rental_uris": {"android": "https://dc.lft.to/lastmile_qr_scan", "ios": "https://dc.lft.to/lastmile_qr_scan"}, "name": "b59895ec51f5af903c4ccf949f160fd0", "type": "electric_scooter"}, {"fusion_lat": 0.0, "bike_id": "abc479cc221327891cb3c7eddd6b4214", "fusion_lon": 0.0, "lon": -77.023159, "lat": 38.894929833333336, "is_reserved": 0, "is_disabled": 0, "rental_uris": {"android": "https://dc.lft.to/lastmile_qr_scan", "ios": "https://dc.lft.to/lastmile_qr_scan"}, "name": "abc479cc221327891cb3c7eddd6b4214", "type": "electric_scooter"}, {"fusion_lat": 0.0, "bike_id": "eb47dbf20c759b99b46763e2a6ab7e04", "fusion_lon": 0.0, "lon": -77.04481333333334, "lat": 38.90241283333334, "is_reserved": 0, "is_disabled": 0, "rental_uris": {"android": "https://dc.lft.to/lastmile_qr_scan", "ios": "https://dc.lft.to/lastmile_qr_scan"}, "name": "eb47dbf20c759b99b46763e2a6ab7e04", "type": "electric_scooter"}, {"fusion_lat": 0.0, "bike_id": "8cf69c920e5dad47e031cdad7fa54c20", "fusion_lon": 0.0, "lon": -77.03093933333334, "lat": 38.910549, "is_reserved": 0, "is_disabled": 0, "rental_uris": {"android": "https://dc.lft.to/lastmile_qr_scan", "ios": "https://dc.lft.to/lastmile_qr_scan"}, "name": "8cf69c920e5dad47e031cdad7fa54c20", "type": "electric_scooter"}, {"fusion_lat": 0.0, "bike_id": "8425febc50675dcf474d8a1bd2095910", "fusion_lon": 0.0, "lon": -77.0218485, "lat": 38.90573716666667, "is_reserved": 0, "is_disabled": 0, "rental_uris": {"android": "https://dc.lft.to/lastmile_qr_scan", "ios": "https://dc.lft.to/lastmile_qr_scan"}, "name": "8425febc50675dcf474d8a1bd2095910", "type": "electric_scooter"}, {"fusion_lat": 0.0, "bike_id": "abff34a99dcb7121c7aa7bfc421a05f5", "fusion_lon": 0.0, "lon": -77.03196533333333, "lat": 38.91132566666667, "is_reserved": 0, "is_disabled": 0, "rental_uris": {"android": "https://dc.lft.to/lastmile_qr_scan", "ios": "https://dc.lft.to/lastmile_qr_scan"}, "name": "abff34a99dcb7121c7aa7bfc421a05f5", "type": "electric_scooter"}, {"fusion_lat": 0.0, "bike_id": "1891b9d8fd3a40fb699d791866adb465", "fusion_lon": 0.0, "lon": -77.02866866666666, "lat": 38.921488, "is_reserved": 0, "is_disabled": 0, "rental_uris": {"android": "https://dc.lft.to/lastmile_qr_scan", "ios": "https://dc.lft.to/lastmile_qr_scan"}, "name": "1891b9d8fd3a40fb699d791866adb465", "type": "electric_bike"}, {"fusion_lat": 0.0, "bike_id": "23133cc0e840e8a0c6865a0ec0b80934", "fusion_lon": 0.0, "lon": -77.07620166666666, "lat": 38.96575416666667, "is_reserved": 0, "is_disabled": 0, "rental_uris": {"android": "https://dc.lft.to/lastmile_qr_scan", "ios": "https://dc.lft.to/lastmile_qr_scan"}, "name": "23133cc0e840e8a0c6865a0ec0b80934", "type": "electric_bike"}, {"fusion_lat": 0.0, "bike_id": "a27a265922dc73e17daa0a659982c045", "fusion_lon": 0.0, "lon": -77.00573383333334, "lat": 38.90614016666667, "is_reserved": 0, "is_disabled": 0, "rental_uris": {"android": "https://dc.lft.to/lastmile_qr_scan", "ios": "https://dc.lft.to/lastmile_qr_scan"}, "name": "a27a265922dc73e17daa0a659982c045", "type": "electric_scooter"}, {"fusion_lat": 0.0, "bike_id": "d4bd854fe7c445acad57c0be1bb5a633", "fusion_lon": 0.0, "lon": -77.04479733333334, "lat": 38.92230566666667, "is_reserved": 0, "is_disabled": 0, "rental_uris": {"android": "https://dc.lft.to/lastmile_qr_scan", "ios": "https://dc.lft.to/lastmile_qr_scan"}, "name": "d4bd854fe7c445acad57c0be1bb5a633", "type": "electric_scooter"}, {"fusion_lat": 0.0, "bike_id": "42754a9adabf528a7bb0b5ff6a9efe82", "fusion_lon": 0.0, "lon": -77.01402533333334, "lat": 38.881193833333334, "is_reserved": 0, "is_disabled": 0, "rental_uris": {"android": "https://dc.lft.to/lastmile_qr_scan", "ios": "https://dc.lft.to/lastmile_qr_scan"}, "name": "42754a9adabf528a7bb0b5ff6a9efe82", "type": "electric_scooter"}, {"fusion_lat": 0.0, "bike_id": "eded57fe7a8bc715991c36ee8e8ccaf2", "fusion_lon": 0.0, "lon": -77.032281, "lat": 38.925799, "is_reserved": 0, "is_disabled": 0, "rental_uris": {"android": "https://dc.lft.to/lastmile_qr_scan", "ios": "https://dc.lft.to/lastmile_qr_scan"}, "name": "eded57fe7a8bc715991c36ee8e8ccaf2", "type": "electric_scooter"}, {"fusion_lat": 0.0, "bike_id": "77f36536e4dcaae1a6a22c4b8e0ab46c", "fusion_lon": 0.0, "lon": -77.039178, "lat": 38.918439666666664, "is_reserved": 0, "is_disabled": 0, "rental_uris": {"android": "https://dc.lft.to/lastmile_qr_scan", "ios": "https://dc.lft.to/lastmile_qr_scan"}, "name": "77f36536e4dcaae1a6a22c4b8e0ab46c", "type": "electric_scooter"}, {"fusion_lat": 0.0, "bike_id": "d2f25a6778fb094e396955c906d15323", "fusion_lon": 0.0, "lon": -77.103346, "lat": 38.885513, "is_reserved": 0, "is_disabled": 0, "rental_uris": {"android": "https://dc.lft.to/lastmile_qr_scan", "ios": "https://dc.lft.to/lastmile_qr_scan"}, "name": "d2f25a6778fb094e396955c906d15323", "type": "electric_bike"}, {"fusion_lat": 0.0, "bike_id": "ad9105223e9d088c39fc257eae2c1a12", "fusion_lon": 0.0, "lon": -77.04471066666666, "lat": 38.896001, "is_reserved": 0, "is_disabled": 0, "rental_uris": {"android": "https://dc.lft.to/lastmile_qr_scan", "ios": "https://dc.lft.to/lastmile_qr_scan"}, "name": "ad9105223e9d088c39fc257eae2c1a12", "type": "electric_scooter"}, {"fusion_lat": 0.0, "bike_id": "14c96f31376a93925416ad21d710b14b", "fusion_lon": 0.0, "lon": -77.029062, "lat": 38.939734666666666, "is_reserved": 0, "is_disabled": 0, "rental_uris": {"android": "https://dc.lft.to/lastmile_qr_scan", "ios": "https://dc.lft.to/lastmile_qr_scan"}, "name": "14c96f31376a93925416ad21d710b14b", "type": "electric_scooter"}, {"fusion_lat": 0.0, "bike_id": "2fbbd0859e552a8d586dd7d26f870db7", "fusion_lon": 0.0, "lon": -77.00198566666667, "lat": 38.902338666666665, "is_reserved": 0, "is_disabled": 0, "rental_uris": {"android": "https://dc.lft.to/lastmile_qr_scan", "ios": "https://dc.lft.to/lastmile_qr_scan"}, "name": "2fbbd0859e552a8d586dd7d26f870db7", "type": "electric_scooter"}, {"fusion_lat": 0.0, "bike_id": "9b1400b1acdf75d1e47c7593067a908c", "fusion_lon": 0.0, "lon": -77.04172116666666, "lat": 38.915496833333336, "is_reserved": 0, "is_disabled": 0, "rental_uris": {"android": "https://dc.lft.to/lastmile_qr_scan", "ios": "https://dc.lft.to/lastmile_qr_scan"}, "name": "9b1400b1acdf75d1e47c7593067a908c", "type": "electric_scooter"}, {"fusion_lat": 0.0, "bike_id": "314eb3790478c4a1913cc154148fc710", "fusion_lon": 0.0, "lon": -77.02020816666666, "lat": 38.91408783333333, "is_reserved": 0, "is_disabled": 0, "rental_uris": {"android": "https://dc.lft.to/lastmile_qr_scan", "ios": "https://dc.lft.to/lastmile_qr_scan"}, "name": "314eb3790478c4a1913cc154148fc710", "type": "electric_scooter"}, {"fusion_lat": 0.0, "bike_id": "8fe436d1a29d490490940a1581636585", "fusion_lon": 0.0, "lon": -77.05009483333333, "lat": 38.897769333333336, "is_reserved": 0, "is_disabled": 0, "rental_uris": {"android": "https://dc.lft.to/lastmile_qr_scan", "ios": "https://dc.lft.to/lastmile_qr_scan"}, "name": "8fe436d1a29d490490940a1581636585", "type": "electric_scooter"}, {"fusion_lat": 0.0, "bike_id": "92daddc97d92baffb73a4ae50f90e581", "fusion_lon": 0.0, "lon": -77.02435283333334, "lat": 38.902022333333335, "is_reserved": 0, "is_disabled": 0, "rental_uris": {"android": "https://dc.lft.to/lastmile_qr_scan", "ios": "https://dc.lft.to/lastmile_qr_scan"}, "name": "92daddc97d92baffb73a4ae50f90e581", "type": "electric_scooter"}, {"fusion_lat": 0.0, "bike_id": "f5f455ffdfaa9851cad3e7e48ecb0011", "fusion_lon": 0.0, "lon": -77.02249683333334, "lat": 38.92465833333333, "is_reserved": 0, "is_disabled": 0, "rental_uris": {"android": "https://dc.lft.to/lastmile_qr_scan", "ios": "https://dc.lft.to/lastmile_qr_scan"}, "name": "f5f455ffdfaa9851cad3e7e48ecb0011", "type": "electric_scooter"}, {"fusion_lat": 0.0, "bike_id": "ff250c2f316c482ca954c996178fda74", "fusion_lon": 0.0, "lon": -77.05896283333334, "lat": 38.90181616666667, "is_reserved": 0, "is_disabled": 0, "rental_uris": {"android": "https://dc.lft.to/lastmile_qr_scan", "ios": "https://dc.lft.to/lastmile_qr_scan"}, "name": "ff250c2f316c482ca954c996178fda74", "type": "electric_scooter"}, {"fusion_lat": 0.0, "bike_id": "78c43b9ea4993c5fbfb9797718a30d80", "fusion_lon": 0.0, "lon": -76.99058566666666, "lat": 38.863754, "is_reserved": 0, "is_disabled": 0, "rental_uris": {"android": "https://dc.lft.to/lastmile_qr_scan", "ios": "https://dc.lft.to/lastmile_qr_scan"}, "name": "78c43b9ea4993c5fbfb9797718a30d80", "type": "electric_scooter"}, {"fusion_lat": 0.0, "bike_id": "bcc32a28299acf351f122c91a6dc0c32", "fusion_lon": 0.0, "lon": -76.96085966666666, "lat": 38.918513833333336, "is_reserved": 0, "is_disabled": 0, "rental_uris": {"android": "https://dc.lft.to/lastmile_qr_scan", "ios": "https://dc.lft.to/lastmile_qr_scan"}, "name": "bcc32a28299acf351f122c91a6dc0c32", "type": "electric_scooter"}, {"fusion_lat": 0.0, "bike_id": "c4eb296604903dcac3e14eeeccb7d9e5", "fusion_lon": 0.0, "lon": -77.03526566666666, "lat": 38.9035255, "is_reserved": 0, "is_disabled": 0, "rental_uris": {"android": "https://dc.lft.to/lastmile_qr_scan", "ios": "https://dc.lft.to/lastmile_qr_scan"}, "name": "c4eb296604903dcac3e14eeeccb7d9e5", "type": "electric_scooter"}, {"fusion_lat": 0.0, "bike_id": "23229eab2fff038421505d2bb3c5c437", "fusion_lon": 0.0, "lon": -77.00543016666667, "lat": 38.8745905, "is_reserved": 0, "is_disabled": 0, "rental_uris": {"android": "https://dc.lft.to/lastmile_qr_scan", "ios": "https://dc.lft.to/lastmile_qr_scan"}, "name": "23229eab2fff038421505d2bb3c5c437", "type": "electric_scooter"}, {"fusion_lat": 0.0, "bike_id": "a4e2939d762dc0cdbacf4700cce2f1a5", "fusion_lon": 0.0, "lon": -77.031734, "lat": 38.8961255, "is_reserved": 0, "is_disabled": 0, "rental_uris": {"android": "https://dc.lft.to/lastmile_qr_scan", "ios": "https://dc.lft.to/lastmile_qr_scan"}, "name": "a4e2939d762dc0cdbacf4700cce2f1a5", "type": "electric_scooter"}, {"fusion_lat": 0.0, "bike_id": "937f141772e20f26d606d4e4746df717", "fusion_lon": 0.0, "lon": -76.98489916666666, "lat": 38.87836383333333, "is_reserved": 0, "is_disabled": 0, "rental_uris": {"android": "https://dc.lft.to/lastmile_qr_scan", "ios": "https://dc.lft.to/lastmile_qr_scan"}, "name": "937f141772e20f26d606d4e4746df717", "type": "electric_scooter"}, {"fusion_lat": 0.0, "bike_id": "4b95db2cdadd6e79325bea5826877022", "fusion_lon": 0.0, "lon": -76.98976116666667, "lat": 38.859153666666664, "is_reserved": 0, "is_disabled": 0, "rental_uris": {"android": "https://dc.lft.to/lastmile_qr_scan", "ios": "https://dc.lft.to/lastmile_qr_scan"}, "name": "4b95db2cdadd6e79325bea5826877022", "type": "electric_scooter"}, {"fusion_lat": 0.0, "bike_id": "9d9dadca21fba3f6831c0f3709acfb95", "fusion_lon": 0.0, "lon": -77.04800666666667, "lat": 38.90207133333333, "is_reserved": 0, "is_disabled": 0, "rental_uris": {"android": "https://dc.lft.to/lastmile_qr_scan", "ios": "https://dc.lft.to/lastmile_qr_scan"}, "name": "9d9dadca21fba3f6831c0f3709acfb95", "type": "electric_scooter"}, {"fusion_lat": 0.0, "bike_id": "422129074668f525acc32390f77d86dd", "fusion_lon": 0.0, "lon": -77.04454083333333, "lat": 38.91410483333333, "is_reserved": 0, "is_disabled": 0, "rental_uris": {"android": "https://dc.lft.to/lastmile_qr_scan", "ios": "https://dc.lft.to/lastmile_qr_scan"}, "name": "422129074668f525acc32390f77d86dd", "type": "electric_scooter"}, {"fusion_lat": 0.0, "bike_id": "85277a02c61decdac6dbd9b71e634aa6", "fusion_lon": 0.0, "lon": -77.03548483333333, "lat": 38.9247455, "is_reserved": 0, "is_disabled": 0, "rental_uris": {"android": "https://dc.lft.to/lastmile_qr_scan", "ios": "https://dc.lft.to/lastmile_qr_scan"}, "name": "85277a02c61decdac6dbd9b71e634aa6", "type": "electric_scooter"}, {"fusion_lat": 0.0, "bike_id": "2309f9ebe90c0158941746e043c5457c", "fusion_lon": 0.0, "lon": -77.0213135, "lat": 38.915593, "is_reserved": 0, "is_disabled": 0, "rental_uris": {"android": "https://dc.lft.to/lastmile_qr_scan", "ios": "https://dc.lft.to/lastmile_qr_scan"}, "name": "2309f9ebe90c0158941746e043c5457c", "type": "electric_scooter"}, {"fusion_lat": 0.0, "bike_id": "2238d093d6d3fca7d9d9e064212d74be", "fusion_lon": 0.0, "lon": -76.985269, "lat": 38.8668695, "is_reserved": 0, "is_disabled": 0, "rental_uris": {"android": "https://dc.lft.to/lastmile_qr_scan", "ios": "https://dc.lft.to/lastmile_qr_scan"}, "name": "2238d093d6d3fca7d9d9e064212d74be", "type": "electric_scooter"}, {"fusion_lat": 0.0, "bike_id": "24df565ce0c8ac49af1101e42c1a1cc6", "fusion_lon": 0.0, "lon": -77.0392425, "lat": 38.918471, "is_reserved": 0, "is_disabled": 0, "rental_uris": {"android": "https://dc.lft.to/lastmile_qr_scan", "ios": "https://dc.lft.to/lastmile_qr_scan"}, "name": "24df565ce0c8ac49af1101e42c1a1cc6", "type": "electric_scooter"}, {"fusion_lat": 0.0, "bike_id": "f872fc6ee364170a1213f18fe8bac7fc", "fusion_lon": 0.0, "lon": -77.034627, "lat": 38.90949033333333, "is_reserved": 0, "is_disabled": 0, "rental_uris": {"android": "https://dc.lft.to/lastmile_qr_scan", "ios": "https://dc.lft.to/lastmile_qr_scan"}, "name": "f872fc6ee364170a1213f18fe8bac7fc", "type": "electric_scooter"}, {"fusion_lat": 0.0, "bike_id": "280ed3c3950c80cc335307756be0d63c", "fusion_lon": 0.0, "lon": -76.996478, "lat": 38.98828833333334, "is_reserved": 0, "is_disabled": 0, "rental_uris": {"android": "https://dc.lft.to/lastmile_qr_scan", "ios": "https://dc.lft.to/lastmile_qr_scan"}, "name": "280ed3c3950c80cc335307756be0d63c", "type": "electric_bike"}, {"fusion_lat": 0.0, "bike_id": "0ad9adccbbc35dc380dd99494e73d065", "fusion_lon": 0.0, "lon": -77.023502, "lat": 38.8921975, "is_reserved": 0, "is_disabled": 0, "rental_uris": {"android": "https://dc.lft.to/lastmile_qr_scan", "ios": "https://dc.lft.to/lastmile_qr_scan"}, "name": "0ad9adccbbc35dc380dd99494e73d065", "type": "electric_scooter"}, {"fusion_lat": 0.0, "bike_id": "52d43b373a8369382da3f695d4e62fcc", "fusion_lon": 0.0, "lon": -77.031939, "lat": 38.9115375, "is_reserved": 0, "is_disabled": 0, "rental_uris": {"android": "https://dc.lft.to/lastmile_qr_scan", "ios": "https://dc.lft.to/lastmile_qr_scan"}, "name": "52d43b373a8369382da3f695d4e62fcc", "type": "electric_scooter"}, {"fusion_lat": 0.0, "bike_id": "eb1c461ae552b3a4557d7b277c54bd9b", "fusion_lon": 0.0, "lon": -77.05316783333333, "lat": 38.82051116666667, "is_reserved": 0, "is_disabled": 0, "rental_uris": {"android": "https://dc.lft.to/lastmile_qr_scan", "ios": "https://dc.lft.to/lastmile_qr_scan"}, "name": "eb1c461ae552b3a4557d7b277c54bd9b", "type": "electric_bike"}, {"fusion_lat": 0.0, "bike_id": "0fccdc2b332ce7d311723da380591a9e", "fusion_lon": 0.0, "lon": -77.02957466666666, "lat": 38.91564366666667, "is_reserved": 0, "is_disabled": 0, "rental_uris": {"android": "https://dc.lft.to/lastmile_qr_scan", "ios": "https://dc.lft.to/lastmile_qr_scan"}, "name": "0fccdc2b332ce7d311723da380591a9e", "type": "electric_scooter"}, {"fusion_lat": 0.0, "bike_id": "2196197e147b3b31558fb9bff49a4ab7", "fusion_lon": 0.0, "lon": -77.01513083333333, "lat": 38.9677895, "is_reserved": 0, "is_disabled": 0, "rental_uris": {"android": "https://dc.lft.to/lastmile_qr_scan", "ios": "https://dc.lft.to/lastmile_qr_scan"}, "name": "2196197e147b3b31558fb9bff49a4ab7", "type": "electric_scooter"}, {"fusion_lat": 0.0, "bike_id": "1dec341b943d566c948bf8219d448173", "fusion_lon": 0.0, "lon": -77.03158933333333, "lat": 38.905090333333334, "is_reserved": 0, "is_disabled": 0, "rental_uris": {"android": "https://dc.lft.to/lastmile_qr_scan", "ios": "https://dc.lft.to/lastmile_qr_scan"}, "name": "1dec341b943d566c948bf8219d448173", "type": "electric_scooter"}, {"fusion_lat": 0.0, "bike_id": "3edc0f0ff215ef9bdb243f56302b0358", "fusion_lon": 0.0, "lon": -77.03385716666666, "lat": 38.909872166666666, "is_reserved": 0, "is_disabled": 0, "rental_uris": {"android": "https://dc.lft.to/lastmile_qr_scan", "ios": "https://dc.lft.to/lastmile_qr_scan"}, "name": "3edc0f0ff215ef9bdb243f56302b0358", "type": "electric_scooter"}, {"fusion_lat": 0.0, "bike_id": "c26330355125bf9378d4aecee7e84b45", "fusion_lon": 0.0, "lon": -76.99674716666667, "lat": 38.860313, "is_reserved": 0, "is_disabled": 0, "rental_uris": {"android": "https://dc.lft.to/lastmile_qr_scan", "ios": "https://dc.lft.to/lastmile_qr_scan"}, "name": "c26330355125bf9378d4aecee7e84b45", "type": "electric_scooter"}, {"fusion_lat": 0.0, "bike_id": "4847634c7212608e64bf8908a3f5c94e", "fusion_lon": 0.0, "lon": -77.03228283333333, "lat": 38.904934, "is_reserved": 0, "is_disabled": 0, "rental_uris": {"android": "https://dc.lft.to/lastmile_qr_scan", "ios": "https://dc.lft.to/lastmile_qr_scan"}, "name": "4847634c7212608e64bf8908a3f5c94e", "type": "electric_scooter"}, {"fusion_lat": 0.0, "bike_id": "b789e0c1b8179fbe0061474ae6723fae", "fusion_lon": 0.0, "lon": -77.01412016666667, "lat": 38.91478816666667, "is_reserved": 0, "is_disabled": 0, "rental_uris": {"android": "https://dc.lft.to/lastmile_qr_scan", "ios": "https://dc.lft.to/lastmile_qr_scan"}, "name": "b789e0c1b8179fbe0061474ae6723fae", "type": "electric_scooter"}, {"fusion_lat": 0.0, "bike_id": "68c5da722aeccabef49112bf54ce22e6", "fusion_lon": 0.0, "lon": -77.02841516666666, "lat": 38.9258485, "is_reserved": 0, "is_disabled": 0, "rental_uris": {"android": "https://dc.lft.to/lastmile_qr_scan", "ios": "https://dc.lft.to/lastmile_qr_scan"}, "name": "68c5da722aeccabef49112bf54ce22e6", "type": "electric_scooter"}, {"fusion_lat": 0.0, "bike_id": "a7ce980614ad3a451df0940a2cebfe75", "fusion_lon": 0.0, "lon": -77.03177016666666, "lat": 38.913976, "is_reserved": 0, "is_disabled": 0, "rental_uris": {"android": "https://dc.lft.to/lastmile_qr_scan", "ios": "https://dc.lft.to/lastmile_qr_scan"}, "name": "a7ce980614ad3a451df0940a2cebfe75", "type": "electric_scooter"}, {"fusion_lat": 0.0, "bike_id": "1c92b7c7cff9c2d3e28d92749b3c7f60", "fusion_lon": 0.0, "lon": -77.02049966666667, "lat": 38.92366916666667, "is_reserved": 0, "is_disabled": 0, "rental_uris": {"android": "https://dc.lft.to/lastmile_qr_scan", "ios": "https://dc.lft.to/lastmile_qr_scan"}, "name": "1c92b7c7cff9c2d3e28d92749b3c7f60", "type": "electric_scooter"}, {"fusion_lat": 0.0, "bike_id": "fafab5453c386b0fd3d11feb12b071ca", "fusion_lon": 0.0, "lon": -77.0323165, "lat": 38.8964285, "is_reserved": 0, "is_disabled": 0, "rental_uris": {"android": "https://dc.lft.to/lastmile_qr_scan", "ios": "https://dc.lft.to/lastmile_qr_scan"}, "name": "fafab5453c386b0fd3d11feb12b071ca", "type": "electric_scooter"}, {"fusion_lat": 0.0, "bike_id": "34b8f0c3dec6aa9fd4c6d78dda845f4b", "fusion_lon": 0.0, "lon": -77.11280966666666, "lat": 39.04749483333333, "is_reserved": 0, "is_disabled": 0, "rental_uris": {"android": "https://dc.lft.to/lastmile_qr_scan", "ios": "https://dc.lft.to/lastmile_qr_scan"}, "name": "34b8f0c3dec6aa9fd4c6d78dda845f4b", "type": "electric_bike"}, {"fusion_lat": 0.0, "bike_id": "1c6be5b70b606885d877fbe5b146d515", "fusion_lon": 0.0, "lon": -77.024824, "lat": 38.9168905, "is_reserved": 0, "is_disabled": 0, "rental_uris": {"android": "https://dc.lft.to/lastmile_qr_scan", "ios": "https://dc.lft.to/lastmile_qr_scan"}, "name": "1c6be5b70b606885d877fbe5b146d515", "type": "electric_scooter"}, {"fusion_lat": 0.0, "bike_id": "29838b071a81ecc1644f7458a03bf35f", "fusion_lon": 0.0, "lon": -77.028565, "lat": 38.91251116666667, "is_reserved": 0, "is_disabled": 0, "rental_uris": {"android": "https://dc.lft.to/lastmile_qr_scan", "ios": "https://dc.lft.to/lastmile_qr_scan"}, "name": "29838b071a81ecc1644f7458a03bf35f", "type": "electric_scooter"}, {"fusion_lat": 0.0, "bike_id": "ae9e818efbcb93795a5efdcd169924a5", "fusion_lon": 0.0, "lon": -77.05199866666666, "lat": 38.92439433333333, "is_reserved": 0, "is_disabled": 0, "rental_uris": {"android": "https://dc.lft.to/lastmile_qr_scan", "ios": "https://dc.lft.to/lastmile_qr_scan"}, "name": "ae9e818efbcb93795a5efdcd169924a5", "type": "electric_scooter"}, {"fusion_lat": 0.0, "bike_id": "77f0af9c80060d37b479b72e96f02451", "fusion_lon": 0.0, "lon": -77.030448, "lat": 38.9168515, "is_reserved": 0, "is_disabled": 0, "rental_uris": {"android": "https://dc.lft.to/lastmile_qr_scan", "ios": "https://dc.lft.to/lastmile_qr_scan"}, "name": "77f0af9c80060d37b479b72e96f02451", "type": "electric_scooter"}, {"fusion_lat": 0.0, "bike_id": "d8a4f56364aebcf0e5ed14314604477b", "fusion_lon": 0.0, "lon": -77.0437365, "lat": 38.90011, "is_reserved": 0, "is_disabled": 0, "rental_uris": {"android": "https://dc.lft.to/lastmile_qr_scan", "ios": "https://dc.lft.to/lastmile_qr_scan"}, "name": "d8a4f56364aebcf0e5ed14314604477b", "type": "electric_scooter"}, {"fusion_lat": 0.0, "bike_id": "c2d5d2c642d564658046abc2c434992a", "fusion_lon": 0.0, "lon": -77.03276733333334, "lat": 38.920022833333334, "is_reserved": 0, "is_disabled": 0, "rental_uris": {"android": "https://dc.lft.to/lastmile_qr_scan", "ios": "https://dc.lft.to/lastmile_qr_scan"}, "name": "c2d5d2c642d564658046abc2c434992a", "type": "electric_scooter"}, {"fusion_lat": 0.0, "bike_id": "155fdbecb47ce208cafd0305fb282e69", "fusion_lon": 0.0, "lon": -77.06703216666666, "lat": 38.91443366666667, "is_reserved": 0, "is_disabled": 0, "rental_uris": {"android": "https://dc.lft.to/lastmile_qr_scan", "ios": "https://dc.lft.to/lastmile_qr_scan"}, "name": "155fdbecb47ce208cafd0305fb282e69", "type": "electric_scooter"}, {"fusion_lat": 0.0, "bike_id": "cc327b41950c0f793d494ed393f8cdc0", "fusion_lon": 0.0, "lon": -77.00604616666666, "lat": 38.87181533333333, "is_reserved": 0, "is_disabled": 0, "rental_uris": {"android": "https://dc.lft.to/lastmile_qr_scan", "ios": "https://dc.lft.to/lastmile_qr_scan"}, "name": "cc327b41950c0f793d494ed393f8cdc0", "type": "electric_scooter"}, {"fusion_lat": 0.0, "bike_id": "3ea5140729b04c21da11ec13e2057c2a", "fusion_lon": 0.0, "lon": -77.03222166666667, "lat": 38.914029, "is_reserved": 0, "is_disabled": 0, "rental_uris": {"android": "https://dc.lft.to/lastmile_qr_scan", "ios": "https://dc.lft.to/lastmile_qr_scan"}, "name": "3ea5140729b04c21da11ec13e2057c2a", "type": "electric_scooter"}, {"fusion_lat": 0.0, "bike_id": "b14dd377de79076f4793e5147a4d5de8", "fusion_lon": 0.0, "lon": -77.0265485, "lat": 38.916901, "is_reserved": 0, "is_disabled": 0, "rental_uris": {"android": "https://dc.lft.to/lastmile_qr_scan", "ios": "https://dc.lft.to/lastmile_qr_scan"}, "name": "b14dd377de79076f4793e5147a4d5de8", "type": "electric_scooter"}, {"fusion_lat": 0.0, "bike_id": "be3f28d432c29ec4060913c6cd87427b", "fusion_lon": 0.0, "lon": -76.93321416666667, "lat": 38.9004945, "is_reserved": 0, "is_disabled": 0, "rental_uris": {"android": "https://dc.lft.to/lastmile_qr_scan", "ios": "https://dc.lft.to/lastmile_qr_scan"}, "name": "be3f28d432c29ec4060913c6cd87427b", "type": "electric_scooter"}, {"fusion_lat": 0.0, "bike_id": "d7e472ca5d6d5b306b9ffdbb8a77ec73", "fusion_lon": 0.0, "lon": -77.04648716666667, "lat": 38.914219, "is_reserved": 0, "is_disabled": 0, "rental_uris": {"android": "https://dc.lft.to/lastmile_qr_scan", "ios": "https://dc.lft.to/lastmile_qr_scan"}, "name": "d7e472ca5d6d5b306b9ffdbb8a77ec73", "type": "electric_scooter"}, {"fusion_lat": 0.0, "bike_id": "7bc22b647ccb97089162bdbfe95f886a", "fusion_lon": 0.0, "lon": -77.020693, "lat": 38.92399183333333, "is_reserved": 0, "is_disabled": 0, "rental_uris": {"android": "https://dc.lft.to/lastmile_qr_scan", "ios": "https://dc.lft.to/lastmile_qr_scan"}, "name": "7bc22b647ccb97089162bdbfe95f886a", "type": "electric_scooter"}, {"fusion_lat": 0.0, "bike_id": "aad855d6044d0b6cd12e6f9b9ba42c9a", "fusion_lon": 0.0, "lon": -77.03273233333333, "lat": 38.898170666666665, "is_reserved": 0, "is_disabled": 0, "rental_uris": {"android": "https://dc.lft.to/lastmile_qr_scan", "ios": "https://dc.lft.to/lastmile_qr_scan"}, "name": "aad855d6044d0b6cd12e6f9b9ba42c9a", "type": "electric_scooter"}, {"fusion_lat": 0.0, "bike_id": "90ac3bc225fa4deea2260e33449884fb", "fusion_lon": 0.0, "lon": -77.02779666666666, "lat": 38.88745, "is_reserved": 0, "is_disabled": 0, "rental_uris": {"android": "https://dc.lft.to/lastmile_qr_scan", "ios": "https://dc.lft.to/lastmile_qr_scan"}, "name": "90ac3bc225fa4deea2260e33449884fb", "type": "electric_scooter"}, {"fusion_lat": 0.0, "bike_id": "892dafd2c136d0e34aa176e097feb295", "fusion_lon": 0.0, "lon": -77.02452933333333, "lat": 38.914001999999996, "is_reserved": 0, "is_disabled": 0, "rental_uris": {"android": "https://dc.lft.to/lastmile_qr_scan", "ios": "https://dc.lft.to/lastmile_qr_scan"}, "name": "892dafd2c136d0e34aa176e097feb295", "type": "electric_scooter"}, {"fusion_lat": 0.0, "bike_id": "8c2a608125cd101efb38a601d78ea486", "fusion_lon": 0.0, "lon": -77.04715016666667, "lat": 38.90298416666667, "is_reserved": 0, "is_disabled": 0, "rental_uris": {"android": "https://dc.lft.to/lastmile_qr_scan", "ios": "https://dc.lft.to/lastmile_qr_scan"}, "name": "8c2a608125cd101efb38a601d78ea486", "type": "electric_scooter"}, {"fusion_lat": 0.0, "bike_id": "6d1f5b0dba9a054ce5059bf21bd9b603", "fusion_lon": 0.0, "lon": -77.02592266666667, "lat": 38.942054166666665, "is_reserved": 0, "is_disabled": 0, "rental_uris": {"android": "https://dc.lft.to/lastmile_qr_scan", "ios": "https://dc.lft.to/lastmile_qr_scan"}, "name": "6d1f5b0dba9a054ce5059bf21bd9b603", "type": "electric_scooter"}, {"fusion_lat": 0.0, "bike_id": "44adf016a4c206b64b78751d993fd2bf", "fusion_lon": 0.0, "lon": -77.033369, "lat": 38.90108516666667, "is_reserved": 0, "is_disabled": 0, "rental_uris": {"android": "https://dc.lft.to/lastmile_qr_scan", "ios": "https://dc.lft.to/lastmile_qr_scan"}, "name": "44adf016a4c206b64b78751d993fd2bf", "type": "electric_scooter"}, {"fusion_lat": 0.0, "bike_id": "b5fe4aa42b8c95006b3941179ee46abe", "fusion_lon": 0.0, "lon": -77.01609566666667, "lat": 38.8770445, "is_reserved": 0, "is_disabled": 0, "rental_uris": {"android": "https://dc.lft.to/lastmile_qr_scan", "ios": "https://dc.lft.to/lastmile_qr_scan"}, "name": "b5fe4aa42b8c95006b3941179ee46abe", "type": "electric_scooter"}, {"fusion_lat": 0.0, "bike_id": "5eb5251730b14527127a1063c416eec2", "fusion_lon": 0.0, "lon": -77.02352433333333, "lat": 38.8791435, "is_reserved": 0, "is_disabled": 0, "rental_uris": {"android": "https://dc.lft.to/lastmile_qr_scan", "ios": "https://dc.lft.to/lastmile_qr_scan"}, "name": "5eb5251730b14527127a1063c416eec2", "type": "electric_scooter"}, {"fusion_lat": 0.0, "bike_id": "a35dbe63ad8fb6d8b294553138275985", "fusion_lon": 0.0, "lon": -77.03272533333333, "lat": 38.930764, "is_reserved": 0, "is_disabled": 0, "rental_uris": {"android": "https://dc.lft.to/lastmile_qr_scan", "ios": "https://dc.lft.to/lastmile_qr_scan"}, "name": "a35dbe63ad8fb6d8b294553138275985", "type": "electric_scooter"}, {"fusion_lat": 0.0, "bike_id": "3169d721ffdd5cd615212e83012ec5e3", "fusion_lon": 0.0, "lon": -77.00878966666667, "lat": 38.96122966666667, "is_reserved": 0, "is_disabled": 0, "rental_uris": {"android": "https://dc.lft.to/lastmile_qr_scan", "ios": "https://dc.lft.to/lastmile_qr_scan"}, "name": "3169d721ffdd5cd615212e83012ec5e3", "type": "electric_scooter"}, {"fusion_lat": 0.0, "bike_id": "c2797511f1fa6d74031572b4f0cd1d22", "fusion_lon": 0.0, "lon": -77.04407433333333, "lat": 38.921011, "is_reserved": 0, "is_disabled": 0, "rental_uris": {"android": "https://dc.lft.to/lastmile_qr_scan", "ios": "https://dc.lft.to/lastmile_qr_scan"}, "name": "c2797511f1fa6d74031572b4f0cd1d22", "type": "electric_scooter"}, {"fusion_lat": 0.0, "bike_id": "5425f901daf8701702c4d30d8bd6e8d6", "fusion_lon": 0.0, "lon": -77.028238, "lat": 38.88731283333333, "is_reserved": 0, "is_disabled": 0, "rental_uris": {"android": "https://dc.lft.to/lastmile_qr_scan", "ios": "https://dc.lft.to/lastmile_qr_scan"}, "name": "5425f901daf8701702c4d30d8bd6e8d6", "type": "electric_scooter"}, {"fusion_lat": 0.0, "bike_id": "022049ddaa625b3245f182742f3e574e", "fusion_lon": 0.0, "lon": -77.02184683333333, "lat": 38.894702333333335, "is_reserved": 0, "is_disabled": 0, "rental_uris": {"android": "https://dc.lft.to/lastmile_qr_scan", "ios": "https://dc.lft.to/lastmile_qr_scan"}, "name": "022049ddaa625b3245f182742f3e574e", "type": "electric_scooter"}, {"fusion_lat": 0.0, "bike_id": "12fd48393f76e61cb98cfc077ebf1cdf", "fusion_lon": 0.0, "lon": -77.04106333333333, "lat": 38.910384, "is_reserved": 0, "is_disabled": 0, "rental_uris": {"android": "https://dc.lft.to/lastmile_qr_scan", "ios": "https://dc.lft.to/lastmile_qr_scan"}, "name": "12fd48393f76e61cb98cfc077ebf1cdf", "type": "electric_scooter"}, {"fusion_lat": 0.0, "bike_id": "bb6ef603592676f9e55096d737f745da", "fusion_lon": 0.0, "lon": -77.01495, "lat": 38.892242, "is_reserved": 0, "is_disabled": 0, "rental_uris": {"android": "https://dc.lft.to/lastmile_qr_scan", "ios": "https://dc.lft.to/lastmile_qr_scan"}, "name": "bb6ef603592676f9e55096d737f745da", "type": "electric_scooter"}, {"fusion_lat": 0.0, "bike_id": "6006d516d79b7759ceada87a458959d1", "fusion_lon": 0.0, "lon": -77.03505566666666, "lat": 38.9214235, "is_reserved": 0, "is_disabled": 0, "rental_uris": {"android": "https://dc.lft.to/lastmile_qr_scan", "ios": "https://dc.lft.to/lastmile_qr_scan"}, "name": "6006d516d79b7759ceada87a458959d1", "type": "electric_scooter"}, {"fusion_lat": 0.0, "bike_id": "2ed4328b44077234fa769555406040e0", "fusion_lon": 0.0, "lon": -77.04333583333333, "lat": 38.921802666666665, "is_reserved": 0, "is_disabled": 0, "rental_uris": {"android": "https://dc.lft.to/lastmile_qr_scan", "ios": "https://dc.lft.to/lastmile_qr_scan"}, "name": "2ed4328b44077234fa769555406040e0", "type": "electric_scooter"}, {"fusion_lat": 0.0, "bike_id": "d0a8619fce5fc4d8da43f2fe80bcab11", "fusion_lon": 0.0, "lon": -77.027263, "lat": 38.899526333333334, "is_reserved": 0, "is_disabled": 0, "rental_uris": {"android": "https://dc.lft.to/lastmile_qr_scan", "ios": "https://dc.lft.to/lastmile_qr_scan"}, "name": "d0a8619fce5fc4d8da43f2fe80bcab11", "type": "electric_scooter"}, {"fusion_lat": 0.0, "bike_id": "61718d99f37bdb385f67cd7a96701349", "fusion_lon": 0.0, "lon": -77.03216583333334, "lat": 38.89226016666667, "is_reserved": 0, "is_disabled": 0, "rental_uris": {"android": "https://dc.lft.to/lastmile_qr_scan", "ios": "https://dc.lft.to/lastmile_qr_scan"}, "name": "61718d99f37bdb385f67cd7a96701349", "type": "electric_scooter"}, {"fusion_lat": 0.0, "bike_id": "1c4876482381bdee6048b03d9dedff50", "fusion_lon": 0.0, "lon": -77.0281445, "lat": 38.9317155, "is_reserved": 0, "is_disabled": 0, "rental_uris": {"android": "https://dc.lft.to/lastmile_qr_scan", "ios": "https://dc.lft.to/lastmile_qr_scan"}, "name": "1c4876482381bdee6048b03d9dedff50", "type": "electric_scooter"}, {"fusion_lat": 0.0, "bike_id": "2f27fc4b5ec7579e4d4d4f324e7afaea", "fusion_lon": 0.0, "lon": -77.0210515, "lat": 38.921691333333335, "is_reserved": 0, "is_disabled": 0, "rental_uris": {"android": "https://dc.lft.to/lastmile_qr_scan", "ios": "https://dc.lft.to/lastmile_qr_scan"}, "name": "2f27fc4b5ec7579e4d4d4f324e7afaea", "type": "electric_scooter"}, {"fusion_lat": 0.0, "bike_id": "bb9609a021da1b3b9932b3471b22fead", "fusion_lon": 0.0, "lon": -76.9302915, "lat": 38.900114, "is_reserved": 0, "is_disabled": 0, "rental_uris": {"android": "https://dc.lft.to/lastmile_qr_scan", "ios": "https://dc.lft.to/lastmile_qr_scan"}, "name": "bb9609a021da1b3b9932b3471b22fead", "type": "electric_scooter"}, {"fusion_lat": 0.0, "bike_id": "e67de5573a505619a112e43244578024", "fusion_lon": 0.0, "lon": -77.03500166666667, "lat": 38.92149, "is_reserved": 0, "is_disabled": 0, "rental_uris": {"android": "https://dc.lft.to/lastmile_qr_scan", "ios": "https://dc.lft.to/lastmile_qr_scan"}, "name": "e67de5573a505619a112e43244578024", "type": "electric_scooter"}, {"fusion_lat": 0.0, "bike_id": "ed276fdf9af6095a0eda103444eb6fe3", "fusion_lon": 0.0, "lon": -77.02420833333333, "lat": 38.918210333333334, "is_reserved": 0, "is_disabled": 0, "rental_uris": {"android": "https://dc.lft.to/lastmile_qr_scan", "ios": "https://dc.lft.to/lastmile_qr_scan"}, "name": "ed276fdf9af6095a0eda103444eb6fe3", "type": "electric_scooter"}, {"fusion_lat": 0.0, "bike_id": "cfd27d89c1e64be5a9f417f029063ffc", "fusion_lon": 0.0, "lon": -77.0693685, "lat": 38.952051166666664, "is_reserved": 0, "is_disabled": 0, "rental_uris": {"android": "https://dc.lft.to/lastmile_qr_scan", "ios": "https://dc.lft.to/lastmile_qr_scan"}, "name": "cfd27d89c1e64be5a9f417f029063ffc", "type": "electric_scooter"}, {"fusion_lat": 0.0, "bike_id": "1bafca068c2c43ebbc4d59fecaf70919", "fusion_lon": 0.0, "lon": -77.01254216666666, "lat": 38.900074833333335, "is_reserved": 0, "is_disabled": 0, "rental_uris": {"android": "https://dc.lft.to/lastmile_qr_scan", "ios": "https://dc.lft.to/lastmile_qr_scan"}, "name": "1bafca068c2c43ebbc4d59fecaf70919", "type": "electric_scooter"}, {"fusion_lat": 0.0, "bike_id": "811c4614e28d37a9ed334da5bfa7d069", "fusion_lon": 0.0, "lon": -77.04981333333333, "lat": 38.90107866666666, "is_reserved": 0, "is_disabled": 0, "rental_uris": {"android": "https://dc.lft.to/lastmile_qr_scan", "ios": "https://dc.lft.to/lastmile_qr_scan"}, "name": "811c4614e28d37a9ed334da5bfa7d069", "type": "electric_scooter"}, {"fusion_lat": 0.0, "bike_id": "f4b3716f8052bc6dd8a5142c9225fd48", "fusion_lon": 0.0, "lon": -77.012152, "lat": 38.91435383333334, "is_reserved": 0, "is_disabled": 0, "rental_uris": {"android": "https://dc.lft.to/lastmile_qr_scan", "ios": "https://dc.lft.to/lastmile_qr_scan"}, "name": "f4b3716f8052bc6dd8a5142c9225fd48", "type": "electric_scooter"}, {"fusion_lat": 0.0, "bike_id": "a9254a323b220854d0ab52462c15006f", "fusion_lon": 0.0, "lon": -77.06290933333334, "lat": 38.90394916666666, "is_reserved": 0, "is_disabled": 0, "rental_uris": {"android": "https://dc.lft.to/lastmile_qr_scan", "ios": "https://dc.lft.to/lastmile_qr_scan"}, "name": "a9254a323b220854d0ab52462c15006f", "type": "electric_scooter"}, {"fusion_lat": 0.0, "bike_id": "87fa3b6ae641b30e0ca01c4284d870c6", "fusion_lon": 0.0, "lon": -77.02902016666667, "lat": 38.940380166666664, "is_reserved": 0, "is_disabled": 0, "rental_uris": {"android": "https://dc.lft.to/lastmile_qr_scan", "ios": "https://dc.lft.to/lastmile_qr_scan"}, "name": "87fa3b6ae641b30e0ca01c4284d870c6", "type": "electric_scooter"}, {"fusion_lat": 0.0, "bike_id": "b18cb6fd2015329327d6bc516791ea9a", "fusion_lon": 0.0, "lon": -77.02561033333333, "lat": 38.931032, "is_reserved": 0, "is_disabled": 0, "rental_uris": {"android": "https://dc.lft.to/lastmile_qr_scan", "ios": "https://dc.lft.to/lastmile_qr_scan"}, "name": "b18cb6fd2015329327d6bc516791ea9a", "type": "electric_scooter"}, {"fusion_lat": 0.0, "bike_id": "0e124cbd89ba5946c1faaecdd43ccb2e", "fusion_lon": 0.0, "lon": -77.02785416666667, "lat": 38.96129033333333, "is_reserved": 0, "is_disabled": 0, "rental_uris": {"android": "https://dc.lft.to/lastmile_qr_scan", "ios": "https://dc.lft.to/lastmile_qr_scan"}, "name": "0e124cbd89ba5946c1faaecdd43ccb2e", "type": "electric_scooter"}, {"fusion_lat": 0.0, "bike_id": "2fddf7319a052f02a5520c09ccca92db", "fusion_lon": 0.0, "lon": -77.02746016666667, "lat": 38.94177283333333, "is_reserved": 0, "is_disabled": 0, "rental_uris": {"android": "https://dc.lft.to/lastmile_qr_scan", "ios": "https://dc.lft.to/lastmile_qr_scan"}, "name": "2fddf7319a052f02a5520c09ccca92db", "type": "electric_scooter"}, {"fusion_lat": 0.0, "bike_id": "75caf2d070eec24125c689ae47cb880e", "fusion_lon": 0.0, "lon": -76.994797, "lat": 38.8973885, "is_reserved": 0, "is_disabled": 0, "rental_uris": {"android": "https://dc.lft.to/lastmile_qr_scan", "ios": "https://dc.lft.to/lastmile_qr_scan"}, "name": "75caf2d070eec24125c689ae47cb880e", "type": "electric_scooter"}, {"fusion_lat": 0.0, "bike_id": "48023c079a5871fd5487bf5cde23afd9", "fusion_lon": 0.0, "lon": -76.99546016666666, "lat": 38.883707333333334, "is_reserved": 0, "is_disabled": 0, "rental_uris": {"android": "https://dc.lft.to/lastmile_qr_scan", "ios": "https://dc.lft.to/lastmile_qr_scan"}, "name": "48023c079a5871fd5487bf5cde23afd9", "type": "electric_scooter"}, {"fusion_lat": 0.0, "bike_id": "0122fdb11a068bf5a42593cc8040dae3", "fusion_lon": 0.0, "lon": -77.02729133333334, "lat": 38.897229333333335, "is_reserved": 0, "is_disabled": 0, "rental_uris": {"android": "https://dc.lft.to/lastmile_qr_scan", "ios": "https://dc.lft.to/lastmile_qr_scan"}, "name": "0122fdb11a068bf5a42593cc8040dae3", "type": "electric_scooter"}, {"fusion_lat": 0.0, "bike_id": "a43fced0a8e4d1522db26a35b2f9c01b", "fusion_lon": 0.0, "lon": -77.04865, "lat": 38.89289333333333, "is_reserved": 0, "is_disabled": 0, "rental_uris": {"android": "https://dc.lft.to/lastmile_qr_scan", "ios": "https://dc.lft.to/lastmile_qr_scan"}, "name": "a43fced0a8e4d1522db26a35b2f9c01b", "type": "electric_scooter"}, {"fusion_lat": 0.0, "bike_id": "7ffd81398b08283f2411a2f61464c240", "fusion_lon": 0.0, "lon": -77.04551433333333, "lat": 38.913125, "is_reserved": 0, "is_disabled": 0, "rental_uris": {"android": "https://dc.lft.to/lastmile_qr_scan", "ios": "https://dc.lft.to/lastmile_qr_scan"},