{"data": {"bikes": [{"lat": 38.9094155, "is_disabled": 0, "type": "electric_bike", "lon": -77.04853683333333, "bike_id": "bc230f5db24e3c9ca17d6d7ac51de2e1", "fusion_lat": 0.0, "name": "bc230f5db24e3c9ca17d6d7ac51de2e1", "is_reserved": 0, "rental_uris": {"android": "https://dc.lft.to/lastmile_qr_scan", "ios": "https://dc.lft.to/lastmile_qr_scan"}, "fusion_lon": 0.0}, {"lat": 38.913178333333335, "is_disabled": 0, "type": "electric_scooter", "lon": -77.03998766666666, "bike_id": "f387a2e0ada423f27a967fd7f8da5bc9", "fusion_lat": 0.0, "name": "f387a2e0ada423f27a967fd7f8da5bc9", "is_reserved": 0, "rental_uris": {"android": "https://dc.lft.to/lastmile_qr_scan", "ios": "https://dc.lft.to/lastmile_qr_scan"}, "fusion_lon": 0.0}, {"lat": 38.929050333333336, "is_disabled": 0, "type": "electric_scooter", "lon": -77.03736583333334, "bike_id": "6d28d2a119e182c793053e4ee3540a9c", "fusion_lat": 0.0, "name": "6d28d2a119e182c793053e4ee3540a9c", "is_reserved": 0, "rental_uris": {"android": "https://dc.lft.to/lastmile_qr_scan", "ios": "https://dc.lft.to/lastmile_qr_scan"}, "fusion_lon": 0.0}, {"lat": 38.92361266666666, "is_disabled": 0, "type": "electric_scooter", "lon": -77.05058066666666, "bike_id": "df39f6bb3d08f81b0f47941fde6e86fb", "fusion_lat": 0.0, "name": "df39f6bb3d08f81b0f47941fde6e86fb", "is_reserved": 0, "rental_uris": {"android": "https://dc.lft.to/lastmile_qr_scan", "ios": "https://dc.lft.to/lastmile_qr_scan"}, "fusion_lon": 0.0}, {"lat": 38.92393716666667, "is_disabled": 0, "type": "electric_scooter", "lon": -77.0354285, "bike_id": "50c721edaee330561baeaf465deb70f0", "fusion_lat": 0.0, "name": "50c721edaee330561baeaf465deb70f0", "is_reserved": 0, "rental_uris": {"android": "https://dc.lft.to/lastmile_qr_scan", "ios": "https://dc.lft.to/lastmile_qr_scan"}, "fusion_lon": 0.0}, {"lat": 38.92276183333333, "is_disabled": 0, "type": "electric_scooter", "lon": -77.0446825, "bike_id": "4114b83c508d6606c3f346dc52d7e188", "fusion_lat": 0.0, "name": "4114b83c508d6606c3f346dc52d7e188", "is_reserved": 0, "rental_uris": {"android": "https://dc.lft.to/lastmile_qr_scan", "ios": "https://dc.lft.to/lastmile_qr_scan"}, "fusion_lon": 0.0}, {"lat": 38.914254666666665, "is_disabled": 0, "type": "electric_scooter", "lon": -77.03186583333333, "bike_id": "5de9b86fd6d696f53e006d950861b5df", "fusion_lat": 0.0, "name": "5de9b86fd6d696f53e006d950861b5df", "is_reserved": 0, "rental_uris": {"android": "https://dc.lft.to/lastmile_qr_scan", "ios": "https://dc.lft.to/lastmile_qr_scan"}, "fusion_lon": 0.0}, {"lat": 38.9065505, "is_disabled": 0, "type": "electric_scooter", "lon": -77.0742795, "bike_id": "ab4e118b271e6edf3c18f64711820ad2", "fusion_lat": 0.0, "name": "ab4e118b271e6edf3c18f64711820ad2", "is_reserved": 0, "rental_uris": {"android": "https://dc.lft.to/lastmile_qr_scan", "ios": "https://dc.lft.to/lastmile_qr_scan"}, "fusion_lon": 0.0}, {"lat": 38.858104833333336, "is_disabled": 0, "type": "electric_scooter", "lon": -76.98720316666666, "bike_id": "438a8be882fe8a6ff97bd558e82a5fdc", "fusion_lat": 0.0, "name": "438a8be882fe8a6ff97bd558e82a5fdc", "is_reserved": 0, "rental_uris": {"android": "https://dc.lft.to/lastmile_qr_scan", "ios": "https://dc.lft.to/lastmile_qr_scan"}, "fusion_lon": 0.0}, {"lat": 38.880427, "is_disabled": 0, "type": "electric_scooter", "lon": -77.00341516666667, "bike_id": "25ee118c208c7ff2d1b141bab7014517", "fusion_lat": 0.0, "name": "25ee118c208c7ff2d1b141bab7014517", "is_reserved": 0, "rental_uris": {"android": "https://dc.lft.to/lastmile_qr_scan", "ios": "https://dc.lft.to/lastmile_qr_scan"}, "fusion_lon": 0.0}, {"lat": 38.918182, "is_disabled": 0, "type": "electric_scooter", "lon": -77.02489533333333, "bike_id": "6d894556409069b7a7847983f167b2ac", "fusion_lat": 0.0, "name": "6d894556409069b7a7847983f167b2ac", "is_reserved": 0, "rental_uris": {"android": "https://dc.lft.to/lastmile_qr_scan", "ios": "https://dc.lft.to/lastmile_qr_scan"}, "fusion_lon": 0.0}, {"lat": 38.921534333333334, "is_disabled": 0, "type": "electric_scooter", "lon": -77.03521066666667, "bike_id": "33e328f45eaf2656dffc16b3afa28c5d", "fusion_lat": 0.0, "name": "33e328f45eaf2656dffc16b3afa28c5d", "is_reserved": 0, "rental_uris": {"android": "https://dc.lft.to/lastmile_qr_scan", "ios": "https://dc.lft.to/lastmile_qr_scan"}, "fusion_lon": 0.0}, {"lat": 38.90126433333333, "is_disabled": 0, "type": "electric_scooter", "lon": -77.04996583333333, "bike_id": "b4d35f17b0fb8eb91a5459e3a5aa45dd", "fusion_lat": 0.0, "name": "b4d35f17b0fb8eb91a5459e3a5aa45dd", "is_reserved": 0, "rental_uris": {"android": "https://dc.lft.to/lastmile_qr_scan", "ios": "https://dc.lft.to/lastmile_qr_scan"}, "fusion_lon": 0.0}, {"lat": 38.92616433333333, "is_disabled": 0, "type": "electric_scooter", "lon": -77.02159833333333, "bike_id": "31c47dde43770e52765335c2b138a1ab", "fusion_lat": 0.0, "name": "31c47dde43770e52765335c2b138a1ab", "is_reserved": 0, "rental_uris": {"android": "https://dc.lft.to/lastmile_qr_scan", "ios": "https://dc.lft.to/lastmile_qr_scan"}, "fusion_lon": 0.0}, {"lat": 38.90570133333333, "is_disabled": 0, "type": "electric_scooter", "lon": -77.02177216666666, "bike_id": "9fc7fc1ece88a368e123fdafc5a06beb", "fusion_lat": 0.0, "name": "9fc7fc1ece88a368e123fdafc5a06beb", "is_reserved": 0, "rental_uris": {"android": "https://dc.lft.to/lastmile_qr_scan", "ios": "https://dc.lft.to/lastmile_qr_scan"}, "fusion_lon": 0.0}, {"lat": 38.91733466666667, "is_disabled": 0, "type": "electric_scooter", "lon": -77.03658916666667, "bike_id": "07029577fbca22be15b28ff882d0e9b7", "fusion_lat": 0.0, "name": "07029577fbca22be15b28ff882d0e9b7", "is_reserved": 0, "rental_uris": {"android": "https://dc.lft.to/lastmile_qr_scan", "ios": "https://dc.lft.to/lastmile_qr_scan"}, "fusion_lon": 0.0}, {"lat": 38.914230833333335, "is_disabled": 0, "type": "electric_scooter", "lon": -77.02203316666667, "bike_id": "f1288b436133d1766cbe2827fc3b6032", "fusion_lat": 0.0, "name": "f1288b436133d1766cbe2827fc3b6032", "is_reserved": 0, "rental_uris": {"android": "https://dc.lft.to/lastmile_qr_scan", "ios": "https://dc.lft.to/lastmile_qr_scan"}, "fusion_lon": 0.0}, {"lat": 38.918166666666664, "is_disabled": 0, "type": "electric_scooter", "lon": -77.03916366666667, "bike_id": "782ba01e26dbd8c4870f56f43f37e29d", "fusion_lat": 0.0, "name": "782ba01e26dbd8c4870f56f43f37e29d", "is_reserved": 0, "rental_uris": {"android": "https://dc.lft.to/lastmile_qr_scan", "ios": "https://dc.lft.to/lastmile_qr_scan"}, "fusion_lon": 0.0}, {"lat": 38.9963255, "is_disabled": 0, "type": "electric_bike", "lon": -77.02975016666667, "bike_id": "9f4f2dd43f6374c6ee9273e718cd06b9", "fusion_lat": 0.0, "name": "9f4f2dd43f6374c6ee9273e718cd06b9", "is_reserved": 0, "rental_uris": {"android": "https://dc.lft.to/lastmile_qr_scan", "ios": "https://dc.lft.to/lastmile_qr_scan"}, "fusion_lon": 0.0}, {"lat": 38.90820183333334, "is_disabled": 0, "type": "electric_scooter", "lon": -77.04341566666666, "bike_id": "5f56176a7f798d430b35551bb7c7e366", "fusion_lat": 0.0, "name": "5f56176a7f798d430b35551bb7c7e366", "is_reserved": 0, "rental_uris": {"android": "https://dc.lft.to/lastmile_qr_scan", "ios": "https://dc.lft.to/lastmile_qr_scan"}, "fusion_lon": 0.0}, {"lat": 38.90739883333333, "is_disabled": 0, "type": "electric_scooter", "lon": -77.02717583333333, "bike_id": "cce0cfbfbf47267a52da09d133139322", "fusion_lat": 0.0, "name": "cce0cfbfbf47267a52da09d133139322", "is_reserved": 0, "rental_uris": {"android": "https://dc.lft.to/lastmile_qr_scan", "ios": "https://dc.lft.to/lastmile_qr_scan"}, "fusion_lon": 0.0}, {"lat": 38.915639166666665, "is_disabled": 0, "type": "electric_scooter", "lon": -77.02984416666666, "bike_id": "8c09d0fcc9568dd0ec47f8f38495ff8a", "fusion_lat": 0.0, "name": "8c09d0fcc9568dd0ec47f8f38495ff8a", "is_reserved": 0, "rental_uris": {"android": "https://dc.lft.to/lastmile_qr_scan", "ios": "https://dc.lft.to/lastmile_qr_scan"}, "fusion_lon": 0.0}, {"lat": 38.907353, "is_disabled": 0, "type": "electric_scooter", "lon": -77.02815266666667, "bike_id": "5d1fd090d81f65b9f10902bb5a5f3013", "fusion_lat": 0.0, "name": "5d1fd090d81f65b9f10902bb5a5f3013", "is_reserved": 0, "rental_uris": {"android": "https://dc.lft.to/lastmile_qr_scan", "ios": "https://dc.lft.to/lastmile_qr_scan"}, "fusion_lon": 0.0}, {"lat": 38.917427333333336, "is_disabled": 0, "type": "electric_scooter", "lon": -77.03196483333333, "bike_id": "0a87b3c66cb5ca1d959fc01dd45f2e2e", "fusion_lat": 0.0, "name": "0a87b3c66cb5ca1d959fc01dd45f2e2e", "is_reserved": 0, "rental_uris": {"android": "https://dc.lft.to/lastmile_qr_scan", "ios": "https://dc.lft.to/lastmile_qr_scan"}, "fusion_lon": 0.0}, {"lat": 38.92496366666666, "is_disabled": 0, "type": "electric_scooter", "lon": -77.05226866666666, "bike_id": "75a77771fe5a63516dff232b2c278645", "fusion_lat": 0.0, "name": "75a77771fe5a63516dff232b2c278645", "is_reserved": 0, "rental_uris": {"android": "https://dc.lft.to/lastmile_qr_scan", "ios": "https://dc.lft.to/lastmile_qr_scan"}, "fusion_lon": 0.0}, {"lat": 38.892234, "is_disabled": 0, "type": "electric_scooter", "lon": -77.04857683333333, "bike_id": "ea6105c7a4ac4ce516296da177194779", "fusion_lat": 0.0, "name": "ea6105c7a4ac4ce516296da177194779", "is_reserved": 0, "rental_uris": {"android": "https://dc.lft.to/lastmile_qr_scan", "ios": "https://dc.lft.to/lastmile_qr_scan"}, "fusion_lon": 0.0}, {"lat": 38.90235366666667, "is_disabled": 0, "type": "electric_scooter", "lon": -77.052678, "bike_id": "720a22b575c325e034f20a904cc0daa3", "fusion_lat": 0.0, "name": "720a22b575c325e034f20a904cc0daa3", "is_reserved": 0, "rental_uris": {"android": "https://dc.lft.to/lastmile_qr_scan", "ios": "https://dc.lft.to/lastmile_qr_scan"}, "fusion_lon": 0.0}, {"lat": 38.90722266666667, "is_disabled": 0, "type": "electric_scooter", "lon": -77.0475195, "bike_id": "be7805430132b5222dbcd9778cabed7c", "fusion_lat": 0.0, "name": "be7805430132b5222dbcd9778cabed7c", "is_reserved": 0, "rental_uris": {"android": "https://dc.lft.to/lastmile_qr_scan", "ios": "https://dc.lft.to/lastmile_qr_scan"}, "fusion_lon": 0.0}, {"lat": 38.917423, "is_disabled": 0, "type": "electric_scooter", "lon": -77.03205083333333, "bike_id": "bf5b6fc3e1fa04ba62d34c5b8e34e8a0", "fusion_lat": 0.0, "name": "bf5b6fc3e1fa04ba62d34c5b8e34e8a0", "is_reserved": 0, "rental_uris": {"android": "https://dc.lft.to/lastmile_qr_scan", "ios": "https://dc.lft.to/lastmile_qr_scan"}, "fusion_lon": 0.0}, {"lat": 38.931454, "is_disabled": 0, "type": "electric_scooter", "lon": -77.02140783333333, "bike_id": "773b1969a489f031ea91084453bd1d32", "fusion_lat": 0.0, "name": "773b1969a489f031ea91084453bd1d32", "is_reserved": 0, "rental_uris": {"android": "https://dc.lft.to/lastmile_qr_scan", "ios": "https://dc.lft.to/lastmile_qr_scan"}, "fusion_lon": 0.0}, {"lat": 38.895283666666664, "is_disabled": 0, "type": "electric_scooter", "lon": -76.94887166666666, "bike_id": "1bed5cfecc7f42474657226b817dc0b3", "fusion_lat": 0.0, "name": "1bed5cfecc7f42474657226b817dc0b3", "is_reserved": 0, "rental_uris": {"android": "https://dc.lft.to/lastmile_qr_scan", "ios": "https://dc.lft.to/lastmile_qr_scan"}, "fusion_lon": 0.0}, {"lat": 38.90360316666667, "is_disabled": 0, "type": "electric_bike", "lon": -77.0162355, "bike_id": "8326c6eb32dc44770ad3ab7b97c4d023", "fusion_lat": 0.0, "name": "8326c6eb32dc44770ad3ab7b97c4d023", "is_reserved": 0, "rental_uris": {"android": "https://dc.lft.to/lastmile_qr_scan", "ios": "https://dc.lft.to/lastmile_qr_scan"}, "fusion_lon": 0.0}, {"lat": 38.85028416666667, "is_disabled": 0, "type": "electric_bike", "lon": -77.097964, "bike_id": "08155d821981f0da13c36c51fbad5ac3", "fusion_lat": 0.0, "name": "08155d821981f0da13c36c51fbad5ac3", "is_reserved": 0, "rental_uris": {"android": "https://dc.lft.to/lastmile_qr_scan", "ios": "https://dc.lft.to/lastmile_qr_scan"}, "fusion_lon": 0.0}, {"lat": 38.90816783333333, "is_disabled": 0, "type": "electric_scooter", "lon": -77.0434045, "bike_id": "7cb9fdab2ab78397098adc67a0c7a38c", "fusion_lat": 0.0, "name": "7cb9fdab2ab78397098adc67a0c7a38c", "is_reserved": 0, "rental_uris": {"android": "https://dc.lft.to/lastmile_qr_scan", "ios": "https://dc.lft.to/lastmile_qr_scan"}, "fusion_lon": 0.0}, {"lat": 38.8579245, "is_disabled": 0, "type": "electric_bike", "lon": -77.09963516666667, "bike_id": "44ab274bb4dd69764c87bca5e1500504", "fusion_lat": 0.0, "name": "44ab274bb4dd69764c87bca5e1500504", "is_reserved": 0, "rental_uris": {"android": "https://dc.lft.to/lastmile_qr_scan", "ios": "https://dc.lft.to/lastmile_qr_scan"}, "fusion_lon": 0.0}, {"lat": 38.88481083333333, "is_disabled": 0, "type": "electric_scooter", "lon": -76.94531733333334, "bike_id": "d987a441cb447fd7c93a6089e3c44a0a", "fusion_lat": 0.0, "name": "d987a441cb447fd7c93a6089e3c44a0a", "is_reserved": 0, "rental_uris": {"android": "https://dc.lft.to/lastmile_qr_scan", "ios": "https://dc.lft.to/lastmile_qr_scan"}, "fusion_lon": 0.0}, {"lat": 38.902147, "is_disabled": 0, "type": "electric_scooter", "lon": -77.02319666666666, "bike_id": "76ef13ff93c2a1dc8c2cf1dad98662f3", "fusion_lat": 0.0, "name": "76ef13ff93c2a1dc8c2cf1dad98662f3", "is_reserved": 0, "rental_uris": {"android": "https://dc.lft.to/lastmile_qr_scan", "ios": "https://dc.lft.to/lastmile_qr_scan"}, "fusion_lon": 0.0}, {"lat": 38.92218116666667, "is_disabled": 0, "type": "electric_scooter", "lon": -77.0375215, "bike_id": "81abd0f7fbb090f766339a353560dfd3", "fusion_lat": 0.0, "name": "81abd0f7fbb090f766339a353560dfd3", "is_reserved": 0, "rental_uris": {"android": "https://dc.lft.to/lastmile_qr_scan", "ios": "https://dc.lft.to/lastmile_qr_scan"}, "fusion_lon": 0.0}, {"lat": 38.907673, "is_disabled": 0, "type": "electric_scooter", "lon": -76.98309716666667, "bike_id": "96f7968dcb06d0880ab4a201881078c1", "fusion_lat": 0.0, "name": "96f7968dcb06d0880ab4a201881078c1", "is_reserved": 0, "rental_uris": {"android": "https://dc.lft.to/lastmile_qr_scan", "ios": "https://dc.lft.to/lastmile_qr_scan"}, "fusion_lon": 0.0}, {"lat": 38.9072505, "is_disabled": 0, "type": "electric_scooter", "lon": -77.03445583333334, "bike_id": "2ba2cdf35d9a247d17085e389fe452f9", "fusion_lat": 0.0, "name": "2ba2cdf35d9a247d17085e389fe452f9", "is_reserved": 0, "rental_uris": {"android": "https://dc.lft.to/lastmile_qr_scan", "ios": "https://dc.lft.to/lastmile_qr_scan"}, "fusion_lon": 0.0}, {"lat": 38.859298333333335, "is_disabled": 0, "type": "electric_scooter", "lon": -76.99705666666667, "bike_id": "6549b3e944435a612ab86a425cf4b04e", "fusion_lat": 0.0, "name": "6549b3e944435a612ab86a425cf4b04e", "is_reserved": 0, "rental_uris": {"android": "https://dc.lft.to/lastmile_qr_scan", "ios": "https://dc.lft.to/lastmile_qr_scan"}, "fusion_lon": 0.0}, {"lat": 38.92152733333333, "is_disabled": 0, "type": "electric_scooter", "lon": -77.03517833333333, "bike_id": "25760602b46b6b6e6f8e1c2443f82503", "fusion_lat": 0.0, "name": "25760602b46b6b6e6f8e1c2443f82503", "is_reserved": 0, "rental_uris": {"android": "https://dc.lft.to/lastmile_qr_scan", "ios": "https://dc.lft.to/lastmile_qr_scan"}, "fusion_lon": 0.0}, {"lat": 38.95562533333333, "is_disabled": 0, "type": "electric_scooter", "lon": -77.02235816666666, "bike_id": "7d02b1c2c4814b735bff7d2a499efb69", "fusion_lat": 0.0, "name": "7d02b1c2c4814b735bff7d2a499efb69", "is_reserved": 0, "rental_uris": {"android": "https://dc.lft.to/lastmile_qr_scan", "ios": "https://dc.lft.to/lastmile_qr_scan"}, "fusion_lon": 0.0}, {"lat": 38.90110166666667, "is_disabled": 0, "type": "electric_scooter", "lon": -76.9962705, "bike_id": "4c306d920e3850f3877bbd96586c3bcd", "fusion_lat": 0.0, "name": "4c306d920e3850f3877bbd96586c3bcd", "is_reserved": 0, "rental_uris": {"android": "https://dc.lft.to/lastmile_qr_scan", "ios": "https://dc.lft.to/lastmile_qr_scan"}, "fusion_lon": 0.0}, {"lat": 38.921678166666666, "is_disabled": 0, "type": "electric_scooter", "lon": -77.03208133333334, "bike_id": "d1a533d39dcb521d3aad0087265c3e45", "fusion_lat": 0.0, "name": "d1a533d39dcb521d3aad0087265c3e45", "is_reserved": 0, "rental_uris": {"android": "https://dc.lft.to/lastmile_qr_scan", "ios": "https://dc.lft.to/lastmile_qr_scan"}, "fusion_lon": 0.0}, {"lat": 38.921802166666666, "is_disabled": 0, "type": "electric_scooter", "lon": -77.04699333333333, "bike_id": "41663d80933b37bd8813246c3f3b781f", "fusion_lat": 0.0, "name": "41663d80933b37bd8813246c3f3b781f", "is_reserved": 0, "rental_uris": {"android": "https://dc.lft.to/lastmile_qr_scan", "ios": "https://dc.lft.to/lastmile_qr_scan"}, "fusion_lon": 0.0}, {"lat": 38.902803166666665, "is_disabled": 0, "type": "electric_scooter", "lon": -77.0398705, "bike_id": "dbc65d9d0218ccb51b23ea65bb00fcfb", "fusion_lat": 0.0, "name": "dbc65d9d0218ccb51b23ea65bb00fcfb", "is_reserved": 0, "rental_uris": {"android": "https://dc.lft.to/lastmile_qr_scan", "ios": "https://dc.lft.to/lastmile_qr_scan"}, "fusion_lon": 0.0}, {"lat": 38.92469366666667, "is_disabled": 0, "type": "electric_scooter", "lon": -77.03921733333334, "bike_id": "4790e2b49b11d0bcb9f94c6b3e44fe90", "fusion_lat": 0.0, "name": "4790e2b49b11d0bcb9f94c6b3e44fe90", "is_reserved": 0, "rental_uris": {"android": "https://dc.lft.to/lastmile_qr_scan", "ios": "https://dc.lft.to/lastmile_qr_scan"}, "fusion_lon": 0.0}, {"lat": 38.937402166666665, "is_disabled": 0, "type": "electric_scooter", "lon": -77.03480133333333, "bike_id": "1ce5d3db8f6c0fb830262eff781613c0", "fusion_lat": 0.0, "name": "1ce5d3db8f6c0fb830262eff781613c0", "is_reserved": 0, "rental_uris": {"android": "https://dc.lft.to/lastmile_qr_scan", "ios": "https://dc.lft.to/lastmile_qr_scan"}, "fusion_lon": 0.0}, {"lat": 38.90955966666667, "is_disabled": 0, "type": "electric_scooter", "lon": -77.02282516666666, "bike_id": "a2d1c7661f9b94867b55bdc2b8dd23c0", "fusion_lat": 0.0, "name": "a2d1c7661f9b94867b55bdc2b8dd23c0", "is_reserved": 0, "rental_uris": {"android": "https://dc.lft.to/lastmile_qr_scan", "ios": "https://dc.lft.to/lastmile_qr_scan"}, "fusion_lon": 0.0}, {"lat": 38.892222333333336, "is_disabled": 0, "type": "electric_scooter", "lon": -77.03163083333334, "bike_id": "84291b3b023cbf2412680586a2ef1432", "fusion_lat": 0.0, "name": "84291b3b023cbf2412680586a2ef1432", "is_reserved": 0, "rental_uris": {"android": "https://dc.lft.to/lastmile_qr_scan", "ios": "https://dc.lft.to/lastmile_qr_scan"}, "fusion_lon": 0.0}, {"lat": 38.909609833333334, "is_disabled": 0, "type": "electric_scooter", "lon": -77.0383445, "bike_id": "c31a50ec05957cb14ea5715595c5bff3", "fusion_lat": 0.0, "name": "c31a50ec05957cb14ea5715595c5bff3", "is_reserved": 0, "rental_uris": {"android": "https://dc.lft.to/lastmile_qr_scan", "ios": "https://dc.lft.to/lastmile_qr_scan"}, "fusion_lon": 0.0}, {"lat": 38.9053065, "is_disabled": 0, "type": "electric_scooter", "lon": -77.05146166666667, "bike_id": "1af861359c8f56d69bf292718f04204b", "fusion_lat": 0.0, "name": "1af861359c8f56d69bf292718f04204b", "is_reserved": 0, "rental_uris": {"android": "https://dc.lft.to/lastmile_qr_scan", "ios": "https://dc.lft.to/lastmile_qr_scan"}, "fusion_lon": 0.0}, {"lat": 38.88575733333333, "is_disabled": 0, "type": "electric_scooter", "lon": -76.91912466666666, "bike_id": "da2551af8a605e6d7ae4a62960ff7c0f", "fusion_lat": 0.0, "name": "da2551af8a605e6d7ae4a62960ff7c0f", "is_reserved": 0, "rental_uris": {"android": "https://dc.lft.to/lastmile_qr_scan", "ios": "https://dc.lft.to/lastmile_qr_scan"}, "fusion_lon": 0.0}, {"lat": 38.92551066666667, "is_disabled": 0, "type": "electric_scooter", "lon": -77.03227483333333, "bike_id": "b3d4af5cd6c633374df43ae7301898f1", "fusion_lat": 0.0, "name": "b3d4af5cd6c633374df43ae7301898f1", "is_reserved": 0, "rental_uris": {"android": "https://dc.lft.to/lastmile_qr_scan", "ios": "https://dc.lft.to/lastmile_qr_scan"}, "fusion_lon": 0.0}, {"lat": 38.927487, "is_disabled": 0, "type": "electric_scooter", "lon": -77.02417716666666, "bike_id": "0282b89e192ec702ca608e90e69a5010", "fusion_lat": 0.0, "name": "0282b89e192ec702ca608e90e69a5010", "is_reserved": 0, "rental_uris": {"android": "https://dc.lft.to/lastmile_qr_scan", "ios": "https://dc.lft.to/lastmile_qr_scan"}, "fusion_lon": 0.0}, {"lat": 38.94792866666667, "is_disabled": 0, "type": "electric_scooter", "lon": -77.02169, "bike_id": "3de0f9d8c2e4408183897c549dd1e915", "fusion_lat": 0.0, "name": "3de0f9d8c2e4408183897c549dd1e915", "is_reserved": 0, "rental_uris": {"android": "https://dc.lft.to/lastmile_qr_scan", "ios": "https://dc.lft.to/lastmile_qr_scan"}, "fusion_lon": 0.0}, {"lat": 38.901643666666665, "is_disabled": 0, "type": "electric_scooter", "lon": -76.998542, "bike_id": "03b8ae689031ef45ae9e0b90ec28f888", "fusion_lat": 0.0, "name": "03b8ae689031ef45ae9e0b90ec28f888", "is_reserved": 0, "rental_uris": {"android": "https://dc.lft.to/lastmile_qr_scan", "ios": "https://dc.lft.to/lastmile_qr_scan"}, "fusion_lon": 0.0}, {"lat": 38.912814833333336, "is_disabled": 0, "type": "electric_scooter", "lon": -77.0450785, "bike_id": "db4b0ad5f80719f1e48cdc0540fd4593", "fusion_lat": 0.0, "name": "db4b0ad5f80719f1e48cdc0540fd4593", "is_reserved": 0, "rental_uris": {"android": "https://dc.lft.to/lastmile_qr_scan", "ios": "https://dc.lft.to/lastmile_qr_scan"}, "fusion_lon": 0.0}, {"lat": 38.85950233333333, "is_disabled": 0, "type": "electric_scooter", "lon": -76.9914085, "bike_id": "cc3fed0f7baa617cf2b5e9874eb9b707", "fusion_lat": 0.0, "name": "cc3fed0f7baa617cf2b5e9874eb9b707", "is_reserved": 0, "rental_uris": {"android": "https://dc.lft.to/lastmile_qr_scan", "ios": "https://dc.lft.to/lastmile_qr_scan"}, "fusion_lon": 0.0}, {"lat": 38.933482833333336, "is_disabled": 0, "type": "electric_scooter", "lon": -77.024932, "bike_id": "6470fd7e5cc3098984dab6f732ed6f46", "fusion_lat": 0.0, "name": "6470fd7e5cc3098984dab6f732ed6f46", "is_reserved": 0, "rental_uris": {"android": "https://dc.lft.to/lastmile_qr_scan", "ios": "https://dc.lft.to/lastmile_qr_scan"}, "fusion_lon": 0.0}, {"lat": 38.802675666666666, "is_disabled": 0, "type": "electric_bike", "lon": -77.08114166666667, "bike_id": "aa2f07530b8b320a337172f5dfc19dbb", "fusion_lat": 0.0, "name": "aa2f07530b8b320a337172f5dfc19dbb", "is_reserved": 0, "rental_uris": {"android": "https://dc.lft.to/lastmile_qr_scan", "ios": "https://dc.lft.to/lastmile_qr_scan"}, "fusion_lon": 0.0}, {"lat": 38.923520333333336, "is_disabled": 0, "type": "electric_scooter", "lon": -77.0244935, "bike_id": "1f2823985924c335f44afcd825ddf646", "fusion_lat": 0.0, "name": "1f2823985924c335f44afcd825ddf646", "is_reserved": 0, "rental_uris": {"android": "https://dc.lft.to/lastmile_qr_scan", "ios": "https://dc.lft.to/lastmile_qr_scan"}, "fusion_lon": 0.0}, {"lat": 39.0038485, "is_disabled": 0, "type": "electric_bike", "lon": -77.01287866666667, "bike_id": "f845b3460bac643b2720dff7a9835fc5", "fusion_lat": 0.0, "name": "f845b3460bac643b2720dff7a9835fc5", "is_reserved": 0, "rental_uris": {"android": "https://dc.lft.to/lastmile_qr_scan", "ios": "https://dc.lft.to/lastmile_qr_scan"}, "fusion_lon": 0.0}, {"lat": 38.90241066666667, "is_disabled": 0, "type": "electric_scooter", "lon": -77.01973683333334, "bike_id": "df8266324a40817e3461beb7b7a11c8a", "fusion_lat": 0.0, "name": "df8266324a40817e3461beb7b7a11c8a", "is_reserved": 0, "rental_uris": {"android": "https://dc.lft.to/lastmile_qr_scan", "ios": "https://dc.lft.to/lastmile_qr_scan"}, "fusion_lon": 0.0}, {"lat": 38.924052, "is_disabled": 0, "type": "electric_scooter", "lon": -77.02743, "bike_id": "9ee0706e7df3b98ab16cd25e1dcffb8f", "fusion_lat": 0.0, "name": "9ee0706e7df3b98ab16cd25e1dcffb8f", "is_reserved": 0, "rental_uris": {"android": "https://dc.lft.to/lastmile_qr_scan", "ios": "https://dc.lft.to/lastmile_qr_scan"}, "fusion_lon": 0.0}, {"lat": 38.906074833333335, "is_disabled": 0, "type": "electric_scooter", "lon": -76.9898385, "bike_id": "27fa14fb3c58d3f09645d3ea87babf67", "fusion_lat": 0.0, "name": "27fa14fb3c58d3f09645d3ea87babf67", "is_reserved": 0, "rental_uris": {"android": "https://dc.lft.to/lastmile_qr_scan", "ios": "https://dc.lft.to/lastmile_qr_scan"}, "fusion_lon": 0.0}, {"lat": 38.909133833333335, "is_disabled": 0, "type": "electric_scooter", "lon": -77.04416633333334, "bike_id": "aafd41907a468b1f5dc3eecfd5dda3c3", "fusion_lat": 0.0, "name": "aafd41907a468b1f5dc3eecfd5dda3c3", "is_reserved": 0, "rental_uris": {"android": "https://dc.lft.to/lastmile_qr_scan", "ios": "https://dc.lft.to/lastmile_qr_scan"}, "fusion_lon": 0.0}, {"lat": 38.94920483333333, "is_disabled": 0, "type": "electric_bike", "lon": -77.00803016666667, "bike_id": "bed18ecdd23a98c0497a26a370202dd9", "fusion_lat": 0.0, "name": "bed18ecdd23a98c0497a26a370202dd9", "is_reserved": 0, "rental_uris": {"android": "https://dc.lft.to/lastmile_qr_scan", "ios": "https://dc.lft.to/lastmile_qr_scan"}, "fusion_lon": 0.0}, {"lat": 38.877223666666666, "is_disabled": 0, "type": "electric_scooter", "lon": -77.01768516666667, "bike_id": "105a70d35b9bfc9a1d83241f48030f95", "fusion_lat": 0.0, "name": "105a70d35b9bfc9a1d83241f48030f95", "is_reserved": 0, "rental_uris": {"android": "https://dc.lft.to/lastmile_qr_scan", "ios": "https://dc.lft.to/lastmile_qr_scan"}, "fusion_lon": 0.0}, {"lat": 38.90512483333333, "is_disabled": 0, "type": "electric_scooter", "lon": -77.06230016666666, "bike_id": "8e44fdc808ca22bebd02937efbf9d930", "fusion_lat": 0.0, "name": "8e44fdc808ca22bebd02937efbf9d930", "is_reserved": 0, "rental_uris": {"android": "https://dc.lft.to/lastmile_qr_scan", "ios": "https://dc.lft.to/lastmile_qr_scan"}, "fusion_lon": 0.0}, {"lat": 38.929609666666664, "is_disabled": 0, "type": "electric_scooter", "lon": -77.0278825, "bike_id": "5081e1663d487856dbcdfdd3c88dd547", "fusion_lat": 0.0, "name": "5081e1663d487856dbcdfdd3c88dd547", "is_reserved": 0, "rental_uris": {"android": "https://dc.lft.to/lastmile_qr_scan", "ios": "https://dc.lft.to/lastmile_qr_scan"}, "fusion_lon": 0.0}, {"lat": 38.91746583333333, "is_disabled": 0, "type": "electric_scooter", "lon": -77.02291983333333, "bike_id": "92ae7d6b652331bfa040af51cf8eea6f", "fusion_lat": 0.0, "name": "92ae7d6b652331bfa040af51cf8eea6f", "is_reserved": 0, "rental_uris": {"android": "https://dc.lft.to/lastmile_qr_scan", "ios": "https://dc.lft.to/lastmile_qr_scan"}, "fusion_lon": 0.0}, {"lat": 38.91262416666667, "is_disabled": 0, "type": "electric_scooter", "lon": -77.0253135, "bike_id": "799a1875aa97ce3d9178b01f1747803b", "fusion_lat": 0.0, "name": "799a1875aa97ce3d9178b01f1747803b", "is_reserved": 0, "rental_uris": {"android": "https://dc.lft.to/lastmile_qr_scan", "ios": "https://dc.lft.to/lastmile_qr_scan"}, "fusion_lon": 0.0}, {"lat": 38.903322833333334, "is_disabled": 0, "type": "electric_scooter", "lon": -77.0423415, "bike_id": "6aa3c5802260a1ff432fe6185bbf9299", "fusion_lat": 0.0, "name": "6aa3c5802260a1ff432fe6185bbf9299", "is_reserved": 0, "rental_uris": {"android": "https://dc.lft.to/lastmile_qr_scan", "ios": "https://dc.lft.to/lastmile_qr_scan"}, "fusion_lon": 0.0}, {"lat": 38.89402483333333, "is_disabled": 0, "type": "electric_scooter", "lon": -76.986699, "bike_id": "f4fac19ed258349e7d06949a130e875c", "fusion_lat": 0.0, "name": "f4fac19ed258349e7d06949a130e875c", "is_reserved": 0, "rental_uris": {"android": "https://dc.lft.to/lastmile_qr_scan", "ios": "https://dc.lft.to/lastmile_qr_scan"}, "fusion_lon": 0.0}, {"lat": 38.86997216666666, "is_disabled": 0, "type": "electric_bike", "lon": -77.065693, "bike_id": "9849b8f3a1faf1239582c245b32d7c3a", "fusion_lat": 0.0, "name": "9849b8f3a1faf1239582c245b32d7c3a", "is_reserved": 0, "rental_uris": {"android": "https://dc.lft.to/lastmile_qr_scan", "ios": "https://dc.lft.to/lastmile_qr_scan"}, "fusion_lon": 0.0}, {"lat": 38.90729983333333, "is_disabled": 0, "type": "electric_bike", "lon": -77.010693, "bike_id": "18aa0bb9b36aede125c99f242c3b6e11", "fusion_lat": 0.0, "name": "18aa0bb9b36aede125c99f242c3b6e11", "is_reserved": 0, "rental_uris": {"android": "https://dc.lft.to/lastmile_qr_scan", "ios": "https://dc.lft.to/lastmile_qr_scan"}, "fusion_lon": 0.0}, {"lat": 38.9073635, "is_disabled": 0, "type": "electric_scooter", "lon": -77.029767, "bike_id": "22cfc8ca82b60132a004aee245cf86a8", "fusion_lat": 0.0, "name": "22cfc8ca82b60132a004aee245cf86a8", "is_reserved": 0, "rental_uris": {"android": "https://dc.lft.to/lastmile_qr_scan", "ios": "https://dc.lft.to/lastmile_qr_scan"}, "fusion_lon": 0.0}, {"lat": 38.90377333333333, "is_disabled": 0, "type": "electric_scooter", "lon": -77.02012, "bike_id": "3177316a37fa46ced444a0e9feeaffad", "fusion_lat": 0.0, "name": "3177316a37fa46ced444a0e9feeaffad", "is_reserved": 0, "rental_uris": {"android": "https://dc.lft.to/lastmile_qr_scan", "ios": "https://dc.lft.to/lastmile_qr_scan"}, "fusion_lon": 0.0}, {"lat": 38.89617066666667, "is_disabled": 0, "type": "electric_scooter", "lon": -77.03164116666666, "bike_id": "6b8b11e68571c8144beb67d3d3912544", "fusion_lat": 0.0, "name": "6b8b11e68571c8144beb67d3d3912544", "is_reserved": 0, "rental_uris": {"android": "https://dc.lft.to/lastmile_qr_scan", "ios": "https://dc.lft.to/lastmile_qr_scan"}, "fusion_lon": 0.0}, {"lat": 38.899736833333336, "is_disabled": 0, "type": "electric_scooter", "lon": -77.03081166666666, "bike_id": "023e88c83b6176d059b24a2c8d5f828b", "fusion_lat": 0.0, "name": "023e88c83b6176d059b24a2c8d5f828b", "is_reserved": 0, "rental_uris": {"android": "https://dc.lft.to/lastmile_qr_scan", "ios": "https://dc.lft.to/lastmile_qr_scan"}, "fusion_lon": 0.0}, {"lat": 38.86104433333333, "is_disabled": 0, "type": "electric_scooter", "lon": -76.98876533333333, "bike_id": "92c5209025e3dcbf63bf426556a4d2c8", "fusion_lat": 0.0, "name": "92c5209025e3dcbf63bf426556a4d2c8", "is_reserved": 0, "rental_uris": {"android": "https://dc.lft.to/lastmile_qr_scan", "ios": "https://dc.lft.to/lastmile_qr_scan"}, "fusion_lon": 0.0}, {"lat": 38.966087333333334, "is_disabled": 0, "type": "electric_scooter", "lon": -77.020561, "bike_id": "d9aa25dfe93481b25e6cf71e3523aad1", "fusion_lat": 0.0, "name": "d9aa25dfe93481b25e6cf71e3523aad1", "is_reserved": 0, "rental_uris": {"android": "https://dc.lft.to/lastmile_qr_scan", "ios": "https://dc.lft.to/lastmile_qr_scan"}, "fusion_lon": 0.0}, {"lat": 38.90502766666667, "is_disabled": 0, "type": "electric_scooter", "lon": -77.02953683333334, "bike_id": "98589389fe9142b2c4bc1b51804b89b5", "fusion_lat": 0.0, "name": "98589389fe9142b2c4bc1b51804b89b5", "is_reserved": 0, "rental_uris": {"android": "https://dc.lft.to/lastmile_qr_scan", "ios": "https://dc.lft.to/lastmile_qr_scan"}, "fusion_lon": 0.0}, {"lat": 38.9207705, "is_disabled": 0, "type": "electric_scooter", "lon": -77.02514166666667, "bike_id": "c9d13ace51b70b6480bffcaf85e62115", "fusion_lat": 0.0, "name": "c9d13ace51b70b6480bffcaf85e62115", "is_reserved": 0, "rental_uris": {"android": "https://dc.lft.to/lastmile_qr_scan", "ios": "https://dc.lft.to/lastmile_qr_scan"}, "fusion_lon": 0.0}, {"lat": 38.901604, "is_disabled": 0, "type": "electric_scooter", "lon": -77.032755, "bike_id": "2644e8dee51a9f93158cd8d7f9be8e11", "fusion_lat": 0.0, "name": "2644e8dee51a9f93158cd8d7f9be8e11", "is_reserved": 0, "rental_uris": {"android": "https://dc.lft.to/lastmile_qr_scan", "ios": "https://dc.lft.to/lastmile_qr_scan"}, "fusion_lon": 0.0}, {"lat": 38.919108, "is_disabled": 0, "type": "electric_scooter", "lon": -77.02377716666666, "bike_id": "49a67f28a1d6a301a552295894897a12", "fusion_lat": 0.0, "name": "49a67f28a1d6a301a552295894897a12", "is_reserved": 0, "rental_uris": {"android": "https://dc.lft.to/lastmile_qr_scan", "ios": "https://dc.lft.to/lastmile_qr_scan"}, "fusion_lon": 0.0}, {"lat": 38.886511166666665, "is_disabled": 0, "type": "electric_scooter", "lon": -77.02172666666667, "bike_id": "fdde61544d2d321b60e9f6a9e9e4114c", "fusion_lat": 0.0, "name": "fdde61544d2d321b60e9f6a9e9e4114c", "is_reserved": 0, "rental_uris": {"android": "https://dc.lft.to/lastmile_qr_scan", "ios": "https://dc.lft.to/lastmile_qr_scan"}, "fusion_lon": 0.0}, {"lat": 38.921571, "is_disabled": 0, "type": "electric_scooter", "lon": -77.035203, "bike_id": "c7e48b6c0d9389e0c24de59ecb6ba2b0", "fusion_lat": 0.0, "name": "c7e48b6c0d9389e0c24de59ecb6ba2b0", "is_reserved": 0, "rental_uris": {"android": "https://dc.lft.to/lastmile_qr_scan", "ios": "https://dc.lft.to/lastmile_qr_scan"}, "fusion_lon": 0.0}, {"lat": 38.908192, "is_disabled": 0, "type": "electric_scooter", "lon": -77.04335666666667, "bike_id": "7a848dff429d20180651979dfc7ae4a0", "fusion_lat": 0.0, "name": "7a848dff429d20180651979dfc7ae4a0", "is_reserved": 0, "rental_uris": {"android": "https://dc.lft.to/lastmile_qr_scan", "ios": "https://dc.lft.to/lastmile_qr_scan"}, "fusion_lon": 0.0}, {"lat": 38.93413183333333, "is_disabled": 0, "type": "electric_scooter", "lon": -77.04274883333333, "bike_id": "8de5dc577f6d238009330fd578d4ad9c", "fusion_lat": 0.0, "name": "8de5dc577f6d238009330fd578d4ad9c", "is_reserved": 0, "rental_uris": {"android": "https://dc.lft.to/lastmile_qr_scan", "ios": "https://dc.lft.to/lastmile_qr_scan"}, "fusion_lon": 0.0}, {"lat": 38.904779166666664, "is_disabled": 0, "type": "electric_scooter", "lon": -77.04874816666667, "bike_id": "97f2ef8dac095d196f54e4e650647f8d", "fusion_lat": 0.0, "name": "97f2ef8dac095d196f54e4e650647f8d", "is_reserved": 0, "rental_uris": {"android": "https://dc.lft.to/lastmile_qr_scan", "ios": "https://dc.lft.to/lastmile_qr_scan"}, "fusion_lon": 0.0}, {"lat": 38.9174395, "is_disabled": 0, "type": "electric_scooter", "lon": -77.0240195, "bike_id": "1bbb973b2b94010bab939d3203a44803", "fusion_lat": 0.0, "name": "1bbb973b2b94010bab939d3203a44803", "is_reserved": 0, "rental_uris": {"android": "https://dc.lft.to/lastmile_qr_scan", "ios": "https://dc.lft.to/lastmile_qr_scan"}, "fusion_lon": 0.0}, {"lat": 38.906532, "is_disabled": 0, "type": "electric_scooter", "lon": -77.0296665, "bike_id": "20bd990749b434729e0215e86e15d643", "fusion_lat": 0.0, "name": "20bd990749b434729e0215e86e15d643", "is_reserved": 0, "rental_uris": {"android": "https://dc.lft.to/lastmile_qr_scan", "ios": "https://dc.lft.to/lastmile_qr_scan"}, "fusion_lon": 0.0}, {"lat": 38.850340833333334, "is_disabled": 0, "type": "electric_bike", "lon": -77.101035, "bike_id": "0e4c0c538858c7e8931ac0cd5df63bb5", "fusion_lat": 0.0, "name": "0e4c0c538858c7e8931ac0cd5df63bb5", "is_reserved": 0, "rental_uris": {"android": "https://dc.lft.to/lastmile_qr_scan", "ios": "https://dc.lft.to/lastmile_qr_scan"}, "fusion_lon": 0.0}, {"lat": 38.8772445, "is_disabled": 0, "type": "electric_scooter", "lon": -77.017759, "bike_id": "e696d90babc2e1d80370127867e25ffe", "fusion_lat": 0.0, "name": "e696d90babc2e1d80370127867e25ffe", "is_reserved": 0, "rental_uris": {"android": "https://dc.lft.to/lastmile_qr_scan", "ios": "https://dc.lft.to/lastmile_qr_scan"}, "fusion_lon": 0.0}, {"lat": 38.9507455, "is_disabled": 0, "type": "electric_scooter", "lon": -77.02718933333334, "bike_id": "977c91ab0e8ad0c89b5a79f18fce5cb4", "fusion_lat": 0.0, "name": "977c91ab0e8ad0c89b5a79f18fce5cb4", "is_reserved": 0, "rental_uris": {"android": "https://dc.lft.to/lastmile_qr_scan", "ios": "https://dc.lft.to/lastmile_qr_scan"}, "fusion_lon": 0.0}, {"lat": 38.94193116666667, "is_disabled": 0, "type": "electric_scooter", "lon": -77.04015466666667, "bike_id": "677353d43ad1fe5749a9f2adce1bcdb9", "fusion_lat": 0.0, "name": "677353d43ad1fe5749a9f2adce1bcdb9", "is_reserved": 0, "rental_uris": {"android": "https://dc.lft.to/lastmile_qr_scan", "ios": "https://dc.lft.to/lastmile_qr_scan"}, "fusion_lon": 0.0}, {"lat": 38.915640833333335, "is_disabled": 0, "type": "electric_scooter", "lon": -77.02169183333334, "bike_id": "b45c9526ee9809120654aee911b23496", "fusion_lat": 0.0, "name": "b45c9526ee9809120654aee911b23496", "is_reserved": 0, "rental_uris": {"android": "https://dc.lft.to/lastmile_qr_scan", "ios": "https://dc.lft.to/lastmile_qr_scan"}, "fusion_lon": 0.0}, {"lat": 38.926637, "is_disabled": 0, "type": "electric_scooter", "lon": -76.99550283333333, "bike_id": "ba5007018b6526241b08f8b5df95f45c", "fusion_lat": 0.0, "name": "ba5007018b6526241b08f8b5df95f45c", "is_reserved": 0, "rental_uris": {"android": "https://dc.lft.to/lastmile_qr_scan", "ios": "https://dc.lft.to/lastmile_qr_scan"}, "fusion_lon": 0.0}, {"lat": 38.92573266666667, "is_disabled": 0, "type": "electric_scooter", "lon": -77.057479, "bike_id": "2bb5cb58bac246858d31db7d9c20b723", "fusion_lat": 0.0, "name": "2bb5cb58bac246858d31db7d9c20b723", "is_reserved": 0, "rental_uris": {"android": "https://dc.lft.to/lastmile_qr_scan", "ios": "https://dc.lft.to/lastmile_qr_scan"}, "fusion_lon": 0.0}, {"lat": 38.9049485, "is_disabled": 0, "type": "electric_scooter", "lon": -77.05126066666666, "bike_id": "324a37c3716d82052fc2aecacaa7f2c1", "fusion_lat": 0.0, "name": "324a37c3716d82052fc2aecacaa7f2c1", "is_reserved": 0, "rental_uris": {"android": "https://dc.lft.to/lastmile_qr_scan", "ios": "https://dc.lft.to/lastmile_qr_scan"}, "fusion_lon": 0.0}, {"lat": 38.91457416666667, "is_disabled": 0, "type": "electric_scooter", "lon": -77.04162466666666, "bike_id": "ed8ea4cb4080e28fe1caa3bf5dfe3ae2", "fusion_lat": 0.0, "name": "ed8ea4cb4080e28fe1caa3bf5dfe3ae2", "is_reserved": 0, "rental_uris": {"android": "https://dc.lft.to/lastmile_qr_scan", "ios": "https://dc.lft.to/lastmile_qr_scan"}, "fusion_lon": 0.0}, {"lat": 38.886737, "is_disabled": 0, "type": "electric_scooter", "lon": -76.9856195, "bike_id": "93607c08208a9ee5c927fd0fb6f861da", "fusion_lat": 0.0, "name": "93607c08208a9ee5c927fd0fb6f861da", "is_reserved": 0, "rental_uris": {"android": "https://dc.lft.to/lastmile_qr_scan", "ios": "https://dc.lft.to/lastmile_qr_scan"}, "fusion_lon": 0.0}, {"lat": 38.92914283333333, "is_disabled": 0, "type": "electric_scooter", "lon": -77.0219125, "bike_id": "1d8e699a0d6b4ae250945cb69f79b170", "fusion_lat": 0.0, "name": "1d8e699a0d6b4ae250945cb69f79b170", "is_reserved": 0, "rental_uris": {"android": "https://dc.lft.to/lastmile_qr_scan", "ios": "https://dc.lft.to/lastmile_qr_scan"}, "fusion_lon": 0.0}, {"lat": 38.8979705, "is_disabled": 0, "type": "electric_bike", "lon": -76.90444383333333, "bike_id": "92a3c5bfd2c42b8b9bf926fbeacdfe24", "fusion_lat": 0.0, "name": "92a3c5bfd2c42b8b9bf926fbeacdfe24", "is_reserved": 0, "rental_uris": {"android": "https://dc.lft.to/lastmile_qr_scan", "ios": "https://dc.lft.to/lastmile_qr_scan"}, "fusion_lon": 0.0}, {"lat": 38.922909, "is_disabled": 0, "type": "electric_scooter", "lon": -77.04258866666666, "bike_id": "5a2e0be12f79009f45a0ca4f77e190a6", "fusion_lat": 0.0, "name": "5a2e0be12f79009f45a0ca4f77e190a6", "is_reserved": 0, "rental_uris": {"android": "https://dc.lft.to/lastmile_qr_scan", "ios": "https://dc.lft.to/lastmile_qr_scan"}, "fusion_lon": 0.0}, {"lat": 38.87663166666667, "is_disabled": 0, "type": "electric_scooter", "lon": -77.00424916666667, "bike_id": "e078978bf653e9bf31e9991aede287c1", "fusion_lat": 0.0, "name": "e078978bf653e9bf31e9991aede287c1", "is_reserved": 0, "rental_uris": {"android": "https://dc.lft.to/lastmile_qr_scan", "ios": "https://dc.lft.to/lastmile_qr_scan"}, "fusion_lon": 0.0}, {"lat": 38.918121166666666, "is_disabled": 0, "type": "electric_scooter", "lon": -77.0451265, "bike_id": "8dcc811c90b8159415bbc13618a3e564", "fusion_lat": 0.0, "name": "8dcc811c90b8159415bbc13618a3e564", "is_reserved": 0, "rental_uris": {"android": "https://dc.lft.to/lastmile_qr_scan", "ios": "https://dc.lft.to/lastmile_qr_scan"}, "fusion_lon": 0.0}, {"lat": 38.852037333333335, "is_disabled": 0, "type": "electric_bike", "lon": -76.9855255, "bike_id": "540fdb7608ac2ab08c432de9586a5672", "fusion_lat": 0.0, "name": "540fdb7608ac2ab08c432de9586a5672", "is_reserved": 0, "rental_uris": {"android": "https://dc.lft.to/lastmile_qr_scan", "ios": "https://dc.lft.to/lastmile_qr_scan"}, "fusion_lon": 0.0}, {"lat": 38.9705725, "is_disabled": 0, "type": "electric_bike", "lon": -76.93617766666667, "bike_id": "1b7e31a50dccfa794cc3e4c94aed70fc", "fusion_lat": 0.0, "name": "1b7e31a50dccfa794cc3e4c94aed70fc", "is_reserved": 0, "rental_uris": {"android": "https://dc.lft.to/lastmile_qr_scan", "ios": "https://dc.lft.to/lastmile_qr_scan"}, "fusion_lon": 0.0}, {"lat": 38.8772455, "is_disabled": 0, "type": "electric_scooter", "lon": -77.01771816666667, "bike_id": "7c4986407e5b7e51fc10508ca5610afd", "fusion_lat": 0.0, "name": "7c4986407e5b7e51fc10508ca5610afd", "is_reserved": 0, "rental_uris": {"android": "https://dc.lft.to/lastmile_qr_scan", "ios": "https://dc.lft.to/lastmile_qr_scan"}, "fusion_lon": 0.0}, {"lat": 38.948229833333336, "is_disabled": 0, "type": "electric_scooter", "lon": -76.99904816666667, "bike_id": "9e5e32d2c7d7550a40af5df0de089a38", "fusion_lat": 0.0, "name": "9e5e32d2c7d7550a40af5df0de089a38", "is_reserved": 0, "rental_uris": {"android": "https://dc.lft.to/lastmile_qr_scan", "ios": "https://dc.lft.to/lastmile_qr_scan"}, "fusion_lon": 0.0}, {"lat": 38.8859395, "is_disabled": 0, "type": "electric_scooter", "lon": -77.01890616666667, "bike_id": "6774676ae299be9ead2db2be94a57f19", "fusion_lat": 0.0, "name": "6774676ae299be9ead2db2be94a57f19", "is_reserved": 0, "rental_uris": {"android": "https://dc.lft.to/lastmile_qr_scan", "ios": "https://dc.lft.to/lastmile_qr_scan"}, "fusion_lon": 0.0}, {"lat": 38.91709133333333, "is_disabled": 0, "type": "electric_scooter", "lon": -76.9793705, "bike_id": "87be40bbec54e0a9d5165523774b0ff7", "fusion_lat": 0.0, "name": "87be40bbec54e0a9d5165523774b0ff7", "is_reserved": 0, "rental_uris": {"android": "https://dc.lft.to/lastmile_qr_scan", "ios": "https://dc.lft.to/lastmile_qr_scan"}, "fusion_lon": 0.0}, {"lat": 38.8854915, "is_disabled": 0, "type": "electric_bike", "lon": -77.11787516666666, "bike_id": "3e7d4b78e614503c3990dc665ce17f8f", "fusion_lat": 0.0, "name": "3e7d4b78e614503c3990dc665ce17f8f", "is_reserved": 0, "rental_uris": {"android": "https://dc.lft.to/lastmile_qr_scan", "ios": "https://dc.lft.to/lastmile_qr_scan"}, "fusion_lon": 0.0}, {"lat": 38.906253166666666, "is_disabled": 0, "type": "electric_bike", "lon": -76.98609916666666, "bike_id": "dec1857720dd13de2a58a23ce19ff499", "fusion_lat": 0.0, "name": "dec1857720dd13de2a58a23ce19ff499", "is_reserved": 0, "rental_uris": {"android": "https://dc.lft.to/lastmile_qr_scan", "ios": "https://dc.lft.to/lastmile_qr_scan"}, "fusion_lon": 0.0}, {"lat": 38.90826283333333, "is_disabled": 0, "type": "electric_scooter", "lon": -77.0200025, "bike_id": "c0cff1eef27d1258d4d0fcd45c962b75", "fusion_lat": 0.0, "name": "c0cff1eef27d1258d4d0fcd45c962b75", "is_reserved": 0, "rental_uris": {"android": "https://dc.lft.to/lastmile_qr_scan", "ios": "https://dc.lft.to/lastmile_qr_scan"}, "fusion_lon": 0.0}, {"lat": 38.922073166666664, "is_disabled": 0, "type": "electric_bike", "lon": -77.08203316666666, "bike_id": "34d3f1e25a0d3ab254c017b464e2119d", "fusion_lat": 0.0, "name": "34d3f1e25a0d3ab254c017b464e2119d", "is_reserved": 0, "rental_uris": {"android": "https://dc.lft.to/lastmile_qr_scan", "ios": "https://dc.lft.to/lastmile_qr_scan"}, "fusion_lon": 0.0}, {"lat": 38.91962433333333, "is_disabled": 0, "type": "electric_scooter", "lon": -77.01437616666666, "bike_id": "d0ac33315ce35a419cf4ef7e49c7f3af", "fusion_lat": 0.0, "name": "d0ac33315ce35a419cf4ef7e49c7f3af", "is_reserved": 0, "rental_uris": {"android": "https://dc.lft.to/lastmile_qr_scan", "ios": "https://dc.lft.to/lastmile_qr_scan"}, "fusion_lon": 0.0}, {"lat": 38.9041295, "is_disabled": 0, "type": "electric_scooter", "lon": -77.05043216666667, "bike_id": "0d19b88cf597fc2ff4120e1789e1e23a", "fusion_lat": 0.0, "name": "0d19b88cf597fc2ff4120e1789e1e23a", "is_reserved": 0, "rental_uris": {"android": "https://dc.lft.to/lastmile_qr_scan", "ios": "https://dc.lft.to/lastmile_qr_scan"}, "fusion_lon": 0.0}, {"lat": 38.88681033333334, "is_disabled": 0, "type": "electric_bike", "lon": -77.16243283333333, "bike_id": "4c1a9091b48b4ec87d4b58bfecabc070", "fusion_lat": 0.0, "name": "4c1a9091b48b4ec87d4b58bfecabc070", "is_reserved": 0, "rental_uris": {"android": "https://dc.lft.to/lastmile_qr_scan", "ios": "https://dc.lft.to/lastmile_qr_scan"}, "fusion_lon": 0.0}, {"lat": 38.90290983333333, "is_disabled": 0, "type": "electric_scooter", "lon": -77.06347533333333, "bike_id": "5ca9ce368d38ad4a250ef5212fdb584a", "fusion_lat": 0.0, "name": "5ca9ce368d38ad4a250ef5212fdb584a", "is_reserved": 0, "rental_uris": {"android": "https://dc.lft.to/lastmile_qr_scan", "ios": "https://dc.lft.to/lastmile_qr_scan"}, "fusion_lon": 0.0}, {"lat": 38.91683733333333, "is_disabled": 0, "type": "electric_scooter", "lon": -77.03567016666666, "bike_id": "9599b25ec382e6cdfba5e68969156beb", "fusion_lat": 0.0, "name": "9599b25ec382e6cdfba5e68969156beb", "is_reserved": 0, "rental_uris": {"android": "https://dc.lft.to/lastmile_qr_scan", "ios": "https://dc.lft.to/lastmile_qr_scan"}, "fusion_lon": 0.0}, {"lat": 38.95893016666667, "is_disabled": 0, "type": "electric_bike", "lon": -76.92484983333334, "bike_id": "ecedf5bd5f5352fa7ea666b9cecdaf69", "fusion_lat": 0.0, "name": "ecedf5bd5f5352fa7ea666b9cecdaf69", "is_reserved": 0, "rental_uris": {"android": "https://dc.lft.to/lastmile_qr_scan", "ios": "https://dc.lft.to/lastmile_qr_scan"}, "fusion_lon": 0.0}, {"lat": 38.91185016666667, "is_disabled": 0, "type": "electric_scooter", "lon": -77.04330983333334, "bike_id": "d9333385ec4097c8150964d3960745b9", "fusion_lat": 0.0, "name": "d9333385ec4097c8150964d3960745b9", "is_reserved": 0, "rental_uris": {"android": "https://dc.lft.to/lastmile_qr_scan", "ios": "https://dc.lft.to/lastmile_qr_scan"}, "fusion_lon": 0.0}, {"lat": 38.90795133333334, "is_disabled": 0, "type": "electric_scooter", "lon": -77.04008733333333, "bike_id": "53c3066af933573e33c255613c83032a", "fusion_lat": 0.0, "name": "53c3066af933573e33c255613c83032a", "is_reserved": 0, "rental_uris": {"android": "https://dc.lft.to/lastmile_qr_scan", "ios": "https://dc.lft.to/lastmile_qr_scan"}, "fusion_lon": 0.0}, {"lat": 38.930118666666665, "is_disabled": 0, "type": "electric_scooter", "lon": -77.02088283333333, "bike_id": "425e65f6827fbc04f10209ebcb36a826", "fusion_lat": 0.0, "name": "425e65f6827fbc04f10209ebcb36a826", "is_reserved": 0, "rental_uris": {"android": "https://dc.lft.to/lastmile_qr_scan", "ios": "https://dc.lft.to/lastmile_qr_scan"}, "fusion_lon": 0.0}, {"lat": 38.91349, "is_disabled": 0, "type": "electric_scooter", "lon": -77.03192433333334, "bike_id": "a81ee96b79606d8fbf1c1a226951c0a4", "fusion_lat": 0.0, "name": "a81ee96b79606d8fbf1c1a226951c0a4", "is_reserved": 0, "rental_uris": {"android": "https://dc.lft.to/lastmile_qr_scan", "ios": "https://dc.lft.to/lastmile_qr_scan"}, "fusion_lon": 0.0}, {"lat": 38.90999816666667, "is_disabled": 0, "type": "electric_scooter", "lon": -77.0400985, "bike_id": "fa77b154eeb2b9fdde118846ea0d10da", "fusion_lat": 0.0, "name": "fa77b154eeb2b9fdde118846ea0d10da", "is_reserved": 0, "rental_uris": {"android": "https://dc.lft.to/lastmile_qr_scan", "ios": "https://dc.lft.to/lastmile_qr_scan"}, "fusion_lon": 0.0}, {"lat": 38.8530545, "is_disabled": 0, "type": "electric_bike", "lon": -77.131196, "bike_id": "bdbbd03079af0eff69e99e9ca679351f", "fusion_lat": 0.0, "name": "bdbbd03079af0eff69e99e9ca679351f", "is_reserved": 0, "rental_uris": {"android": "https://dc.lft.to/lastmile_qr_scan", "ios": "https://dc.lft.to/lastmile_qr_scan"}, "fusion_lon": 0.0}, {"lat": 38.92068966666667, "is_disabled": 0, "type": "electric_scooter", "lon": -77.01427633333333, "bike_id": "3d2de2db37a0002f24c9cd62d48632f9", "fusion_lat": 0.0, "name": "3d2de2db37a0002f24c9cd62d48632f9", "is_reserved": 0, "rental_uris": {"android": "https://dc.lft.to/lastmile_qr_scan", "ios": "https://dc.lft.to/lastmile_qr_scan"}, "fusion_lon": 0.0}, {"lat": 38.90987416666667, "is_disabled": 0, "type": "electric_bike", "lon": -77.00500766666667, "bike_id": "a59d32e5e00fb2abf168df314b6e08a7", "fusion_lat": 0.0, "name": "a59d32e5e00fb2abf168df314b6e08a7", "is_reserved": 0, "rental_uris": {"android": "https://dc.lft.to/lastmile_qr_scan", "ios": "https://dc.lft.to/lastmile_qr_scan"}, "fusion_lon": 0.0}, {"lat": 38.90811583333333, "is_disabled": 0, "type": "electric_scooter", "lon": -77.04342416666667, "bike_id": "edb7b953a29836769ee5a4a18619d2c1", "fusion_lat": 0.0, "name": "edb7b953a29836769ee5a4a18619d2c1", "is_reserved": 0, "rental_uris": {"android": "https://dc.lft.to/lastmile_qr_scan", "ios": "https://dc.lft.to/lastmile_qr_scan"}, "fusion_lon": 0.0}, {"lat": 38.914221166666664, "is_disabled": 0, "type": "electric_scooter", "lon": -77.03183366666667, "bike_id": "49f230c67e416c20c991aaa1fbf35b9a", "fusion_lat": 0.0, "name": "49f230c67e416c20c991aaa1fbf35b9a", "is_reserved": 0, "rental_uris": {"android": "https://dc.lft.to/lastmile_qr_scan", "ios": "https://dc.lft.to/lastmile_qr_scan"}, "fusion_lon": 0.0}, {"lat": 38.95057666666666, "is_disabled": 0, "type": "electric_bike", "lon": -77.0072115, "bike_id": "dc1dbdf73452eb2c313ea830dc0c1b28", "fusion_lat": 0.0, "name": "dc1dbdf73452eb2c313ea830dc0c1b28", "is_reserved": 0, "rental_uris": {"android": "https://dc.lft.to/lastmile_qr_scan", "ios": "https://dc.lft.to/lastmile_qr_scan"}, "fusion_lon": 0.0}, {"lat": 38.89249933333333, "is_disabled": 0, "type": "electric_scooter", "lon": -77.03958666666666, "bike_id": "692bb69ec1081bae09e3389a6e4c7b83", "fusion_lat": 0.0, "name": "692bb69ec1081bae09e3389a6e4c7b83", "is_reserved": 0, "rental_uris": {"android": "https://dc.lft.to/lastmile_qr_scan", "ios": "https://dc.lft.to/lastmile_qr_scan"}, "fusion_lon": 0.0}, {"lat": 38.92286883333333, "is_disabled": 0, "type": "electric_scooter", "lon": -77.036604, "bike_id": "fbd55ab12bb6f88c5ec5db9a953e038c", "fusion_lat": 0.0, "name": "fbd55ab12bb6f88c5ec5db9a953e038c", "is_reserved": 0, "rental_uris": {"android": "https://dc.lft.to/lastmile_qr_scan", "ios": "https://dc.lft.to/lastmile_qr_scan"}, "fusion_lon": 0.0}, {"lat": 38.931046333333335, "is_disabled": 0, "type": "electric_scooter", "lon": -77.03412233333333, "bike_id": "d93b00a141e9f2403b35200dafa5480e", "fusion_lat": 0.0, "name": "d93b00a141e9f2403b35200dafa5480e", "is_reserved": 0, "rental_uris": {"android": "https://dc.lft.to/lastmile_qr_scan", "ios": "https://dc.lft.to/lastmile_qr_scan"}, "fusion_lon": 0.0}, {"lat": 38.916666, "is_disabled": 0, "type": "electric_scooter", "lon": -77.02276133333334, "bike_id": "97f2a6748bef72ab58ee15c8da30ae76", "fusion_lat": 0.0, "name": "97f2a6748bef72ab58ee15c8da30ae76", "is_reserved": 0, "rental_uris": {"android": "https://dc.lft.to/lastmile_qr_scan", "ios": "https://dc.lft.to/lastmile_qr_scan"}, "fusion_lon": 0.0}, {"lat": 38.8922165, "is_disabled": 0, "type": "electric_scooter", "lon": -77.048606, "bike_id": "e8c46d1f1313917c2c5b20000a161342", "fusion_lat": 0.0, "name": "e8c46d1f1313917c2c5b20000a161342", "is_reserved": 0, "rental_uris": {"android": "https://dc.lft.to/lastmile_qr_scan", "ios": "https://dc.lft.to/lastmile_qr_scan"}, "fusion_lon": 0.0}, {"lat": 38.899092, "is_disabled": 0, "type": "electric_scooter", "lon": -76.93351616666666, "bike_id": "13fbc2ced4bd6ff2bf031a93e926d6c3", "fusion_lat": 0.0, "name": "13fbc2ced4bd6ff2bf031a93e926d6c3", "is_reserved": 0, "rental_uris": {"android": "https://dc.lft.to/lastmile_qr_scan", "ios": "https://dc.lft.to/lastmile_qr_scan"}, "fusion_lon": 0.0}, {"lat": 38.94078783333333, "is_disabled": 0, "type": "electric_scooter", "lon": -77.02390433333333, "bike_id": "d90fb40ed84ff3dbc9c8708d3c7b4b3f", "fusion_lat": 0.0, "name": "d90fb40ed84ff3dbc9c8708d3c7b4b3f", "is_reserved": 0, "rental_uris": {"android": "https://dc.lft.to/lastmile_qr_scan", "ios": "https://dc.lft.to/lastmile_qr_scan"}, "fusion_lon": 0.0}, {"lat": 38.939249333333336, "is_disabled": 0, "type": "electric_scooter", "lon": -77.02798383333334, "bike_id": "9ec1f26478639790acef14a3050df82f", "fusion_lat": 0.0, "name": "9ec1f26478639790acef14a3050df82f", "is_reserved": 0, "rental_uris": {"android": "https://dc.lft.to/lastmile_qr_scan", "ios": "https://dc.lft.to/lastmile_qr_scan"}, "fusion_lon": 0.0}, {"lat": 38.8551905, "is_disabled": 0, "type": "electric_bike", "lon": -76.9843435, "bike_id": "8f118fb145d96dc918ee326632935285", "fusion_lat": 0.0, "name": "8f118fb145d96dc918ee326632935285", "is_reserved": 0, "rental_uris": {"android": "https://dc.lft.to/lastmile_qr_scan", "ios": "https://dc.lft.to/lastmile_qr_scan"}, "fusion_lon": 0.0}, {"lat": 38.90853583333333, "is_disabled": 0, "type": "electric_scooter", "lon": -77.047766, "bike_id": "96cd3e582ec8309fad7439b08b2d8195", "fusion_lat": 0.0, "name": "96cd3e582ec8309fad7439b08b2d8195", "is_reserved": 0, "rental_uris": {"android": "https://dc.lft.to/lastmile_qr_scan", "ios": "https://dc.lft.to/lastmile_qr_scan"}, "fusion_lon": 0.0}, {"lat": 38.8892835, "is_disabled": 0, "type": "electric_scooter", "lon": -76.97376683333333, "bike_id": "392ec37fa8228c7c617808e89d3d887d", "fusion_lat": 0.0, "name": "392ec37fa8228c7c617808e89d3d887d", "is_reserved": 0, "rental_uris": {"android": "https://dc.lft.to/lastmile_qr_scan", "ios": "https://dc.lft.to/lastmile_qr_scan"}, "fusion_lon": 0.0}, {"lat": 38.8982165, "is_disabled": 0, "type": "electric_scooter", "lon": -77.02971583333333, "bike_id": "16471e76256c204bd034073ac7f96275", "fusion_lat": 0.0, "name": "16471e76256c204bd034073ac7f96275", "is_reserved": 0, "rental_uris": {"android": "https://dc.lft.to/lastmile_qr_scan", "ios": "https://dc.lft.to/lastmile_qr_scan"}, "fusion_lon": 0.0}, {"lat": 38.917114, "is_disabled": 0, "type": "electric_scooter", "lon": -77.033535, "bike_id": "94d724629b4e67018e1de5cf479d6617", "fusion_lat": 0.0, "name": "94d724629b4e67018e1de5cf479d6617", "is_reserved": 0, "rental_uris": {"android": "https://dc.lft.to/lastmile_qr_scan", "ios": "https://dc.lft.to/lastmile_qr_scan"}, "fusion_lon": 0.0}, {"lat": 38.94406583333333, "is_disabled": 0, "type": "electric_scooter", "lon": -77.02645733333334, "bike_id": "580b95cfcbb151a9df8b928c58400116", "fusion_lat": 0.0, "name": "580b95cfcbb151a9df8b928c58400116", "is_reserved": 0, "rental_uris": {"android": "https://dc.lft.to/lastmile_qr_scan", "ios": "https://dc.lft.to/lastmile_qr_scan"}, "fusion_lon": 0.0}, {"lat": 38.909017, "is_disabled": 0, "type": "electric_scooter", "lon": -77.03213966666667, "bike_id": "5e4c5ad495908e3941bcb60c71ef7e3c", "fusion_lat": 0.0, "name": "5e4c5ad495908e3941bcb60c71ef7e3c", "is_reserved": 0, "rental_uris": {"android": "https://dc.lft.to/lastmile_qr_scan", "ios": "https://dc.lft.to/lastmile_qr_scan"}, "fusion_lon": 0.0}, {"lat": 38.870805, "is_disabled": 0, "type": "electric_scooter", "lon": -76.96865883333334, "bike_id": "46ee8c8cc9a373dbabd649f8fab85ce8", "fusion_lat": 0.0, "name": "46ee8c8cc9a373dbabd649f8fab85ce8", "is_reserved": 0, "rental_uris": {"android": "https://dc.lft.to/lastmile_qr_scan", "ios": "https://dc.lft.to/lastmile_qr_scan"}, "fusion_lon": 0.0}, {"lat": 38.90070383333333, "is_disabled": 0, "type": "electric_scooter", "lon": -77.00219216666666, "bike_id": "af34228e63fffba995c6809b530a09f5", "fusion_lat": 0.0, "name": "af34228e63fffba995c6809b530a09f5", "is_reserved": 0, "rental_uris": {"android": "https://dc.lft.to/lastmile_qr_scan", "ios": "https://dc.lft.to/lastmile_qr_scan"}, "fusion_lon": 0.0}, {"lat": 38.9022665, "is_disabled": 0, "type": "electric_scooter", "lon": -77.023775, "bike_id": "23b8d73b68ac94db148e95cd858e0727", "fusion_lat": 0.0, "name": "23b8d73b68ac94db148e95cd858e0727", "is_reserved": 0, "rental_uris": {"android": "https://dc.lft.to/lastmile_qr_scan", "ios": "https://dc.lft.to/lastmile_qr_scan"}, "fusion_lon": 0.0}, {"lat": 38.91288133333333, "is_disabled": 0, "type": "electric_bike", "lon": -77.04486833333333, "bike_id": "a00a3d25bb15e9687661fcbb94a3b741", "fusion_lat": 0.0, "name": "a00a3d25bb15e9687661fcbb94a3b741", "is_reserved": 0, "rental_uris": {"android": "https://dc.lft.to/lastmile_qr_scan", "ios": "https://dc.lft.to/lastmile_qr_scan"}, "fusion_lon": 0.0}, {"lat": 38.872479166666665, "is_disabled": 0, "type": "electric_scooter", "lon": -76.977278, "bike_id": "a49d1339138a7b71c400d65ca515c637", "fusion_lat": 0.0, "name": "a49d1339138a7b71c400d65ca515c637", "is_reserved": 0, "rental_uris": {"android": "https://dc.lft.to/lastmile_qr_scan", "ios": "https://dc.lft.to/lastmile_qr_scan"}, "fusion_lon": 0.0}, {"lat": 38.8766665, "is_disabled": 0, "type": "electric_scooter", "lon": -77.00419616666667, "bike_id": "aab370186f33a1f5f3c068a0199c9f4f", "fusion_lat": 0.0, "name": "aab370186f33a1f5f3c068a0199c9f4f", "is_reserved": 0, "rental_uris": {"android": "https://dc.lft.to/lastmile_qr_scan", "ios": "https://dc.lft.to/lastmile_qr_scan"}, "fusion_lon": 0.0}, {"lat": 38.90377083333333, "is_disabled": 0, "type": "electric_scooter", "lon": -77.02514166666667, "bike_id": "14f1cb8679f6416a0ddd59730695d32b", "fusion_lat": 0.0, "name": "14f1cb8679f6416a0ddd59730695d32b", "is_reserved": 0, "rental_uris": {"android": "https://dc.lft.to/lastmile_qr_scan", "ios": "https://dc.lft.to/lastmile_qr_scan"}, "fusion_lon": 0.0}, {"lat": 38.962330666666666, "is_disabled": 0, "type": "electric_bike", "lon": -77.02624933333334, "bike_id": "cf0e636c819bd7e89bc2b390af3d4686", "fusion_lat": 0.0, "name": "cf0e636c819bd7e89bc2b390af3d4686", "is_reserved": 0, "rental_uris": {"android": "https://dc.lft.to/lastmile_qr_scan", "ios": "https://dc.lft.to/lastmile_qr_scan"}, "fusion_lon": 0.0}, {"lat": 38.90572933333333, "is_disabled": 0, "type": "electric_scooter", "lon": -77.04666616666667, "bike_id": "9e7bc92cb06bf29fd6c7e6fef818b35e", "fusion_lat": 0.0, "name": "9e7bc92cb06bf29fd6c7e6fef818b35e", "is_reserved": 0, "rental_uris": {"android": "https://dc.lft.to/lastmile_qr_scan", "ios": "https://dc.lft.to/lastmile_qr_scan"}, "fusion_lon": 0.0}, {"lat": 38.92332833333333, "is_disabled": 0, "type": "electric_bike", "lon": -77.038995, "bike_id": "da4f9159cabd567cfd80d74e9216b2f6", "fusion_lat": 0.0, "name": "da4f9159cabd567cfd80d74e9216b2f6", "is_reserved": 0, "rental_uris": {"android": "https://dc.lft.to/lastmile_qr_scan", "ios": "https://dc.lft.to/lastmile_qr_scan"}, "fusion_lon": 0.0}, {"lat": 38.913751500000004, "is_disabled": 0, "type": "electric_scooter", "lon": -77.02001733333333, "bike_id": "fe9a6c7a949a0ac87921955d5dddb096", "fusion_lat": 0.0, "name": "fe9a6c7a949a0ac87921955d5dddb096", "is_reserved": 0, "rental_uris": {"android": "https://dc.lft.to/lastmile_qr_scan", "ios": "https://dc.lft.to/lastmile_qr_scan"}, "fusion_lon": 0.0}, {"lat": 38.933361166666664, "is_disabled": 0, "type": "electric_bike", "lon": -77.04221866666667, "bike_id": "a00c7d7657dc64d6d4ab0263b863ac10", "fusion_lat": 0.0, "name": "a00c7d7657dc64d6d4ab0263b863ac10", "is_reserved": 0, "rental_uris": {"android": "https://dc.lft.to/lastmile_qr_scan", "ios": "https://dc.lft.to/lastmile_qr_scan"}, "fusion_lon": 0.0}, {"lat": 38.9482115, "is_disabled": 0, "type": "electric_scooter", "lon": -76.999074, "bike_id": "9d09e9e0c6c3e7ac65ba245be3c0d005", "fusion_lat": 0.0, "name": "9d09e9e0c6c3e7ac65ba245be3c0d005", "is_reserved": 0, "rental_uris": {"android": "https://dc.lft.to/lastmile_qr_scan", "ios": "https://dc.lft.to/lastmile_qr_scan"}, "fusion_lon": 0.0}, {"lat": 38.916668, "is_disabled": 0, "type": "electric_scooter", "lon": -77.03224383333334, "bike_id": "52f5ad7da56a8ff8d38ff41c12ac877b", "fusion_lat": 0.0, "name": "52f5ad7da56a8ff8d38ff41c12ac877b", "is_reserved": 0, "rental_uris": {"android": "https://dc.lft.to/lastmile_qr_scan", "ios": "https://dc.lft.to/lastmile_qr_scan"}, "fusion_lon": 0.0}, {"lat": 38.89738633333333, "is_disabled": 0, "type": "electric_scooter", "lon": -77.0216975, "bike_id": "325fe6cdb8ea6eee75f0dc7dbadc7e9f", "fusion_lat": 0.0, "name": "325fe6cdb8ea6eee75f0dc7dbadc7e9f", "is_reserved": 0, "rental_uris": {"android": "https://dc.lft.to/lastmile_qr_scan", "ios": "https://dc.lft.to/lastmile_qr_scan"}, "fusion_lon": 0.0}, {"lat": 38.920365, "is_disabled": 0, "type": "electric_scooter", "lon": -77.04181833333334, "bike_id": "0c194aa907761f0f8b60edeb7e443f92", "fusion_lat": 0.0, "name": "0c194aa907761f0f8b60edeb7e443f92", "is_reserved": 0, "rental_uris": {"android": "https://dc.lft.to/lastmile_qr_scan", "ios": "https://dc.lft.to/lastmile_qr_scan"}, "fusion_lon": 0.0}, {"lat": 38.91411983333333, "is_disabled": 0, "type": "electric_scooter", "lon": -77.02210783333334, "bike_id": "c4793bb16c10571f4d20081172ed3b47", "fusion_lat": 0.0, "name": "c4793bb16c10571f4d20081172ed3b47", "is_reserved": 0, "rental_uris": {"android": "https://dc.lft.to/lastmile_qr_scan", "ios": "https://dc.lft.to/lastmile_qr_scan"}, "fusion_lon": 0.0}, {"lat": 38.890725333333336, "is_disabled": 0, "type": "electric_scooter", "lon": -76.9884095, "bike_id": "12e28032b1154771e6017c2046d4c612", "fusion_lat": 0.0, "name": "12e28032b1154771e6017c2046d4c612", "is_reserved": 0, "rental_uris": {"android": "https://dc.lft.to/lastmile_qr_scan", "ios": "https://dc.lft.to/lastmile_qr_scan"}, "fusion_lon": 0.0}, {"lat": 38.945525, "is_disabled": 0, "type": "electric_bike", "lon": -76.89539333333333, "bike_id": "94567ab48c377142eba8302685d68dd6", "fusion_lat": 0.0, "name": "94567ab48c377142eba8302685d68dd6", "is_reserved": 0, "rental_uris": {"android": "https://dc.lft.to/lastmile_qr_scan", "ios": "https://dc.lft.to/lastmile_qr_scan"}, "fusion_lon": 0.0}, {"lat": 38.917174833333334, "is_disabled": 0, "type": "electric_scooter", "lon": -77.038374, "bike_id": "13ca599bd610a0f5604607635a7d92d6", "fusion_lat": 0.0, "name": "13ca599bd610a0f5604607635a7d92d6", "is_reserved": 0, "rental_uris": {"android": "https://dc.lft.to/lastmile_qr_scan", "ios": "https://dc.lft.to/lastmile_qr_scan"}, "fusion_lon": 0.0}, {"lat": 38.936565333333334, "is_disabled": 0, "type": "electric_bike", "lon": -76.952202, "bike_id": "d16b2aaa8741972ea75802b15751b752", "fusion_lat": 0.0, "name": "d16b2aaa8741972ea75802b15751b752", "is_reserved": 0, "rental_uris": {"android": "https://dc.lft.to/lastmile_qr_scan", "ios": "https://dc.lft.to/lastmile_qr_scan"}, "fusion_lon": 0.0}, {"lat": 38.905439666666666, "is_disabled": 0, "type": "electric_scooter", "lon": -77.03403383333334, "bike_id": "b2a69509631ce6959f9fa4814447ed1e", "fusion_lat": 0.0, "name": "b2a69509631ce6959f9fa4814447ed1e", "is_reserved": 0, "rental_uris": {"android": "https://dc.lft.to/lastmile_qr_scan", "ios": "https://dc.lft.to/lastmile_qr_scan"}, "fusion_lon": 0.0}, {"lat": 38.851974, "is_disabled": 0, "type": "electric_scooter", "lon": -76.97632816666666, "bike_id": "c49eb5336f1501bf83d321d424244b11", "fusion_lat": 0.0, "name": "c49eb5336f1501bf83d321d424244b11", "is_reserved": 0, "rental_uris": {"android": "https://dc.lft.to/lastmile_qr_scan", "ios": "https://dc.lft.to/lastmile_qr_scan"}, "fusion_lon": 0.0}, {"lat": 38.857131, "is_disabled": 0, "type": "electric_scooter", "lon": -76.986685, "bike_id": "da41f1a599896d4fc9fdc69e4f11838a", "fusion_lat": 0.0, "name": "da41f1a599896d4fc9fdc69e4f11838a", "is_reserved": 0, "rental_uris": {"android": "https://dc.lft.to/lastmile_qr_scan", "ios": "https://dc.lft.to/lastmile_qr_scan"}, "fusion_lon": 0.0}, {"lat": 38.992581666666666, "is_disabled": 0, "type": "electric_scooter", "lon": -77.03654583333334, "bike_id": "89ea504092a471948fe957b547cea2d4", "fusion_lat": 0.0, "name": "89ea504092a471948fe957b547cea2d4", "is_reserved": 0, "rental_uris": {"android": "https://dc.lft.to/lastmile_qr_scan", "ios": "https://dc.lft.to/lastmile_qr_scan"}, "fusion_lon": 0.0}, {"lat": 39.03425383333333, "is_disabled": 0, "type": "electric_bike", "lon": -77.04307316666667, "bike_id": "aa721e3d2fd7922f8329cca7ee9d9ef1", "fusion_lat": 0.0, "name": "aa721e3d2fd7922f8329cca7ee9d9ef1", "is_reserved": 0, "rental_uris": {"android": "https://dc.lft.to/lastmile_qr_scan", "ios": "https://dc.lft.to/lastmile_qr_scan"}, "fusion_lon": 0.0}, {"lat": 38.893473666666665, "is_disabled": 0, "type": "electric_scooter", "lon": -77.041493, "bike_id": "47108d319e544cd447aecacf27403103", "fusion_lat": 0.0, "name": "47108d319e544cd447aecacf27403103", "is_reserved": 0, "rental_uris": {"android": "https://dc.lft.to/lastmile_qr_scan", "ios": "https://dc.lft.to/lastmile_qr_scan"}, "fusion_lon": 0.0}, {"lat": 38.900137, "is_disabled": 0, "type": "electric_scooter", "lon": -77.0465345, "bike_id": "844ba10c32f2dc3169dcc3afce6b98e2", "fusion_lat": 0.0, "name": "844ba10c32f2dc3169dcc3afce6b98e2", "is_reserved": 0, "rental_uris": {"android": "https://dc.lft.to/lastmile_qr_scan", "ios": "https://dc.lft.to/lastmile_qr_scan"}, "fusion_lon": 0.0}, {"lat": 38.91849, "is_disabled": 0, "type": "electric_bike", "lon": -77.069748, "bike_id": "35e4e5e8030305d279633dda9be14f8b", "fusion_lat": 0.0, "name": "35e4e5e8030305d279633dda9be14f8b", "is_reserved": 0, "rental_uris": {"android": "https://dc.lft.to/lastmile_qr_scan", "ios": "https://dc.lft.to/lastmile_qr_scan"}, "fusion_lon": 0.0}, {"lat": 38.909746166666665, "is_disabled": 0, "type": "electric_scooter", "lon": -77.04624783333334, "bike_id": "4f4332b7f1531cbbce38fa1bd29de4b3", "fusion_lat": 0.0, "name": "4f4332b7f1531cbbce38fa1bd29de4b3", "is_reserved": 0, "rental_uris": {"android": "https://dc.lft.to/lastmile_qr_scan", "ios": "https://dc.lft.to/lastmile_qr_scan"}, "fusion_lon": 0.0}, {"lat": 38.9369735, "is_disabled": 0, "type": "electric_scooter", "lon": -77.02411916666667, "bike_id": "5b32ed74bdb3df120ef7a6bc3157bc0b", "fusion_lat": 0.0, "name": "5b32ed74bdb3df120ef7a6bc3157bc0b", "is_reserved": 0, "rental_uris": {"android": "https://dc.lft.to/lastmile_qr_scan", "ios": "https://dc.lft.to/lastmile_qr_scan"}, "fusion_lon": 0.0}, {"lat": 38.9087285, "is_disabled": 0, "type": "electric_scooter", "lon": -77.04340433333333, "bike_id": "5e47cdac5b9451d358ee001a03a7b5e3", "fusion_lat": 0.0, "name": "5e47cdac5b9451d358ee001a03a7b5e3", "is_reserved": 0, "rental_uris": {"android": "https://dc.lft.to/lastmile_qr_scan", "ios": "https://dc.lft.to/lastmile_qr_scan"}, "fusion_lon": 0.0}, {"lat": 38.92590766666667, "is_disabled": 0, "type": "electric_scooter", "lon": -77.04401533333333, "bike_id": "843f4fc8ec23aeaaaae26bfce12147a4", "fusion_lat": 0.0, "name": "843f4fc8ec23aeaaaae26bfce12147a4", "is_reserved": 0, "rental_uris": {"android": "https://dc.lft.to/lastmile_qr_scan", "ios": "https://dc.lft.to/lastmile_qr_scan"}, "fusion_lon": 0.0}, {"lat": 38.844306333333336, "is_disabled": 0, "type": "electric_scooter", "lon": -76.99662416666666, "bike_id": "5c889a38973d67b11d0cede864cc1dd5", "fusion_lat": 0.0, "name": "5c889a38973d67b11d0cede864cc1dd5", "is_reserved": 0, "rental_uris": {"android": "https://dc.lft.to/lastmile_qr_scan", "ios": "https://dc.lft.to/lastmile_qr_scan"}, "fusion_lon": 0.0}, {"lat": 38.927441, "is_disabled": 0, "type": "electric_scooter", "lon": -77.03264033333333, "bike_id": "5ee7f86db4667f3574e157457d58ab26", "fusion_lat": 0.0, "name": "5ee7f86db4667f3574e157457d58ab26", "is_reserved": 0, "rental_uris": {"android": "https://dc.lft.to/lastmile_qr_scan", "ios": "https://dc.lft.to/lastmile_qr_scan"}, "fusion_lon": 0.0}, {"lat": 38.89220066666667, "is_disabled": 0, "type": "electric_scooter", "lon": -77.027783, "bike_id": "52890a433fb037e31065fb40e68db7b0", "fusion_lat": 0.0, "name": "52890a433fb037e31065fb40e68db7b0", "is_reserved": 0, "rental_uris": {"android": "https://dc.lft.to/lastmile_qr_scan", "ios": "https://dc.lft.to/lastmile_qr_scan"}, "fusion_lon": 0.0}, {"lat": 38.907991333333335, "is_disabled": 0, "type": "electric_scooter", "lon": -77.042564, "bike_id": "eb0c08a035b2b4206faa3a8a04a701f2", "fusion_lat": 0.0, "name": "eb0c08a035b2b4206faa3a8a04a701f2", "is_reserved": 0, "rental_uris": {"android": "https://dc.lft.to/lastmile_qr_scan", "ios": "https://dc.lft.to/lastmile_qr_scan"}, "fusion_lon": 0.0}, {"lat": 38.905375166666666, "is_disabled": 0, "type": "electric_scooter", "lon": -77.06191933333334, "bike_id": "a6f05fa8d411f458839a7aa0ef6d419c", "fusion_lat": 0.0, "name": "a6f05fa8d411f458839a7aa0ef6d419c", "is_reserved": 0, "rental_uris": {"android": "https://dc.lft.to/lastmile_qr_scan", "ios": "https://dc.lft.to/lastmile_qr_scan"}, "fusion_lon": 0.0}, {"lat": 38.91795066666667, "is_disabled": 0, "type": "electric_scooter", "lon": -77.02293183333333, "bike_id": "144ca88799c88973f09e43512a5f663a", "fusion_lat": 0.0, "name": "144ca88799c88973f09e43512a5f663a", "is_reserved": 0, "rental_uris": {"android": "https://dc.lft.to/lastmile_qr_scan", "ios": "https://dc.lft.to/lastmile_qr_scan"}, "fusion_lon": 0.0}, {"lat": 38.91117766666667, "is_disabled": 0, "type": "electric_scooter", "lon": -77.04362516666667, "bike_id": "7732f3e2248e43b37134b8146c34a785", "fusion_lat": 0.0, "name": "7732f3e2248e43b37134b8146c34a785", "is_reserved": 0, "rental_uris": {"android": "https://dc.lft.to/lastmile_qr_scan", "ios": "https://dc.lft.to/lastmile_qr_scan"}, "fusion_lon": 0.0}, {"lat": 38.898952333333334, "is_disabled": 0, "type": "electric_scooter", "lon": -76.93360116666666, "bike_id": "7764fe25fd9d13c6df4a7762a660a0eb", "fusion_lat": 0.0, "name": "7764fe25fd9d13c6df4a7762a660a0eb", "is_reserved": 0, "rental_uris": {"android": "https://dc.lft.to/lastmile_qr_scan", "ios": "https://dc.lft.to/lastmile_qr_scan"}, "fusion_lon": 0.0}, {"lat": 38.89549216666666, "is_disabled": 0, "type": "electric_scooter", "lon": -77.0091135, "bike_id": "978f1fb1d73f8d8421bb6e89467b188e", "fusion_lat": 0.0, "name": "978f1fb1d73f8d8421bb6e89467b188e", "is_reserved": 0, "rental_uris": {"android": "https://dc.lft.to/lastmile_qr_scan", "ios": "https://dc.lft.to/lastmile_qr_scan"}, "fusion_lon": 0.0}, {"lat": 38.897029333333336, "is_disabled": 0, "type": "electric_scooter", "lon": -77.048707, "bike_id": "61c493668954929db3d885e1a3ee0a96", "fusion_lat": 0.0, "name": "61c493668954929db3d885e1a3ee0a96", "is_reserved": 0, "rental_uris": {"android": "https://dc.lft.to/lastmile_qr_scan", "ios": "https://dc.lft.to/lastmile_qr_scan"}, "fusion_lon": 0.0}, {"lat": 38.89708, "is_disabled": 0, "type": "electric_scooter", "lon": -77.00840883333333, "bike_id": "e9ec7ae21587851bb33c8457360d0083", "fusion_lat": 0.0, "name": "e9ec7ae21587851bb33c8457360d0083", "is_reserved": 0, "rental_uris": {"android": "https://dc.lft.to/lastmile_qr_scan", "ios": "https://dc.lft.to/lastmile_qr_scan"}, "fusion_lon": 0.0}, {"lat": 38.9224885, "is_disabled": 0, "type": "electric_scooter", "lon": -77.03138116666666, "bike_id": "ae5bc7f070661991b543d591472960ce", "fusion_lat": 0.0, "name": "ae5bc7f070661991b543d591472960ce", "is_reserved": 0, "rental_uris": {"android": "https://dc.lft.to/lastmile_qr_scan", "ios": "https://dc.lft.to/lastmile_qr_scan"}, "fusion_lon": 0.0}, {"lat": 38.911806, "is_disabled": 0, "type": "electric_scooter", "lon": -77.01089433333334, "bike_id": "30cca5a5d545d4612a3a6c9d4241089e", "fusion_lat": 0.0, "name": "30cca5a5d545d4612a3a6c9d4241089e", "is_reserved": 0, "rental_uris": {"android": "https://dc.lft.to/lastmile_qr_scan", "ios": "https://dc.lft.to/lastmile_qr_scan"}, "fusion_lon": 0.0}, {"lat": 38.9023555, "is_disabled": 0, "type": "electric_scooter", "lon": -77.00192316666667, "bike_id": "33335dcc01490e00443ea9e0dc54e8ea", "fusion_lat": 0.0, "name": "33335dcc01490e00443ea9e0dc54e8ea", "is_reserved": 0, "rental_uris": {"android": "https://dc.lft.to/lastmile_qr_scan", "ios": "https://dc.lft.to/lastmile_qr_scan"}, "fusion_lon": 0.0}, {"lat": 38.9257785, "is_disabled": 0, "type": "electric_scooter", "lon": -77.028326, "bike_id": "35810ed774a309c619deb4b373be9fe8", "fusion_lat": 0.0, "name": "35810ed774a309c619deb4b373be9fe8", "is_reserved": 0, "rental_uris": {"android": "https://dc.lft.to/lastmile_qr_scan", "ios": "https://dc.lft.to/lastmile_qr_scan"}, "fusion_lon": 0.0}, {"lat": 38.932536999999996, "is_disabled": 0, "type": "electric_scooter", "lon": -77.034695, "bike_id": "f32a58890e0fddf4fe7371350277c541", "fusion_lat": 0.0, "name": "f32a58890e0fddf4fe7371350277c541", "is_reserved": 0, "rental_uris": {"android": "https://dc.lft.to/lastmile_qr_scan", "ios": "https://dc.lft.to/lastmile_qr_scan"}, "fusion_lon": 0.0}, {"lat": 38.930212833333336, "is_disabled": 0, "type": "electric_scooter", "lon": -77.04449116666666, "bike_id": "ee00ae762cf033704a461f94d2868cd2", "fusion_lat": 0.0, "name": "ee00ae762cf033704a461f94d2868cd2", "is_reserved": 0, "rental_uris": {"android": "https://dc.lft.to/lastmile_qr_scan", "ios": "https://dc.lft.to/lastmile_qr_scan"}, "fusion_lon": 0.0}, {"lat": 38.921572, "is_disabled": 0, "type": "electric_scooter", "lon": -77.03515016666667, "bike_id": "1f7cce7f031d05e3ca3fb20f334e3974", "fusion_lat": 0.0, "name": "1f7cce7f031d05e3ca3fb20f334e3974", "is_reserved": 0, "rental_uris": {"android": "https://dc.lft.to/lastmile_qr_scan", "ios": "https://dc.lft.to/lastmile_qr_scan"}, "fusion_lon": 0.0}, {"lat": 38.943534, "is_disabled": 0, "type": "electric_scooter", "lon": -77.00217, "bike_id": "f65116db3c00f669612a5a0b40feb058", "fusion_lat": 0.0, "name": "f65116db3c00f669612a5a0b40feb058", "is_reserved": 0, "rental_uris": {"android": "https://dc.lft.to/lastmile_qr_scan", "ios": "https://dc.lft.to/lastmile_qr_scan"}, "fusion_lon": 0.0}, {"lat": 38.91404583333333, "is_disabled": 0, "type": "electric_scooter", "lon": -77.03154266666667, "bike_id": "6da57ec94a8b2c3476e37c790f0d553e", "fusion_lat": 0.0, "name": "6da57ec94a8b2c3476e37c790f0d553e", "is_reserved": 0, "rental_uris": {"android": "https://dc.lft.to/lastmile_qr_scan", "ios": "https://dc.lft.to/lastmile_qr_scan"}, "fusion_lon": 0.0}, {"lat": 38.91913316666667, "is_disabled": 0, "type": "electric_scooter", "lon": -77.03186816666667, "bike_id": "faa0450304f8d8ceb1fb5cbb1de1c603", "fusion_lat": 0.0, "name": "faa0450304f8d8ceb1fb5cbb1de1c603", "is_reserved": 0, "rental_uris": {"android": "https://dc.lft.to/lastmile_qr_scan", "ios": "https://dc.lft.to/lastmile_qr_scan"}, "fusion_lon": 0.0}, {"lat": 38.894877666666666, "is_disabled": 0, "type": "electric_scooter", "lon": -77.00225, "bike_id": "6168b21af7e60b5740087233ee15792f", "fusion_lat": 0.0, "name": "6168b21af7e60b5740087233ee15792f", "is_reserved": 0, "rental_uris": {"android": "https://dc.lft.to/lastmile_qr_scan", "ios": "https://dc.lft.to/lastmile_qr_scan"}, "fusion_lon": 0.0}, {"lat": 38.886273333333335, "is_disabled": 0, "type": "electric_scooter", "lon": -76.95519083333333, "bike_id": "29569ba9726f5637d44ebad593185013", "fusion_lat": 0.0, "name": "29569ba9726f5637d44ebad593185013", "is_reserved": 0, "rental_uris": {"android": "https://dc.lft.to/lastmile_qr_scan", "ios": "https://dc.lft.to/lastmile_qr_scan"}, "fusion_lon": 0.0}, {"lat": 38.92170516666667, "is_disabled": 0, "type": "electric_scooter", "lon": -77.04012883333333, "bike_id": "e094d68e002b610e8c8cc730b4b2fb3d", "fusion_lat": 0.0, "name": "e094d68e002b610e8c8cc730b4b2fb3d", "is_reserved": 0, "rental_uris": {"android": "https://dc.lft.to/lastmile_qr_scan", "ios": "https://dc.lft.to/lastmile_qr_scan"}, "fusion_lon": 0.0}, {"lat": 38.892260666666665, "is_disabled": 0, "type": "electric_scooter", "lon": -77.033376, "bike_id": "e9e7e515542dff6d04aa47ef70485e8e", "fusion_lat": 0.0, "name": "e9e7e515542dff6d04aa47ef70485e8e", "is_reserved": 0, "rental_uris": {"android": "https://dc.lft.to/lastmile_qr_scan", "ios": "https://dc.lft.to/lastmile_qr_scan"}, "fusion_lon": 0.0}, {"lat": 38.91564116666667, "is_disabled": 0, "type": "electric_scooter", "lon": -77.03861833333333, "bike_id": "2e98efd7eb320e580c8e46edeeefd468", "fusion_lat": 0.0, "name": "2e98efd7eb320e580c8e46edeeefd468", "is_reserved": 0, "rental_uris": {"android": "https://dc.lft.to/lastmile_qr_scan", "ios": "https://dc.lft.to/lastmile_qr_scan"}, "fusion_lon": 0.0}, {"lat": 38.922542, "is_disabled": 0, "type": "electric_scooter", "lon": -77.01933316666667, "bike_id": "93d1e542859795a0e7af933106156e86", "fusion_lat": 0.0, "name": "93d1e542859795a0e7af933106156e86", "is_reserved": 0, "rental_uris": {"android": "https://dc.lft.to/lastmile_qr_scan", "ios": "https://dc.lft.to/lastmile_qr_scan"}, "fusion_lon": 0.0}, {"lat": 38.917334, "is_disabled": 0, "type": "electric_scooter", "lon": -77.03641016666667, "bike_id": "1c3e9785d52a47050d47199542ebae0c", "fusion_lat": 0.0, "name": "1c3e9785d52a47050d47199542ebae0c", "is_reserved": 0, "rental_uris": {"android": "https://dc.lft.to/lastmile_qr_scan", "ios": "https://dc.lft.to/lastmile_qr_scan"}, "fusion_lon": 0.0}, {"lat": 38.982237166666664, "is_disabled": 0, "type": "electric_scooter", "lon": -77.02644866666667, "bike_id": "d9f26aa8938acef5288ae579486d6782", "fusion_lat": 0.0, "name": "d9f26aa8938acef5288ae579486d6782", "is_reserved": 0, "rental_uris": {"android": "https://dc.lft.to/lastmile_qr_scan", "ios": "https://dc.lft.to/lastmile_qr_scan"}, "fusion_lon": 0.0}, {"lat": 38.909773, "is_disabled": 0, "type": "electric_scooter", "lon": -77.03189, "bike_id": "90b044e3e7852d176580698b769bbcf9", "fusion_lat": 0.0, "name": "90b044e3e7852d176580698b769bbcf9", "is_reserved": 0, "rental_uris": {"android": "https://dc.lft.to/lastmile_qr_scan", "ios": "https://dc.lft.to/lastmile_qr_scan"}, "fusion_lon": 0.0}, {"lat": 38.91707616666667, "is_disabled": 0, "type": "electric_scooter", "lon": -77.039363, "bike_id": "454127c0e4350b146933013b836cd8c9", "fusion_lat": 0.0, "name": "454127c0e4350b146933013b836cd8c9", "is_reserved": 0, "rental_uris": {"android": "https://dc.lft.to/lastmile_qr_scan", "ios": "https://dc.lft.to/lastmile_qr_scan"}, "fusion_lon": 0.0}, {"lat": 38.902827333333335, "is_disabled": 0, "type": "electric_scooter", "lon": -77.0364975, "bike_id": "d0ecc004ee534b1d8715ad8e1c6778ab", "fusion_lat": 0.0, "name": "d0ecc004ee534b1d8715ad8e1c6778ab", "is_reserved": 0, "rental_uris": {"android": "https://dc.lft.to/lastmile_qr_scan", "ios": "https://dc.lft.to/lastmile_qr_scan"}, "fusion_lon": 0.0}, {"lat": 38.92481033333333, "is_disabled": 0, "type": "electric_scooter", "lon": -77.034867, "bike_id": "b45ee704654ef68af6f3914243c71461", "fusion_lat": 0.0, "name": "b45ee704654ef68af6f3914243c71461", "is_reserved": 0, "rental_uris": {"android": "https://dc.lft.to/lastmile_qr_scan", "ios": "https://dc.lft.to/lastmile_qr_scan"}, "fusion_lon": 0.0}, {"lat": 38.904842333333335, "is_disabled": 0, "type": "electric_scooter", "lon": -76.9732825, "bike_id": "9f386bec6bc4e6a2efc5d320d2f5b931", "fusion_lat": 0.0, "name": "9f386bec6bc4e6a2efc5d320d2f5b931", "is_reserved": 0, "rental_uris": {"android": "https://dc.lft.to/lastmile_qr_scan", "ios": "https://dc.lft.to/lastmile_qr_scan"}, "fusion_lon": 0.0}, {"lat": 38.9148305, "is_disabled": 0, "type": "electric_scooter", "lon": -77.02193733333333, "bike_id": "d2bf1ad3766f2b53c5316276e52083a8", "fusion_lat": 0.0, "name": "d2bf1ad3766f2b53c5316276e52083a8", "is_reserved": 0, "rental_uris": {"android": "https://dc.lft.to/lastmile_qr_scan", "ios": "https://dc.lft.to/lastmile_qr_scan"}, "fusion_lon": 0.0}, {"lat": 38.91914533333333, "is_disabled": 0, "type": "electric_scooter", "lon": -77.031826, "bike_id": "7a2420f90eec87b7b1cc3c76ebad755f", "fusion_lat": 0.0, "name": "7a2420f90eec87b7b1cc3c76ebad755f", "is_reserved": 0, "rental_uris": {"android": "https://dc.lft.to/lastmile_qr_scan", "ios": "https://dc.lft.to/lastmile_qr_scan"}, "fusion_lon": 0.0}, {"lat": 38.865217666666666, "is_disabled": 0, "type": "electric_scooter", "lon": -76.99032466666667, "bike_id": "d93ece337436af10784ab1b3dcc047f4", "fusion_lat": 0.0, "name": "d93ece337436af10784ab1b3dcc047f4", "is_reserved": 0, "rental_uris": {"android": "https://dc.lft.to/lastmile_qr_scan", "ios": "https://dc.lft.to/lastmile_qr_scan"}, "fusion_lon": 0.0}, {"lat": 38.852176, "is_disabled": 0, "type": "electric_bike", "lon": -77.12955133333334, "bike_id": "ffed2920ee41eb7391d6dbf283f99878", "fusion_lat": 0.0, "name": "ffed2920ee41eb7391d6dbf283f99878", "is_reserved": 0, "rental_uris": {"android": "https://dc.lft.to/lastmile_qr_scan", "ios": "https://dc.lft.to/lastmile_qr_scan"}, "fusion_lon": 0.0}, {"lat": 38.8200725, "is_disabled": 0, "type": "electric_bike", "lon": -77.057635, "bike_id": "80df6615520c015a8a2bba31bb8bcbba", "fusion_lat": 0.0, "name": "80df6615520c015a8a2bba31bb8bcbba", "is_reserved": 0, "rental_uris": {"android": "https://dc.lft.to/lastmile_qr_scan", "ios": "https://dc.lft.to/lastmile_qr_scan"}, "fusion_lon": 0.0}, {"lat": 38.909982666666664, "is_disabled": 0, "type": "electric_scooter", "lon": -77.0400305, "bike_id": "7bf3d8967d1047a33ba2c708f3fd9b8f", "fusion_lat": 0.0, "name": "7bf3d8967d1047a33ba2c708f3fd9b8f", "is_reserved": 0, "rental_uris": {"android": "https://dc.lft.to/lastmile_qr_scan", "ios": "https://dc.lft.to/lastmile_qr_scan"}, "fusion_lon": 0.0}, {"lat": 38.91399216666667, "is_disabled": 0, "type": "electric_scooter", "lon": -77.0318705, "bike_id": "7d26a23bc011978812edd83c21afcb86", "fusion_lat": 0.0, "name": "7d26a23bc011978812edd83c21afcb86", "is_reserved": 0, "rental_uris": {"android": "https://dc.lft.to/lastmile_qr_scan", "ios": "https://dc.lft.to/lastmile_qr_scan"}, "fusion_lon": 0.0}, {"lat": 38.9216955, "is_disabled": 0, "type": "electric_scooter", "lon": -77.04011766666666, "bike_id": "bb97b5447bd7eedd7b720cbfbcf32e3a", "fusion_lat": 0.0, "name": "bb97b5447bd7eedd7b720cbfbcf32e3a", "is_reserved": 0, "rental_uris": {"android": "https://dc.lft.to/lastmile_qr_scan", "ios": "https://dc.lft.to/lastmile_qr_scan"}, "fusion_lon": 0.0}, {"lat": 38.89222516666667, "is_disabled": 0, "type": "electric_scooter", "lon": -77.048692, "bike_id": "04976824ad18f42bbc967734a2209298", "fusion_lat": 0.0, "name": "04976824ad18f42bbc967734a2209298", "is_reserved": 0, "rental_uris": {"android": "https://dc.lft.to/lastmile_qr_scan", "ios": "https://dc.lft.to/lastmile_qr_scan"}, "fusion_lon": 0.0}, {"lat": 38.8950775, "is_disabled": 0, "type": "electric_scooter", "lon": -77.02192616666666, "bike_id": "2993e73d60f65972c8266f0d8058831a", "fusion_lat": 0.0, "name": "2993e73d60f65972c8266f0d8058831a", "is_reserved": 0, "rental_uris": {"android": "https://dc.lft.to/lastmile_qr_scan", "ios": "https://dc.lft.to/lastmile_qr_scan"}, "fusion_lon": 0.0}, {"lat": 38.8771885, "is_disabled": 0, "type": "electric_scooter", "lon": -77.0178005, "bike_id": "6e099dbd4ef79e46d05b27e5764405d4", "fusion_lat": 0.0, "name": "6e099dbd4ef79e46d05b27e5764405d4", "is_reserved": 0, "rental_uris": {"android": "https://dc.lft.to/lastmile_qr_scan", "ios": "https://dc.lft.to/lastmile_qr_scan"}, "fusion_lon": 0.0}, {"lat": 38.917619333333334, "is_disabled": 0, "type": "electric_scooter", "lon": -77.00452933333334, "bike_id": "b4331e90210c568b315becbcad33cdae", "fusion_lat": 0.0, "name": "b4331e90210c568b315becbcad33cdae", "is_reserved": 0, "rental_uris": {"android": "https://dc.lft.to/lastmile_qr_scan", "ios": "https://dc.lft.to/lastmile_qr_scan"}, "fusion_lon": 0.0}, {"lat": 38.892221166666666, "is_disabled": 0, "type": "electric_scooter", "lon": -77.026288, "bike_id": "732c5442d71b3c699655feb37cd38190", "fusion_lat": 0.0, "name": "732c5442d71b3c699655feb37cd38190", "is_reserved": 0, "rental_uris": {"android": "https://dc.lft.to/lastmile_qr_scan", "ios": "https://dc.lft.to/lastmile_qr_scan"}, "fusion_lon": 0.0}, {"lat": 38.91602066666667, "is_disabled": 0, "type": "electric_scooter", "lon": -77.01588233333334, "bike_id": "dcc993107cb20f02b2e5c03a3689ed4f", "fusion_lat": 0.0, "name": "dcc993107cb20f02b2e5c03a3689ed4f", "is_reserved": 0, "rental_uris": {"android": "https://dc.lft.to/lastmile_qr_scan", "ios": "https://dc.lft.to/lastmile_qr_scan"}, "fusion_lon": 0.0}, {"lat": 38.95744883333333, "is_disabled": 0, "type": "electric_bike", "lon": -77.02168233333333, "bike_id": "60037f43777ff9a1cc23c8c29c08b4a9", "fusion_lat": 0.0, "name": "60037f43777ff9a1cc23c8c29c08b4a9", "is_reserved": 0, "rental_uris": {"android": "https://dc.lft.to/lastmile_qr_scan", "ios": "https://dc.lft.to/lastmile_qr_scan"}, "fusion_lon": 0.0}, {"lat": 38.892204666666665, "is_disabled": 0, "type": "electric_scooter", "lon": -77.02625, "bike_id": "ebeef50b1a9ab5d3dc8bd84adabff4e5", "fusion_lat": 0.0, "name": "ebeef50b1a9ab5d3dc8bd84adabff4e5", "is_reserved": 0, "rental_uris": {"android": "https://dc.lft.to/lastmile_qr_scan", "ios": "https://dc.lft.to/lastmile_qr_scan"}, "fusion_lon": 0.0}, {"lat": 38.93224583333333, "is_disabled": 0, "type": "electric_scooter", "lon": -77.04411716666667, "bike_id": "4eec2031f678eb0f11075ce8d9815576", "fusion_lat": 0.0, "name": "4eec2031f678eb0f11075ce8d9815576", "is_reserved": 0, "rental_uris": {"android": "https://dc.lft.to/lastmile_qr_scan", "ios": "https://dc.lft.to/lastmile_qr_scan"}, "fusion_lon": 0.0}, {"lat": 38.86595533333333, "is_disabled": 0, "type": "electric_bike", "lon": -76.93233583333334, "bike_id": "e88ae7fe9eb0dadf5f620bf51c9960fb", "fusion_lat": 0.0, "name": "e88ae7fe9eb0dadf5f620bf51c9960fb", "is_reserved": 0, "rental_uris": {"android": "https://dc.lft.to/lastmile_qr_scan", "ios": "https://dc.lft.to/lastmile_qr_scan"}, "fusion_lon": 0.0}, {"lat": 38.90567733333334, "is_disabled": 0, "type": "electric_scooter", "lon": -77.02180616666666, "bike_id": "b6818e2a0fd88ece9622d72569767fc0", "fusion_lat": 0.0, "name": "b6818e2a0fd88ece9622d72569767fc0", "is_reserved": 0, "rental_uris": {"android": "https://dc.lft.to/lastmile_qr_scan", "ios": "https://dc.lft.to/lastmile_qr_scan"}, "fusion_lon": 0.0}, {"lat": 38.885329666666664, "is_disabled": 0, "type": "electric_scooter", "lon": -77.0151445, "bike_id": "a157101555afee5e732529acb228add7", "fusion_lat": 0.0, "name": "a157101555afee5e732529acb228add7", "is_reserved": 0, "rental_uris": {"android": "https://dc.lft.to/lastmile_qr_scan", "ios": "https://dc.lft.to/lastmile_qr_scan"}, "fusion_lon": 0.0}, {"lat": 38.959571833333335, "is_disabled": 0, "type": "electric_scooter", "lon": -77.03314166666667, "bike_id": "e50cca561bdd0d38bebd04e4e82cc4bd", "fusion_lat": 0.0, "name": "e50cca561bdd0d38bebd04e4e82cc4bd", "is_reserved": 0, "rental_uris": {"android": "https://dc.lft.to/lastmile_qr_scan", "ios": "https://dc.lft.to/lastmile_qr_scan"}, "fusion_lon": 0.0}, {"lat": 38.9249835, "is_disabled": 0, "type": "electric_scooter", "lon": -77.02159516666667, "bike_id": "8a61095e20eae5511d52ab80ffa235af", "fusion_lat": 0.0, "name": "8a61095e20eae5511d52ab80ffa235af", "is_reserved": 0, "rental_uris": {"android": "https://dc.lft.to/lastmile_qr_scan", "ios": "https://dc.lft.to/lastmile_qr_scan"}, "fusion_lon": 0.0}, {"lat": 38.8848645, "is_disabled": 0, "type": "electric_scooter", "lon": -77.034761, "bike_id": "fa43dfb9c2114fbbc81d20940163cbd6", "fusion_lat": 0.0, "name": "fa43dfb9c2114fbbc81d20940163cbd6", "is_reserved": 0, "rental_uris": {"android": "https://dc.lft.to/lastmile_qr_scan", "ios": "https://dc.lft.to/lastmile_qr_scan"}, "fusion_lon": 0.0}, {"lat": 38.959563333333335, "is_disabled": 0, "type": "electric_bike", "lon": -77.10089916666666, "bike_id": "6792b78a139ea903eb544b60b19085e2", "fusion_lat": 0.0, "name": "6792b78a139ea903eb544b60b19085e2", "is_reserved": 0, "rental_uris": {"android": "https://dc.lft.to/lastmile_qr_scan", "ios": "https://dc.lft.to/lastmile_qr_scan"}, "fusion_lon": 0.0}, {"lat": 38.905508166666664, "is_disabled": 0, "type": "electric_scooter", "lon": -77.05706633333334, "bike_id": "c35823ef9b5760154bdd160aec399716", "fusion_lat": 0.0, "name": "c35823ef9b5760154bdd160aec399716", "is_reserved": 0, "rental_uris": {"android": "https://dc.lft.to/lastmile_qr_scan", "ios": "https://dc.lft.to/lastmile_qr_scan"}, "fusion_lon": 0.0}, {"lat": 38.91329016666667, "is_disabled": 0, "type": "electric_scooter", "lon": -77.03268916666667, "bike_id": "99abbb065b465111bfbec05a8e50efb2", "fusion_lat": 0.0, "name": "99abbb065b465111bfbec05a8e50efb2", "is_reserved": 0, "rental_uris": {"android": "https://dc.lft.to/lastmile_qr_scan", "ios": "https://dc.lft.to/lastmile_qr_scan"}, "fusion_lon": 0.0}, {"lat": 38.892246666666665, "is_disabled": 0, "type": "electric_scooter", "lon": -77.046837, "bike_id": "de4078c0831241761ceee174fd3607cc", "fusion_lat": 0.0, "name": "de4078c0831241761ceee174fd3607cc", "is_reserved": 0, "rental_uris": {"android": "https://dc.lft.to/lastmile_qr_scan", "ios": "https://dc.lft.to/lastmile_qr_scan"}, "fusion_lon": 0.0}, {"lat": 38.917967, "is_disabled": 0, "type": "electric_scooter", "lon": -77.03210266666666, "bike_id": "9caa2013f3644681f730a38e6f72fc74", "fusion_lat": 0.0, "name": "9caa2013f3644681f730a38e6f72fc74", "is_reserved": 0, "rental_uris": {"android": "https://dc.lft.to/lastmile_qr_scan", "ios": "https://dc.lft.to/lastmile_qr_scan"}, "fusion_lon": 0.0}, {"lat": 38.92342433333334, "is_disabled": 0, "type": "electric_scooter", "lon": -77.03512016666667, "bike_id": "cea6bcb44f8a3e015400b8499371a4e5", "fusion_lat": 0.0, "name": "cea6bcb44f8a3e015400b8499371a4e5", "is_reserved": 0, "rental_uris": {"android": "https://dc.lft.to/lastmile_qr_scan", "ios": "https://dc.lft.to/lastmile_qr_scan"}, "fusion_lon": 0.0}, {"lat": 38.91917016666667, "is_disabled": 0, "type": "electric_scooter", "lon": -77.04808983333334, "bike_id": "33f974613d2ea64713a3fffa01a64a78", "fusion_lat": 0.0, "name": "33f974613d2ea64713a3fffa01a64a78", "is_reserved": 0, "rental_uris": {"android": "https://dc.lft.to/lastmile_qr_scan", "ios": "https://dc.lft.to/lastmile_qr_scan"}, "fusion_lon": 0.0}, {"lat": 38.916161833333334, "is_disabled": 0, "type": "electric_bike", "lon": -77.00293966666666, "bike_id": "5f8a16052ec6ba8629fdd54f39c96942", "fusion_lat": 0.0, "name": "5f8a16052ec6ba8629fdd54f39c96942", "is_reserved": 0, "rental_uris": {"android": "https://dc.lft.to/lastmile_qr_scan", "ios": "https://dc.lft.to/lastmile_qr_scan"}, "fusion_lon": 0.0}, {"lat": 38.94716483333333, "is_disabled": 0, "type": "electric_scooter", "lon": -77.02258333333333, "bike_id": "d3ca2e0a920abc8757e5e53e6460a46e", "fusion_lat": 0.0, "name": "d3ca2e0a920abc8757e5e53e6460a46e", "is_reserved": 0, "rental_uris": {"android": "https://dc.lft.to/lastmile_qr_scan", "ios": "https://dc.lft.to/lastmile_qr_scan"}, "fusion_lon": 0.0}, {"lat": 38.930089833333334, "is_disabled": 0, "type": "electric_bike", "lon": -77.21646066666666, "bike_id": "bd341a1a5a68306e8ccb19e6a54326a3", "fusion_lat": 0.0, "name": "bd341a1a5a68306e8ccb19e6a54326a3", "is_reserved": 0, "rental_uris": {"android": "https://dc.lft.to/lastmile_qr_scan", "ios": "https://dc.lft.to/lastmile_qr_scan"}, "fusion_lon": 0.0}, {"lat": 38.895108666666665, "is_disabled": 0, "type": "electric_scooter", "lon": -77.02182416666666, "bike_id": "6a9d5ae87658365f483a5c9e0121d70e", "fusion_lat": 0.0, "name": "6a9d5ae87658365f483a5c9e0121d70e", "is_reserved": 0, "rental_uris": {"android": "https://dc.lft.to/lastmile_qr_scan", "ios": "https://dc.lft.to/lastmile_qr_scan"}, "fusion_lon": 0.0}, {"lat": 38.90392933333333, "is_disabled": 0, "type": "electric_scooter", "lon": -77.03458966666666, "bike_id": "a54515a6b3e7f734890cc9f52f5c62d7", "fusion_lat": 0.0, "name": "a54515a6b3e7f734890cc9f52f5c62d7", "is_reserved": 0, "rental_uris": {"android": "https://dc.lft.to/lastmile_qr_scan", "ios": "https://dc.lft.to/lastmile_qr_scan"}, "fusion_lon": 0.0}, {"lat": 38.907259333333336, "is_disabled": 0, "type": "electric_scooter", "lon": -77.03446733333334, "bike_id": "0fdfaa5728f690abf6e0ae0f95f541c5", "fusion_lat": 0.0, "name": "0fdfaa5728f690abf6e0ae0f95f541c5", "is_reserved": 0, "rental_uris": {"android": "https://dc.lft.to/lastmile_qr_scan", "ios": "https://dc.lft.to/lastmile_qr_scan"}, "fusion_lon": 0.0}, {"lat": 38.90223066666667, "is_disabled": 0, "type": "electric_scooter", "lon": -76.94597483333334, "bike_id": "2e910c9d554d8137ca2900f80352c91d", "fusion_lat": 0.0, "name": "2e910c9d554d8137ca2900f80352c91d", "is_reserved": 0, "rental_uris": {"android": "https://dc.lft.to/lastmile_qr_scan", "ios": "https://dc.lft.to/lastmile_qr_scan"}, "fusion_lon": 0.0}, {"lat": 38.917596, "is_disabled": 0, "type": "electric_scooter", "lon": -77.03184766666666, "bike_id": "739294f1ce0c6ef913c707b9888478d7", "fusion_lat": 0.0, "name": "739294f1ce0c6ef913c707b9888478d7", "is_reserved": 0, "rental_uris": {"android": "https://dc.lft.to/lastmile_qr_scan", "ios": "https://dc.lft.to/lastmile_qr_scan"}, "fusion_lon": 0.0}, {"lat": 38.912098666666665, "is_disabled": 0, "type": "electric_scooter", "lon": -77.027746, "bike_id": "17bcfacf10b0031bb254019a106e6c4d", "fusion_lat": 0.0, "name": "17bcfacf10b0031bb254019a106e6c4d", "is_reserved": 0, "rental_uris": {"android": "https://dc.lft.to/lastmile_qr_scan", "ios": "https://dc.lft.to/lastmile_qr_scan"}, "fusion_lon": 0.0}, {"lat": 38.919643, "is_disabled": 0, "type": "electric_bike", "lon": -76.972631, "bike_id": "bdc472f9744bc39cc6e7eb5162d4bacb", "fusion_lat": 0.0, "name": "bdc472f9744bc39cc6e7eb5162d4bacb", "is_reserved": 0, "rental_uris": {"android": "https://dc.lft.to/lastmile_qr_scan", "ios": "https://dc.lft.to/lastmile_qr_scan"}, "fusion_lon": 0.0}, {"lat": 38.936740666666665, "is_disabled": 0, "type": "electric_bike", "lon": -76.95201, "bike_id": "cac051524e5b8b0d8dce75db584813ed", "fusion_lat": 0.0, "name": "cac051524e5b8b0d8dce75db584813ed", "is_reserved": 0, "rental_uris": {"android": "https://dc.lft.to/lastmile_qr_scan", "ios": "https://dc.lft.to/lastmile_qr_scan"}, "fusion_lon": 0.0}, {"lat": 38.917915, "is_disabled": 0, "type": "electric_scooter", "lon": -77.04041016666666, "bike_id": "6dbb5a98488ea1083b9e17d7bec1f8a7", "fusion_lat": 0.0, "name": "6dbb5a98488ea1083b9e17d7bec1f8a7", "is_reserved": 0, "rental_uris": {"android": "https://dc.lft.to/lastmile_qr_scan", "ios": "https://dc.lft.to/lastmile_qr_scan"}, "fusion_lon": 0.0}, {"lat": 38.9163705, "is_disabled": 0, "type": "electric_scooter", "lon": -77.04784133333334, "bike_id": "1d2825d871dde453d4de7f271fd1036c", "fusion_lat": 0.0, "name": "1d2825d871dde453d4de7f271fd1036c", "is_reserved": 0, "rental_uris": {"android": "https://dc.lft.to/lastmile_qr_scan", "ios": "https://dc.lft.to/lastmile_qr_scan"}, "fusion_lon": 0.0}, {"lat": 38.91121183333333, "is_disabled": 0, "type": "electric_scooter", "lon": -77.038457, "bike_id": "7b0f80e4c06ff67c2a2ad4951b33ae34", "fusion_lat": 0.0, "name": "7b0f80e4c06ff67c2a2ad4951b33ae34", "is_reserved": 0, "rental_uris": {"android": "https://dc.lft.to/lastmile_qr_scan", "ios": "https://dc.lft.to/lastmile_qr_scan"}, "fusion_lon": 0.0}, {"lat": 38.93084283333334, "is_disabled": 0, "type": "electric_scooter", "lon": -77.037456, "bike_id": "c6b2445887f01d4d4fe7fba649a51cf4", "fusion_lat": 0.0, "name": "c6b2445887f01d4d4fe7fba649a51cf4", "is_reserved": 0, "rental_uris": {"android": "https://dc.lft.to/lastmile_qr_scan", "ios": "https://dc.lft.to/lastmile_qr_scan"}, "fusion_lon": 0.0}, {"lat": 38.89349883333333, "is_disabled": 0, "type": "electric_scooter", "lon": -77.0414425, "bike_id": "324def8f5dfc49740c3b931636a74ca9", "fusion_lat": 0.0, "name": "324def8f5dfc49740c3b931636a74ca9", "is_reserved": 0, "rental_uris": {"android": "https://dc.lft.to/lastmile_qr_scan", "ios": "https://dc.lft.to/lastmile_qr_scan"}, "fusion_lon": 0.0}, {"lat": 38.90895283333333, "is_disabled": 0, "type": "electric_scooter", "lon": -77.03141783333334, "bike_id": "cf259736c957a023a2bc223ff08413a0", "fusion_lat": 0.0, "name": "cf259736c957a023a2bc223ff08413a0", "is_reserved": 0, "rental_uris": {"android": "https://dc.lft.to/lastmile_qr_scan", "ios": "https://dc.lft.to/lastmile_qr_scan"}, "fusion_lon": 0.0}, {"lat": 38.90036816666667, "is_disabled": 0, "type": "electric_scooter", "lon": -76.99381983333333, "bike_id": "4c4e005fb729fe0e1777b95196e44020", "fusion_lat": 0.0, "name": "4c4e005fb729fe0e1777b95196e44020", "is_reserved": 0, "rental_uris": {"android": "https://dc.lft.to/lastmile_qr_scan", "ios": "https://dc.lft.to/lastmile_qr_scan"}, "fusion_lon": 0.0}, {"lat": 38.92531966666667, "is_disabled": 0, "type": "electric_scooter", "lon": -77.044232, "bike_id": "50cb90ddc54c262300e4d0f09de05400", "fusion_lat": 0.0, "name": "50cb90ddc54c262300e4d0f09de05400", "is_reserved": 0, "rental_uris": {"android": "https://dc.lft.to/lastmile_qr_scan", "ios": "https://dc.lft.to/lastmile_qr_scan"}, "fusion_lon": 0.0}, {"lat": 38.877134833333336, "is_disabled": 0, "type": "electric_scooter", "lon": -77.01766066666667, "bike_id": "b91141055cf4904d72146cb6bcdf5e50", "fusion_lat": 0.0, "name": "b91141055cf4904d72146cb6bcdf5e50", "is_reserved": 0, "rental_uris": {"android": "https://dc.lft.to/lastmile_qr_scan", "ios": "https://dc.lft.to/lastmile_qr_scan"}, "fusion_lon": 0.0}, {"lat": 38.91785316666667, "is_disabled": 0, "type": "electric_scooter", "lon": -77.02314, "bike_id": "dd5123cb683fc2019bc14ad03184a0e9", "fusion_lat": 0.0, "name": "dd5123cb683fc2019bc14ad03184a0e9", "is_reserved": 0, "rental_uris": {"android": "https://dc.lft.to/lastmile_qr_scan", "ios": "https://dc.lft.to/lastmile_qr_scan"}, "fusion_lon": 0.0}, {"lat": 38.922564, "is_disabled": 0, "type": "electric_scooter", "lon": -77.04297166666667, "bike_id": "0e1645ca4ad59011239bebf40f8a460d", "fusion_lat": 0.0, "name": "0e1645ca4ad59011239bebf40f8a460d", "is_reserved": 0, "rental_uris": {"android": "https://dc.lft.to/lastmile_qr_scan", "ios": "https://dc.lft.to/lastmile_qr_scan"}, "fusion_lon": 0.0}, {"lat": 38.93636383333333, "is_disabled": 0, "type": "electric_scooter", "lon": -77.025186, "bike_id": "977dd2ac4b907367e466bf6473180a47", "fusion_lat": 0.0, "name": "977dd2ac4b907367e466bf6473180a47", "is_reserved": 0, "rental_uris": {"android": "https://dc.lft.to/lastmile_qr_scan", "ios": "https://dc.lft.to/lastmile_qr_scan"}, "fusion_lon": 0.0}, {"lat": 38.90070433333333, "is_disabled": 0, "type": "electric_scooter", "lon": -77.01817133333333, "bike_id": "92467fd12087aa596c23c3d8682ecd48", "fusion_lat": 0.0, "name": "92467fd12087aa596c23c3d8682ecd48", "is_reserved": 0, "rental_uris": {"android": "https://dc.lft.to/lastmile_qr_scan", "ios": "https://dc.lft.to/lastmile_qr_scan"}, "fusion_lon": 0.0}, {"lat": 38.919845333333335, "is_disabled": 0, "type": "electric_scooter", "lon": -77.039563, "bike_id": "4ac5815692aee89bdd0a73097fd94ffc", "fusion_lat": 0.0, "name": "4ac5815692aee89bdd0a73097fd94ffc", "is_reserved": 0, "rental_uris": {"android": "https://dc.lft.to/lastmile_qr_scan", "ios": "https://dc.lft.to/lastmile_qr_scan"}, "fusion_lon": 0.0}, {"lat": 38.89222983333333, "is_disabled": 0, "type": "electric_scooter", "lon": -77.02317733333334, "bike_id": "955057976db813e4ccb573ab84f0d501", "fusion_lat": 0.0, "name": "955057976db813e4ccb573ab84f0d501", "is_reserved": 0, "rental_uris": {"android": "https://dc.lft.to/lastmile_qr_scan", "ios": "https://dc.lft.to/lastmile_qr_scan"}, "fusion_lon": 0.0}, {"lat": 38.911045333333334, "is_disabled": 0, "type": "electric_scooter", "lon": -77.04211716666667, "bike_id": "ca21bd7273784a744aec6cb38bb6cecf", "fusion_lat": 0.0, "name": "ca21bd7273784a744aec6cb38bb6cecf", "is_reserved": 0, "rental_uris": {"android": "https://dc.lft.to/lastmile_qr_scan", "ios": "https://dc.lft.to/lastmile_qr_scan"}, "fusion_lon": 0.0}, {"lat": 38.91265716666667, "is_disabled": 0, "type": "electric_scooter", "lon": -77.02253066666667, "bike_id": "e3a463c77c622240f17e06a540d0202b", "fusion_lat": 0.0, "name": "e3a463c77c622240f17e06a540d0202b", "is_reserved": 0, "rental_uris": {"android": "https://dc.lft.to/lastmile_qr_scan", "ios": "https://dc.lft.to/lastmile_qr_scan"}, "fusion_lon": 0.0}, {"lat": 38.90240033333333, "is_disabled": 0, "type": "electric_scooter", "lon": -77.00206733333333, "bike_id": "3610420000f3cdec3b253b90b3feee56", "fusion_lat": 0.0, "name": "3610420000f3cdec3b253b90b3feee56", "is_reserved": 0, "rental_uris": {"android": "https://dc.lft.to/lastmile_qr_scan", "ios": "https://dc.lft.to/lastmile_qr_scan"}, "fusion_lon": 0.0}, {"lat": 38.90827866666667, "is_disabled": 0, "type": "electric_scooter", "lon": -76.99699083333333, "bike_id": "bc1e26abf3a6a321021e5966bacee94a", "fusion_lat": 0.0, "name": "bc1e26abf3a6a321021e5966bacee94a", "is_reserved": 0, "rental_uris": {"android": "https://dc.lft.to/lastmile_qr_scan", "ios": "https://dc.lft.to/lastmile_qr_scan"}, "fusion_lon": 0.0}, {"lat": 38.84255066666667, "is_disabled": 0, "type": "electric_bike", "lon": -77.05834083333333, "bike_id": "348dafb5f7ff6a9eb9b6484b244cbb2d", "fusion_lat": 0.0, "name": "348dafb5f7ff6a9eb9b6484b244cbb2d", "is_reserved": 0, "rental_uris": {"android": "https://dc.lft.to/lastmile_qr_scan", "ios": "https://dc.lft.to/lastmile_qr_scan"}, "fusion_lon": 0.0}, {"lat": 38.917029, "is_disabled": 0, "type": "electric_scooter", "lon": -77.03239316666667, "bike_id": "074b07517bab79b751a3c6e7319a8510", "fusion_lat": 0.0, "name": "074b07517bab79b751a3c6e7319a8510", "is_reserved": 0, "rental_uris": {"android": "https://dc.lft.to/lastmile_qr_scan", "ios": "https://dc.lft.to/lastmile_qr_scan"}, "fusion_lon": 0.0}, {"lat": 38.90072816666667, "is_disabled": 0, "type": "electric_scooter", "lon": -77.026186, "bike_id": "085b2bd16cd16c3c2e96456dcebc8f08", "fusion_lat": 0.0, "name": "085b2bd16cd16c3c2e96456dcebc8f08", "is_reserved": 0, "rental_uris": {"android": "https://dc.lft.to/lastmile_qr_scan", "ios": "https://dc.lft.to/lastmile_qr_scan"}, "fusion_lon": 0.0},