{"data": {"bikes": [{"lat": 39.029313333333334, "is_disabled": 0, "type": "electric_bike", "lon": -77.04930316666666, "bike_id": "6be018897b2314d822f15a0041b19456", "fusion_lat": 0.0, "name": "6be018897b2314d822f15a0041b19456", "is_reserved": 0, "rental_uris": {"android": "https://dc.lft.to/lastmile_qr_scan", "ios": "https://dc.lft.to/lastmile_qr_scan"}, "fusion_lon": 0.0}, {"lat": 38.91986033333333, "is_disabled": 0, "type": "electric_scooter", "lon": -76.973114, "bike_id": "23c0c7c0a15c2743bc62e3251b176a14", "fusion_lat": 0.0, "name": "23c0c7c0a15c2743bc62e3251b176a14", "is_reserved": 0, "rental_uris": {"android": "https://dc.lft.to/lastmile_qr_scan", "ios": "https://dc.lft.to/lastmile_qr_scan"}, "fusion_lon": 0.0}, {"lat": 38.9521895, "is_disabled": 0, "type": "electric_scooter", "lon": -77.00256733333333, "bike_id": "215628331564cf7e211811e3c3bb8e90", "fusion_lat": 0.0, "name": "215628331564cf7e211811e3c3bb8e90", "is_reserved": 0, "rental_uris": {"android": "https://dc.lft.to/lastmile_qr_scan", "ios": "https://dc.lft.to/lastmile_qr_scan"}, "fusion_lon": 0.0}, {"lat": 38.914947, "is_disabled": 0, "type": "electric_scooter", "lon": -77.01861083333333, "bike_id": "1533f0fb7b33c5f972a4d1f42b2f7a4d", "fusion_lat": 0.0, "name": "1533f0fb7b33c5f972a4d1f42b2f7a4d", "is_reserved": 0, "rental_uris": {"android": "https://dc.lft.to/lastmile_qr_scan", "ios": "https://dc.lft.to/lastmile_qr_scan"}, "fusion_lon": 0.0}, {"lat": 38.96020983333333, "is_disabled": 0, "type": "electric_bike", "lon": -77.01733416666667, "bike_id": "a947637ef30202cb3758961cdf13fce8", "fusion_lat": 0.0, "name": "a947637ef30202cb3758961cdf13fce8", "is_reserved": 0, "rental_uris": {"android": "https://dc.lft.to/lastmile_qr_scan", "ios": "https://dc.lft.to/lastmile_qr_scan"}, "fusion_lon": 0.0}, {"lat": 38.95401833333333, "is_disabled": 0, "type": "electric_scooter", "lon": -77.027534, "bike_id": "09058d367df4dcf22cbd1518ef48e4b0", "fusion_lat": 0.0, "name": "09058d367df4dcf22cbd1518ef48e4b0", "is_reserved": 0, "rental_uris": {"android": "https://dc.lft.to/lastmile_qr_scan", "ios": "https://dc.lft.to/lastmile_qr_scan"}, "fusion_lon": 0.0}, {"lat": 38.874212666666665, "is_disabled": 0, "type": "electric_bike", "lon": -77.08571683333334, "bike_id": "d097ae8bc1cd9a90c184f3fa7eb0d1e5", "fusion_lat": 0.0, "name": "d097ae8bc1cd9a90c184f3fa7eb0d1e5", "is_reserved": 0, "rental_uris": {"android": "https://dc.lft.to/lastmile_qr_scan", "ios": "https://dc.lft.to/lastmile_qr_scan"}, "fusion_lon": 0.0}, {"lat": 38.875661, "is_disabled": 0, "type": "electric_scooter", "lon": -77.012907, "bike_id": "87a21fe615154c7e1f30bc17c9e98002", "fusion_lat": 0.0, "name": "87a21fe615154c7e1f30bc17c9e98002", "is_reserved": 0, "rental_uris": {"android": "https://dc.lft.to/lastmile_qr_scan", "ios": "https://dc.lft.to/lastmile_qr_scan"}, "fusion_lon": 0.0}, {"lat": 38.918939, "is_disabled": 0, "type": "electric_scooter", "lon": -77.04156216666667, "bike_id": "89b19c5701223c0c9ec8820372124299", "fusion_lat": 0.0, "name": "89b19c5701223c0c9ec8820372124299", "is_reserved": 0, "rental_uris": {"android": "https://dc.lft.to/lastmile_qr_scan", "ios": "https://dc.lft.to/lastmile_qr_scan"}, "fusion_lon": 0.0}, {"lat": 38.91691216666667, "is_disabled": 0, "type": "electric_scooter", "lon": -77.0321215, "bike_id": "7c051cf04fa9fa730c3d416f330f3591", "fusion_lat": 0.0, "name": "7c051cf04fa9fa730c3d416f330f3591", "is_reserved": 0, "rental_uris": {"android": "https://dc.lft.to/lastmile_qr_scan", "ios": "https://dc.lft.to/lastmile_qr_scan"}, "fusion_lon": 0.0}, {"lat": 38.9085935, "is_disabled": 0, "type": "electric_bike", "lon": -77.080807, "bike_id": "4a4341252d9b3f901e6e4be5820551c0", "fusion_lat": 0.0, "name": "4a4341252d9b3f901e6e4be5820551c0", "is_reserved": 0, "rental_uris": {"android": "https://dc.lft.to/lastmile_qr_scan", "ios": "https://dc.lft.to/lastmile_qr_scan"}, "fusion_lon": 0.0}, {"lat": 38.9507115, "is_disabled": 0, "type": "electric_scooter", "lon": -77.00879233333333, "bike_id": "f3ab0a39dd4c85cb03a819d167293750", "fusion_lat": 0.0, "name": "f3ab0a39dd4c85cb03a819d167293750", "is_reserved": 0, "rental_uris": {"android": "https://dc.lft.to/lastmile_qr_scan", "ios": "https://dc.lft.to/lastmile_qr_scan"}, "fusion_lon": 0.0}, {"lat": 38.88373033333333, "is_disabled": 0, "type": "electric_scooter", "lon": -76.9934605, "bike_id": "e3c8774e00b6ab962a503430f27f08e8", "fusion_lat": 0.0, "name": "e3c8774e00b6ab962a503430f27f08e8", "is_reserved": 0, "rental_uris": {"android": "https://dc.lft.to/lastmile_qr_scan", "ios": "https://dc.lft.to/lastmile_qr_scan"}, "fusion_lon": 0.0}, {"lat": 38.94638066666667, "is_disabled": 0, "type": "electric_scooter", "lon": -77.01937, "bike_id": "ed53fc7faa51f00ed4719d7154671f16", "fusion_lat": 0.0, "name": "ed53fc7faa51f00ed4719d7154671f16", "is_reserved": 0, "rental_uris": {"android": "https://dc.lft.to/lastmile_qr_scan", "ios": "https://dc.lft.to/lastmile_qr_scan"}, "fusion_lon": 0.0}, {"lat": 38.9009725, "is_disabled": 0, "type": "electric_scooter", "lon": -77.01368083333334, "bike_id": "98424511a7ffde7c4ec51378044fb0fd", "fusion_lat": 0.0, "name": "98424511a7ffde7c4ec51378044fb0fd", "is_reserved": 0, "rental_uris": {"android": "https://dc.lft.to/lastmile_qr_scan", "ios": "https://dc.lft.to/lastmile_qr_scan"}, "fusion_lon": 0.0}, {"lat": 38.896178, "is_disabled": 0, "type": "electric_scooter", "lon": -76.99846566666666, "bike_id": "6b35abcb6113dc8adb565b7497661fa3", "fusion_lat": 0.0, "name": "6b35abcb6113dc8adb565b7497661fa3", "is_reserved": 0, "rental_uris": {"android": "https://dc.lft.to/lastmile_qr_scan", "ios": "https://dc.lft.to/lastmile_qr_scan"}, "fusion_lon": 0.0}, {"lat": 38.8737515, "is_disabled": 0, "type": "electric_scooter", "lon": -77.000906, "bike_id": "20a708f4e327fa7c23787a7e0ccae252", "fusion_lat": 0.0, "name": "20a708f4e327fa7c23787a7e0ccae252", "is_reserved": 0, "rental_uris": {"android": "https://dc.lft.to/lastmile_qr_scan", "ios": "https://dc.lft.to/lastmile_qr_scan"}, "fusion_lon": 0.0}, {"lat": 39.033993333333335, "is_disabled": 0, "type": "electric_bike", "lon": -77.04209916666667, "bike_id": "26213cc6a87289e0ca037a845d53c7fd", "fusion_lat": 0.0, "name": "26213cc6a87289e0ca037a845d53c7fd", "is_reserved": 0, "rental_uris": {"android": "https://dc.lft.to/lastmile_qr_scan", "ios": "https://dc.lft.to/lastmile_qr_scan"}, "fusion_lon": 0.0}, {"lat": 38.90328266666667, "is_disabled": 0, "type": "electric_scooter", "lon": -77.0204845, "bike_id": "3c659d525955e41f60697459b16ea951", "fusion_lat": 0.0, "name": "3c659d525955e41f60697459b16ea951", "is_reserved": 0, "rental_uris": {"android": "https://dc.lft.to/lastmile_qr_scan", "ios": "https://dc.lft.to/lastmile_qr_scan"}, "fusion_lon": 0.0}, {"lat": 38.900484666666664, "is_disabled": 0, "type": "electric_scooter", "lon": -77.00193066666667, "bike_id": "05dba693790862e98b853766a729eaa7", "fusion_lat": 0.0, "name": "05dba693790862e98b853766a729eaa7", "is_reserved": 0, "rental_uris": {"android": "https://dc.lft.to/lastmile_qr_scan", "ios": "https://dc.lft.to/lastmile_qr_scan"}, "fusion_lon": 0.0}, {"lat": 38.87628, "is_disabled": 0, "type": "electric_scooter", "lon": -76.9652885, "bike_id": "514db24e5350f1a473b8776a6e8a9440", "fusion_lat": 0.0, "name": "514db24e5350f1a473b8776a6e8a9440", "is_reserved": 0, "rental_uris": {"android": "https://dc.lft.to/lastmile_qr_scan", "ios": "https://dc.lft.to/lastmile_qr_scan"}, "fusion_lon": 0.0}, {"lat": 38.893244, "is_disabled": 0, "type": "electric_scooter", "lon": -76.9299835, "bike_id": "ddefa3556e632301b7d448e6636c892c", "fusion_lat": 0.0, "name": "ddefa3556e632301b7d448e6636c892c", "is_reserved": 0, "rental_uris": {"android": "https://dc.lft.to/lastmile_qr_scan", "ios": "https://dc.lft.to/lastmile_qr_scan"}, "fusion_lon": 0.0}, {"lat": 38.90523966666667, "is_disabled": 0, "type": "electric_scooter", "lon": -77.04750083333333, "bike_id": "fd67c7c86bd61f0502c72f24d87aa07a", "fusion_lat": 0.0, "name": "fd67c7c86bd61f0502c72f24d87aa07a", "is_reserved": 0, "rental_uris": {"android": "https://dc.lft.to/lastmile_qr_scan", "ios": "https://dc.lft.to/lastmile_qr_scan"}, "fusion_lon": 0.0}, {"lat": 38.921715, "is_disabled": 0, "type": "electric_scooter", "lon": -77.03214316666667, "bike_id": "a6103f67c2bab0761c972af2db27aa92", "fusion_lat": 0.0, "name": "a6103f67c2bab0761c972af2db27aa92", "is_reserved": 0, "rental_uris": {"android": "https://dc.lft.to/lastmile_qr_scan", "ios": "https://dc.lft.to/lastmile_qr_scan"}, "fusion_lon": 0.0}, {"lat": 38.916622, "is_disabled": 0, "type": "electric_scooter", "lon": -77.03855983333334, "bike_id": "36d8792d7736bd00283465dee87ba938", "fusion_lat": 0.0, "name": "36d8792d7736bd00283465dee87ba938", "is_reserved": 0, "rental_uris": {"android": "https://dc.lft.to/lastmile_qr_scan", "ios": "https://dc.lft.to/lastmile_qr_scan"}, "fusion_lon": 0.0}, {"lat": 38.916927, "is_disabled": 0, "type": "electric_scooter", "lon": -77.03691316666666, "bike_id": "2d4f7369b3d45803a019ae3a304c8e68", "fusion_lat": 0.0, "name": "2d4f7369b3d45803a019ae3a304c8e68", "is_reserved": 0, "rental_uris": {"android": "https://dc.lft.to/lastmile_qr_scan", "ios": "https://dc.lft.to/lastmile_qr_scan"}, "fusion_lon": 0.0}, {"lat": 38.898732833333334, "is_disabled": 0, "type": "electric_scooter", "lon": -76.93193166666667, "bike_id": "06bd2c9c7bb0d9d8de8d1cf53b8774bd", "fusion_lat": 0.0, "name": "06bd2c9c7bb0d9d8de8d1cf53b8774bd", "is_reserved": 0, "rental_uris": {"android": "https://dc.lft.to/lastmile_qr_scan", "ios": "https://dc.lft.to/lastmile_qr_scan"}, "fusion_lon": 0.0}, {"lat": 38.92232383333333, "is_disabled": 0, "type": "electric_scooter", "lon": -77.02987866666666, "bike_id": "2bcad2a0d8273fa432489ed660be807a", "fusion_lat": 0.0, "name": "2bcad2a0d8273fa432489ed660be807a", "is_reserved": 0, "rental_uris": {"android": "https://dc.lft.to/lastmile_qr_scan", "ios": "https://dc.lft.to/lastmile_qr_scan"}, "fusion_lon": 0.0}, {"lat": 38.902474166666664, "is_disabled": 0, "type": "electric_scooter", "lon": -77.00231616666666, "bike_id": "a0d168b6447ac957d41c13f0c0c48706", "fusion_lat": 0.0, "name": "a0d168b6447ac957d41c13f0c0c48706", "is_reserved": 0, "rental_uris": {"android": "https://dc.lft.to/lastmile_qr_scan", "ios": "https://dc.lft.to/lastmile_qr_scan"}, "fusion_lon": 0.0}, {"lat": 38.92585866666667, "is_disabled": 0, "type": "electric_scooter", "lon": -77.00477666666667, "bike_id": "6ff6e9b0c0b04cc4cc4053b81038c71f", "fusion_lat": 0.0, "name": "6ff6e9b0c0b04cc4cc4053b81038c71f", "is_reserved": 0, "rental_uris": {"android": "https://dc.lft.to/lastmile_qr_scan", "ios": "https://dc.lft.to/lastmile_qr_scan"}, "fusion_lon": 0.0}, {"lat": 38.86692933333333, "is_disabled": 0, "type": "electric_bike", "lon": -76.98957533333333, "bike_id": "999842b8afe6186ef16b3c76cbdb1091", "fusion_lat": 0.0, "name": "999842b8afe6186ef16b3c76cbdb1091", "is_reserved": 0, "rental_uris": {"android": "https://dc.lft.to/lastmile_qr_scan", "ios": "https://dc.lft.to/lastmile_qr_scan"}, "fusion_lon": 0.0}, {"lat": 38.91327283333333, "is_disabled": 0, "type": "electric_scooter", "lon": -77.03128766666667, "bike_id": "96d2cd646a06cf95afa92fd0bc8f79ae", "fusion_lat": 0.0, "name": "96d2cd646a06cf95afa92fd0bc8f79ae", "is_reserved": 0, "rental_uris": {"android": "https://dc.lft.to/lastmile_qr_scan", "ios": "https://dc.lft.to/lastmile_qr_scan"}, "fusion_lon": 0.0}, {"lat": 38.90310733333333, "is_disabled": 0, "type": "electric_scooter", "lon": -76.97810233333334, "bike_id": "2f4fa9020e8aa1d0c9bf487bf860b1d1", "fusion_lat": 0.0, "name": "2f4fa9020e8aa1d0c9bf487bf860b1d1", "is_reserved": 0, "rental_uris": {"android": "https://dc.lft.to/lastmile_qr_scan", "ios": "https://dc.lft.to/lastmile_qr_scan"}, "fusion_lon": 0.0}, {"lat": 38.9255385, "is_disabled": 0, "type": "electric_scooter", "lon": -77.0379975, "bike_id": "e9aaf7c94cb6d694b04d476b1fae4893", "fusion_lat": 0.0, "name": "e9aaf7c94cb6d694b04d476b1fae4893", "is_reserved": 0, "rental_uris": {"android": "https://dc.lft.to/lastmile_qr_scan", "ios": "https://dc.lft.to/lastmile_qr_scan"}, "fusion_lon": 0.0}, {"lat": 38.92193666666667, "is_disabled": 0, "type": "electric_scooter", "lon": -77.042383, "bike_id": "3b335ddc0e523c81db5878b9db8848d2", "fusion_lat": 0.0, "name": "3b335ddc0e523c81db5878b9db8848d2", "is_reserved": 0, "rental_uris": {"android": "https://dc.lft.to/lastmile_qr_scan", "ios": "https://dc.lft.to/lastmile_qr_scan"}, "fusion_lon": 0.0}, {"lat": 38.970862333333336, "is_disabled": 0, "type": "electric_bike", "lon": -77.0697285, "bike_id": "39b96c4636bc43abba46427b593f5bc2", "fusion_lat": 0.0, "name": "39b96c4636bc43abba46427b593f5bc2", "is_reserved": 0, "rental_uris": {"android": "https://dc.lft.to/lastmile_qr_scan", "ios": "https://dc.lft.to/lastmile_qr_scan"}, "fusion_lon": 0.0}, {"lat": 38.885171166666666, "is_disabled": 0, "type": "electric_scooter", "lon": -77.01563483333334, "bike_id": "3219a441b42db08ddd10e4ce158c158a", "fusion_lat": 0.0, "name": "3219a441b42db08ddd10e4ce158c158a", "is_reserved": 0, "rental_uris": {"android": "https://dc.lft.to/lastmile_qr_scan", "ios": "https://dc.lft.to/lastmile_qr_scan"}, "fusion_lon": 0.0}, {"lat": 38.856867333333334, "is_disabled": 0, "type": "electric_scooter", "lon": -76.98974316666667, "bike_id": "34ca70613206e90bcf3c724ec7d3eeb6", "fusion_lat": 0.0, "name": "34ca70613206e90bcf3c724ec7d3eeb6", "is_reserved": 0, "rental_uris": {"android": "https://dc.lft.to/lastmile_qr_scan", "ios": "https://dc.lft.to/lastmile_qr_scan"}, "fusion_lon": 0.0}, {"lat": 38.90121033333333, "is_disabled": 0, "type": "electric_scooter", "lon": -76.9975925, "bike_id": "91a00f8b0e385092060433499c8e350d", "fusion_lat": 0.0, "name": "91a00f8b0e385092060433499c8e350d", "is_reserved": 0, "rental_uris": {"android": "https://dc.lft.to/lastmile_qr_scan", "ios": "https://dc.lft.to/lastmile_qr_scan"}, "fusion_lon": 0.0}, {"lat": 38.899116666666664, "is_disabled": 0, "type": "electric_scooter", "lon": -77.03984816666667, "bike_id": "6523e3e3248e36bcdbeb01106e62f4ec", "fusion_lat": 0.0, "name": "6523e3e3248e36bcdbeb01106e62f4ec", "is_reserved": 0, "rental_uris": {"android": "https://dc.lft.to/lastmile_qr_scan", "ios": "https://dc.lft.to/lastmile_qr_scan"}, "fusion_lon": 0.0}, {"lat": 38.9016875, "is_disabled": 0, "type": "electric_scooter", "lon": -76.98065233333334, "bike_id": "04af93608260d8b109e09d549023ca57", "fusion_lat": 0.0, "name": "04af93608260d8b109e09d549023ca57", "is_reserved": 0, "rental_uris": {"android": "https://dc.lft.to/lastmile_qr_scan", "ios": "https://dc.lft.to/lastmile_qr_scan"}, "fusion_lon": 0.0}, {"lat": 38.925526833333336, "is_disabled": 0, "type": "electric_scooter", "lon": -77.03223783333334, "bike_id": "f1e5a85740de64fc171dd55d1b2469b6", "fusion_lat": 0.0, "name": "f1e5a85740de64fc171dd55d1b2469b6", "is_reserved": 0, "rental_uris": {"android": "https://dc.lft.to/lastmile_qr_scan", "ios": "https://dc.lft.to/lastmile_qr_scan"}, "fusion_lon": 0.0}, {"lat": 38.89957483333333, "is_disabled": 0, "type": "electric_scooter", "lon": -77.05179516666666, "bike_id": "9d3eeef948fdd840bca9685721bdd84d", "fusion_lat": 0.0, "name": "9d3eeef948fdd840bca9685721bdd84d", "is_reserved": 0, "rental_uris": {"android": "https://dc.lft.to/lastmile_qr_scan", "ios": "https://dc.lft.to/lastmile_qr_scan"}, "fusion_lon": 0.0}, {"lat": 38.908095333333335, "is_disabled": 0, "type": "electric_scooter", "lon": -76.98568716666666, "bike_id": "c3198934efcf2b534a538e3881eec724", "fusion_lat": 0.0, "name": "c3198934efcf2b534a538e3881eec724", "is_reserved": 0, "rental_uris": {"android": "https://dc.lft.to/lastmile_qr_scan", "ios": "https://dc.lft.to/lastmile_qr_scan"}, "fusion_lon": 0.0}, {"lat": 38.89740966666667, "is_disabled": 0, "type": "electric_scooter", "lon": -77.046835, "bike_id": "683295aea39b99e1b000bf411fa84024", "fusion_lat": 0.0, "name": "683295aea39b99e1b000bf411fa84024", "is_reserved": 0, "rental_uris": {"android": "https://dc.lft.to/lastmile_qr_scan", "ios": "https://dc.lft.to/lastmile_qr_scan"}, "fusion_lon": 0.0}, {"lat": 38.9225195, "is_disabled": 0, "type": "electric_scooter", "lon": -77.04139716666667, "bike_id": "33bb9b39f0660ec1d7b84258d45c78ae", "fusion_lat": 0.0, "name": "33bb9b39f0660ec1d7b84258d45c78ae", "is_reserved": 0, "rental_uris": {"android": "https://dc.lft.to/lastmile_qr_scan", "ios": "https://dc.lft.to/lastmile_qr_scan"}, "fusion_lon": 0.0}, {"lat": 38.8994715, "is_disabled": 0, "type": "electric_scooter", "lon": -77.051019, "bike_id": "5d96e68eef3beb55f04735414cafd43b", "fusion_lat": 0.0, "name": "5d96e68eef3beb55f04735414cafd43b", "is_reserved": 0, "rental_uris": {"android": "https://dc.lft.to/lastmile_qr_scan", "ios": "https://dc.lft.to/lastmile_qr_scan"}, "fusion_lon": 0.0}, {"lat": 38.92252166666667, "is_disabled": 0, "type": "electric_scooter", "lon": -77.034108, "bike_id": "5e376f3fd485c47a605ac0f16e34b643", "fusion_lat": 0.0, "name": "5e376f3fd485c47a605ac0f16e34b643", "is_reserved": 0, "rental_uris": {"android": "https://dc.lft.to/lastmile_qr_scan", "ios": "https://dc.lft.to/lastmile_qr_scan"}, "fusion_lon": 0.0}, {"lat": 38.926343833333334, "is_disabled": 0, "type": "electric_scooter", "lon": -77.03799816666667, "bike_id": "11f7ebed2862672951580fae2de42bc5", "fusion_lat": 0.0, "name": "11f7ebed2862672951580fae2de42bc5", "is_reserved": 0, "rental_uris": {"android": "https://dc.lft.to/lastmile_qr_scan", "ios": "https://dc.lft.to/lastmile_qr_scan"}, "fusion_lon": 0.0}, {"lat": 38.91914383333334, "is_disabled": 0, "type": "electric_scooter", "lon": -77.0295195, "bike_id": "5ce6bcaf5c5d728353f72e3725b4d2d9", "fusion_lat": 0.0, "name": "5ce6bcaf5c5d728353f72e3725b4d2d9", "is_reserved": 0, "rental_uris": {"android": "https://dc.lft.to/lastmile_qr_scan", "ios": "https://dc.lft.to/lastmile_qr_scan"}, "fusion_lon": 0.0}, {"lat": 38.892209666666666, "is_disabled": 0, "type": "electric_scooter", "lon": -77.02650316666667, "bike_id": "eeaf022bc24f62596953746c977d6242", "fusion_lat": 0.0, "name": "eeaf022bc24f62596953746c977d6242", "is_reserved": 0, "rental_uris": {"android": "https://dc.lft.to/lastmile_qr_scan", "ios": "https://dc.lft.to/lastmile_qr_scan"}, "fusion_lon": 0.0}, {"lat": 38.86438, "is_disabled": 0, "type": "electric_scooter", "lon": -76.973896, "bike_id": "d6e25f64fe3084bd297b0ee26cef1819", "fusion_lat": 0.0, "name": "d6e25f64fe3084bd297b0ee26cef1819", "is_reserved": 0, "rental_uris": {"android": "https://dc.lft.to/lastmile_qr_scan", "ios": "https://dc.lft.to/lastmile_qr_scan"}, "fusion_lon": 0.0}, {"lat": 38.87475583333333, "is_disabled": 0, "type": "electric_scooter", "lon": -77.01071983333334, "bike_id": "3eb40926e668ab4081ef5cea38656157", "fusion_lat": 0.0, "name": "3eb40926e668ab4081ef5cea38656157", "is_reserved": 0, "rental_uris": {"android": "https://dc.lft.to/lastmile_qr_scan", "ios": "https://dc.lft.to/lastmile_qr_scan"}, "fusion_lon": 0.0}, {"lat": 38.90287566666667, "is_disabled": 0, "type": "electric_scooter", "lon": -77.05320283333333, "bike_id": "6bc1cebf3d63b7db42e4a89d56883c01", "fusion_lat": 0.0, "name": "6bc1cebf3d63b7db42e4a89d56883c01", "is_reserved": 0, "rental_uris": {"android": "https://dc.lft.to/lastmile_qr_scan", "ios": "https://dc.lft.to/lastmile_qr_scan"}, "fusion_lon": 0.0}, {"lat": 38.8968275, "is_disabled": 0, "type": "electric_scooter", "lon": -77.0446505, "bike_id": "9d5ea32e27b344d9a427f67b2ec4f978", "fusion_lat": 0.0, "name": "9d5ea32e27b344d9a427f67b2ec4f978", "is_reserved": 0, "rental_uris": {"android": "https://dc.lft.to/lastmile_qr_scan", "ios": "https://dc.lft.to/lastmile_qr_scan"}, "fusion_lon": 0.0}, {"lat": 38.90375433333333, "is_disabled": 0, "type": "electric_scooter", "lon": -77.007496, "bike_id": "7806ac079ee0ccb8c45c7bf2d66ba3d1", "fusion_lat": 0.0, "name": "7806ac079ee0ccb8c45c7bf2d66ba3d1", "is_reserved": 0, "rental_uris": {"android": "https://dc.lft.to/lastmile_qr_scan", "ios": "https://dc.lft.to/lastmile_qr_scan"}, "fusion_lon": 0.0}, {"lat": 38.932379, "is_disabled": 0, "type": "electric_scooter", "lon": -77.03857716666667, "bike_id": "68bb91c371d3cd6fc16953e5f715aae8", "fusion_lat": 0.0, "name": "68bb91c371d3cd6fc16953e5f715aae8", "is_reserved": 0, "rental_uris": {"android": "https://dc.lft.to/lastmile_qr_scan", "ios": "https://dc.lft.to/lastmile_qr_scan"}, "fusion_lon": 0.0}, {"lat": 38.90141633333333, "is_disabled": 0, "type": "electric_scooter", "lon": -77.00352533333333, "bike_id": "4414be73612c529b04367985e74cd701", "fusion_lat": 0.0, "name": "4414be73612c529b04367985e74cd701", "is_reserved": 0, "rental_uris": {"android": "https://dc.lft.to/lastmile_qr_scan", "ios": "https://dc.lft.to/lastmile_qr_scan"}, "fusion_lon": 0.0}, {"lat": 38.9169255, "is_disabled": 0, "type": "electric_scooter", "lon": -77.03630266666667, "bike_id": "f540e6e763ec4ab5261dae124ad0b102", "fusion_lat": 0.0, "name": "f540e6e763ec4ab5261dae124ad0b102", "is_reserved": 0, "rental_uris": {"android": "https://dc.lft.to/lastmile_qr_scan", "ios": "https://dc.lft.to/lastmile_qr_scan"}, "fusion_lon": 0.0}, {"lat": 38.87233233333333, "is_disabled": 0, "type": "electric_scooter", "lon": -77.01212283333334, "bike_id": "e5a0d11b57e5d6834fed63ebd55f2109", "fusion_lat": 0.0, "name": "e5a0d11b57e5d6834fed63ebd55f2109", "is_reserved": 0, "rental_uris": {"android": "https://dc.lft.to/lastmile_qr_scan", "ios": "https://dc.lft.to/lastmile_qr_scan"}, "fusion_lon": 0.0}, {"lat": 38.939779333333334, "is_disabled": 0, "type": "electric_scooter", "lon": -77.03272983333333, "bike_id": "d36889462357a00e20ec799b61399bd6", "fusion_lat": 0.0, "name": "d36889462357a00e20ec799b61399bd6", "is_reserved": 0, "rental_uris": {"android": "https://dc.lft.to/lastmile_qr_scan", "ios": "https://dc.lft.to/lastmile_qr_scan"}, "fusion_lon": 0.0}, {"lat": 38.896135666666666, "is_disabled": 0, "type": "electric_scooter", "lon": -76.95660616666666, "bike_id": "4453c403fe452a95cb60fa6d89a78f3c", "fusion_lat": 0.0, "name": "4453c403fe452a95cb60fa6d89a78f3c", "is_reserved": 0, "rental_uris": {"android": "https://dc.lft.to/lastmile_qr_scan", "ios": "https://dc.lft.to/lastmile_qr_scan"}, "fusion_lon": 0.0}, {"lat": 38.91416666666667, "is_disabled": 0, "type": "electric_scooter", "lon": -77.032601, "bike_id": "a20431d593274e2bae92f5bd992bb08b", "fusion_lat": 0.0, "name": "a20431d593274e2bae92f5bd992bb08b", "is_reserved": 0, "rental_uris": {"android": "https://dc.lft.to/lastmile_qr_scan", "ios": "https://dc.lft.to/lastmile_qr_scan"}, "fusion_lon": 0.0}, {"lat": 38.91621033333333, "is_disabled": 0, "type": "electric_scooter", "lon": -77.03182483333333, "bike_id": "f0af1e7dd0ac501d615fd4ffbe16f2d8", "fusion_lat": 0.0, "name": "f0af1e7dd0ac501d615fd4ffbe16f2d8", "is_reserved": 0, "rental_uris": {"android": "https://dc.lft.to/lastmile_qr_scan", "ios": "https://dc.lft.to/lastmile_qr_scan"}, "fusion_lon": 0.0}, {"lat": 38.93860133333333, "is_disabled": 0, "type": "electric_scooter", "lon": -77.0265125, "bike_id": "d93dc7eed0faa02d2845ec7094471b12", "fusion_lat": 0.0, "name": "d93dc7eed0faa02d2845ec7094471b12", "is_reserved": 0, "rental_uris": {"android": "https://dc.lft.to/lastmile_qr_scan", "ios": "https://dc.lft.to/lastmile_qr_scan"}, "fusion_lon": 0.0}, {"lat": 38.887372166666665, "is_disabled": 0, "type": "electric_scooter", "lon": -77.02078483333334, "bike_id": "427ddf62fce6dd3a8876a54f5cfd6458", "fusion_lat": 0.0, "name": "427ddf62fce6dd3a8876a54f5cfd6458", "is_reserved": 0, "rental_uris": {"android": "https://dc.lft.to/lastmile_qr_scan", "ios": "https://dc.lft.to/lastmile_qr_scan"}, "fusion_lon": 0.0}, {"lat": 38.87633966666667, "is_disabled": 0, "type": "electric_scooter", "lon": -77.01932466666666, "bike_id": "923ff457e2abf962a852a222b773dd88", "fusion_lat": 0.0, "name": "923ff457e2abf962a852a222b773dd88", "is_reserved": 0, "rental_uris": {"android": "https://dc.lft.to/lastmile_qr_scan", "ios": "https://dc.lft.to/lastmile_qr_scan"}, "fusion_lon": 0.0}, {"lat": 38.922586833333334, "is_disabled": 0, "type": "electric_scooter", "lon": -77.04130033333334, "bike_id": "b895c2a8d5a78b08e0ff20a2f5e99b5e", "fusion_lat": 0.0, "name": "b895c2a8d5a78b08e0ff20a2f5e99b5e", "is_reserved": 0, "rental_uris": {"android": "https://dc.lft.to/lastmile_qr_scan", "ios": "https://dc.lft.to/lastmile_qr_scan"}, "fusion_lon": 0.0}, {"lat": 38.903786, "is_disabled": 0, "type": "electric_scooter", "lon": -77.04666316666666, "bike_id": "0d1a1cf518c8647a6245546abef0624f", "fusion_lat": 0.0, "name": "0d1a1cf518c8647a6245546abef0624f", "is_reserved": 0, "rental_uris": {"android": "https://dc.lft.to/lastmile_qr_scan", "ios": "https://dc.lft.to/lastmile_qr_scan"}, "fusion_lon": 0.0}, {"lat": 38.926121, "is_disabled": 0, "type": "electric_scooter", "lon": -77.04410416666667, "bike_id": "5769d6ca8ef9a6065bd636ca015c75f9", "fusion_lat": 0.0, "name": "5769d6ca8ef9a6065bd636ca015c75f9", "is_reserved": 0, "rental_uris": {"android": "https://dc.lft.to/lastmile_qr_scan", "ios": "https://dc.lft.to/lastmile_qr_scan"}, "fusion_lon": 0.0}, {"lat": 38.903809833333334, "is_disabled": 0, "type": "electric_scooter", "lon": -77.04578483333333, "bike_id": "03f6dcc705db0e6a1b7b8ae82a436ace", "fusion_lat": 0.0, "name": "03f6dcc705db0e6a1b7b8ae82a436ace", "is_reserved": 0, "rental_uris": {"android": "https://dc.lft.to/lastmile_qr_scan", "ios": "https://dc.lft.to/lastmile_qr_scan"}, "fusion_lon": 0.0}, {"lat": 38.907207666666665, "is_disabled": 0, "type": "electric_scooter", "lon": -77.039979, "bike_id": "ef538118b5a6c7561d621e0cc1b1953a", "fusion_lat": 0.0, "name": "ef538118b5a6c7561d621e0cc1b1953a", "is_reserved": 0, "rental_uris": {"android": "https://dc.lft.to/lastmile_qr_scan", "ios": "https://dc.lft.to/lastmile_qr_scan"}, "fusion_lon": 0.0}, {"lat": 38.91695583333333, "is_disabled": 0, "type": "electric_scooter", "lon": -77.03100266666667, "bike_id": "7ce26a67f0d0b08d9b69c265805c4cd8", "fusion_lat": 0.0, "name": "7ce26a67f0d0b08d9b69c265805c4cd8", "is_reserved": 0, "rental_uris": {"android": "https://dc.lft.to/lastmile_qr_scan", "ios": "https://dc.lft.to/lastmile_qr_scan"}, "fusion_lon": 0.0}, {"lat": 38.93893216666667, "is_disabled": 0, "type": "electric_scooter", "lon": -77.06059966666666, "bike_id": "3564b64cd6002c20686311b0ca342f00", "fusion_lat": 0.0, "name": "3564b64cd6002c20686311b0ca342f00", "is_reserved": 0, "rental_uris": {"android": "https://dc.lft.to/lastmile_qr_scan", "ios": "https://dc.lft.to/lastmile_qr_scan"}, "fusion_lon": 0.0}, {"lat": 38.91212866666667, "is_disabled": 0, "type": "electric_scooter", "lon": -77.03849366666667, "bike_id": "88ca5f77ff8f750825312b3db06f26e7", "fusion_lat": 0.0, "name": "88ca5f77ff8f750825312b3db06f26e7", "is_reserved": 0, "rental_uris": {"android": "https://dc.lft.to/lastmile_qr_scan", "ios": "https://dc.lft.to/lastmile_qr_scan"}, "fusion_lon": 0.0}, {"lat": 38.9140355, "is_disabled": 0, "type": "electric_scooter", "lon": -77.01845216666666, "bike_id": "d997289c00ac0043d88502e365e8e6c2", "fusion_lat": 0.0, "name": "d997289c00ac0043d88502e365e8e6c2", "is_reserved": 0, "rental_uris": {"android": "https://dc.lft.to/lastmile_qr_scan", "ios": "https://dc.lft.to/lastmile_qr_scan"}, "fusion_lon": 0.0}, {"lat": 38.932497, "is_disabled": 0, "type": "electric_scooter", "lon": -77.029706, "bike_id": "897dddd95f9c92826ba395c2f4b0cb10", "fusion_lat": 0.0, "name": "897dddd95f9c92826ba395c2f4b0cb10", "is_reserved": 0, "rental_uris": {"android": "https://dc.lft.to/lastmile_qr_scan", "ios": "https://dc.lft.to/lastmile_qr_scan"}, "fusion_lon": 0.0}, {"lat": 38.8628805, "is_disabled": 0, "type": "electric_bike", "lon": -77.0636885, "bike_id": "bbf576714f8ea46ad50d356eec752c89", "fusion_lat": 0.0, "name": "bbf576714f8ea46ad50d356eec752c89", "is_reserved": 0, "rental_uris": {"android": "https://dc.lft.to/lastmile_qr_scan", "ios": "https://dc.lft.to/lastmile_qr_scan"}, "fusion_lon": 0.0}, {"lat": 38.86384066666667, "is_disabled": 0, "type": "electric_scooter", "lon": -76.990664, "bike_id": "6261dcd8c94d2337beb3eba5300ceaab", "fusion_lat": 0.0, "name": "6261dcd8c94d2337beb3eba5300ceaab", "is_reserved": 0, "rental_uris": {"android": "https://dc.lft.to/lastmile_qr_scan", "ios": "https://dc.lft.to/lastmile_qr_scan"}, "fusion_lon": 0.0}, {"lat": 38.904885166666666, "is_disabled": 0, "type": "electric_scooter", "lon": -77.05145283333333, "bike_id": "1c6437f8b91fa4d8a5f391a69ffa73fb", "fusion_lat": 0.0, "name": "1c6437f8b91fa4d8a5f391a69ffa73fb", "is_reserved": 0, "rental_uris": {"android": "https://dc.lft.to/lastmile_qr_scan", "ios": "https://dc.lft.to/lastmile_qr_scan"}, "fusion_lon": 0.0}, {"lat": 38.865181666666665, "is_disabled": 0, "type": "electric_scooter", "lon": -76.99038966666667, "bike_id": "eb9e967ab2ae068088122436286be3cf", "fusion_lat": 0.0, "name": "eb9e967ab2ae068088122436286be3cf", "is_reserved": 0, "rental_uris": {"android": "https://dc.lft.to/lastmile_qr_scan", "ios": "https://dc.lft.to/lastmile_qr_scan"}, "fusion_lon": 0.0}, {"lat": 38.90152783333333, "is_disabled": 0, "type": "electric_scooter", "lon": -77.0220745, "bike_id": "24475fe09f83bce9255bbc695dc64acf", "fusion_lat": 0.0, "name": "24475fe09f83bce9255bbc695dc64acf", "is_reserved": 0, "rental_uris": {"android": "https://dc.lft.to/lastmile_qr_scan", "ios": "https://dc.lft.to/lastmile_qr_scan"}, "fusion_lon": 0.0}, {"lat": 38.9096405, "is_disabled": 0, "type": "electric_scooter", "lon": -77.04808866666667, "bike_id": "8ac2ef7af27fbecd857a44671052d854", "fusion_lat": 0.0, "name": "8ac2ef7af27fbecd857a44671052d854", "is_reserved": 0, "rental_uris": {"android": "https://dc.lft.to/lastmile_qr_scan", "ios": "https://dc.lft.to/lastmile_qr_scan"}, "fusion_lon": 0.0}, {"lat": 38.952794, "is_disabled": 0, "type": "electric_bike", "lon": -77.069885, "bike_id": "ddbd81d17d277af6933178b7bef6023a", "fusion_lat": 0.0, "name": "ddbd81d17d277af6933178b7bef6023a", "is_reserved": 0, "rental_uris": {"android": "https://dc.lft.to/lastmile_qr_scan", "ios": "https://dc.lft.to/lastmile_qr_scan"}, "fusion_lon": 0.0}, {"lat": 38.93700116666667, "is_disabled": 0, "type": "electric_scooter", "lon": -77.024021, "bike_id": "97ec8ffb54b3f1b7a622e1149cabcfb7", "fusion_lat": 0.0, "name": "97ec8ffb54b3f1b7a622e1149cabcfb7", "is_reserved": 0, "rental_uris": {"android": "https://dc.lft.to/lastmile_qr_scan", "ios": "https://dc.lft.to/lastmile_qr_scan"}, "fusion_lon": 0.0}, {"lat": 38.91910766666667, "is_disabled": 0, "type": "electric_scooter", "lon": -77.04634533333333, "bike_id": "573cecbb37e2d0b076758a8e8340f2ae", "fusion_lat": 0.0, "name": "573cecbb37e2d0b076758a8e8340f2ae", "is_reserved": 0, "rental_uris": {"android": "https://dc.lft.to/lastmile_qr_scan", "ios": "https://dc.lft.to/lastmile_qr_scan"}, "fusion_lon": 0.0}, {"lat": 38.91808183333333, "is_disabled": 0, "type": "electric_scooter", "lon": -77.024814, "bike_id": "0a840df23f6dc7af3c720660ae15f2b1", "fusion_lat": 0.0, "name": "0a840df23f6dc7af3c720660ae15f2b1", "is_reserved": 0, "rental_uris": {"android": "https://dc.lft.to/lastmile_qr_scan", "ios": "https://dc.lft.to/lastmile_qr_scan"}, "fusion_lon": 0.0}, {"lat": 38.92208983333333, "is_disabled": 0, "type": "electric_scooter", "lon": -77.03294533333333, "bike_id": "d9e718e05dd186f09887eb5a3185ead3", "fusion_lat": 0.0, "name": "d9e718e05dd186f09887eb5a3185ead3", "is_reserved": 0, "rental_uris": {"android": "https://dc.lft.to/lastmile_qr_scan", "ios": "https://dc.lft.to/lastmile_qr_scan"}, "fusion_lon": 0.0}, {"lat": 38.915445166666665, "is_disabled": 0, "type": "electric_scooter", "lon": -77.03849866666667, "bike_id": "5ae4afc9a997227202d0a3718388be3b", "fusion_lat": 0.0, "name": "5ae4afc9a997227202d0a3718388be3b", "is_reserved": 0, "rental_uris": {"android": "https://dc.lft.to/lastmile_qr_scan", "ios": "https://dc.lft.to/lastmile_qr_scan"}, "fusion_lon": 0.0}, {"lat": 38.905066, "is_disabled": 0, "type": "electric_scooter", "lon": -77.04338483333333, "bike_id": "39a7d3bdc5b4a5798eba9ddad787421f", "fusion_lat": 0.0, "name": "39a7d3bdc5b4a5798eba9ddad787421f", "is_reserved": 0, "rental_uris": {"android": "https://dc.lft.to/lastmile_qr_scan", "ios": "https://dc.lft.to/lastmile_qr_scan"}, "fusion_lon": 0.0}, {"lat": 38.9003995, "is_disabled": 0, "type": "electric_bike", "lon": -77.04187, "bike_id": "7c3dc54c717a8b6a63cad4adc79d2126", "fusion_lat": 0.0, "name": "7c3dc54c717a8b6a63cad4adc79d2126", "is_reserved": 0, "rental_uris": {"android": "https://dc.lft.to/lastmile_qr_scan", "ios": "https://dc.lft.to/lastmile_qr_scan"}, "fusion_lon": 0.0}, {"lat": 38.87905966666667, "is_disabled": 0, "type": "electric_scooter", "lon": -77.0223325, "bike_id": "5a7203d426428292c1cdca94a3bd3234", "fusion_lat": 0.0, "name": "5a7203d426428292c1cdca94a3bd3234", "is_reserved": 0, "rental_uris": {"android": "https://dc.lft.to/lastmile_qr_scan", "ios": "https://dc.lft.to/lastmile_qr_scan"}, "fusion_lon": 0.0}, {"lat": 39.088564833333336, "is_disabled": 0, "type": "electric_bike", "lon": -77.17844083333334, "bike_id": "50c90f968b1cd8a5a1f78a1289d5b99a", "fusion_lat": 0.0, "name": "50c90f968b1cd8a5a1f78a1289d5b99a", "is_reserved": 0, "rental_uris": {"android": "https://dc.lft.to/lastmile_qr_scan", "ios": "https://dc.lft.to/lastmile_qr_scan"}, "fusion_lon": 0.0}, {"lat": 38.983630833333336, "is_disabled": 0, "type": "electric_scooter", "lon": -77.0265205, "bike_id": "62e63c4ebbcd67b3dd96fa5949bf82a8", "fusion_lat": 0.0, "name": "62e63c4ebbcd67b3dd96fa5949bf82a8", "is_reserved": 0, "rental_uris": {"android": "https://dc.lft.to/lastmile_qr_scan", "ios": "https://dc.lft.to/lastmile_qr_scan"}, "fusion_lon": 0.0}, {"lat": 38.907312, "is_disabled": 0, "type": "electric_scooter", "lon": -77.04017883333333, "bike_id": "e0542ba3570c20951daa184776fb49a4", "fusion_lat": 0.0, "name": "e0542ba3570c20951daa184776fb49a4", "is_reserved": 0, "rental_uris": {"android": "https://dc.lft.to/lastmile_qr_scan", "ios": "https://dc.lft.to/lastmile_qr_scan"}, "fusion_lon": 0.0}, {"lat": 38.928513333333335, "is_disabled": 0, "type": "electric_bike", "lon": -77.22212, "bike_id": "c55c31d5202b5172296717b28045f0d3", "fusion_lat": 0.0, "name": "c55c31d5202b5172296717b28045f0d3", "is_reserved": 0, "rental_uris": {"android": "https://dc.lft.to/lastmile_qr_scan", "ios": "https://dc.lft.to/lastmile_qr_scan"}, "fusion_lon": 0.0}, {"lat": 38.928772333333335, "is_disabled": 0, "type": "electric_scooter", "lon": -77.0271495, "bike_id": "6715efe4fc741fa29ce9be99e31885b4", "fusion_lat": 0.0, "name": "6715efe4fc741fa29ce9be99e31885b4", "is_reserved": 0, "rental_uris": {"android": "https://dc.lft.to/lastmile_qr_scan", "ios": "https://dc.lft.to/lastmile_qr_scan"}, "fusion_lon": 0.0}, {"lat": 38.9360885, "is_disabled": 0, "type": "electric_scooter", "lon": -77.0321725, "bike_id": "89953aaea1d719e823eb28780b8dcbdc", "fusion_lat": 0.0, "name": "89953aaea1d719e823eb28780b8dcbdc", "is_reserved": 0, "rental_uris": {"android": "https://dc.lft.to/lastmile_qr_scan", "ios": "https://dc.lft.to/lastmile_qr_scan"}, "fusion_lon": 0.0}, {"lat": 38.902365333333336, "is_disabled": 0, "type": "electric_scooter", "lon": -77.04864033333334, "bike_id": "6b9a7025e1b8a497040f91bf299c8b86", "fusion_lat": 0.0, "name": "6b9a7025e1b8a497040f91bf299c8b86", "is_reserved": 0, "rental_uris": {"android": "https://dc.lft.to/lastmile_qr_scan", "ios": "https://dc.lft.to/lastmile_qr_scan"}, "fusion_lon": 0.0}, {"lat": 38.885811333333336, "is_disabled": 0, "type": "electric_scooter", "lon": -77.012331, "bike_id": "61d9223d11862ac1e7d5ab29a426e763", "fusion_lat": 0.0, "name": "61d9223d11862ac1e7d5ab29a426e763", "is_reserved": 0, "rental_uris": {"android": "https://dc.lft.to/lastmile_qr_scan", "ios": "https://dc.lft.to/lastmile_qr_scan"}, "fusion_lon": 0.0}, {"lat": 38.9105015, "is_disabled": 0, "type": "electric_scooter", "lon": -77.04088133333333, "bike_id": "bed1fbd5188fe02aaab4e1a5448fef91", "fusion_lat": 0.0, "name": "bed1fbd5188fe02aaab4e1a5448fef91", "is_reserved": 0, "rental_uris": {"android": "https://dc.lft.to/lastmile_qr_scan", "ios": "https://dc.lft.to/lastmile_qr_scan"}, "fusion_lon": 0.0}, {"lat": 38.90607583333333, "is_disabled": 0, "type": "electric_scooter", "lon": -77.06314216666667, "bike_id": "db09b13cd00ce52874f560d35ade88b6", "fusion_lat": 0.0, "name": "db09b13cd00ce52874f560d35ade88b6", "is_reserved": 0, "rental_uris": {"android": "https://dc.lft.to/lastmile_qr_scan", "ios": "https://dc.lft.to/lastmile_qr_scan"}, "fusion_lon": 0.0}, {"lat": 38.92821383333333, "is_disabled": 0, "type": "electric_scooter", "lon": -77.02261016666667, "bike_id": "ed61a2f25621c0c2a8d2520d6f2c9da5", "fusion_lat": 0.0, "name": "ed61a2f25621c0c2a8d2520d6f2c9da5", "is_reserved": 0, "rental_uris": {"android": "https://dc.lft.to/lastmile_qr_scan", "ios": "https://dc.lft.to/lastmile_qr_scan"}, "fusion_lon": 0.0}, {"lat": 39.02426033333333, "is_disabled": 0, "type": "electric_bike", "lon": -77.13104383333334, "bike_id": "4fed0b0ee1e4352a33e3a6e4d1a03da1", "fusion_lat": 0.0, "name": "4fed0b0ee1e4352a33e3a6e4d1a03da1", "is_reserved": 0, "rental_uris": {"android": "https://dc.lft.to/lastmile_qr_scan", "ios": "https://dc.lft.to/lastmile_qr_scan"}, "fusion_lon": 0.0}, {"lat": 38.91726833333333, "is_disabled": 0, "type": "electric_scooter", "lon": -77.041728, "bike_id": "6b3d24f24e1b511973b72fc546eefe5f", "fusion_lat": 0.0, "name": "6b3d24f24e1b511973b72fc546eefe5f", "is_reserved": 0, "rental_uris": {"android": "https://dc.lft.to/lastmile_qr_scan", "ios": "https://dc.lft.to/lastmile_qr_scan"}, "fusion_lon": 0.0}, {"lat": 38.930853166666665, "is_disabled": 0, "type": "electric_scooter", "lon": -76.9671895, "bike_id": "d39ce98bd676ed4e009368d72c1929d0", "fusion_lat": 0.0, "name": "d39ce98bd676ed4e009368d72c1929d0", "is_reserved": 0, "rental_uris": {"android": "https://dc.lft.to/lastmile_qr_scan", "ios": "https://dc.lft.to/lastmile_qr_scan"}, "fusion_lon": 0.0}, {"lat": 38.964902, "is_disabled": 0, "type": "electric_bike", "lon": -76.93845466666667, "bike_id": "3d273cad02adbade7b8443bfcdf3db65", "fusion_lat": 0.0, "name": "3d273cad02adbade7b8443bfcdf3db65", "is_reserved": 0, "rental_uris": {"android": "https://dc.lft.to/lastmile_qr_scan", "ios": "https://dc.lft.to/lastmile_qr_scan"}, "fusion_lon": 0.0}, {"lat": 39.03042083333333, "is_disabled": 0, "type": "electric_bike", "lon": -77.09484233333333, "bike_id": "a26d6e08b53b80667525ee2ac0e54b3d", "fusion_lat": 0.0, "name": "a26d6e08b53b80667525ee2ac0e54b3d", "is_reserved": 0, "rental_uris": {"android": "https://dc.lft.to/lastmile_qr_scan", "ios": "https://dc.lft.to/lastmile_qr_scan"}, "fusion_lon": 0.0}, {"lat": 38.900098666666665, "is_disabled": 0, "type": "electric_scooter", "lon": -77.00881883333334, "bike_id": "a81ef20bfb4954229b3532f86ab9bf73", "fusion_lat": 0.0, "name": "a81ef20bfb4954229b3532f86ab9bf73", "is_reserved": 0, "rental_uris": {"android": "https://dc.lft.to/lastmile_qr_scan", "ios": "https://dc.lft.to/lastmile_qr_scan"}, "fusion_lon": 0.0}, {"lat": 38.905239, "is_disabled": 0, "type": "electric_scooter", "lon": -77.06100283333333, "bike_id": "1e067baad549d0edf03d5a20286b4fdc", "fusion_lat": 0.0, "name": "1e067baad549d0edf03d5a20286b4fdc", "is_reserved": 0, "rental_uris": {"android": "https://dc.lft.to/lastmile_qr_scan", "ios": "https://dc.lft.to/lastmile_qr_scan"}, "fusion_lon": 0.0}, {"lat": 38.944270833333334, "is_disabled": 0, "type": "electric_scooter", "lon": -77.06308983333334, "bike_id": "d796341a7832743d85d61764fd5835de", "fusion_lat": 0.0, "name": "d796341a7832743d85d61764fd5835de", "is_reserved": 0, "rental_uris": {"android": "https://dc.lft.to/lastmile_qr_scan", "ios": "https://dc.lft.to/lastmile_qr_scan"}, "fusion_lon": 0.0}, {"lat": 38.88499433333333, "is_disabled": 0, "type": "electric_scooter", "lon": -77.0057145, "bike_id": "f261f5fc44004920490baa5263c76acc", "fusion_lat": 0.0, "name": "f261f5fc44004920490baa5263c76acc", "is_reserved": 0, "rental_uris": {"android": "https://dc.lft.to/lastmile_qr_scan", "ios": "https://dc.lft.to/lastmile_qr_scan"}, "fusion_lon": 0.0}, {"lat": 38.89890883333333, "is_disabled": 0, "type": "electric_scooter", "lon": -77.0334265, "bike_id": "b93d936887bb15c1aebce0ff12f951eb", "fusion_lat": 0.0, "name": "b93d936887bb15c1aebce0ff12f951eb", "is_reserved": 0, "rental_uris": {"android": "https://dc.lft.to/lastmile_qr_scan", "ios": "https://dc.lft.to/lastmile_qr_scan"}, "fusion_lon": 0.0}, {"lat": 38.900288833333335, "is_disabled": 0, "type": "electric_scooter", "lon": -76.98840433333334, "bike_id": "25d403e5b470346e02c63b63cbf98c4f", "fusion_lat": 0.0, "name": "25d403e5b470346e02c63b63cbf98c4f", "is_reserved": 0, "rental_uris": {"android": "https://dc.lft.to/lastmile_qr_scan", "ios": "https://dc.lft.to/lastmile_qr_scan"}, "fusion_lon": 0.0}, {"lat": 38.918166, "is_disabled": 0, "type": "electric_scooter", "lon": -77.01211533333333, "bike_id": "51900b14d212fb3dfb77e9b7d2fcd6cc", "fusion_lat": 0.0, "name": "51900b14d212fb3dfb77e9b7d2fcd6cc", "is_reserved": 0, "rental_uris": {"android": "https://dc.lft.to/lastmile_qr_scan", "ios": "https://dc.lft.to/lastmile_qr_scan"}, "fusion_lon": 0.0}, {"lat": 38.892324333333335, "is_disabled": 0, "type": "electric_scooter", "lon": -77.02791683333334, "bike_id": "9f6bac337ee32bdec3cce0cf84714914", "fusion_lat": 0.0, "name": "9f6bac337ee32bdec3cce0cf84714914", "is_reserved": 0, "rental_uris": {"android": "https://dc.lft.to/lastmile_qr_scan", "ios": "https://dc.lft.to/lastmile_qr_scan"}, "fusion_lon": 0.0}, {"lat": 38.921088166666664, "is_disabled": 0, "type": "electric_scooter", "lon": -77.03185466666666, "bike_id": "c301f5083a86b2fde9cb80d2ec3a1b22", "fusion_lat": 0.0, "name": "c301f5083a86b2fde9cb80d2ec3a1b22", "is_reserved": 0, "rental_uris": {"android": "https://dc.lft.to/lastmile_qr_scan", "ios": "https://dc.lft.to/lastmile_qr_scan"}, "fusion_lon": 0.0}, {"lat": 38.914706, "is_disabled": 0, "type": "electric_scooter", "lon": -77.0318425, "bike_id": "baa91c7758d5226f651dcb2bb17a207a", "fusion_lat": 0.0, "name": "baa91c7758d5226f651dcb2bb17a207a", "is_reserved": 0, "rental_uris": {"android": "https://dc.lft.to/lastmile_qr_scan", "ios": "https://dc.lft.to/lastmile_qr_scan"}, "fusion_lon": 0.0}, {"lat": 38.86627083333333, "is_disabled": 0, "type": "electric_scooter", "lon": -76.987195, "bike_id": "c600b7e8d526741882dca05d81b8f83d", "fusion_lat": 0.0, "name": "c600b7e8d526741882dca05d81b8f83d", "is_reserved": 0, "rental_uris": {"android": "https://dc.lft.to/lastmile_qr_scan", "ios": "https://dc.lft.to/lastmile_qr_scan"}, "fusion_lon": 0.0}, {"lat": 38.8994185, "is_disabled": 0, "type": "electric_scooter", "lon": -77.05098383333333, "bike_id": "0113e8127d257d118f76b2480f304907", "fusion_lat": 0.0, "name": "0113e8127d257d118f76b2480f304907", "is_reserved": 0, "rental_uris": {"android": "https://dc.lft.to/lastmile_qr_scan", "ios": "https://dc.lft.to/lastmile_qr_scan"}, "fusion_lon": 0.0}, {"lat": 38.8851475, "is_disabled": 0, "type": "electric_scooter", "lon": -77.00278833333333, "bike_id": "8f6fb5198f36681d5573e40942a90adf", "fusion_lat": 0.0, "name": "8f6fb5198f36681d5573e40942a90adf", "is_reserved": 0, "rental_uris": {"android": "https://dc.lft.to/lastmile_qr_scan", "ios": "https://dc.lft.to/lastmile_qr_scan"}, "fusion_lon": 0.0}, {"lat": 38.902640833333336, "is_disabled": 0, "type": "electric_scooter", "lon": -77.01798866666667, "bike_id": "1db3da6e6419e31a6cb84c15f6ca8e6f", "fusion_lat": 0.0, "name": "1db3da6e6419e31a6cb84c15f6ca8e6f", "is_reserved": 0, "rental_uris": {"android": "https://dc.lft.to/lastmile_qr_scan", "ios": "https://dc.lft.to/lastmile_qr_scan"}, "fusion_lon": 0.0}, {"lat": 38.905325500000004, "is_disabled": 0, "type": "electric_scooter", "lon": -77.05679433333333, "bike_id": "ebcf578094334aec17bd183bc7a34870", "fusion_lat": 0.0, "name": "ebcf578094334aec17bd183bc7a34870", "is_reserved": 0, "rental_uris": {"android": "https://dc.lft.to/lastmile_qr_scan", "ios": "https://dc.lft.to/lastmile_qr_scan"}, "fusion_lon": 0.0}, {"lat": 38.92904383333333, "is_disabled": 0, "type": "electric_scooter", "lon": -77.0641845, "bike_id": "016c8e36e59908e2ab1b59fc94ee1197", "fusion_lat": 0.0, "name": "016c8e36e59908e2ab1b59fc94ee1197", "is_reserved": 0, "rental_uris": {"android": "https://dc.lft.to/lastmile_qr_scan", "ios": "https://dc.lft.to/lastmile_qr_scan"}, "fusion_lon": 0.0}, {"lat": 38.8426715, "is_disabled": 0, "type": "electric_bike", "lon": -76.98847783333333, "bike_id": "8f51e48694b99d607c3a33cb4a55ed0a", "fusion_lat": 0.0, "name": "8f51e48694b99d607c3a33cb4a55ed0a", "is_reserved": 0, "rental_uris": {"android": "https://dc.lft.to/lastmile_qr_scan", "ios": "https://dc.lft.to/lastmile_qr_scan"}, "fusion_lon": 0.0}, {"lat": 38.897732833333336, "is_disabled": 0, "type": "electric_bike", "lon": -76.904427, "bike_id": "6fcde4f5566013f9dcbf5fee60aba055", "fusion_lat": 0.0, "name": "6fcde4f5566013f9dcbf5fee60aba055", "is_reserved": 0, "rental_uris": {"android": "https://dc.lft.to/lastmile_qr_scan", "ios": "https://dc.lft.to/lastmile_qr_scan"}, "fusion_lon": 0.0}, {"lat": 38.95630366666666, "is_disabled": 0, "type": "electric_bike", "lon": -76.93886166666667, "bike_id": "01f047d0aac4f6755b33e359a3d8c9c4", "fusion_lat": 0.0, "name": "01f047d0aac4f6755b33e359a3d8c9c4", "is_reserved": 0, "rental_uris": {"android": "https://dc.lft.to/lastmile_qr_scan", "ios": "https://dc.lft.to/lastmile_qr_scan"}, "fusion_lon": 0.0}, {"lat": 38.91932416666667, "is_disabled": 0, "type": "electric_scooter", "lon": -77.0812985, "bike_id": "d0098434e23674742e09a1d01bb1e310", "fusion_lat": 0.0, "name": "d0098434e23674742e09a1d01bb1e310", "is_reserved": 0, "rental_uris": {"android": "https://dc.lft.to/lastmile_qr_scan", "ios": "https://dc.lft.to/lastmile_qr_scan"}, "fusion_lon": 0.0}, {"lat": 38.88425616666667, "is_disabled": 0, "type": "electric_scooter", "lon": -76.95761783333333, "bike_id": "fa732365bf7c5511cf348e41af8f4a5d", "fusion_lat": 0.0, "name": "fa732365bf7c5511cf348e41af8f4a5d", "is_reserved": 0, "rental_uris": {"android": "https://dc.lft.to/lastmile_qr_scan", "ios": "https://dc.lft.to/lastmile_qr_scan"}, "fusion_lon": 0.0}, {"lat": 38.861078, "is_disabled": 0, "type": "electric_scooter", "lon": -76.98342216666667, "bike_id": "f2e84b995cad66f5862d71a268fee48e", "fusion_lat": 0.0, "name": "f2e84b995cad66f5862d71a268fee48e", "is_reserved": 0, "rental_uris": {"android": "https://dc.lft.to/lastmile_qr_scan", "ios": "https://dc.lft.to/lastmile_qr_scan"}, "fusion_lon": 0.0}, {"lat": 38.90058783333333, "is_disabled": 0, "type": "electric_scooter", "lon": -76.93388416666667, "bike_id": "7b856cc0ad2912bccb30e2b52cc79a2f", "fusion_lat": 0.0, "name": "7b856cc0ad2912bccb30e2b52cc79a2f", "is_reserved": 0, "rental_uris": {"android": "https://dc.lft.to/lastmile_qr_scan", "ios": "https://dc.lft.to/lastmile_qr_scan"}, "fusion_lon": 0.0}, {"lat": 38.915615, "is_disabled": 0, "type": "electric_scooter", "lon": -77.03074083333334, "bike_id": "b2e4d7a45564177d4027502b4b6140f7", "fusion_lat": 0.0, "name": "b2e4d7a45564177d4027502b4b6140f7", "is_reserved": 0, "rental_uris": {"android": "https://dc.lft.to/lastmile_qr_scan", "ios": "https://dc.lft.to/lastmile_qr_scan"}, "fusion_lon": 0.0}, {"lat": 39.01048766666667, "is_disabled": 0, "type": "electric_bike", "lon": -76.91107633333333, "bike_id": "f94eecceff18a7b10192ad16ee0fa0f6", "fusion_lat": 0.0, "name": "f94eecceff18a7b10192ad16ee0fa0f6", "is_reserved": 0, "rental_uris": {"android": "https://dc.lft.to/lastmile_qr_scan", "ios": "https://dc.lft.to/lastmile_qr_scan"}, "fusion_lon": 0.0}, {"lat": 38.91678983333333, "is_disabled": 0, "type": "electric_scooter", "lon": -77.0294805, "bike_id": "eb7c516876ee08bcecef974e10f629cf", "fusion_lat": 0.0, "name": "eb7c516876ee08bcecef974e10f629cf", "is_reserved": 0, "rental_uris": {"android": "https://dc.lft.to/lastmile_qr_scan", "ios": "https://dc.lft.to/lastmile_qr_scan"}, "fusion_lon": 0.0}, {"lat": 38.93183633333334, "is_disabled": 0, "type": "electric_scooter", "lon": -77.02838166666666, "bike_id": "3df686ea84abd0f3d6d431e18b0c991e", "fusion_lat": 0.0, "name": "3df686ea84abd0f3d6d431e18b0c991e", "is_reserved": 0, "rental_uris": {"android": "https://dc.lft.to/lastmile_qr_scan", "ios": "https://dc.lft.to/lastmile_qr_scan"}, "fusion_lon": 0.0}, {"lat": 38.9216485, "is_disabled": 0, "type": "electric_scooter", "lon": -77.03818933333334, "bike_id": "d06132881daee1cf658c17d6f2d97d96", "fusion_lat": 0.0, "name": "d06132881daee1cf658c17d6f2d97d96", "is_reserved": 0, "rental_uris": {"android": "https://dc.lft.to/lastmile_qr_scan", "ios": "https://dc.lft.to/lastmile_qr_scan"}, "fusion_lon": 0.0}, {"lat": 38.9285275, "is_disabled": 0, "type": "electric_bike", "lon": -77.10680066666667, "bike_id": "4bf65a6bbfd7e09f1621a0d51e925088", "fusion_lat": 0.0, "name": "4bf65a6bbfd7e09f1621a0d51e925088", "is_reserved": 0, "rental_uris": {"android": "https://dc.lft.to/lastmile_qr_scan", "ios": "https://dc.lft.to/lastmile_qr_scan"}, "fusion_lon": 0.0}, {"lat": 38.937568166666665, "is_disabled": 0, "type": "electric_scooter", "lon": -77.0314225, "bike_id": "4ba72170d43eeac84320b2a257dae3fa", "fusion_lat": 0.0, "name": "4ba72170d43eeac84320b2a257dae3fa", "is_reserved": 0, "rental_uris": {"android": "https://dc.lft.to/lastmile_qr_scan", "ios": "https://dc.lft.to/lastmile_qr_scan"}, "fusion_lon": 0.0}, {"lat": 38.925406833333334, "is_disabled": 0, "type": "electric_scooter", "lon": -77.04081216666667, "bike_id": "4215a3cb3c5e285718a74daec2359041", "fusion_lat": 0.0, "name": "4215a3cb3c5e285718a74daec2359041", "is_reserved": 0, "rental_uris": {"android": "https://dc.lft.to/lastmile_qr_scan", "ios": "https://dc.lft.to/lastmile_qr_scan"}, "fusion_lon": 0.0}, {"lat": 38.80744883333333, "is_disabled": 0, "type": "electric_bike", "lon": -77.09434783333333, "bike_id": "4a2db155bfbd5364d09e8042382e404f", "fusion_lat": 0.0, "name": "4a2db155bfbd5364d09e8042382e404f", "is_reserved": 0, "rental_uris": {"android": "https://dc.lft.to/lastmile_qr_scan", "ios": "https://dc.lft.to/lastmile_qr_scan"}, "fusion_lon": 0.0}, {"lat": 38.91803866666667, "is_disabled": 0, "type": "electric_scooter", "lon": -77.03445333333333, "bike_id": "097d5bbc8716497feee99429f6443f91", "fusion_lat": 0.0, "name": "097d5bbc8716497feee99429f6443f91", "is_reserved": 0, "rental_uris": {"android": "https://dc.lft.to/lastmile_qr_scan", "ios": "https://dc.lft.to/lastmile_qr_scan"}, "fusion_lon": 0.0}, {"lat": 38.94832616666667, "is_disabled": 0, "type": "electric_scooter", "lon": -77.02433566666667, "bike_id": "51911edf334b7bf7c89abda65a28bb5e", "fusion_lat": 0.0, "name": "51911edf334b7bf7c89abda65a28bb5e", "is_reserved": 0, "rental_uris": {"android": "https://dc.lft.to/lastmile_qr_scan", "ios": "https://dc.lft.to/lastmile_qr_scan"}, "fusion_lon": 0.0}, {"lat": 38.925883666666664, "is_disabled": 0, "type": "electric_scooter", "lon": -77.03228466666667, "bike_id": "8196f50aafa85442c9fd8988fe2fcf39", "fusion_lat": 0.0, "name": "8196f50aafa85442c9fd8988fe2fcf39", "is_reserved": 0, "rental_uris": {"android": "https://dc.lft.to/lastmile_qr_scan", "ios": "https://dc.lft.to/lastmile_qr_scan"}, "fusion_lon": 0.0}, {"lat": 38.92540016666667, "is_disabled": 0, "type": "electric_scooter", "lon": -77.03794766666667, "bike_id": "ce01ec18c69769bcea42abc1762caa03", "fusion_lat": 0.0, "name": "ce01ec18c69769bcea42abc1762caa03", "is_reserved": 0, "rental_uris": {"android": "https://dc.lft.to/lastmile_qr_scan", "ios": "https://dc.lft.to/lastmile_qr_scan"}, "fusion_lon": 0.0}, {"lat": 38.92999866666667, "is_disabled": 0, "type": "electric_scooter", "lon": -77.04436666666666, "bike_id": "1fb9b942cae0439c58ecfb02e0908c60", "fusion_lat": 0.0, "name": "1fb9b942cae0439c58ecfb02e0908c60", "is_reserved": 0, "rental_uris": {"android": "https://dc.lft.to/lastmile_qr_scan", "ios": "https://dc.lft.to/lastmile_qr_scan"}, "fusion_lon": 0.0}, {"lat": 38.90262366666666, "is_disabled": 0, "type": "electric_scooter", "lon": -77.03437466666666, "bike_id": "3b58eb24c919aa836632f3251d0aa1eb", "fusion_lat": 0.0, "name": "3b58eb24c919aa836632f3251d0aa1eb", "is_reserved": 0, "rental_uris": {"android": "https://dc.lft.to/lastmile_qr_scan", "ios": "https://dc.lft.to/lastmile_qr_scan"}, "fusion_lon": 0.0}, {"lat": 38.9318075, "is_disabled": 0, "type": "electric_scooter", "lon": -77.03151966666667, "bike_id": "870d43cb95ed815ffd3fbe0923d9f10a", "fusion_lat": 0.0, "name": "870d43cb95ed815ffd3fbe0923d9f10a", "is_reserved": 0, "rental_uris": {"android": "https://dc.lft.to/lastmile_qr_scan", "ios": "https://dc.lft.to/lastmile_qr_scan"}, "fusion_lon": 0.0}, {"lat": 38.90033283333333, "is_disabled": 0, "type": "electric_scooter", "lon": -76.9981845, "bike_id": "abbe741498fd4929ffa7a4d23eee5774", "fusion_lat": 0.0, "name": "abbe741498fd4929ffa7a4d23eee5774", "is_reserved": 0, "rental_uris": {"android": "https://dc.lft.to/lastmile_qr_scan", "ios": "https://dc.lft.to/lastmile_qr_scan"}, "fusion_lon": 0.0}, {"lat": 38.90884283333333, "is_disabled": 0, "type": "electric_scooter", "lon": -77.06438916666667, "bike_id": "76d791eccf2494909cac6947e4a11b13", "fusion_lat": 0.0, "name": "76d791eccf2494909cac6947e4a11b13", "is_reserved": 0, "rental_uris": {"android": "https://dc.lft.to/lastmile_qr_scan", "ios": "https://dc.lft.to/lastmile_qr_scan"}, "fusion_lon": 0.0}, {"lat": 38.91967233333333, "is_disabled": 0, "type": "electric_scooter", "lon": -77.04156733333333, "bike_id": "d08af3ddc479d9ceb56e6c4bf2fd6b10", "fusion_lat": 0.0, "name": "d08af3ddc479d9ceb56e6c4bf2fd6b10", "is_reserved": 0, "rental_uris": {"android": "https://dc.lft.to/lastmile_qr_scan", "ios": "https://dc.lft.to/lastmile_qr_scan"}, "fusion_lon": 0.0}, {"lat": 38.90609466666667, "is_disabled": 0, "type": "electric_scooter", "lon": -77.065232, "bike_id": "03bbfb4a7dfe46dfb5fbdf4681244586", "fusion_lat": 0.0, "name": "03bbfb4a7dfe46dfb5fbdf4681244586", "is_reserved": 0, "rental_uris": {"android": "https://dc.lft.to/lastmile_qr_scan", "ios": "https://dc.lft.to/lastmile_qr_scan"}, "fusion_lon": 0.0}, {"lat": 38.8845795, "is_disabled": 0, "type": "electric_scooter", "lon": -76.9262745, "bike_id": "44cc0e4fd574258d752636b97b416bbd", "fusion_lat": 0.0, "name": "44cc0e4fd574258d752636b97b416bbd", "is_reserved": 0, "rental_uris": {"android": "https://dc.lft.to/lastmile_qr_scan", "ios": "https://dc.lft.to/lastmile_qr_scan"}, "fusion_lon": 0.0}, {"lat": 38.91182583333333, "is_disabled": 0, "type": "electric_scooter", "lon": -77.00562366666666, "bike_id": "b10bda58f9fa5f37acde3c91d7c76561", "fusion_lat": 0.0, "name": "b10bda58f9fa5f37acde3c91d7c76561", "is_reserved": 0, "rental_uris": {"android": "https://dc.lft.to/lastmile_qr_scan", "ios": "https://dc.lft.to/lastmile_qr_scan"}, "fusion_lon": 0.0}, {"lat": 38.922673833333334, "is_disabled": 0, "type": "electric_scooter", "lon": -77.0421405, "bike_id": "b4b81e1de921bb304be46089acf50e41", "fusion_lat": 0.0, "name": "b4b81e1de921bb304be46089acf50e41", "is_reserved": 0, "rental_uris": {"android": "https://dc.lft.to/lastmile_qr_scan", "ios": "https://dc.lft.to/lastmile_qr_scan"}, "fusion_lon": 0.0}, {"lat": 38.8621005, "is_disabled": 0, "type": "electric_scooter", "lon": -76.99476983333334, "bike_id": "45630028d0afdf195a06d2ba704b4352", "fusion_lat": 0.0, "name": "45630028d0afdf195a06d2ba704b4352", "is_reserved": 0, "rental_uris": {"android": "https://dc.lft.to/lastmile_qr_scan", "ios": "https://dc.lft.to/lastmile_qr_scan"}, "fusion_lon": 0.0}, {"lat": 38.902444333333335, "is_disabled": 0, "type": "electric_scooter", "lon": -77.03929716666667, "bike_id": "bdc654938915e67606a3da9044d87ea6", "fusion_lat": 0.0, "name": "bdc654938915e67606a3da9044d87ea6", "is_reserved": 0, "rental_uris": {"android": "https://dc.lft.to/lastmile_qr_scan", "ios": "https://dc.lft.to/lastmile_qr_scan"}, "fusion_lon": 0.0}, {"lat": 38.874688666666664, "is_disabled": 0, "type": "electric_scooter", "lon": -77.00943233333334, "bike_id": "e9527c7e75cc132019ecfdf9a65aa904", "fusion_lat": 0.0, "name": "e9527c7e75cc132019ecfdf9a65aa904", "is_reserved": 0, "rental_uris": {"android": "https://dc.lft.to/lastmile_qr_scan", "ios": "https://dc.lft.to/lastmile_qr_scan"}, "fusion_lon": 0.0}, {"lat": 38.898113333333335, "is_disabled": 0, "type": "electric_scooter", "lon": -77.009091, "bike_id": "8078d1deb50e8c6653862208481bb181", "fusion_lat": 0.0, "name": "8078d1deb50e8c6653862208481bb181", "is_reserved": 0, "rental_uris": {"android": "https://dc.lft.to/lastmile_qr_scan", "ios": "https://dc.lft.to/lastmile_qr_scan"}, "fusion_lon": 0.0}, {"lat": 38.90563983333333, "is_disabled": 0, "type": "electric_scooter", "lon": -77.03930816666667, "bike_id": "7e2fd136c91b88833a960f3a8a2b49ed", "fusion_lat": 0.0, "name": "7e2fd136c91b88833a960f3a8a2b49ed", "is_reserved": 0, "rental_uris": {"android": "https://dc.lft.to/lastmile_qr_scan", "ios": "https://dc.lft.to/lastmile_qr_scan"}, "fusion_lon": 0.0}, {"lat": 38.90406766666667, "is_disabled": 0, "type": "electric_scooter", "lon": -76.973353, "bike_id": "977512e071d6d3c8e1334e8be86eec66", "fusion_lat": 0.0, "name": "977512e071d6d3c8e1334e8be86eec66", "is_reserved": 0, "rental_uris": {"android": "https://dc.lft.to/lastmile_qr_scan", "ios": "https://dc.lft.to/lastmile_qr_scan"}, "fusion_lon": 0.0}, {"lat": 38.90486966666667, "is_disabled": 0, "type": "electric_scooter", "lon": -77.04061233333333, "bike_id": "d7f09b8524f85db33e20d586dbfd8e6c", "fusion_lat": 0.0, "name": "d7f09b8524f85db33e20d586dbfd8e6c", "is_reserved": 0, "rental_uris": {"android": "https://dc.lft.to/lastmile_qr_scan", "ios": "https://dc.lft.to/lastmile_qr_scan"}, "fusion_lon": 0.0}, {"lat": 38.91985833333333, "is_disabled": 0, "type": "electric_scooter", "lon": -76.9731085, "bike_id": "b1f17c609dd554f2b25d0543374a6770", "fusion_lat": 0.0, "name": "b1f17c609dd554f2b25d0543374a6770", "is_reserved": 0, "rental_uris": {"android": "https://dc.lft.to/lastmile_qr_scan", "ios": "https://dc.lft.to/lastmile_qr_scan"}, "fusion_lon": 0.0}, {"lat": 38.9103245, "is_disabled": 0, "type": "electric_scooter", "lon": -77.038471, "bike_id": "2058ec5f71df37c78b417d78eca261a1", "fusion_lat": 0.0, "name": "2058ec5f71df37c78b417d78eca261a1", "is_reserved": 0, "rental_uris": {"android": "https://dc.lft.to/lastmile_qr_scan", "ios": "https://dc.lft.to/lastmile_qr_scan"}, "fusion_lon": 0.0}, {"lat": 38.92114083333333, "is_disabled": 0, "type": "electric_bike", "lon": -77.05167766666666, "bike_id": "c4b525ccf885d899415a1dcc5eae22c8", "fusion_lat": 0.0, "name": "c4b525ccf885d899415a1dcc5eae22c8", "is_reserved": 0, "rental_uris": {"android": "https://dc.lft.to/lastmile_qr_scan", "ios": "https://dc.lft.to/lastmile_qr_scan"}, "fusion_lon": 0.0}, {"lat": 38.909693833333336, "is_disabled": 0, "type": "electric_scooter", "lon": -77.03337433333333, "bike_id": "5dedaf6eefcc7a1ddf8f46e46c313ca6", "fusion_lat": 0.0, "name": "5dedaf6eefcc7a1ddf8f46e46c313ca6", "is_reserved": 0, "rental_uris": {"android": "https://dc.lft.to/lastmile_qr_scan", "ios": "https://dc.lft.to/lastmile_qr_scan"}, "fusion_lon": 0.0}, {"lat": 38.86051966666667, "is_disabled": 0, "type": "electric_bike", "lon": -77.056431, "bike_id": "05428e8c38edc5b247ea4b2e83542c5a", "fusion_lat": 0.0, "name": "05428e8c38edc5b247ea4b2e83542c5a", "is_reserved": 0, "rental_uris": {"android": "https://dc.lft.to/lastmile_qr_scan", "ios": "https://dc.lft.to/lastmile_qr_scan"}, "fusion_lon": 0.0}, {"lat": 38.9358245, "is_disabled": 0, "type": "electric_bike", "lon": -77.024492, "bike_id": "ba4cfb2e2b73581819e4a8c544ff1793", "fusion_lat": 0.0, "name": "ba4cfb2e2b73581819e4a8c544ff1793", "is_reserved": 0, "rental_uris": {"android": "https://dc.lft.to/lastmile_qr_scan", "ios": "https://dc.lft.to/lastmile_qr_scan"}, "fusion_lon": 0.0}, {"lat": 38.954020166666666, "is_disabled": 0, "type": "electric_scooter", "lon": -77.02750166666667, "bike_id": "c277cd8aefc1951e408d9ae326e994ce", "fusion_lat": 0.0, "name": "c277cd8aefc1951e408d9ae326e994ce", "is_reserved": 0, "rental_uris": {"android": "https://dc.lft.to/lastmile_qr_scan", "ios": "https://dc.lft.to/lastmile_qr_scan"}, "fusion_lon": 0.0}, {"lat": 38.92993583333333, "is_disabled": 0, "type": "electric_scooter", "lon": -77.03659633333334, "bike_id": "8205c9eee60035e1c06b8db8a5fcb1b1", "fusion_lat": 0.0, "name": "8205c9eee60035e1c06b8db8a5fcb1b1", "is_reserved": 0, "rental_uris": {"android": "https://dc.lft.to/lastmile_qr_scan", "ios": "https://dc.lft.to/lastmile_qr_scan"}, "fusion_lon": 0.0}, {"lat": 38.89347083333333, "is_disabled": 0, "type": "electric_bike", "lon": -77.18744883333333, "bike_id": "0409fbef4c43079c2c43332eac4368b9", "fusion_lat": 0.0, "name": "0409fbef4c43079c2c43332eac4368b9", "is_reserved": 0, "rental_uris": {"android": "https://dc.lft.to/lastmile_qr_scan", "ios": "https://dc.lft.to/lastmile_qr_scan"}, "fusion_lon": 0.0}, {"lat": 38.90051033333334, "is_disabled": 0, "type": "electric_scooter", "lon": -77.01733333333334, "bike_id": "9ad39ccdbd9b35ddd88d9a4835d5c9ac", "fusion_lat": 0.0, "name": "9ad39ccdbd9b35ddd88d9a4835d5c9ac", "is_reserved": 0, "rental_uris": {"android": "https://dc.lft.to/lastmile_qr_scan", "ios": "https://dc.lft.to/lastmile_qr_scan"}, "fusion_lon": 0.0}, {"lat": 38.89805783333333, "is_disabled": 0, "type": "electric_bike", "lon": -77.04326966666666, "bike_id": "9ac1f95e12d2c5c1691754c9269b3a81", "fusion_lat": 0.0, "name": "9ac1f95e12d2c5c1691754c9269b3a81", "is_reserved": 0, "rental_uris": {"android": "https://dc.lft.to/lastmile_qr_scan", "ios": "https://dc.lft.to/lastmile_qr_scan"}, "fusion_lon": 0.0}, {"lat": 38.903863666666666, "is_disabled": 0, "type": "electric_scooter", "lon": -77.0396205, "bike_id": "e05fa2df2cf5b742b3aa0112683ade71", "fusion_lat": 0.0, "name": "e05fa2df2cf5b742b3aa0112683ade71", "is_reserved": 0, "rental_uris": {"android": "https://dc.lft.to/lastmile_qr_scan", "ios": "https://dc.lft.to/lastmile_qr_scan"}, "fusion_lon": 0.0}, {"lat": 38.905577, "is_disabled": 0, "type": "electric_scooter", "lon": -77.05691833333333, "bike_id": "3f18af725aa5dccdbbac9472fc92a5a5", "fusion_lat": 0.0, "name": "3f18af725aa5dccdbbac9472fc92a5a5", "is_reserved": 0, "rental_uris": {"android": "https://dc.lft.to/lastmile_qr_scan", "ios": "https://dc.lft.to/lastmile_qr_scan"}, "fusion_lon": 0.0}, {"lat": 38.902377666666666, "is_disabled": 0, "type": "electric_scooter", "lon": -77.04846216666667, "bike_id": "6a49d60a6818674b4b44ca5546a131d7", "fusion_lat": 0.0, "name": "6a49d60a6818674b4b44ca5546a131d7", "is_reserved": 0, "rental_uris": {"android": "https://dc.lft.to/lastmile_qr_scan", "ios": "https://dc.lft.to/lastmile_qr_scan"}, "fusion_lon": 0.0}, {"lat": 38.888096, "is_disabled": 0, "type": "electric_bike", "lon": -77.03827616666666, "bike_id": "6df95f8334735583223b967631308d36", "fusion_lat": 0.0, "name": "6df95f8334735583223b967631308d36", "is_reserved": 0, "rental_uris": {"android": "https://dc.lft.to/lastmile_qr_scan", "ios": "https://dc.lft.to/lastmile_qr_scan"}, "fusion_lon": 0.0}, {"lat": 38.93436066666666, "is_disabled": 0, "type": "electric_scooter", "lon": -77.02390783333334, "bike_id": "914bb213eaceca25933c9630a71660e4", "fusion_lat": 0.0, "name": "914bb213eaceca25933c9630a71660e4", "is_reserved": 0, "rental_uris": {"android": "https://dc.lft.to/lastmile_qr_scan", "ios": "https://dc.lft.to/lastmile_qr_scan"}, "fusion_lon": 0.0}, {"lat": 38.9164375, "is_disabled": 0, "type": "electric_scooter", "lon": -77.00069916666666, "bike_id": "8c5196d6cb60edbe6eda1c3bf4c001cf", "fusion_lat": 0.0, "name": "8c5196d6cb60edbe6eda1c3bf4c001cf", "is_reserved": 0, "rental_uris": {"android": "https://dc.lft.to/lastmile_qr_scan", "ios": "https://dc.lft.to/lastmile_qr_scan"}, "fusion_lon": 0.0}, {"lat": 38.92217683333333, "is_disabled": 0, "type": "electric_scooter", "lon": -77.042488, "bike_id": "5a555ee8fb6d78bb1c6d86be43d5d950", "fusion_lat": 0.0, "name": "5a555ee8fb6d78bb1c6d86be43d5d950", "is_reserved": 0, "rental_uris": {"android": "https://dc.lft.to/lastmile_qr_scan", "ios": "https://dc.lft.to/lastmile_qr_scan"}, "fusion_lon": 0.0}, {"lat": 38.923657, "is_disabled": 0, "type": "electric_scooter", "lon": -77.07684983333333, "bike_id": "de0fb765f537d6a2b978d4d97b0c2d58", "fusion_lat": 0.0, "name": "de0fb765f537d6a2b978d4d97b0c2d58", "is_reserved": 0, "rental_uris": {"android": "https://dc.lft.to/lastmile_qr_scan", "ios": "https://dc.lft.to/lastmile_qr_scan"}, "fusion_lon": 0.0}, {"lat": 38.90319266666667, "is_disabled": 0, "type": "electric_scooter", "lon": -77.03302583333334, "bike_id": "f58007d66217ca12e306f34c2912ed59", "fusion_lat": 0.0, "name": "f58007d66217ca12e306f34c2912ed59", "is_reserved": 0, "rental_uris": {"android": "https://dc.lft.to/lastmile_qr_scan", "ios": "https://dc.lft.to/lastmile_qr_scan"}, "fusion_lon": 0.0}, {"lat": 38.9061275, "is_disabled": 0, "type": "electric_scooter", "lon": -77.05854216666667, "bike_id": "0de98a6587dd87b2b5a3d89800abebc3", "fusion_lat": 0.0, "name": "0de98a6587dd87b2b5a3d89800abebc3", "is_reserved": 0, "rental_uris": {"android": "https://dc.lft.to/lastmile_qr_scan", "ios": "https://dc.lft.to/lastmile_qr_scan"}, "fusion_lon": 0.0}, {"lat": 38.92235866666667, "is_disabled": 0, "type": "electric_scooter", "lon": -77.02987783333333, "bike_id": "8cbccffae5b98988cba5d940991d4940", "fusion_lat": 0.0, "name": "8cbccffae5b98988cba5d940991d4940", "is_reserved": 0, "rental_uris": {"android": "https://dc.lft.to/lastmile_qr_scan", "ios": "https://dc.lft.to/lastmile_qr_scan"}, "fusion_lon": 0.0}, {"lat": 38.9055535, "is_disabled": 0, "type": "electric_scooter", "lon": -77.00609966666667, "bike_id": "ea6e1601d353b795a85ede1319c3bf4f", "fusion_lat": 0.0, "name": "ea6e1601d353b795a85ede1319c3bf4f", "is_reserved": 0, "rental_uris": {"android": "https://dc.lft.to/lastmile_qr_scan", "ios": "https://dc.lft.to/lastmile_qr_scan"}, "fusion_lon": 0.0}, {"lat": 38.891991166666664, "is_disabled": 0, "type": "electric_scooter", "lon": -77.01538616666667, "bike_id": "5cc2cd6188b29c034a863bf4610e4a33", "fusion_lat": 0.0, "name": "5cc2cd6188b29c034a863bf4610e4a33", "is_reserved": 0, "rental_uris": {"android": "https://dc.lft.to/lastmile_qr_scan", "ios": "https://dc.lft.to/lastmile_qr_scan"}, "fusion_lon": 0.0}, {"lat": 38.91816633333333, "is_disabled": 0, "type": "electric_scooter", "lon": -77.02475933333334, "bike_id": "9bdadace27073fb73639f31bb5f9d88a", "fusion_lat": 0.0, "name": "9bdadace27073fb73639f31bb5f9d88a", "is_reserved": 0, "rental_uris": {"android": "https://dc.lft.to/lastmile_qr_scan", "ios": "https://dc.lft.to/lastmile_qr_scan"}, "fusion_lon": 0.0}, {"lat": 38.92992183333333, "is_disabled": 0, "type": "electric_scooter", "lon": -76.99508216666666, "bike_id": "7692681ad78a5bc646bf6efd657139f7", "fusion_lat": 0.0, "name": "7692681ad78a5bc646bf6efd657139f7", "is_reserved": 0, "rental_uris": {"android": "https://dc.lft.to/lastmile_qr_scan", "ios": "https://dc.lft.to/lastmile_qr_scan"}, "fusion_lon": 0.0}, {"lat": 38.8842225, "is_disabled": 0, "type": "electric_bike", "lon": -76.98090333333333, "bike_id": "b706c2fe1b020e7e22b7adda0f0005ea", "fusion_lat": 0.0, "name": "b706c2fe1b020e7e22b7adda0f0005ea", "is_reserved": 0, "rental_uris": {"android": "https://dc.lft.to/lastmile_qr_scan", "ios": "https://dc.lft.to/lastmile_qr_scan"}, "fusion_lon": 0.0}, {"lat": 38.914450333333335, "is_disabled": 0, "type": "electric_scooter", "lon": -77.03842466666667, "bike_id": "835f8e021accadd59e7dcb4e0966ec1c", "fusion_lat": 0.0, "name": "835f8e021accadd59e7dcb4e0966ec1c", "is_reserved": 0, "rental_uris": {"android": "https://dc.lft.to/lastmile_qr_scan", "ios": "https://dc.lft.to/lastmile_qr_scan"}, "fusion_lon": 0.0}, {"lat": 38.949202, "is_disabled": 0, "type": "electric_bike", "lon": -77.07842016666666, "bike_id": "613fc7525e87d238c67deb76d2d225ba", "fusion_lat": 0.0, "name": "613fc7525e87d238c67deb76d2d225ba", "is_reserved": 0, "rental_uris": {"android": "https://dc.lft.to/lastmile_qr_scan", "ios": "https://dc.lft.to/lastmile_qr_scan"}, "fusion_lon": 0.0}, {"lat": 38.931433, "is_disabled": 0, "type": "electric_scooter", "lon": -77.0783805, "bike_id": "c3600b130126a3ab1e60f6d68f610508", "fusion_lat": 0.0, "name": "c3600b130126a3ab1e60f6d68f610508", "is_reserved": 0, "rental_uris": {"android": "https://dc.lft.to/lastmile_qr_scan", "ios": "https://dc.lft.to/lastmile_qr_scan"}, "fusion_lon": 0.0}, {"lat": 38.908963, "is_disabled": 0, "type": "electric_scooter", "lon": -77.08626766666667, "bike_id": "1405ce5fa59b8e375e971df65cbad073", "fusion_lat": 0.0, "name": "1405ce5fa59b8e375e971df65cbad073", "is_reserved": 0, "rental_uris": {"android": "https://dc.lft.to/lastmile_qr_scan", "ios": "https://dc.lft.to/lastmile_qr_scan"}, "fusion_lon": 0.0}, {"lat": 38.9052165, "is_disabled": 0, "type": "electric_scooter", "lon": -77.0678675, "bike_id": "79333d20c00faedda08e76913ef85ca1", "fusion_lat": 0.0, "name": "79333d20c00faedda08e76913ef85ca1", "is_reserved": 0, "rental_uris": {"android": "https://dc.lft.to/lastmile_qr_scan", "ios": "https://dc.lft.to/lastmile_qr_scan"}, "fusion_lon": 0.0}, {"lat": 38.90689116666667, "is_disabled": 0, "type": "electric_scooter", "lon": -77.04394866666667, "bike_id": "c15dbc82f59939ce12f271eb78b0f815", "fusion_lat": 0.0, "name": "c15dbc82f59939ce12f271eb78b0f815", "is_reserved": 0, "rental_uris": {"android": "https://dc.lft.to/lastmile_qr_scan", "ios": "https://dc.lft.to/lastmile_qr_scan"}, "fusion_lon": 0.0}, {"lat": 38.867505, "is_disabled": 0, "type": "electric_scooter", "lon": -76.986692, "bike_id": "10a50d2a889c55790e49ddca0a74a3be", "fusion_lat": 0.0, "name": "10a50d2a889c55790e49ddca0a74a3be", "is_reserved": 0, "rental_uris": {"android": "https://dc.lft.to/lastmile_qr_scan", "ios": "https://dc.lft.to/lastmile_qr_scan"}, "fusion_lon": 0.0}, {"lat": 38.91104466666667, "is_disabled": 0, "type": "electric_scooter", "lon": -77.03563166666666, "bike_id": "bf24ed6f56252a95107c523a872f46ba", "fusion_lat": 0.0, "name": "bf24ed6f56252a95107c523a872f46ba", "is_reserved": 0, "rental_uris": {"android": "https://dc.lft.to/lastmile_qr_scan", "ios": "https://dc.lft.to/lastmile_qr_scan"}, "fusion_lon": 0.0}, {"lat": 38.897627666666665, "is_disabled": 0, "type": "electric_scooter", "lon": -77.04367933333333, "bike_id": "4efb6a9c05470dc365966d114f7e99f8", "fusion_lat": 0.0, "name": "4efb6a9c05470dc365966d114f7e99f8", "is_reserved": 0, "rental_uris": {"android": "https://dc.lft.to/lastmile_qr_scan", "ios": "https://dc.lft.to/lastmile_qr_scan"}, "fusion_lon": 0.0}, {"lat": 38.90268716666667, "is_disabled": 0, "type": "electric_scooter", "lon": -77.03349266666666, "bike_id": "146a1385b858e5c9a376e55b84553265", "fusion_lat": 0.0, "name": "146a1385b858e5c9a376e55b84553265", "is_reserved": 0, "rental_uris": {"android": "https://dc.lft.to/lastmile_qr_scan", "ios": "https://dc.lft.to/lastmile_qr_scan"}, "fusion_lon": 0.0}, {"lat": 38.962857166666666, "is_disabled": 0, "type": "electric_bike", "lon": -77.03242966666667, "bike_id": "6c284eaa8dad0bed7a07f32cadb03336", "fusion_lat": 0.0, "name": "6c284eaa8dad0bed7a07f32cadb03336", "is_reserved": 0, "rental_uris": {"android": "https://dc.lft.to/lastmile_qr_scan", "ios": "https://dc.lft.to/lastmile_qr_scan"}, "fusion_lon": 0.0}, {"lat": 38.90283683333333, "is_disabled": 0, "type": "electric_scooter", "lon": -77.03304633333333, "bike_id": "1b22b35a589b4b96116a0e113914c0d7", "fusion_lat": 0.0, "name": "1b22b35a589b4b96116a0e113914c0d7", "is_reserved": 0, "rental_uris": {"android": "https://dc.lft.to/lastmile_qr_scan", "ios": "https://dc.lft.to/lastmile_qr_scan"}, "fusion_lon": 0.0}, {"lat": 38.949534666666665, "is_disabled": 0, "type": "electric_scooter", "lon": -77.01619933333333, "bike_id": "6bce97a7f94b86b15ce99c6ae65fe473", "fusion_lat": 0.0, "name": "6bce97a7f94b86b15ce99c6ae65fe473", "is_reserved": 0, "rental_uris": {"android": "https://dc.lft.to/lastmile_qr_scan", "ios": "https://dc.lft.to/lastmile_qr_scan"}, "fusion_lon": 0.0}, {"lat": 38.91568433333333, "is_disabled": 0, "type": "electric_scooter", "lon": -77.04668933333333, "bike_id": "fdb03f057ab59ca09e261c2b8cd783f3", "fusion_lat": 0.0, "name": "fdb03f057ab59ca09e261c2b8cd783f3", "is_reserved": 0, "rental_uris": {"android": "https://dc.lft.to/lastmile_qr_scan", "ios": "https://dc.lft.to/lastmile_qr_scan"}, "fusion_lon": 0.0}, {"lat": 38.883168833333336, "is_disabled": 0, "type": "electric_scooter", "lon": -77.01546916666666, "bike_id": "03fc27e00f9d1b86aba10fab63101022", "fusion_lat": 0.0, "name": "03fc27e00f9d1b86aba10fab63101022", "is_reserved": 0, "rental_uris": {"android": "https://dc.lft.to/lastmile_qr_scan", "ios": "https://dc.lft.to/lastmile_qr_scan"}, "fusion_lon": 0.0}, {"lat": 38.93312533333334, "is_disabled": 0, "type": "electric_scooter", "lon": -77.029707, "bike_id": "540a4ceda036b72103196e728cc97e9d", "fusion_lat": 0.0, "name": "540a4ceda036b72103196e728cc97e9d", "is_reserved": 0, "rental_uris": {"android": "https://dc.lft.to/lastmile_qr_scan", "ios": "https://dc.lft.to/lastmile_qr_scan"}, "fusion_lon": 0.0}, {"lat": 38.902166666666666, "is_disabled": 0, "type": "electric_scooter", "lon": -76.94590933333333, "bike_id": "e14a4c917b6bed2457e90555ebb28cd1", "fusion_lat": 0.0, "name": "e14a4c917b6bed2457e90555ebb28cd1", "is_reserved": 0, "rental_uris": {"android": "https://dc.lft.to/lastmile_qr_scan", "ios": "https://dc.lft.to/lastmile_qr_scan"}, "fusion_lon": 0.0}, {"lat": 38.93009983333334, "is_disabled": 0, "type": "electric_bike", "lon": -77.21651166666666, "bike_id": "9e785f549152b76b65e114e0372e78cf", "fusion_lat": 0.0, "name": "9e785f549152b76b65e114e0372e78cf", "is_reserved": 0, "rental_uris": {"android": "https://dc.lft.to/lastmile_qr_scan", "ios": "https://dc.lft.to/lastmile_qr_scan"}, "fusion_lon": 0.0}, {"lat": 38.919543833333336, "is_disabled": 0, "type": "electric_bike", "lon": -76.972721, "bike_id": "7305cfdd4dab0d3f7ba1d70de5f02160", "fusion_lat": 0.0, "name": "7305cfdd4dab0d3f7ba1d70de5f02160", "is_reserved": 0, "rental_uris": {"android": "https://dc.lft.to/lastmile_qr_scan", "ios": "https://dc.lft.to/lastmile_qr_scan"}, "fusion_lon": 0.0}, {"lat": 38.90384566666667, "is_disabled": 0, "type": "electric_scooter", "lon": -77.01095516666666, "bike_id": "98754f7ac6598bdef5c14b979b2a0994", "fusion_lat": 0.0, "name": "98754f7ac6598bdef5c14b979b2a0994", "is_reserved": 0, "rental_uris": {"android": "https://dc.lft.to/lastmile_qr_scan", "ios": "https://dc.lft.to/lastmile_qr_scan"}, "fusion_lon": 0.0}, {"lat": 38.95186366666667, "is_disabled": 0, "type": "electric_bike", "lon": -76.9672755, "bike_id": "6f3bdba44f5b147eff32b3b7203fc421", "fusion_lat": 0.0, "name": "6f3bdba44f5b147eff32b3b7203fc421", "is_reserved": 0, "rental_uris": {"android": "https://dc.lft.to/lastmile_qr_scan", "ios": "https://dc.lft.to/lastmile_qr_scan"}, "fusion_lon": 0.0}, {"lat": 38.929447833333334, "is_disabled": 0, "type": "electric_scooter", "lon": -77.05498616666667, "bike_id": "5d5ebe3489aa8ee1cbff3f792b8f129b", "fusion_lat": 0.0, "name": "5d5ebe3489aa8ee1cbff3f792b8f129b", "is_reserved": 0, "rental_uris": {"android": "https://dc.lft.to/lastmile_qr_scan", "ios": "https://dc.lft.to/lastmile_qr_scan"}, "fusion_lon": 0.0}, {"lat": 39.00014733333333, "is_disabled": 0, "type": "electric_bike", "lon": -76.91080266666667, "bike_id": "5d0f6630278622823c7e085e2846e525", "fusion_lat": 0.0, "name": "5d0f6630278622823c7e085e2846e525", "is_reserved": 0, "rental_uris": {"android": "https://dc.lft.to/lastmile_qr_scan", "ios": "https://dc.lft.to/lastmile_qr_scan"}, "fusion_lon": 0.0}, {"lat": 38.9068225, "is_disabled": 0, "type": "electric_scooter", "lon": -77.06358233333333, "bike_id": "ce5b0d952b423432b538adb4723da507", "fusion_lat": 0.0, "name": "ce5b0d952b423432b538adb4723da507", "is_reserved": 0, "rental_uris": {"android": "https://dc.lft.to/lastmile_qr_scan", "ios": "https://dc.lft.to/lastmile_qr_scan"}, "fusion_lon": 0.0}, {"lat": 38.8638185, "is_disabled": 0, "type": "electric_bike", "lon": -76.98993716666666, "bike_id": "ffe5f24cad96ad4ada36f4a966b4eb5d", "fusion_lat": 0.0, "name": "ffe5f24cad96ad4ada36f4a966b4eb5d", "is_reserved": 0, "rental_uris": {"android": "https://dc.lft.to/lastmile_qr_scan", "ios": "https://dc.lft.to/lastmile_qr_scan"}, "fusion_lon": 0.0}, {"lat": 38.86817516666667, "is_disabled": 0, "type": "electric_bike", "lon": -76.98029283333334, "bike_id": "70ea0595c9b692ad6975aa0294195c94", "fusion_lat": 0.0, "name": "70ea0595c9b692ad6975aa0294195c94", "is_reserved": 0, "rental_uris": {"android": "https://dc.lft.to/lastmile_qr_scan", "ios": "https://dc.lft.to/lastmile_qr_scan"}, "fusion_lon": 0.0}, {"lat": 38.918492, "is_disabled": 0, "type": "electric_scooter", "lon": -77.04507533333333, "bike_id": "d1424f096837fe06bf85f426e68a2621", "fusion_lat": 0.0, "name": "d1424f096837fe06bf85f426e68a2621", "is_reserved": 0, "rental_uris": {"android": "https://dc.lft.to/lastmile_qr_scan", "ios": "https://dc.lft.to/lastmile_qr_scan"}, "fusion_lon": 0.0}, {"lat": 38.933135166666666, "is_disabled": 0, "type": "electric_scooter", "lon": -77.03290433333333, "bike_id": "af9d19478a039d7f8bb52e4dbd097fed", "fusion_lat": 0.0, "name": "af9d19478a039d7f8bb52e4dbd097fed", "is_reserved": 0, "rental_uris": {"android": "https://dc.lft.to/lastmile_qr_scan", "ios": "https://dc.lft.to/lastmile_qr_scan"}, "fusion_lon": 0.0}, {"lat": 38.900092666666666, "is_disabled": 0, "type": "electric_scooter", "lon": -76.99082533333333, "bike_id": "dfdbcea80db188ce34e2da055e38bc96", "fusion_lat": 0.0, "name": "dfdbcea80db188ce34e2da055e38bc96", "is_reserved": 0, "rental_uris": {"android": "https://dc.lft.to/lastmile_qr_scan", "ios": "https://dc.lft.to/lastmile_qr_scan"}, "fusion_lon": 0.0}, {"lat": 38.895256, "is_disabled": 0, "type": "electric_scooter", "lon": -77.0321335, "bike_id": "bcc5252814f2e2541c69ab9a403b87d1", "fusion_lat": 0.0, "name": "bcc5252814f2e2541c69ab9a403b87d1", "is_reserved": 0, "rental_uris": {"android": "https://dc.lft.to/lastmile_qr_scan", "ios": "https://dc.lft.to/lastmile_qr_scan"}, "fusion_lon": 0.0}, {"lat": 38.923141666666666, "is_disabled": 0, "type": "electric_scooter", "lon": -77.04622066666667, "bike_id": "66a14245ed804145c19a3a97f0003413", "fusion_lat": 0.0, "name": "66a14245ed804145c19a3a97f0003413", "is_reserved": 0, "rental_uris": {"android": "https://dc.lft.to/lastmile_qr_scan", "ios": "https://dc.lft.to/lastmile_qr_scan"}, "fusion_lon": 0.0}, {"lat": 38.92341866666666, "is_disabled": 0, "type": "electric_scooter", "lon": -77.05057116666667, "bike_id": "aaac62c99b0461805e5e46f71fedf151", "fusion_lat": 0.0, "name": "aaac62c99b0461805e5e46f71fedf151", "is_reserved": 0, "rental_uris": {"android": "https://dc.lft.to/lastmile_qr_scan", "ios": "https://dc.lft.to/lastmile_qr_scan"}, "fusion_lon": 0.0}, {"lat": 38.973685333333336, "is_disabled": 0, "type": "electric_scooter", "lon": -77.01869183333334, "bike_id": "2fd57472d8f8ef0fa351cf67d43dd4cf", "fusion_lat": 0.0, "name": "2fd57472d8f8ef0fa351cf67d43dd4cf", "is_reserved": 0, "rental_uris": {"android": "https://dc.lft.to/lastmile_qr_scan", "ios": "https://dc.lft.to/lastmile_qr_scan"}, "fusion_lon": 0.0}, {"lat": 38.86729066666667, "is_disabled": 0, "type": "electric_scooter", "lon": -76.98786216666667, "bike_id": "fb270f20f920fe033e257de5428047e4", "fusion_lat": 0.0, "name": "fb270f20f920fe033e257de5428047e4", "is_reserved": 0, "rental_uris": {"android": "https://dc.lft.to/lastmile_qr_scan", "ios": "https://dc.lft.to/lastmile_qr_scan"}, "fusion_lon": 0.0}, {"lat": 38.9056505, "is_disabled": 0, "type": "electric_scooter", "lon": -77.00614, "bike_id": "17b87eca329efcc4e43c32cb22637472", "fusion_lat": 0.0, "name": "17b87eca329efcc4e43c32cb22637472", "is_reserved": 0, "rental_uris": {"android": "https://dc.lft.to/lastmile_qr_scan", "ios": "https://dc.lft.to/lastmile_qr_scan"}, "fusion_lon": 0.0}, {"lat": 38.92213266666667, "is_disabled": 0, "type": "electric_scooter", "lon": -77.042425, "bike_id": "3471fd61936f40b2d2677b504f855bfd", "fusion_lat": 0.0, "name": "3471fd61936f40b2d2677b504f855bfd", "is_reserved": 0, "rental_uris": {"android": "https://dc.lft.to/lastmile_qr_scan", "ios": "https://dc.lft.to/lastmile_qr_scan"}, "fusion_lon": 0.0}, {"lat": 38.91665033333334, "is_disabled": 0, "type": "electric_scooter", "lon": -77.00663, "bike_id": "fb5b49814d295b416f2ddd5903e8b4fe", "fusion_lat": 0.0, "name": "fb5b49814d295b416f2ddd5903e8b4fe", "is_reserved": 0, "rental_uris": {"android": "https://dc.lft.to/lastmile_qr_scan", "ios": "https://dc.lft.to/lastmile_qr_scan"}, "fusion_lon": 0.0}, {"lat": 38.940529, "is_disabled": 0, "type": "electric_scooter", "lon": -77.09270816666667, "bike_id": "95ee5959e5227a8cdc0995d09125c897", "fusion_lat": 0.0, "name": "95ee5959e5227a8cdc0995d09125c897", "is_reserved": 0, "rental_uris": {"android": "https://dc.lft.to/lastmile_qr_scan", "ios": "https://dc.lft.to/lastmile_qr_scan"}, "fusion_lon": 0.0}, {"lat": 38.91980516666667, "is_disabled": 0, "type": "electric_scooter", "lon": -77.04162233333334, "bike_id": "2474c9dd8681be58aad2c76bfb73421e", "fusion_lat": 0.0, "name": "2474c9dd8681be58aad2c76bfb73421e", "is_reserved": 0, "rental_uris": {"android": "https://dc.lft.to/lastmile_qr_scan", "ios": "https://dc.lft.to/lastmile_qr_scan"}, "fusion_lon": 0.0}, {"lat": 38.90902583333333, "is_disabled": 0, "type": "electric_scooter", "lon": -77.04669766666666, "bike_id": "5dda84561667a5df5a2b3ee39a831c00", "fusion_lat": 0.0, "name": "5dda84561667a5df5a2b3ee39a831c00", "is_reserved": 0, "rental_uris": {"android": "https://dc.lft.to/lastmile_qr_scan", "ios": "https://dc.lft.to/lastmile_qr_scan"}, "fusion_lon": 0.0}, {"lat": 38.8428965, "is_disabled": 0, "type": "electric_scooter", "lon": -76.99955016666667, "bike_id": "f1438881c444624cc74655b64dc59115", "fusion_lat": 0.0, "name": "f1438881c444624cc74655b64dc59115", "is_reserved": 0, "rental_uris": {"android": "https://dc.lft.to/lastmile_qr_scan", "ios": "https://dc.lft.to/lastmile_qr_scan"}, "fusion_lon": 0.0}, {"lat": 38.906829333333334, "is_disabled": 0, "type": "electric_scooter", "lon": -76.99955483333333, "bike_id": "52ee4a7c241f7a30c8fa2ff64a80e28f", "fusion_lat": 0.0, "name": "52ee4a7c241f7a30c8fa2ff64a80e28f", "is_reserved": 0, "rental_uris": {"android": "https://dc.lft.to/lastmile_qr_scan", "ios": "https://dc.lft.to/lastmile_qr_scan"}, "fusion_lon": 0.0}, {"lat": 38.89756783333333, "is_disabled": 0, "type": "electric_scooter", "lon": -77.02733283333333, "bike_id": "e5330d61b3557438ac9c74e8ef5b933d", "fusion_lat": 0.0, "name": "e5330d61b3557438ac9c74e8ef5b933d", "is_reserved": 0, "rental_uris": {"android": "https://dc.lft.to/lastmile_qr_scan", "ios": "https://dc.lft.to/lastmile_qr_scan"}, "fusion_lon": 0.0}, {"lat": 38.91689016666667, "is_disabled": 0, "type": "electric_scooter", "lon": -77.02314783333334, "bike_id": "589e4cd3e341f1ad59884146c5eebb09", "fusion_lat": 0.0, "name": "589e4cd3e341f1ad59884146c5eebb09", "is_reserved": 0, "rental_uris": {"android": "https://dc.lft.to/lastmile_qr_scan", "ios": "https://dc.lft.to/lastmile_qr_scan"}, "fusion_lon": 0.0}, {"lat": 38.90011666666667, "is_disabled": 0, "type": "electric_scooter", "lon": -76.99126283333334, "bike_id": "534977182ab9b00ace25bf6839eac367", "fusion_lat": 0.0, "name": "534977182ab9b00ace25bf6839eac367", "is_reserved": 0, "rental_uris": {"android": "https://dc.lft.to/lastmile_qr_scan", "ios": "https://dc.lft.to/lastmile_qr_scan"}, "fusion_lon": 0.0}, {"lat": 38.91030216666667, "is_disabled": 0, "type": "electric_scooter", "lon": -77.03455433333333, "bike_id": "164731f9f89b032ead72d2286b4c520e", "fusion_lat": 0.0, "name": "164731f9f89b032ead72d2286b4c520e", "is_reserved": 0, "rental_uris": {"android": "https://dc.lft.to/lastmile_qr_scan", "ios": "https://dc.lft.to/lastmile_qr_scan"}, "fusion_lon": 0.0}, {"lat": 38.85210883333333, "is_disabled": 0, "type": "electric_bike", "lon": -77.1295935, "bike_id": "fc58ed9c6dbee09c3311cc764ef76803", "fusion_lat": 0.0, "name": "fc58ed9c6dbee09c3311cc764ef76803", "is_reserved": 0, "rental_uris": {"android": "https://dc.lft.to/lastmile_qr_scan", "ios": "https://dc.lft.to/lastmile_qr_scan"}, "fusion_lon": 0.0}, {"lat": 38.903666, "is_disabled": 0, "type": "electric_scooter", "lon": -77.04041433333333, "bike_id": "f72c325115a2fd49e516556f4ee2b2bb", "fusion_lat": 0.0, "name": "f72c325115a2fd49e516556f4ee2b2bb", "is_reserved": 0, "rental_uris": {"android": "https://dc.lft.to/lastmile_qr_scan", "ios": "https://dc.lft.to/lastmile_qr_scan"}, "fusion_lon": 0.0}, {"lat": 38.91105266666667, "is_disabled": 0, "type": "electric_scooter", "lon": -77.0450745, "bike_id": "ece41f1fe344239574b7458994d7405f", "fusion_lat": 0.0, "name": "ece41f1fe344239574b7458994d7405f", "is_reserved": 0, "rental_uris": {"android": "https://dc.lft.to/lastmile_qr_scan", "ios": "https://dc.lft.to/lastmile_qr_scan"}, "fusion_lon": 0.0}, {"lat": 38.8659375, "is_disabled": 0, "type": "electric_bike", "lon": -76.932288, "bike_id": "0ffcf3ce306daaf8caf0deee4508954a", "fusion_lat": 0.0, "name": "0ffcf3ce306daaf8caf0deee4508954a", "is_reserved": 0, "rental_uris": {"android": "https://dc.lft.to/lastmile_qr_scan", "ios": "https://dc.lft.to/lastmile_qr_scan"}, "fusion_lon": 0.0}, {"lat": 38.9004095, "is_disabled": 0, "type": "electric_scooter", "lon": -77.0074485, "bike_id": "cde66237d401eb8a0df81dc66a1e3cac", "fusion_lat": 0.0, "name": "cde66237d401eb8a0df81dc66a1e3cac", "is_reserved": 0, "rental_uris": {"android": "https://dc.lft.to/lastmile_qr_scan", "ios": "https://dc.lft.to/lastmile_qr_scan"}, "fusion_lon": 0.0}, {"lat": 38.91325366666667, "is_disabled": 0, "type": "electric_scooter", "lon": -77.03186933333333, "bike_id": "a197fee65a128878c01d204dc7d2c6b2", "fusion_lat": 0.0, "name": "a197fee65a128878c01d204dc7d2c6b2", "is_reserved": 0, "rental_uris": {"android": "https://dc.lft.to/lastmile_qr_scan", "ios": "https://dc.lft.to/lastmile_qr_scan"}, "fusion_lon": 0.0}, {"lat": 38.915444666666666, "is_disabled": 0, "type": "electric_scooter", "lon": -77.038426, "bike_id": "f71653f533e199afd7a14d751e2e4929", "fusion_lat": 0.0, "name": "f71653f533e199afd7a14d751e2e4929", "is_reserved": 0, "rental_uris": {"android": "https://dc.lft.to/lastmile_qr_scan", "ios": "https://dc.lft.to/lastmile_qr_scan"}, "fusion_lon": 0.0}, {"lat": 38.921700333333334, "is_disabled": 0, "type": "electric_scooter", "lon": -77.05139316666667, "bike_id": "5c9df4fdb552b12ebdeadebb76274267", "fusion_lat": 0.0, "name": "5c9df4fdb552b12ebdeadebb76274267", "is_reserved": 0, "rental_uris": {"android": "https://dc.lft.to/lastmile_qr_scan", "ios": "https://dc.lft.to/lastmile_qr_scan"}, "fusion_lon": 0.0}, {"lat": 38.9106495, "is_disabled": 0, "type": "electric_scooter", "lon": -77.016425, "bike_id": "0006df8ae24a458e7ac4485ea6782f23", "fusion_lat": 0.0, "name": "0006df8ae24a458e7ac4485ea6782f23", "is_reserved": 0, "rental_uris": {"android": "https://dc.lft.to/lastmile_qr_scan", "ios": "https://dc.lft.to/lastmile_qr_scan"}, "fusion_lon": 0.0}, {"lat": 38.98462166666667, "is_disabled": 0, "type": "electric_bike", "lon": -76.95529633333334, "bike_id": "c2755105283105d70108c7d813a31cea", "fusion_lat": 0.0, "name": "c2755105283105d70108c7d813a31cea", "is_reserved": 0, "rental_uris": {"android": "https://dc.lft.to/lastmile_qr_scan", "ios": "https://dc.lft.to/lastmile_qr_scan"}, "fusion_lon": 0.0}, {"lat": 38.90740816666667, "is_disabled": 0, "type": "electric_scooter", "lon": -77.04227366666667, "bike_id": "0463ba55a25245463d22ace5bd7dd858", "fusion_lat": 0.0, "name": "0463ba55a25245463d22ace5bd7dd858", "is_reserved": 0, "rental_uris": {"android": "https://dc.lft.to/lastmile_qr_scan", "ios": "https://dc.lft.to/lastmile_qr_scan"}, "fusion_lon": 0.0}, {"lat": 38.917806166666665, "is_disabled": 0, "type": "electric_scooter", "lon": -77.02310933333334, "bike_id": "bc0921de9ae9d2cdaabc9e6f9271b53a", "fusion_lat": 0.0, "name": "bc0921de9ae9d2cdaabc9e6f9271b53a", "is_reserved": 0, "rental_uris": {"android": "https://dc.lft.to/lastmile_qr_scan", "ios": "https://dc.lft.to/lastmile_qr_scan"}, "fusion_lon": 0.0}, {"lat": 38.98588816666667, "is_disabled": 0, "type": "electric_bike", "lon": -77.0376135, "bike_id": "26d86db6b95ca1b5838e075b27e73f96", "fusion_lat": 0.0, "name": "26d86db6b95ca1b5838e075b27e73f96", "is_reserved": 0, "rental_uris": {"android": "https://dc.lft.to/lastmile_qr_scan", "ios": "https://dc.lft.to/lastmile_qr_scan"}, "fusion_lon": 0.0}, {"lat": 38.887728833333334, "is_disabled": 0, "type": "electric_scooter", "lon": -76.97646866666666, "bike_id": "8872aed7c261e5887d80b408e9bf77c8", "fusion_lat": 0.0, "name": "8872aed7c261e5887d80b408e9bf77c8", "is_reserved": 0, "rental_uris": {"android": "https://dc.lft.to/lastmile_qr_scan", "ios": "https://dc.lft.to/lastmile_qr_scan"}, "fusion_lon": 0.0}, {"lat": 38.927909666666665, "is_disabled": 0, "type": "electric_scooter", "lon": -77.03152783333333, "bike_id": "4460078522862b1c5659eeb5ef5b6ad5", "fusion_lat": 0.0, "name": "4460078522862b1c5659eeb5ef5b6ad5", "is_reserved": 0, "rental_uris": {"android": "https://dc.lft.to/lastmile_qr_scan", "ios": "https://dc.lft.to/lastmile_qr_scan"}, "fusion_lon": 0.0}, {"lat": 38.863682, "is_disabled": 0, "type": "electric_scooter", "lon": -76.99046266666667, "bike_id": "3083472889ebdadae9ec199bb0dc8888", "fusion_lat": 0.0, "name": "3083472889ebdadae9ec199bb0dc8888", "is_reserved": 0, "rental_uris": {"android": "https://dc.lft.to/lastmile_qr_scan", "ios": "https://dc.lft.to/lastmile_qr_scan"}, "fusion_lon": 0.0}, {"lat": 38.939829333333336, "is_disabled": 0, "type": "electric_scooter", "lon": -77.03267916666667, "bike_id": "7620d8ce508dceb3b628982732114dd9", "fusion_lat": 0.0, "name": "7620d8ce508dceb3b628982732114dd9", "is_reserved": 0, "rental_uris": {"android": "https://dc.lft.to/lastmile_qr_scan", "ios": "https://dc.lft.to/lastmile_qr_scan"}, "fusion_lon": 0.0}, {"lat": 38.912583833333336, "is_disabled": 0, "type": "electric_scooter", "lon": -77.03628483333334, "bike_id": "b6ced0b250a12755843e5e3d1f176e80", "fusion_lat": 0.0, "name": "b6ced0b250a12755843e5e3d1f176e80", "is_reserved": 0, "rental_uris": {"android": "https://dc.lft.to/lastmile_qr_scan", "ios": "https://dc.lft.to/lastmile_qr_scan"}, "fusion_lon": 0.0}, {"lat": 38.87112316666666, "is_disabled": 0, "type": "electric_scooter", "lon": -77.01078516666666, "bike_id": "e9ddcd4c9dd0b889f0d2f88b6fd36f7f", "fusion_lat": 0.0, "name": "e9ddcd4c9dd0b889f0d2f88b6fd36f7f", "is_reserved": 0, "rental_uris": {"android": "https://dc.lft.to/lastmile_qr_scan", "ios": "https://dc.lft.to/lastmile_qr_scan"}, "fusion_lon": 0.0}, {"lat": 38.91342433333333, "is_disabled": 0, "type": "electric_scooter", "lon": -77.04359216666667, "bike_id": "4e6627277d8cf221ce977671999db824", "fusion_lat": 0.0, "name": "4e6627277d8cf221ce977671999db824", "is_reserved": 0, "rental_uris": {"android": "https://dc.lft.to/lastmile_qr_scan", "ios": "https://dc.lft.to/lastmile_qr_scan"}, "fusion_lon": 0.0}, {"lat": 38.951796, "is_disabled": 0, "type": "electric_bike", "lon": -76.93546383333333, "bike_id": "9c93affabde52e01ae4066905dd2c4ee", "fusion_lat": 0.0, "name": "9c93affabde52e01ae4066905dd2c4ee", "is_reserved": 0, "rental_uris": {"android": "https://dc.lft.to/lastmile_qr_scan", "ios": "https://dc.lft.to/lastmile_qr_scan"}, "fusion_lon": 0.0}, {"lat": 38.939324666666664, "is_disabled": 0, "type": "electric_scooter", "lon": -77.02226066666667, "bike_id": "3d9f7cb73f878bc8ef3a942ef0635793", "fusion_lat": 0.0, "name": "3d9f7cb73f878bc8ef3a942ef0635793", "is_reserved": 0, "rental_uris": {"android": "https://dc.lft.to/lastmile_qr_scan", "ios": "https://dc.lft.to/lastmile_qr_scan"}, "fusion_lon": 0.0}, {"lat": 38.877301333333335, "is_disabled": 0, "type": "electric_bike", "lon": -77.1185375, "bike_id": "582bee7b53093c613b140593f80dbf97", "fusion_lat": 0.0, "name": "582bee7b53093c613b140593f80dbf97", "is_reserved": 0, "rental_uris": {"android": "https://dc.lft.to/lastmile_qr_scan", "ios": "https://dc.lft.to/lastmile_qr_scan"}, "fusion_lon": 0.0}, {"lat": 38.916769, "is_disabled": 0, "type": "electric_scooter", "lon": -77.03687633333334, "bike_id": "d4033d02ccfa3b128cb2493adfd3996e", "fusion_lat": 0.0, "name": "d4033d02ccfa3b128cb2493adfd3996e", "is_reserved": 0, "rental_uris": {"android": "https://dc.lft.to/lastmile_qr_scan", "ios": "https://dc.lft.to/lastmile_qr_scan"}, "fusion_lon": 0.0}, {"lat": 38.918124666666664, "is_disabled": 0, "type": "electric_scooter", "lon": -77.02795466666667, "bike_id": "e12df983c045e1f475c48d862b77cbb9", "fusion_lat": 0.0, "name": "e12df983c045e1f475c48d862b77cbb9", "is_reserved": 0, "rental_uris": {"android": "https://dc.lft.to/lastmile_qr_scan", "ios": "https://dc.lft.to/lastmile_qr_scan"}, "fusion_lon": 0.0}, {"lat": 38.94630566666667, "is_disabled": 0, "type": "electric_scooter", "lon": -77.02523683333334, "bike_id": "003391dc4338e2396587de521263f25e", "fusion_lat": 0.0, "name": "003391dc4338e2396587de521263f25e", "is_reserved": 0, "rental_uris": {"android": "https://dc.lft.to/lastmile_qr_scan", "ios": "https://dc.lft.to/lastmile_qr_scan"}, "fusion_lon": 0.0}, {"lat": 38.913394, "is_disabled": 0, "type": "electric_scooter", "lon": -77.010638, "bike_id": "e083801679a46efa334de31aaf9fd216", "fusion_lat": 0.0, "name": "e083801679a46efa334de31aaf9fd216", "is_reserved": 0, "rental_uris": {"android": "https://dc.lft.to/lastmile_qr_scan", "ios": "https://dc.lft.to/lastmile_qr_scan"}, "fusion_lon": 0.0}, {"lat": 38.9025635, "is_disabled": 0, "type": "electric_scooter", "lon": -77.0347465, "bike_id": "b05479e81989ba1abd49591d48a904b5", "fusion_lat": 0.0, "name": "b05479e81989ba1abd49591d48a904b5", "is_reserved": 0, "rental_uris": {"android": "https://dc.lft.to/lastmile_qr_scan", "ios": "https://dc.lft.to/lastmile_qr_scan"}, "fusion_lon": 0.0}, {"lat": 38.9214495, "is_disabled": 0, "type": "electric_scooter", "lon": -77.0423635, "bike_id": "8286e6e424424a953b5d9bd096101740", "fusion_lat": 0.0, "name": "8286e6e424424a953b5d9bd096101740", "is_reserved": 0, "rental_uris": {"android": "https://dc.lft.to/lastmile_qr_scan", "ios": "https://dc.lft.to/lastmile_qr_scan"}, "fusion_lon": 0.0}, {"lat": 38.8922185, "is_disabled": 0, "type": "electric_scooter", "lon": -77.03224716666666, "bike_id": "454c727e294033173a4fcb92a9d77692", "fusion_lat": 0.0, "name": "454c727e294033173a4fcb92a9d77692", "is_reserved": 0, "rental_uris": {"android": "https://dc.lft.to/lastmile_qr_scan", "ios": "https://dc.lft.to/lastmile_qr_scan"}, "fusion_lon": 0.0}, {"lat": 38.9205615, "is_disabled": 0, "type": "electric_scooter", "lon": -77.042773, "bike_id": "a47d1c6b4470febee7a67c2b25a41d9b", "fusion_lat": 0.0, "name": "a47d1c6b4470febee7a67c2b25a41d9b", "is_reserved": 0, "rental_uris": {"android": "https://dc.lft.to/lastmile_qr_scan", "ios": "https://dc.lft.to/lastmile_qr_scan"}, "fusion_lon": 0.0}, {"lat": 38.936021833333335, "is_disabled": 0, "type": "electric_scooter", "lon": -77.05725116666666, "bike_id": "f172df8b0d761a95b0e2398032ff8a82", "fusion_lat": 0.0, "name": "f172df8b0d761a95b0e2398032ff8a82", "is_reserved": 0, "rental_uris": {"android": "https://dc.lft.to/lastmile_qr_scan", "ios": "https://dc.lft.to/lastmile_qr_scan"}, "fusion_lon": 0.0}, {"lat": 38.922561333333334, "is_disabled": 0, "type": "electric_scooter", "lon": -77.03327933333334, "bike_id": "bee70739d5a02cce864f639a29d91cc6", "fusion_lat": 0.0, "name": "bee70739d5a02cce864f639a29d91cc6", "is_reserved": 0, "rental_uris": {"android": "https://dc.lft.to/lastmile_qr_scan", "ios": "https://dc.lft.to/lastmile_qr_scan"}, "fusion_lon": 0.0}, {"lat": 38.917225, "is_disabled": 0, "type": "electric_scooter", "lon": -77.036634, "bike_id": "1353e70b36409523084df40cb2ddbfe4", "fusion_lat": 0.0, "name": "1353e70b36409523084df40cb2ddbfe4", "is_reserved": 0, "rental_uris": {"android": "https://dc.lft.to/lastmile_qr_scan", "ios": "https://dc.lft.to/lastmile_qr_scan"}, "fusion_lon": 0.0}, {"lat": 38.90037683333333, "is_disabled": 0, "type": "electric_scooter", "lon": -77.0404415, "bike_id": "05a9fcf0b3888523a12df1de642a2c45", "fusion_lat": 0.0, "name": "05a9fcf0b3888523a12df1de642a2c45", "is_reserved": 0, "rental_uris": {"android": "https://dc.lft.to/lastmile_qr_scan", "ios": "https://dc.lft.to/lastmile_qr_scan"}, "fusion_lon": 0.0}, {"lat": 38.932467833333334, "is_disabled": 0, "type": "electric_bike", "lon": -76.99642266666666, "bike_id": "7e18d7187611118b97c0ccc509369e69", "fusion_lat": 0.0, "name": "7e18d7187611118b97c0ccc509369e69", "is_reserved": 0, "rental_uris": {"android": "https://dc.lft.to/lastmile_qr_scan", "ios": "https://dc.lft.to/lastmile_qr_scan"}, "fusion_lon": 0.0}, {"lat": 38.880151833333336, "is_disabled": 0, "type": "electric_bike", "lon": -77.005829, "bike_id": "459f123326388b940aabc64a3cf4ecc1", "fusion_lat": 0.0, "name": "459f123326388b940aabc64a3cf4ecc1", "is_reserved": 0, "rental_uris": {"android": "https://dc.lft.to/lastmile_qr_scan", "ios": "https://dc.lft.to/lastmile_qr_scan"}, "fusion_lon": 0.0}, {"lat": 38.88616066666667, "is_disabled": 0, "type": "electric_scooter", "lon": -77.02166883333334, "bike_id": "235b755a6288442c75266a084a0c8f09", "fusion_lat": 0.0, "name": "235b755a6288442c75266a084a0c8f09", "is_reserved": 0, "rental_uris": {"android": "https://dc.lft.to/lastmile_qr_scan", "ios": "https://dc.lft.to/lastmile_qr_scan"}, "fusion_lon": 0.0}, {"lat": 38.92073116666667, "is_disabled": 0, "type": "electric_scooter", "lon": -77.02316166666667, "bike_id": "b0f5d0f83faeda48ec59137662675086", "fusion_lat": 0.0, "name": "b0f5d0f83faeda48ec59137662675086", "is_reserved": 0, "rental_uris": {"android": "https://dc.lft.to/lastmile_qr_scan", "ios": "https://dc.lft.to/lastmile_qr_scan"}, "fusion_lon": 0.0}, {"lat": 38.904901333333335, "is_disabled": 0, "type": "electric_scooter", "lon": -77.05138733333334, "bike_id": "26b4989a1c6658bc4317fa7bd2aa4b2d", "fusion_lat": 0.0, "name": "26b4989a1c6658bc4317fa7bd2aa4b2d", "is_reserved": 0, "rental_uris": {"android": "https://dc.lft.to/lastmile_qr_scan", "ios": "https://dc.lft.to/lastmile_qr_scan"}, "fusion_lon": 0.0}, {"lat": 38.9170805, "is_disabled": 0, "type": "electric_scooter", "lon": -77.02960383333334, "bike_id": "cf1c8877455f44d9f7923cf948d21a65", "fusion_lat": 0.0, "name": "cf1c8877455f44d9f7923cf948d21a65", "is_reserved": 0, "rental_uris": {"android": "https://dc.lft.to/lastmile_qr_scan", "ios": "https://dc.lft.to/lastmile_qr_scan"}, "fusion_lon": 0.0}, {"lat": 38.93007266666667, "is_disabled": 0, "type": "electric_scooter", "lon": -77.05528866666667, "bike_id": "1eaad80841b202c6834647b7e812510c", "fusion_lat": 0.0, "name": "1eaad80841b202c6834647b7e812510c", "is_reserved": 0, "rental_uris": {"android": "https://dc.lft.to/lastmile_qr_scan", "ios": "https://dc.lft.to/lastmile_qr_scan"}, "fusion_lon": 0.0}, {"lat": 38.859454166666666, "is_disabled": 0, "type": "electric_scooter", "lon": -76.99103583333333, "bike_id": "0ca718a0b8f4d6c08a4379e366880266", "fusion_lat": 0.0, "name": "0ca718a0b8f4d6c08a4379e366880266", "is_reserved": 0, "rental_uris": {"android": "https://dc.lft.to/lastmile_qr_scan", "ios": "https://dc.lft.to/lastmile_qr_scan"}, "fusion_lon": 0.0}, {"lat": 38.93979933333333, "is_disabled": 0, "type": "electric_scooter", "lon": -77.03269383333334, "bike_id": "f328ab499fc7f5575ad490c6f1a5edcf", "fusion_lat": 0.0, "name": "f328ab499fc7f5575ad490c6f1a5edcf", "is_reserved": 0, "rental_uris": {"android": "https://dc.lft.to/lastmile_qr_scan", "ios": "https://dc.lft.to/lastmile_qr_scan"}, "fusion_lon": 0.0}, {"lat": 38.911328166666664, "is_disabled": 0, "type": "electric_scooter", "lon": -77.04656733333333, "bike_id": "4c567c98bd6f5cb6772723b5023523c1", "fusion_lat": 0.0, "name": "4c567c98bd6f5cb6772723b5023523c1", "is_reserved": 0, "rental_uris": {"android": "https://dc.lft.to/lastmile_qr_scan", "ios": "https://dc.lft.to/lastmile_qr_scan"}, "fusion_lon": 0.0}, {"lat": 38.91808233333333, "is_disabled": 0, "type": "electric_scooter", "lon": -77.03310133333333, "bike_id": "a2f71a48ff0e31fce37174e19d2e4468", "fusion_lat": 0.0, "name": "a2f71a48ff0e31fce37174e19d2e4468", "is_reserved": 0, "rental_uris": {"android": "https://dc.lft.to/lastmile_qr_scan", "ios": "https://dc.lft.to/lastmile_qr_scan"}, "fusion_lon": 0.0}, {"lat": 38.92479933333333, "is_disabled": 0, "type": "electric_scooter", "lon": -77.0263695, "bike_id": "e75b31b0949e583eb0725133072b0418", "fusion_lat": 0.0, "name": "e75b31b0949e583eb0725133072b0418", "is_reserved": 0, "rental_uris": {"android": "https://dc.lft.to/lastmile_qr_scan", "ios": "https://dc.lft.to/lastmile_qr_scan"}, "fusion_lon": 0.0}, {"lat": 38.89862983333333, "is_disabled": 0, "type": "electric_scooter", "lon": -77.027308, "bike_id": "27d6058cad6bb28bf8df43d1b68243fd", "fusion_lat": 0.0, "name": "27d6058cad6bb28bf8df43d1b68243fd", "is_reserved": 0, "rental_uris": {"android": "https://dc.lft.to/lastmile_qr_scan", "ios": "https://dc.lft.to/lastmile_qr_scan"}, "fusion_lon": 0.0},