{"data": {"bikes": [{"lon": -77.05735633333333, "bike_id": "29d7de374345173c661158b6db7eb3aa", "lat": 38.924253, "fusion_lon": 0.0, "fusion_lat": 0.0, "type": "electric_scooter", "name": "29d7de374345173c661158b6db7eb3aa", "is_disabled": 0, "rental_uris": {"ios": "https://dc.lft.to/lastmile_qr_scan", "android": "https://dc.lft.to/lastmile_qr_scan"}, "is_reserved": 0}, {"lon": -77.02235766666666, "bike_id": "5fddfb09aba8533392a47c6120b458e9", "lat": 38.9085195, "fusion_lon": 0.0, "fusion_lat": 0.0, "type": "electric_scooter", "name": "5fddfb09aba8533392a47c6120b458e9", "is_disabled": 0, "rental_uris": {"ios": "https://dc.lft.to/lastmile_qr_scan", "android": "https://dc.lft.to/lastmile_qr_scan"}, "is_reserved": 0}, {"lon": -77.03332083333333, "bike_id": "1f7f05ca5e83347f90d1043b015c6a7b", "lat": 38.9604725, "fusion_lon": 0.0, "fusion_lat": 0.0, "type": "electric_scooter", "name": "1f7f05ca5e83347f90d1043b015c6a7b", "is_disabled": 0, "rental_uris": {"ios": "https://dc.lft.to/lastmile_qr_scan", "android": "https://dc.lft.to/lastmile_qr_scan"}, "is_reserved": 0}, {"lon": -77.0197975, "bike_id": "ad5ab76ad9fecc55648c52c55a0226ef", "lat": 38.91096533333333, "fusion_lon": 0.0, "fusion_lat": 0.0, "type": "electric_scooter", "name": "ad5ab76ad9fecc55648c52c55a0226ef", "is_disabled": 0, "rental_uris": {"ios": "https://dc.lft.to/lastmile_qr_scan", "android": "https://dc.lft.to/lastmile_qr_scan"}, "is_reserved": 0}, {"lon": -77.03121383333334, "bike_id": "817bba20b1e0f292252ab4af0023c5f1", "lat": 38.98828233333333, "fusion_lon": 0.0, "fusion_lat": 0.0, "type": "electric_scooter", "name": "817bba20b1e0f292252ab4af0023c5f1", "is_disabled": 0, "rental_uris": {"ios": "https://dc.lft.to/lastmile_qr_scan", "android": "https://dc.lft.to/lastmile_qr_scan"}, "is_reserved": 0}, {"lon": -77.003577, "bike_id": "e06bbea0327e5dacd8936cf370ec09b6", "lat": 38.8992915, "fusion_lon": 0.0, "fusion_lat": 0.0, "type": "electric_scooter", "name": "e06bbea0327e5dacd8936cf370ec09b6", "is_disabled": 0, "rental_uris": {"ios": "https://dc.lft.to/lastmile_qr_scan", "android": "https://dc.lft.to/lastmile_qr_scan"}, "is_reserved": 0}, {"lon": -76.96383466666667, "bike_id": "80791ac3fb56614c390830a1d49b9b69", "lat": 38.95178833333333, "fusion_lon": 0.0, "fusion_lat": 0.0, "type": "electric_bike", "name": "80791ac3fb56614c390830a1d49b9b69", "is_disabled": 0, "rental_uris": {"ios": "https://dc.lft.to/lastmile_qr_scan", "android": "https://dc.lft.to/lastmile_qr_scan"}, "is_reserved": 0}, {"lon": -77.22799966666666, "bike_id": "9b9d1107349a2963fe3f33e942e67a97", "lat": 38.9101655, "fusion_lon": 0.0, "fusion_lat": 0.0, "type": "electric_bike", "name": "9b9d1107349a2963fe3f33e942e67a97", "is_disabled": 0, "rental_uris": {"ios": "https://dc.lft.to/lastmile_qr_scan", "android": "https://dc.lft.to/lastmile_qr_scan"}, "is_reserved": 0}, {"lon": -77.02257416666667, "bike_id": "1c4adf27549bb492a9d251be2a73b42b", "lat": 38.928238666666665, "fusion_lon": 0.0, "fusion_lat": 0.0, "type": "electric_scooter", "name": "1c4adf27549bb492a9d251be2a73b42b", "is_disabled": 0, "rental_uris": {"ios": "https://dc.lft.to/lastmile_qr_scan", "android": "https://dc.lft.to/lastmile_qr_scan"}, "is_reserved": 0}, {"lon": -77.0433525, "bike_id": "15e93a1902c1a703a398bb62fe106a82", "lat": 38.9071915, "fusion_lon": 0.0, "fusion_lat": 0.0, "type": "electric_scooter", "name": "15e93a1902c1a703a398bb62fe106a82", "is_disabled": 0, "rental_uris": {"ios": "https://dc.lft.to/lastmile_qr_scan", "android": "https://dc.lft.to/lastmile_qr_scan"}, "is_reserved": 0}, {"lon": -77.0531895, "bike_id": "c67d3bca49f8fbee6080a5e9911a6661", "lat": 38.941026666666666, "fusion_lon": 0.0, "fusion_lat": 0.0, "type": "electric_bike", "name": "c67d3bca49f8fbee6080a5e9911a6661", "is_disabled": 0, "rental_uris": {"ios": "https://dc.lft.to/lastmile_qr_scan", "android": "https://dc.lft.to/lastmile_qr_scan"}, "is_reserved": 0}, {"lon": -77.02795716666667, "bike_id": "5d5d2e6f1f272f156837055b915d6a42", "lat": 38.954049499999996, "fusion_lon": 0.0, "fusion_lat": 0.0, "type": "electric_scooter", "name": "5d5d2e6f1f272f156837055b915d6a42", "is_disabled": 0, "rental_uris": {"ios": "https://dc.lft.to/lastmile_qr_scan", "android": "https://dc.lft.to/lastmile_qr_scan"}, "is_reserved": 0}, {"lon": -77.007438, "bike_id": "e17bc6e88a1c318b73e4e46917b2be1b", "lat": 38.925297666666665, "fusion_lon": 0.0, "fusion_lat": 0.0, "type": "electric_scooter", "name": "e17bc6e88a1c318b73e4e46917b2be1b", "is_disabled": 0, "rental_uris": {"ios": "https://dc.lft.to/lastmile_qr_scan", "android": "https://dc.lft.to/lastmile_qr_scan"}, "is_reserved": 0}, {"lon": -77.0209175, "bike_id": "e9e94089b7ca88e4a432aa7ef93c9a7b", "lat": 38.92914583333334, "fusion_lon": 0.0, "fusion_lat": 0.0, "type": "electric_scooter", "name": "e9e94089b7ca88e4a432aa7ef93c9a7b", "is_disabled": 0, "rental_uris": {"ios": "https://dc.lft.to/lastmile_qr_scan", "android": "https://dc.lft.to/lastmile_qr_scan"}, "is_reserved": 0}, {"lon": -77.021309, "bike_id": "f2b3bb32fd68d75878668235864fb03e", "lat": 38.89699783333333, "fusion_lon": 0.0, "fusion_lat": 0.0, "type": "electric_scooter", "name": "f2b3bb32fd68d75878668235864fb03e", "is_disabled": 0, "rental_uris": {"ios": "https://dc.lft.to/lastmile_qr_scan", "android": "https://dc.lft.to/lastmile_qr_scan"}, "is_reserved": 0}, {"lon": -77.043553, "bike_id": "5f520b5a902391e2d1f60df9e9970133", "lat": 38.9104685, "fusion_lon": 0.0, "fusion_lat": 0.0, "type": "electric_scooter", "name": "5f520b5a902391e2d1f60df9e9970133", "is_disabled": 0, "rental_uris": {"ios": "https://dc.lft.to/lastmile_qr_scan", "android": "https://dc.lft.to/lastmile_qr_scan"}, "is_reserved": 0}, {"lon": -77.03663, "bike_id": "97f1643caec27935d28187bb1198d9b6", "lat": 38.91290716666666, "fusion_lon": 0.0, "fusion_lat": 0.0, "type": "electric_scooter", "name": "97f1643caec27935d28187bb1198d9b6", "is_disabled": 0, "rental_uris": {"ios": "https://dc.lft.to/lastmile_qr_scan", "android": "https://dc.lft.to/lastmile_qr_scan"}, "is_reserved": 0}, {"lon": -77.04350883333333, "bike_id": "4c866b752349b4bd3121f1b124813872", "lat": 38.91050766666667, "fusion_lon": 0.0, "fusion_lat": 0.0, "type": "electric_scooter", "name": "4c866b752349b4bd3121f1b124813872", "is_disabled": 0, "rental_uris": {"ios": "https://dc.lft.to/lastmile_qr_scan", "android": "https://dc.lft.to/lastmile_qr_scan"}, "is_reserved": 0}, {"lon": -77.01460166666666, "bike_id": "f697ea72d46c104cb2703e174e38a107", "lat": 38.9147415, "fusion_lon": 0.0, "fusion_lat": 0.0, "type": "electric_scooter", "name": "f697ea72d46c104cb2703e174e38a107", "is_disabled": 0, "rental_uris": {"ios": "https://dc.lft.to/lastmile_qr_scan", "android": "https://dc.lft.to/lastmile_qr_scan"}, "is_reserved": 0}, {"lon": -77.03289216666667, "bike_id": "fa844c41099dc68184d1ccb139463427", "lat": 38.956478, "fusion_lon": 0.0, "fusion_lat": 0.0, "type": "electric_scooter", "name": "fa844c41099dc68184d1ccb139463427", "is_disabled": 0, "rental_uris": {"ios": "https://dc.lft.to/lastmile_qr_scan", "android": "https://dc.lft.to/lastmile_qr_scan"}, "is_reserved": 0}, {"lon": -77.03273016666667, "bike_id": "45211cbefdf744a3693ce7fce11e85b4", "lat": 38.92936816666667, "fusion_lon": 0.0, "fusion_lat": 0.0, "type": "electric_scooter", "name": "45211cbefdf744a3693ce7fce11e85b4", "is_disabled": 0, "rental_uris": {"ios": "https://dc.lft.to/lastmile_qr_scan", "android": "https://dc.lft.to/lastmile_qr_scan"}, "is_reserved": 0}, {"lon": -77.11780883333333, "bike_id": "fcf378aa3ddd1bd182a22c343d43ade1", "lat": 39.05492483333333, "fusion_lon": 0.0, "fusion_lat": 0.0, "type": "electric_bike", "name": "fcf378aa3ddd1bd182a22c343d43ade1", "is_disabled": 0, "rental_uris": {"ios": "https://dc.lft.to/lastmile_qr_scan", "android": "https://dc.lft.to/lastmile_qr_scan"}, "is_reserved": 0}, {"lon": -77.05607533333334, "bike_id": "1528ddf6fba4ec49bb430d8ac916d09e", "lat": 38.937026333333336, "fusion_lon": 0.0, "fusion_lat": 0.0, "type": "electric_bike", "name": "1528ddf6fba4ec49bb430d8ac916d09e", "is_disabled": 0, "rental_uris": {"ios": "https://dc.lft.to/lastmile_qr_scan", "android": "https://dc.lft.to/lastmile_qr_scan"}, "is_reserved": 0}, {"lon": -77.02694133333334, "bike_id": "23185d6c1dd021aad86986e565dbd135", "lat": 38.90952216666667, "fusion_lon": 0.0, "fusion_lat": 0.0, "type": "electric_scooter", "name": "23185d6c1dd021aad86986e565dbd135", "is_disabled": 0, "rental_uris": {"ios": "https://dc.lft.to/lastmile_qr_scan", "android": "https://dc.lft.to/lastmile_qr_scan"}, "is_reserved": 0}, {"lon": -77.02624033333333, "bike_id": "9f455e44a0ae1231894b42f1cd079c5a", "lat": 38.9386485, "fusion_lon": 0.0, "fusion_lat": 0.0, "type": "electric_scooter", "name": "9f455e44a0ae1231894b42f1cd079c5a", "is_disabled": 0, "rental_uris": {"ios": "https://dc.lft.to/lastmile_qr_scan", "android": "https://dc.lft.to/lastmile_qr_scan"}, "is_reserved": 0}, {"lon": -77.03146883333334, "bike_id": "34614730b3701326f64a07c226b8c4f9", "lat": 38.932440166666666, "fusion_lon": 0.0, "fusion_lat": 0.0, "type": "electric_scooter", "name": "34614730b3701326f64a07c226b8c4f9", "is_disabled": 0, "rental_uris": {"ios": "https://dc.lft.to/lastmile_qr_scan", "android": "https://dc.lft.to/lastmile_qr_scan"}, "is_reserved": 0}, {"lon": -77.035874, "bike_id": "9794923f6375c315fd8c6c8026115481", "lat": 38.9104045, "fusion_lon": 0.0, "fusion_lat": 0.0, "type": "electric_scooter", "name": "9794923f6375c315fd8c6c8026115481", "is_disabled": 0, "rental_uris": {"ios": "https://dc.lft.to/lastmile_qr_scan", "android": "https://dc.lft.to/lastmile_qr_scan"}, "is_reserved": 0}, {"lon": -77.032667, "bike_id": "05080bcda5145a2141c56a65ced35059", "lat": 38.93771816666667, "fusion_lon": 0.0, "fusion_lat": 0.0, "type": "electric_scooter", "name": "05080bcda5145a2141c56a65ced35059", "is_disabled": 0, "rental_uris": {"ios": "https://dc.lft.to/lastmile_qr_scan", "android": "https://dc.lft.to/lastmile_qr_scan"}, "is_reserved": 0}, {"lon": -77.033247, "bike_id": "591a43623e0795693f429347e00abab8", "lat": 38.947142166666666, "fusion_lon": 0.0, "fusion_lat": 0.0, "type": "electric_scooter", "name": "591a43623e0795693f429347e00abab8", "is_disabled": 0, "rental_uris": {"ios": "https://dc.lft.to/lastmile_qr_scan", "android": "https://dc.lft.to/lastmile_qr_scan"}, "is_reserved": 0}, {"lon": -77.0318795, "bike_id": "5693ea10c078b6f720eb645d8c21c85a", "lat": 38.917371333333335, "fusion_lon": 0.0, "fusion_lat": 0.0, "type": "electric_scooter", "name": "5693ea10c078b6f720eb645d8c21c85a", "is_disabled": 0, "rental_uris": {"ios": "https://dc.lft.to/lastmile_qr_scan", "android": "https://dc.lft.to/lastmile_qr_scan"}, "is_reserved": 0}, {"lon": -77.04675383333333, "bike_id": "b38b7cedd29230c2f8b46499b8996989", "lat": 38.90719716666667, "fusion_lon": 0.0, "fusion_lat": 0.0, "type": "electric_scooter", "name": "b38b7cedd29230c2f8b46499b8996989", "is_disabled": 0, "rental_uris": {"ios": "https://dc.lft.to/lastmile_qr_scan", "android": "https://dc.lft.to/lastmile_qr_scan"}, "is_reserved": 0}, {"lon": -77.0422585, "bike_id": "eae3664676495031451118b040279611", "lat": 38.9134605, "fusion_lon": 0.0, "fusion_lat": 0.0, "type": "electric_scooter", "name": "eae3664676495031451118b040279611", "is_disabled": 0, "rental_uris": {"ios": "https://dc.lft.to/lastmile_qr_scan", "android": "https://dc.lft.to/lastmile_qr_scan"}, "is_reserved": 0}, {"lon": -76.99290083333334, "bike_id": "a40a9d23f9752557320100e9a2e90b53", "lat": 38.898855, "fusion_lon": 0.0, "fusion_lat": 0.0, "type": "electric_scooter", "name": "a40a9d23f9752557320100e9a2e90b53", "is_disabled": 0, "rental_uris": {"ios": "https://dc.lft.to/lastmile_qr_scan", "android": "https://dc.lft.to/lastmile_qr_scan"}, "is_reserved": 0}, {"lon": -77.02755716666667, "bike_id": "bc527135b45f858d93d9d061f311c534", "lat": 38.93333466666667, "fusion_lon": 0.0, "fusion_lat": 0.0, "type": "electric_scooter", "name": "bc527135b45f858d93d9d061f311c534", "is_disabled": 0, "rental_uris": {"ios": "https://dc.lft.to/lastmile_qr_scan", "android": "https://dc.lft.to/lastmile_qr_scan"}, "is_reserved": 0}, {"lon": -77.04422, "bike_id": "3e8c58646baa15725c7f6a91b6f04693", "lat": 38.9113055, "fusion_lon": 0.0, "fusion_lat": 0.0, "type": "electric_scooter", "name": "3e8c58646baa15725c7f6a91b6f04693", "is_disabled": 0, "rental_uris": {"ios": "https://dc.lft.to/lastmile_qr_scan", "android": "https://dc.lft.to/lastmile_qr_scan"}, "is_reserved": 0}, {"lon": -77.0326435, "bike_id": "3de2fffc836c1609b71fd52387510413", "lat": 38.932399, "fusion_lon": 0.0, "fusion_lat": 0.0, "type": "electric_scooter", "name": "3de2fffc836c1609b71fd52387510413", "is_disabled": 0, "rental_uris": {"ios": "https://dc.lft.to/lastmile_qr_scan", "android": "https://dc.lft.to/lastmile_qr_scan"}, "is_reserved": 0}, {"lon": -77.03178166666666, "bike_id": "d189e9d224dcfc503d9057d09160c17b", "lat": 38.918198333333336, "fusion_lon": 0.0, "fusion_lat": 0.0, "type": "electric_scooter", "name": "d189e9d224dcfc503d9057d09160c17b", "is_disabled": 0, "rental_uris": {"ios": "https://dc.lft.to/lastmile_qr_scan", "android": "https://dc.lft.to/lastmile_qr_scan"}, "is_reserved": 0}, {"lon": -77.041718, "bike_id": "1df97abe69ed3878547274359ce0b5d3", "lat": 38.90541533333333, "fusion_lon": 0.0, "fusion_lat": 0.0, "type": "electric_scooter", "name": "1df97abe69ed3878547274359ce0b5d3", "is_disabled": 0, "rental_uris": {"ios": "https://dc.lft.to/lastmile_qr_scan", "android": "https://dc.lft.to/lastmile_qr_scan"}, "is_reserved": 0}, {"lon": -77.0216815, "bike_id": "d1137b1f69eb33ab7b7236f722cf6fb9", "lat": 38.929959, "fusion_lon": 0.0, "fusion_lat": 0.0, "type": "electric_scooter", "name": "d1137b1f69eb33ab7b7236f722cf6fb9", "is_disabled": 0, "rental_uris": {"ios": "https://dc.lft.to/lastmile_qr_scan", "android": "https://dc.lft.to/lastmile_qr_scan"}, "is_reserved": 0}, {"lon": -77.003813, "bike_id": "79de88f674ed91574c6376e4b2e29471", "lat": 38.836002, "fusion_lon": 0.0, "fusion_lat": 0.0, "type": "electric_bike", "name": "79de88f674ed91574c6376e4b2e29471", "is_disabled": 0, "rental_uris": {"ios": "https://dc.lft.to/lastmile_qr_scan", "android": "https://dc.lft.to/lastmile_qr_scan"}, "is_reserved": 0}, {"lon": -77.0572605, "bike_id": "3c740307b1609925b0bdab6cfc2ba4ac", "lat": 38.93365133333333, "fusion_lon": 0.0, "fusion_lat": 0.0, "type": "electric_scooter", "name": "3c740307b1609925b0bdab6cfc2ba4ac", "is_disabled": 0, "rental_uris": {"ios": "https://dc.lft.to/lastmile_qr_scan", "android": "https://dc.lft.to/lastmile_qr_scan"}, "is_reserved": 0}, {"lon": -77.02371716666667, "bike_id": "9d6fd410fa185e490789a37896972f4c", "lat": 38.917694, "fusion_lon": 0.0, "fusion_lat": 0.0, "type": "electric_scooter", "name": "9d6fd410fa185e490789a37896972f4c", "is_disabled": 0, "rental_uris": {"ios": "https://dc.lft.to/lastmile_qr_scan", "android": "https://dc.lft.to/lastmile_qr_scan"}, "is_reserved": 0}, {"lon": -77.07593666666666, "bike_id": "4be48e96b5df2448743f55c68baf3616", "lat": 38.912156333333336, "fusion_lon": 0.0, "fusion_lat": 0.0, "type": "electric_scooter", "name": "4be48e96b5df2448743f55c68baf3616", "is_disabled": 0, "rental_uris": {"ios": "https://dc.lft.to/lastmile_qr_scan", "android": "https://dc.lft.to/lastmile_qr_scan"}, "is_reserved": 0}, {"lon": -77.01270616666666, "bike_id": "428bef9e6000eaf0bebd0ce1d41a0f5a", "lat": 38.864536666666666, "fusion_lon": 0.0, "fusion_lat": 0.0, "type": "electric_scooter", "name": "428bef9e6000eaf0bebd0ce1d41a0f5a", "is_disabled": 0, "rental_uris": {"ios": "https://dc.lft.to/lastmile_qr_scan", "android": "https://dc.lft.to/lastmile_qr_scan"}, "is_reserved": 0}, {"lon": -77.041612, "bike_id": "7f9b9aa728ea0b3b4fc13c5d89203607", "lat": 38.912491, "fusion_lon": 0.0, "fusion_lat": 0.0, "type": "electric_scooter", "name": "7f9b9aa728ea0b3b4fc13c5d89203607", "is_disabled": 0, "rental_uris": {"ios": "https://dc.lft.to/lastmile_qr_scan", "android": "https://dc.lft.to/lastmile_qr_scan"}, "is_reserved": 0}, {"lon": -76.99461033333333, "bike_id": "fb69f4476b200f03a0648c0f72e67c49", "lat": 38.90369783333333, "fusion_lon": 0.0, "fusion_lat": 0.0, "type": "electric_scooter", "name": "fb69f4476b200f03a0648c0f72e67c49", "is_disabled": 0, "rental_uris": {"ios": "https://dc.lft.to/lastmile_qr_scan", "android": "https://dc.lft.to/lastmile_qr_scan"}, "is_reserved": 0}, {"lon": -77.03177216666667, "bike_id": "5097ab824e7d749ff36226227b8d7c16", "lat": 38.89223116666667, "fusion_lon": 0.0, "fusion_lat": 0.0, "type": "electric_scooter", "name": "5097ab824e7d749ff36226227b8d7c16", "is_disabled": 0, "rental_uris": {"ios": "https://dc.lft.to/lastmile_qr_scan", "android": "https://dc.lft.to/lastmile_qr_scan"}, "is_reserved": 0}, {"lon": -77.02805633333334, "bike_id": "00eda60947151a3ad6c27fad2fbaab6e", "lat": 38.914236833333334, "fusion_lon": 0.0, "fusion_lat": 0.0, "type": "electric_scooter", "name": "00eda60947151a3ad6c27fad2fbaab6e", "is_disabled": 0, "rental_uris": {"ios": "https://dc.lft.to/lastmile_qr_scan", "android": "https://dc.lft.to/lastmile_qr_scan"}, "is_reserved": 0}, {"lon": -77.0283655, "bike_id": "3bcfdf5f689f0af7fd1289c9b3cebbf0", "lat": 38.918128, "fusion_lon": 0.0, "fusion_lat": 0.0, "type": "electric_scooter", "name": "3bcfdf5f689f0af7fd1289c9b3cebbf0", "is_disabled": 0, "rental_uris": {"ios": "https://dc.lft.to/lastmile_qr_scan", "android": "https://dc.lft.to/lastmile_qr_scan"}, "is_reserved": 0}, {"lon": -77.02309966666667, "bike_id": "a4ef0d5f2e5c2163b1fb58b3e72d3e4e", "lat": 38.94202033333333, "fusion_lon": 0.0, "fusion_lat": 0.0, "type": "electric_scooter", "name": "a4ef0d5f2e5c2163b1fb58b3e72d3e4e", "is_disabled": 0, "rental_uris": {"ios": "https://dc.lft.to/lastmile_qr_scan", "android": "https://dc.lft.to/lastmile_qr_scan"}, "is_reserved": 0}, {"lon": -76.98845566666667, "bike_id": "4d95ecd9f54c0baf059588f408e12adf", "lat": 38.842786, "fusion_lon": 0.0, "fusion_lat": 0.0, "type": "electric_bike", "name": "4d95ecd9f54c0baf059588f408e12adf", "is_disabled": 0, "rental_uris": {"ios": "https://dc.lft.to/lastmile_qr_scan", "android": "https://dc.lft.to/lastmile_qr_scan"}, "is_reserved": 0}, {"lon": -77.07237533333333, "bike_id": "560e763156c3a33313b6c66755ef7997", "lat": 38.898904, "fusion_lon": 0.0, "fusion_lat": 0.0, "type": "electric_scooter", "name": "560e763156c3a33313b6c66755ef7997", "is_disabled": 0, "rental_uris": {"ios": "https://dc.lft.to/lastmile_qr_scan", "android": "https://dc.lft.to/lastmile_qr_scan"}, "is_reserved": 0}, {"lon": -77.04801816666667, "bike_id": "7f9a884a5d226ea589c86ffee7e773c6", "lat": 38.897337, "fusion_lon": 0.0, "fusion_lat": 0.0, "type": "electric_scooter", "name": "7f9a884a5d226ea589c86ffee7e773c6", "is_disabled": 0, "rental_uris": {"ios": "https://dc.lft.to/lastmile_qr_scan", "android": "https://dc.lft.to/lastmile_qr_scan"}, "is_reserved": 0}, {"lon": -77.049194, "bike_id": "baef8b0537bd21817374a1579f3c97f9", "lat": 38.908582833333334, "fusion_lon": 0.0, "fusion_lat": 0.0, "type": "electric_scooter", "name": "baef8b0537bd21817374a1579f3c97f9", "is_disabled": 0, "rental_uris": {"ios": "https://dc.lft.to/lastmile_qr_scan", "android": "https://dc.lft.to/lastmile_qr_scan"}, "is_reserved": 0}, {"lon": -77.02170766666667, "bike_id": "d94499dba4dd3f7b68f5beb346a9b631", "lat": 38.930839166666665, "fusion_lon": 0.0, "fusion_lat": 0.0, "type": "electric_scooter", "name": "d94499dba4dd3f7b68f5beb346a9b631", "is_disabled": 0, "rental_uris": {"ios": "https://dc.lft.to/lastmile_qr_scan", "android": "https://dc.lft.to/lastmile_qr_scan"}, "is_reserved": 0}, {"lon": -77.002567, "bike_id": "f349d24cfd8d860f4ecdd7d4ff2f7e5f", "lat": 38.91817233333333, "fusion_lon": 0.0, "fusion_lat": 0.0, "type": "electric_scooter", "name": "f349d24cfd8d860f4ecdd7d4ff2f7e5f", "is_disabled": 0, "rental_uris": {"ios": "https://dc.lft.to/lastmile_qr_scan", "android": "https://dc.lft.to/lastmile_qr_scan"}, "is_reserved": 0}, {"lon": -77.026934, "bike_id": "4a6fcd7651b7814868ceb80018cda1c1", "lat": 38.906766833333336, "fusion_lon": 0.0, "fusion_lat": 0.0, "type": "electric_scooter", "name": "4a6fcd7651b7814868ceb80018cda1c1", "is_disabled": 0, "rental_uris": {"ios": "https://dc.lft.to/lastmile_qr_scan", "android": "https://dc.lft.to/lastmile_qr_scan"}, "is_reserved": 0}, {"lon": -77.04052066666667, "bike_id": "57baa7a7be983cfbaeda7130e6989dbc", "lat": 38.90011466666667, "fusion_lon": 0.0, "fusion_lat": 0.0, "type": "electric_scooter", "name": "57baa7a7be983cfbaeda7130e6989dbc", "is_disabled": 0, "rental_uris": {"ios": "https://dc.lft.to/lastmile_qr_scan", "android": "https://dc.lft.to/lastmile_qr_scan"}, "is_reserved": 0}, {"lon": -77.0010185, "bike_id": "5b7109fc87f8a66dc1edcc596f91ab60", "lat": 38.91705616666667, "fusion_lon": 0.0, "fusion_lat": 0.0, "type": "electric_scooter", "name": "5b7109fc87f8a66dc1edcc596f91ab60", "is_disabled": 0, "rental_uris": {"ios": "https://dc.lft.to/lastmile_qr_scan", "android": "https://dc.lft.to/lastmile_qr_scan"}, "is_reserved": 0}, {"lon": -77.0326355, "bike_id": "76a877712503c614a330bc024b42f45b", "lat": 38.93261, "fusion_lon": 0.0, "fusion_lat": 0.0, "type": "electric_scooter", "name": "76a877712503c614a330bc024b42f45b", "is_disabled": 0, "rental_uris": {"ios": "https://dc.lft.to/lastmile_qr_scan", "android": "https://dc.lft.to/lastmile_qr_scan"}, "is_reserved": 0}, {"lon": -77.01892383333333, "bike_id": "2cd19bfca60e763f7e0693cd8f38c26e", "lat": 38.87462283333333, "fusion_lon": 0.0, "fusion_lat": 0.0, "type": "electric_scooter", "name": "2cd19bfca60e763f7e0693cd8f38c26e", "is_disabled": 0, "rental_uris": {"ios": "https://dc.lft.to/lastmile_qr_scan", "android": "https://dc.lft.to/lastmile_qr_scan"}, "is_reserved": 0}, {"lon": -77.03720133333333, "bike_id": "15cb8a2e0cec7090e1a4137144a7e5a3", "lat": 38.9148185, "fusion_lon": 0.0, "fusion_lat": 0.0, "type": "electric_scooter", "name": "15cb8a2e0cec7090e1a4137144a7e5a3", "is_disabled": 0, "rental_uris": {"ios": "https://dc.lft.to/lastmile_qr_scan", "android": "https://dc.lft.to/lastmile_qr_scan"}, "is_reserved": 0}, {"lon": -77.03431466666666, "bike_id": "7581d0185c160763fad1c3ea35cf354b", "lat": 38.909749, "fusion_lon": 0.0, "fusion_lat": 0.0, "type": "electric_scooter", "name": "7581d0185c160763fad1c3ea35cf354b", "is_disabled": 0, "rental_uris": {"ios": "https://dc.lft.to/lastmile_qr_scan", "android": "https://dc.lft.to/lastmile_qr_scan"}, "is_reserved": 0}, {"lon": -77.0239205, "bike_id": "9827f88f08f4df6be54bf117c22f982d", "lat": 38.919984666666664, "fusion_lon": 0.0, "fusion_lat": 0.0, "type": "electric_scooter", "name": "9827f88f08f4df6be54bf117c22f982d", "is_disabled": 0, "rental_uris": {"ios": "https://dc.lft.to/lastmile_qr_scan", "android": "https://dc.lft.to/lastmile_qr_scan"}, "is_reserved": 0}, {"lon": -77.00658366666667, "bike_id": "45b8859aae04837d745c9e563613a43d", "lat": 38.94462866666667, "fusion_lon": 0.0, "fusion_lat": 0.0, "type": "electric_scooter", "name": "45b8859aae04837d745c9e563613a43d", "is_disabled": 0, "rental_uris": {"ios": "https://dc.lft.to/lastmile_qr_scan", "android": "https://dc.lft.to/lastmile_qr_scan"}, "is_reserved": 0}, {"lon": -77.03180466666667, "bike_id": "1c734d36a5ad15b87f9a27c41cd47094", "lat": 38.9360475, "fusion_lon": 0.0, "fusion_lat": 0.0, "type": "electric_scooter", "name": "1c734d36a5ad15b87f9a27c41cd47094", "is_disabled": 0, "rental_uris": {"ios": "https://dc.lft.to/lastmile_qr_scan", "android": "https://dc.lft.to/lastmile_qr_scan"}, "is_reserved": 0}, {"lon": -77.0344705, "bike_id": "1cbfe9dc3f0f1b95cd70dfee982c2a57", "lat": 38.91007583333333, "fusion_lon": 0.0, "fusion_lat": 0.0, "type": "electric_scooter", "name": "1cbfe9dc3f0f1b95cd70dfee982c2a57", "is_disabled": 0, "rental_uris": {"ios": "https://dc.lft.to/lastmile_qr_scan", "android": "https://dc.lft.to/lastmile_qr_scan"}, "is_reserved": 0}, {"lon": -77.185637, "bike_id": "da980dc5f0b808adb1ebe78a0c7bc198", "lat": 39.0997685, "fusion_lon": 0.0, "fusion_lat": 0.0, "type": "electric_bike", "name": "da980dc5f0b808adb1ebe78a0c7bc198", "is_disabled": 0, "rental_uris": {"ios": "https://dc.lft.to/lastmile_qr_scan", "android": "https://dc.lft.to/lastmile_qr_scan"}, "is_reserved": 0}, {"lon": -76.96260916666667, "bike_id": "18156773d204f4af18ca964fb89b3443", "lat": 38.882467, "fusion_lon": 0.0, "fusion_lat": 0.0, "type": "electric_bike", "name": "18156773d204f4af18ca964fb89b3443", "is_disabled": 0, "rental_uris": {"ios": "https://dc.lft.to/lastmile_qr_scan", "android": "https://dc.lft.to/lastmile_qr_scan"}, "is_reserved": 0}, {"lon": -76.97618416666667, "bike_id": "43791bcff042cefec6a80104ae2cad71", "lat": 38.903792833333334, "fusion_lon": 0.0, "fusion_lat": 0.0, "type": "electric_scooter", "name": "43791bcff042cefec6a80104ae2cad71", "is_disabled": 0, "rental_uris": {"ios": "https://dc.lft.to/lastmile_qr_scan", "android": "https://dc.lft.to/lastmile_qr_scan"}, "is_reserved": 0}, {"lon": -77.0091565, "bike_id": "7b1d18f921056340b31fc4d9a3691a5a", "lat": 38.82784733333333, "fusion_lon": 0.0, "fusion_lat": 0.0, "type": "electric_bike", "name": "7b1d18f921056340b31fc4d9a3691a5a", "is_disabled": 0, "rental_uris": {"ios": "https://dc.lft.to/lastmile_qr_scan", "android": "https://dc.lft.to/lastmile_qr_scan"}, "is_reserved": 0}, {"lon": -77.03816033333334, "bike_id": "0e1dece4e15df8b11175a251da3bddfe", "lat": 38.93092266666667, "fusion_lon": 0.0, "fusion_lat": 0.0, "type": "electric_scooter", "name": "0e1dece4e15df8b11175a251da3bddfe", "is_disabled": 0, "rental_uris": {"ios": "https://dc.lft.to/lastmile_qr_scan", "android": "https://dc.lft.to/lastmile_qr_scan"}, "is_reserved": 0}, {"lon": -77.000647, "bike_id": "8356d96be37fc1300ae4eb8f7d755039", "lat": 38.924325, "fusion_lon": 0.0, "fusion_lat": 0.0, "type": "electric_scooter", "name": "8356d96be37fc1300ae4eb8f7d755039", "is_disabled": 0, "rental_uris": {"ios": "https://dc.lft.to/lastmile_qr_scan", "android": "https://dc.lft.to/lastmile_qr_scan"}, "is_reserved": 0}, {"lon": -76.99748933333333, "bike_id": "11fc56b0206a469cf1ce722901be64ba", "lat": 38.92253916666667, "fusion_lon": 0.0, "fusion_lat": 0.0, "type": "electric_scooter", "name": "11fc56b0206a469cf1ce722901be64ba", "is_disabled": 0, "rental_uris": {"ios": "https://dc.lft.to/lastmile_qr_scan", "android": "https://dc.lft.to/lastmile_qr_scan"}, "is_reserved": 0}, {"lon": -76.96359933333333, "bike_id": "dfe014c3fcf661899d889439867c6709", "lat": 38.934957833333335, "fusion_lon": 0.0, "fusion_lat": 0.0, "type": "electric_scooter", "name": "dfe014c3fcf661899d889439867c6709", "is_disabled": 0, "rental_uris": {"ios": "https://dc.lft.to/lastmile_qr_scan", "android": "https://dc.lft.to/lastmile_qr_scan"}, "is_reserved": 0}, {"lon": -77.0333965, "bike_id": "b40a12c5c312fbce25a3eada6bd90d19", "lat": 38.892223333333334, "fusion_lon": 0.0, "fusion_lat": 0.0, "type": "electric_scooter", "name": "b40a12c5c312fbce25a3eada6bd90d19", "is_disabled": 0, "rental_uris": {"ios": "https://dc.lft.to/lastmile_qr_scan", "android": "https://dc.lft.to/lastmile_qr_scan"}, "is_reserved": 0}, {"lon": -77.021149, "bike_id": "f50ca030715bbac0337832db8c2bf0ad", "lat": 38.9370015, "fusion_lon": 0.0, "fusion_lat": 0.0, "type": "electric_scooter", "name": "f50ca030715bbac0337832db8c2bf0ad", "is_disabled": 0, "rental_uris": {"ios": "https://dc.lft.to/lastmile_qr_scan", "android": "https://dc.lft.to/lastmile_qr_scan"}, "is_reserved": 0}, {"lon": -77.03189766666667, "bike_id": "5cd570cc517f979b3741ecdee283a048", "lat": 38.919077333333334, "fusion_lon": 0.0, "fusion_lat": 0.0, "type": "electric_scooter", "name": "5cd570cc517f979b3741ecdee283a048", "is_disabled": 0, "rental_uris": {"ios": "https://dc.lft.to/lastmile_qr_scan", "android": "https://dc.lft.to/lastmile_qr_scan"}, "is_reserved": 0}, {"lon": -77.02493533333333, "bike_id": "b4a67a06d740fece50505fce6739cb28", "lat": 38.918058333333335, "fusion_lon": 0.0, "fusion_lat": 0.0, "type": "electric_scooter", "name": "b4a67a06d740fece50505fce6739cb28", "is_disabled": 0, "rental_uris": {"ios": "https://dc.lft.to/lastmile_qr_scan", "android": "https://dc.lft.to/lastmile_qr_scan"}, "is_reserved": 0}, {"lon": -77.04750483333333, "bike_id": "60f2e172794117134cd01a67d61ce09a", "lat": 38.9017935, "fusion_lon": 0.0, "fusion_lat": 0.0, "type": "electric_scooter", "name": "60f2e172794117134cd01a67d61ce09a", "is_disabled": 0, "rental_uris": {"ios": "https://dc.lft.to/lastmile_qr_scan", "android": "https://dc.lft.to/lastmile_qr_scan"}, "is_reserved": 0}, {"lon": -77.03902633333334, "bike_id": "c563086af8eb6fb39de42e6b49a2afa1", "lat": 38.92359616666667, "fusion_lon": 0.0, "fusion_lat": 0.0, "type": "electric_scooter", "name": "c563086af8eb6fb39de42e6b49a2afa1", "is_disabled": 0, "rental_uris": {"ios": "https://dc.lft.to/lastmile_qr_scan", "android": "https://dc.lft.to/lastmile_qr_scan"}, "is_reserved": 0}, {"lon": -77.03502633333333, "bike_id": "9446d94bfebc46b4c2a0cb4f3c20d583", "lat": 38.9374935, "fusion_lon": 0.0, "fusion_lat": 0.0, "type": "electric_scooter", "name": "9446d94bfebc46b4c2a0cb4f3c20d583", "is_disabled": 0, "rental_uris": {"ios": "https://dc.lft.to/lastmile_qr_scan", "android": "https://dc.lft.to/lastmile_qr_scan"}, "is_reserved": 0}, {"lon": -77.02673566666667, "bike_id": "046bd6b68a0f4abb79db597239f0ead8", "lat": 38.896928, "fusion_lon": 0.0, "fusion_lat": 0.0, "type": "electric_scooter", "name": "046bd6b68a0f4abb79db597239f0ead8", "is_disabled": 0, "rental_uris": {"ios": "https://dc.lft.to/lastmile_qr_scan", "android": "https://dc.lft.to/lastmile_qr_scan"}, "is_reserved": 0}, {"lon": -77.0384775, "bike_id": "9e6b4b8161b89d4cf7f88ee329d8596b", "lat": 38.916637, "fusion_lon": 0.0, "fusion_lat": 0.0, "type": "electric_scooter", "name": "9e6b4b8161b89d4cf7f88ee329d8596b", "is_disabled": 0, "rental_uris": {"ios": "https://dc.lft.to/lastmile_qr_scan", "android": "https://dc.lft.to/lastmile_qr_scan"}, "is_reserved": 0}, {"lon": -76.9463485, "bike_id": "34eefe3ffac3d506a5795298ff6675e2", "lat": 38.898309166666664, "fusion_lon": 0.0, "fusion_lat": 0.0, "type": "electric_scooter", "name": "34eefe3ffac3d506a5795298ff6675e2", "is_disabled": 0, "rental_uris": {"ios": "https://dc.lft.to/lastmile_qr_scan", "android": "https://dc.lft.to/lastmile_qr_scan"}, "is_reserved": 0}, {"lon": -76.980737, "bike_id": "ff89b7e2059fe7f6a0a457489035ff3d", "lat": 38.9017665, "fusion_lon": 0.0, "fusion_lat": 0.0, "type": "electric_scooter", "name": "ff89b7e2059fe7f6a0a457489035ff3d", "is_disabled": 0, "rental_uris": {"ios": "https://dc.lft.to/lastmile_qr_scan", "android": "https://dc.lft.to/lastmile_qr_scan"}, "is_reserved": 0}, {"lon": -77.02959966666667, "bike_id": "fb2c8e3f1776f56c3db4558af279224e", "lat": 38.92928783333333, "fusion_lon": 0.0, "fusion_lat": 0.0, "type": "electric_scooter", "name": "fb2c8e3f1776f56c3db4558af279224e", "is_disabled": 0, "rental_uris": {"ios": "https://dc.lft.to/lastmile_qr_scan", "android": "https://dc.lft.to/lastmile_qr_scan"}, "is_reserved": 0}, {"lon": -77.06341, "bike_id": "84473b7eacf1299b9f791afbabdb7f9a", "lat": 38.90681583333333, "fusion_lon": 0.0, "fusion_lat": 0.0, "type": "electric_scooter", "name": "84473b7eacf1299b9f791afbabdb7f9a", "is_disabled": 0, "rental_uris": {"ios": "https://dc.lft.to/lastmile_qr_scan", "android": "https://dc.lft.to/lastmile_qr_scan"}, "is_reserved": 0}, {"lon": -77.05538083333333, "bike_id": "5f363b69c9ef505e43dd38a4f52df2ca", "lat": 38.93431983333333, "fusion_lon": 0.0, "fusion_lat": 0.0, "type": "electric_scooter", "name": "5f363b69c9ef505e43dd38a4f52df2ca", "is_disabled": 0, "rental_uris": {"ios": "https://dc.lft.to/lastmile_qr_scan", "android": "https://dc.lft.to/lastmile_qr_scan"}, "is_reserved": 0}, {"lon": -77.0035175, "bike_id": "f6789b209542afc75e956d2eec5d7d2b", "lat": 38.899272333333336, "fusion_lon": 0.0, "fusion_lat": 0.0, "type": "electric_scooter", "name": "f6789b209542afc75e956d2eec5d7d2b", "is_disabled": 0, "rental_uris": {"ios": "https://dc.lft.to/lastmile_qr_scan", "android": "https://dc.lft.to/lastmile_qr_scan"}, "is_reserved": 0}, {"lon": -77.08458483333334, "bike_id": "fbb872e904412a69d05f66715f1bcc7c", "lat": 38.848177, "fusion_lon": 0.0, "fusion_lat": 0.0, "type": "electric_bike", "name": "fbb872e904412a69d05f66715f1bcc7c", "is_disabled": 0, "rental_uris": {"ios": "https://dc.lft.to/lastmile_qr_scan", "android": "https://dc.lft.to/lastmile_qr_scan"}, "is_reserved": 0}, {"lon": -77.04215216666667, "bike_id": "53eb647f9ede1526e085213135798655", "lat": 38.907312833333336, "fusion_lon": 0.0, "fusion_lat": 0.0, "type": "electric_scooter", "name": "53eb647f9ede1526e085213135798655", "is_disabled": 0, "rental_uris": {"ios": "https://dc.lft.to/lastmile_qr_scan", "android": "https://dc.lft.to/lastmile_qr_scan"}, "is_reserved": 0}, {"lon": -77.03424016666666, "bike_id": "22cf4aedfc5dfa4a1cfad978d822f469", "lat": 38.922427666666664, "fusion_lon": 0.0, "fusion_lat": 0.0, "type": "electric_scooter", "name": "22cf4aedfc5dfa4a1cfad978d822f469", "is_disabled": 0, "rental_uris": {"ios": "https://dc.lft.to/lastmile_qr_scan", "android": "https://dc.lft.to/lastmile_qr_scan"}, "is_reserved": 0}, {"lon": -76.97386866666666, "bike_id": "1224ce44175d946cf51057cbb99b3e0e", "lat": 38.90559366666667, "fusion_lon": 0.0, "fusion_lat": 0.0, "type": "electric_scooter", "name": "1224ce44175d946cf51057cbb99b3e0e", "is_disabled": 0, "rental_uris": {"ios": "https://dc.lft.to/lastmile_qr_scan", "android": "https://dc.lft.to/lastmile_qr_scan"}, "is_reserved": 0}, {"lon": -77.0326565, "bike_id": "30d89131a048ea984683a63d97a83ce8", "lat": 38.9340465, "fusion_lon": 0.0, "fusion_lat": 0.0, "type": "electric_scooter", "name": "30d89131a048ea984683a63d97a83ce8", "is_disabled": 0, "rental_uris": {"ios": "https://dc.lft.to/lastmile_qr_scan", "android": "https://dc.lft.to/lastmile_qr_scan"}, "is_reserved": 0}, {"lon": -77.02135666666666, "bike_id": "df1faf289349d26bba66f9e99cb68aa2", "lat": 38.90087466666667, "fusion_lon": 0.0, "fusion_lat": 0.0, "type": "electric_scooter", "name": "df1faf289349d26bba66f9e99cb68aa2", "is_disabled": 0, "rental_uris": {"ios": "https://dc.lft.to/lastmile_qr_scan", "android": "https://dc.lft.to/lastmile_qr_scan"}, "is_reserved": 0}, {"lon": -77.00943466666666, "bike_id": "ed3121ce67a8bf873ea9b5653a2fdf5c", "lat": 38.871104, "fusion_lon": 0.0, "fusion_lat": 0.0, "type": "electric_scooter", "name": "ed3121ce67a8bf873ea9b5653a2fdf5c", "is_disabled": 0, "rental_uris": {"ios": "https://dc.lft.to/lastmile_qr_scan", "android": "https://dc.lft.to/lastmile_qr_scan"}, "is_reserved": 0}, {"lon": -77.03827383333334, "bike_id": "71d955e2aa6237c15ba51f05e5663ca1", "lat": 38.9067455, "fusion_lon": 0.0, "fusion_lat": 0.0, "type": "electric_scooter", "name": "71d955e2aa6237c15ba51f05e5663ca1", "is_disabled": 0, "rental_uris": {"ios": "https://dc.lft.to/lastmile_qr_scan", "android": "https://dc.lft.to/lastmile_qr_scan"}, "is_reserved": 0}, {"lon": -77.05859283333334, "bike_id": "06e96076295e980f3d1031bf45f812b9", "lat": 38.9360965, "fusion_lon": 0.0, "fusion_lat": 0.0, "type": "electric_scooter", "name": "06e96076295e980f3d1031bf45f812b9", "is_disabled": 0, "rental_uris": {"ios": "https://dc.lft.to/lastmile_qr_scan", "android": "https://dc.lft.to/lastmile_qr_scan"}, "is_reserved": 0}, {"lon": -77.02756516666666, "bike_id": "073a6f942e3ded4dc98a9b593348b55f", "lat": 38.944022833333335, "fusion_lon": 0.0, "fusion_lat": 0.0, "type": "electric_scooter", "name": "073a6f942e3ded4dc98a9b593348b55f", "is_disabled": 0, "rental_uris": {"ios": "https://dc.lft.to/lastmile_qr_scan", "android": "https://dc.lft.to/lastmile_qr_scan"}, "is_reserved": 0}, {"lon": -77.030703, "bike_id": "9dcbda498c824af938eb7729f201a0c1", "lat": 38.90262716666667, "fusion_lon": 0.0, "fusion_lat": 0.0, "type": "electric_scooter", "name": "9dcbda498c824af938eb7729f201a0c1", "is_disabled": 0, "rental_uris": {"ios": "https://dc.lft.to/lastmile_qr_scan", "android": "https://dc.lft.to/lastmile_qr_scan"}, "is_reserved": 0}, {"lon": -77.021291, "bike_id": "e03f321fb5182f0bac4e4e8c068e9402", "lat": 38.909711, "fusion_lon": 0.0, "fusion_lat": 0.0, "type": "electric_scooter", "name": "e03f321fb5182f0bac4e4e8c068e9402", "is_disabled": 0, "rental_uris": {"ios": "https://dc.lft.to/lastmile_qr_scan", "android": "https://dc.lft.to/lastmile_qr_scan"}, "is_reserved": 0}, {"lon": -77.05513033333334, "bike_id": "0a184d42e5e3fd514e5ecc5611423101", "lat": 38.899687, "fusion_lon": 0.0, "fusion_lat": 0.0, "type": "electric_scooter", "name": "0a184d42e5e3fd514e5ecc5611423101", "is_disabled": 0, "rental_uris": {"ios": "https://dc.lft.to/lastmile_qr_scan", "android": "https://dc.lft.to/lastmile_qr_scan"}, "is_reserved": 0}, {"lon": -77.0318455, "bike_id": "7014a3ac6c7a70bbfcc7a5d9fbe60cc3", "lat": 38.9173195, "fusion_lon": 0.0, "fusion_lat": 0.0, "type": "electric_scooter", "name": "7014a3ac6c7a70bbfcc7a5d9fbe60cc3", "is_disabled": 0, "rental_uris": {"ios": "https://dc.lft.to/lastmile_qr_scan", "android": "https://dc.lft.to/lastmile_qr_scan"}, "is_reserved": 0}, {"lon": -77.02392183333333, "bike_id": "31f3c961cf620be4a6befadb8ecd1b71", "lat": 38.92001666666667, "fusion_lon": 0.0, "fusion_lat": 0.0, "type": "electric_scooter", "name": "31f3c961cf620be4a6befadb8ecd1b71", "is_disabled": 0, "rental_uris": {"ios": "https://dc.lft.to/lastmile_qr_scan", "android": "https://dc.lft.to/lastmile_qr_scan"}, "is_reserved": 0}, {"lon": -77.01994833333333, "bike_id": "734c67469f122acff31e2950eaba4d3b", "lat": 38.91361783333333, "fusion_lon": 0.0, "fusion_lat": 0.0, "type": "electric_scooter", "name": "734c67469f122acff31e2950eaba4d3b", "is_disabled": 0, "rental_uris": {"ios": "https://dc.lft.to/lastmile_qr_scan", "android": "https://dc.lft.to/lastmile_qr_scan"}, "is_reserved": 0}, {"lon": -77.0424435, "bike_id": "d7f8437e325eb1cb12c170706d2f47e1", "lat": 38.91498516666667, "fusion_lon": 0.0, "fusion_lat": 0.0, "type": "electric_scooter", "name": "d7f8437e325eb1cb12c170706d2f47e1", "is_disabled": 0, "rental_uris": {"ios": "https://dc.lft.to/lastmile_qr_scan", "android": "https://dc.lft.to/lastmile_qr_scan"}, "is_reserved": 0}, {"lon": -77.04551183333334, "bike_id": "995bdeeb04bd0daa0da876ac6c1c087e", "lat": 38.9126365, "fusion_lon": 0.0, "fusion_lat": 0.0, "type": "electric_scooter", "name": "995bdeeb04bd0daa0da876ac6c1c087e", "is_disabled": 0, "rental_uris": {"ios": "https://dc.lft.to/lastmile_qr_scan", "android": "https://dc.lft.to/lastmile_qr_scan"}, "is_reserved": 0}, {"lon": -76.97536616666666, "bike_id": "863a75a953f976a1afafa59ac048640e", "lat": 38.903282833333336, "fusion_lon": 0.0, "fusion_lat": 0.0, "type": "electric_bike", "name": "863a75a953f976a1afafa59ac048640e", "is_disabled": 0, "rental_uris": {"ios": "https://dc.lft.to/lastmile_qr_scan", "android": "https://dc.lft.to/lastmile_qr_scan"}, "is_reserved": 0}, {"lon": -77.0365985, "bike_id": "6ebc482efd3513763434c9afb1627a7c", "lat": 38.92091383333333, "fusion_lon": 0.0, "fusion_lat": 0.0, "type": "electric_scooter", "name": "6ebc482efd3513763434c9afb1627a7c", "is_disabled": 0, "rental_uris": {"ios": "https://dc.lft.to/lastmile_qr_scan", "android": "https://dc.lft.to/lastmile_qr_scan"}, "is_reserved": 0}, {"lon": -77.01742783333333, "bike_id": "f31da7a625c2ebec2666dee1e472ecbf", "lat": 38.9025915, "fusion_lon": 0.0, "fusion_lat": 0.0, "type": "electric_scooter", "name": "f31da7a625c2ebec2666dee1e472ecbf", "is_disabled": 0, "rental_uris": {"ios": "https://dc.lft.to/lastmile_qr_scan", "android": "https://dc.lft.to/lastmile_qr_scan"}, "is_reserved": 0}, {"lon": -76.98604633333333, "bike_id": "7458e36d120b9c157fa57179c199e0ae", "lat": 38.9062135, "fusion_lon": 0.0, "fusion_lat": 0.0, "type": "electric_bike", "name": "7458e36d120b9c157fa57179c199e0ae", "is_disabled": 0, "rental_uris": {"ios": "https://dc.lft.to/lastmile_qr_scan", "android": "https://dc.lft.to/lastmile_qr_scan"}, "is_reserved": 0}, {"lon": -77.04187933333333, "bike_id": "8ebdb49b64d713258c7ec84f6d839f9c", "lat": 38.91121966666667, "fusion_lon": 0.0, "fusion_lat": 0.0, "type": "electric_scooter", "name": "8ebdb49b64d713258c7ec84f6d839f9c", "is_disabled": 0, "rental_uris": {"ios": "https://dc.lft.to/lastmile_qr_scan", "android": "https://dc.lft.to/lastmile_qr_scan"}, "is_reserved": 0}, {"lon": -77.00062683333333, "bike_id": "a6d23653223441fb76b91fc3a93dc003", "lat": 38.8999125, "fusion_lon": 0.0, "fusion_lat": 0.0, "type": "electric_scooter", "name": "a6d23653223441fb76b91fc3a93dc003", "is_disabled": 0, "rental_uris": {"ios": "https://dc.lft.to/lastmile_qr_scan", "android": "https://dc.lft.to/lastmile_qr_scan"}, "is_reserved": 0}, {"lon": -77.04875833333334, "bike_id": "9c0b740fe24f542f6bf8ecb2c7592165", "lat": 38.91623366666666, "fusion_lon": 0.0, "fusion_lat": 0.0, "type": "electric_scooter", "name": "9c0b740fe24f542f6bf8ecb2c7592165", "is_disabled": 0, "rental_uris": {"ios": "https://dc.lft.to/lastmile_qr_scan", "android": "https://dc.lft.to/lastmile_qr_scan"}, "is_reserved": 0}, {"lon": -77.03190266666667, "bike_id": "b4dd6455d9b6c568e7d9c7ff54049e6f", "lat": 38.917460166666665, "fusion_lon": 0.0, "fusion_lat": 0.0, "type": "electric_scooter", "name": "b4dd6455d9b6c568e7d9c7ff54049e6f", "is_disabled": 0, "rental_uris": {"ios": "https://dc.lft.to/lastmile_qr_scan", "android": "https://dc.lft.to/lastmile_qr_scan"}, "is_reserved": 0}, {"lon": -77.02407933333333, "bike_id": "34fe3cebe7c4f7feae47a6638aa77a5f", "lat": 38.9208925, "fusion_lon": 0.0, "fusion_lat": 0.0, "type": "electric_scooter", "name": "34fe3cebe7c4f7feae47a6638aa77a5f", "is_disabled": 0, "rental_uris": {"ios": "https://dc.lft.to/lastmile_qr_scan", "android": "https://dc.lft.to/lastmile_qr_scan"}, "is_reserved": 0}, {"lon": -77.03413733333333, "bike_id": "e6a29c52bfa5f4d4b55c9090497b7963", "lat": 38.90223616666667, "fusion_lon": 0.0, "fusion_lat": 0.0, "type": "electric_scooter", "name": "e6a29c52bfa5f4d4b55c9090497b7963", "is_disabled": 0, "rental_uris": {"ios": "https://dc.lft.to/lastmile_qr_scan", "android": "https://dc.lft.to/lastmile_qr_scan"}, "is_reserved": 0}, {"lon": -77.0110345, "bike_id": "981736ba04933490a13ebf83e4849a67", "lat": 38.9036925, "fusion_lon": 0.0, "fusion_lat": 0.0, "type": "electric_scooter", "name": "981736ba04933490a13ebf83e4849a67", "is_disabled": 0, "rental_uris": {"ios": "https://dc.lft.to/lastmile_qr_scan", "android": "https://dc.lft.to/lastmile_qr_scan"}, "is_reserved": 0}, {"lon": -77.01843933333333, "bike_id": "598efe6ddc9524c9b363977be02c76a1", "lat": 38.912591, "fusion_lon": 0.0, "fusion_lat": 0.0, "type": "electric_scooter", "name": "598efe6ddc9524c9b363977be02c76a1", "is_disabled": 0, "rental_uris": {"ios": "https://dc.lft.to/lastmile_qr_scan", "android": "https://dc.lft.to/lastmile_qr_scan"}, "is_reserved": 0}, {"lon": -77.01761916666666, "bike_id": "9f0a35e84d84ed67068edb0ad84ecac0", "lat": 38.88602516666667, "fusion_lon": 0.0, "fusion_lat": 0.0, "type": "electric_scooter", "name": "9f0a35e84d84ed67068edb0ad84ecac0", "is_disabled": 0, "rental_uris": {"ios": "https://dc.lft.to/lastmile_qr_scan", "android": "https://dc.lft.to/lastmile_qr_scan"}, "is_reserved": 0}, {"lon": -77.04004883333333, "bike_id": "890cf35e8bb2e8666cdeba735b4ec85e", "lat": 38.933038, "fusion_lon": 0.0, "fusion_lat": 0.0, "type": "electric_scooter", "name": "890cf35e8bb2e8666cdeba735b4ec85e", "is_disabled": 0, "rental_uris": {"ios": "https://dc.lft.to/lastmile_qr_scan", "android": "https://dc.lft.to/lastmile_qr_scan"}, "is_reserved": 0}, {"lon": -77.08196616666666, "bike_id": "944e119d0d462e6ec4dbebba4d69d90b", "lat": 38.9220775, "fusion_lon": 0.0, "fusion_lat": 0.0, "type": "electric_bike", "name": "944e119d0d462e6ec4dbebba4d69d90b", "is_disabled": 0, "rental_uris": {"ios": "https://dc.lft.to/lastmile_qr_scan", "android": "https://dc.lft.to/lastmile_qr_scan"}, "is_reserved": 0}, {"lon": -77.0412045, "bike_id": "e665cad17523b6a9f199a95518473301", "lat": 38.94408816666667, "fusion_lon": 0.0, "fusion_lat": 0.0, "type": "electric_bike", "name": "e665cad17523b6a9f199a95518473301", "is_disabled": 0, "rental_uris": {"ios": "https://dc.lft.to/lastmile_qr_scan", "android": "https://dc.lft.to/lastmile_qr_scan"}, "is_reserved": 0}, {"lon": -77.0226195, "bike_id": "b49d9fb00fa384e2931b7bf8fa8a2701", "lat": 38.9127165, "fusion_lon": 0.0, "fusion_lat": 0.0, "type": "electric_scooter", "name": "b49d9fb00fa384e2931b7bf8fa8a2701", "is_disabled": 0, "rental_uris": {"ios": "https://dc.lft.to/lastmile_qr_scan", "android": "https://dc.lft.to/lastmile_qr_scan"}, "is_reserved": 0}, {"lon": -76.99754916666667, "bike_id": "441c647fecea121ac49727a37ff888d9", "lat": 38.9004755, "fusion_lon": 0.0, "fusion_lat": 0.0, "type": "electric_scooter", "name": "441c647fecea121ac49727a37ff888d9", "is_disabled": 0, "rental_uris": {"ios": "https://dc.lft.to/lastmile_qr_scan", "android": "https://dc.lft.to/lastmile_qr_scan"}, "is_reserved": 0}, {"lon": -77.0380635, "bike_id": "ff2a14399c8801be6059040807580910", "lat": 38.920753, "fusion_lon": 0.0, "fusion_lat": 0.0, "type": "electric_scooter", "name": "ff2a14399c8801be6059040807580910", "is_disabled": 0, "rental_uris": {"ios": "https://dc.lft.to/lastmile_qr_scan", "android": "https://dc.lft.to/lastmile_qr_scan"}, "is_reserved": 0}, {"lon": -77.0067385, "bike_id": "c629f8d4a7ea0e7c3db3d9b23aceba42", "lat": 38.945049166666664, "fusion_lon": 0.0, "fusion_lat": 0.0, "type": "electric_bike", "name": "c629f8d4a7ea0e7c3db3d9b23aceba42", "is_disabled": 0, "rental_uris": {"ios": "https://dc.lft.to/lastmile_qr_scan", "android": "https://dc.lft.to/lastmile_qr_scan"}, "is_reserved": 0}, {"lon": -77.036478, "bike_id": "8fdab97606e27c9b5df466f903f28acb", "lat": 38.90563316666667, "fusion_lon": 0.0, "fusion_lat": 0.0, "type": "electric_scooter", "name": "8fdab97606e27c9b5df466f903f28acb", "is_disabled": 0, "rental_uris": {"ios": "https://dc.lft.to/lastmile_qr_scan", "android": "https://dc.lft.to/lastmile_qr_scan"}, "is_reserved": 0}, {"lon": -77.03214316666667, "bike_id": "6cdb7940a27fa97f940516d93879981d", "lat": 38.917108, "fusion_lon": 0.0, "fusion_lat": 0.0, "type": "electric_scooter", "name": "6cdb7940a27fa97f940516d93879981d", "is_disabled": 0, "rental_uris": {"ios": "https://dc.lft.to/lastmile_qr_scan", "android": "https://dc.lft.to/lastmile_qr_scan"}, "is_reserved": 0}, {"lon": -77.02714716666667, "bike_id": "6e48f4817dc6b55ed585380015bb32b7", "lat": 38.897187833333334, "fusion_lon": 0.0, "fusion_lat": 0.0, "type": "electric_scooter", "name": "6e48f4817dc6b55ed585380015bb32b7", "is_disabled": 0, "rental_uris": {"ios": "https://dc.lft.to/lastmile_qr_scan", "android": "https://dc.lft.to/lastmile_qr_scan"}, "is_reserved": 0}, {"lon": -77.03185033333334, "bike_id": "854b72f7010c31a1facb69f138069d0a", "lat": 38.89572416666667, "fusion_lon": 0.0, "fusion_lat": 0.0, "type": "electric_scooter", "name": "854b72f7010c31a1facb69f138069d0a", "is_disabled": 0, "rental_uris": {"ios": "https://dc.lft.to/lastmile_qr_scan", "android": "https://dc.lft.to/lastmile_qr_scan"}, "is_reserved": 0}, {"lon": -77.02211766666667, "bike_id": "e1b021a5cc79e6ed84c23432cf819a05", "lat": 38.91415716666667, "fusion_lon": 0.0, "fusion_lat": 0.0, "type": "electric_scooter", "name": "e1b021a5cc79e6ed84c23432cf819a05", "is_disabled": 0, "rental_uris": {"ios": "https://dc.lft.to/lastmile_qr_scan", "android": "https://dc.lft.to/lastmile_qr_scan"}, "is_reserved": 0}, {"lon": -77.02768216666666, "bike_id": "3c1b00289ee65a86b83a610b9ddacad5", "lat": 38.892197333333336, "fusion_lon": 0.0, "fusion_lat": 0.0, "type": "electric_scooter", "name": "3c1b00289ee65a86b83a610b9ddacad5", "is_disabled": 0, "rental_uris": {"ios": "https://dc.lft.to/lastmile_qr_scan", "android": "https://dc.lft.to/lastmile_qr_scan"}, "is_reserved": 0}, {"lon": -76.99454616666667, "bike_id": "d2e1a075bc9741844aadbb049edbae91", "lat": 38.966201833333336, "fusion_lon": 0.0, "fusion_lat": 0.0, "type": "electric_bike", "name": "d2e1a075bc9741844aadbb049edbae91", "is_disabled": 0, "rental_uris": {"ios": "https://dc.lft.to/lastmile_qr_scan", "android": "https://dc.lft.to/lastmile_qr_scan"}, "is_reserved": 0}, {"lon": -77.043318, "bike_id": "06c46c78c6520729540f37b6ba054cbe", "lat": 38.907201, "fusion_lon": 0.0, "fusion_lat": 0.0, "type": "electric_scooter", "name": "06c46c78c6520729540f37b6ba054cbe", "is_disabled": 0, "rental_uris": {"ios": "https://dc.lft.to/lastmile_qr_scan", "android": "https://dc.lft.to/lastmile_qr_scan"}, "is_reserved": 0}, {"lon": -76.99032916666667, "bike_id": "5dd1a7f3dc32c18d660ca1b8b805f7e5", "lat": 38.898526333333336, "fusion_lon": 0.0, "fusion_lat": 0.0, "type": "electric_scooter", "name": "5dd1a7f3dc32c18d660ca1b8b805f7e5", "is_disabled": 0, "rental_uris": {"ios": "https://dc.lft.to/lastmile_qr_scan", "android": "https://dc.lft.to/lastmile_qr_scan"}, "is_reserved": 0}, {"lon": -76.97925366666666, "bike_id": "f795b68873aadcbbb852b65a7ab41167", "lat": 38.90497, "fusion_lon": 0.0, "fusion_lat": 0.0, "type": "electric_scooter", "name": "f795b68873aadcbbb852b65a7ab41167", "is_disabled": 0, "rental_uris": {"ios": "https://dc.lft.to/lastmile_qr_scan", "android": "https://dc.lft.to/lastmile_qr_scan"}, "is_reserved": 0}, {"lon": -76.99366, "bike_id": "aaba2cef161fd688cba33b66c6c84d38", "lat": 38.8797215, "fusion_lon": 0.0, "fusion_lat": 0.0, "type": "electric_scooter", "name": "aaba2cef161fd688cba33b66c6c84d38", "is_disabled": 0, "rental_uris": {"ios": "https://dc.lft.to/lastmile_qr_scan", "android": "https://dc.lft.to/lastmile_qr_scan"}, "is_reserved": 0}, {"lon": -77.01321016666667, "bike_id": "7cea80512cf152bca982a1253fd6d90d", "lat": 38.871502666666665, "fusion_lon": 0.0, "fusion_lat": 0.0, "type": "electric_scooter", "name": "7cea80512cf152bca982a1253fd6d90d", "is_disabled": 0, "rental_uris": {"ios": "https://dc.lft.to/lastmile_qr_scan", "android": "https://dc.lft.to/lastmile_qr_scan"}, "is_reserved": 0}, {"lon": -76.9900385, "bike_id": "8559da870e5e6782ff6955ed473a555a", "lat": 38.865119, "fusion_lon": 0.0, "fusion_lat": 0.0, "type": "electric_scooter", "name": "8559da870e5e6782ff6955ed473a555a", "is_disabled": 0, "rental_uris": {"ios": "https://dc.lft.to/lastmile_qr_scan", "android": "https://dc.lft.to/lastmile_qr_scan"}, "is_reserved": 0}, {"lon": -77.03745766666667, "bike_id": "b71011a5544f1e0f3cc3463c68156787", "lat": 38.918100833333334, "fusion_lon": 0.0, "fusion_lat": 0.0, "type": "electric_scooter", "name": "b71011a5544f1e0f3cc3463c68156787", "is_disabled": 0, "rental_uris": {"ios": "https://dc.lft.to/lastmile_qr_scan", "android": "https://dc.lft.to/lastmile_qr_scan"}, "is_reserved": 0}, {"lon": -77.027238, "bike_id": "3da75b13bd0b35f352c13d250f36fac8", "lat": 38.91335816666667, "fusion_lon": 0.0, "fusion_lat": 0.0, "type": "electric_scooter", "name": "3da75b13bd0b35f352c13d250f36fac8", "is_disabled": 0, "rental_uris": {"ios": "https://dc.lft.to/lastmile_qr_scan", "android": "https://dc.lft.to/lastmile_qr_scan"}, "is_reserved": 0}, {"lon": -77.03757716666667, "bike_id": "2202cbaf31901a5e844aa50a97466f4f", "lat": 38.90775033333333, "fusion_lon": 0.0, "fusion_lat": 0.0, "type": "electric_scooter", "name": "2202cbaf31901a5e844aa50a97466f4f", "is_disabled": 0, "rental_uris": {"ios": "https://dc.lft.to/lastmile_qr_scan", "android": "https://dc.lft.to/lastmile_qr_scan"}, "is_reserved": 0}, {"lon": -77.03346283333333, "bike_id": "aec69faf9f2ef7ecc0a8697bf57f6e97", "lat": 38.8983, "fusion_lon": 0.0, "fusion_lat": 0.0, "type": "electric_scooter", "name": "aec69faf9f2ef7ecc0a8697bf57f6e97", "is_disabled": 0, "rental_uris": {"ios": "https://dc.lft.to/lastmile_qr_scan", "android": "https://dc.lft.to/lastmile_qr_scan"}, "is_reserved": 0}, {"lon": -77.01341383333333, "bike_id": "0df8d222b72ba6f5f97bfdf8986de3bd", "lat": 38.878128833333335, "fusion_lon": 0.0, "fusion_lat": 0.0, "type": "electric_scooter", "name": "0df8d222b72ba6f5f97bfdf8986de3bd", "is_disabled": 0, "rental_uris": {"ios": "https://dc.lft.to/lastmile_qr_scan", "android": "https://dc.lft.to/lastmile_qr_scan"}, "is_reserved": 0}, {"lon": -77.02084466666666, "bike_id": "7f7986d00df662fb81b0763e8c9e3bf3", "lat": 38.88182183333333, "fusion_lon": 0.0, "fusion_lat": 0.0, "type": "electric_scooter", "name": "7f7986d00df662fb81b0763e8c9e3bf3", "is_disabled": 0, "rental_uris": {"ios": "https://dc.lft.to/lastmile_qr_scan", "android": "https://dc.lft.to/lastmile_qr_scan"}, "is_reserved": 0}, {"lon": -77.02531316666666, "bike_id": "47a6b62071ce70fb2c19843f25e74eda", "lat": 38.9289325, "fusion_lon": 0.0, "fusion_lat": 0.0, "type": "electric_scooter", "name": "47a6b62071ce70fb2c19843f25e74eda", "is_disabled": 0, "rental_uris": {"ios": "https://dc.lft.to/lastmile_qr_scan", "android": "https://dc.lft.to/lastmile_qr_scan"}, "is_reserved": 0}, {"lon": -76.96527016666667, "bike_id": "9cd63f0b55382244d5de53044baf4832", "lat": 38.8762845, "fusion_lon": 0.0, "fusion_lat": 0.0, "type": "electric_scooter", "name": "9cd63f0b55382244d5de53044baf4832", "is_disabled": 0, "rental_uris": {"ios": "https://dc.lft.to/lastmile_qr_scan", "android": "https://dc.lft.to/lastmile_qr_scan"}, "is_reserved": 0}, {"lon": -77.005838, "bike_id": "f850ddff155c6db157ace7370838f2e2", "lat": 38.90550366666667, "fusion_lon": 0.0, "fusion_lat": 0.0, "type": "electric_scooter", "name": "f850ddff155c6db157ace7370838f2e2", "is_disabled": 0, "rental_uris": {"ios": "https://dc.lft.to/lastmile_qr_scan", "android": "https://dc.lft.to/lastmile_qr_scan"}, "is_reserved": 0}, {"lon": -77.028743, "bike_id": "b888a14a128f39a6775865f08e41dcde", "lat": 38.91689933333333, "fusion_lon": 0.0, "fusion_lat": 0.0, "type": "electric_scooter", "name": "b888a14a128f39a6775865f08e41dcde", "is_disabled": 0, "rental_uris": {"ios": "https://dc.lft.to/lastmile_qr_scan", "android": "https://dc.lft.to/lastmile_qr_scan"}, "is_reserved": 0}, {"lon": -77.02841683333334, "bike_id": "8322f78bf6cbb26856683a5404c8a413", "lat": 38.9342, "fusion_lon": 0.0, "fusion_lat": 0.0, "type": "electric_scooter", "name": "8322f78bf6cbb26856683a5404c8a413", "is_disabled": 0, "rental_uris": {"ios": "https://dc.lft.to/lastmile_qr_scan", "android": "https://dc.lft.to/lastmile_qr_scan"}, "is_reserved": 0}, {"lon": -77.048723, "bike_id": "0be9048cb407209c6f85110da71b5315", "lat": 38.892297166666665, "fusion_lon": 0.0, "fusion_lat": 0.0, "type": "electric_scooter", "name": "0be9048cb407209c6f85110da71b5315", "is_disabled": 0, "rental_uris": {"ios": "https://dc.lft.to/lastmile_qr_scan", "android": "https://dc.lft.to/lastmile_qr_scan"}, "is_reserved": 0}, {"lon": -77.04485833333334, "bike_id": "c78b6d7b1697130b25ab44974fa270aa", "lat": 38.9043035, "fusion_lon": 0.0, "fusion_lat": 0.0, "type": "electric_scooter", "name": "c78b6d7b1697130b25ab44974fa270aa", "is_disabled": 0, "rental_uris": {"ios": "https://dc.lft.to/lastmile_qr_scan", "android": "https://dc.lft.to/lastmile_qr_scan"}, "is_reserved": 0}, {"lon": -77.0214265, "bike_id": "f36f85c05593b44418b6a09c1c7a1bf7", "lat": 38.89711716666667, "fusion_lon": 0.0, "fusion_lat": 0.0, "type": "electric_scooter", "name": "f36f85c05593b44418b6a09c1c7a1bf7", "is_disabled": 0, "rental_uris": {"ios": "https://dc.lft.to/lastmile_qr_scan", "android": "https://dc.lft.to/lastmile_qr_scan"}, "is_reserved": 0}, {"lon": -77.02819283333334, "bike_id": "d6230d3d1603760aaa7dcae94e7b3a14", "lat": 38.89532033333333, "fusion_lon": 0.0, "fusion_lat": 0.0, "type": "electric_scooter", "name": "d6230d3d1603760aaa7dcae94e7b3a14", "is_disabled": 0, "rental_uris": {"ios": "https://dc.lft.to/lastmile_qr_scan", "android": "https://dc.lft.to/lastmile_qr_scan"}, "is_reserved": 0}, {"lon": -77.02231116666667, "bike_id": "5c4bf6b3ac547ee2322260b4fd82df22", "lat": 38.96205, "fusion_lon": 0.0, "fusion_lat": 0.0, "type": "electric_scooter", "name": "5c4bf6b3ac547ee2322260b4fd82df22", "is_disabled": 0, "rental_uris": {"ios": "https://dc.lft.to/lastmile_qr_scan", "android": "https://dc.lft.to/lastmile_qr_scan"}, "is_reserved": 0}, {"lon": -77.0295745, "bike_id": "bebca023c17d3bf10e19e242b1905cbe", "lat": 38.9065035, "fusion_lon": 0.0, "fusion_lat": 0.0, "type": "electric_scooter", "name": "bebca023c17d3bf10e19e242b1905cbe", "is_disabled": 0, "rental_uris": {"ios": "https://dc.lft.to/lastmile_qr_scan", "android": "https://dc.lft.to/lastmile_qr_scan"}, "is_reserved": 0}, {"lon": -76.99228366666667, "bike_id": "456de52fb9a8a8cbe92ac7e77b7a7b47", "lat": 38.92214366666666, "fusion_lon": 0.0, "fusion_lat": 0.0, "type": "electric_scooter", "name": "456de52fb9a8a8cbe92ac7e77b7a7b47", "is_disabled": 0, "rental_uris": {"ios": "https://dc.lft.to/lastmile_qr_scan", "android": "https://dc.lft.to/lastmile_qr_scan"}, "is_reserved": 0}, {"lon": -77.03856383333333, "bike_id": "db8acdeb696b22e75f68fd76b8bee411", "lat": 38.9036205, "fusion_lon": 0.0, "fusion_lat": 0.0, "type": "electric_scooter", "name": "db8acdeb696b22e75f68fd76b8bee411", "is_disabled": 0, "rental_uris": {"ios": "https://dc.lft.to/lastmile_qr_scan", "android": "https://dc.lft.to/lastmile_qr_scan"}, "is_reserved": 0}, {"lon": -77.0192295, "bike_id": "7296513ea04d4f01f407d81e69e39e8c", "lat": 38.92214833333333, "fusion_lon": 0.0, "fusion_lat": 0.0, "type": "electric_scooter", "name": "7296513ea04d4f01f407d81e69e39e8c", "is_disabled": 0, "rental_uris": {"ios": "https://dc.lft.to/lastmile_qr_scan", "android": "https://dc.lft.to/lastmile_qr_scan"}, "is_reserved": 0}, {"lon": -77.0210975, "bike_id": "db321df79e71aba398fb1574aea73889", "lat": 38.91406633333333, "fusion_lon": 0.0, "fusion_lat": 0.0, "type": "electric_scooter", "name": "db321df79e71aba398fb1574aea73889", "is_disabled": 0, "rental_uris": {"ios": "https://dc.lft.to/lastmile_qr_scan", "android": "https://dc.lft.to/lastmile_qr_scan"}, "is_reserved": 0}, {"lon": -77.03291483333334, "bike_id": "aa9329ec56c4e2d1feabf81db7429203", "lat": 38.90953483333333, "fusion_lon": 0.0, "fusion_lat": 0.0, "type": "electric_scooter", "name": "aa9329ec56c4e2d1feabf81db7429203", "is_disabled": 0, "rental_uris": {"ios": "https://dc.lft.to/lastmile_qr_scan", "android": "https://dc.lft.to/lastmile_qr_scan"}, "is_reserved": 0}, {"lon": -77.00344483333333, "bike_id": "663cbbbd1e505ed74cfdc66f248bf846", "lat": 38.887042, "fusion_lon": 0.0, "fusion_lat": 0.0, "type": "electric_scooter", "name": "663cbbbd1e505ed74cfdc66f248bf846", "is_disabled": 0, "rental_uris": {"ios": "https://dc.lft.to/lastmile_qr_scan", "android": "https://dc.lft.to/lastmile_qr_scan"}, "is_reserved": 0}, {"lon": -77.05061933333333, "bike_id": "fb4b4ac4f077b2044cc813947c6408db", "lat": 38.90068183333333, "fusion_lon": 0.0, "fusion_lat": 0.0, "type": "electric_scooter", "name": "fb4b4ac4f077b2044cc813947c6408db", "is_disabled": 0, "rental_uris": {"ios": "https://dc.lft.to/lastmile_qr_scan", "android": "https://dc.lft.to/lastmile_qr_scan"}, "is_reserved": 0}, {"lon": -77.131002, "bike_id": "bbf77ab17de17096ed2d614a28b33b0c", "lat": 39.024341, "fusion_lon": 0.0, "fusion_lat": 0.0, "type": "electric_bike", "name": "bbf77ab17de17096ed2d614a28b33b0c", "is_disabled": 0, "rental_uris": {"ios": "https://dc.lft.to/lastmile_qr_scan", "android": "https://dc.lft.to/lastmile_qr_scan"}, "is_reserved": 0}, {"lon": -77.02915966666667, "bike_id": "702cb608ba47fa6dee029956cbe7dd5c", "lat": 38.944403, "fusion_lon": 0.0, "fusion_lat": 0.0, "type": "electric_scooter", "name": "702cb608ba47fa6dee029956cbe7dd5c", "is_disabled": 0, "rental_uris": {"ios": "https://dc.lft.to/lastmile_qr_scan", "android": "https://dc.lft.to/lastmile_qr_scan"}, "is_reserved": 0}, {"lon": -77.00372083333333, "bike_id": "a14d25bef3dbe0bb847f944726108f9d", "lat": 38.897303666666666, "fusion_lon": 0.0, "fusion_lat": 0.0, "type": "electric_scooter", "name": "a14d25bef3dbe0bb847f944726108f9d", "is_disabled": 0, "rental_uris": {"ios": "https://dc.lft.to/lastmile_qr_scan", "android": "https://dc.lft.to/lastmile_qr_scan"}, "is_reserved": 0}, {"lon": -77.0262315, "bike_id": "ba96207d3fbd4d21916eb6072df62454", "lat": 38.91703, "fusion_lon": 0.0, "fusion_lat": 0.0, "type": "electric_scooter", "name": "ba96207d3fbd4d21916eb6072df62454", "is_disabled": 0, "rental_uris": {"ios": "https://dc.lft.to/lastmile_qr_scan", "android": "https://dc.lft.to/lastmile_qr_scan"}, "is_reserved": 0}, {"lon": -76.98016566666666, "bike_id": "a78a90c213d0754f11c598748952ca63", "lat": 38.90332466666667, "fusion_lon": 0.0, "fusion_lat": 0.0, "type": "electric_scooter", "name": "a78a90c213d0754f11c598748952ca63", "is_disabled": 0, "rental_uris": {"ios": "https://dc.lft.to/lastmile_qr_scan", "android": "https://dc.lft.to/lastmile_qr_scan"}, "is_reserved": 0}, {"lon": -76.9889505, "bike_id": "eab6b24e15c1e83a61461921d0857a21", "lat": 38.913442, "fusion_lon": 0.0, "fusion_lat": 0.0, "type": "electric_scooter", "name": "eab6b24e15c1e83a61461921d0857a21", "is_disabled": 0, "rental_uris": {"ios": "https://dc.lft.to/lastmile_qr_scan", "android": "https://dc.lft.to/lastmile_qr_scan"}, "is_reserved": 0}, {"lon": -77.00840666666667, "bike_id": "a70f5382c9927d5b0cc72e1f4b814055", "lat": 38.916235, "fusion_lon": 0.0, "fusion_lat": 0.0, "type": "electric_scooter", "name": "a70f5382c9927d5b0cc72e1f4b814055", "is_disabled": 0, "rental_uris": {"ios": "https://dc.lft.to/lastmile_qr_scan", "android": "https://dc.lft.to/lastmile_qr_scan"}, "is_reserved": 0}, {"lon": -77.0590225, "bike_id": "6ca21287e93a7935fa320174bdd526da", "lat": 38.862722833333336, "fusion_lon": 0.0, "fusion_lat": 0.0, "type": "electric_scooter", "name": "6ca21287e93a7935fa320174bdd526da", "is_disabled": 0, "rental_uris": {"ios": "https://dc.lft.to/lastmile_qr_scan", "android": "https://dc.lft.to/lastmile_qr_scan"}, "is_reserved": 0}, {"lon": -77.00540316666667, "bike_id": "49d42e2b5579ecac7406c7fe34dcf96b", "lat": 38.900331333333334, "fusion_lon": 0.0, "fusion_lat": 0.0, "type": "electric_scooter", "name": "49d42e2b5579ecac7406c7fe34dcf96b", "is_disabled": 0, "rental_uris": {"ios": "https://dc.lft.to/lastmile_qr_scan", "android": "https://dc.lft.to/lastmile_qr_scan"}, "is_reserved": 0}, {"lon": -77.04416516666667, "bike_id": "6da5a38309de815f345a1a6565aed014", "lat": 38.917518, "fusion_lon": 0.0, "fusion_lat": 0.0, "type": "electric_scooter", "name": "6da5a38309de815f345a1a6565aed014", "is_disabled": 0, "rental_uris": {"ios": "https://dc.lft.to/lastmile_qr_scan", "android": "https://dc.lft.to/lastmile_qr_scan"}, "is_reserved": 0}, {"lon": -77.05332, "bike_id": "07a0c820401717d7e438b1fc323f2d9b", "lat": 38.90200983333333, "fusion_lon": 0.0, "fusion_lat": 0.0, "type": "electric_scooter", "name": "07a0c820401717d7e438b1fc323f2d9b", "is_disabled": 0, "rental_uris": {"ios": "https://dc.lft.to/lastmile_qr_scan", "android": "https://dc.lft.to/lastmile_qr_scan"}, "is_reserved": 0}, {"lon": -77.03441616666667, "bike_id": "b19293e93336acfb70b7767ec2366e20", "lat": 38.90981133333333, "fusion_lon": 0.0, "fusion_lat": 0.0, "type": "electric_scooter", "name": "b19293e93336acfb70b7767ec2366e20", "is_disabled": 0, "rental_uris": {"ios": "https://dc.lft.to/lastmile_qr_scan", "android": "https://dc.lft.to/lastmile_qr_scan"}, "is_reserved": 0}, {"lon": -77.02528133333334, "bike_id": "014edddce5e6af84da1edb94bbc52151", "lat": 38.905717, "fusion_lon": 0.0, "fusion_lat": 0.0, "type": "electric_scooter", "name": "014edddce5e6af84da1edb94bbc52151", "is_disabled": 0, "rental_uris": {"ios": "https://dc.lft.to/lastmile_qr_scan", "android": "https://dc.lft.to/lastmile_qr_scan"}, "is_reserved": 0}, {"lon": -77.03840816666667, "bike_id": "e901569b2ac3975073691054a1a8fb9e", "lat": 38.91664516666667, "fusion_lon": 0.0, "fusion_lat": 0.0, "type": "electric_scooter", "name": "e901569b2ac3975073691054a1a8fb9e", "is_disabled": 0, "rental_uris": {"ios": "https://dc.lft.to/lastmile_qr_scan", "android": "https://dc.lft.to/lastmile_qr_scan"}, "is_reserved": 0}, {"lon": -77.03447966666667, "bike_id": "69399343b7c53a353fb5f772e67f80f3", "lat": 38.914907, "fusion_lon": 0.0, "fusion_lat": 0.0, "type": "electric_scooter", "name": "69399343b7c53a353fb5f772e67f80f3", "is_disabled": 0, "rental_uris": {"ios": "https://dc.lft.to/lastmile_qr_scan", "android": "https://dc.lft.to/lastmile_qr_scan"}, "is_reserved": 0}, {"lon": -77.0221375, "bike_id": "66e4da7fdfc3fcef98ecf6543c814639", "lat": 38.89617766666667, "fusion_lon": 0.0, "fusion_lat": 0.0, "type": "electric_scooter", "name": "66e4da7fdfc3fcef98ecf6543c814639", "is_disabled": 0, "rental_uris": {"ios": "https://dc.lft.to/lastmile_qr_scan", "android": "https://dc.lft.to/lastmile_qr_scan"}, "is_reserved": 0}, {"lon": -77.0382645, "bike_id": "683f29517a6ec6ac2b66f5bbe1ffb39c", "lat": 38.906792, "fusion_lon": 0.0, "fusion_lat": 0.0, "type": "electric_scooter", "name": "683f29517a6ec6ac2b66f5bbe1ffb39c", "is_disabled": 0, "rental_uris": {"ios": "https://dc.lft.to/lastmile_qr_scan", "android": "https://dc.lft.to/lastmile_qr_scan"}, "is_reserved": 0}, {"lon": -77.03267, "bike_id": "9cf847c0ad32e17e360b4356b005a11d", "lat": 38.93774616666666, "fusion_lon": 0.0, "fusion_lat": 0.0, "type": "electric_scooter", "name": "9cf847c0ad32e17e360b4356b005a11d", "is_disabled": 0, "rental_uris": {"ios": "https://dc.lft.to/lastmile_qr_scan", "android": "https://dc.lft.to/lastmile_qr_scan"}, "is_reserved": 0}, {"lon": -76.98495483333333, "bike_id": "53a053832c4b4eb8ebc98fc6fbb8d6f7", "lat": 38.878333166666664, "fusion_lon": 0.0, "fusion_lat": 0.0, "type": "electric_scooter", "name": "53a053832c4b4eb8ebc98fc6fbb8d6f7", "is_disabled": 0, "rental_uris": {"ios": "https://dc.lft.to/lastmile_qr_scan", "android": "https://dc.lft.to/lastmile_qr_scan"}, "is_reserved": 0}, {"lon": -77.02520816666667, "bike_id": "e830777bd99711d7bc2c33d64c5b9a48", "lat": 38.920864, "fusion_lon": 0.0, "fusion_lat": 0.0, "type": "electric_scooter", "name": "e830777bd99711d7bc2c33d64c5b9a48", "is_disabled": 0, "rental_uris": {"ios": "https://dc.lft.to/lastmile_qr_scan", "android": "https://dc.lft.to/lastmile_qr_scan"}, "is_reserved": 0}, {"lon": -77.0399775, "bike_id": "400bc70880f727ab88e433559ae0d9d5", "lat": 38.934220333333336, "fusion_lon": 0.0, "fusion_lat": 0.0, "type": "electric_scooter", "name": "400bc70880f727ab88e433559ae0d9d5", "is_disabled": 0, "rental_uris": {"ios": "https://dc.lft.to/lastmile_qr_scan", "android": "https://dc.lft.to/lastmile_qr_scan"}, "is_reserved": 0}, {"lon": -77.02831433333333, "bike_id": "4db308abbfd9c426332a1d8d3d75a33a", "lat": 38.89855166666667, "fusion_lon": 0.0, "fusion_lat": 0.0, "type": "electric_scooter", "name": "4db308abbfd9c426332a1d8d3d75a33a", "is_disabled": 0, "rental_uris": {"ios": "https://dc.lft.to/lastmile_qr_scan", "android": "https://dc.lft.to/lastmile_qr_scan"}, "is_reserved": 0}, {"lon": -77.052157, "bike_id": "bf2e4b9ecda71599b6a63827314f4af0", "lat": 38.915618333333335, "fusion_lon": 0.0, "fusion_lat": 0.0, "type": "electric_scooter", "name": "bf2e4b9ecda71599b6a63827314f4af0", "is_disabled": 0, "rental_uris": {"ios": "https://dc.lft.to/lastmile_qr_scan", "android": "https://dc.lft.to/lastmile_qr_scan"}, "is_reserved": 0}, {"lon": -77.05700033333333, "bike_id": "cbe3822b6e25bfef5a6f6148fd133ee0", "lat": 38.905434, "fusion_lon": 0.0, "fusion_lat": 0.0, "type": "electric_scooter", "name": "cbe3822b6e25bfef5a6f6148fd133ee0", "is_disabled": 0, "rental_uris": {"ios": "https://dc.lft.to/lastmile_qr_scan", "android": "https://dc.lft.to/lastmile_qr_scan"}, "is_reserved": 0}, {"lon": -77.03677566666667, "bike_id": "792406d3b86488ba06669e04cec03dad", "lat": 38.92097116666667, "fusion_lon": 0.0, "fusion_lat": 0.0, "type": "electric_scooter", "name": "792406d3b86488ba06669e04cec03dad", "is_disabled": 0, "rental_uris": {"ios": "https://dc.lft.to/lastmile_qr_scan", "android": "https://dc.lft.to/lastmile_qr_scan"}, "is_reserved": 0}, {"lon": -77.04501466666666, "bike_id": "44bd18aeaeedc73b52abba3af6015790", "lat": 38.909778, "fusion_lon": 0.0, "fusion_lat": 0.0, "type": "electric_scooter", "name": "44bd18aeaeedc73b52abba3af6015790", "is_disabled": 0, "rental_uris": {"ios": "https://dc.lft.to/lastmile_qr_scan", "android": "https://dc.lft.to/lastmile_qr_scan"}, "is_reserved": 0}, {"lon": -76.94116816666667, "bike_id": "da6ae4a0dd4d0fe25203b4ce2d1c67ae", "lat": 38.88647866666667, "fusion_lon": 0.0, "fusion_lat": 0.0, "type": "electric_scooter", "name": "da6ae4a0dd4d0fe25203b4ce2d1c67ae", "is_disabled": 0, "rental_uris": {"ios": "https://dc.lft.to/lastmile_qr_scan", "android": "https://dc.lft.to/lastmile_qr_scan"}, "is_reserved": 0}, {"lon": -76.96527866666666, "bike_id": "400ec59d5bb19920c1cf73269ee85934", "lat": 38.87628466666666, "fusion_lon": 0.0, "fusion_lat": 0.0, "type": "electric_scooter", "name": "400ec59d5bb19920c1cf73269ee85934", "is_disabled": 0, "rental_uris": {"ios": "https://dc.lft.to/lastmile_qr_scan", "android": "https://dc.lft.to/lastmile_qr_scan"}, "is_reserved": 0}, {"lon": -77.048371, "bike_id": "982402c90b71945bed7dd38f5b3031c6", "lat": 38.904098166666664, "fusion_lon": 0.0, "fusion_lat": 0.0, "type": "electric_scooter", "name": "982402c90b71945bed7dd38f5b3031c6", "is_disabled": 0, "rental_uris": {"ios": "https://dc.lft.to/lastmile_qr_scan", "android": "https://dc.lft.to/lastmile_qr_scan"}, "is_reserved": 0}, {"lon": -77.12737016666667, "bike_id": "f09905ce433a136a11366d59e9126ca3", "lat": 38.8956605, "fusion_lon": 0.0, "fusion_lat": 0.0, "type": "electric_bike", "name": "f09905ce433a136a11366d59e9126ca3", "is_disabled": 0, "rental_uris": {"ios": "https://dc.lft.to/lastmile_qr_scan", "android": "https://dc.lft.to/lastmile_qr_scan"}, "is_reserved": 0}, {"lon": -77.06034, "bike_id": "d7674ead1316bad12c92e6af1b2f3dac", "lat": 38.93356133333333, "fusion_lon": 0.0, "fusion_lat": 0.0, "type": "electric_scooter", "name": "d7674ead1316bad12c92e6af1b2f3dac", "is_disabled": 0, "rental_uris": {"ios": "https://dc.lft.to/lastmile_qr_scan", "android": "https://dc.lft.to/lastmile_qr_scan"}, "is_reserved": 0}, {"lon": -77.03883816666666, "bike_id": "6d008a76935808dc86c0e3051a79b582", "lat": 38.948722333333336, "fusion_lon": 0.0, "fusion_lat": 0.0, "type": "electric_scooter", "name": "6d008a76935808dc86c0e3051a79b582", "is_disabled": 0, "rental_uris": {"ios": "https://dc.lft.to/lastmile_qr_scan", "android": "https://dc.lft.to/lastmile_qr_scan"}, "is_reserved": 0}, {"lon": -77.0464925, "bike_id": "45926d58bb43e9e2399246409cf28bef", "lat": 39.05500766666667, "fusion_lon": 0.0, "fusion_lat": 0.0, "type": "electric_bike", "name": "45926d58bb43e9e2399246409cf28bef", "is_disabled": 0, "rental_uris": {"ios": "https://dc.lft.to/lastmile_qr_scan", "android": "https://dc.lft.to/lastmile_qr_scan"}, "is_reserved": 0}, {"lon": -77.04335366666666, "bike_id": "dc4d76f1ae58e487ede5cc7b2433140b", "lat": 38.92224066666667, "fusion_lon": 0.0, "fusion_lat": 0.0, "type": "electric_scooter", "name": "dc4d76f1ae58e487ede5cc7b2433140b", "is_disabled": 0, "rental_uris": {"ios": "https://dc.lft.to/lastmile_qr_scan", "android": "https://dc.lft.to/lastmile_qr_scan"}, "is_reserved": 0}, {"lon": -76.95653983333334, "bike_id": "2219761d29edecabade37409e44968ab", "lat": 38.896207833333335, "fusion_lon": 0.0, "fusion_lat": 0.0, "type": "electric_scooter", "name": "2219761d29edecabade37409e44968ab", "is_disabled": 0, "rental_uris": {"ios": "https://dc.lft.to/lastmile_qr_scan", "android": "https://dc.lft.to/lastmile_qr_scan"}, "is_reserved": 0}, {"lon": -77.03184566666667, "bike_id": "d7b3ea87ce3f662f7931b293dcf22ed0", "lat": 38.895721333333334, "fusion_lon": 0.0, "fusion_lat": 0.0, "type": "electric_scooter", "name": "d7b3ea87ce3f662f7931b293dcf22ed0", "is_disabled": 0, "rental_uris": {"ios": "https://dc.lft.to/lastmile_qr_scan", "android": "https://dc.lft.to/lastmile_qr_scan"}, "is_reserved": 0}, {"lon": -76.88403366666667, "bike_id": "1387a990cdc3f128dbb193fdc60f23f4", "lat": 38.9317065, "fusion_lon": 0.0, "fusion_lat": 0.0, "type": "electric_bike", "name": "1387a990cdc3f128dbb193fdc60f23f4", "is_disabled": 0, "rental_uris": {"ios": "https://dc.lft.to/lastmile_qr_scan", "android": "https://dc.lft.to/lastmile_qr_scan"}, "is_reserved": 0}, {"lon": -77.03660666666667, "bike_id": "db45f070d62b5d34244098e145b0d1d7", "lat": 38.93204466666667, "fusion_lon": 0.0, "fusion_lat": 0.0, "type": "electric_scooter", "name": "db45f070d62b5d34244098e145b0d1d7", "is_disabled": 0, "rental_uris": {"ios": "https://dc.lft.to/lastmile_qr_scan", "android": "https://dc.lft.to/lastmile_qr_scan"}, "is_reserved": 0}, {"lon": -77.0558895, "bike_id": "9ebb01ee717d0687421f45761bb14f92", "lat": 38.93356883333333, "fusion_lon": 0.0, "fusion_lat": 0.0, "type": "electric_scooter", "name": "9ebb01ee717d0687421f45761bb14f92", "is_disabled": 0, "rental_uris": {"ios": "https://dc.lft.to/lastmile_qr_scan", "android": "https://dc.lft.to/lastmile_qr_scan"}, "is_reserved": 0}, {"lon": -77.01765933333333, "bike_id": "9ea4840b0c4138fa8da8e100cd76e59e", "lat": 38.88738816666667, "fusion_lon": 0.0, "fusion_lat": 0.0, "type": "electric_scooter", "name": "9ea4840b0c4138fa8da8e100cd76e59e", "is_disabled": 0, "rental_uris": {"ios": "https://dc.lft.to/lastmile_qr_scan", "android": "https://dc.lft.to/lastmile_qr_scan"}, "is_reserved": 0}, {"lon": -77.01810266666666, "bike_id": "3916a0894de5df5911db23888c8851ab", "lat": 38.9648465, "fusion_lon": 0.0, "fusion_lat": 0.0, "type": "electric_scooter", "name": "3916a0894de5df5911db23888c8851ab", "is_disabled": 0, "rental_uris": {"ios": "https://dc.lft.to/lastmile_qr_scan", "android": "https://dc.lft.to/lastmile_qr_scan"}, "is_reserved": 0}, {"lon": -77.02751316666667, "bike_id": "20b529a7937724dce326a65b78ac771c", "lat": 38.965673833333334, "fusion_lon": 0.0, "fusion_lat": 0.0, "type": "electric_bike", "name": "20b529a7937724dce326a65b78ac771c", "is_disabled": 0, "rental_uris": {"ios": "https://dc.lft.to/lastmile_qr_scan", "android": "https://dc.lft.to/lastmile_qr_scan"}, "is_reserved": 0}, {"lon": -77.01036966666666, "bike_id": "df2aa71fe79b86c9f35255592c831467", "lat": 38.921295666666666, "fusion_lon": 0.0, "fusion_lat": 0.0, "type": "electric_scooter", "name": "df2aa71fe79b86c9f35255592c831467", "is_disabled": 0, "rental_uris": {"ios": "https://dc.lft.to/lastmile_qr_scan", "android": "https://dc.lft.to/lastmile_qr_scan"}, "is_reserved": 0}, {"lon": -77.0220005, "bike_id": "e00fe8c5d09c64ce18aac59b941a3468", "lat": 38.9093935, "fusion_lon": 0.0, "fusion_lat": 0.0, "type": "electric_scooter", "name": "e00fe8c5d09c64ce18aac59b941a3468", "is_disabled": 0, "rental_uris": {"ios": "https://dc.lft.to/lastmile_qr_scan", "android": "https://dc.lft.to/lastmile_qr_scan"}, "is_reserved": 0}, {"lon": -77.046581, "bike_id": "dad7f18c71b20622e8e63a4972a1c81e", "lat": 38.905476666666665, "fusion_lon": 0.0, "fusion_lat": 0.0, "type": "electric_scooter", "name": "dad7f18c71b20622e8e63a4972a1c81e", "is_disabled": 0, "rental_uris": {"ios": "https://dc.lft.to/lastmile_qr_scan", "android": "https://dc.lft.to/lastmile_qr_scan"}, "is_reserved": 0}, {"lon": -77.03788, "bike_id": "e1a0b5f7762fb8a0120cdf204b404cd0", "lat": 38.936053666666666, "fusion_lon": 0.0, "fusion_lat": 0.0, "type": "electric_scooter", "name": "e1a0b5f7762fb8a0120cdf204b404cd0", "is_disabled": 0, "rental_uris": {"ios": "https://dc.lft.to/lastmile_qr_scan", "android": "https://dc.lft.to/lastmile_qr_scan"}, "is_reserved": 0}, {"lon": -77.02401266666666, "bike_id": "e3bda2c6829c5a44abebd01576631f4b", "lat": 38.882852, "fusion_lon": 0.0, "fusion_lat": 0.0, "type": "electric_scooter", "name": "e3bda2c6829c5a44abebd01576631f4b", "is_disabled": 0, "rental_uris": {"ios": "https://dc.lft.to/lastmile_qr_scan", "android": "https://dc.lft.to/lastmile_qr_scan"}, "is_reserved": 0}, {"lon": -77.036683, "bike_id": "b495b4ffed8d3e2eb7bf1cdeca4b0d27", "lat": 38.91813116666667, "fusion_lon": 0.0, "fusion_lat": 0.0, "type": "electric_scooter", "name": "b495b4ffed8d3e2eb7bf1cdeca4b0d27", "is_disabled": 0, "rental_uris": {"ios": "https://dc.lft.to/lastmile_qr_scan", "android": "https://dc.lft.to/lastmile_qr_scan"}, "is_reserved": 0}, {"lon": -77.03667966666667, "bike_id": "e2a9144546cdecc04cd571b63a62d638", "lat": 38.90828366666667, "fusion_lon": 0.0, "fusion_lat": 0.0, "type": "electric_scooter", "name": "e2a9144546cdecc04cd571b63a62d638", "is_disabled": 0, "rental_uris": {"ios": "https://dc.lft.to/lastmile_qr_scan", "android": "https://dc.lft.to/lastmile_qr_scan"}, "is_reserved": 0}, {"lon": -76.96605766666667, "bike_id": "b38a18445c70aeddd0f3cd9888fe4154", "lat": 38.871128, "fusion_lon": 0.0, "fusion_lat": 0.0, "type": "electric_scooter", "name": "b38a18445c70aeddd0f3cd9888fe4154", "is_disabled": 0, "rental_uris": {"ios": "https://dc.lft.to/lastmile_qr_scan", "android": "https://dc.lft.to/lastmile_qr_scan"}, "is_reserved": 0}, {"lon": -77.02188483333333, "bike_id": "3296d2d202c5490d0a35572f67933d8a", "lat": 38.8973885, "fusion_lon": 0.0, "fusion_lat": 0.0, "type": "electric_scooter", "name": "3296d2d202c5490d0a35572f67933d8a", "is_disabled": 0, "rental_uris": {"ios": "https://dc.lft.to/lastmile_qr_scan", "android": "https://dc.lft.to/lastmile_qr_scan"}, "is_reserved": 0}, {"lon": -77.03209116666666, "bike_id": "af1edee23e7c2ddd31b9dca27a455e88", "lat": 38.9071075, "fusion_lon": 0.0, "fusion_lat": 0.0, "type": "electric_scooter", "name": "af1edee23e7c2ddd31b9dca27a455e88", "is_disabled": 0, "rental_uris": {"ios": "https://dc.lft.to/lastmile_qr_scan", "android": "https://dc.lft.to/lastmile_qr_scan"}, "is_reserved": 0}, {"lon": -77.04471316666667, "bike_id": "9c99cd1060036ec9c59805cfd62576d8", "lat": 38.92439666666667, "fusion_lon": 0.0, "fusion_lat": 0.0, "type": "electric_scooter", "name": "9c99cd1060036ec9c59805cfd62576d8", "is_disabled": 0, "rental_uris": {"ios": "https://dc.lft.to/lastmile_qr_scan", "android": "https://dc.lft.to/lastmile_qr_scan"}, "is_reserved": 0}, {"lon": -77.084899, "bike_id": "39f97bba62746b79d40dbf14011e510c", "lat": 38.848464, "fusion_lon": 0.0, "fusion_lat": 0.0, "type": "electric_bike", "name": "39f97bba62746b79d40dbf14011e510c", "is_disabled": 0, "rental_uris": {"ios": "https://dc.lft.to/lastmile_qr_scan", "android": "https://dc.lft.to/lastmile_qr_scan"}, "is_reserved": 0}, {"lon": -77.02696866666666, "bike_id": "6b4dbb4dad9c8dbb2f8163de8e76c10e", "lat": 38.90418616666667, "fusion_lon": 0.0, "fusion_lat": 0.0, "type": "electric_scooter", "name": "6b4dbb4dad9c8dbb2f8163de8e76c10e", "is_disabled": 0, "rental_uris": {"ios": "https://dc.lft.to/lastmile_qr_scan", "android": "https://dc.lft.to/lastmile_qr_scan"}, "is_reserved": 0}, {"lon": -77.03499016666666, "bike_id": "ccee5711aa50d0eb9c7037d3e610f91e", "lat": 38.923472833333335, "fusion_lon": 0.0, "fusion_lat": 0.0, "type": "electric_scooter", "name": "ccee5711aa50d0eb9c7037d3e610f91e", "is_disabled": 0, "rental_uris": {"ios": "https://dc.lft.to/lastmile_qr_scan", "android": "https://dc.lft.to/lastmile_qr_scan"}, "is_reserved": 0}, {"lon": -76.94590616666666, "bike_id": "3277d6c212af90fb08ce1e4c09fa0900", "lat": 38.901443, "fusion_lon": 0.0, "fusion_lat": 0.0, "type": "electric_scooter", "name": "3277d6c212af90fb08ce1e4c09fa0900", "is_disabled": 0, "rental_uris": {"ios": "https://dc.lft.to/lastmile_qr_scan", "android": "https://dc.lft.to/lastmile_qr_scan"}, "is_reserved": 0}, {"lon": -76.93189433333333, "bike_id": "e29581bc175cf815f05f4864f3c919a2", "lat": 38.898764666666665, "fusion_lon": 0.0, "fusion_lat": 0.0, "type": "electric_scooter", "name": "e29581bc175cf815f05f4864f3c919a2", "is_disabled": 0, "rental_uris": {"ios": "https://dc.lft.to/lastmile_qr_scan", "android": "https://dc.lft.to/lastmile_qr_scan"}, "is_reserved": 0}, {"lon": -77.0217385, "bike_id": "209cafbe29877794f4815dd3d990b2f4", "lat": 38.897264, "fusion_lon": 0.0, "fusion_lat": 0.0, "type": "electric_scooter", "name": "209cafbe29877794f4815dd3d990b2f4", "is_disabled": 0, "rental_uris": {"ios": "https://dc.lft.to/lastmile_qr_scan", "android": "https://dc.lft.to/lastmile_qr_scan"}, "is_reserved": 0}, {"lon": -77.04210766666667, "bike_id": "40748a3b65555eb91b00882572680e60", "lat": 38.911218166666664, "fusion_lon": 0.0, "fusion_lat": 0.0, "type": "electric_scooter", "name": "40748a3b65555eb91b00882572680e60", "is_disabled": 0, "rental_uris": {"ios": "https://dc.lft.to/lastmile_qr_scan", "android": "https://dc.lft.to/lastmile_qr_scan"}, "is_reserved": 0}, {"lon": -77.02375883333333, "bike_id": "1a98ea731ac179f65db9af38f1cce725", "lat": 38.919759, "fusion_lon": 0.0, "fusion_lat": 0.0, "type": "electric_scooter", "name": "1a98ea731ac179f65db9af38f1cce725", "is_disabled": 0, "rental_uris": {"ios": "https://dc.lft.to/lastmile_qr_scan", "android": "https://dc.lft.to/lastmile_qr_scan"}, "is_reserved": 0}, {"lon": -76.97398816666667, "bike_id": "a3d2631813c3273a0c2ff59581ae48cd", "lat": 38.902994666666665, "fusion_lon": 0.0, "fusion_lat": 0.0, "type": "electric_scooter", "name": "a3d2631813c3273a0c2ff59581ae48cd", "is_disabled": 0, "rental_uris": {"ios": "https://dc.lft.to/lastmile_qr_scan", "android": "https://dc.lft.to/lastmile_qr_scan"}, "is_reserved": 0}, {"lon": -77.0399125, "bike_id": "61f105d95f74d677b1c59d28aaadcea3", "lat": 38.93432716666667, "fusion_lon": 0.0, "fusion_lat": 0.0, "type": "electric_scooter", "name": "61f105d95f74d677b1c59d28aaadcea3", "is_disabled": 0, "rental_uris": {"ios": "https://dc.lft.to/lastmile_qr_scan", "android": "https://dc.lft.to/lastmile_qr_scan"}, "is_reserved": 0}, {"lon": -77.027141, "bike_id": "ca0b5d4b27ea2d5fb29e1f6aa4cec176", "lat": 38.92467416666667, "fusion_lon": 0.0, "fusion_lat": 0.0, "type": "electric_scooter", "name": "ca0b5d4b27ea2d5fb29e1f6aa4cec176", "is_disabled": 0, "rental_uris": {"ios": "https://dc.lft.to/lastmile_qr_scan", "android": "https://dc.lft.to/lastmile_qr_scan"}, "is_reserved": 0}, {"lon": -76.98913366666666, "bike_id": "b77e0083be014125778cd43f76495c3e", "lat": 38.864924, "fusion_lon": 0.0, "fusion_lat": 0.0, "type": "electric_scooter", "name": "b77e0083be014125778cd43f76495c3e", "is_disabled": 0, "rental_uris": {"ios": "https://dc.lft.to/lastmile_qr_scan", "android": "https://dc.lft.to/lastmile_qr_scan"}, "is_reserved": 0}, {"lon": -77.03034966666667, "bike_id": "707c121434f0b0b00d5013af5668a7c0", "lat": 38.937126, "fusion_lon": 0.0, "fusion_lat": 0.0, "type": "electric_scooter", "name": "707c121434f0b0b00d5013af5668a7c0", "is_disabled": 0, "rental_uris": {"ios": "https://dc.lft.to/lastmile_qr_scan", "android": "https://dc.lft.to/lastmile_qr_scan"}, "is_reserved": 0}, {"lon": -77.02718, "bike_id": "b0ebae94c0decaab3ed7af622fc58881", "lat": 38.92282, "fusion_lon": 0.0, "fusion_lat": 0.0, "type": "electric_scooter", "name": "b0ebae94c0decaab3ed7af622fc58881", "is_disabled": 0, "rental_uris": {"ios": "https://dc.lft.to/lastmile_qr_scan", "android": "https://dc.lft.to/lastmile_qr_scan"}, "is_reserved": 0}, {"lon": -77.04335516666667, "bike_id": "4b7118719df04f9004b2508b3e7ac18c", "lat": 38.922241666666665, "fusion_lon": 0.0, "fusion_lat": 0.0, "type": "electric_scooter", "name": "4b7118719df04f9004b2508b3e7ac18c", "is_disabled": 0, "rental_uris": {"ios": "https://dc.lft.to/lastmile_qr_scan", "android": "https://dc.lft.to/lastmile_qr_scan"}, "is_reserved": 0}, {"lon": -77.0282045, "bike_id": "c288b093026a65c6b731f9b933ddd3b0", "lat": 38.895273333333336, "fusion_lon": 0.0, "fusion_lat": 0.0, "type": "electric_scooter", "name": "c288b093026a65c6b731f9b933ddd3b0", "is_disabled": 0, "rental_uris": {"ios": "https://dc.lft.to/lastmile_qr_scan", "android": "https://dc.lft.to/lastmile_qr_scan"}, "is_reserved": 0}, {"lon": -77.0381705, "bike_id": "4d562ea34b1ef3f09cfec633ad5f6bfd", "lat": 38.90971583333334, "fusion_lon": 0.0, "fusion_lat": 0.0, "type": "electric_scooter", "name": "4d562ea34b1ef3f09cfec633ad5f6bfd", "is_disabled": 0, "rental_uris": {"ios": "https://dc.lft.to/lastmile_qr_scan", "android": "https://dc.lft.to/lastmile_qr_scan"}, "is_reserved": 0}, {"lon": -77.04732383333334, "bike_id": "9e2d4fd9d9442131cfa6fe1b3197c08b", "lat": 38.903256, "fusion_lon": 0.0, "fusion_lat": 0.0, "type": "electric_scooter", "name": "9e2d4fd9d9442131cfa6fe1b3197c08b", "is_disabled": 0, "rental_uris": {"ios": "https://dc.lft.to/lastmile_qr_scan", "android": "https://dc.lft.to/lastmile_qr_scan"}, "is_reserved": 0}, {"lon": -76.97733666666667, "bike_id": "cfb215c524a54cf5dabe9c2b5abc6b24", "lat": 38.864647, "fusion_lon": 0.0, "fusion_lat": 0.0, "type": "electric_scooter", "name": "cfb215c524a54cf5dabe9c2b5abc6b24", "is_disabled": 0, "rental_uris": {"ios": "https://dc.lft.to/lastmile_qr_scan", "android": "https://dc.lft.to/lastmile_qr_scan"}, "is_reserved": 0}, {"lon": -77.04057566666667, "bike_id": "0f414966f8f7bf4e5dadd54c139abebf", "lat": 38.91485983333333, "fusion_lon": 0.0, "fusion_lat": 0.0, "type": "electric_scooter", "name": "0f414966f8f7bf4e5dadd54c139abebf", "is_disabled": 0, "rental_uris": {"ios": "https://dc.lft.to/lastmile_qr_scan", "android": "https://dc.lft.to/lastmile_qr_scan"}, "is_reserved": 0}, {"lon": -77.04344633333334, "bike_id": "112d59a0eaeb32853d4e07e6512330f3", "lat": 38.92148066666667, "fusion_lon": 0.0, "fusion_lat": 0.0, "type": "electric_scooter", "name": "112d59a0eaeb32853d4e07e6512330f3", "is_disabled": 0, "rental_uris": {"ios": "https://dc.lft.to/lastmile_qr_scan", "android": "https://dc.lft.to/lastmile_qr_scan"}, "is_reserved": 0}, {"lon": -77.01454583333333, "bike_id": "002e1bb49c9d309c8c8715a2e4e9cfa1", "lat": 38.90517533333333, "fusion_lon": 0.0, "fusion_lat": 0.0, "type": "electric_scooter", "name": "002e1bb49c9d309c8c8715a2e4e9cfa1", "is_disabled": 0, "rental_uris": {"ios": "https://dc.lft.to/lastmile_qr_scan", "android": "https://dc.lft.to/lastmile_qr_scan"}, "is_reserved": 0}, {"lon": -77.011513, "bike_id": "1164e881e9df63ce30e49b7629c691e9", "lat": 38.89579716666667, "fusion_lon": 0.0, "fusion_lat": 0.0, "type": "electric_scooter", "name": "1164e881e9df63ce30e49b7629c691e9", "is_disabled": 0, "rental_uris": {"ios": "https://dc.lft.to/lastmile_qr_scan", "android": "https://dc.lft.to/lastmile_qr_scan"}, "is_reserved": 0}, {"lon": -77.034729, "bike_id": "a1e0494981c7f96c2052cd0e2c9cec33", "lat": 38.9022735, "fusion_lon": 0.0, "fusion_lat": 0.0, "type": "electric_scooter", "name": "a1e0494981c7f96c2052cd0e2c9cec33", "is_disabled": 0, "rental_uris": {"ios": "https://dc.lft.to/lastmile_qr_scan", "android": "https://dc.lft.to/lastmile_qr_scan"}, "is_reserved": 0}, {"lon": -76.98852883333333, "bike_id": "a6987dcf2f8bb5e9a5d82c7579226718", "lat": 38.901309833333336, "fusion_lon": 0.0, "fusion_lat": 0.0, "type": "electric_scooter", "name": "a6987dcf2f8bb5e9a5d82c7579226718", "is_disabled": 0, "rental_uris": {"ios": "https://dc.lft.to/lastmile_qr_scan", "android": "https://dc.lft.to/lastmile_qr_scan"}, "is_reserved": 0}, {"lon": -77.0321875, "bike_id": "465ba44e72919785318b74353f746d09", "lat": 38.90968566666667, "fusion_lon": 0.0, "fusion_lat": 0.0, "type": "electric_scooter", "name": "465ba44e72919785318b74353f746d09", "is_disabled": 0, "rental_uris": {"ios": "https://dc.lft.to/lastmile_qr_scan", "android": "https://dc.lft.to/lastmile_qr_scan"}, "is_reserved": 0}, {"lon": -77.03216966666666, "bike_id": "c1b164441906104937e2cb49eb71302c", "lat": 38.892206, "fusion_lon": 0.0, "fusion_lat": 0.0, "type": "electric_scooter", "name": "c1b164441906104937e2cb49eb71302c", "is_disabled": 0, "rental_uris": {"ios": "https://dc.lft.to/lastmile_qr_scan", "android": "https://dc.lft.to/lastmile_qr_scan"}, "is_reserved": 0}, {"lon": -77.1221795, "bike_id": "5ab10ecd530b3fa502ff631a1699b680", "lat": 38.85300683333333, "fusion_lon": 0.0, "fusion_lat": 0.0, "type": "electric_bike", "name": "5ab10ecd530b3fa502ff631a1699b680", "is_disabled": 0, "rental_uris": {"ios": "https://dc.lft.to/lastmile_qr_scan", "android": "https://dc.lft.to/lastmile_qr_scan"}, "is_reserved": 0}, {"lon": -77.021849, "bike_id": "a3a4409a97b6eda539a196d4d79a3037", "lat": 38.9019625, "fusion_lon": 0.0, "fusion_lat": 0.0, "type": "electric_scooter", "name": "a3a4409a97b6eda539a196d4d79a3037", "is_disabled": 0, "rental_uris": {"ios": "https://dc.lft.to/lastmile_qr_scan", "android": "https://dc.lft.to/lastmile_qr_scan"}, "is_reserved": 0}, {"lon": -77.0386755, "bike_id": "d44746e8889f98d7013696dd89024c6f", "lat": 38.912654833333335, "fusion_lon": 0.0, "fusion_lat": 0.0, "type": "electric_scooter", "name": "d44746e8889f98d7013696dd89024c6f", "is_disabled": 0, "rental_uris": {"ios": "https://dc.lft.to/lastmile_qr_scan", "android": "https://dc.lft.to/lastmile_qr_scan"}, "is_reserved": 0}, {"lon": -76.99269016666666, "bike_id": "7e997e16628db658fc9b5c992e08971c", "lat": 38.897672166666666, "fusion_lon": 0.0, "fusion_lat": 0.0, "type": "electric_scooter", "name": "7e997e16628db658fc9b5c992e08971c", "is_disabled": 0, "rental_uris": {"ios": "https://dc.lft.to/lastmile_qr_scan", "android": "https://dc.lft.to/lastmile_qr_scan"}, "is_reserved": 0}, {"lon": -76.9832975, "bike_id": "6d97259d4156d2c77c6e77ab99ebdf0c", "lat": 38.9008945, "fusion_lon": 0.0, "fusion_lat": 0.0, "type": "electric_scooter", "name": "6d97259d4156d2c77c6e77ab99ebdf0c", "is_disabled": 0, "rental_uris": {"ios": "https://dc.lft.to/lastmile_qr_scan", "android": "https://dc.lft.to/lastmile_qr_scan"}, "is_reserved": 0}, {"lon": -76.94892766666666, "bike_id": "900182707fcecde9ef1ceb3ac7673155", "lat": 38.895294166666666, "fusion_lon": 0.0, "fusion_lat": 0.0, "type": "electric_scooter", "name": "900182707fcecde9ef1ceb3ac7673155", "is_disabled": 0, "rental_uris": {"ios": "https://dc.lft.to/lastmile_qr_scan", "android": "https://dc.lft.to/lastmile_qr_scan"}, "is_reserved": 0}, {"lon": -77.0318965, "bike_id": "4698158d773854075c0a975d56e5f66a", "lat": 38.91902316666667, "fusion_lon": 0.0, "fusion_lat": 0.0, "type": "electric_scooter", "name": "4698158d773854075c0a975d56e5f66a", "is_disabled": 0, "rental_uris": {"ios": "https://dc.lft.to/lastmile_qr_scan", "android": "https://dc.lft.to/lastmile_qr_scan"}, "is_reserved": 0}, {"lon": -77.00275466666666, "bike_id": "0e67be6bdf17a8be7020938eddc22bbf", "lat": 38.9521725, "fusion_lon": 0.0, "fusion_lat": 0.0, "type": "electric_bike", "name": "0e67be6bdf17a8be7020938eddc22bbf", "is_disabled": 0, "rental_uris": {"ios": "https://dc.lft.to/lastmile_qr_scan", "android": "https://dc.lft.to/lastmile_qr_scan"}, "is_reserved": 0}, {"lon": -77.0183425, "bike_id": "f279de530cbda05bb2fb47e448719ee3", "lat": 38.90144933333333, "fusion_lon": 0.0, "fusion_lat": 0.0, "type": "electric_scooter", "name": "f279de530cbda05bb2fb47e448719ee3", "is_disabled": 0, "rental_uris": {"ios": "https://dc.lft.to/lastmile_qr_scan", "android": "https://dc.lft.to/lastmile_qr_scan"}, "is_reserved": 0}, {"lon": -77.08817916666666, "bike_id": "ecbcd52c801d8ac5ae0e21b7bfca69a3", "lat": 38.90970866666667, "fusion_lon": 0.0, "fusion_lat": 0.0, "type": "electric_scooter", "name": "ecbcd52c801d8ac5ae0e21b7bfca69a3", "is_disabled": 0, "rental_uris": {"ios": "https://dc.lft.to/lastmile_qr_scan", "android": "https://dc.lft.to/lastmile_qr_scan"}, "is_reserved": 0}, {"lon": -77.0020535, "bike_id": "9bb855d9986dd7e65c8eb02aa2ff574c", "lat": 38.90035833333334, "fusion_lon": 0.0, "fusion_lat": 0.0, "type": "electric_scooter", "name": "9bb855d9986dd7e65c8eb02aa2ff574c", "is_disabled": 0, "rental_uris": {"ios": "https://dc.lft.to/lastmile_qr_scan", "android": "https://dc.lft.to/lastmile_qr_scan"}, "is_reserved": 0}, {"lon": -77.02392816666666, "bike_id": "d1f897975a48c1d97a7444cdd9803dfb", "lat": 38.9098395, "fusion_lon": 0.0, "fusion_lat": 0.0, "type": "electric_scooter", "name": "d1f897975a48c1d97a7444cdd9803dfb", "is_disabled": 0, "rental_uris": {"ios": "https://dc.lft.to/lastmile_qr_scan", "android": "https://dc.lft.to/lastmile_qr_scan"}, "is_reserved": 0}, {"lon": -76.991015, "bike_id": "0f550813c08ff3b3392c2a8253e2104d", "lat": 38.9031945, "fusion_lon": 0.0, "fusion_lat": 0.0, "type": "electric_scooter", "name": "0f550813c08ff3b3392c2a8253e2104d", "is_disabled": 0, "rental_uris": {"ios": "https://dc.lft.to/lastmile_qr_scan", "android": "https://dc.lft.to/lastmile_qr_scan"}, "is_reserved": 0}, {"lon": -77.01866266666667, "bike_id": "d95516b18230ef993b3fceae304f0bc1", "lat": 38.951510166666665, "fusion_lon": 0.0, "fusion_lat": 0.0, "type": "electric_scooter", "name": "d95516b18230ef993b3fceae304f0bc1", "is_disabled": 0, "rental_uris": {"ios": "https://dc.lft.to/lastmile_qr_scan", "android": "https://dc.lft.to/lastmile_qr_scan"}, "is_reserved": 0}, {"lon": -77.03922133333333, "bike_id": "73d2152afe83dc1e10853db9e72f404e", "lat": 38.928037833333335, "fusion_lon": 0.0, "fusion_lat": 0.0, "type": "electric_scooter", "name": "73d2152afe83dc1e10853db9e72f404e", "is_disabled": 0, "rental_uris": {"ios": "https://dc.lft.to/lastmile_qr_scan", "android": "https://dc.lft.to/lastmile_qr_scan"}, "is_reserved": 0}, {"lon": -77.00692616666667, "bike_id": "e9e5da64c24082f04ec33309b9ec482d", "lat": 38.90032716666666, "fusion_lon": 0.0, "fusion_lat": 0.0, "type": "electric_scooter", "name": "e9e5da64c24082f04ec33309b9ec482d", "is_disabled": 0, "rental_uris": {"ios": "https://dc.lft.to/lastmile_qr_scan", "android": "https://dc.lft.to/lastmile_qr_scan"}, "is_reserved": 0}, {"lon": -77.03182866666667, "bike_id": "e6b7f9d46d2b0e6033567e181f481696", "lat": 38.90520633333333, "fusion_lon": 0.0, "fusion_lat": 0.0, "type": "electric_scooter", "name": "e6b7f9d46d2b0e6033567e181f481696", "is_disabled": 0, "rental_uris": {"ios": "https://dc.lft.to/lastmile_qr_scan", "android": "https://dc.lft.to/lastmile_qr_scan"}, "is_reserved": 0}, {"lon": -76.97618583333333, "bike_id": "38ccd116fb79ec428131e7b359a0462d", "lat": 38.92652133333333, "fusion_lon": 0.0, "fusion_lat": 0.0, "type": "electric_scooter", "name": "38ccd116fb79ec428131e7b359a0462d", "is_disabled": 0, "rental_uris": {"ios": "https://dc.lft.to/lastmile_qr_scan", "android": "https://dc.lft.to/lastmile_qr_scan"}, "is_reserved": 0}, {"lon": -77.0881105, "bike_id": "5fa272cab5fb0ba56050c066c52225de", "lat": 38.9117465, "fusion_lon": 0.0, "fusion_lat": 0.0, "type": "electric_bike", "name": "5fa272cab5fb0ba56050c066c52225de", "is_disabled": 0, "rental_uris": {"ios": "https://dc.lft.to/lastmile_qr_scan", "android": "https://dc.lft.to/lastmile_qr_scan"}, "is_reserved": 0}, {"lon": -76.95234366666666, "bike_id": "e25127f2c6cbe71b7df183685090f65d", "lat": 38.89098883333333, "fusion_lon": 0.0, "fusion_lat": 0.0, "type": "electric_scooter", "name": "e25127f2c6cbe71b7df183685090f65d", "is_disabled": 0, "rental_uris": {"ios": "https://dc.lft.to/lastmile_qr_scan", "android": "https://dc.lft.to/lastmile_qr_scan"}, "is_reserved": 0}, {"lon": -77.04600966666666, "bike_id": "8e17890d9e009f2fb34e4075dccef195", "lat": 38.91380983333333, "fusion_lon": 0.0, "fusion_lat": 0.0, "type": "electric_scooter", "name": "8e17890d9e009f2fb34e4075dccef195", "is_disabled": 0, "rental_uris": {"ios": "https://dc.lft.to/lastmile_qr_scan", "android": "https://dc.lft.to/lastmile_qr_scan"}, "is_reserved": 0}, {"lon": -77.02489016666667, "bike_id": "6f4b09cb67f3a154773f61c1d7fdd949", "lat": 38.93866633333333, "fusion_lon": 0.0, "fusion_lat": 0.0, "type": "electric_scooter", "name": "6f4b09cb67f3a154773f61c1d7fdd949", "is_disabled": 0, "rental_uris": {"ios": "https://dc.lft.to/lastmile_qr_scan", "android": "https://dc.lft.to/lastmile_qr_scan"}, "is_reserved": 0}, {"lon": -77.0076695, "bike_id": "a78c009cebe1e9605b1db0025c0b70b8", "lat": 38.897644666666665, "fusion_lon": 0.0, "fusion_lat": 0.0, "type": "electric_bike", "name": "a78c009cebe1e9605b1db0025c0b70b8", "is_disabled": 0, "rental_uris": {"ios": "https://dc.lft.to/lastmile_qr_scan", "android": "https://dc.lft.to/lastmile_qr_scan"}, "is_reserved": 0}, {"lon": -77.0142345, "bike_id": "f9fe5131a2145b1d6eadc0b4ad58b35c", "lat": 38.92839033333333, "fusion_lon": 0.0, "fusion_lat": 0.0, "type": "electric_scooter", "name": "f9fe5131a2145b1d6eadc0b4ad58b35c", "is_disabled": 0, "rental_uris": {"ios": "https://dc.lft.to/lastmile_qr_scan", "android": "https://dc.lft.to/lastmile_qr_scan"}, "is_reserved": 0}, {"lon": -76.9870755, "bike_id": "f6eea22b71272978d7f421dd1dbf6669", "lat": 38.866997, "fusion_lon": 0.0, "fusion_lat": 0.0, "type": "electric_scooter", "name": "f6eea22b71272978d7f421dd1dbf6669", "is_disabled": 0, "rental_uris": {"ios": "https://dc.lft.to/lastmile_qr_scan", "android": "https://dc.lft.to/lastmile_qr_scan"}, "is_reserved": 0}, {"lon": -77.03081183333333, "bike_id": "444a4700f7eec64946e45fe3152566de", "lat": 38.93521716666667, "fusion_lon": 0.0, "fusion_lat": 0.0, "type": "electric_scooter", "name": "444a4700f7eec64946e45fe3152566de", "is_disabled": 0, "rental_uris": {"ios": "https://dc.lft.to/lastmile_qr_scan", "android": "https://dc.lft.to/lastmile_qr_scan"}, "is_reserved": 0}, {"lon": -77.03178366666667, "bike_id": "87c7516888461413ab72690c83a6119f", "lat": 38.88734383333333, "fusion_lon": 0.0, "fusion_lat": 0.0, "type": "electric_scooter", "name": "87c7516888461413ab72690c83a6119f", "is_disabled": 0, "rental_uris": {"ios": "https://dc.lft.to/lastmile_qr_scan", "android": "https://dc.lft.to/lastmile_qr_scan"}, "is_reserved": 0}, {"lon": -77.02153483333333, "bike_id": "62a550a0e82d464559ff1576bee6cda6", "lat": 38.895032666666665, "fusion_lon": 0.0, "fusion_lat": 0.0, "type": "electric_scooter", "name": "62a550a0e82d464559ff1576bee6cda6", "is_disabled": 0, "rental_uris": {"ios": "https://dc.lft.to/lastmile_qr_scan", "android": "https://dc.lft.to/lastmile_qr_scan"}, "is_reserved": 0}, {"lon": -77.02892483333333, "bike_id": "db7583a0ff595484de17724524b3c556", "lat": 38.939784833333334, "fusion_lon": 0.0, "fusion_lat": 0.0, "type": "electric_scooter", "name": "db7583a0ff595484de17724524b3c556", "is_disabled": 0, "rental_uris": {"ios": "https://dc.lft.to/lastmile_qr_scan", "android": "https://dc.lft.to/lastmile_qr_scan"}, "is_reserved": 0}, {"lon": -77.00156616666666, "bike_id": "0c8e3f16a8c5cd410c0f35c2ed38ff04", "lat": 38.842764333333335, "fusion_lon": 0.0, "fusion_lat": 0.0, "type": "electric_scooter", "name": "0c8e3f16a8c5cd410c0f35c2ed38ff04", "is_disabled": 0, "rental_uris": {"ios": "https://dc.lft.to/lastmile_qr_scan", "android": "https://dc.lft.to/lastmile_qr_scan"}, "is_reserved": 0}, {"lon": -77.03170116666666, "bike_id": "9f159e5893b88c9a9a5a12a275405721", "lat": 38.88404216666667, "fusion_lon": 0.0, "fusion_lat": 0.0, "type": "electric_scooter", "name": "9f159e5893b88c9a9a5a12a275405721", "is_disabled": 0, "rental_uris": {"ios": "https://dc.lft.to/lastmile_qr_scan", "android": "https://dc.lft.to/lastmile_qr_scan"}, "is_reserved": 0}, {"lon": -77.01775483333333, "bike_id": "9f3597845746f3ff47d0d1ae3011f2bb", "lat": 38.92115883333334, "fusion_lon": 0.0, "fusion_lat": 0.0, "type": "electric_scooter", "name": "9f3597845746f3ff47d0d1ae3011f2bb", "is_disabled": 0, "rental_uris": {"ios": "https://dc.lft.to/lastmile_qr_scan", "android": "https://dc.lft.to/lastmile_qr_scan"}, "is_reserved": 0}, {"lon": -77.026943, "bike_id": "c3ebe972d7de984dcfb6114c87af0010", "lat": 38.908434, "fusion_lon": 0.0, "fusion_lat": 0.0, "type": "electric_scooter", "name": "c3ebe972d7de984dcfb6114c87af0010", "is_disabled": 0, "rental_uris": {"ios": "https://dc.lft.to/lastmile_qr_scan", "android": "https://dc.lft.to/lastmile_qr_scan"}, "is_reserved": 0}, {"lon": -76.98707233333333, "bike_id": "80e087f69d7de85eb28b0019c198f443", "lat": 38.8669295, "fusion_lon": 0.0, "fusion_lat": 0.0, "type": "electric_scooter", "name": "80e087f69d7de85eb28b0019c198f443", "is_disabled": 0, "rental_uris": {"ios": "https://dc.lft.to/lastmile_qr_scan", "android": "https://dc.lft.to/lastmile_qr_scan"}, "is_reserved": 0}, {"lon": -77.01982, "bike_id": "528ad09f289fb489ff0a01c63c9fc78f", "lat": 38.960277, "fusion_lon": 0.0, "fusion_lat": 0.0, "type": "electric_scooter", "name": "528ad09f289fb489ff0a01c63c9fc78f", "is_disabled": 0, "rental_uris": {"ios": "https://dc.lft.to/lastmile_qr_scan", "android": "https://dc.lft.to/lastmile_qr_scan"}, "is_reserved": 0}, {"lon": -76.99185683333333, "bike_id": "01c8741bdeb0f283c5e98fc6b0b51fca", "lat": 38.90838766666667, "fusion_lon": 0.0, "fusion_lat": 0.0, "type": "electric_scooter", "name": "01c8741bdeb0f283c5e98fc6b0b51fca", "is_disabled": 0, "rental_uris": {"ios": "https://dc.lft.to/lastmile_qr_scan", "android": "https://dc.lft.to/lastmile_qr_scan"}, "is_reserved": 0}, {"lon": -77.0088215, "bike_id": "0d80043b2fdb9865e231c282559affdd", "lat": 38.91792316666667, "fusion_lon": 0.0, "fusion_lat": 0.0, "type": "electric_scooter", "name": "0d80043b2fdb9865e231c282559affdd", "is_disabled": 0, "rental_uris": {"ios": "https://dc.lft.to/lastmile_qr_scan", "android": "https://dc.lft.to/lastmile_qr_scan"}, "is_reserved": 0}, {"lon": -76.9317805, "bike_id": "fac5c07a430973380c5e3dfd06aca95e", "lat": 38.898851666666665, "fusion_lon": 0.0, "fusion_lat": 0.0, "type": "electric_scooter", "name": "fac5c07a430973380c5e3dfd06aca95e", "is_disabled": 0, "rental_uris": {"ios": "https://dc.lft.to/lastmile_qr_scan", "android": "https://dc.lft.to/lastmile_qr_scan"}, "is_reserved": 0},