{"data": {"bikes": [{"is_reserved": 0, "is_disabled": 0, "fusion_lat": 0.0, "name": "f90318d07d3d457715bf9093ba97230d", "lat": 38.9126865, "lon": -77.0476925, "bike_id": "f90318d07d3d457715bf9093ba97230d", "rental_uris": {"ios": "https://dc.lft.to/lastmile_qr_scan", "android": "https://dc.lft.to/lastmile_qr_scan"}, "type": "electric_scooter", "fusion_lon": 0.0}, {"is_reserved": 0, "is_disabled": 0, "fusion_lat": 0.0, "name": "ae2ad896bb605e5e02aa0d44aaf586c7", "lat": 38.90356333333333, "lon": -77.04012033333333, "bike_id": "ae2ad896bb605e5e02aa0d44aaf586c7", "rental_uris": {"ios": "https://dc.lft.to/lastmile_qr_scan", "android": "https://dc.lft.to/lastmile_qr_scan"}, "type": "electric_scooter", "fusion_lon": 0.0}, {"is_reserved": 0, "is_disabled": 0, "fusion_lat": 0.0, "name": "5c3789fa5f3c8690c6be0f8f84264969", "lat": 38.9017755, "lon": -77.02302416666667, "bike_id": "5c3789fa5f3c8690c6be0f8f84264969", "rental_uris": {"ios": "https://dc.lft.to/lastmile_qr_scan", "android": "https://dc.lft.to/lastmile_qr_scan"}, "type": "electric_scooter", "fusion_lon": 0.0}, {"is_reserved": 0, "is_disabled": 0, "fusion_lat": 0.0, "name": "3e128a210ae47b2538ecca8b99aec337", "lat": 38.887693166666665, "lon": -76.97732416666666, "bike_id": "3e128a210ae47b2538ecca8b99aec337", "rental_uris": {"ios": "https://dc.lft.to/lastmile_qr_scan", "android": "https://dc.lft.to/lastmile_qr_scan"}, "type": "electric_scooter", "fusion_lon": 0.0}, {"is_reserved": 0, "is_disabled": 0, "fusion_lat": 0.0, "name": "750415d1c64cd891f7cba844275de2e4", "lat": 38.918595, "lon": -77.04037716666667, "bike_id": "750415d1c64cd891f7cba844275de2e4", "rental_uris": {"ios": "https://dc.lft.to/lastmile_qr_scan", "android": "https://dc.lft.to/lastmile_qr_scan"}, "type": "electric_scooter", "fusion_lon": 0.0}, {"is_reserved": 0, "is_disabled": 0, "fusion_lat": 0.0, "name": "10b134b4ad4bdc679e0647da1ddedd7b", "lat": 38.89945683333333, "lon": -76.93780616666666, "bike_id": "10b134b4ad4bdc679e0647da1ddedd7b", "rental_uris": {"ios": "https://dc.lft.to/lastmile_qr_scan", "android": "https://dc.lft.to/lastmile_qr_scan"}, "type": "electric_scooter", "fusion_lon": 0.0}, {"is_reserved": 0, "is_disabled": 0, "fusion_lat": 0.0, "name": "87c1e545b9c36f6b9ee9a3c2de705470", "lat": 38.936224833333334, "lon": -77.0247875, "bike_id": "87c1e545b9c36f6b9ee9a3c2de705470", "rental_uris": {"ios": "https://dc.lft.to/lastmile_qr_scan", "android": "https://dc.lft.to/lastmile_qr_scan"}, "type": "electric_scooter", "fusion_lon": 0.0}, {"is_reserved": 0, "is_disabled": 0, "fusion_lat": 0.0, "name": "5abb0af92b9ed260433abd1a9fff5e02", "lat": 38.874395, "lon": -77.00062933333334, "bike_id": "5abb0af92b9ed260433abd1a9fff5e02", "rental_uris": {"ios": "https://dc.lft.to/lastmile_qr_scan", "android": "https://dc.lft.to/lastmile_qr_scan"}, "type": "electric_scooter", "fusion_lon": 0.0}, {"is_reserved": 0, "is_disabled": 0, "fusion_lat": 0.0, "name": "a334a3adec6ae882173b16c1dca6b389", "lat": 38.915539, "lon": -77.02987316666666, "bike_id": "a334a3adec6ae882173b16c1dca6b389", "rental_uris": {"ios": "https://dc.lft.to/lastmile_qr_scan", "android": "https://dc.lft.to/lastmile_qr_scan"}, "type": "electric_scooter", "fusion_lon": 0.0}, {"is_reserved": 0, "is_disabled": 0, "fusion_lat": 0.0, "name": "a2c6b68f8498687a99356639ebf2771d", "lat": 38.90516366666667, "lon": -77.06294283333334, "bike_id": "a2c6b68f8498687a99356639ebf2771d", "rental_uris": {"ios": "https://dc.lft.to/lastmile_qr_scan", "android": "https://dc.lft.to/lastmile_qr_scan"}, "type": "electric_scooter", "fusion_lon": 0.0}, {"is_reserved": 0, "is_disabled": 0, "fusion_lat": 0.0, "name": "83213734cf1cc49dd1466e75b3b29c6e", "lat": 38.876344333333336, "lon": -77.0021775, "bike_id": "83213734cf1cc49dd1466e75b3b29c6e", "rental_uris": {"ios": "https://dc.lft.to/lastmile_qr_scan", "android": "https://dc.lft.to/lastmile_qr_scan"}, "type": "electric_scooter", "fusion_lon": 0.0}, {"is_reserved": 0, "is_disabled": 0, "fusion_lat": 0.0, "name": "4ced559a436ff051496e4d096c6e97da", "lat": 38.903178833333335, "lon": -77.03985883333333, "bike_id": "4ced559a436ff051496e4d096c6e97da", "rental_uris": {"ios": "https://dc.lft.to/lastmile_qr_scan", "android": "https://dc.lft.to/lastmile_qr_scan"}, "type": "electric_scooter", "fusion_lon": 0.0}, {"is_reserved": 0, "is_disabled": 0, "fusion_lat": 0.0, "name": "8de51b346208758ac543cff6b7d23a3c", "lat": 38.912789, "lon": -77.0679775, "bike_id": "8de51b346208758ac543cff6b7d23a3c", "rental_uris": {"ios": "https://dc.lft.to/lastmile_qr_scan", "android": "https://dc.lft.to/lastmile_qr_scan"}, "type": "electric_scooter", "fusion_lon": 0.0}, {"is_reserved": 0, "is_disabled": 0, "fusion_lat": 0.0, "name": "6af9e877b6b481aaf4a1351d993a6b73", "lat": 38.91770983333333, "lon": -77.0237615, "bike_id": "6af9e877b6b481aaf4a1351d993a6b73", "rental_uris": {"ios": "https://dc.lft.to/lastmile_qr_scan", "android": "https://dc.lft.to/lastmile_qr_scan"}, "type": "electric_scooter", "fusion_lon": 0.0}, {"is_reserved": 0, "is_disabled": 0, "fusion_lat": 0.0, "name": "04ac0e1cce918e2b5d733b168b72453a", "lat": 38.8876945, "lon": -76.97733133333334, "bike_id": "04ac0e1cce918e2b5d733b168b72453a", "rental_uris": {"ios": "https://dc.lft.to/lastmile_qr_scan", "android": "https://dc.lft.to/lastmile_qr_scan"}, "type": "electric_scooter", "fusion_lon": 0.0}, {"is_reserved": 0, "is_disabled": 0, "fusion_lat": 0.0, "name": "5318a4181f2ac578a865daf6c7540f56", "lat": 38.92433666666667, "lon": -77.01949966666666, "bike_id": "5318a4181f2ac578a865daf6c7540f56", "rental_uris": {"ios": "https://dc.lft.to/lastmile_qr_scan", "android": "https://dc.lft.to/lastmile_qr_scan"}, "type": "electric_scooter", "fusion_lon": 0.0}, {"is_reserved": 0, "is_disabled": 0, "fusion_lat": 0.0, "name": "1185b80b58d85ef9b43d960e7983ff3a", "lat": 38.924211666666665, "lon": -77.01949633333334, "bike_id": "1185b80b58d85ef9b43d960e7983ff3a", "rental_uris": {"ios": "https://dc.lft.to/lastmile_qr_scan", "android": "https://dc.lft.to/lastmile_qr_scan"}, "type": "electric_scooter", "fusion_lon": 0.0}, {"is_reserved": 0, "is_disabled": 0, "fusion_lat": 0.0, "name": "c5352273fb068211890a67eb6cff3ec7", "lat": 38.9023955, "lon": -77.00201133333333, "bike_id": "c5352273fb068211890a67eb6cff3ec7", "rental_uris": {"ios": "https://dc.lft.to/lastmile_qr_scan", "android": "https://dc.lft.to/lastmile_qr_scan"}, "type": "electric_scooter", "fusion_lon": 0.0}, {"is_reserved": 0, "is_disabled": 0, "fusion_lat": 0.0, "name": "6cff3130378463f759c4f530b3af139c", "lat": 38.9136025, "lon": -77.0205825, "bike_id": "6cff3130378463f759c4f530b3af139c", "rental_uris": {"ios": "https://dc.lft.to/lastmile_qr_scan", "android": "https://dc.lft.to/lastmile_qr_scan"}, "type": "electric_scooter", "fusion_lon": 0.0}, {"is_reserved": 0, "is_disabled": 0, "fusion_lat": 0.0, "name": "cf221c7bd4e165796ac9117c524797b1", "lat": 38.8925425, "lon": -77.04500983333334, "bike_id": "cf221c7bd4e165796ac9117c524797b1", "rental_uris": {"ios": "https://dc.lft.to/lastmile_qr_scan", "android": "https://dc.lft.to/lastmile_qr_scan"}, "type": "electric_scooter", "fusion_lon": 0.0}, {"is_reserved": 0, "is_disabled": 0, "fusion_lat": 0.0, "name": "7833e02b74b3de145e4fa1e8528e364f", "lat": 38.91806716666667, "lon": -77.0385975, "bike_id": "7833e02b74b3de145e4fa1e8528e364f", "rental_uris": {"ios": "https://dc.lft.to/lastmile_qr_scan", "android": "https://dc.lft.to/lastmile_qr_scan"}, "type": "electric_scooter", "fusion_lon": 0.0}, {"is_reserved": 0, "is_disabled": 0, "fusion_lat": 0.0, "name": "afde9d7753f859faf671a61a8cbd2999", "lat": 38.894141166666664, "lon": -77.0108505, "bike_id": "afde9d7753f859faf671a61a8cbd2999", "rental_uris": {"ios": "https://dc.lft.to/lastmile_qr_scan", "android": "https://dc.lft.to/lastmile_qr_scan"}, "type": "electric_scooter", "fusion_lon": 0.0}, {"is_reserved": 0, "is_disabled": 0, "fusion_lat": 0.0, "name": "b0cef97e0dd277b02f540c488be81202", "lat": 38.91740033333333, "lon": -77.021163, "bike_id": "b0cef97e0dd277b02f540c488be81202", "rental_uris": {"ios": "https://dc.lft.to/lastmile_qr_scan", "android": "https://dc.lft.to/lastmile_qr_scan"}, "type": "electric_scooter", "fusion_lon": 0.0}, {"is_reserved": 0, "is_disabled": 0, "fusion_lat": 0.0, "name": "e1fe814935e64e1ba4d417eea1ca346f", "lat": 38.9233875, "lon": -77.02133333333333, "bike_id": "e1fe814935e64e1ba4d417eea1ca346f", "rental_uris": {"ios": "https://dc.lft.to/lastmile_qr_scan", "android": "https://dc.lft.to/lastmile_qr_scan"}, "type": "electric_scooter", "fusion_lon": 0.0}, {"is_reserved": 0, "is_disabled": 0, "fusion_lat": 0.0, "name": "28db50b894080c50eb7bd23e52e9321f", "lat": 38.924144166666665, "lon": -77.0504435, "bike_id": "28db50b894080c50eb7bd23e52e9321f", "rental_uris": {"ios": "https://dc.lft.to/lastmile_qr_scan", "android": "https://dc.lft.to/lastmile_qr_scan"}, "type": "electric_bike", "fusion_lon": 0.0}, {"is_reserved": 0, "is_disabled": 0, "fusion_lat": 0.0, "name": "1b925dc457fd24058404a9378fe26dc5", "lat": 38.91772066666667, "lon": -77.04749, "bike_id": "1b925dc457fd24058404a9378fe26dc5", "rental_uris": {"ios": "https://dc.lft.to/lastmile_qr_scan", "android": "https://dc.lft.to/lastmile_qr_scan"}, "type": "electric_scooter", "fusion_lon": 0.0}, {"is_reserved": 0, "is_disabled": 0, "fusion_lat": 0.0, "name": "35ae1d4f340f5d74f650b891ab3acc84", "lat": 38.899033333333335, "lon": -77.00746416666667, "bike_id": "35ae1d4f340f5d74f650b891ab3acc84", "rental_uris": {"ios": "https://dc.lft.to/lastmile_qr_scan", "android": "https://dc.lft.to/lastmile_qr_scan"}, "type": "electric_scooter", "fusion_lon": 0.0}, {"is_reserved": 0, "is_disabled": 0, "fusion_lat": 0.0, "name": "421792a42152c67d886236019d5b37db", "lat": 38.906755, "lon": -77.03858016666666, "bike_id": "421792a42152c67d886236019d5b37db", "rental_uris": {"ios": "https://dc.lft.to/lastmile_qr_scan", "android": "https://dc.lft.to/lastmile_qr_scan"}, "type": "electric_scooter", "fusion_lon": 0.0}, {"is_reserved": 0, "is_disabled": 0, "fusion_lat": 0.0, "name": "662d6d322974085a340d6489f2bc6732", "lat": 38.897122, "lon": -77.01311716666666, "bike_id": "662d6d322974085a340d6489f2bc6732", "rental_uris": {"ios": "https://dc.lft.to/lastmile_qr_scan", "android": "https://dc.lft.to/lastmile_qr_scan"}, "type": "electric_scooter", "fusion_lon": 0.0}, {"is_reserved": 0, "is_disabled": 0, "fusion_lat": 0.0, "name": "d20ade87ac44d7aacb9fa13ce61609d3", "lat": 38.92318316666667, "lon": -77.041105, "bike_id": "d20ade87ac44d7aacb9fa13ce61609d3", "rental_uris": {"ios": "https://dc.lft.to/lastmile_qr_scan", "android": "https://dc.lft.to/lastmile_qr_scan"}, "type": "electric_scooter", "fusion_lon": 0.0}, {"is_reserved": 0, "is_disabled": 0, "fusion_lat": 0.0, "name": "f48ee99bdfb776b1b17f2d22ce86313b", "lat": 38.91541433333333, "lon": -77.0442175, "bike_id": "f48ee99bdfb776b1b17f2d22ce86313b", "rental_uris": {"ios": "https://dc.lft.to/lastmile_qr_scan", "android": "https://dc.lft.to/lastmile_qr_scan"}, "type": "electric_scooter", "fusion_lon": 0.0}, {"is_reserved": 0, "is_disabled": 0, "fusion_lat": 0.0, "name": "9f6da77124c6b1b9596e840bab32a411", "lat": 38.89718083333333, "lon": -77.013575, "bike_id": "9f6da77124c6b1b9596e840bab32a411", "rental_uris": {"ios": "https://dc.lft.to/lastmile_qr_scan", "android": "https://dc.lft.to/lastmile_qr_scan"}, "type": "electric_scooter", "fusion_lon": 0.0}, {"is_reserved": 0, "is_disabled": 0, "fusion_lat": 0.0, "name": "42167f61c685be367d687a67c9ff7c10", "lat": 38.932294166666665, "lon": -77.02974866666666, "bike_id": "42167f61c685be367d687a67c9ff7c10", "rental_uris": {"ios": "https://dc.lft.to/lastmile_qr_scan", "android": "https://dc.lft.to/lastmile_qr_scan"}, "type": "electric_scooter", "fusion_lon": 0.0}, {"is_reserved": 0, "is_disabled": 0, "fusion_lat": 0.0, "name": "fa5ef6402132c409f9f88102a7e48ca0", "lat": 38.93203316666666, "lon": -77.01876366666667, "bike_id": "fa5ef6402132c409f9f88102a7e48ca0", "rental_uris": {"ios": "https://dc.lft.to/lastmile_qr_scan", "android": "https://dc.lft.to/lastmile_qr_scan"}, "type": "electric_scooter", "fusion_lon": 0.0}, {"is_reserved": 0, "is_disabled": 0, "fusion_lat": 0.0, "name": "8b056c05ab82cb2d8b3fe5a390a7596b", "lat": 38.92451033333333, "lon": -77.02042533333334, "bike_id": "8b056c05ab82cb2d8b3fe5a390a7596b", "rental_uris": {"ios": "https://dc.lft.to/lastmile_qr_scan", "android": "https://dc.lft.to/lastmile_qr_scan"}, "type": "electric_scooter", "fusion_lon": 0.0}, {"is_reserved": 0, "is_disabled": 0, "fusion_lat": 0.0, "name": "b414183b079adef65938f406b85fc7d9", "lat": 38.902225, "lon": -77.04798766666667, "bike_id": "b414183b079adef65938f406b85fc7d9", "rental_uris": {"ios": "https://dc.lft.to/lastmile_qr_scan", "android": "https://dc.lft.to/lastmile_qr_scan"}, "type": "electric_scooter", "fusion_lon": 0.0}, {"is_reserved": 0, "is_disabled": 0, "fusion_lat": 0.0, "name": "c4201f264c97faa7200e14e8ed01e040", "lat": 38.88726166666667, "lon": -76.99610516666667, "bike_id": "c4201f264c97faa7200e14e8ed01e040", "rental_uris": {"ios": "https://dc.lft.to/lastmile_qr_scan", "android": "https://dc.lft.to/lastmile_qr_scan"}, "type": "electric_scooter", "fusion_lon": 0.0}, {"is_reserved": 0, "is_disabled": 0, "fusion_lat": 0.0, "name": "551f63b87c2baee5648b1a168cc841ad", "lat": 38.896057, "lon": -77.01090366666666, "bike_id": "551f63b87c2baee5648b1a168cc841ad", "rental_uris": {"ios": "https://dc.lft.to/lastmile_qr_scan", "android": "https://dc.lft.to/lastmile_qr_scan"}, "type": "electric_scooter", "fusion_lon": 0.0}, {"is_reserved": 0, "is_disabled": 0, "fusion_lat": 0.0, "name": "a2aa902bc73c960044a78ac5773c82bc", "lat": 38.876689, "lon": -77.00436566666667, "bike_id": "a2aa902bc73c960044a78ac5773c82bc", "rental_uris": {"ios": "https://dc.lft.to/lastmile_qr_scan", "android": "https://dc.lft.to/lastmile_qr_scan"}, "type": "electric_scooter", "fusion_lon": 0.0}, {"is_reserved": 0, "is_disabled": 0, "fusion_lat": 0.0, "name": "19829f32349e5cbe778d3da6af626593", "lat": 38.8870005, "lon": -77.00064666666667, "bike_id": "19829f32349e5cbe778d3da6af626593", "rental_uris": {"ios": "https://dc.lft.to/lastmile_qr_scan", "android": "https://dc.lft.to/lastmile_qr_scan"}, "type": "electric_scooter", "fusion_lon": 0.0}, {"is_reserved": 0, "is_disabled": 0, "fusion_lat": 0.0, "name": "c65e211ea522393c390188cec4138d70", "lat": 38.92849433333333, "lon": -77.05445916666666, "bike_id": "c65e211ea522393c390188cec4138d70", "rental_uris": {"ios": "https://dc.lft.to/lastmile_qr_scan", "android": "https://dc.lft.to/lastmile_qr_scan"}, "type": "electric_scooter", "fusion_lon": 0.0}, {"is_reserved": 0, "is_disabled": 0, "fusion_lat": 0.0, "name": "10a1253c42cb462d0cfdfcc183e6f942", "lat": 38.966882, "lon": -77.03402766666666, "bike_id": "10a1253c42cb462d0cfdfcc183e6f942", "rental_uris": {"ios": "https://dc.lft.to/lastmile_qr_scan", "android": "https://dc.lft.to/lastmile_qr_scan"}, "type": "electric_scooter", "fusion_lon": 0.0}, {"is_reserved": 0, "is_disabled": 0, "fusion_lat": 0.0, "name": "3d40fab0e348ced2ebdc110ec7e06043", "lat": 38.89719, "lon": -77.00795933333333, "bike_id": "3d40fab0e348ced2ebdc110ec7e06043", "rental_uris": {"ios": "https://dc.lft.to/lastmile_qr_scan", "android": "https://dc.lft.to/lastmile_qr_scan"}, "type": "electric_scooter", "fusion_lon": 0.0}, {"is_reserved": 0, "is_disabled": 0, "fusion_lat": 0.0, "name": "25e9fc4a190a55deef26f07e8ee4fa81", "lat": 38.877668166666666, "lon": -77.01894133333333, "bike_id": "25e9fc4a190a55deef26f07e8ee4fa81", "rental_uris": {"ios": "https://dc.lft.to/lastmile_qr_scan", "android": "https://dc.lft.to/lastmile_qr_scan"}, "type": "electric_scooter", "fusion_lon": 0.0}, {"is_reserved": 0, "is_disabled": 0, "fusion_lat": 0.0, "name": "c8b4a84d971ab9a075deb89aadcb6c49", "lat": 38.91710883333333, "lon": -77.03725133333333, "bike_id": "c8b4a84d971ab9a075deb89aadcb6c49", "rental_uris": {"ios": "https://dc.lft.to/lastmile_qr_scan", "android": "https://dc.lft.to/lastmile_qr_scan"}, "type": "electric_scooter", "fusion_lon": 0.0}, {"is_reserved": 0, "is_disabled": 0, "fusion_lat": 0.0, "name": "d08ed041c2644a070cafa6251f59708b", "lat": 38.96777066666667, "lon": -76.99651783333333, "bike_id": "d08ed041c2644a070cafa6251f59708b", "rental_uris": {"ios": "https://dc.lft.to/lastmile_qr_scan", "android": "https://dc.lft.to/lastmile_qr_scan"}, "type": "electric_bike", "fusion_lon": 0.0}, {"is_reserved": 0, "is_disabled": 0, "fusion_lat": 0.0, "name": "cb320e5b2491efeafd77a369c06b93f5", "lat": 38.91959883333333, "lon": -77.02595683333334, "bike_id": "cb320e5b2491efeafd77a369c06b93f5", "rental_uris": {"ios": "https://dc.lft.to/lastmile_qr_scan", "android": "https://dc.lft.to/lastmile_qr_scan"}, "type": "electric_scooter", "fusion_lon": 0.0}, {"is_reserved": 0, "is_disabled": 0, "fusion_lat": 0.0, "name": "d382f1d12957dd702f212f591846be78", "lat": 38.915777166666665, "lon": -77.02006383333334, "bike_id": "d382f1d12957dd702f212f591846be78", "rental_uris": {"ios": "https://dc.lft.to/lastmile_qr_scan", "android": "https://dc.lft.to/lastmile_qr_scan"}, "type": "electric_scooter", "fusion_lon": 0.0}, {"is_reserved": 0, "is_disabled": 0, "fusion_lat": 0.0, "name": "0ee4734cad139f966cac203c5f2127f2", "lat": 38.928329166666664, "lon": -77.03705783333334, "bike_id": "0ee4734cad139f966cac203c5f2127f2", "rental_uris": {"ios": "https://dc.lft.to/lastmile_qr_scan", "android": "https://dc.lft.to/lastmile_qr_scan"}, "type": "electric_scooter", "fusion_lon": 0.0}, {"is_reserved": 0, "is_disabled": 0, "fusion_lat": 0.0, "name": "607f8dcaf12a72b4c912b65458ee4100", "lat": 38.906062166666665, "lon": -77.02109283333333, "bike_id": "607f8dcaf12a72b4c912b65458ee4100", "rental_uris": {"ios": "https://dc.lft.to/lastmile_qr_scan", "android": "https://dc.lft.to/lastmile_qr_scan"}, "type": "electric_scooter", "fusion_lon": 0.0}, {"is_reserved": 0, "is_disabled": 0, "fusion_lat": 0.0, "name": "b34868abbab0256871421ce65eb4b569", "lat": 38.886094, "lon": -76.98541483333334, "bike_id": "b34868abbab0256871421ce65eb4b569", "rental_uris": {"ios": "https://dc.lft.to/lastmile_qr_scan", "android": "https://dc.lft.to/lastmile_qr_scan"}, "type": "electric_scooter", "fusion_lon": 0.0}, {"is_reserved": 0, "is_disabled": 0, "fusion_lat": 0.0, "name": "715433ad353f041d9cc09bdfa723b62f", "lat": 38.855251333333335, "lon": -76.99113633333333, "bike_id": "715433ad353f041d9cc09bdfa723b62f", "rental_uris": {"ios": "https://dc.lft.to/lastmile_qr_scan", "android": "https://dc.lft.to/lastmile_qr_scan"}, "type": "electric_scooter", "fusion_lon": 0.0}, {"is_reserved": 0, "is_disabled": 0, "fusion_lat": 0.0, "name": "5ed6a1b800fc27f445dd904ca313bca5", "lat": 38.8754705, "lon": -77.00540766666667, "bike_id": "5ed6a1b800fc27f445dd904ca313bca5", "rental_uris": {"ios": "https://dc.lft.to/lastmile_qr_scan", "android": "https://dc.lft.to/lastmile_qr_scan"}, "type": "electric_scooter", "fusion_lon": 0.0}, {"is_reserved": 0, "is_disabled": 0, "fusion_lat": 0.0, "name": "e073a309a4e8205bea783fe2ae931865", "lat": 38.89531066666667, "lon": -77.0335375, "bike_id": "e073a309a4e8205bea783fe2ae931865", "rental_uris": {"ios": "https://dc.lft.to/lastmile_qr_scan", "android": "https://dc.lft.to/lastmile_qr_scan"}, "type": "electric_scooter", "fusion_lon": 0.0}, {"is_reserved": 0, "is_disabled": 0, "fusion_lat": 0.0, "name": "8893cb8f38f2bd3aac30325f413e552e", "lat": 38.91487, "lon": -77.02187383333333, "bike_id": "8893cb8f38f2bd3aac30325f413e552e", "rental_uris": {"ios": "https://dc.lft.to/lastmile_qr_scan", "android": "https://dc.lft.to/lastmile_qr_scan"}, "type": "electric_scooter", "fusion_lon": 0.0}, {"is_reserved": 0, "is_disabled": 0, "fusion_lat": 0.0, "name": "c557f0be8646432b11f638869d45af0c", "lat": 38.87475166666667, "lon": -77.00559883333334, "bike_id": "c557f0be8646432b11f638869d45af0c", "rental_uris": {"ios": "https://dc.lft.to/lastmile_qr_scan", "android": "https://dc.lft.to/lastmile_qr_scan"}, "type": "electric_scooter", "fusion_lon": 0.0}, {"is_reserved": 0, "is_disabled": 0, "fusion_lat": 0.0, "name": "132129b464d0b712305924765e89bffc", "lat": 38.91804583333333, "lon": -77.04175666666667, "bike_id": "132129b464d0b712305924765e89bffc", "rental_uris": {"ios": "https://dc.lft.to/lastmile_qr_scan", "android": "https://dc.lft.to/lastmile_qr_scan"}, "type": "electric_scooter", "fusion_lon": 0.0}, {"is_reserved": 0, "is_disabled": 0, "fusion_lat": 0.0, "name": "0d47942338f44688f160a40b5fbe4d2b", "lat": 38.90485183333333, "lon": -77.02804033333334, "bike_id": "0d47942338f44688f160a40b5fbe4d2b", "rental_uris": {"ios": "https://dc.lft.to/lastmile_qr_scan", "android": "https://dc.lft.to/lastmile_qr_scan"}, "type": "electric_scooter", "fusion_lon": 0.0}, {"is_reserved": 0, "is_disabled": 0, "fusion_lat": 0.0, "name": "b5d76cca37e00b35d319bdd3dabc494b", "lat": 38.881243166666664, "lon": -76.99350033333333, "bike_id": "b5d76cca37e00b35d319bdd3dabc494b", "rental_uris": {"ios": "https://dc.lft.to/lastmile_qr_scan", "android": "https://dc.lft.to/lastmile_qr_scan"}, "type": "electric_scooter", "fusion_lon": 0.0}, {"is_reserved": 0, "is_disabled": 0, "fusion_lat": 0.0, "name": "848e64fad66f3a44e06160e266422875", "lat": 38.89547183333333, "lon": -76.98340083333333, "bike_id": "848e64fad66f3a44e06160e266422875", "rental_uris": {"ios": "https://dc.lft.to/lastmile_qr_scan", "android": "https://dc.lft.to/lastmile_qr_scan"}, "type": "electric_scooter", "fusion_lon": 0.0}, {"is_reserved": 0, "is_disabled": 0, "fusion_lat": 0.0, "name": "306f5328a0582df6b3f64566025e4d97", "lat": 38.91904366666667, "lon": -77.03193866666666, "bike_id": "306f5328a0582df6b3f64566025e4d97", "rental_uris": {"ios": "https://dc.lft.to/lastmile_qr_scan", "android": "https://dc.lft.to/lastmile_qr_scan"}, "type": "electric_scooter", "fusion_lon": 0.0}, {"is_reserved": 0, "is_disabled": 0, "fusion_lat": 0.0, "name": "03b10e687945c94872db5fbbd521c37b", "lat": 38.92348483333333, "lon": -77.0402825, "bike_id": "03b10e687945c94872db5fbbd521c37b", "rental_uris": {"ios": "https://dc.lft.to/lastmile_qr_scan", "android": "https://dc.lft.to/lastmile_qr_scan"}, "type": "electric_scooter", "fusion_lon": 0.0}, {"is_reserved": 0, "is_disabled": 0, "fusion_lat": 0.0, "name": "3012210e3276b90aa02527d6e85d1e74", "lat": 38.916336666666666, "lon": -77.04054116666667, "bike_id": "3012210e3276b90aa02527d6e85d1e74", "rental_uris": {"ios": "https://dc.lft.to/lastmile_qr_scan", "android": "https://dc.lft.to/lastmile_qr_scan"}, "type": "electric_scooter", "fusion_lon": 0.0}, {"is_reserved": 0, "is_disabled": 0, "fusion_lat": 0.0, "name": "d5c18243744f7304d77ae0751d1d1d02", "lat": 38.9237715, "lon": -77.080574, "bike_id": "d5c18243744f7304d77ae0751d1d1d02", "rental_uris": {"ios": "https://dc.lft.to/lastmile_qr_scan", "android": "https://dc.lft.to/lastmile_qr_scan"}, "type": "electric_scooter", "fusion_lon": 0.0}, {"is_reserved": 0, "is_disabled": 0, "fusion_lat": 0.0, "name": "d96127dc13850c3fb6cffea88eacebf3", "lat": 38.91697766666667, "lon": -77.0411205, "bike_id": "d96127dc13850c3fb6cffea88eacebf3", "rental_uris": {"ios": "https://dc.lft.to/lastmile_qr_scan", "android": "https://dc.lft.to/lastmile_qr_scan"}, "type": "electric_scooter", "fusion_lon": 0.0}, {"is_reserved": 0, "is_disabled": 0, "fusion_lat": 0.0, "name": "aa711f3dd1833814c77426f2b3d2a163", "lat": 38.892243, "lon": -77.03021866666667, "bike_id": "aa711f3dd1833814c77426f2b3d2a163", "rental_uris": {"ios": "https://dc.lft.to/lastmile_qr_scan", "android": "https://dc.lft.to/lastmile_qr_scan"}, "type": "electric_scooter", "fusion_lon": 0.0}, {"is_reserved": 0, "is_disabled": 0, "fusion_lat": 0.0, "name": "7f65660ee87b753c06a1ae531ff5cefe", "lat": 38.92846683333333, "lon": -77.014089, "bike_id": "7f65660ee87b753c06a1ae531ff5cefe", "rental_uris": {"ios": "https://dc.lft.to/lastmile_qr_scan", "android": "https://dc.lft.to/lastmile_qr_scan"}, "type": "electric_scooter", "fusion_lon": 0.0}, {"is_reserved": 0, "is_disabled": 0, "fusion_lat": 0.0, "name": "9f34d531624d58c978ecd058ba5f92c0", "lat": 38.951853166666666, "lon": -76.9354415, "bike_id": "9f34d531624d58c978ecd058ba5f92c0", "rental_uris": {"ios": "https://dc.lft.to/lastmile_qr_scan", "android": "https://dc.lft.to/lastmile_qr_scan"}, "type": "electric_bike", "fusion_lon": 0.0}, {"is_reserved": 0, "is_disabled": 0, "fusion_lat": 0.0, "name": "ac53d3fd75efe3430bd5792205e3d827", "lat": 38.91102883333333, "lon": -77.02805633333334, "bike_id": "ac53d3fd75efe3430bd5792205e3d827", "rental_uris": {"ios": "https://dc.lft.to/lastmile_qr_scan", "android": "https://dc.lft.to/lastmile_qr_scan"}, "type": "electric_scooter", "fusion_lon": 0.0}, {"is_reserved": 0, "is_disabled": 0, "fusion_lat": 0.0, "name": "e4bde039b737152a626f5d17a0f23b3d", "lat": 38.90444333333333, "lon": -76.981651, "bike_id": "e4bde039b737152a626f5d17a0f23b3d", "rental_uris": {"ios": "https://dc.lft.to/lastmile_qr_scan", "android": "https://dc.lft.to/lastmile_qr_scan"}, "type": "electric_scooter", "fusion_lon": 0.0}, {"is_reserved": 0, "is_disabled": 0, "fusion_lat": 0.0, "name": "8a2c4e69dda248c81da57de9dcd2e607", "lat": 38.920189666666666, "lon": -77.01701366666667, "bike_id": "8a2c4e69dda248c81da57de9dcd2e607", "rental_uris": {"ios": "https://dc.lft.to/lastmile_qr_scan", "android": "https://dc.lft.to/lastmile_qr_scan"}, "type": "electric_scooter", "fusion_lon": 0.0}, {"is_reserved": 0, "is_disabled": 0, "fusion_lat": 0.0, "name": "2cb5155a0f4ef1e944932f9aab9b6927", "lat": 38.93867433333333, "lon": -77.0723865, "bike_id": "2cb5155a0f4ef1e944932f9aab9b6927", "rental_uris": {"ios": "https://dc.lft.to/lastmile_qr_scan", "android": "https://dc.lft.to/lastmile_qr_scan"}, "type": "electric_scooter", "fusion_lon": 0.0}, {"is_reserved": 0, "is_disabled": 0, "fusion_lat": 0.0, "name": "41fb6c62ae6a41f609266c5c768afd4e", "lat": 38.832721666666664, "lon": -77.08369433333333, "bike_id": "41fb6c62ae6a41f609266c5c768afd4e", "rental_uris": {"ios": "https://dc.lft.to/lastmile_qr_scan", "android": "https://dc.lft.to/lastmile_qr_scan"}, "type": "electric_bike", "fusion_lon": 0.0}, {"is_reserved": 0, "is_disabled": 0, "fusion_lat": 0.0, "name": "481c10944f0a5c915c12896bea9fd73e", "lat": 38.8990115, "lon": -77.04998583333334, "bike_id": "481c10944f0a5c915c12896bea9fd73e", "rental_uris": {"ios": "https://dc.lft.to/lastmile_qr_scan", "android": "https://dc.lft.to/lastmile_qr_scan"}, "type": "electric_scooter", "fusion_lon": 0.0}, {"is_reserved": 0, "is_disabled": 0, "fusion_lat": 0.0, "name": "bf21c69b949ba69a5975f7a75e6fc95c", "lat": 38.875378833333336, "lon": -77.00888683333334, "bike_id": "bf21c69b949ba69a5975f7a75e6fc95c", "rental_uris": {"ios": "https://dc.lft.to/lastmile_qr_scan", "android": "https://dc.lft.to/lastmile_qr_scan"}, "type": "electric_scooter", "fusion_lon": 0.0}, {"is_reserved": 0, "is_disabled": 0, "fusion_lat": 0.0, "name": "d20c83e45a97fd03312afe355480746d", "lat": 38.920999333333334, "lon": -77.03910366666666, "bike_id": "d20c83e45a97fd03312afe355480746d", "rental_uris": {"ios": "https://dc.lft.to/lastmile_qr_scan", "android": "https://dc.lft.to/lastmile_qr_scan"}, "type": "electric_scooter", "fusion_lon": 0.0}, {"is_reserved": 0, "is_disabled": 0, "fusion_lat": 0.0, "name": "a6a7dc5ba4e8d41d61e30308fb4a4446", "lat": 38.924333, "lon": -77.01950333333333, "bike_id": "a6a7dc5ba4e8d41d61e30308fb4a4446", "rental_uris": {"ios": "https://dc.lft.to/lastmile_qr_scan", "android": "https://dc.lft.to/lastmile_qr_scan"}, "type": "electric_scooter", "fusion_lon": 0.0}, {"is_reserved": 0, "is_disabled": 0, "fusion_lat": 0.0, "name": "51972b83a01631a86dbab2c9200d4a68", "lat": 38.89305, "lon": -77.0215105, "bike_id": "51972b83a01631a86dbab2c9200d4a68", "rental_uris": {"ios": "https://dc.lft.to/lastmile_qr_scan", "android": "https://dc.lft.to/lastmile_qr_scan"}, "type": "electric_scooter", "fusion_lon": 0.0}, {"is_reserved": 0, "is_disabled": 0, "fusion_lat": 0.0, "name": "eaa3002fee088e6c7ab66eeaeb6fe5f0", "lat": 38.930311833333334, "lon": -77.03814783333333, "bike_id": "eaa3002fee088e6c7ab66eeaeb6fe5f0", "rental_uris": {"ios": "https://dc.lft.to/lastmile_qr_scan", "android": "https://dc.lft.to/lastmile_qr_scan"}, "type": "electric_scooter", "fusion_lon": 0.0}, {"is_reserved": 0, "is_disabled": 0, "fusion_lat": 0.0, "name": "67a36ce5755bb125282997dbfef4c362", "lat": 38.911014333333334, "lon": -77.0220195, "bike_id": "67a36ce5755bb125282997dbfef4c362", "rental_uris": {"ios": "https://dc.lft.to/lastmile_qr_scan", "android": "https://dc.lft.to/lastmile_qr_scan"}, "type": "electric_scooter", "fusion_lon": 0.0}, {"is_reserved": 0, "is_disabled": 0, "fusion_lat": 0.0, "name": "3b81615efa6ca4305bea5606baf9c0cc", "lat": 38.92053416666667, "lon": -77.016664, "bike_id": "3b81615efa6ca4305bea5606baf9c0cc", "rental_uris": {"ios": "https://dc.lft.to/lastmile_qr_scan", "android": "https://dc.lft.to/lastmile_qr_scan"}, "type": "electric_scooter", "fusion_lon": 0.0}, {"is_reserved": 0, "is_disabled": 0, "fusion_lat": 0.0, "name": "371e84e9295acd9a41c094b302936319", "lat": 38.917897333333336, "lon": -77.04028733333334, "bike_id": "371e84e9295acd9a41c094b302936319", "rental_uris": {"ios": "https://dc.lft.to/lastmile_qr_scan", "android": "https://dc.lft.to/lastmile_qr_scan"}, "type": "electric_scooter", "fusion_lon": 0.0}, {"is_reserved": 0, "is_disabled": 0, "fusion_lat": 0.0, "name": "730ecd3634728539ecbaaa62c3f09b12", "lat": 38.899054666666665, "lon": -77.033325, "bike_id": "730ecd3634728539ecbaaa62c3f09b12", "rental_uris": {"ios": "https://dc.lft.to/lastmile_qr_scan", "android": "https://dc.lft.to/lastmile_qr_scan"}, "type": "electric_scooter", "fusion_lon": 0.0}, {"is_reserved": 0, "is_disabled": 0, "fusion_lat": 0.0, "name": "884575e8a812fa6b41a8437e21b65011", "lat": 38.876572, "lon": -77.00333516666667, "bike_id": "884575e8a812fa6b41a8437e21b65011", "rental_uris": {"ios": "https://dc.lft.to/lastmile_qr_scan", "android": "https://dc.lft.to/lastmile_qr_scan"}, "type": "electric_scooter", "fusion_lon": 0.0}, {"is_reserved": 0, "is_disabled": 0, "fusion_lat": 0.0, "name": "59dc542d64872b13ceaa0abbff4ce598", "lat": 38.931997333333335, "lon": -77.023554, "bike_id": "59dc542d64872b13ceaa0abbff4ce598", "rental_uris": {"ios": "https://dc.lft.to/lastmile_qr_scan", "android": "https://dc.lft.to/lastmile_qr_scan"}, "type": "electric_scooter", "fusion_lon": 0.0}, {"is_reserved": 0, "is_disabled": 0, "fusion_lat": 0.0, "name": "0306ce21c07bed8f193ba2d9a2139a96", "lat": 38.898802333333336, "lon": -77.046524, "bike_id": "0306ce21c07bed8f193ba2d9a2139a96", "rental_uris": {"ios": "https://dc.lft.to/lastmile_qr_scan", "android": "https://dc.lft.to/lastmile_qr_scan"}, "type": "electric_scooter", "fusion_lon": 0.0}, {"is_reserved": 0, "is_disabled": 0, "fusion_lat": 0.0, "name": "dabb672c7088aa8f2b9ad59b428d3d77", "lat": 38.927878, "lon": -77.03151033333333, "bike_id": "dabb672c7088aa8f2b9ad59b428d3d77", "rental_uris": {"ios": "https://dc.lft.to/lastmile_qr_scan", "android": "https://dc.lft.to/lastmile_qr_scan"}, "type": "electric_scooter", "fusion_lon": 0.0}, {"is_reserved": 0, "is_disabled": 0, "fusion_lat": 0.0, "name": "c2f74128c6122d10e7a53cebf4bd0819", "lat": 38.89663766666666, "lon": -77.033469, "bike_id": "c2f74128c6122d10e7a53cebf4bd0819", "rental_uris": {"ios": "https://dc.lft.to/lastmile_qr_scan", "android": "https://dc.lft.to/lastmile_qr_scan"}, "type": "electric_scooter", "fusion_lon": 0.0}, {"is_reserved": 0, "is_disabled": 0, "fusion_lat": 0.0, "name": "a3472e12c228f6a0a2963e09527eb866", "lat": 38.916280666666665, "lon": -77.01855633333334, "bike_id": "a3472e12c228f6a0a2963e09527eb866", "rental_uris": {"ios": "https://dc.lft.to/lastmile_qr_scan", "android": "https://dc.lft.to/lastmile_qr_scan"}, "type": "electric_scooter", "fusion_lon": 0.0}, {"is_reserved": 0, "is_disabled": 0, "fusion_lat": 0.0, "name": "5293208450f1f4c29e87ee137ec25da5", "lat": 38.93242683333333, "lon": -77.039024, "bike_id": "5293208450f1f4c29e87ee137ec25da5", "rental_uris": {"ios": "https://dc.lft.to/lastmile_qr_scan", "android": "https://dc.lft.to/lastmile_qr_scan"}, "type": "electric_scooter", "fusion_lon": 0.0}, {"is_reserved": 0, "is_disabled": 0, "fusion_lat": 0.0, "name": "0be7b2efacded09332fda6f6f82cb92b", "lat": 38.904270833333335, "lon": -77.0259685, "bike_id": "0be7b2efacded09332fda6f6f82cb92b", "rental_uris": {"ios": "https://dc.lft.to/lastmile_qr_scan", "android": "https://dc.lft.to/lastmile_qr_scan"}, "type": "electric_scooter", "fusion_lon": 0.0}, {"is_reserved": 0, "is_disabled": 0, "fusion_lat": 0.0, "name": "42a1aa4df268b34c0758272236ceee05", "lat": 38.894342, "lon": -77.04476833333334, "bike_id": "42a1aa4df268b34c0758272236ceee05", "rental_uris": {"ios": "https://dc.lft.to/lastmile_qr_scan", "android": "https://dc.lft.to/lastmile_qr_scan"}, "type": "electric_scooter", "fusion_lon": 0.0}, {"is_reserved": 0, "is_disabled": 0, "fusion_lat": 0.0, "name": "41ca3a034900ee52ccf5d404d278b007", "lat": 38.88873066666667, "lon": -76.99038183333333, "bike_id": "41ca3a034900ee52ccf5d404d278b007", "rental_uris": {"ios": "https://dc.lft.to/lastmile_qr_scan", "android": "https://dc.lft.to/lastmile_qr_scan"}, "type": "electric_scooter", "fusion_lon": 0.0}, {"is_reserved": 0, "is_disabled": 0, "fusion_lat": 0.0, "name": "6996dc56e0f7a1684f347dc9ea0f13b5", "lat": 38.92354866666667, "lon": -76.9713775, "bike_id": "6996dc56e0f7a1684f347dc9ea0f13b5", "rental_uris": {"ios": "https://dc.lft.to/lastmile_qr_scan", "android": "https://dc.lft.to/lastmile_qr_scan"}, "type": "electric_bike", "fusion_lon": 0.0}, {"is_reserved": 0, "is_disabled": 0, "fusion_lat": 0.0, "name": "06a5eee922a690a7edeebbebdc4e4cec", "lat": 38.93189866666667, "lon": -77.01990166666667, "bike_id": "06a5eee922a690a7edeebbebdc4e4cec", "rental_uris": {"ios": "https://dc.lft.to/lastmile_qr_scan", "android": "https://dc.lft.to/lastmile_qr_scan"}, "type": "electric_scooter", "fusion_lon": 0.0}, {"is_reserved": 0, "is_disabled": 0, "fusion_lat": 0.0, "name": "44f56e4cf83a13fca3cc21862a013be0", "lat": 38.905232833333336, "lon": -77.05826016666667, "bike_id": "44f56e4cf83a13fca3cc21862a013be0", "rental_uris": {"ios": "https://dc.lft.to/lastmile_qr_scan", "android": "https://dc.lft.to/lastmile_qr_scan"}, "type": "electric_scooter", "fusion_lon": 0.0}, {"is_reserved": 0, "is_disabled": 0, "fusion_lat": 0.0, "name": "bea963c188cacd23d494aa90120f1cad", "lat": 38.8860695, "lon": -77.00336883333334, "bike_id": "bea963c188cacd23d494aa90120f1cad", "rental_uris": {"ios": "https://dc.lft.to/lastmile_qr_scan", "android": "https://dc.lft.to/lastmile_qr_scan"}, "type": "electric_scooter", "fusion_lon": 0.0}, {"is_reserved": 0, "is_disabled": 0, "fusion_lat": 0.0, "name": "c710f355f11b4c29abb331a1cf44f98d", "lat": 38.89348916666667, "lon": -77.0419405, "bike_id": "c710f355f11b4c29abb331a1cf44f98d", "rental_uris": {"ios": "https://dc.lft.to/lastmile_qr_scan", "android": "https://dc.lft.to/lastmile_qr_scan"}, "type": "electric_scooter", "fusion_lon": 0.0}, {"is_reserved": 0, "is_disabled": 0, "fusion_lat": 0.0, "name": "518deef14346351d1a52b04e5b495a3e", "lat": 38.87468066666667, "lon": -77.00532116666666, "bike_id": "518deef14346351d1a52b04e5b495a3e", "rental_uris": {"ios": "https://dc.lft.to/lastmile_qr_scan", "android": "https://dc.lft.to/lastmile_qr_scan"}, "type": "electric_scooter", "fusion_lon": 0.0}, {"is_reserved": 0, "is_disabled": 0, "fusion_lat": 0.0, "name": "2c1397c78f757d28f4b1dfcd0f8b06fb", "lat": 38.92790883333333, "lon": -77.03622433333334, "bike_id": "2c1397c78f757d28f4b1dfcd0f8b06fb", "rental_uris": {"ios": "https://dc.lft.to/lastmile_qr_scan", "android": "https://dc.lft.to/lastmile_qr_scan"}, "type": "electric_scooter", "fusion_lon": 0.0}, {"is_reserved": 0, "is_disabled": 0, "fusion_lat": 0.0, "name": "573c4db236194a0c988aa2709b20224c", "lat": 38.90271283333333, "lon": -77.05168683333333, "bike_id": "573c4db236194a0c988aa2709b20224c", "rental_uris": {"ios": "https://dc.lft.to/lastmile_qr_scan", "android": "https://dc.lft.to/lastmile_qr_scan"}, "type": "electric_scooter", "fusion_lon": 0.0}, {"is_reserved": 0, "is_disabled": 0, "fusion_lat": 0.0, "name": "d7cd3e1a30ceecf27d7dd1a6db3f5552", "lat": 38.9004825, "lon": -77.034659, "bike_id": "d7cd3e1a30ceecf27d7dd1a6db3f5552", "rental_uris": {"ios": "https://dc.lft.to/lastmile_qr_scan", "android": "https://dc.lft.to/lastmile_qr_scan"}, "type": "electric_scooter", "fusion_lon": 0.0}, {"is_reserved": 0, "is_disabled": 0, "fusion_lat": 0.0, "name": "a546ea4ffe24ac89d51f40f050eaf7d4", "lat": 38.83914433333333, "lon": -76.9984075, "bike_id": "a546ea4ffe24ac89d51f40f050eaf7d4", "rental_uris": {"ios": "https://dc.lft.to/lastmile_qr_scan", "android": "https://dc.lft.to/lastmile_qr_scan"}, "type": "electric_bike", "fusion_lon": 0.0}, {"is_reserved": 0, "is_disabled": 0, "fusion_lat": 0.0, "name": "675009da04d1f06570ec8e0d945b86aa", "lat": 38.93116066666666, "lon": -77.0237725, "bike_id": "675009da04d1f06570ec8e0d945b86aa", "rental_uris": {"ios": "https://dc.lft.to/lastmile_qr_scan", "android": "https://dc.lft.to/lastmile_qr_scan"}, "type": "electric_scooter", "fusion_lon": 0.0}, {"is_reserved": 0, "is_disabled": 0, "fusion_lat": 0.0, "name": "4aed5822592f9af87b7c549d93bc5b28", "lat": 38.90544283333333, "lon": -77.05695866666667, "bike_id": "4aed5822592f9af87b7c549d93bc5b28", "rental_uris": {"ios": "https://dc.lft.to/lastmile_qr_scan", "android": "https://dc.lft.to/lastmile_qr_scan"}, "type": "electric_scooter", "fusion_lon": 0.0}, {"is_reserved": 0, "is_disabled": 0, "fusion_lat": 0.0, "name": "a0f013ee6ead7f656cae6f2c4acd85cc", "lat": 38.940339, "lon": -77.08394133333333, "bike_id": "a0f013ee6ead7f656cae6f2c4acd85cc", "rental_uris": {"ios": "https://dc.lft.to/lastmile_qr_scan", "android": "https://dc.lft.to/lastmile_qr_scan"}, "type": "electric_scooter", "fusion_lon": 0.0}, {"is_reserved": 0, "is_disabled": 0, "fusion_lat": 0.0, "name": "0dfdd98aa7cad4c7d68dfe4c11f3dcc1", "lat": 38.871634666666665, "lon": -77.08819766666667, "bike_id": "0dfdd98aa7cad4c7d68dfe4c11f3dcc1", "rental_uris": {"ios": "https://dc.lft.to/lastmile_qr_scan", "android": "https://dc.lft.to/lastmile_qr_scan"}, "type": "electric_bike", "fusion_lon": 0.0}, {"is_reserved": 0, "is_disabled": 0, "fusion_lat": 0.0, "name": "3f4b65cae6870faa55bbd6570a541278", "lat": 38.884304666666665, "lon": -77.03047, "bike_id": "3f4b65cae6870faa55bbd6570a541278", "rental_uris": {"ios": "https://dc.lft.to/lastmile_qr_scan", "android": "https://dc.lft.to/lastmile_qr_scan"}, "type": "electric_scooter", "fusion_lon": 0.0}, {"is_reserved": 0, "is_disabled": 0, "fusion_lat": 0.0, "name": "57d34b2c1d51d3fde91d0b0fb494b126", "lat": 38.908378, "lon": -77.03996016666666, "bike_id": "57d34b2c1d51d3fde91d0b0fb494b126", "rental_uris": {"ios": "https://dc.lft.to/lastmile_qr_scan", "android": "https://dc.lft.to/lastmile_qr_scan"}, "type": "electric_scooter", "fusion_lon": 0.0}, {"is_reserved": 0, "is_disabled": 0, "fusion_lat": 0.0, "name": "c67e346b5ae25ac69eb4d18ea221bbf8", "lat": 38.88116633333333, "lon": -77.01656716666666, "bike_id": "c67e346b5ae25ac69eb4d18ea221bbf8", "rental_uris": {"ios": "https://dc.lft.to/lastmile_qr_scan", "android": "https://dc.lft.to/lastmile_qr_scan"}, "type": "electric_bike", "fusion_lon": 0.0}, {"is_reserved": 0, "is_disabled": 0, "fusion_lat": 0.0, "name": "d5896189b5d9322342d55ade08ed36ed", "lat": 38.90334466666667, "lon": -77.02613333333333, "bike_id": "d5896189b5d9322342d55ade08ed36ed", "rental_uris": {"ios": "https://dc.lft.to/lastmile_qr_scan", "android": "https://dc.lft.to/lastmile_qr_scan"}, "type": "electric_scooter", "fusion_lon": 0.0}, {"is_reserved": 0, "is_disabled": 0, "fusion_lat": 0.0, "name": "dce9f5c203c8ed8ce4ce2d2aaf16922d", "lat": 38.920823166666665, "lon": -77.023949, "bike_id": "dce9f5c203c8ed8ce4ce2d2aaf16922d", "rental_uris": {"ios": "https://dc.lft.to/lastmile_qr_scan", "android": "https://dc.lft.to/lastmile_qr_scan"}, "type": "electric_scooter", "fusion_lon": 0.0}, {"is_reserved": 0, "is_disabled": 0, "fusion_lat": 0.0, "name": "e2dd081f1af739eaa1e707130af3eebc", "lat": 38.910116, "lon": -76.9939, "bike_id": "e2dd081f1af739eaa1e707130af3eebc", "rental_uris": {"ios": "https://dc.lft.to/lastmile_qr_scan", "android": "https://dc.lft.to/lastmile_qr_scan"}, "type": "electric_scooter", "fusion_lon": 0.0}, {"is_reserved": 0, "is_disabled": 0, "fusion_lat": 0.0, "name": "f930e633789f61a2fdcec20d8accf9cc", "lat": 38.90314333333333, "lon": -77.021196, "bike_id": "f930e633789f61a2fdcec20d8accf9cc", "rental_uris": {"ios": "https://dc.lft.to/lastmile_qr_scan", "android": "https://dc.lft.to/lastmile_qr_scan"}, "type": "electric_scooter", "fusion_lon": 0.0}, {"is_reserved": 0, "is_disabled": 0, "fusion_lat": 0.0, "name": "d1112b2f3a2f4e7e51974772ca3217e8", "lat": 38.9007765, "lon": -77.02695233333333, "bike_id": "d1112b2f3a2f4e7e51974772ca3217e8", "rental_uris": {"ios": "https://dc.lft.to/lastmile_qr_scan", "android": "https://dc.lft.to/lastmile_qr_scan"}, "type": "electric_scooter", "fusion_lon": 0.0}, {"is_reserved": 0, "is_disabled": 0, "fusion_lat": 0.0, "name": "ea122ec6e0b461fb9a18dafc7510f26d", "lat": 38.91416516666666, "lon": -77.01806616666667, "bike_id": "ea122ec6e0b461fb9a18dafc7510f26d", "rental_uris": {"ios": "https://dc.lft.to/lastmile_qr_scan", "android": "https://dc.lft.to/lastmile_qr_scan"}, "type": "electric_scooter", "fusion_lon": 0.0}, {"is_reserved": 0, "is_disabled": 0, "fusion_lat": 0.0, "name": "935e38be018a9147fa178f188d5f15ff", "lat": 38.923610333333336, "lon": -77.020601, "bike_id": "935e38be018a9147fa178f188d5f15ff", "rental_uris": {"ios": "https://dc.lft.to/lastmile_qr_scan", "android": "https://dc.lft.to/lastmile_qr_scan"}, "type": "electric_scooter", "fusion_lon": 0.0}, {"is_reserved": 0, "is_disabled": 0, "fusion_lat": 0.0, "name": "c9a07a4651d84e85eb44c8a23f21ca52", "lat": 38.937534666666664, "lon": -77.03262433333333, "bike_id": "c9a07a4651d84e85eb44c8a23f21ca52", "rental_uris": {"ios": "https://dc.lft.to/lastmile_qr_scan", "android": "https://dc.lft.to/lastmile_qr_scan"}, "type": "electric_scooter", "fusion_lon": 0.0}, {"is_reserved": 0, "is_disabled": 0, "fusion_lat": 0.0, "name": "74901bb9a849eb14fafc7f9a34fb2213", "lat": 38.899582833333334, "lon": -77.015079, "bike_id": "74901bb9a849eb14fafc7f9a34fb2213", "rental_uris": {"ios": "https://dc.lft.to/lastmile_qr_scan", "android": "https://dc.lft.to/lastmile_qr_scan"}, "type": "electric_scooter", "fusion_lon": 0.0}, {"is_reserved": 0, "is_disabled": 0, "fusion_lat": 0.0, "name": "e31791e0207c8f3e8bbbeb710b38de5e", "lat": 38.910997, "lon": -77.02203783333333, "bike_id": "e31791e0207c8f3e8bbbeb710b38de5e", "rental_uris": {"ios": "https://dc.lft.to/lastmile_qr_scan", "android": "https://dc.lft.to/lastmile_qr_scan"}, "type": "electric_scooter", "fusion_lon": 0.0}, {"is_reserved": 0, "is_disabled": 0, "fusion_lat": 0.0, "name": "e96902b7592e7aa12b0bcfe0268d4b4e", "lat": 38.896038, "lon": -77.02542516666666, "bike_id": "e96902b7592e7aa12b0bcfe0268d4b4e", "rental_uris": {"ios": "https://dc.lft.to/lastmile_qr_scan", "android": "https://dc.lft.to/lastmile_qr_scan"}, "type": "electric_scooter", "fusion_lon": 0.0}, {"is_reserved": 0, "is_disabled": 0, "fusion_lat": 0.0, "name": "213d7b9346017d6d11ca337f706c4f97", "lat": 38.9373825, "lon": -77.073557, "bike_id": "213d7b9346017d6d11ca337f706c4f97", "rental_uris": {"ios": "https://dc.lft.to/lastmile_qr_scan", "android": "https://dc.lft.to/lastmile_qr_scan"}, "type": "electric_scooter", "fusion_lon": 0.0}, {"is_reserved": 0, "is_disabled": 0, "fusion_lat": 0.0, "name": "d33170b8670829f833b61c74f509bef4", "lat": 38.891998, "lon": -77.00298816666667, "bike_id": "d33170b8670829f833b61c74f509bef4", "rental_uris": {"ios": "https://dc.lft.to/lastmile_qr_scan", "android": "https://dc.lft.to/lastmile_qr_scan"}, "type": "electric_scooter", "fusion_lon": 0.0}, {"is_reserved": 0, "is_disabled": 0, "fusion_lat": 0.0, "name": "895e83cdbcbd11715433844805da6bd6", "lat": 38.904191833333336, "lon": -77.027303, "bike_id": "895e83cdbcbd11715433844805da6bd6", "rental_uris": {"ios": "https://dc.lft.to/lastmile_qr_scan", "android": "https://dc.lft.to/lastmile_qr_scan"}, "type": "electric_scooter", "fusion_lon": 0.0}, {"is_reserved": 0, "is_disabled": 0, "fusion_lat": 0.0, "name": "7987c729000b4531bf4c9a045229f7b3", "lat": 38.90635316666667, "lon": -76.99489733333333, "bike_id": "7987c729000b4531bf4c9a045229f7b3", "rental_uris": {"ios": "https://dc.lft.to/lastmile_qr_scan", "android": "https://dc.lft.to/lastmile_qr_scan"}, "type": "electric_scooter", "fusion_lon": 0.0}, {"is_reserved": 0, "is_disabled": 0, "fusion_lat": 0.0, "name": "4deb4841ad86dba5964d83de256019fc", "lat": 38.931417333333336, "lon": -77.0785515, "bike_id": "4deb4841ad86dba5964d83de256019fc", "rental_uris": {"ios": "https://dc.lft.to/lastmile_qr_scan", "android": "https://dc.lft.to/lastmile_qr_scan"}, "type": "electric_scooter", "fusion_lon": 0.0}, {"is_reserved": 0, "is_disabled": 0, "fusion_lat": 0.0, "name": "b3bec657aff62001c80e045a1ef92483", "lat": 38.916699666666666, "lon": -77.0230515, "bike_id": "b3bec657aff62001c80e045a1ef92483", "rental_uris": {"ios": "https://dc.lft.to/lastmile_qr_scan", "android": "https://dc.lft.to/lastmile_qr_scan"}, "type": "electric_scooter", "fusion_lon": 0.0}, {"is_reserved": 0, "is_disabled": 0, "fusion_lat": 0.0, "name": "2f16e13557a88b682fc8dc77e9022844", "lat": 38.92415716666667, "lon": -77.02030233333333, "bike_id": "2f16e13557a88b682fc8dc77e9022844", "rental_uris": {"ios": "https://dc.lft.to/lastmile_qr_scan", "android": "https://dc.lft.to/lastmile_qr_scan"}, "type": "electric_scooter", "fusion_lon": 0.0}, {"is_reserved": 0, "is_disabled": 0, "fusion_lat": 0.0, "name": "2749355ad09359d88b7ed84cfcaa028e", "lat": 38.918566, "lon": -77.04477466666667, "bike_id": "2749355ad09359d88b7ed84cfcaa028e", "rental_uris": {"ios": "https://dc.lft.to/lastmile_qr_scan", "android": "https://dc.lft.to/lastmile_qr_scan"}, "type": "electric_scooter", "fusion_lon": 0.0}, {"is_reserved": 0, "is_disabled": 0, "fusion_lat": 0.0, "name": "d4ceada378e2816ecfd4d8022c101ffe", "lat": 38.927371666666666, "lon": -76.99365466666667, "bike_id": "d4ceada378e2816ecfd4d8022c101ffe", "rental_uris": {"ios": "https://dc.lft.to/lastmile_qr_scan", "android": "https://dc.lft.to/lastmile_qr_scan"}, "type": "electric_bike", "fusion_lon": 0.0}, {"is_reserved": 0, "is_disabled": 0, "fusion_lat": 0.0, "name": "0cdebd5b248c50fa9fdcb4638c3fc37b", "lat": 38.903636, "lon": -77.03322866666667, "bike_id": "0cdebd5b248c50fa9fdcb4638c3fc37b", "rental_uris": {"ios": "https://dc.lft.to/lastmile_qr_scan", "android": "https://dc.lft.to/lastmile_qr_scan"}, "type": "electric_bike", "fusion_lon": 0.0}, {"is_reserved": 0, "is_disabled": 0, "fusion_lat": 0.0, "name": "3653e55fa3af915161bb4fe07e253da0", "lat": 38.9247265, "lon": -77.02219866666667, "bike_id": "3653e55fa3af915161bb4fe07e253da0", "rental_uris": {"ios": "https://dc.lft.to/lastmile_qr_scan", "android": "https://dc.lft.to/lastmile_qr_scan"}, "type": "electric_scooter", "fusion_lon": 0.0}, {"is_reserved": 0, "is_disabled": 0, "fusion_lat": 0.0, "name": "12cc3629e0d4cb5d36ccc197541e4e73", "lat": 38.920437666666665, "lon": -77.024794, "bike_id": "12cc3629e0d4cb5d36ccc197541e4e73", "rental_uris": {"ios": "https://dc.lft.to/lastmile_qr_scan", "android": "https://dc.lft.to/lastmile_qr_scan"}, "type": "electric_scooter", "fusion_lon": 0.0}, {"is_reserved": 0, "is_disabled": 0, "fusion_lat": 0.0, "name": "723d1ffb4a10f5cfddd1dc94b1b6ae10", "lat": 38.9013455, "lon": -77.041865, "bike_id": "723d1ffb4a10f5cfddd1dc94b1b6ae10", "rental_uris": {"ios": "https://dc.lft.to/lastmile_qr_scan", "android": "https://dc.lft.to/lastmile_qr_scan"}, "type": "electric_scooter", "fusion_lon": 0.0}, {"is_reserved": 0, "is_disabled": 0, "fusion_lat": 0.0, "name": "b5f38122cd261dfae9d9cd276e671a6b", "lat": 38.9168685, "lon": -77.02799383333333, "bike_id": "b5f38122cd261dfae9d9cd276e671a6b", "rental_uris": {"ios": "https://dc.lft.to/lastmile_qr_scan", "android": "https://dc.lft.to/lastmile_qr_scan"}, "type": "electric_scooter", "fusion_lon": 0.0}, {"is_reserved": 0, "is_disabled": 0, "fusion_lat": 0.0, "name": "c1231e2133d3f1947da7ebf242b9d0be", "lat": 38.83586666666667, "lon": -76.99020466666667, "bike_id": "c1231e2133d3f1947da7ebf242b9d0be", "rental_uris": {"ios": "https://dc.lft.to/lastmile_qr_scan", "android": "https://dc.lft.to/lastmile_qr_scan"}, "type": "electric_bike", "fusion_lon": 0.0}, {"is_reserved": 0, "is_disabled": 0, "fusion_lat": 0.0, "name": "69539f2d577a0447d9d707f81a9ab508", "lat": 38.899425666666666, "lon": -77.0230465, "bike_id": "69539f2d577a0447d9d707f81a9ab508", "rental_uris": {"ios": "https://dc.lft.to/lastmile_qr_scan", "android": "https://dc.lft.to/lastmile_qr_scan"}, "type": "electric_scooter", "fusion_lon": 0.0}, {"is_reserved": 0, "is_disabled": 0, "fusion_lat": 0.0, "name": "2c79db440e4cc97b38816c3e74e3e7cc", "lat": 38.924104, "lon": -77.027481, "bike_id": "2c79db440e4cc97b38816c3e74e3e7cc", "rental_uris": {"ios": "https://dc.lft.to/lastmile_qr_scan", "android": "https://dc.lft.to/lastmile_qr_scan"}, "type": "electric_scooter", "fusion_lon": 0.0}, {"is_reserved": 0, "is_disabled": 0, "fusion_lat": 0.0, "name": "a2716df5a8fe899be5626ce65d772bdb", "lat": 38.9198375, "lon": -77.0412795, "bike_id": "a2716df5a8fe899be5626ce65d772bdb", "rental_uris": {"ios": "https://dc.lft.to/lastmile_qr_scan", "android": "https://dc.lft.to/lastmile_qr_scan"}, "type": "electric_scooter", "fusion_lon": 0.0}, {"is_reserved": 0, "is_disabled": 0, "fusion_lat": 0.0, "name": "17ba26c603a10503848db55021f6b957", "lat": 38.9073355, "lon": -77.02591583333333, "bike_id": "17ba26c603a10503848db55021f6b957", "rental_uris": {"ios": "https://dc.lft.to/lastmile_qr_scan", "android": "https://dc.lft.to/lastmile_qr_scan"}, "type": "electric_scooter", "fusion_lon": 0.0}, {"is_reserved": 0, "is_disabled": 0, "fusion_lat": 0.0, "name": "d4ceecc4f1bfdf010101c5b615620123", "lat": 38.90176366666667, "lon": -77.04732216666666, "bike_id": "d4ceecc4f1bfdf010101c5b615620123", "rental_uris": {"ios": "https://dc.lft.to/lastmile_qr_scan", "android": "https://dc.lft.to/lastmile_qr_scan"}, "type": "electric_scooter", "fusion_lon": 0.0}, {"is_reserved": 0, "is_disabled": 0, "fusion_lat": 0.0, "name": "d1723f703d6ede9ac2657a664f7e30f6", "lat": 38.907893666666666, "lon": -77.03534383333333, "bike_id": "d1723f703d6ede9ac2657a664f7e30f6", "rental_uris": {"ios": "https://dc.lft.to/lastmile_qr_scan", "android": "https://dc.lft.to/lastmile_qr_scan"}, "type": "electric_scooter", "fusion_lon": 0.0}, {"is_reserved": 0, "is_disabled": 0, "fusion_lat": 0.0, "name": "55e05031959ca55fff991df3c03a3237", "lat": 38.892701833333334, "lon": -77.01508966666667, "bike_id": "55e05031959ca55fff991df3c03a3237", "rental_uris": {"ios": "https://dc.lft.to/lastmile_qr_scan", "android": "https://dc.lft.to/lastmile_qr_scan"}, "type": "electric_scooter", "fusion_lon": 0.0}, {"is_reserved": 0, "is_disabled": 0, "fusion_lat": 0.0, "name": "3c89fef0846196d455aea9582416bb1e", "lat": 38.8973125, "lon": -77.0092815, "bike_id": "3c89fef0846196d455aea9582416bb1e", "rental_uris": {"ios": "https://dc.lft.to/lastmile_qr_scan", "android": "https://dc.lft.to/lastmile_qr_scan"}, "type": "electric_scooter", "fusion_lon": 0.0}, {"is_reserved": 0, "is_disabled": 0, "fusion_lat": 0.0, "name": "9ff47525079e9975c54ca4074fc0315b", "lat": 38.93403516666667, "lon": -77.022122, "bike_id": "9ff47525079e9975c54ca4074fc0315b", "rental_uris": {"ios": "https://dc.lft.to/lastmile_qr_scan", "android": "https://dc.lft.to/lastmile_qr_scan"}, "type": "electric_scooter", "fusion_lon": 0.0}, {"is_reserved": 0, "is_disabled": 0, "fusion_lat": 0.0, "name": "cd8e653777dffc36883990b632693f32", "lat": 38.89964116666667, "lon": -77.04523866666666, "bike_id": "cd8e653777dffc36883990b632693f32", "rental_uris": {"ios": "https://dc.lft.to/lastmile_qr_scan", "android": "https://dc.lft.to/lastmile_qr_scan"}, "type": "electric_scooter", "fusion_lon": 0.0}, {"is_reserved": 0, "is_disabled": 0, "fusion_lat": 0.0, "name": "c1bba8a9200211ca511d1c53178435bf", "lat": 38.89669, "lon": -76.93209966666667, "bike_id": "c1bba8a9200211ca511d1c53178435bf", "rental_uris": {"ios": "https://dc.lft.to/lastmile_qr_scan", "android": "https://dc.lft.to/lastmile_qr_scan"}, "type": "electric_scooter", "fusion_lon": 0.0}, {"is_reserved": 0, "is_disabled": 0, "fusion_lat": 0.0, "name": "d506bedfcc614cb9267a05b261bcc57d", "lat": 38.95505, "lon": -77.069974, "bike_id": "d506bedfcc614cb9267a05b261bcc57d", "rental_uris": {"ios": "https://dc.lft.to/lastmile_qr_scan", "android": "https://dc.lft.to/lastmile_qr_scan"}, "type": "electric_scooter", "fusion_lon": 0.0}, {"is_reserved": 0, "is_disabled": 0, "fusion_lat": 0.0, "name": "1e4a2b8fff3c24c7829b7be9f7447fe9", "lat": 38.9195365, "lon": -77.041622, "bike_id": "1e4a2b8fff3c24c7829b7be9f7447fe9", "rental_uris": {"ios": "https://dc.lft.to/lastmile_qr_scan", "android": "https://dc.lft.to/lastmile_qr_scan"}, "type": "electric_scooter", "fusion_lon": 0.0}, {"is_reserved": 0, "is_disabled": 0, "fusion_lat": 0.0, "name": "303b10251a711cbfbd7344a3b185468c", "lat": 38.91158383333333, "lon": -77.044825, "bike_id": "303b10251a711cbfbd7344a3b185468c", "rental_uris": {"ios": "https://dc.lft.to/lastmile_qr_scan", "android": "https://dc.lft.to/lastmile_qr_scan"}, "type": "electric_scooter", "fusion_lon": 0.0}, {"is_reserved": 0, "is_disabled": 0, "fusion_lat": 0.0, "name": "cf18bcae4943f711c6d9ce12e3e8374a", "lat": 38.907229, "lon": -77.04865466666666, "bike_id": "cf18bcae4943f711c6d9ce12e3e8374a", "rental_uris": {"ios": "https://dc.lft.to/lastmile_qr_scan", "android": "https://dc.lft.to/lastmile_qr_scan"}, "type": "electric_scooter", "fusion_lon": 0.0}, {"is_reserved": 0, "is_disabled": 0, "fusion_lat": 0.0, "name": "96cd3c3aaef3034cf8712bf245f3338b", "lat": 38.86820433333333, "lon": -76.98031433333334, "bike_id": "96cd3c3aaef3034cf8712bf245f3338b", "rental_uris": {"ios": "https://dc.lft.to/lastmile_qr_scan", "android": "https://dc.lft.to/lastmile_qr_scan"}, "type": "electric_bike", "fusion_lon": 0.0}, {"is_reserved": 0, "is_disabled": 0, "fusion_lat": 0.0, "name": "b331075c59f82b1215d4434a53acb309", "lat": 38.90216866666667, "lon": -77.02316383333333, "bike_id": "b331075c59f82b1215d4434a53acb309", "rental_uris": {"ios": "https://dc.lft.to/lastmile_qr_scan", "android": "https://dc.lft.to/lastmile_qr_scan"}, "type": "electric_scooter", "fusion_lon": 0.0}, {"is_reserved": 0, "is_disabled": 0, "fusion_lat": 0.0, "name": "f6b847b8466c3b3a8aa9544cf7ae6bc7", "lat": 38.88674016666667, "lon": -77.12814766666666, "bike_id": "f6b847b8466c3b3a8aa9544cf7ae6bc7", "rental_uris": {"ios": "https://dc.lft.to/lastmile_qr_scan", "android": "https://dc.lft.to/lastmile_qr_scan"}, "type": "electric_bike", "fusion_lon": 0.0}, {"is_reserved": 0, "is_disabled": 0, "fusion_lat": 0.0, "name": "b723a1502695ce0658be320d16b27de4", "lat": 38.9057255, "lon": -77.00787483333333, "bike_id": "b723a1502695ce0658be320d16b27de4", "rental_uris": {"ios": "https://dc.lft.to/lastmile_qr_scan", "android": "https://dc.lft.to/lastmile_qr_scan"}, "type": "electric_scooter", "fusion_lon": 0.0}, {"is_reserved": 0, "is_disabled": 0, "fusion_lat": 0.0, "name": "cb8b5dbf13a9f95c4e82fc6466b00314", "lat": 38.920615833333336, "lon": -77.04194116666666, "bike_id": "cb8b5dbf13a9f95c4e82fc6466b00314", "rental_uris": {"ios": "https://dc.lft.to/lastmile_qr_scan", "android": "https://dc.lft.to/lastmile_qr_scan"}, "type": "electric_scooter", "fusion_lon": 0.0}, {"is_reserved": 0, "is_disabled": 0, "fusion_lat": 0.0, "name": "07446f3f164854f882805bad880254f0", "lat": 38.923581, "lon": -77.05228516666666, "bike_id": "07446f3f164854f882805bad880254f0", "rental_uris": {"ios": "https://dc.lft.to/lastmile_qr_scan", "android": "https://dc.lft.to/lastmile_qr_scan"}, "type": "electric_scooter", "fusion_lon": 0.0}, {"is_reserved": 0, "is_disabled": 0, "fusion_lat": 0.0, "name": "5f1b6621197bae3b45db57b252db33bc", "lat": 38.916008, "lon": -77.01212766666667, "bike_id": "5f1b6621197bae3b45db57b252db33bc", "rental_uris": {"ios": "https://dc.lft.to/lastmile_qr_scan", "android": "https://dc.lft.to/lastmile_qr_scan"}, "type": "electric_scooter", "fusion_lon": 0.0}, {"is_reserved": 0, "is_disabled": 0, "fusion_lat": 0.0, "name": "71baa5ab0a9e5d035d15d32f292949f7", "lat": 38.9086835, "lon": -77.0405215, "bike_id": "71baa5ab0a9e5d035d15d32f292949f7", "rental_uris": {"ios": "https://dc.lft.to/lastmile_qr_scan", "android": "https://dc.lft.to/lastmile_qr_scan"}, "type": "electric_scooter", "fusion_lon": 0.0}, {"is_reserved": 0, "is_disabled": 0, "fusion_lat": 0.0, "name": "c840803cea9bc7dd10c5688e289193c4", "lat": 38.92696316666667, "lon": -77.024136, "bike_id": "c840803cea9bc7dd10c5688e289193c4", "rental_uris": {"ios": "https://dc.lft.to/lastmile_qr_scan", "android": "https://dc.lft.to/lastmile_qr_scan"}, "type": "electric_scooter", "fusion_lon": 0.0}, {"is_reserved": 0, "is_disabled": 0, "fusion_lat": 0.0, "name": "f59b7f0fa5677fb0c93441dca62ee09d", "lat": 38.91484416666667, "lon": -77.02193483333333, "bike_id": "f59b7f0fa5677fb0c93441dca62ee09d", "rental_uris": {"ios": "https://dc.lft.to/lastmile_qr_scan", "android": "https://dc.lft.to/lastmile_qr_scan"}, "type": "electric_scooter", "fusion_lon": 0.0}, {"is_reserved": 0, "is_disabled": 0, "fusion_lat": 0.0, "name": "59ba3074ebdca48f81fcf7f9ca637c80", "lat": 38.924230666666666, "lon": -77.02044033333334, "bike_id": "59ba3074ebdca48f81fcf7f9ca637c80", "rental_uris": {"ios": "https://dc.lft.to/lastmile_qr_scan", "android": "https://dc.lft.to/lastmile_qr_scan"}, "type": "electric_scooter", "fusion_lon": 0.0}, {"is_reserved": 0, "is_disabled": 0, "fusion_lat": 0.0, "name": "b7f73213831d4dac543c1c04fccf2bf2", "lat": 38.924184833333335, "lon": -77.02010333333334, "bike_id": "b7f73213831d4dac543c1c04fccf2bf2", "rental_uris": {"ios": "https://dc.lft.to/lastmile_qr_scan", "android": "https://dc.lft.to/lastmile_qr_scan"}, "type": "electric_scooter", "fusion_lon": 0.0}, {"is_reserved": 0, "is_disabled": 0, "fusion_lat": 0.0, "name": "5fce174be9ab6ad0e809e376597073e5", "lat": 38.908666333333336, "lon": -77.0028445, "bike_id": "5fce174be9ab6ad0e809e376597073e5", "rental_uris": {"ios": "https://dc.lft.to/lastmile_qr_scan", "android": "https://dc.lft.to/lastmile_qr_scan"}, "type": "electric_scooter", "fusion_lon": 0.0}, {"is_reserved": 0, "is_disabled": 0, "fusion_lat": 0.0, "name": "61a11fd79622468f44205aaba99535e6", "lat": 38.8930095, "lon": -77.012477, "bike_id": "61a11fd79622468f44205aaba99535e6", "rental_uris": {"ios": "https://dc.lft.to/lastmile_qr_scan", "android": "https://dc.lft.to/lastmile_qr_scan"}, "type": "electric_scooter", "fusion_lon": 0.0}, {"is_reserved": 0, "is_disabled": 0, "fusion_lat": 0.0, "name": "7235158f76b8d1904e64ad5fc7954fd3", "lat": 38.887122166666664, "lon": -76.98381566666667, "bike_id": "7235158f76b8d1904e64ad5fc7954fd3", "rental_uris": {"ios": "https://dc.lft.to/lastmile_qr_scan", "android": "https://dc.lft.to/lastmile_qr_scan"}, "type": "electric_scooter", "fusion_lon": 0.0}, {"is_reserved": 0, "is_disabled": 0, "fusion_lat": 0.0, "name": "dc5f6830840516f50130aa9d6d16d60b", "lat": 38.913728666666664, "lon": -77.044772, "bike_id": "dc5f6830840516f50130aa9d6d16d60b", "rental_uris": {"ios": "https://dc.lft.to/lastmile_qr_scan", "android": "https://dc.lft.to/lastmile_qr_scan"}, "type": "electric_scooter", "fusion_lon": 0.0}, {"is_reserved": 0, "is_disabled": 0, "fusion_lat": 0.0, "name": "f1a93b45cc91487008d84415cad43589", "lat": 38.93569683333333, "lon": -77.03270516666667, "bike_id": "f1a93b45cc91487008d84415cad43589", "rental_uris": {"ios": "https://dc.lft.to/lastmile_qr_scan", "android": "https://dc.lft.to/lastmile_qr_scan"}, "type": "electric_scooter", "fusion_lon": 0.0}, {"is_reserved": 0, "is_disabled": 0, "fusion_lat": 0.0, "name": "916ec2fc76f31a71765de43c20d7c1c1", "lat": 38.92479316666667, "lon": -77.02211183333333, "bike_id": "916ec2fc76f31a71765de43c20d7c1c1", "rental_uris": {"ios": "https://dc.lft.to/lastmile_qr_scan", "android": "https://dc.lft.to/lastmile_qr_scan"}, "type": "electric_scooter", "fusion_lon": 0.0}, {"is_reserved": 0, "is_disabled": 0, "fusion_lat": 0.0, "name": "26eead90f33460ab2e45d7ebacdf4d8e", "lat": 38.901316, "lon": -77.03996033333334, "bike_id": "26eead90f33460ab2e45d7ebacdf4d8e", "rental_uris": {"ios": "https://dc.lft.to/lastmile_qr_scan", "android": "https://dc.lft.to/lastmile_qr_scan"}, "type": "electric_scooter", "fusion_lon": 0.0}, {"is_reserved": 0, "is_disabled": 0, "fusion_lat": 0.0, "name": "00f641a29cce79cbeeb74279b0b3dfdf", "lat": 38.919807666666664, "lon": -77.021784, "bike_id": "00f641a29cce79cbeeb74279b0b3dfdf", "rental_uris": {"ios": "https://dc.lft.to/lastmile_qr_scan", "android": "https://dc.lft.to/lastmile_qr_scan"}, "type": "electric_scooter", "fusion_lon": 0.0}, {"is_reserved": 0, "is_disabled": 0, "fusion_lat": 0.0, "name": "863826f9fcf990b21fda782a048fe7c9", "lat": 38.91832333333333, "lon": -77.02710016666667, "bike_id": "863826f9fcf990b21fda782a048fe7c9", "rental_uris": {"ios": "https://dc.lft.to/lastmile_qr_scan", "android": "https://dc.lft.to/lastmile_qr_scan"}, "type": "electric_scooter", "fusion_lon": 0.0}, {"is_reserved": 0, "is_disabled": 0, "fusion_lat": 0.0, "name": "3a1863cc9ad846b5325d0f03f7879be6", "lat": 38.91842833333333, "lon": -77.045106, "bike_id": "3a1863cc9ad846b5325d0f03f7879be6", "rental_uris": {"ios": "https://dc.lft.to/lastmile_qr_scan", "android": "https://dc.lft.to/lastmile_qr_scan"}, "type": "electric_scooter", "fusion_lon": 0.0}, {"is_reserved": 0, "is_disabled": 0, "fusion_lat": 0.0, "name": "02631ec3368a3c1e52b1c1ce13ae534d", "lat": 38.917056333333335, "lon": -77.03179016666667, "bike_id": "02631ec3368a3c1e52b1c1ce13ae534d", "rental_uris": {"ios": "https://dc.lft.to/lastmile_qr_scan", "android": "https://dc.lft.to/lastmile_qr_scan"}, "type": "electric_scooter", "fusion_lon": 0.0}, {"is_reserved": 0, "is_disabled": 0, "fusion_lat": 0.0, "name": "bacce614d387f6d37bda270cf09a4511", "lat": 38.902573833333335, "lon": -77.032068, "bike_id": "bacce614d387f6d37bda270cf09a4511", "rental_uris": {"ios": "https://dc.lft.to/lastmile_qr_scan", "android": "https://dc.lft.to/lastmile_qr_scan"}, "type": "electric_scooter", "fusion_lon": 0.0}, {"is_reserved": 0, "is_disabled": 0, "fusion_lat": 0.0, "name": "bcce9808cf7219ad93ab67fbe1d16003", "lat": 38.90565633333333, "lon": -77.04188066666667, "bike_id": "bcce9808cf7219ad93ab67fbe1d16003", "rental_uris": {"ios": "https://dc.lft.to/lastmile_qr_scan", "android": "https://dc.lft.to/lastmile_qr_scan"}, "type": "electric_scooter", "fusion_lon": 0.0}, {"is_reserved": 0, "is_disabled": 0, "fusion_lat": 0.0, "name": "4663091637c44f34c29171abbd378623", "lat": 38.903598833333334, "lon": -77.02728183333333, "bike_id": "4663091637c44f34c29171abbd378623", "rental_uris": {"ios": "https://dc.lft.to/lastmile_qr_scan", "android": "https://dc.lft.to/lastmile_qr_scan"}, "type": "electric_scooter", "fusion_lon": 0.0}, {"is_reserved": 0, "is_disabled": 0, "fusion_lat": 0.0, "name": "e394a9114574d8076baae19b9bdb1e5a", "lat": 38.899823833333336, "lon": -77.04194633333333, "bike_id": "e394a9114574d8076baae19b9bdb1e5a", "rental_uris": {"ios": "https://dc.lft.to/lastmile_qr_scan", "android": "https://dc.lft.to/lastmile_qr_scan"}, "type": "electric_scooter", "fusion_lon": 0.0}, {"is_reserved": 0, "is_disabled": 0, "fusion_lat": 0.0, "name": "4fa6c11b640bd0602df01a5b10f2f3ff", "lat": 38.9204165, "lon": -77.016799, "bike_id": "4fa6c11b640bd0602df01a5b10f2f3ff", "rental_uris": {"ios": "https://dc.lft.to/lastmile_qr_scan", "android": "https://dc.lft.to/lastmile_qr_scan"}, "type": "electric_scooter", "fusion_lon": 0.0}, {"is_reserved": 0, "is_disabled": 0, "fusion_lat": 0.0, "name": "aba88962970c8fd11dfaf2a6b76d0fb1", "lat": 38.859205333333335, "lon": -77.10046616666666, "bike_id": "aba88962970c8fd11dfaf2a6b76d0fb1", "rental_uris": {"ios": "https://dc.lft.to/lastmile_qr_scan", "android": "https://dc.lft.to/lastmile_qr_scan"}, "type": "electric_bike", "fusion_lon": 0.0}, {"is_reserved": 0, "is_disabled": 0, "fusion_lat": 0.0, "name": "f94f81667e88d8990acbf595c6130661", "lat": 38.922815166666666, "lon": -76.99760933333333, "bike_id": "f94f81667e88d8990acbf595c6130661", "rental_uris": {"ios": "https://dc.lft.to/lastmile_qr_scan", "android": "https://dc.lft.to/lastmile_qr_scan"}, "type": "electric_bike", "fusion_lon": 0.0}, {"is_reserved": 0, "is_disabled": 0, "fusion_lat": 0.0, "name": "319d2451142cb9e9a5c2cd9888b106a6", "lat": 38.909720166666666, "lon": -77.02462166666666, "bike_id": "319d2451142cb9e9a5c2cd9888b106a6", "rental_uris": {"ios": "https://dc.lft.to/lastmile_qr_scan", "android": "https://dc.lft.to/lastmile_qr_scan"}, "type": "electric_scooter", "fusion_lon": 0.0}, {"is_reserved": 0, "is_disabled": 0, "fusion_lat": 0.0, "name": "ed748b3585145857db1db8e4d311aa77", "lat": 38.901172333333335, "lon": -77.023132, "bike_id": "ed748b3585145857db1db8e4d311aa77", "rental_uris": {"ios": "https://dc.lft.to/lastmile_qr_scan", "android": "https://dc.lft.to/lastmile_qr_scan"}, "type": "electric_scooter", "fusion_lon": 0.0}, {"is_reserved": 0, "is_disabled": 0, "fusion_lat": 0.0, "name": "6646337df889372b2d89d87c7f674b23", "lat": 38.895418666666664, "lon": -76.98335966666667, "bike_id": "6646337df889372b2d89d87c7f674b23", "rental_uris": {"ios": "https://dc.lft.to/lastmile_qr_scan", "android": "https://dc.lft.to/lastmile_qr_scan"}, "type": "electric_scooter", "fusion_lon": 0.0}, {"is_reserved": 0, "is_disabled": 0, "fusion_lat": 0.0, "name": "c4101a3ef12893ed6eb748cfc8110bc8", "lat": 38.8960925, "lon": -77.04514066666667, "bike_id": "c4101a3ef12893ed6eb748cfc8110bc8", "rental_uris": {"ios": "https://dc.lft.to/lastmile_qr_scan", "android": "https://dc.lft.to/lastmile_qr_scan"}, "type": "electric_scooter", "fusion_lon": 0.0}, {"is_reserved": 0, "is_disabled": 0, "fusion_lat": 0.0, "name": "00e0f54991faf608bf500b2f576bc38b", "lat": 38.92458583333333, "lon": -77.0227055, "bike_id": "00e0f54991faf608bf500b2f576bc38b", "rental_uris": {"ios": "https://dc.lft.to/lastmile_qr_scan", "android": "https://dc.lft.to/lastmile_qr_scan"}, "type": "electric_scooter", "fusion_lon": 0.0}, {"is_reserved": 0, "is_disabled": 0, "fusion_lat": 0.0, "name": "0ae748d152ed412808f03b900c2b3c78", "lat": 38.88361616666667, "lon": -76.9279155, "bike_id": "0ae748d152ed412808f03b900c2b3c78", "rental_uris": {"ios": "https://dc.lft.to/lastmile_qr_scan", "android": "https://dc.lft.to/lastmile_qr_scan"}, "type": "electric_scooter", "fusion_lon": 0.0}, {"is_reserved": 0, "is_disabled": 0, "fusion_lat": 0.0, "name": "04a17038fb75a0e54e7ded591bea039d", "lat": 38.920610833333335, "lon": -77.04193366666667, "bike_id": "04a17038fb75a0e54e7ded591bea039d", "rental_uris": {"ios": "https://dc.lft.to/lastmile_qr_scan", "android": "https://dc.lft.to/lastmile_qr_scan"}, "type": "electric_scooter", "fusion_lon": 0.0}, {"is_reserved": 0, "is_disabled": 0, "fusion_lat": 0.0, "name": "6f5c1e05c15fca703b4b291c4b667f18", "lat": 38.995014, "lon": -77.00130966666667, "bike_id": "6f5c1e05c15fca703b4b291c4b667f18", "rental_uris": {"ios": "https://dc.lft.to/lastmile_qr_scan", "android": "https://dc.lft.to/lastmile_qr_scan"}, "type": "electric_bike", "fusion_lon": 0.0}, {"is_reserved": 0, "is_disabled": 0, "fusion_lat": 0.0, "name": "b710f8d1bc5d379559249765c3430a5b", "lat": 38.922426333333334, "lon": -77.036662, "bike_id": "b710f8d1bc5d379559249765c3430a5b", "rental_uris": {"ios": "https://dc.lft.to/lastmile_qr_scan", "android": "https://dc.lft.to/lastmile_qr_scan"}, "type": "electric_scooter", "fusion_lon": 0.0}, {"is_reserved": 0, "is_disabled": 0, "fusion_lat": 0.0, "name": "eaa694319865055b16027a178c17f289", "lat": 38.936163, "lon": -76.95003566666666, "bike_id": "eaa694319865055b16027a178c17f289", "rental_uris": {"ios": "https://dc.lft.to/lastmile_qr_scan", "android": "https://dc.lft.to/lastmile_qr_scan"}, "type": "electric_bike", "fusion_lon": 0.0}, {"is_reserved": 0, "is_disabled": 0, "fusion_lat": 0.0, "name": "665de09fcd2d56a09742aa2f3ab5f7a4", "lat": 38.9296175, "lon": -77.03289983333333, "bike_id": "665de09fcd2d56a09742aa2f3ab5f7a4", "rental_uris": {"ios": "https://dc.lft.to/lastmile_qr_scan", "android": "https://dc.lft.to/lastmile_qr_scan"}, "type": "electric_scooter", "fusion_lon": 0.0}, {"is_reserved": 0, "is_disabled": 0, "fusion_lat": 0.0, "name": "d18355406eeb744af51210a53384e090", "lat": 38.89007266666667, "lon": -76.9374885, "bike_id": "d18355406eeb744af51210a53384e090", "rental_uris": {"ios": "https://dc.lft.to/lastmile_qr_scan", "android": "https://dc.lft.to/lastmile_qr_scan"}, "type": "electric_scooter", "fusion_lon": 0.0}, {"is_reserved": 0, "is_disabled": 0, "fusion_lat": 0.0, "name": "eed7e1d7488694b78a96cce08899719d", "lat": 38.91783366666667, "lon": -77.04333133333333, "bike_id": "eed7e1d7488694b78a96cce08899719d", "rental_uris": {"ios": "https://dc.lft.to/lastmile_qr_scan", "android": "https://dc.lft.to/lastmile_qr_scan"}, "type": "electric_scooter", "fusion_lon": 0.0}, {"is_reserved": 0, "is_disabled": 0, "fusion_lat": 0.0, "name": "a005bd56f66bcf87c9b8e2f33ebbd4a4", "lat": 38.91639883333333, "lon": -77.03194983333333, "bike_id": "a005bd56f66bcf87c9b8e2f33ebbd4a4", "rental_uris": {"ios": "https://dc.lft.to/lastmile_qr_scan", "android": "https://dc.lft.to/lastmile_qr_scan"}, "type": "electric_scooter", "fusion_lon": 0.0}, {"is_reserved": 0, "is_disabled": 0, "fusion_lat": 0.0, "name": "f0f4c4c8672b751ba85a0f432d790d83", "lat": 38.913974333333336, "lon": -77.03211683333333, "bike_id": "f0f4c4c8672b751ba85a0f432d790d83", "rental_uris": {"ios": "https://dc.lft.to/lastmile_qr_scan", "android": "https://dc.lft.to/lastmile_qr_scan"}, "type": "electric_scooter", "fusion_lon": 0.0}, {"is_reserved": 0, "is_disabled": 0, "fusion_lat": 0.0, "name": "7ca244298c25236ddb46674dd0ed14d0", "lat": 38.90060233333333, "lon": -77.03658133333333, "bike_id": "7ca244298c25236ddb46674dd0ed14d0", "rental_uris": {"ios": "https://dc.lft.to/lastmile_qr_scan", "android": "https://dc.lft.to/lastmile_qr_scan"}, "type": "electric_scooter", "fusion_lon": 0.0}, {"is_reserved": 0, "is_disabled": 0, "fusion_lat": 0.0, "name": "10d9b1e00c374d9041fa1ee1cb4ba984", "lat": 38.90253116666667, "lon": -77.03028016666667, "bike_id": "10d9b1e00c374d9041fa1ee1cb4ba984", "rental_uris": {"ios": "https://dc.lft.to/lastmile_qr_scan", "android": "https://dc.lft.to/lastmile_qr_scan"}, "type": "electric_scooter", "fusion_lon": 0.0}, {"is_reserved": 0, "is_disabled": 0, "fusion_lat": 0.0, "name": "49b836428c82e7bc859ad5b457555523", "lat": 38.92173116666667, "lon": -77.0210965, "bike_id": "49b836428c82e7bc859ad5b457555523", "rental_uris": {"ios": "https://dc.lft.to/lastmile_qr_scan", "android": "https://dc.lft.to/lastmile_qr_scan"}, "type": "electric_scooter", "fusion_lon": 0.0}, {"is_reserved": 0, "is_disabled": 0, "fusion_lat": 0.0, "name": "78b173496c25d7ddec7ba7926f7efc8a", "lat": 38.91933683333333, "lon": -77.034779, "bike_id": "78b173496c25d7ddec7ba7926f7efc8a", "rental_uris": {"ios": "https://dc.lft.to/lastmile_qr_scan", "android": "https://dc.lft.to/lastmile_qr_scan"}, "type": "electric_scooter", "fusion_lon": 0.0}, {"is_reserved": 0, "is_disabled": 0, "fusion_lat": 0.0, "name": "ae556d18f3e0b3b4e82fb93fe6160658", "lat": 38.90664566666667, "lon": -77.03134066666667, "bike_id": "ae556d18f3e0b3b4e82fb93fe6160658", "rental_uris": {"ios": "https://dc.lft.to/lastmile_qr_scan", "android": "https://dc.lft.to/lastmile_qr_scan"}, "type": "electric_scooter", "fusion_lon": 0.0}, {"is_reserved": 0, "is_disabled": 0, "fusion_lat": 0.0, "name": "f8a7de3c3db8dbf00ff994a6da4f7cd1", "lat": 38.887299, "lon": -76.98378516666666, "bike_id": "f8a7de3c3db8dbf00ff994a6da4f7cd1", "rental_uris": {"ios": "https://dc.lft.to/lastmile_qr_scan", "android": "https://dc.lft.to/lastmile_qr_scan"}, "type": "electric_scooter", "fusion_lon": 0.0}, {"is_reserved": 0, "is_disabled": 0, "fusion_lat": 0.0, "name": "d215a7670279d3d5d180132a3e7d4de7", "lat": 38.93750416666666, "lon": -77.03267, "bike_id": "d215a7670279d3d5d180132a3e7d4de7", "rental_uris": {"ios": "https://dc.lft.to/lastmile_qr_scan", "android": "https://dc.lft.to/lastmile_qr_scan"}, "type": "electric_scooter", "fusion_lon": 0.0}, {"is_reserved": 0, "is_disabled": 0, "fusion_lat": 0.0, "name": "aad566e2e4546dfff86abdcf98574229", "lat": 38.956262833333334, "lon": -77.02430466666667, "bike_id": "aad566e2e4546dfff86abdcf98574229", "rental_uris": {"ios": "https://dc.lft.to/lastmile_qr_scan", "android": "https://dc.lft.to/lastmile_qr_scan"}, "type": "electric_scooter", "fusion_lon": 0.0}, {"is_reserved": 0, "is_disabled": 0, "fusion_lat": 0.0, "name": "fb5c4486f8d0eb207710292aa9c4bc68", "lat": 38.96212716666667, "lon": -77.02245116666667, "bike_id": "fb5c4486f8d0eb207710292aa9c4bc68", "rental_uris": {"ios": "https://dc.lft.to/lastmile_qr_scan", "android": "https://dc.lft.to/lastmile_qr_scan"}, "type": "electric_scooter", "fusion_lon": 0.0}, {"is_reserved": 0, "is_disabled": 0, "fusion_lat": 0.0, "name": "9c4a5d4ed577dc74b3f1d1b49f063a00", "lat": 38.8982555, "lon": -77.013595, "bike_id": "9c4a5d4ed577dc74b3f1d1b49f063a00", "rental_uris": {"ios": "https://dc.lft.to/lastmile_qr_scan", "android": "https://dc.lft.to/lastmile_qr_scan"}, "type": "electric_scooter", "fusion_lon": 0.0}, {"is_reserved": 0, "is_disabled": 0, "fusion_lat": 0.0, "name": "95db680e6894652570e55613ecf67b98", "lat": 38.8947795, "lon": -77.04535333333334, "bike_id": "95db680e6894652570e55613ecf67b98", "rental_uris": {"ios": "https://dc.lft.to/lastmile_qr_scan", "android": "https://dc.lft.to/lastmile_qr_scan"}, "type": "electric_scooter", "fusion_lon": 0.0}, {"is_reserved": 0, "is_disabled": 0, "fusion_lat": 0.0, "name": "90a3052a01e2c902e1d2b01ba05c2555", "lat": 38.90729066666667, "lon": -77.03204733333334, "bike_id": "90a3052a01e2c902e1d2b01ba05c2555", "rental_uris": {"ios": "https://dc.lft.to/lastmile_qr_scan", "android": "https://dc.lft.to/lastmile_qr_scan"}, "type": "electric_scooter", "fusion_lon": 0.0}, {"is_reserved": 0, "is_disabled": 0, "fusion_lat": 0.0, "name": "6c76de14846b664715777a47b7654ce1", "lat": 38.907199, "lon": -77.01469583333333, "bike_id": "6c76de14846b664715777a47b7654ce1", "rental_uris": {"ios": "https://dc.lft.to/lastmile_qr_scan", "android": "https://dc.lft.to/lastmile_qr_scan"}, "type": "electric_scooter", "fusion_lon": 0.0}, {"is_reserved": 0, "is_disabled": 0, "fusion_lat": 0.0, "name": "52f2e64d368a31b5b1855a33097f320d", "lat": 38.91189983333334, "lon": -77.018155, "bike_id": "52f2e64d368a31b5b1855a33097f320d", "rental_uris": {"ios": "https://dc.lft.to/lastmile_qr_scan", "android": "https://dc.lft.to/lastmile_qr_scan"}, "type": "electric_scooter", "fusion_lon": 0.0}, {"is_reserved": 0, "is_disabled": 0, "fusion_lat": 0.0, "name": "74c0d2c75715109350b4501afd2871e6", "lat": 38.8338245, "lon": -77.00302966666666, "bike_id": "74c0d2c75715109350b4501afd2871e6", "rental_uris": {"ios": "https://dc.lft.to/lastmile_qr_scan", "android": "https://dc.lft.to/lastmile_qr_scan"}, "type": "electric_scooter", "fusion_lon": 0.0}, {"is_reserved": 0, "is_disabled": 0, "fusion_lat": 0.0, "name": "0bc011292db62ecaac01a410d564e9b1", "lat": 38.904214833333334, "lon": -77.02400716666666, "bike_id": "0bc011292db62ecaac01a410d564e9b1", "rental_uris": {"ios": "https://dc.lft.to/lastmile_qr_scan", "android": "https://dc.lft.to/lastmile_qr_scan"}, "type": "electric_scooter", "fusion_lon": 0.0}, {"is_reserved": 0, "is_disabled": 0, "fusion_lat": 0.0, "name": "0fed16e1c379e5b0030770286709f56e", "lat": 38.93625816666667, "lon": -77.06348316666667, "bike_id": "0fed16e1c379e5b0030770286709f56e", "rental_uris": {"ios": "https://dc.lft.to/lastmile_qr_scan", "android": "https://dc.lft.to/lastmile_qr_scan"}, "type": "electric_bike", "fusion_lon": 0.0}, {"is_reserved": 0, "is_disabled": 0, "fusion_lat": 0.0, "name": "36444340ee0bb6ae22390fe37df4c2c3", "lat": 38.836051166666664, "lon": -77.0037795, "bike_id": "36444340ee0bb6ae22390fe37df4c2c3", "rental_uris": {"ios": "https://dc.lft.to/lastmile_qr_scan", "android": "https://dc.lft.to/lastmile_qr_scan"}, "type": "electric_bike", "fusion_lon": 0.0}, {"is_reserved": 0, "is_disabled": 0, "fusion_lat": 0.0, "name": "56b3e111e4a3072e4bf6e87454a15f4b", "lat": 38.8973405, "lon": -77.00375383333333, "bike_id": "56b3e111e4a3072e4bf6e87454a15f4b", "rental_uris": {"ios": "https://dc.lft.to/lastmile_qr_scan", "android": "https://dc.lft.to/lastmile_qr_scan"}, "type": "electric_scooter", "fusion_lon": 0.0}, {"is_reserved": 0, "is_disabled": 0, "fusion_lat": 0.0, "name": "41af5723d620b34ed9c534e423099a8c", "lat": 38.8763355, "lon": -77.0095375, "bike_id": "41af5723d620b34ed9c534e423099a8c", "rental_uris": {"ios": "https://dc.lft.to/lastmile_qr_scan", "android": "https://dc.lft.to/lastmile_qr_scan"}, "type": "electric_scooter", "fusion_lon": 0.0}, {"is_reserved": 0, "is_disabled": 0, "fusion_lat": 0.0, "name": "1cedf2f3a7d86bba589cb31289cf4ce5", "lat": 38.918631166666664, "lon": -77.0156495, "bike_id": "1cedf2f3a7d86bba589cb31289cf4ce5", "rental_uris": {"ios": "https://dc.lft.to/lastmile_qr_scan", "android": "https://dc.lft.to/lastmile_qr_scan"}, "type": "electric_scooter", "fusion_lon": 0.0}, {"is_reserved": 0, "is_disabled": 0, "fusion_lat": 0.0, "name": "5e0af8c9c585b7dea5d7ce3351eef06c", "lat": 38.90382783333333, "lon": -77.04834866666667, "bike_id": "5e0af8c9c585b7dea5d7ce3351eef06c", "rental_uris": {"ios": "https://dc.lft.to/lastmile_qr_scan", "android": "https://dc.lft.to/lastmile_qr_scan"}, "type": "electric_scooter", "fusion_lon": 0.0}, {"is_reserved": 0, "is_disabled": 0, "fusion_lat": 0.0, "name": "a8e8ee2218a87d8ebd0d049de129c667", "lat": 38.8909835, "lon": -76.98821983333333, "bike_id": "a8e8ee2218a87d8ebd0d049de129c667", "rental_uris": {"ios": "https://dc.lft.to/lastmile_qr_scan", "android": "https://dc.lft.to/lastmile_qr_scan"}, "type": "electric_scooter", "fusion_lon": 0.0}, {"is_reserved": 0, "is_disabled": 0, "fusion_lat": 0.0, "name": "6b1febbe56027daddef24fe6edc950e3", "lat": 38.8863165, "lon": -76.9818435, "bike_id": "6b1febbe56027daddef24fe6edc950e3", "rental_uris": {"ios": "https://dc.lft.to/lastmile_qr_scan", "android": "https://dc.lft.to/lastmile_qr_scan"}, "type": "electric_scooter", "fusion_lon": 0.0}, {"is_reserved": 0, "is_disabled": 0, "fusion_lat": 0.0, "name": "55c6cb73df8ed5f35f1da631506074a7", "lat": 38.91259733333333, "lon": -76.98357183333333, "bike_id": "55c6cb73df8ed5f35f1da631506074a7", "rental_uris": {"ios": "https://dc.lft.to/lastmile_qr_scan", "android": "https://dc.lft.to/lastmile_qr_scan"}, "type": "electric_scooter", "fusion_lon": 0.0}, {"is_reserved": 0, "is_disabled": 0, "fusion_lat": 0.0, "name": "c0c4145b4fe2ed9ae00ce0d25187ac55", "lat": 38.91814883333333, "lon": -77.03728233333334, "bike_id": "c0c4145b4fe2ed9ae00ce0d25187ac55", "rental_uris": {"ios": "https://dc.lft.to/lastmile_qr_scan", "android": "https://dc.lft.to/lastmile_qr_scan"}, "type": "electric_scooter", "fusion_lon": 0.0}, {"is_reserved": 0, "is_disabled": 0, "fusion_lat": 0.0, "name": "54c89a958af1aeb74036fb2b67aebf4a", "lat": 38.91593133333333, "lon": -76.98409866666667, "bike_id": "54c89a958af1aeb74036fb2b67aebf4a", "rental_uris": {"ios": "https://dc.lft.to/lastmile_qr_scan", "android": "https://dc.lft.to/lastmile_qr_scan"}, "type": "electric_scooter", "fusion_lon": 0.0}, {"is_reserved": 0, "is_disabled": 0, "fusion_lat": 0.0, "name": "d91d7c9b5cf069769f5909ea743356ff", "lat": 38.91666816666667, "lon": -77.04210533333334, "bike_id": "d91d7c9b5cf069769f5909ea743356ff", "rental_uris": {"ios": "https://dc.lft.to/lastmile_qr_scan", "android": "https://dc.lft.to/lastmile_qr_scan"}, "type": "electric_scooter", "fusion_lon": 0.0}, {"is_reserved": 0, "is_disabled": 0, "fusion_lat": 0.0, "name": "9a03c022fc05f68f3031e4d90ca048fa", "lat": 38.88430666666667, "lon": -77.03044216666666, "bike_id": "9a03c022fc05f68f3031e4d90ca048fa", "rental_uris": {"ios": "https://dc.lft.to/lastmile_qr_scan", "android": "https://dc.lft.to/lastmile_qr_scan"}, "type": "electric_scooter", "fusion_lon": 0.0}, {"is_reserved": 0, "is_disabled": 0, "fusion_lat": 0.0, "name": "77371d4cd47d47213e54f0879cb289fa", "lat": 38.924212, "lon": -77.02131566666667, "bike_id": "77371d4cd47d47213e54f0879cb289fa", "rental_uris": {"ios": "https://dc.lft.to/lastmile_qr_scan", "android": "https://dc.lft.to/lastmile_qr_scan"}, "type": "electric_scooter", "fusion_lon": 0.0}, {"is_reserved": 0, "is_disabled": 0, "fusion_lat": 0.0, "name": "349febce96b613d34f264e21606daea1", "lat": 38.84673816666667, "lon": -77.13942433333334, "bike_id": "349febce96b613d34f264e21606daea1", "rental_uris": {"ios": "https://dc.lft.to/lastmile_qr_scan", "android": "https://dc.lft.to/lastmile_qr_scan"}, "type": "electric_bike", "fusion_lon": 0.0}, {"is_reserved": 0, "is_disabled": 0, "fusion_lat": 0.0, "name": "1b3d239da034d68f6f8abd4b8eab0749", "lat": 38.90166766666667, "lon": -77.03138916666667, "bike_id": "1b3d239da034d68f6f8abd4b8eab0749", "rental_uris": {"ios": "https://dc.lft.to/lastmile_qr_scan", "android": "https://dc.lft.to/lastmile_qr_scan"}, "type": "electric_scooter", "fusion_lon": 0.0}, {"is_reserved": 0, "is_disabled": 0, "fusion_lat": 0.0, "name": "4d59a2270b8c6c90285e06513ed89e24", "lat": 38.91333383333333, "lon": -77.022012, "bike_id": "4d59a2270b8c6c90285e06513ed89e24", "rental_uris": {"ios": "https://dc.lft.to/lastmile_qr_scan", "android": "https://dc.lft.to/lastmile_qr_scan"}, "type": "electric_scooter", "fusion_lon": 0.0}, {"is_reserved": 0, "is_disabled": 0, "fusion_lat": 0.0, "name": "12e77b9c36d263683bcde1036425a231", "lat": 38.917711, "lon": -77.04057533333334, "bike_id": "12e77b9c36d263683bcde1036425a231", "rental_uris": {"ios": "https://dc.lft.to/lastmile_qr_scan", "android": "https://dc.lft.to/lastmile_qr_scan"}, "type": "electric_scooter", "fusion_lon": 0.0}, {"is_reserved": 0, "is_disabled": 0, "fusion_lat": 0.0, "name": "d36b3657254574770b3f0fa33949c5ce", "lat": 39.022976166666666, "lon": -77.021068, "bike_id": "d36b3657254574770b3f0fa33949c5ce", "rental_uris": {"ios": "https://dc.lft.to/lastmile_qr_scan", "android": "https://dc.lft.to/lastmile_qr_scan"}, "type": "electric_bike", "fusion_lon": 0.0}, {"is_reserved": 0, "is_disabled": 0, "fusion_lat": 0.0, "name": "3d9f19af2c73288b5171cdc2dd0a0ab8", "lat": 38.89627516666667, "lon": -77.0035465, "bike_id": "3d9f19af2c73288b5171cdc2dd0a0ab8", "rental_uris": {"ios": "https://dc.lft.to/lastmile_qr_scan", "android": "https://dc.lft.to/lastmile_qr_scan"}, "type": "electric_scooter", "fusion_lon": 0.0}, {"is_reserved": 0, "is_disabled": 0, "fusion_lat": 0.0, "name": "931050094fadb806ef3c25da06df94a7", "lat": 38.923268, "lon": -77.043131, "bike_id": "931050094fadb806ef3c25da06df94a7", "rental_uris": {"ios": "https://dc.lft.to/lastmile_qr_scan", "android": "https://dc.lft.to/lastmile_qr_scan"}, "type": "electric_scooter", "fusion_lon": 0.0}, {"is_reserved": 0, "is_disabled": 0, "fusion_lat": 0.0, "name": "64c2e01654a18c5193cfe3126eaf5120", "lat": 38.86553333333333, "lon": -76.95210783333333, "bike_id": "64c2e01654a18c5193cfe3126eaf5120", "rental_uris": {"ios": "https://dc.lft.to/lastmile_qr_scan", "android": "https://dc.lft.to/lastmile_qr_scan"}, "type": "electric_bike", "fusion_lon": 0.0}, {"is_reserved": 0, "is_disabled": 0, "fusion_lat": 0.0, "name": "a5ba0300ac936fd38253a1f3fe307852", "lat": 38.927951, "lon": -77.03640716666666, "bike_id": "a5ba0300ac936fd38253a1f3fe307852", "rental_uris": {"ios": "https://dc.lft.to/lastmile_qr_scan", "android": "https://dc.lft.to/lastmile_qr_scan"}, "type": "electric_scooter", "fusion_lon": 0.0}, {"is_reserved": 0, "is_disabled": 0, "fusion_lat": 0.0, "name": "8809189ab59966592adf8d9ccb7e186b", "lat": 38.974764, "lon": -76.98671983333334, "bike_id": "8809189ab59966592adf8d9ccb7e186b", "rental_uris": {"ios": "https://dc.lft.to/lastmile_qr_scan", "android": "https://dc.lft.to/lastmile_qr_scan"}, "type": "electric_bike", "fusion_lon": 0.0}, {"is_reserved": 0, "is_disabled": 0, "fusion_lat": 0.0, "name": "6c99208aaf55507482f20f1bc9b456bc", "lat": 38.893934333333334, "lon": -77.02453883333334, "bike_id": "6c99208aaf55507482f20f1bc9b456bc", "rental_uris": {"ios": "https://dc.lft.to/lastmile_qr_scan", "android": "https://dc.lft.to/lastmile_qr_scan"}, "type": "electric_scooter", "fusion_lon": 0.0}, {"is_reserved": 0, "is_disabled": 0, "fusion_lat": 0.0, "name": "b2c2848eb26130169419dbf63154b703", "lat": 38.8942405, "lon": -77.09447416666667, "bike_id": "b2c2848eb26130169419dbf63154b703", "rental_uris": {"ios": "https://dc.lft.to/lastmile_qr_scan", "android": "https://dc.lft.to/lastmile_qr_scan"}, "type": "electric_bike", "fusion_lon": 0.0}, {"is_reserved": 0, "is_disabled": 0, "fusion_lat": 0.0, "name": "b9ec51749c6e275ac735bbd06c39e203", "lat": 38.90697, "lon": -77.02183833333333, "bike_id": "b9ec51749c6e275ac735bbd06c39e203", "rental_uris": {"ios": "https://dc.lft.to/lastmile_qr_scan", "android": "https://dc.lft.to/lastmile_qr_scan"}, "type": "electric_scooter", "fusion_lon": 0.0}, {"is_reserved": 0, "is_disabled": 0, "fusion_lat": 0.0, "name": "a6889b26da19f9988e2a64d5176b59aa", "lat": 38.88724083333334, "lon": -76.99612416666666, "bike_id": "a6889b26da19f9988e2a64d5176b59aa", "rental_uris": {"ios": "https://dc.lft.to/lastmile_qr_scan", "android": "https://dc.lft.to/lastmile_qr_scan"}, "type": "electric_scooter", "fusion_lon": 0.0}, {"is_reserved": 0, "is_disabled": 0, "fusion_lat": 0.0, "name": "68947451d8f2dcbcd1c01912c0033931", "lat": 38.91044333333333, "lon": -76.99803533333333, "bike_id": "68947451d8f2dcbcd1c01912c0033931", "rental_uris": {"ios": "https://dc.lft.to/lastmile_qr_scan", "android": "https://dc.lft.to/lastmile_qr_scan"}, "type": "electric_scooter", "fusion_lon": 0.0}, {"is_reserved": 0, "is_disabled": 0, "fusion_lat": 0.0, "name": "b2163d5a7616edd0ae675759bf9f1680", "lat": 38.926912, "lon": -77.02275716666666, "bike_id": "b2163d5a7616edd0ae675759bf9f1680", "rental_uris": {"ios": "https://dc.lft.to/lastmile_qr_scan", "android": "https://dc.lft.to/lastmile_qr_scan"}, "type": "electric_scooter", "fusion_lon": 0.0}, {"is_reserved": 0, "is_disabled": 0, "fusion_lat": 0.0, "name": "c770d386947f12f052c2f44fdd58bbc4", "lat": 39.006481, "lon": -76.90025833333334, "bike_id": "c770d386947f12f052c2f44fdd58bbc4", "rental_uris": {"ios": "https://dc.lft.to/lastmile_qr_scan", "android": "https://dc.lft.to/lastmile_qr_scan"}, "type": "electric_bike", "fusion_lon": 0.0}, {"is_reserved": 0, "is_disabled": 0, "fusion_lat": 0.0, "name": "f98752dc80f5904d79b2ff355f190c92", "lat": 38.92243716666667, "lon": -77.03664783333333, "bike_id": "f98752dc80f5904d79b2ff355f190c92", "rental_uris": {"ios": "https://dc.lft.to/lastmile_qr_scan", "android": "https://dc.lft.to/lastmile_qr_scan"}, "type": "electric_scooter", "fusion_lon": 0.0}, {"is_reserved": 0, "is_disabled": 0, "fusion_lat": 0.0, "name": "da735337597016ef82494f4443eb964b", "lat": 38.90369466666667, "lon": -77.00019133333333, "bike_id": "da735337597016ef82494f4443eb964b", "rental_uris": {"ios": "https://dc.lft.to/lastmile_qr_scan", "android": "https://dc.lft.to/lastmile_qr_scan"}, "type": "electric_scooter", "fusion_lon": 0.0}, {"is_reserved": 0, "is_disabled": 0, "fusion_lat": 0.0, "name": "9557ce494fd993e8e1eb00183e8038d0", "lat": 38.928670333333336, "lon": -77.03289016666666, "bike_id": "9557ce494fd993e8e1eb00183e8038d0", "rental_uris": {"ios": "https://dc.lft.to/lastmile_qr_scan", "android": "https://dc.lft.to/lastmile_qr_scan"}, "type": "electric_scooter", "fusion_lon": 0.0}, {"is_reserved": 0, "is_disabled": 0, "fusion_lat": 0.0, "name": "5e84aaecdc953b55375a9c2a24d92c15", "lat": 38.9039965, "lon": -77.0043205, "bike_id": "5e84aaecdc953b55375a9c2a24d92c15", "rental_uris": {"ios": "https://dc.lft.to/lastmile_qr_scan", "android": "https://dc.lft.to/lastmile_qr_scan"}, "type": "electric_scooter", "fusion_lon": 0.0}, {"is_reserved": 0, "is_disabled": 0, "fusion_lat": 0.0, "name": "502be55f38ac884d13880d33d563c15e", "lat": 38.880083166666665, "lon": -76.99835516666667, "bike_id": "502be55f38ac884d13880d33d563c15e", "rental_uris": {"ios": "https://dc.lft.to/lastmile_qr_scan", "android": "https://dc.lft.to/lastmile_qr_scan"}, "type": "electric_scooter", "fusion_lon": 0.0}, {"is_reserved": 0, "is_disabled": 0, "fusion_lat": 0.0, "name": "4923cb8668523db38cc69f15b218903f", "lat": 38.90523016666667, "lon": -77.01709033333333, "bike_id": "4923cb8668523db38cc69f15b218903f", "rental_uris": {"ios": "https://dc.lft.to/lastmile_qr_scan", "android": "https://dc.lft.to/lastmile_qr_scan"}, "type": "electric_scooter", "fusion_lon": 0.0}, {"is_reserved": 0, "is_disabled": 0, "fusion_lat": 0.0, "name": "60141f6ad6a31db56fdf5347906559c6", "lat": 38.9207755, "lon": -77.02401383333333, "bike_id": "60141f6ad6a31db56fdf5347906559c6", "rental_uris": {"ios": "https://dc.lft.to/lastmile_qr_scan", "android": "https://dc.lft.to/lastmile_qr_scan"}, "type": "electric_scooter", "fusion_lon": 0.0}, {"is_reserved": 0, "is_disabled": 0, "fusion_lat": 0.0, "name": "e899cfde2fd3d67344535f4c5331bbf4", "lat": 38.88303533333333, "lon": -76.93481433333334, "bike_id": "e899cfde2fd3d67344535f4c5331bbf4", "rental_uris": {"ios": "https://dc.lft.to/lastmile_qr_scan", "android": "https://dc.lft.to/lastmile_qr_scan"}, "type": "electric_scooter", "fusion_lon": 0.0}, {"is_reserved": 0, "is_disabled": 0, "fusion_lat": 0.0, "name": "d630b06d1a71edbb03dcf50b062b0d0c", "lat": 38.85242733333333, "lon": -77.114104, "bike_id": "d630b06d1a71edbb03dcf50b062b0d0c", "rental_uris": {"ios": "https://dc.lft.to/lastmile_qr_scan", "android": "https://dc.lft.to/lastmile_qr_scan"}, "type": "electric_bike", "fusion_lon": 0.0}, {"is_reserved": 0, "is_disabled": 0, "fusion_lat": 0.0, "name": "973db2da3a733d029aaad42063476e0e", "lat": 38.876393666666665, "lon": -77.003836, "bike_id": "973db2da3a733d029aaad42063476e0e", "rental_uris": {"ios": "https://dc.lft.to/lastmile_qr_scan", "android": "https://dc.lft.to/lastmile_qr_scan"}, "type": "electric_scooter", "fusion_lon": 0.0}, {"is_reserved": 0, "is_disabled": 0, "fusion_lat": 0.0, "name": "d4905c0b49621b2e377fa3d5995ec508", "lat": 38.9358655, "lon": -77.073459, "bike_id": "d4905c0b49621b2e377fa3d5995ec508", "rental_uris": {"ios": "https://dc.lft.to/lastmile_qr_scan", "android": "https://dc.lft.to/lastmile_qr_scan"}, "type": "electric_scooter", "fusion_lon": 0.0}, {"is_reserved": 0, "is_disabled": 0, "fusion_lat": 0.0, "name": "bdcc162662a085b3ffc54838cdfa84a5", "lat": 38.9083835, "lon": -76.93472483333333, "bike_id": "bdcc162662a085b3ffc54838cdfa84a5", "rental_uris": {"ios": "https://dc.lft.to/lastmile_qr_scan", "android": "https://dc.lft.to/lastmile_qr_scan"}, "type": "electric_scooter", "fusion_lon": 0.0}, {"is_reserved": 0, "is_disabled": 0, "fusion_lat": 0.0, "name": "6e8edf5cddefa9996b55f6eb6f45f9e5", "lat": 38.91740133333333, "lon": -77.02121333333334, "bike_id": "6e8edf5cddefa9996b55f6eb6f45f9e5", "rental_uris": {"ios": "https://dc.lft.to/lastmile_qr_scan", "android": "https://dc.lft.to/lastmile_qr_scan"}, "type": "electric_scooter", "fusion_lon": 0.0}, {"is_reserved": 0, "is_disabled": 0, "fusion_lat": 0.0, "name": "baebb85d8cf4ed4f5a4a0bdbc6ba2c0c", "lat": 38.903272, "lon": -77.03333916666666, "bike_id": "baebb85d8cf4ed4f5a4a0bdbc6ba2c0c", "rental_uris": {"ios": "https://dc.lft.to/lastmile_qr_scan", "android": "https://dc.lft.to/lastmile_qr_scan"}, "type": "electric_scooter", "fusion_lon": 0.0}, {"is_reserved": 0, "is_disabled": 0, "fusion_lat": 0.0, "name": "4f6acee4a68d38c0fba05805981ad910", "lat": 38.920202833333335, "lon": -77.04193566666666, "bike_id": "4f6acee4a68d38c0fba05805981ad910", "rental_uris": {"ios": "https://dc.lft.to/lastmile_qr_scan", "android": "https://dc.lft.to/lastmile_qr_scan"}, "type": "electric_scooter", "fusion_lon": 0.0}, {"is_reserved": 0, "is_disabled": 0, "fusion_lat": 0.0, "name": "cbdeccd6a4bfc1ddf4d87bc50f37dd19", "lat": 38.88768133333333, "lon": -76.97732716666667, "bike_id": "cbdeccd6a4bfc1ddf4d87bc50f37dd19", "rental_uris": {"ios": "https://dc.lft.to/lastmile_qr_scan", "android": "https://dc.lft.to/lastmile_qr_scan"}, "type": "electric_scooter", "fusion_lon": 0.0}, {"is_reserved": 0, "is_disabled": 0, "fusion_lat": 0.0, "name": "cc2d6b22eb4081182895f526663c6d22", "lat": 38.92230283333333, "lon": -77.02829333333334, "bike_id": "cc2d6b22eb4081182895f526663c6d22", "rental_uris": {"ios": "https://dc.lft.to/lastmile_qr_scan", "android": "https://dc.lft.to/lastmile_qr_scan"}, "type": "electric_scooter", "fusion_lon": 0.0}, {"is_reserved": 0, "is_disabled": 0, "fusion_lat": 0.0, "name": "89e96895bf1ae2c87ee872808a7e59a9", "lat": 38.967318666666664, "lon": -77.08912866666667, "bike_id": "89e96895bf1ae2c87ee872808a7e59a9", "rental_uris": {"ios": "https://dc.lft.to/lastmile_qr_scan", "android": "https://dc.lft.to/lastmile_qr_scan"}, "type": "electric_bike", "fusion_lon": 0.0}, {"is_reserved": 0, "is_disabled": 0, "fusion_lat": 0.0, "name": "dfefd7dbbb0c312e8c1c8477dd4b3bbb", "lat": 38.917555, "lon": -77.02802566666666, "bike_id": "dfefd7dbbb0c312e8c1c8477dd4b3bbb", "rental_uris": {"ios": "https://dc.lft.to/lastmile_qr_scan", "android": "https://dc.lft.to/lastmile_qr_scan"}, "type": "electric_scooter", "fusion_lon": 0.0}, {"is_reserved": 0, "is_disabled": 0, "fusion_lat": 0.0, "name": "5e0524ad1a5b0fce83671da4f3accb59", "lat": 38.89583316666667, "lon": -77.02973733333333, "bike_id": "5e0524ad1a5b0fce83671da4f3accb59", "rental_uris": {"ios": "https://dc.lft.to/lastmile_qr_scan", "android": "https://dc.lft.to/lastmile_qr_scan"}, "type": "electric_scooter", "fusion_lon": 0.0}, {"is_reserved": 0, "is_disabled": 0, "fusion_lat": 0.0, "name": "8e3fa3dd58e775facff04d230293d633", "lat": 38.933299, "lon": -77.02910166666666, "bike_id": "8e3fa3dd58e775facff04d230293d633", "rental_uris": {"ios": "https://dc.lft.to/lastmile_qr_scan", "android": "https://dc.lft.to/lastmile_qr_scan"}, "type": "electric_scooter", "fusion_lon": 0.0}, {"is_reserved": 0, "is_disabled": 0, "fusion_lat": 0.0, "name": "5180fd9d1f67e4b8633de5cf401a417a", "lat": 38.9205755, "lon": -77.02301116666666, "bike_id": "5180fd9d1f67e4b8633de5cf401a417a", "rental_uris": {"ios": "https://dc.lft.to/lastmile_qr_scan", "android": "https://dc.lft.to/lastmile_qr_scan"}, "type": "electric_scooter", "fusion_lon": 0.0}, {"is_reserved": 0, "is_disabled": 0, "fusion_lat": 0.0, "name": "433f8d1b6b4e747e9c83ce428a31df7d", "lat": 38.86368183333333, "lon": -76.97007883333333, "bike_id": "433f8d1b6b4e747e9c83ce428a31df7d", "rental_uris": {"ios": "https://dc.lft.to/lastmile_qr_scan", "android": "https://dc.lft.to/lastmile_qr_scan"}, "type": "electric_bike", "fusion_lon": 0.0}, {"is_reserved": 0, "is_disabled": 0, "fusion_lat": 0.0, "name": "68e694f82546022beefcd0514f790e5c", "lat": 38.8877405, "lon": -77.0004415, "bike_id": "68e694f82546022beefcd0514f790e5c", "rental_uris": {"ios": "https://dc.lft.to/lastmile_qr_scan", "android": "https://dc.lft.to/lastmile_qr_scan"}, "type": "electric_scooter", "fusion_lon": 0.0}, {"is_reserved": 0, "is_disabled": 0, "fusion_lat": 0.0, "name": "08e674b9921943397526f0137c6f8659", "lat": 38.918725, "lon": -76.964342, "bike_id": "08e674b9921943397526f0137c6f8659", "rental_uris": {"ios": "https://dc.lft.to/lastmile_qr_scan", "android": "https://dc.lft.to/lastmile_qr_scan"}, "type": "electric_bike", "fusion_lon": 0.0}, {"is_reserved": 0, "is_disabled": 0, "fusion_lat": 0.0, "name": "14ac529acdc048a3ec0d65b42c86ff42", "lat": 38.93262383333333, "lon": -76.98880833333334, "bike_id": "14ac529acdc048a3ec0d65b42c86ff42", "rental_uris": {"ios": "https://dc.lft.to/lastmile_qr_scan", "android": "https://dc.lft.to/lastmile_qr_scan"}, "type": "electric_scooter", "fusion_lon": 0.0}, {"is_reserved": 0, "is_disabled": 0, "fusion_lat": 0.0, "name": "2775a05240ac49829a075485af6b049d", "lat": 38.913117, "lon": -77.02859316666667, "bike_id": "2775a05240ac49829a075485af6b049d", "rental_uris": {"ios": "https://dc.lft.to/lastmile_qr_scan", "android": "https://dc.lft.to/lastmile_qr_scan"}, "type": "electric_scooter", "fusion_lon": 0.0}, {"is_reserved": 0, "is_disabled": 0, "fusion_lat": 0.0, "name": "50a07476935988c41186534599842c10", "lat": 39.02623083333334, "lon": -77.03881383333334, "bike_id": "50a07476935988c41186534599842c10", "rental_uris": {"ios": "https://dc.lft.to/lastmile_qr_scan", "android": "https://dc.lft.to/lastmile_qr_scan"}, "type": "electric_bike", "fusion_lon": 0.0}, {"is_reserved": 0, "is_disabled": 0, "fusion_lat": 0.0, "name": "40ffb597aae21c01650a1a0220e26142", "lat": 38.85787416666667, "lon": -76.98757783333333, "bike_id": "40ffb597aae21c01650a1a0220e26142", "rental_uris": {"ios": "https://dc.lft.to/lastmile_qr_scan", "android": "https://dc.lft.to/lastmile_qr_scan"}, "type": "electric_bike", "fusion_lon": 0.0}, {"is_reserved": 0, "is_disabled": 0, "fusion_lat": 0.0, "name": "f7af5576f17e74f54a8b22359cd4217d", "lat": 38.911173, "lon": -77.03296866666666, "bike_id": "f7af5576f17e74f54a8b22359cd4217d", "rental_uris": {"ios": "https://dc.lft.to/lastmile_qr_scan", "android": "https://dc.lft.to/lastmile_qr_scan"}, "type": "electric_scooter", "fusion_lon": 0.0}, {"is_reserved": 0, "is_disabled": 0, "fusion_lat": 0.0, "name": "24f1d2d21cca8f945218387c2902c7b5", "lat": 38.92714683333333, "lon": -77.0599375, "bike_id": "24f1d2d21cca8f945218387c2902c7b5", "rental_uris": {"ios": "https://dc.lft.to/lastmile_qr_scan", "android": "https://dc.lft.to/lastmile_qr_scan"}, "type": "electric_scooter", "fusion_lon": 0.0}, {"is_reserved": 0, "is_disabled": 0, "fusion_lat": 0.0, "name": "8721716d50115414437ef36a55802ed6", "lat": 38.91546, "lon": -77.04452766666667, "bike_id": "8721716d50115414437ef36a55802ed6", "rental_uris": {"ios": "https://dc.lft.to/lastmile_qr_scan", "android": "https://dc.lft.to/lastmile_qr_scan"}, "type": "electric_scooter", "fusion_lon": 0.0}, {"is_reserved": 0, "is_disabled": 0, "fusion_lat": 0.0, "name": "6efc4f9b0d080fb46b94b25b19ee22c2", "lat": 38.95638483333333, "lon": -76.93865716666667, "bike_id": "6efc4f9b0d080fb46b94b25b19ee22c2", "rental_uris": {"ios": "https://dc.lft.to/lastmile_qr_scan", "android": "https://dc.lft.to/lastmile_qr_scan"}, "type": "electric_bike", "fusion_lon": 0.0}, {"is_reserved": 0, "is_disabled": 0, "fusion_lat": 0.0, "name": "30887112e2312d485844620f3e2b55f6", "lat": 38.90781483333333, "lon": -77.04514066666667, "bike_id": "30887112e2312d485844620f3e2b55f6", "rental_uris": {"ios": "https://dc.lft.to/lastmile_qr_scan", "android": "https://dc.lft.to/lastmile_qr_scan"}, "type": "electric_scooter", "fusion_lon": 0.0}, {"is_reserved": 0, "is_disabled": 0, "fusion_lat": 0.0, "name": "03fb4813911c4a552110b3d96739db8e", "lat": 38.90663716666667, "lon": -77.009208, "bike_id": "03fb4813911c4a552110b3d96739db8e", "rental_uris": {"ios": "https://dc.lft.to/lastmile_qr_scan", "android": "https://dc.lft.to/lastmile_qr_scan"}, "type": "electric_scooter", "fusion_lon": 0.0}, {"is_reserved": 0, "is_disabled": 0, "fusion_lat": 0.0, "name": "d8aea7351b9d602e1a4546545e4e8786", "lat": 38.876278666666664, "lon": -77.00583266666666, "bike_id": "d8aea7351b9d602e1a4546545e4e8786", "rental_uris": {"ios": "https://dc.lft.to/lastmile_qr_scan", "android": "https://dc.lft.to/lastmile_qr_scan"}, "type": "electric_scooter", "fusion_lon": 0.0}, {"is_reserved": 0, "is_disabled": 0, "fusion_lat": 0.0, "name": "af3820c626fe847b4f1e234132558e92", "lat": 38.9235195, "lon": -77.03495216666667, "bike_id": "af3820c626fe847b4f1e234132558e92", "rental_uris": {"ios": "https://dc.lft.to/lastmile_qr_scan", "android": "https://dc.lft.to/lastmile_qr_scan"}, "type": "electric_scooter", "fusion_lon": 0.0}, {"is_reserved": 0, "is_disabled": 0, "fusion_lat": 0.0, "name": "99ed219dff72a8ce0a0c40e8c6809574", "lat": 38.8559065, "lon": -76.97282616666666, "bike_id": "99ed219dff72a8ce0a0c40e8c6809574", "rental_uris": {"ios": "https://dc.lft.to/lastmile_qr_scan", "android": "https://dc.lft.to/lastmile_qr_scan"}, "type": "electric_bike", "fusion_lon": 0.0}, {"is_reserved": 0, "is_disabled": 0, "fusion_lat": 0.0, "name": "9c36c7fba0aa1e1bdf7698f10da6a543", "lat": 38.8231955, "lon": -77.0561425, "bike_id": "9c36c7fba0aa1e1bdf7698f10da6a543", "rental_uris": {"ios": "https://dc.lft.to/lastmile_qr_scan", "android": "https://dc.lft.to/lastmile_qr_scan"}, "type": "electric_bike", "fusion_lon": 0.0},