{"data": {"bikes": [{"bike_id": "cf755a30baea2d64f056045f6f3cecbc", "fusion_lon": 0.0, "type": "electric_scooter", "name": "cf755a30baea2d64f056045f6f3cecbc", "rental_uris": {"android": "https://dc.lft.to/lastmile_qr_scan", "ios": "https://dc.lft.to/lastmile_qr_scan"}, "fusion_lat": 0.0, "lat": 38.914858833333334, "is_disabled": 0, "lon": -77.01211166666667, "is_reserved": 0}, {"bike_id": "16f91e05f56215a8bc986e856fda0517", "fusion_lon": 0.0, "type": "electric_scooter", "name": "16f91e05f56215a8bc986e856fda0517", "rental_uris": {"android": "https://dc.lft.to/lastmile_qr_scan", "ios": "https://dc.lft.to/lastmile_qr_scan"}, "fusion_lat": 0.0, "lat": 38.89622133333334, "is_disabled": 0, "lon": -76.999338, "is_reserved": 0}, {"bike_id": "f47a39d5a79fe00ac710047058c00d38", "fusion_lon": 0.0, "type": "electric_scooter", "name": "f47a39d5a79fe00ac710047058c00d38", "rental_uris": {"android": "https://dc.lft.to/lastmile_qr_scan", "ios": "https://dc.lft.to/lastmile_qr_scan"}, "fusion_lat": 0.0, "lat": 38.9585055, "is_disabled": 0, "lon": -77.029016, "is_reserved": 0}, {"bike_id": "761bd695c220bb94d0649b69123b52fe", "fusion_lon": 0.0, "type": "electric_scooter", "name": "761bd695c220bb94d0649b69123b52fe", "rental_uris": {"android": "https://dc.lft.to/lastmile_qr_scan", "ios": "https://dc.lft.to/lastmile_qr_scan"}, "fusion_lat": 0.0, "lat": 38.8845665, "is_disabled": 0, "lon": -77.02352866666666, "is_reserved": 0}, {"bike_id": "42b20944eef9d3bc893535c8b7036269", "fusion_lon": 0.0, "type": "electric_scooter", "name": "42b20944eef9d3bc893535c8b7036269", "rental_uris": {"android": "https://dc.lft.to/lastmile_qr_scan", "ios": "https://dc.lft.to/lastmile_qr_scan"}, "fusion_lat": 0.0, "lat": 38.9095095, "is_disabled": 0, "lon": -77.03204616666666, "is_reserved": 0}, {"bike_id": "174ae905bf29cfb5e8d07426c30ac662", "fusion_lon": 0.0, "type": "electric_bike", "name": "174ae905bf29cfb5e8d07426c30ac662", "rental_uris": {"android": "https://dc.lft.to/lastmile_qr_scan", "ios": "https://dc.lft.to/lastmile_qr_scan"}, "fusion_lat": 0.0, "lat": 38.909709, "is_disabled": 0, "lon": -77.088255, "is_reserved": 0}, {"bike_id": "79eaf70e105d81c430e41bde373e2d21", "fusion_lon": 0.0, "type": "electric_scooter", "name": "79eaf70e105d81c430e41bde373e2d21", "rental_uris": {"android": "https://dc.lft.to/lastmile_qr_scan", "ios": "https://dc.lft.to/lastmile_qr_scan"}, "fusion_lat": 0.0, "lat": 38.92389516666667, "is_disabled": 0, "lon": -77.04093366666666, "is_reserved": 0}, {"bike_id": "50cfbf5159c5ecd21a32c52085e99ae7", "fusion_lon": 0.0, "type": "electric_scooter", "name": "50cfbf5159c5ecd21a32c52085e99ae7", "rental_uris": {"android": "https://dc.lft.to/lastmile_qr_scan", "ios": "https://dc.lft.to/lastmile_qr_scan"}, "fusion_lat": 0.0, "lat": 38.867165666666665, "is_disabled": 0, "lon": -76.98731366666667, "is_reserved": 0}, {"bike_id": "951784e4be04c0d48c9da1c3c5d28c3d", "fusion_lon": 0.0, "type": "electric_scooter", "name": "951784e4be04c0d48c9da1c3c5d28c3d", "rental_uris": {"android": "https://dc.lft.to/lastmile_qr_scan", "ios": "https://dc.lft.to/lastmile_qr_scan"}, "fusion_lat": 0.0, "lat": 38.89996716666667, "is_disabled": 0, "lon": -77.01978383333334, "is_reserved": 0}, {"bike_id": "8c1a9492ea1c79f04498e1731e1eaedc", "fusion_lon": 0.0, "type": "electric_scooter", "name": "8c1a9492ea1c79f04498e1731e1eaedc", "rental_uris": {"android": "https://dc.lft.to/lastmile_qr_scan", "ios": "https://dc.lft.to/lastmile_qr_scan"}, "fusion_lat": 0.0, "lat": 38.9025895, "is_disabled": 0, "lon": -77.0321925, "is_reserved": 0}, {"bike_id": "3b5aa69f21de91b288ee854eb334ef9b", "fusion_lon": 0.0, "type": "electric_scooter", "name": "3b5aa69f21de91b288ee854eb334ef9b", "rental_uris": {"android": "https://dc.lft.to/lastmile_qr_scan", "ios": "https://dc.lft.to/lastmile_qr_scan"}, "fusion_lat": 0.0, "lat": 38.920288, "is_disabled": 0, "lon": -77.01704316666667, "is_reserved": 0}, {"bike_id": "8bf122c09ce15b0aa024098ae8b5c3b2", "fusion_lon": 0.0, "type": "electric_scooter", "name": "8bf122c09ce15b0aa024098ae8b5c3b2", "rental_uris": {"android": "https://dc.lft.to/lastmile_qr_scan", "ios": "https://dc.lft.to/lastmile_qr_scan"}, "fusion_lat": 0.0, "lat": 38.92172016666667, "is_disabled": 0, "lon": -77.038954, "is_reserved": 0}, {"bike_id": "89ba97c04284b8a03e8a3c2136da2214", "fusion_lon": 0.0, "type": "electric_scooter", "name": "89ba97c04284b8a03e8a3c2136da2214", "rental_uris": {"android": "https://dc.lft.to/lastmile_qr_scan", "ios": "https://dc.lft.to/lastmile_qr_scan"}, "fusion_lat": 0.0, "lat": 38.900192, "is_disabled": 0, "lon": -77.00023233333333, "is_reserved": 0}, {"bike_id": "8e4ca04cc84ecbbefc7a8fc533ee15b8", "fusion_lon": 0.0, "type": "electric_scooter", "name": "8e4ca04cc84ecbbefc7a8fc533ee15b8", "rental_uris": {"android": "https://dc.lft.to/lastmile_qr_scan", "ios": "https://dc.lft.to/lastmile_qr_scan"}, "fusion_lat": 0.0, "lat": 38.91727566666667, "is_disabled": 0, "lon": -77.036606, "is_reserved": 0}, {"bike_id": "187b87e42faa57f12abbea974ca402d9", "fusion_lon": 0.0, "type": "electric_scooter", "name": "187b87e42faa57f12abbea974ca402d9", "rental_uris": {"android": "https://dc.lft.to/lastmile_qr_scan", "ios": "https://dc.lft.to/lastmile_qr_scan"}, "fusion_lat": 0.0, "lat": 38.916563333333336, "is_disabled": 0, "lon": -77.03660883333333, "is_reserved": 0}, {"bike_id": "a2380e545856acd5c9db47155e2ce453", "fusion_lon": 0.0, "type": "electric_scooter", "name": "a2380e545856acd5c9db47155e2ce453", "rental_uris": {"android": "https://dc.lft.to/lastmile_qr_scan", "ios": "https://dc.lft.to/lastmile_qr_scan"}, "fusion_lat": 0.0, "lat": 38.911762, "is_disabled": 0, "lon": -77.0844305, "is_reserved": 0}, {"bike_id": "3f2d8f4d214de6f63d7080b1038b6405", "fusion_lon": 0.0, "type": "electric_scooter", "name": "3f2d8f4d214de6f63d7080b1038b6405", "rental_uris": {"android": "https://dc.lft.to/lastmile_qr_scan", "ios": "https://dc.lft.to/lastmile_qr_scan"}, "fusion_lat": 0.0, "lat": 38.930252, "is_disabled": 0, "lon": -77.0129805, "is_reserved": 0}, {"bike_id": "59387df0dcdd521f537bedffdd15d0f3", "fusion_lon": 0.0, "type": "electric_scooter", "name": "59387df0dcdd521f537bedffdd15d0f3", "rental_uris": {"android": "https://dc.lft.to/lastmile_qr_scan", "ios": "https://dc.lft.to/lastmile_qr_scan"}, "fusion_lat": 0.0, "lat": 38.911041833333336, "is_disabled": 0, "lon": -77.024104, "is_reserved": 0}, {"bike_id": "a377d89754eff73b27502a5fba0222b2", "fusion_lon": 0.0, "type": "electric_scooter", "name": "a377d89754eff73b27502a5fba0222b2", "rental_uris": {"android": "https://dc.lft.to/lastmile_qr_scan", "ios": "https://dc.lft.to/lastmile_qr_scan"}, "fusion_lat": 0.0, "lat": 38.914814, "is_disabled": 0, "lon": -77.04160133333333, "is_reserved": 0}, {"bike_id": "091f14ce99454969af79efa9d222ee8c", "fusion_lon": 0.0, "type": "electric_scooter", "name": "091f14ce99454969af79efa9d222ee8c", "rental_uris": {"android": "https://dc.lft.to/lastmile_qr_scan", "ios": "https://dc.lft.to/lastmile_qr_scan"}, "fusion_lat": 0.0, "lat": 38.89223666666667, "is_disabled": 0, "lon": -77.0271685, "is_reserved": 0}, {"bike_id": "6f2fd5fef7df1d8942a77376b66eeeec", "fusion_lon": 0.0, "type": "electric_scooter", "name": "6f2fd5fef7df1d8942a77376b66eeeec", "rental_uris": {"android": "https://dc.lft.to/lastmile_qr_scan", "ios": "https://dc.lft.to/lastmile_qr_scan"}, "fusion_lat": 0.0, "lat": 38.92474466666667, "is_disabled": 0, "lon": -77.02833566666666, "is_reserved": 0}, {"bike_id": "ebc278e3cb528f8b75ea86ee14460dec", "fusion_lon": 0.0, "type": "electric_scooter", "name": "ebc278e3cb528f8b75ea86ee14460dec", "rental_uris": {"android": "https://dc.lft.to/lastmile_qr_scan", "ios": "https://dc.lft.to/lastmile_qr_scan"}, "fusion_lat": 0.0, "lat": 38.920910166666665, "is_disabled": 0, "lon": -76.97594583333333, "is_reserved": 0}, {"bike_id": "79437b9bb377a438ba309beef144efd4", "fusion_lon": 0.0, "type": "electric_scooter", "name": "79437b9bb377a438ba309beef144efd4", "rental_uris": {"android": "https://dc.lft.to/lastmile_qr_scan", "ios": "https://dc.lft.to/lastmile_qr_scan"}, "fusion_lat": 0.0, "lat": 38.902507, "is_disabled": 0, "lon": -77.02595633333334, "is_reserved": 0}, {"bike_id": "52bf203206efc38363d547bb46d3a2c8", "fusion_lon": 0.0, "type": "electric_scooter", "name": "52bf203206efc38363d547bb46d3a2c8", "rental_uris": {"android": "https://dc.lft.to/lastmile_qr_scan", "ios": "https://dc.lft.to/lastmile_qr_scan"}, "fusion_lat": 0.0, "lat": 38.9445565, "is_disabled": 0, "lon": -77.02812783333333, "is_reserved": 0}, {"bike_id": "afbdbe251577e8b1390f99225df280ae", "fusion_lon": 0.0, "type": "electric_scooter", "name": "afbdbe251577e8b1390f99225df280ae", "rental_uris": {"android": "https://dc.lft.to/lastmile_qr_scan", "ios": "https://dc.lft.to/lastmile_qr_scan"}, "fusion_lat": 0.0, "lat": 38.91833966666667, "is_disabled": 0, "lon": -77.03923916666666, "is_reserved": 0}, {"bike_id": "617158ec9c001c99394ae12391a007c7", "fusion_lon": 0.0, "type": "electric_scooter", "name": "617158ec9c001c99394ae12391a007c7", "rental_uris": {"android": "https://dc.lft.to/lastmile_qr_scan", "ios": "https://dc.lft.to/lastmile_qr_scan"}, "fusion_lat": 0.0, "lat": 38.89766983333333, "is_disabled": 0, "lon": -76.9382915, "is_reserved": 0}, {"bike_id": "b212fc0bc65c78770d3da343c61a458b", "fusion_lon": 0.0, "type": "electric_scooter", "name": "b212fc0bc65c78770d3da343c61a458b", "rental_uris": {"android": "https://dc.lft.to/lastmile_qr_scan", "ios": "https://dc.lft.to/lastmile_qr_scan"}, "fusion_lat": 0.0, "lat": 38.939693, "is_disabled": 0, "lon": -77.02488933333333, "is_reserved": 0}, {"bike_id": "f2f61647ca75ab5b76628cde7d27d812", "fusion_lon": 0.0, "type": "electric_scooter", "name": "f2f61647ca75ab5b76628cde7d27d812", "rental_uris": {"android": "https://dc.lft.to/lastmile_qr_scan", "ios": "https://dc.lft.to/lastmile_qr_scan"}, "fusion_lat": 0.0, "lat": 38.91405916666667, "is_disabled": 0, "lon": -77.041785, "is_reserved": 0}, {"bike_id": "7afe4225b3ce594b8cb6c288c95433d9", "fusion_lon": 0.0, "type": "electric_scooter", "name": "7afe4225b3ce594b8cb6c288c95433d9", "rental_uris": {"android": "https://dc.lft.to/lastmile_qr_scan", "ios": "https://dc.lft.to/lastmile_qr_scan"}, "fusion_lat": 0.0, "lat": 38.955209333333336, "is_disabled": 0, "lon": -77.0073985, "is_reserved": 0}, {"bike_id": "1117b517649290026186d36b0ee50a30", "fusion_lon": 0.0, "type": "electric_scooter", "name": "1117b517649290026186d36b0ee50a30", "rental_uris": {"android": "https://dc.lft.to/lastmile_qr_scan", "ios": "https://dc.lft.to/lastmile_qr_scan"}, "fusion_lat": 0.0, "lat": 38.9303445, "is_disabled": 0, "lon": -77.03308316666667, "is_reserved": 0}, {"bike_id": "d967ff801d4b8f7fd7751e6b54de5923", "fusion_lon": 0.0, "type": "electric_scooter", "name": "d967ff801d4b8f7fd7751e6b54de5923", "rental_uris": {"android": "https://dc.lft.to/lastmile_qr_scan", "ios": "https://dc.lft.to/lastmile_qr_scan"}, "fusion_lat": 0.0, "lat": 38.92873566666667, "is_disabled": 0, "lon": -77.0281665, "is_reserved": 0}, {"bike_id": "c10115da24e7c548f1a0991a77b63a50", "fusion_lon": 0.0, "type": "electric_scooter", "name": "c10115da24e7c548f1a0991a77b63a50", "rental_uris": {"android": "https://dc.lft.to/lastmile_qr_scan", "ios": "https://dc.lft.to/lastmile_qr_scan"}, "fusion_lat": 0.0, "lat": 38.92416383333333, "is_disabled": 0, "lon": -77.02013683333334, "is_reserved": 0}, {"bike_id": "9e9672b80e1c37d3cd67ff67c7a164cf", "fusion_lon": 0.0, "type": "electric_scooter", "name": "9e9672b80e1c37d3cd67ff67c7a164cf", "rental_uris": {"android": "https://dc.lft.to/lastmile_qr_scan", "ios": "https://dc.lft.to/lastmile_qr_scan"}, "fusion_lat": 0.0, "lat": 38.952132666666664, "is_disabled": 0, "lon": -77.06780116666667, "is_reserved": 0}, {"bike_id": "28292bd7eef4d4b73f99b9f19e1e51c3", "fusion_lon": 0.0, "type": "electric_scooter", "name": "28292bd7eef4d4b73f99b9f19e1e51c3", "rental_uris": {"android": "https://dc.lft.to/lastmile_qr_scan", "ios": "https://dc.lft.to/lastmile_qr_scan"}, "fusion_lat": 0.0, "lat": 38.93365383333333, "is_disabled": 0, "lon": -77.057336, "is_reserved": 0}, {"bike_id": "d6a9c2be076bba96249dc8338ab45ca4", "fusion_lon": 0.0, "type": "electric_scooter", "name": "d6a9c2be076bba96249dc8338ab45ca4", "rental_uris": {"android": "https://dc.lft.to/lastmile_qr_scan", "ios": "https://dc.lft.to/lastmile_qr_scan"}, "fusion_lat": 0.0, "lat": 38.894378, "is_disabled": 0, "lon": -76.94985316666667, "is_reserved": 0}, {"bike_id": "bc9768a4f4e0d57976746f790c1aba6e", "fusion_lon": 0.0, "type": "electric_scooter", "name": "bc9768a4f4e0d57976746f790c1aba6e", "rental_uris": {"android": "https://dc.lft.to/lastmile_qr_scan", "ios": "https://dc.lft.to/lastmile_qr_scan"}, "fusion_lat": 0.0, "lat": 38.915571166666666, "is_disabled": 0, "lon": -77.03843633333334, "is_reserved": 0}, {"bike_id": "ac273d22c0323fd9711d0e79eec02ea1", "fusion_lon": 0.0, "type": "electric_scooter", "name": "ac273d22c0323fd9711d0e79eec02ea1", "rental_uris": {"android": "https://dc.lft.to/lastmile_qr_scan", "ios": "https://dc.lft.to/lastmile_qr_scan"}, "fusion_lat": 0.0, "lat": 38.9114845, "is_disabled": 0, "lon": -76.98476983333333, "is_reserved": 0}, {"bike_id": "63b4bd62b0086c9aa478ac64250ebb38", "fusion_lon": 0.0, "type": "electric_scooter", "name": "63b4bd62b0086c9aa478ac64250ebb38", "rental_uris": {"android": "https://dc.lft.to/lastmile_qr_scan", "ios": "https://dc.lft.to/lastmile_qr_scan"}, "fusion_lat": 0.0, "lat": 38.90014383333333, "is_disabled": 0, "lon": -76.9946885, "is_reserved": 0}, {"bike_id": "613f8ad4f71124c27aabe090fc67a923", "fusion_lon": 0.0, "type": "electric_scooter", "name": "613f8ad4f71124c27aabe090fc67a923", "rental_uris": {"android": "https://dc.lft.to/lastmile_qr_scan", "ios": "https://dc.lft.to/lastmile_qr_scan"}, "fusion_lat": 0.0, "lat": 38.91260833333333, "is_disabled": 0, "lon": -77.03765583333333, "is_reserved": 0}, {"bike_id": "7a9e7252e848df7f64ba87667768fae7", "fusion_lon": 0.0, "type": "electric_scooter", "name": "7a9e7252e848df7f64ba87667768fae7", "rental_uris": {"android": "https://dc.lft.to/lastmile_qr_scan", "ios": "https://dc.lft.to/lastmile_qr_scan"}, "fusion_lat": 0.0, "lat": 38.867152, "is_disabled": 0, "lon": -76.98725966666666, "is_reserved": 0}, {"bike_id": "4b7a9981b3daec9c7b3b638413505a38", "fusion_lon": 0.0, "type": "electric_scooter", "name": "4b7a9981b3daec9c7b3b638413505a38", "rental_uris": {"android": "https://dc.lft.to/lastmile_qr_scan", "ios": "https://dc.lft.to/lastmile_qr_scan"}, "fusion_lat": 0.0, "lat": 38.87442683333333, "is_disabled": 0, "lon": -77.00930833333334, "is_reserved": 0}, {"bike_id": "046c28c0cd5e4d94076485c3428a217b", "fusion_lon": 0.0, "type": "electric_scooter", "name": "046c28c0cd5e4d94076485c3428a217b", "rental_uris": {"android": "https://dc.lft.to/lastmile_qr_scan", "ios": "https://dc.lft.to/lastmile_qr_scan"}, "fusion_lat": 0.0, "lat": 38.9116715, "is_disabled": 0, "lon": -77.03847283333333, "is_reserved": 0}, {"bike_id": "dc76f2c3b1bc47809d5d5b44f36b2351", "fusion_lon": 0.0, "type": "electric_scooter", "name": "dc76f2c3b1bc47809d5d5b44f36b2351", "rental_uris": {"android": "https://dc.lft.to/lastmile_qr_scan", "ios": "https://dc.lft.to/lastmile_qr_scan"}, "fusion_lat": 0.0, "lat": 38.921913333333336, "is_disabled": 0, "lon": -77.04345333333333, "is_reserved": 0}, {"bike_id": "2832a4ce897d3c7d617b981a8c329cb6", "fusion_lon": 0.0, "type": "electric_scooter", "name": "2832a4ce897d3c7d617b981a8c329cb6", "rental_uris": {"android": "https://dc.lft.to/lastmile_qr_scan", "ios": "https://dc.lft.to/lastmile_qr_scan"}, "fusion_lat": 0.0, "lat": 38.91767816666667, "is_disabled": 0, "lon": -77.041498, "is_reserved": 0}, {"bike_id": "291680562d5964095b550e7dc35c7137", "fusion_lon": 0.0, "type": "electric_scooter", "name": "291680562d5964095b550e7dc35c7137", "rental_uris": {"android": "https://dc.lft.to/lastmile_qr_scan", "ios": "https://dc.lft.to/lastmile_qr_scan"}, "fusion_lat": 0.0, "lat": 38.89014733333333, "is_disabled": 0, "lon": -76.93737333333334, "is_reserved": 0}, {"bike_id": "fcc94ee6b3d33000400522259e828796", "fusion_lon": 0.0, "type": "electric_bike", "name": "fcc94ee6b3d33000400522259e828796", "rental_uris": {"android": "https://dc.lft.to/lastmile_qr_scan", "ios": "https://dc.lft.to/lastmile_qr_scan"}, "fusion_lat": 0.0, "lat": 38.812307833333335, "is_disabled": 0, "lon": -77.11247916666666, "is_reserved": 0}, {"bike_id": "780b7d8fdb09429901bf212f5c1aa7de", "fusion_lon": 0.0, "type": "electric_scooter", "name": "780b7d8fdb09429901bf212f5c1aa7de", "rental_uris": {"android": "https://dc.lft.to/lastmile_qr_scan", "ios": "https://dc.lft.to/lastmile_qr_scan"}, "fusion_lat": 0.0, "lat": 38.91816983333333, "is_disabled": 0, "lon": -77.04014116666667, "is_reserved": 0}, {"bike_id": "7c27330ed67d6ef22570c7d0fec87295", "fusion_lon": 0.0, "type": "electric_bike", "name": "7c27330ed67d6ef22570c7d0fec87295", "rental_uris": {"android": "https://dc.lft.to/lastmile_qr_scan", "ios": "https://dc.lft.to/lastmile_qr_scan"}, "fusion_lat": 0.0, "lat": 38.96607383333333, "is_disabled": 0, "lon": -76.98326866666666, "is_reserved": 0}, {"bike_id": "bad818e9d7f4ead5d75317d0486782cb", "fusion_lon": 0.0, "type": "electric_scooter", "name": "bad818e9d7f4ead5d75317d0486782cb", "rental_uris": {"android": "https://dc.lft.to/lastmile_qr_scan", "ios": "https://dc.lft.to/lastmile_qr_scan"}, "fusion_lat": 0.0, "lat": 38.93687966666667, "is_disabled": 0, "lon": -77.0327745, "is_reserved": 0}, {"bike_id": "dcccdcf9a20bde0ffb265ceb97a13cc7", "fusion_lon": 0.0, "type": "electric_scooter", "name": "dcccdcf9a20bde0ffb265ceb97a13cc7", "rental_uris": {"android": "https://dc.lft.to/lastmile_qr_scan", "ios": "https://dc.lft.to/lastmile_qr_scan"}, "fusion_lat": 0.0, "lat": 38.904720833333336, "is_disabled": 0, "lon": -76.9961005, "is_reserved": 0}, {"bike_id": "6134553f555364d80a426ff95511df65", "fusion_lon": 0.0, "type": "electric_bike", "name": "6134553f555364d80a426ff95511df65", "rental_uris": {"android": "https://dc.lft.to/lastmile_qr_scan", "ios": "https://dc.lft.to/lastmile_qr_scan"}, "fusion_lat": 0.0, "lat": 38.9180995, "is_disabled": 0, "lon": -77.10187383333333, "is_reserved": 0}, {"bike_id": "ee8b80b1cd09addb15eeac29ffd64158", "fusion_lon": 0.0, "type": "electric_scooter", "name": "ee8b80b1cd09addb15eeac29ffd64158", "rental_uris": {"android": "https://dc.lft.to/lastmile_qr_scan", "ios": "https://dc.lft.to/lastmile_qr_scan"}, "fusion_lat": 0.0, "lat": 38.898360333333336, "is_disabled": 0, "lon": -77.03332083333333, "is_reserved": 0}, {"bike_id": "827a8aa8b2cd5db480d5c2d1c3350732", "fusion_lon": 0.0, "type": "electric_bike", "name": "827a8aa8b2cd5db480d5c2d1c3350732", "rental_uris": {"android": "https://dc.lft.to/lastmile_qr_scan", "ios": "https://dc.lft.to/lastmile_qr_scan"}, "fusion_lat": 0.0, "lat": 38.89677416666667, "is_disabled": 0, "lon": -76.98117483333333, "is_reserved": 0}, {"bike_id": "6c4b80db46b1df2c9383d7034cda52d3", "fusion_lon": 0.0, "type": "electric_scooter", "name": "6c4b80db46b1df2c9383d7034cda52d3", "rental_uris": {"android": "https://dc.lft.to/lastmile_qr_scan", "ios": "https://dc.lft.to/lastmile_qr_scan"}, "fusion_lat": 0.0, "lat": 38.88715583333333, "is_disabled": 0, "lon": -77.02211883333334, "is_reserved": 0}, {"bike_id": "4413c6135b23a56ed0e3c4737d0921e3", "fusion_lon": 0.0, "type": "electric_scooter", "name": "4413c6135b23a56ed0e3c4737d0921e3", "rental_uris": {"android": "https://dc.lft.to/lastmile_qr_scan", "ios": "https://dc.lft.to/lastmile_qr_scan"}, "fusion_lat": 0.0, "lat": 38.885032, "is_disabled": 0, "lon": -77.00617316666667, "is_reserved": 0}, {"bike_id": "bae427c66675719db5672b695fbbf580", "fusion_lon": 0.0, "type": "electric_scooter", "name": "bae427c66675719db5672b695fbbf580", "rental_uris": {"android": "https://dc.lft.to/lastmile_qr_scan", "ios": "https://dc.lft.to/lastmile_qr_scan"}, "fusion_lat": 0.0, "lat": 38.923454666666665, "is_disabled": 0, "lon": -77.03495016666666, "is_reserved": 0}, {"bike_id": "bb4c057c701af255dc9f32fcb16a7e52", "fusion_lon": 0.0, "type": "electric_bike", "name": "bb4c057c701af255dc9f32fcb16a7e52", "rental_uris": {"android": "https://dc.lft.to/lastmile_qr_scan", "ios": "https://dc.lft.to/lastmile_qr_scan"}, "fusion_lat": 0.0, "lat": 38.8565225, "is_disabled": 0, "lon": -77.08526016666667, "is_reserved": 0}, {"bike_id": "beb8f70c5323108215a80be259cb3886", "fusion_lon": 0.0, "type": "electric_scooter", "name": "beb8f70c5323108215a80be259cb3886", "rental_uris": {"android": "https://dc.lft.to/lastmile_qr_scan", "ios": "https://dc.lft.to/lastmile_qr_scan"}, "fusion_lat": 0.0, "lat": 38.89489, "is_disabled": 0, "lon": -76.9484185, "is_reserved": 0}, {"bike_id": "1a068b6e9446d371a8d62ac309eaca2b", "fusion_lon": 0.0, "type": "electric_scooter", "name": "1a068b6e9446d371a8d62ac309eaca2b", "rental_uris": {"android": "https://dc.lft.to/lastmile_qr_scan", "ios": "https://dc.lft.to/lastmile_qr_scan"}, "fusion_lat": 0.0, "lat": 38.900338833333336, "is_disabled": 0, "lon": -76.99521433333334, "is_reserved": 0}, {"bike_id": "99fd9163475fa96591519dd63331eefc", "fusion_lon": 0.0, "type": "electric_scooter", "name": "99fd9163475fa96591519dd63331eefc", "rental_uris": {"android": "https://dc.lft.to/lastmile_qr_scan", "ios": "https://dc.lft.to/lastmile_qr_scan"}, "fusion_lat": 0.0, "lat": 38.903629, "is_disabled": 0, "lon": -77.01113383333333, "is_reserved": 0}, {"bike_id": "c2b492a6e4c39069458a891f783d4f3a", "fusion_lon": 0.0, "type": "electric_scooter", "name": "c2b492a6e4c39069458a891f783d4f3a", "rental_uris": {"android": "https://dc.lft.to/lastmile_qr_scan", "ios": "https://dc.lft.to/lastmile_qr_scan"}, "fusion_lat": 0.0, "lat": 38.9133085, "is_disabled": 0, "lon": -77.048402, "is_reserved": 0}, {"bike_id": "54cbb2400fe7c452cbcfed9f1d116fcc", "fusion_lon": 0.0, "type": "electric_bike", "name": "54cbb2400fe7c452cbcfed9f1d116fcc", "rental_uris": {"android": "https://dc.lft.to/lastmile_qr_scan", "ios": "https://dc.lft.to/lastmile_qr_scan"}, "fusion_lat": 0.0, "lat": 39.003854833333335, "is_disabled": 0, "lon": -77.012868, "is_reserved": 0}, {"bike_id": "0f1e75f684ada8aab3c96716ce5f0915", "fusion_lon": 0.0, "type": "electric_scooter", "name": "0f1e75f684ada8aab3c96716ce5f0915", "rental_uris": {"android": "https://dc.lft.to/lastmile_qr_scan", "ios": "https://dc.lft.to/lastmile_qr_scan"}, "fusion_lat": 0.0, "lat": 38.9111355, "is_disabled": 0, "lon": -77.04510083333334, "is_reserved": 0}, {"bike_id": "7b12a18f3e9a6f976c1527a351784cd7", "fusion_lon": 0.0, "type": "electric_scooter", "name": "7b12a18f3e9a6f976c1527a351784cd7", "rental_uris": {"android": "https://dc.lft.to/lastmile_qr_scan", "ios": "https://dc.lft.to/lastmile_qr_scan"}, "fusion_lat": 0.0, "lat": 38.892257666666666, "is_disabled": 0, "lon": -77.0255, "is_reserved": 0}, {"bike_id": "7dae9674cbfef2cc2d621d449c7656f0", "fusion_lon": 0.0, "type": "electric_scooter", "name": "7dae9674cbfef2cc2d621d449c7656f0", "rental_uris": {"android": "https://dc.lft.to/lastmile_qr_scan", "ios": "https://dc.lft.to/lastmile_qr_scan"}, "fusion_lat": 0.0, "lat": 38.885951666666664, "is_disabled": 0, "lon": -77.01718266666667, "is_reserved": 0}, {"bike_id": "fde2eda8e2469616155f38fba6cd4822", "fusion_lon": 0.0, "type": "electric_scooter", "name": "fde2eda8e2469616155f38fba6cd4822", "rental_uris": {"android": "https://dc.lft.to/lastmile_qr_scan", "ios": "https://dc.lft.to/lastmile_qr_scan"}, "fusion_lat": 0.0, "lat": 38.89753, "is_disabled": 0, "lon": -77.02873083333333, "is_reserved": 0}, {"bike_id": "758dd47a5797b8098f50cdca2351a366", "fusion_lon": 0.0, "type": "electric_scooter", "name": "758dd47a5797b8098f50cdca2351a366", "rental_uris": {"android": "https://dc.lft.to/lastmile_qr_scan", "ios": "https://dc.lft.to/lastmile_qr_scan"}, "fusion_lat": 0.0, "lat": 38.8442525, "is_disabled": 0, "lon": -76.99781166666666, "is_reserved": 0}, {"bike_id": "1bbdeb74c18bd9de6e5009777c044c00", "fusion_lon": 0.0, "type": "electric_scooter", "name": "1bbdeb74c18bd9de6e5009777c044c00", "rental_uris": {"android": "https://dc.lft.to/lastmile_qr_scan", "ios": "https://dc.lft.to/lastmile_qr_scan"}, "fusion_lat": 0.0, "lat": 38.902204166666664, "is_disabled": 0, "lon": -77.0515265, "is_reserved": 0}, {"bike_id": "04d3368a6f1e0174b8c1f68b00c6b581", "fusion_lon": 0.0, "type": "electric_bike", "name": "04d3368a6f1e0174b8c1f68b00c6b581", "rental_uris": {"android": "https://dc.lft.to/lastmile_qr_scan", "ios": "https://dc.lft.to/lastmile_qr_scan"}, "fusion_lat": 0.0, "lat": 38.98827933333333, "is_disabled": 0, "lon": -76.9875065, "is_reserved": 0}, {"bike_id": "39c15bb7e19ff91b0158bdf04261b804", "fusion_lon": 0.0, "type": "electric_scooter", "name": "39c15bb7e19ff91b0158bdf04261b804", "rental_uris": {"android": "https://dc.lft.to/lastmile_qr_scan", "ios": "https://dc.lft.to/lastmile_qr_scan"}, "fusion_lat": 0.0, "lat": 38.90186766666667, "is_disabled": 0, "lon": -76.93465266666666, "is_reserved": 0}, {"bike_id": "668f9718a0ef99a26eb7f6b7b89ee35d", "fusion_lon": 0.0, "type": "electric_scooter", "name": "668f9718a0ef99a26eb7f6b7b89ee35d", "rental_uris": {"android": "https://dc.lft.to/lastmile_qr_scan", "ios": "https://dc.lft.to/lastmile_qr_scan"}, "fusion_lat": 0.0, "lat": 38.91771716666667, "is_disabled": 0, "lon": -77.022959, "is_reserved": 0}, {"bike_id": "107e8d7da617de401dc34bb8e765c2ce", "fusion_lon": 0.0, "type": "electric_scooter", "name": "107e8d7da617de401dc34bb8e765c2ce", "rental_uris": {"android": "https://dc.lft.to/lastmile_qr_scan", "ios": "https://dc.lft.to/lastmile_qr_scan"}, "fusion_lat": 0.0, "lat": 38.886380833333334, "is_disabled": 0, "lon": -77.02167016666667, "is_reserved": 0}, {"bike_id": "cec11b42e4bfc311e566e444b4f481ec", "fusion_lon": 0.0, "type": "electric_scooter", "name": "cec11b42e4bfc311e566e444b4f481ec", "rental_uris": {"android": "https://dc.lft.to/lastmile_qr_scan", "ios": "https://dc.lft.to/lastmile_qr_scan"}, "fusion_lat": 0.0, "lat": 38.92230466666667, "is_disabled": 0, "lon": -77.04255466666666, "is_reserved": 0}, {"bike_id": "37bb73db361daaf134f803e0faf3c5eb", "fusion_lon": 0.0, "type": "electric_scooter", "name": "37bb73db361daaf134f803e0faf3c5eb", "rental_uris": {"android": "https://dc.lft.to/lastmile_qr_scan", "ios": "https://dc.lft.to/lastmile_qr_scan"}, "fusion_lat": 0.0, "lat": 38.92414316666667, "is_disabled": 0, "lon": -77.0195225, "is_reserved": 0}, {"bike_id": "374b413ce4c78deb19f11a13cdca3b13", "fusion_lon": 0.0, "type": "electric_bike", "name": "374b413ce4c78deb19f11a13cdca3b13", "rental_uris": {"android": "https://dc.lft.to/lastmile_qr_scan", "ios": "https://dc.lft.to/lastmile_qr_scan"}, "fusion_lat": 0.0, "lat": 38.954082, "is_disabled": 0, "lon": -76.94290783333334, "is_reserved": 0}, {"bike_id": "1984c9eda62ea0c81f6bf6e1ae4a747c", "fusion_lon": 0.0, "type": "electric_scooter", "name": "1984c9eda62ea0c81f6bf6e1ae4a747c", "rental_uris": {"android": "https://dc.lft.to/lastmile_qr_scan", "ios": "https://dc.lft.to/lastmile_qr_scan"}, "fusion_lat": 0.0, "lat": 38.846191, "is_disabled": 0, "lon": -76.99632216666667, "is_reserved": 0}, {"bike_id": "9677ab9c2bdd27c9034a0ec5219ef5c7", "fusion_lon": 0.0, "type": "electric_bike", "name": "9677ab9c2bdd27c9034a0ec5219ef5c7", "rental_uris": {"android": "https://dc.lft.to/lastmile_qr_scan", "ios": "https://dc.lft.to/lastmile_qr_scan"}, "fusion_lat": 0.0, "lat": 38.89528283333333, "is_disabled": 0, "lon": -77.039837, "is_reserved": 0}, {"bike_id": "31cacac636765bd9e5d72a8798b15dda", "fusion_lon": 0.0, "type": "electric_scooter", "name": "31cacac636765bd9e5d72a8798b15dda", "rental_uris": {"android": "https://dc.lft.to/lastmile_qr_scan", "ios": "https://dc.lft.to/lastmile_qr_scan"}, "fusion_lat": 0.0, "lat": 38.9126605, "is_disabled": 0, "lon": -77.038279, "is_reserved": 0}, {"bike_id": "e5f07a33cfca1faa00a30a7ad6a1ad12", "fusion_lon": 0.0, "type": "electric_scooter", "name": "e5f07a33cfca1faa00a30a7ad6a1ad12", "rental_uris": {"android": "https://dc.lft.to/lastmile_qr_scan", "ios": "https://dc.lft.to/lastmile_qr_scan"}, "fusion_lat": 0.0, "lat": 38.900141166666664, "is_disabled": 0, "lon": -77.04460166666667, "is_reserved": 0}, {"bike_id": "bfe87ab607dc95b7f33b90ed9122c024", "fusion_lon": 0.0, "type": "electric_scooter", "name": "bfe87ab607dc95b7f33b90ed9122c024", "rental_uris": {"android": "https://dc.lft.to/lastmile_qr_scan", "ios": "https://dc.lft.to/lastmile_qr_scan"}, "fusion_lat": 0.0, "lat": 38.864795, "is_disabled": 0, "lon": -76.98362583333333, "is_reserved": 0}, {"bike_id": "172e421faccaf37b3a8b6d77bb519289", "fusion_lon": 0.0, "type": "electric_bike", "name": "172e421faccaf37b3a8b6d77bb519289", "rental_uris": {"android": "https://dc.lft.to/lastmile_qr_scan", "ios": "https://dc.lft.to/lastmile_qr_scan"}, "fusion_lat": 0.0, "lat": 38.852478833333336, "is_disabled": 0, "lon": -77.1142905, "is_reserved": 0}, {"bike_id": "5e01f07033a73c5580d052efae718fe9", "fusion_lon": 0.0, "type": "electric_scooter", "name": "5e01f07033a73c5580d052efae718fe9", "rental_uris": {"android": "https://dc.lft.to/lastmile_qr_scan", "ios": "https://dc.lft.to/lastmile_qr_scan"}, "fusion_lat": 0.0, "lat": 38.92286283333333, "is_disabled": 0, "lon": -77.02968366666667, "is_reserved": 0}, {"bike_id": "44bc68dcf77a26c40cf46a361d8a0d0e", "fusion_lon": 0.0, "type": "electric_scooter", "name": "44bc68dcf77a26c40cf46a361d8a0d0e", "rental_uris": {"android": "https://dc.lft.to/lastmile_qr_scan", "ios": "https://dc.lft.to/lastmile_qr_scan"}, "fusion_lat": 0.0, "lat": 38.923656333333334, "is_disabled": 0, "lon": -77.04026183333333, "is_reserved": 0}, {"bike_id": "40efcbaa8952d1d7f799f0f4fc3b920f", "fusion_lon": 0.0, "type": "electric_scooter", "name": "40efcbaa8952d1d7f799f0f4fc3b920f", "rental_uris": {"android": "https://dc.lft.to/lastmile_qr_scan", "ios": "https://dc.lft.to/lastmile_qr_scan"}, "fusion_lat": 0.0, "lat": 38.92639166666667, "is_disabled": 0, "lon": -77.02512116666666, "is_reserved": 0}, {"bike_id": "8daaf736133d1914216f8e2bb15f3833", "fusion_lon": 0.0, "type": "electric_scooter", "name": "8daaf736133d1914216f8e2bb15f3833", "rental_uris": {"android": "https://dc.lft.to/lastmile_qr_scan", "ios": "https://dc.lft.to/lastmile_qr_scan"}, "fusion_lat": 0.0, "lat": 38.90783283333333, "is_disabled": 0, "lon": -77.030513, "is_reserved": 0}, {"bike_id": "3cd6d233673848eec5b43870807d32f8", "fusion_lon": 0.0, "type": "electric_scooter", "name": "3cd6d233673848eec5b43870807d32f8", "rental_uris": {"android": "https://dc.lft.to/lastmile_qr_scan", "ios": "https://dc.lft.to/lastmile_qr_scan"}, "fusion_lat": 0.0, "lat": 38.8746875, "is_disabled": 0, "lon": -77.005326, "is_reserved": 0}, {"bike_id": "569ed1c439e48a19c65cb0bd77379d22", "fusion_lon": 0.0, "type": "electric_scooter", "name": "569ed1c439e48a19c65cb0bd77379d22", "rental_uris": {"android": "https://dc.lft.to/lastmile_qr_scan", "ios": "https://dc.lft.to/lastmile_qr_scan"}, "fusion_lat": 0.0, "lat": 38.903590333333334, "is_disabled": 0, "lon": -76.974535, "is_reserved": 0}, {"bike_id": "488d4fb1617224a6281f24053156f945", "fusion_lon": 0.0, "type": "electric_scooter", "name": "488d4fb1617224a6281f24053156f945", "rental_uris": {"android": "https://dc.lft.to/lastmile_qr_scan", "ios": "https://dc.lft.to/lastmile_qr_scan"}, "fusion_lat": 0.0, "lat": 38.899922833333335, "is_disabled": 0, "lon": -76.9376695, "is_reserved": 0}, {"bike_id": "831113e0e6b5f6c2bd99f4c728c5bf68", "fusion_lon": 0.0, "type": "electric_scooter", "name": "831113e0e6b5f6c2bd99f4c728c5bf68", "rental_uris": {"android": "https://dc.lft.to/lastmile_qr_scan", "ios": "https://dc.lft.to/lastmile_qr_scan"}, "fusion_lat": 0.0, "lat": 38.917182833333335, "is_disabled": 0, "lon": -77.02698933333333, "is_reserved": 0}, {"bike_id": "6389cb667b2e9e42865da19b88970252", "fusion_lon": 0.0, "type": "electric_bike", "name": "6389cb667b2e9e42865da19b88970252", "rental_uris": {"android": "https://dc.lft.to/lastmile_qr_scan", "ios": "https://dc.lft.to/lastmile_qr_scan"}, "fusion_lat": 0.0, "lat": 38.9904985, "is_disabled": 0, "lon": -77.0694705, "is_reserved": 0}, {"bike_id": "0f61e613a690468f90998068309ce252", "fusion_lon": 0.0, "type": "electric_bike", "name": "0f61e613a690468f90998068309ce252", "rental_uris": {"android": "https://dc.lft.to/lastmile_qr_scan", "ios": "https://dc.lft.to/lastmile_qr_scan"}, "fusion_lat": 0.0, "lat": 38.906251833333336, "is_disabled": 0, "lon": -76.9860955, "is_reserved": 0}, {"bike_id": "6b3d2011be452e8575bd64774ff99154", "fusion_lon": 0.0, "type": "electric_scooter", "name": "6b3d2011be452e8575bd64774ff99154", "rental_uris": {"android": "https://dc.lft.to/lastmile_qr_scan", "ios": "https://dc.lft.to/lastmile_qr_scan"}, "fusion_lat": 0.0, "lat": 38.918227, "is_disabled": 0, "lon": -77.03294316666667, "is_reserved": 0}, {"bike_id": "3f4221cc2eb813d0e639a200816a45dd", "fusion_lon": 0.0, "type": "electric_scooter", "name": "3f4221cc2eb813d0e639a200816a45dd", "rental_uris": {"android": "https://dc.lft.to/lastmile_qr_scan", "ios": "https://dc.lft.to/lastmile_qr_scan"}, "fusion_lat": 0.0, "lat": 38.908697, "is_disabled": 0, "lon": -77.032213, "is_reserved": 0}, {"bike_id": "b0c1de679f01359126bbdfce83044b83", "fusion_lon": 0.0, "type": "electric_scooter", "name": "b0c1de679f01359126bbdfce83044b83", "rental_uris": {"android": "https://dc.lft.to/lastmile_qr_scan", "ios": "https://dc.lft.to/lastmile_qr_scan"}, "fusion_lat": 0.0, "lat": 38.9049895, "is_disabled": 0, "lon": -77.02952566666667, "is_reserved": 0}, {"bike_id": "5b9ff4534b0fad391fc416353cfdcf2f", "fusion_lon": 0.0, "type": "electric_scooter", "name": "5b9ff4534b0fad391fc416353cfdcf2f", "rental_uris": {"android": "https://dc.lft.to/lastmile_qr_scan", "ios": "https://dc.lft.to/lastmile_qr_scan"}, "fusion_lat": 0.0, "lat": 38.914055833333336, "is_disabled": 0, "lon": -77.03222316666667, "is_reserved": 0}, {"bike_id": "ea1fd0b9b4953eece1eb5b127539bd27", "fusion_lon": 0.0, "type": "electric_scooter", "name": "ea1fd0b9b4953eece1eb5b127539bd27", "rental_uris": {"android": "https://dc.lft.to/lastmile_qr_scan", "ios": "https://dc.lft.to/lastmile_qr_scan"}, "fusion_lat": 0.0, "lat": 38.93051333333333, "is_disabled": 0, "lon": -77.03634816666667, "is_reserved": 0}, {"bike_id": "af21cf1a3f10d211911f669fe9c33deb", "fusion_lon": 0.0, "type": "electric_scooter", "name": "af21cf1a3f10d211911f669fe9c33deb", "rental_uris": {"android": "https://dc.lft.to/lastmile_qr_scan", "ios": "https://dc.lft.to/lastmile_qr_scan"}, "fusion_lat": 0.0, "lat": 38.902166, "is_disabled": 0, "lon": -76.990168, "is_reserved": 0}, {"bike_id": "45beed24975bea0856cf5f5bfdbbc8e9", "fusion_lon": 0.0, "type": "electric_bike", "name": "45beed24975bea0856cf5f5bfdbbc8e9", "rental_uris": {"android": "https://dc.lft.to/lastmile_qr_scan", "ios": "https://dc.lft.to/lastmile_qr_scan"}, "fusion_lat": 0.0, "lat": 38.839179333333334, "is_disabled": 0, "lon": -76.99842616666666, "is_reserved": 0}, {"bike_id": "c5e6f2202eb0b08a42f55342d28f9192", "fusion_lon": 0.0, "type": "electric_scooter", "name": "c5e6f2202eb0b08a42f55342d28f9192", "rental_uris": {"android": "https://dc.lft.to/lastmile_qr_scan", "ios": "https://dc.lft.to/lastmile_qr_scan"}, "fusion_lat": 0.0, "lat": 38.888386833333335, "is_disabled": 0, "lon": -77.04903066666667, "is_reserved": 0}, {"bike_id": "bddb1d5b6b29d38112394ee3cf28cc75", "fusion_lon": 0.0, "type": "electric_scooter", "name": "bddb1d5b6b29d38112394ee3cf28cc75", "rental_uris": {"android": "https://dc.lft.to/lastmile_qr_scan", "ios": "https://dc.lft.to/lastmile_qr_scan"}, "fusion_lat": 0.0, "lat": 38.887431666666664, "is_disabled": 0, "lon": -77.028341, "is_reserved": 0}, {"bike_id": "056b7d9ab4c576e61bb0d64573005d3b", "fusion_lon": 0.0, "type": "electric_scooter", "name": "056b7d9ab4c576e61bb0d64573005d3b", "rental_uris": {"android": "https://dc.lft.to/lastmile_qr_scan", "ios": "https://dc.lft.to/lastmile_qr_scan"}, "fusion_lat": 0.0, "lat": 38.92794083333333, "is_disabled": 0, "lon": -77.03078683333334, "is_reserved": 0}, {"bike_id": "2b7e2fb5f6525934f985f364b3076613", "fusion_lon": 0.0, "type": "electric_bike", "name": "2b7e2fb5f6525934f985f364b3076613", "rental_uris": {"android": "https://dc.lft.to/lastmile_qr_scan", "ios": "https://dc.lft.to/lastmile_qr_scan"}, "fusion_lat": 0.0, "lat": 38.90575316666666, "is_disabled": 0, "lon": -77.0170535, "is_reserved": 0}, {"bike_id": "b4e94c969c00d71ca36a757087bfc73c", "fusion_lon": 0.0, "type": "electric_bike", "name": "b4e94c969c00d71ca36a757087bfc73c", "rental_uris": {"android": "https://dc.lft.to/lastmile_qr_scan", "ios": "https://dc.lft.to/lastmile_qr_scan"}, "fusion_lat": 0.0, "lat": 38.885340666666664, "is_disabled": 0, "lon": -76.9357415, "is_reserved": 0}, {"bike_id": "7961ccbec34bae11638e6b2938603780", "fusion_lon": 0.0, "type": "electric_scooter", "name": "7961ccbec34bae11638e6b2938603780", "rental_uris": {"android": "https://dc.lft.to/lastmile_qr_scan", "ios": "https://dc.lft.to/lastmile_qr_scan"}, "fusion_lat": 0.0, "lat": 38.93361433333333, "is_disabled": 0, "lon": -77.03721133333333, "is_reserved": 0}, {"bike_id": "11aabe5713f272f00f43454fde43d393", "fusion_lon": 0.0, "type": "electric_bike", "name": "11aabe5713f272f00f43454fde43d393", "rental_uris": {"android": "https://dc.lft.to/lastmile_qr_scan", "ios": "https://dc.lft.to/lastmile_qr_scan"}, "fusion_lat": 0.0, "lat": 38.96257933333333, "is_disabled": 0, "lon": -77.01079683333333, "is_reserved": 0}, {"bike_id": "c10b04b9c21220957b88d3e34c34dc05", "fusion_lon": 0.0, "type": "electric_scooter", "name": "c10b04b9c21220957b88d3e34c34dc05", "rental_uris": {"android": "https://dc.lft.to/lastmile_qr_scan", "ios": "https://dc.lft.to/lastmile_qr_scan"}, "fusion_lat": 0.0, "lat": 38.9023235, "is_disabled": 0, "lon": -77.02940466666666, "is_reserved": 0}, {"bike_id": "b250dc26d63ff194be2bf3c4e1b22b51", "fusion_lon": 0.0, "type": "electric_scooter", "name": "b250dc26d63ff194be2bf3c4e1b22b51", "rental_uris": {"android": "https://dc.lft.to/lastmile_qr_scan", "ios": "https://dc.lft.to/lastmile_qr_scan"}, "fusion_lat": 0.0, "lat": 38.90372716666667, "is_disabled": 0, "lon": -76.98031183333333, "is_reserved": 0}, {"bike_id": "5c0fac38e1edc3c43a7a8bd3d283ba42", "fusion_lon": 0.0, "type": "electric_scooter", "name": "5c0fac38e1edc3c43a7a8bd3d283ba42", "rental_uris": {"android": "https://dc.lft.to/lastmile_qr_scan", "ios": "https://dc.lft.to/lastmile_qr_scan"}, "fusion_lat": 0.0, "lat": 38.910466, "is_disabled": 0, "lon": -77.00919916666666, "is_reserved": 0}, {"bike_id": "8dad369c4981159f7dbe1a4140cdff0d", "fusion_lon": 0.0, "type": "electric_scooter", "name": "8dad369c4981159f7dbe1a4140cdff0d", "rental_uris": {"android": "https://dc.lft.to/lastmile_qr_scan", "ios": "https://dc.lft.to/lastmile_qr_scan"}, "fusion_lat": 0.0, "lat": 38.86246233333333, "is_disabled": 0, "lon": -76.99504216666666, "is_reserved": 0}, {"bike_id": "3e1c3ed8f51c80a82ce468b87629b5b5", "fusion_lon": 0.0, "type": "electric_scooter", "name": "3e1c3ed8f51c80a82ce468b87629b5b5", "rental_uris": {"android": "https://dc.lft.to/lastmile_qr_scan", "ios": "https://dc.lft.to/lastmile_qr_scan"}, "fusion_lat": 0.0, "lat": 38.88752183333333, "is_disabled": 0, "lon": -77.02153083333333, "is_reserved": 0}, {"bike_id": "267f6e3eac8b5b564a0e0ea01ef927e0", "fusion_lon": 0.0, "type": "electric_scooter", "name": "267f6e3eac8b5b564a0e0ea01ef927e0", "rental_uris": {"android": "https://dc.lft.to/lastmile_qr_scan", "ios": "https://dc.lft.to/lastmile_qr_scan"}, "fusion_lat": 0.0, "lat": 38.905714, "is_disabled": 0, "lon": -77.01673483333333, "is_reserved": 0}, {"bike_id": "2b084087bd82df967780c05f67f6b0dc", "fusion_lon": 0.0, "type": "electric_scooter", "name": "2b084087bd82df967780c05f67f6b0dc", "rental_uris": {"android": "https://dc.lft.to/lastmile_qr_scan", "ios": "https://dc.lft.to/lastmile_qr_scan"}, "fusion_lat": 0.0, "lat": 38.882200166666664, "is_disabled": 0, "lon": -77.02929016666667, "is_reserved": 0}, {"bike_id": "d08163989d8c592ec07e7a34879a19d2", "fusion_lon": 0.0, "type": "electric_bike", "name": "d08163989d8c592ec07e7a34879a19d2", "rental_uris": {"android": "https://dc.lft.to/lastmile_qr_scan", "ios": "https://dc.lft.to/lastmile_qr_scan"}, "fusion_lat": 0.0, "lat": 38.959636, "is_disabled": 0, "lon": -76.981623, "is_reserved": 0}, {"bike_id": "6fdfe5f08957956eb9cec62481c987a8", "fusion_lon": 0.0, "type": "electric_scooter", "name": "6fdfe5f08957956eb9cec62481c987a8", "rental_uris": {"android": "https://dc.lft.to/lastmile_qr_scan", "ios": "https://dc.lft.to/lastmile_qr_scan"}, "fusion_lat": 0.0, "lat": 38.94892983333333, "is_disabled": 0, "lon": -77.01872933333334, "is_reserved": 0}, {"bike_id": "4d82864abe150fb6c5e3427a3af43110", "fusion_lon": 0.0, "type": "electric_scooter", "name": "4d82864abe150fb6c5e3427a3af43110", "rental_uris": {"android": "https://dc.lft.to/lastmile_qr_scan", "ios": "https://dc.lft.to/lastmile_qr_scan"}, "fusion_lat": 0.0, "lat": 38.899735, "is_disabled": 0, "lon": -77.0556345, "is_reserved": 0}, {"bike_id": "cb742a982c2e2b323ee29e904a2ee26f", "fusion_lon": 0.0, "type": "electric_bike", "name": "cb742a982c2e2b323ee29e904a2ee26f", "rental_uris": {"android": "https://dc.lft.to/lastmile_qr_scan", "ios": "https://dc.lft.to/lastmile_qr_scan"}, "fusion_lat": 0.0, "lat": 38.944745166666664, "is_disabled": 0, "lon": -77.02290983333333, "is_reserved": 0}, {"bike_id": "081a2f0253b5cb73e1272ae680b90e0c", "fusion_lon": 0.0, "type": "electric_scooter", "name": "081a2f0253b5cb73e1272ae680b90e0c", "rental_uris": {"android": "https://dc.lft.to/lastmile_qr_scan", "ios": "https://dc.lft.to/lastmile_qr_scan"}, "fusion_lat": 0.0, "lat": 38.90411433333333, "is_disabled": 0, "lon": -77.00133266666667, "is_reserved": 0}, {"bike_id": "deb361927c9ee0fe5a83cd17eaf4180d", "fusion_lon": 0.0, "type": "electric_scooter", "name": "deb361927c9ee0fe5a83cd17eaf4180d", "rental_uris": {"android": "https://dc.lft.to/lastmile_qr_scan", "ios": "https://dc.lft.to/lastmile_qr_scan"}, "fusion_lat": 0.0, "lat": 38.904968, "is_disabled": 0, "lon": -76.98689483333334, "is_reserved": 0}, {"bike_id": "d32485875907dedeebe348f19463851d", "fusion_lon": 0.0, "type": "electric_bike", "name": "d32485875907dedeebe348f19463851d", "rental_uris": {"android": "https://dc.lft.to/lastmile_qr_scan", "ios": "https://dc.lft.to/lastmile_qr_scan"}, "fusion_lat": 0.0, "lat": 38.8918485, "is_disabled": 0, "lon": -76.95029466666666, "is_reserved": 0}, {"bike_id": "1f460f8ae4f75750fcfeb672ad5f6b32", "fusion_lon": 0.0, "type": "electric_scooter", "name": "1f460f8ae4f75750fcfeb672ad5f6b32", "rental_uris": {"android": "https://dc.lft.to/lastmile_qr_scan", "ios": "https://dc.lft.to/lastmile_qr_scan"}, "fusion_lat": 0.0, "lat": 38.902558166666665, "is_disabled": 0, "lon": -77.03435533333334, "is_reserved": 0}, {"bike_id": "e85739aec5f48375cd05a7415ddcf172", "fusion_lon": 0.0, "type": "electric_bike", "name": "e85739aec5f48375cd05a7415ddcf172", "rental_uris": {"android": "https://dc.lft.to/lastmile_qr_scan", "ios": "https://dc.lft.to/lastmile_qr_scan"}, "fusion_lat": 0.0, "lat": 38.96306333333333, "is_disabled": 0, "lon": -77.01107483333334, "is_reserved": 0}, {"bike_id": "406c8cffba7f01123c9067667817f427", "fusion_lon": 0.0, "type": "electric_scooter", "name": "406c8cffba7f01123c9067667817f427", "rental_uris": {"android": "https://dc.lft.to/lastmile_qr_scan", "ios": "https://dc.lft.to/lastmile_qr_scan"}, "fusion_lat": 0.0, "lat": 38.918098666666666, "is_disabled": 0, "lon": -77.04009716666667, "is_reserved": 0}, {"bike_id": "61262cbf9eef85cc130df7b14b544a14", "fusion_lon": 0.0, "type": "electric_scooter", "name": "61262cbf9eef85cc130df7b14b544a14", "rental_uris": {"android": "https://dc.lft.to/lastmile_qr_scan", "ios": "https://dc.lft.to/lastmile_qr_scan"}, "fusion_lat": 0.0, "lat": 38.915423, "is_disabled": 0, "lon": -77.03856833333333, "is_reserved": 0}, {"bike_id": "7e3b559f0147ca9e85bda44ffebef9e1", "fusion_lon": 0.0, "type": "electric_scooter", "name": "7e3b559f0147ca9e85bda44ffebef9e1", "rental_uris": {"android": "https://dc.lft.to/lastmile_qr_scan", "ios": "https://dc.lft.to/lastmile_qr_scan"}, "fusion_lat": 0.0, "lat": 38.89990566666667, "is_disabled": 0, "lon": -77.02892383333334, "is_reserved": 0}, {"bike_id": "25eed874bbe3b36fd6cfc6eb754f6646", "fusion_lon": 0.0, "type": "electric_scooter", "name": "25eed874bbe3b36fd6cfc6eb754f6646", "rental_uris": {"android": "https://dc.lft.to/lastmile_qr_scan", "ios": "https://dc.lft.to/lastmile_qr_scan"}, "fusion_lat": 0.0, "lat": 38.877014833333334, "is_disabled": 0, "lon": -77.01742116666667, "is_reserved": 0}, {"bike_id": "5ef56c2779f527c6288bcd66e630528d", "fusion_lon": 0.0, "type": "electric_scooter", "name": "5ef56c2779f527c6288bcd66e630528d", "rental_uris": {"android": "https://dc.lft.to/lastmile_qr_scan", "ios": "https://dc.lft.to/lastmile_qr_scan"}, "fusion_lat": 0.0, "lat": 38.90355916666667, "is_disabled": 0, "lon": -77.06769583333333, "is_reserved": 0}, {"bike_id": "8574e9cb21fef75ceea9bd4983769f56", "fusion_lon": 0.0, "type": "electric_scooter", "name": "8574e9cb21fef75ceea9bd4983769f56", "rental_uris": {"android": "https://dc.lft.to/lastmile_qr_scan", "ios": "https://dc.lft.to/lastmile_qr_scan"}, "fusion_lat": 0.0, "lat": 38.902210833333335, "is_disabled": 0, "lon": -77.04769283333333, "is_reserved": 0}, {"bike_id": "510e87122c19e17424154b2f32f057ed", "fusion_lon": 0.0, "type": "electric_scooter", "name": "510e87122c19e17424154b2f32f057ed", "rental_uris": {"android": "https://dc.lft.to/lastmile_qr_scan", "ios": "https://dc.lft.to/lastmile_qr_scan"}, "fusion_lat": 0.0, "lat": 38.912687, "is_disabled": 0, "lon": -77.0455555, "is_reserved": 0}, {"bike_id": "18598d96d353e3b9139f2552d5e78b17", "fusion_lon": 0.0, "type": "electric_scooter", "name": "18598d96d353e3b9139f2552d5e78b17", "rental_uris": {"android": "https://dc.lft.to/lastmile_qr_scan", "ios": "https://dc.lft.to/lastmile_qr_scan"}, "fusion_lat": 0.0, "lat": 38.90104266666667, "is_disabled": 0, "lon": -77.04884266666667, "is_reserved": 0}, {"bike_id": "60955742f30cc662fd7dfdbd1a10d60d", "fusion_lon": 0.0, "type": "electric_scooter", "name": "60955742f30cc662fd7dfdbd1a10d60d", "rental_uris": {"android": "https://dc.lft.to/lastmile_qr_scan", "ios": "https://dc.lft.to/lastmile_qr_scan"}, "fusion_lat": 0.0, "lat": 38.920842, "is_disabled": 0, "lon": -77.0756555, "is_reserved": 0}, {"bike_id": "403b631772ab1d4588a52b0d5a3b16aa", "fusion_lon": 0.0, "type": "electric_scooter", "name": "403b631772ab1d4588a52b0d5a3b16aa", "rental_uris": {"android": "https://dc.lft.to/lastmile_qr_scan", "ios": "https://dc.lft.to/lastmile_qr_scan"}, "fusion_lat": 0.0, "lat": 38.87925833333333, "is_disabled": 0, "lon": -76.99160716666667, "is_reserved": 0}, {"bike_id": "9982d80f36fed9379384ce07d1ba9803", "fusion_lon": 0.0, "type": "electric_bike", "name": "9982d80f36fed9379384ce07d1ba9803", "rental_uris": {"android": "https://dc.lft.to/lastmile_qr_scan", "ios": "https://dc.lft.to/lastmile_qr_scan"}, "fusion_lat": 0.0, "lat": 38.891918833333335, "is_disabled": 0, "lon": -77.12267633333333, "is_reserved": 0}, {"bike_id": "5170fb07d8370b60a1896d5ac0b49d20", "fusion_lon": 0.0, "type": "electric_scooter", "name": "5170fb07d8370b60a1896d5ac0b49d20", "rental_uris": {"android": "https://dc.lft.to/lastmile_qr_scan", "ios": "https://dc.lft.to/lastmile_qr_scan"}, "fusion_lat": 0.0, "lat": 38.95724766666667, "is_disabled": 0, "lon": -77.0357425, "is_reserved": 0}, {"bike_id": "1364fdd92956eb48ea073fe0117ec743", "fusion_lon": 0.0, "type": "electric_bike", "name": "1364fdd92956eb48ea073fe0117ec743", "rental_uris": {"android": "https://dc.lft.to/lastmile_qr_scan", "ios": "https://dc.lft.to/lastmile_qr_scan"}, "fusion_lat": 0.0, "lat": 38.828746333333335, "is_disabled": 0, "lon": -77.11223333333334, "is_reserved": 0}, {"bike_id": "9cb2d3af1bda66f117d7443617bebbaa", "fusion_lon": 0.0, "type": "electric_bike", "name": "9cb2d3af1bda66f117d7443617bebbaa", "rental_uris": {"android": "https://dc.lft.to/lastmile_qr_scan", "ios": "https://dc.lft.to/lastmile_qr_scan"}, "fusion_lat": 0.0, "lat": 38.95559316666667, "is_disabled": 0, "lon": -76.93546933333333, "is_reserved": 0}, {"bike_id": "bde4e85f944b3f6c2759234ac8f80360", "fusion_lon": 0.0, "type": "electric_scooter", "name": "bde4e85f944b3f6c2759234ac8f80360", "rental_uris": {"android": "https://dc.lft.to/lastmile_qr_scan", "ios": "https://dc.lft.to/lastmile_qr_scan"}, "fusion_lat": 0.0, "lat": 38.90232683333333, "is_disabled": 0, "lon": -77.047509, "is_reserved": 0}, {"bike_id": "875834128ecc5dd66a0d1f65800287ce", "fusion_lon": 0.0, "type": "electric_scooter", "name": "875834128ecc5dd66a0d1f65800287ce", "rental_uris": {"android": "https://dc.lft.to/lastmile_qr_scan", "ios": "https://dc.lft.to/lastmile_qr_scan"}, "fusion_lat": 0.0, "lat": 38.90559966666667, "is_disabled": 0, "lon": -77.01092433333334, "is_reserved": 0}, {"bike_id": "f8db57c4412bc116ffb96629cf74dc06", "fusion_lon": 0.0, "type": "electric_scooter", "name": "f8db57c4412bc116ffb96629cf74dc06", "rental_uris": {"android": "https://dc.lft.to/lastmile_qr_scan", "ios": "https://dc.lft.to/lastmile_qr_scan"}, "fusion_lat": 0.0, "lat": 38.892254333333334, "is_disabled": 0, "lon": -77.04866383333334, "is_reserved": 0}, {"bike_id": "40b8a0505a55dd4aa20453c46d77dd68", "fusion_lon": 0.0, "type": "electric_scooter", "name": "40b8a0505a55dd4aa20453c46d77dd68", "rental_uris": {"android": "https://dc.lft.to/lastmile_qr_scan", "ios": "https://dc.lft.to/lastmile_qr_scan"}, "fusion_lat": 0.0, "lat": 38.90293916666667, "is_disabled": 0, "lon": -77.034478, "is_reserved": 0}, {"bike_id": "355a455dc9fee043050c9261f6b10e25", "fusion_lon": 0.0, "type": "electric_bike", "name": "355a455dc9fee043050c9261f6b10e25", "rental_uris": {"android": "https://dc.lft.to/lastmile_qr_scan", "ios": "https://dc.lft.to/lastmile_qr_scan"}, "fusion_lat": 0.0, "lat": 38.8319515, "is_disabled": 0, "lon": -77.07685116666667, "is_reserved": 0}, {"bike_id": "6d1c04d15dc2e3586f0c4388c7e39b3f", "fusion_lon": 0.0, "type": "electric_scooter", "name": "6d1c04d15dc2e3586f0c4388c7e39b3f", "rental_uris": {"android": "https://dc.lft.to/lastmile_qr_scan", "ios": "https://dc.lft.to/lastmile_qr_scan"}, "fusion_lat": 0.0, "lat": 38.956127333333335, "is_disabled": 0, "lon": -77.0281615, "is_reserved": 0}, {"bike_id": "396c6f142af49606fa7db0d5d5c9ced4", "fusion_lon": 0.0, "type": "electric_bike", "name": "396c6f142af49606fa7db0d5d5c9ced4", "rental_uris": {"android": "https://dc.lft.to/lastmile_qr_scan", "ios": "https://dc.lft.to/lastmile_qr_scan"}, "fusion_lat": 0.0, "lat": 38.94430583333333, "is_disabled": 0, "lon": -76.98741066666666, "is_reserved": 0}, {"bike_id": "d6fabeaf9111988cf633c5cae5ee6d4e", "fusion_lon": 0.0, "type": "electric_scooter", "name": "d6fabeaf9111988cf633c5cae5ee6d4e", "rental_uris": {"android": "https://dc.lft.to/lastmile_qr_scan", "ios": "https://dc.lft.to/lastmile_qr_scan"}, "fusion_lat": 0.0, "lat": 38.92417916666667, "is_disabled": 0, "lon": -77.05637833333333, "is_reserved": 0}, {"bike_id": "ce8e7026fedad58ca1893caa33c8868e", "fusion_lon": 0.0, "type": "electric_bike", "name": "ce8e7026fedad58ca1893caa33c8868e", "rental_uris": {"android": "https://dc.lft.to/lastmile_qr_scan", "ios": "https://dc.lft.to/lastmile_qr_scan"}, "fusion_lat": 0.0, "lat": 38.94214316666667, "is_disabled": 0, "lon": -76.96614466666666, "is_reserved": 0}, {"bike_id": "89c11092b2f629121c112b82567b1e2e", "fusion_lon": 0.0, "type": "electric_scooter", "name": "89c11092b2f629121c112b82567b1e2e", "rental_uris": {"android": "https://dc.lft.to/lastmile_qr_scan", "ios": "https://dc.lft.to/lastmile_qr_scan"}, "fusion_lat": 0.0, "lat": 38.938610833333335, "is_disabled": 0, "lon": -77.0265285, "is_reserved": 0}, {"bike_id": "33b3779beb8dc219763760819405c589", "fusion_lon": 0.0, "type": "electric_scooter", "name": "33b3779beb8dc219763760819405c589", "rental_uris": {"android": "https://dc.lft.to/lastmile_qr_scan", "ios": "https://dc.lft.to/lastmile_qr_scan"}, "fusion_lat": 0.0, "lat": 38.926737833333334, "is_disabled": 0, "lon": -77.07840583333333, "is_reserved": 0}, {"bike_id": "f5f8a71ab7df229ba2951fa21324b8b0", "fusion_lon": 0.0, "type": "electric_scooter", "name": "f5f8a71ab7df229ba2951fa21324b8b0", "rental_uris": {"android": "https://dc.lft.to/lastmile_qr_scan", "ios": "https://dc.lft.to/lastmile_qr_scan"}, "fusion_lat": 0.0, "lat": 38.88733166666667, "is_disabled": 0, "lon": -77.0227365, "is_reserved": 0}, {"bike_id": "a497419e5de1be8cccb88704f6afb23b", "fusion_lon": 0.0, "type": "electric_scooter", "name": "a497419e5de1be8cccb88704f6afb23b", "rental_uris": {"android": "https://dc.lft.to/lastmile_qr_scan", "ios": "https://dc.lft.to/lastmile_qr_scan"}, "fusion_lat": 0.0, "lat": 38.90075366666667, "is_disabled": 0, "lon": -77.0021025, "is_reserved": 0}, {"bike_id": "ccebb768172d54de4055e9f68b76b091", "fusion_lon": 0.0, "type": "electric_scooter", "name": "ccebb768172d54de4055e9f68b76b091", "rental_uris": {"android": "https://dc.lft.to/lastmile_qr_scan", "ios": "https://dc.lft.to/lastmile_qr_scan"}, "fusion_lat": 0.0, "lat": 38.886453833333334, "is_disabled": 0, "lon": -77.02160266666667, "is_reserved": 0}, {"bike_id": "30dcc54a305607ce5270f57ae90d0397", "fusion_lon": 0.0, "type": "electric_scooter", "name": "30dcc54a305607ce5270f57ae90d0397", "rental_uris": {"android": "https://dc.lft.to/lastmile_qr_scan", "ios": "https://dc.lft.to/lastmile_qr_scan"}, "fusion_lat": 0.0, "lat": 38.914187, "is_disabled": 0, "lon": -77.04157183333334, "is_reserved": 0}, {"bike_id": "12bb08b2f9764954c04ef18e63a3446b", "fusion_lon": 0.0, "type": "electric_scooter", "name": "12bb08b2f9764954c04ef18e63a3446b", "rental_uris": {"android": "https://dc.lft.to/lastmile_qr_scan", "ios": "https://dc.lft.to/lastmile_qr_scan"}, "fusion_lat": 0.0, "lat": 38.90013833333333, "is_disabled": 0, "lon": -76.98700266666667, "is_reserved": 0}, {"bike_id": "f700b1172823be4987df1757031487fe", "fusion_lon": 0.0, "type": "electric_scooter", "name": "f700b1172823be4987df1757031487fe", "rental_uris": {"android": "https://dc.lft.to/lastmile_qr_scan", "ios": "https://dc.lft.to/lastmile_qr_scan"}, "fusion_lat": 0.0, "lat": 38.915405, "is_disabled": 0, "lon": -77.04630766666666, "is_reserved": 0}, {"bike_id": "bc886f55cde57b08a8aa431e825228b9", "fusion_lon": 0.0, "type": "electric_scooter", "name": "bc886f55cde57b08a8aa431e825228b9", "rental_uris": {"android": "https://dc.lft.to/lastmile_qr_scan", "ios": "https://dc.lft.to/lastmile_qr_scan"}, "fusion_lat": 0.0, "lat": 38.887383666666665, "is_disabled": 0, "lon": -77.01612666666666, "is_reserved": 0}, {"bike_id": "16f22b6a06a6be7f5b5faf586a2a04af", "fusion_lon": 0.0, "type": "electric_scooter", "name": "16f22b6a06a6be7f5b5faf586a2a04af", "rental_uris": {"android": "https://dc.lft.to/lastmile_qr_scan", "ios": "https://dc.lft.to/lastmile_qr_scan"}, "fusion_lat": 0.0, "lat": 38.9223545, "is_disabled": 0, "lon": -77.09964, "is_reserved": 0}, {"bike_id": "dc34f634dd69f9428e880d00dad4528a", "fusion_lon": 0.0, "type": "electric_scooter", "name": "dc34f634dd69f9428e880d00dad4528a", "rental_uris": {"android": "https://dc.lft.to/lastmile_qr_scan", "ios": "https://dc.lft.to/lastmile_qr_scan"}, "fusion_lat": 0.0, "lat": 38.903635, "is_disabled": 0, "lon": -77.06768516666666, "is_reserved": 0}, {"bike_id": "47d18259214e1e6b6d22f87ae66a9fdc", "fusion_lon": 0.0, "type": "electric_scooter", "name": "47d18259214e1e6b6d22f87ae66a9fdc", "rental_uris": {"android": "https://dc.lft.to/lastmile_qr_scan", "ios": "https://dc.lft.to/lastmile_qr_scan"}, "fusion_lat": 0.0, "lat": 38.91258116666667, "is_disabled": 0, "lon": -77.03126433333334, "is_reserved": 0}, {"bike_id": "8488fe539fc0c5b2fdbefa5d98984f28", "fusion_lon": 0.0, "type": "electric_scooter", "name": "8488fe539fc0c5b2fdbefa5d98984f28", "rental_uris": {"android": "https://dc.lft.to/lastmile_qr_scan", "ios": "https://dc.lft.to/lastmile_qr_scan"}, "fusion_lat": 0.0, "lat": 38.928605, "is_disabled": 0, "lon": -77.01402166666666, "is_reserved": 0}, {"bike_id": "259f522941c49ad68d704a44d49179d6", "fusion_lon": 0.0, "type": "electric_scooter", "name": "259f522941c49ad68d704a44d49179d6", "rental_uris": {"android": "https://dc.lft.to/lastmile_qr_scan", "ios": "https://dc.lft.to/lastmile_qr_scan"}, "fusion_lat": 0.0, "lat": 38.864068333333336, "is_disabled": 0, "lon": -76.99026733333334, "is_reserved": 0}, {"bike_id": "e051bfbd6f01790a3a31b42d630a56ff", "fusion_lon": 0.0, "type": "electric_scooter", "name": "e051bfbd6f01790a3a31b42d630a56ff", "rental_uris": {"android": "https://dc.lft.to/lastmile_qr_scan", "ios": "https://dc.lft.to/lastmile_qr_scan"}, "fusion_lat": 0.0, "lat": 38.908197666666666, "is_disabled": 0, "lon": -77.00600633333333, "is_reserved": 0}, {"bike_id": "c00e25468d109774c61e3e8ad8e0e16a", "fusion_lon": 0.0, "type": "electric_scooter", "name": "c00e25468d109774c61e3e8ad8e0e16a", "rental_uris": {"android": "https://dc.lft.to/lastmile_qr_scan", "ios": "https://dc.lft.to/lastmile_qr_scan"}, "fusion_lat": 0.0, "lat": 38.943720166666665, "is_disabled": 0, "lon": -77.06107533333333, "is_reserved": 0}, {"bike_id": "6a8794fbe87627fae0f05067176a7101", "fusion_lon": 0.0, "type": "electric_scooter", "name": "6a8794fbe87627fae0f05067176a7101", "rental_uris": {"android": "https://dc.lft.to/lastmile_qr_scan", "ios": "https://dc.lft.to/lastmile_qr_scan"}, "fusion_lat": 0.0, "lat": 38.895511166666665, "is_disabled": 0, "lon": -76.9916145, "is_reserved": 0}, {"bike_id": "529c79ceaf526c232fd6e037941aa1c8", "fusion_lon": 0.0, "type": "electric_scooter", "name": "529c79ceaf526c232fd6e037941aa1c8", "rental_uris": {"android": "https://dc.lft.to/lastmile_qr_scan", "ios": "https://dc.lft.to/lastmile_qr_scan"}, "fusion_lat": 0.0, "lat": 38.922329, "is_disabled": 0, "lon": -77.04609316666667, "is_reserved": 0}, {"bike_id": "91cca6b5123e9216d7a62af7d2cd857c", "fusion_lon": 0.0, "type": "electric_scooter", "name": "91cca6b5123e9216d7a62af7d2cd857c", "rental_uris": {"android": "https://dc.lft.to/lastmile_qr_scan", "ios": "https://dc.lft.to/lastmile_qr_scan"}, "fusion_lat": 0.0, "lat": 38.924565666666666, "is_disabled": 0, "lon": -77.02022183333334, "is_reserved": 0}, {"bike_id": "68d64569547b614e5bfbab57682599fd", "fusion_lon": 0.0, "type": "electric_scooter", "name": "68d64569547b614e5bfbab57682599fd", "rental_uris": {"android": "https://dc.lft.to/lastmile_qr_scan", "ios": "https://dc.lft.to/lastmile_qr_scan"}, "fusion_lat": 0.0, "lat": 38.904238666666664, "is_disabled": 0, "lon": -77.0498965, "is_reserved": 0}, {"bike_id": "2b6cb504bd9134ee0982d88a4a96482e", "fusion_lon": 0.0, "type": "electric_scooter", "name": "2b6cb504bd9134ee0982d88a4a96482e", "rental_uris": {"android": "https://dc.lft.to/lastmile_qr_scan", "ios": "https://dc.lft.to/lastmile_qr_scan"}, "fusion_lat": 0.0, "lat": 38.89366233333333, "is_disabled": 0, "lon": -76.94969333333333, "is_reserved": 0}, {"bike_id": "0af523c34ccad34bb03836841874063a", "fusion_lon": 0.0, "type": "electric_scooter", "name": "0af523c34ccad34bb03836841874063a", "rental_uris": {"android": "https://dc.lft.to/lastmile_qr_scan", "ios": "https://dc.lft.to/lastmile_qr_scan"}, "fusion_lat": 0.0, "lat": 38.8817945, "is_disabled": 0, "lon": -77.028126, "is_reserved": 0}, {"bike_id": "01485b8744c75bc6f0499a3a4dc1e26c", "fusion_lon": 0.0, "type": "electric_scooter", "name": "01485b8744c75bc6f0499a3a4dc1e26c", "rental_uris": {"android": "https://dc.lft.to/lastmile_qr_scan", "ios": "https://dc.lft.to/lastmile_qr_scan"}, "fusion_lat": 0.0, "lat": 38.93425966666667, "is_disabled": 0, "lon": -77.05851333333334, "is_reserved": 0}, {"bike_id": "5e52abb4bf02d388ee3e4ca79f6d69d8", "fusion_lon": 0.0, "type": "electric_scooter", "name": "5e52abb4bf02d388ee3e4ca79f6d69d8", "rental_uris": {"android": "https://dc.lft.to/lastmile_qr_scan", "ios": "https://dc.lft.to/lastmile_qr_scan"}, "fusion_lat": 0.0, "lat": 38.8840395, "is_disabled": 0, "lon": -77.03057233333334, "is_reserved": 0}, {"bike_id": "f1bf004ae9d30f0c6169d15723547cdf", "fusion_lon": 0.0, "type": "electric_scooter", "name": "f1bf004ae9d30f0c6169d15723547cdf", "rental_uris": {"android": "https://dc.lft.to/lastmile_qr_scan", "ios": "https://dc.lft.to/lastmile_qr_scan"}, "fusion_lat": 0.0, "lat": 38.914905833333336, "is_disabled": 0, "lon": -77.04332833333333, "is_reserved": 0}, {"bike_id": "a4aaf2c4e097d79a7c90b54a7f57539e", "fusion_lon": 0.0, "type": "electric_bike", "name": "a4aaf2c4e097d79a7c90b54a7f57539e", "rental_uris": {"android": "https://dc.lft.to/lastmile_qr_scan", "ios": "https://dc.lft.to/lastmile_qr_scan"}, "fusion_lat": 0.0, "lat": 38.919687833333334, "is_disabled": 0, "lon": -76.99943916666666, "is_reserved": 0}, {"bike_id": "7e0652d939e0ae5f19a0e19974034162", "fusion_lon": 0.0, "type": "electric_scooter", "name": "7e0652d939e0ae5f19a0e19974034162", "rental_uris": {"android": "https://dc.lft.to/lastmile_qr_scan", "ios": "https://dc.lft.to/lastmile_qr_scan"}, "fusion_lat": 0.0, "lat": 38.88867483333333, "is_disabled": 0, "lon": -76.99600066666666, "is_reserved": 0}, {"bike_id": "9435979df2843a054bc61384422ed8d3", "fusion_lon": 0.0, "type": "electric_scooter", "name": "9435979df2843a054bc61384422ed8d3", "rental_uris": {"android": "https://dc.lft.to/lastmile_qr_scan", "ios": "https://dc.lft.to/lastmile_qr_scan"}, "fusion_lat": 0.0, "lat": 38.859676, "is_disabled": 0, "lon": -76.98409166666667, "is_reserved": 0}, {"bike_id": "f3b6d8d822ab83fdc3e0cc54ca0cb506", "fusion_lon": 0.0, "type": "electric_scooter", "name": "f3b6d8d822ab83fdc3e0cc54ca0cb506", "rental_uris": {"android": "https://dc.lft.to/lastmile_qr_scan", "ios": "https://dc.lft.to/lastmile_qr_scan"}, "fusion_lat": 0.0, "lat": 38.92824983333333, "is_disabled": 0, "lon": -77.02162433333334, "is_reserved": 0}, {"bike_id": "7eaed832869dfa5e883596cf74449479", "fusion_lon": 0.0, "type": "electric_scooter", "name": "7eaed832869dfa5e883596cf74449479", "rental_uris": {"android": "https://dc.lft.to/lastmile_qr_scan", "ios": "https://dc.lft.to/lastmile_qr_scan"}, "fusion_lat": 0.0, "lat": 38.9078005, "is_disabled": 0, "lon": -77.045137, "is_reserved": 0}, {"bike_id": "2317241e2b552470d41893482083ec5a", "fusion_lon": 0.0, "type": "electric_bike", "name": "2317241e2b552470d41893482083ec5a", "rental_uris": {"android": "https://dc.lft.to/lastmile_qr_scan", "ios": "https://dc.lft.to/lastmile_qr_scan"}, "fusion_lat": 0.0, "lat": 38.92848866666667, "is_disabled": 0, "lon": -77.10509166666667, "is_reserved": 0}, {"bike_id": "8b8f0f5ded1089e38449f4b7ae8a243b", "fusion_lon": 0.0, "type": "electric_scooter", "name": "8b8f0f5ded1089e38449f4b7ae8a243b", "rental_uris": {"android": "https://dc.lft.to/lastmile_qr_scan", "ios": "https://dc.lft.to/lastmile_qr_scan"}, "fusion_lat": 0.0, "lat": 38.9429085, "is_disabled": 0, "lon": -77.02760883333333, "is_reserved": 0}, {"bike_id": "ad199bb530e1c9aa8dc08bf3a07a2d93", "fusion_lon": 0.0, "type": "electric_scooter", "name": "ad199bb530e1c9aa8dc08bf3a07a2d93", "rental_uris": {"android": "https://dc.lft.to/lastmile_qr_scan", "ios": "https://dc.lft.to/lastmile_qr_scan"}, "fusion_lat": 0.0, "lat": 38.89922333333333, "is_disabled": 0, "lon": -77.05525033333333, "is_reserved": 0}, {"bike_id": "fb77129fc0f7b440aa5accb47b4a504d", "fusion_lon": 0.0, "type": "electric_bike", "name": "fb77129fc0f7b440aa5accb47b4a504d", "rental_uris": {"android": "https://dc.lft.to/lastmile_qr_scan", "ios": "https://dc.lft.to/lastmile_qr_scan"}, "fusion_lat": 0.0, "lat": 38.84912533333333, "is_disabled": 0, "lon": -77.10115583333334, "is_reserved": 0}, {"bike_id": "ab7938017e0641b23657b4e404e44ea2", "fusion_lon": 0.0, "type": "electric_scooter", "name": "ab7938017e0641b23657b4e404e44ea2", "rental_uris": {"android": "https://dc.lft.to/lastmile_qr_scan", "ios": "https://dc.lft.to/lastmile_qr_scan"}, "fusion_lat": 0.0, "lat": 38.917836666666666, "is_disabled": 0, "lon": -77.04244733333333, "is_reserved": 0}, {"bike_id": "0af127e8fb7bb6977ac9b438510b7340", "fusion_lon": 0.0, "type": "electric_scooter", "name": "0af127e8fb7bb6977ac9b438510b7340", "rental_uris": {"android": "https://dc.lft.to/lastmile_qr_scan", "ios": "https://dc.lft.to/lastmile_qr_scan"}, "fusion_lat": 0.0, "lat": 38.8802275, "is_disabled": 0, "lon": -76.98068316666667, "is_reserved": 0}, {"bike_id": "75d254404479ae3247ec4086e7829a7f", "fusion_lon": 0.0, "type": "electric_scooter", "name": "75d254404479ae3247ec4086e7829a7f", "rental_uris": {"android": "https://dc.lft.to/lastmile_qr_scan", "ios": "https://dc.lft.to/lastmile_qr_scan"}, "fusion_lat": 0.0, "lat": 38.9024655, "is_disabled": 0, "lon": -77.06125333333334, "is_reserved": 0}, {"bike_id": "b3399060d94cbc5eede73f0a55de4b36", "fusion_lon": 0.0, "type": "electric_scooter", "name": "b3399060d94cbc5eede73f0a55de4b36", "rental_uris": {"android": "https://dc.lft.to/lastmile_qr_scan", "ios": "https://dc.lft.to/lastmile_qr_scan"}, "fusion_lat": 0.0, "lat": 38.887711833333334, "is_disabled": 0, "lon": -76.92716133333333, "is_reserved": 0}, {"bike_id": "17c7dc6125a0e20fa2362f085cb9c9d7", "fusion_lon": 0.0, "type": "electric_scooter", "name": "17c7dc6125a0e20fa2362f085cb9c9d7", "rental_uris": {"android": "https://dc.lft.to/lastmile_qr_scan", "ios": "https://dc.lft.to/lastmile_qr_scan"}, "fusion_lat": 0.0, "lat": 38.928693333333335, "is_disabled": 0, "lon": -77.05437366666666, "is_reserved": 0}, {"bike_id": "80dc4785f976068b03fd1c9021090c56", "fusion_lon": 0.0, "type": "electric_scooter", "name": "80dc4785f976068b03fd1c9021090c56", "rental_uris": {"android": "https://dc.lft.to/lastmile_qr_scan", "ios": "https://dc.lft.to/lastmile_qr_scan"}, "fusion_lat": 0.0, "lat": 38.93702666666667, "is_disabled": 0, "lon": -77.05599733333334, "is_reserved": 0}, {"bike_id": "72d9b1a6a544899f4316325a82a60b10", "fusion_lon": 0.0, "type": "electric_scooter", "name": "72d9b1a6a544899f4316325a82a60b10", "rental_uris": {"android": "https://dc.lft.to/lastmile_qr_scan", "ios": "https://dc.lft.to/lastmile_qr_scan"}, "fusion_lat": 0.0, "lat": 38.9209925, "is_disabled": 0, "lon": -77.02590133333334, "is_reserved": 0}, {"bike_id": "7b7355ac64b7f1152514b9a022ea6356", "fusion_lon": 0.0, "type": "electric_bike", "name": "7b7355ac64b7f1152514b9a022ea6356", "rental_uris": {"android": "https://dc.lft.to/lastmile_qr_scan", "ios": "https://dc.lft.to/lastmile_qr_scan"}, "fusion_lat": 0.0, "lat": 38.89327866666667, "is_disabled": 0, "lon": -77.12412566666667, "is_reserved": 0}, {"bike_id": "397e193a44d5108e6d4487cbd1ff5a6d", "fusion_lon": 0.0, "type": "electric_scooter", "name": "397e193a44d5108e6d4487cbd1ff5a6d", "rental_uris": {"android": "https://dc.lft.to/lastmile_qr_scan", "ios": "https://dc.lft.to/lastmile_qr_scan"}, "fusion_lat": 0.0, "lat": 38.892239333333336, "is_disabled": 0, "lon": -77.03971433333334, "is_reserved": 0}, {"bike_id": "40f91b0047b02c252a85d8d9fab1c5a5", "fusion_lon": 0.0, "type": "electric_scooter", "name": "40f91b0047b02c252a85d8d9fab1c5a5", "rental_uris": {"android": "https://dc.lft.to/lastmile_qr_scan", "ios": "https://dc.lft.to/lastmile_qr_scan"}, "fusion_lat": 0.0, "lat": 38.91841566666667, "is_disabled": 0, "lon": -76.96556016666666, "is_reserved": 0}, {"bike_id": "147a159c510d8348d049d12be079ffd9", "fusion_lon": 0.0, "type": "electric_scooter", "name": "147a159c510d8348d049d12be079ffd9", "rental_uris": {"android": "https://dc.lft.to/lastmile_qr_scan", "ios": "https://dc.lft.to/lastmile_qr_scan"}, "fusion_lat": 0.0, "lat": 38.921612333333336, "is_disabled": 0, "lon": -77.033815, "is_reserved": 0}, {"bike_id": "cc40fa7e2a8b161f0e5018799eda0d36", "fusion_lon": 0.0, "type": "electric_scooter", "name": "cc40fa7e2a8b161f0e5018799eda0d36", "rental_uris": {"android": "https://dc.lft.to/lastmile_qr_scan", "ios": "https://dc.lft.to/lastmile_qr_scan"}, "fusion_lat": 0.0, "lat": 38.9044465, "is_disabled": 0, "lon": -77.03471783333333, "is_reserved": 0}, {"bike_id": "de3983e06e7baa0a83ddaf0516740bed", "fusion_lon": 0.0, "type": "electric_scooter", "name": "de3983e06e7baa0a83ddaf0516740bed", "rental_uris": {"android": "https://dc.lft.to/lastmile_qr_scan", "ios": "https://dc.lft.to/lastmile_qr_scan"}, "fusion_lat": 0.0, "lat": 38.89248766666667, "is_disabled": 0, "lon": -77.02840733333333, "is_reserved": 0}, {"bike_id": "4e43377206b7902f7a1a31b7c70b061c", "fusion_lon": 0.0, "type": "electric_scooter", "name": "4e43377206b7902f7a1a31b7c70b061c", "rental_uris": {"android": "https://dc.lft.to/lastmile_qr_scan", "ios": "https://dc.lft.to/lastmile_qr_scan"}, "fusion_lat": 0.0, "lat": 38.902542, "is_disabled": 0, "lon": -77.02652616666667, "is_reserved": 0}, {"bike_id": "d2b9b28f75ed708f07cd91c7f7f42637", "fusion_lon": 0.0, "type": "electric_scooter", "name": "d2b9b28f75ed708f07cd91c7f7f42637", "rental_uris": {"android": "https://dc.lft.to/lastmile_qr_scan", "ios": "https://dc.lft.to/lastmile_qr_scan"}, "fusion_lat": 0.0, "lat": 38.909728, "is_disabled": 0, "lon": -77.0217175, "is_reserved": 0}, {"bike_id": "092c9034526194f9917ea76765d0cf43", "fusion_lon": 0.0, "type": "electric_bike", "name": "092c9034526194f9917ea76765d0cf43", "rental_uris": {"android": "https://dc.lft.to/lastmile_qr_scan", "ios": "https://dc.lft.to/lastmile_qr_scan"}, "fusion_lat": 0.0, "lat": 38.97379033333333, "is_disabled": 0, "lon": -77.0647735, "is_reserved": 0}, {"bike_id": "535e3beea6c1f7b44dcb270982540304", "fusion_lon": 0.0, "type": "electric_scooter", "name": "535e3beea6c1f7b44dcb270982540304", "rental_uris": {"android": "https://dc.lft.to/lastmile_qr_scan", "ios": "https://dc.lft.to/lastmile_qr_scan"}, "fusion_lat": 0.0, "lat": 38.9087255, "is_disabled": 0, "lon": -77.04332666666667, "is_reserved": 0}, {"bike_id": "dc5570a6a710756a6ad6335803f364ee", "fusion_lon": 0.0, "type": "electric_scooter", "name": "dc5570a6a710756a6ad6335803f364ee", "rental_uris": {"android": "https://dc.lft.to/lastmile_qr_scan", "ios": "https://dc.lft.to/lastmile_qr_scan"}, "fusion_lat": 0.0, "lat": 38.929872, "is_disabled": 0, "lon": -77.010533, "is_reserved": 0}, {"bike_id": "c5318ee5b337819fd2130dd941efd410", "fusion_lon": 0.0, "type": "electric_scooter", "name": "c5318ee5b337819fd2130dd941efd410", "rental_uris": {"android": "https://dc.lft.to/lastmile_qr_scan", "ios": "https://dc.lft.to/lastmile_qr_scan"}, "fusion_lat": 0.0, "lat": 38.879221333333334, "is_disabled": 0, "lon": -76.99172283333333, "is_reserved": 0}, {"bike_id": "c2db581af51f74c940aa8ac5f411fcdb", "fusion_lon": 0.0, "type": "electric_scooter", "name": "c2db581af51f74c940aa8ac5f411fcdb", "rental_uris": {"android": "https://dc.lft.to/lastmile_qr_scan", "ios": "https://dc.lft.to/lastmile_qr_scan"}, "fusion_lat": 0.0, "lat": 38.92800183333333, "is_disabled": 0, "lon": -77.0336955, "is_reserved": 0}, {"bike_id": "ce64d173bd2366dc623901570c358cb9", "fusion_lon": 0.0, "type": "electric_scooter", "name": "ce64d173bd2366dc623901570c358cb9", "rental_uris": {"android": "https://dc.lft.to/lastmile_qr_scan", "ios": "https://dc.lft.to/lastmile_qr_scan"}, "fusion_lat": 0.0, "lat": 38.934759, "is_disabled": 0, "lon": -77.03582816666666, "is_reserved": 0}, {"bike_id": "9334b907bfdf4c2ca90c923a84c274ee", "fusion_lon": 0.0, "type": "electric_scooter", "name": "9334b907bfdf4c2ca90c923a84c274ee", "rental_uris": {"android": "https://dc.lft.to/lastmile_qr_scan", "ios": "https://dc.lft.to/lastmile_qr_scan"}, "fusion_lat": 0.0, "lat": 38.91739583333333, "is_disabled": 0, "lon": -77.02116966666667, "is_reserved": 0}, {"bike_id": "dfaad3f2ae6d50e5ce581a2f9e614cd3", "fusion_lon": 0.0, "type": "electric_scooter", "name": "dfaad3f2ae6d50e5ce581a2f9e614cd3", "rental_uris": {"android": "https://dc.lft.to/lastmile_qr_scan", "ios": "https://dc.lft.to/lastmile_qr_scan"}, "fusion_lat": 0.0, "lat": 38.94097766666667, "is_disabled": 0, "lon": -77.025434, "is_reserved": 0}, {"bike_id": "0af36b6105ce023ad7cb86c74ba3bb9d", "fusion_lon": 0.0, "type": "electric_scooter", "name": "0af36b6105ce023ad7cb86c74ba3bb9d", "rental_uris": {"android": "https://dc.lft.to/lastmile_qr_scan", "ios": "https://dc.lft.to/lastmile_qr_scan"}, "fusion_lat": 0.0, "lat": 38.9220995, "is_disabled": 0, "lon": -77.03296016666667, "is_reserved": 0}, {"bike_id": "17ffb3daa920536cbb92cea60ee69e62", "fusion_lon": 0.0, "type": "electric_scooter", "name": "17ffb3daa920536cbb92cea60ee69e62", "rental_uris": {"android": "https://dc.lft.to/lastmile_qr_scan", "ios": "https://dc.lft.to/lastmile_qr_scan"}, "fusion_lat": 0.0, "lat": 38.90969966666667, "is_disabled": 0, "lon": -77.022776, "is_reserved": 0}, {"bike_id": "fc52bd650758199dce59fa0758c585a2", "fusion_lon": 0.0, "type": "electric_scooter", "name": "fc52bd650758199dce59fa0758c585a2", "rental_uris": {"android": "https://dc.lft.to/lastmile_qr_scan", "ios": "https://dc.lft.to/lastmile_qr_scan"}, "fusion_lat": 0.0, "lat": 38.90017183333333, "is_disabled": 0, "lon": -76.9846, "is_reserved": 0}, {"bike_id": "4fe4bd7f82ac0b04a663a023068f5204", "fusion_lon": 0.0, "type": "electric_scooter", "name": "4fe4bd7f82ac0b04a663a023068f5204", "rental_uris": {"android": "https://dc.lft.to/lastmile_qr_scan", "ios": "https://dc.lft.to/lastmile_qr_scan"}, "fusion_lat": 0.0, "lat": 38.90568833333333, "is_disabled": 0, "lon": -77.03792666666666, "is_reserved": 0}, {"bike_id": "31dc8cd292ce2408b209a43f90087713", "fusion_lon": 0.0, "type": "electric_bike", "name": "31dc8cd292ce2408b209a43f90087713", "rental_uris": {"android": "https://dc.lft.to/lastmile_qr_scan", "ios": "https://dc.lft.to/lastmile_qr_scan"}, "fusion_lat": 0.0, "lat": 38.87754866666667, "is_disabled": 0, "lon": -76.97989833333334, "is_reserved": 0}, {"bike_id": "1b0f2cb6423125606cec8b568fd84b2e", "fusion_lon": 0.0, "type": "electric_scooter", "name": "1b0f2cb6423125606cec8b568fd84b2e", "rental_uris": {"android": "https://dc.lft.to/lastmile_qr_scan", "ios": "https://dc.lft.to/lastmile_qr_scan"}, "fusion_lat": 0.0, "lat": 38.907461833333336, "is_disabled": 0, "lon": -77.00505583333333, "is_reserved": 0}, {"bike_id": "1f20a8c194d7328dafcf2e14dd3c27e2", "fusion_lon": 0.0, "type": "electric_bike", "name": "1f20a8c194d7328dafcf2e14dd3c27e2", "rental_uris": {"android": "https://dc.lft.to/lastmile_qr_scan", "ios": "https://dc.lft.to/lastmile_qr_scan"}, "fusion_lat": 0.0, "lat": 38.903801333333334, "is_disabled": 0, "lon": -77.05147016666666, "is_reserved": 0}, {"bike_id": "75cc3b7ba0509377d86da5c34bca2f4b", "fusion_lon": 0.0, "type": "electric_scooter", "name": "75cc3b7ba0509377d86da5c34bca2f4b", "rental_uris": {"android": "https://dc.lft.to/lastmile_qr_scan", "ios": "https://dc.lft.to/lastmile_qr_scan"}, "fusion_lat": 0.0, "lat": 38.9343475, "is_disabled": 0, "lon": -77.03452766666666, "is_reserved": 0}, {"bike_id": "b3789c506715d4d0f031b31a1c2da242", "fusion_lon": 0.0, "type": "electric_scooter", "name": "b3789c506715d4d0f031b31a1c2da242", "rental_uris": {"android": "https://dc.lft.to/lastmile_qr_scan", "ios": "https://dc.lft.to/lastmile_qr_scan"}, "fusion_lat": 0.0, "lat": 38.90789316666667, "is_disabled": 0, "lon": -77.03196266666667, "is_reserved": 0}, {"bike_id": "15dab69a530e0dce0b0527b164f7be31", "fusion_lon": 0.0, "type": "electric_scooter", "name": "15dab69a530e0dce0b0527b164f7be31", "rental_uris": {"android": "https://dc.lft.to/lastmile_qr_scan", "ios": "https://dc.lft.to/lastmile_qr_scan"}, "fusion_lat": 0.0, "lat": 38.917673, "is_disabled": 0, "lon": -77.02717483333333, "is_reserved": 0}, {"bike_id": "89a84a6238b3e8e20ad8677038978618", "fusion_lon": 0.0, "type": "electric_scooter", "name": "89a84a6238b3e8e20ad8677038978618", "rental_uris": {"android": "https://dc.lft.to/lastmile_qr_scan", "ios": "https://dc.lft.to/lastmile_qr_scan"}, "fusion_lat": 0.0, "lat": 38.90620116666667, "is_disabled": 0, "lon": -77.038515, "is_reserved": 0}, {"bike_id": "e465883114f99c58bd950ddfb822ddd9", "fusion_lon": 0.0, "type": "electric_scooter", "name": "e465883114f99c58bd950ddfb822ddd9", "rental_uris": {"android": "https://dc.lft.to/lastmile_qr_scan", "ios": "https://dc.lft.to/lastmile_qr_scan"}, "fusion_lat": 0.0, "lat": 38.90565333333333, "is_disabled": 0, "lon": -77.02492866666667, "is_reserved": 0}, {"bike_id": "44afbd3989fa22764c85b89f0c74a04e", "fusion_lon": 0.0, "type": "electric_scooter", "name": "44afbd3989fa22764c85b89f0c74a04e", "rental_uris": {"android": "https://dc.lft.to/lastmile_qr_scan", "ios": "https://dc.lft.to/lastmile_qr_scan"}, "fusion_lat": 0.0, "lat": 38.930603166666664, "is_disabled": 0, "lon": -77.04182933333334, "is_reserved": 0}, {"bike_id": "12d1d50c9ed1e148cb0756e1a60f886f", "fusion_lon": 0.0, "type": "electric_scooter", "name": "12d1d50c9ed1e148cb0756e1a60f886f", "rental_uris": {"android": "https://dc.lft.to/lastmile_qr_scan", "ios": "https://dc.lft.to/lastmile_qr_scan"}, "fusion_lat": 0.0, "lat": 38.887495333333334, "is_disabled": 0, "lon": -77.01872316666666, "is_reserved": 0}, {"bike_id": "926b5d643898a479d332947f44a5e894", "fusion_lon": 0.0, "type": "electric_scooter", "name": "926b5d643898a479d332947f44a5e894", "rental_uris": {"android": "https://dc.lft.to/lastmile_qr_scan", "ios": "https://dc.lft.to/lastmile_qr_scan"}, "fusion_lat": 0.0, "lat": 38.907345666666664, "is_disabled": 0, "lon": -77.0218825, "is_reserved": 0}, {"bike_id": "d831cae1318a6f036490ffdf104f9e27", "fusion_lon": 0.0, "type": "electric_scooter", "name": "d831cae1318a6f036490ffdf104f9e27", "rental_uris": {"android": "https://dc.lft.to/lastmile_qr_scan", "ios": "https://dc.lft.to/lastmile_qr_scan"}, "fusion_lat": 0.0, "lat": 38.909618, "is_disabled": 0, "lon": -77.0238025, "is_reserved": 0}, {"bike_id": "fb9c6cf1398ca6c812f43a05bdac0a5b", "fusion_lon": 0.0, "type": "electric_bike", "name": "fb9c6cf1398ca6c812f43a05bdac0a5b", "rental_uris": {"android": "https://dc.lft.to/lastmile_qr_scan", "ios": "https://dc.lft.to/lastmile_qr_scan"}, "fusion_lat": 0.0, "lat": 38.854292666666666, "is_disabled": 0, "lon": -76.909635, "is_reserved": 0}, {"bike_id": "befbcfa3ca2e2bf371ad075a6ae321a0", "fusion_lon": 0.0, "type": "electric_scooter", "name": "befbcfa3ca2e2bf371ad075a6ae321a0", "rental_uris": {"android": "https://dc.lft.to/lastmile_qr_scan", "ios": "https://dc.lft.to/lastmile_qr_scan"}, "fusion_lat": 0.0, "lat": 38.931111, "is_disabled": 0, "lon": -77.024001, "is_reserved": 0}, {"bike_id": "4658eab29f4a98b6f95ace5bd1580f11", "fusion_lon": 0.0, "type": "electric_scooter", "name": "4658eab29f4a98b6f95ace5bd1580f11", "rental_uris": {"android": "https://dc.lft.to/lastmile_qr_scan", "ios": "https://dc.lft.to/lastmile_qr_scan"}, "fusion_lat": 0.0, "lat": 38.942836, "is_disabled": 0, "lon": -77.029215, "is_reserved": 0}, {"bike_id": "07cf27cc575fcfabb6464d3142702157", "fusion_lon": 0.0, "type": "electric_scooter", "name": "07cf27cc575fcfabb6464d3142702157", "rental_uris": {"android": "https://dc.lft.to/lastmile_qr_scan", "ios": "https://dc.lft.to/lastmile_qr_scan"}, "fusion_lat": 0.0, "lat": 38.936621, "is_disabled": 0, "lon": -77.032688, "is_reserved": 0}, {"bike_id": "3b01880d5264ec3f4c14f67647f2db93", "fusion_lon": 0.0, "type": "electric_bike", "name": "3b01880d5264ec3f4c14f67647f2db93", "rental_uris": {"android": "https://dc.lft.to/lastmile_qr_scan", "ios": "https://dc.lft.to/lastmile_qr_scan"}, "fusion_lat": 0.0, "lat": 38.8637525, "is_disabled": 0, "lon": -77.129032, "is_reserved": 0}, {"bike_id": "6bbd90e9f5a4a33c366470570cec7533", "fusion_lon": 0.0, "type": "electric_scooter", "name": "6bbd90e9f5a4a33c366470570cec7533", "rental_uris": {"android": "https://dc.lft.to/lastmile_qr_scan", "ios": "https://dc.lft.to/lastmile_qr_scan"}, "fusion_lat": 0.0, "lat": 38.90053416666667, "is_disabled": 0, "lon": -77.04484083333334, "is_reserved": 0}, {"bike_id": "931e8c5384e49508b92d3f61d08b6f54", "fusion_lon": 0.0, "type": "electric_scooter", "name": "931e8c5384e49508b92d3f61d08b6f54", "rental_uris": {"android": "https://dc.lft.to/lastmile_qr_scan", "ios": "https://dc.lft.to/lastmile_qr_scan"}, "fusion_lat": 0.0, "lat": 38.88753, "is_disabled": 0, "lon": -77.0174555, "is_reserved": 0}, {"bike_id": "7046cb8c56c04382941d3a566fa73e4c", "fusion_lon": 0.0, "type": "electric_scooter", "name": "7046cb8c56c04382941d3a566fa73e4c", "rental_uris": {"android": "https://dc.lft.to/lastmile_qr_scan", "ios": "https://dc.lft.to/lastmile_qr_scan"}, "fusion_lat": 0.0, "lat": 38.907818, "is_disabled": 0, "lon": -77.0640025, "is_reserved": 0}, {"bike_id": "da63cfc1b5c42fd2bbe4252c7fb0b51e", "fusion_lon": 0.0, "type": "electric_scooter", "name": "da63cfc1b5c42fd2bbe4252c7fb0b51e", "rental_uris": {"android": "https://dc.lft.to/lastmile_qr_scan", "ios": "https://dc.lft.to/lastmile_qr_scan"}, "fusion_lat": 0.0, "lat": 38.88664283333333, "is_disabled": 0, "lon": -77.0338845, "is_reserved": 0}, {"bike_id": "291384abf12fbbf641e6bff72a5d7ca9", "fusion_lon": 0.0, "type": "electric_scooter", "name": "291384abf12fbbf641e6bff72a5d7ca9", "rental_uris": {"android": "https://dc.lft.to/lastmile_qr_scan", "ios": "https://dc.lft.to/lastmile_qr_scan"}, "fusion_lat": 0.0, "lat": 38.939055333333336, "is_disabled": 0, "lon": -77.06047433333333, "is_reserved": 0}, {"bike_id": "47a72febe6364118a92c33a75b02d108", "fusion_lon": 0.0, "type": "electric_scooter", "name": "47a72febe6364118a92c33a75b02d108", "rental_uris": {"android": "https://dc.lft.to/lastmile_qr_scan", "ios": "https://dc.lft.to/lastmile_qr_scan"}, "fusion_lat": 0.0, "lat": 38.89330916666667, "is_disabled": 0, "lon": -77.02951633333333, "is_reserved": 0}, {"bike_id": "3a9a272ece223878282a509523f6751d", "fusion_lon": 0.0, "type": "electric_scooter", "name": "3a9a272ece223878282a509523f6751d", "rental_uris": {"android": "https://dc.lft.to/lastmile_qr_scan", "ios": "https://dc.lft.to/lastmile_qr_scan"}, "fusion_lat": 0.0, "lat": 38.879251833333335, "is_disabled": 0, "lon": -76.9916525, "is_reserved": 0}, {"bike_id": "1c1be2f8df300414de85c6b9e93fb4d6", "fusion_lon": 0.0, "type": "electric_scooter", "name": "1c1be2f8df300414de85c6b9e93fb4d6", "rental_uris": {"android": "https://dc.lft.to/lastmile_qr_scan", "ios": "https://dc.lft.to/lastmile_qr_scan"}, "fusion_lat": 0.0, "lat": 38.889898, "is_disabled": 0, "lon": -76.92405433333333, "is_reserved": 0}, {"bike_id": "5c49513482766280220ffdd1ea71d5d1", "fusion_lon": 0.0, "type": "electric_scooter", "name": "5c49513482766280220ffdd1ea71d5d1", "rental_uris": {"android": "https://dc.lft.to/lastmile_qr_scan", "ios": "https://dc.lft.to/lastmile_qr_scan"}, "fusion_lat": 0.0, "lat": 38.892479, "is_disabled": 0, "lon": -77.02182683333334, "is_reserved": 0}, {"bike_id": "f6a5afe003f8558fdcccd2e6eb06941b", "fusion_lon": 0.0, "type": "electric_scooter", "name": "f6a5afe003f8558fdcccd2e6eb06941b", "rental_uris": {"android": "https://dc.lft.to/lastmile_qr_scan", "ios": "https://dc.lft.to/lastmile_qr_scan"}, "fusion_lat": 0.0, "lat": 38.92737233333333, "is_disabled": 0, "lon": -77.022812, "is_reserved": 0}, {"bike_id": "3cf68b3c716b691551cebf0823a2f05e", "fusion_lon": 0.0, "type": "electric_scooter", "name": "3cf68b3c716b691551cebf0823a2f05e", "rental_uris": {"android": "https://dc.lft.to/lastmile_qr_scan", "ios": "https://dc.lft.to/lastmile_qr_scan"}, "fusion_lat": 0.0, "lat": 38.90790166666667, "is_disabled": 0, "lon": -77.04507516666666, "is_reserved": 0}, {"bike_id": "30e0646c48b294fb5c8b2c389588f65f", "fusion_lon": 0.0, "type": "electric_scooter", "name": "30e0646c48b294fb5c8b2c389588f65f", "rental_uris": {"android": "https://dc.lft.to/lastmile_qr_scan", "ios": "https://dc.lft.to/lastmile_qr_scan"}, "fusion_lat": 0.0, "lat": 38.906826833333334, "is_disabled": 0, "lon": -77.0629005, "is_reserved": 0}, {"bike_id": "f85cbfe0684e351993ef1438c10048f7", "fusion_lon": 0.0, "type": "electric_scooter", "name": "f85cbfe0684e351993ef1438c10048f7", "rental_uris": {"android": "https://dc.lft.to/lastmile_qr_scan", "ios": "https://dc.lft.to/lastmile_qr_scan"}, "fusion_lat": 0.0, "lat": 38.910151, "is_disabled": 0, "lon": -77.0221185, "is_reserved": 0}, {"bike_id": "71d0b65620a3bd90c9c2698ae26ec041", "fusion_lon": 0.0, "type": "electric_scooter", "name": "71d0b65620a3bd90c9c2698ae26ec041", "rental_uris": {"android": "https://dc.lft.to/lastmile_qr_scan", "ios": "https://dc.lft.to/lastmile_qr_scan"}, "fusion_lat": 0.0, "lat": 38.86512233333333, "is_disabled": 0, "lon": -76.97344933333333, "is_reserved": 0}, {"bike_id": "4bd12664f303dde9429a25726c23e736", "fusion_lon": 0.0, "type": "electric_scooter", "name": "4bd12664f303dde9429a25726c23e736", "rental_uris": {"android": "https://dc.lft.to/lastmile_qr_scan", "ios": "https://dc.lft.to/lastmile_qr_scan"}, "fusion_lat": 0.0, "lat": 38.9126595, "is_disabled": 0, "lon": -77.01765183333333, "is_reserved": 0}, {"bike_id": "c4715ee2dec3c95c2488fd51970d45a8", "fusion_lon": 0.0, "type": "electric_scooter", "name": "c4715ee2dec3c95c2488fd51970d45a8", "rental_uris": {"android": "https://dc.lft.to/lastmile_qr_scan", "ios": "https://dc.lft.to/lastmile_qr_scan"}, "fusion_lat": 0.0, "lat": 38.9095085, "is_disabled": 0, "lon": -77.01887416666666, "is_reserved": 0}, {"bike_id": "9155cea9ad84d6e3d699fcf7b35738cc", "fusion_lon": 0.0, "type": "electric_scooter", "name": "9155cea9ad84d6e3d699fcf7b35738cc", "rental_uris": {"android": "https://dc.lft.to/lastmile_qr_scan", "ios": "https://dc.lft.to/lastmile_qr_scan"}, "fusion_lat": 0.0, "lat": 38.9388235, "is_disabled": 0, "lon": -77.024826, "is_reserved": 0}, {"bike_id": "b6e0b3c8e575f3dcc11fc3e6997c6908", "fusion_lon": 0.0, "type": "electric_scooter", "name": "b6e0b3c8e575f3dcc11fc3e6997c6908", "rental_uris": {"android": "https://dc.lft.to/lastmile_qr_scan", "ios": "https://dc.lft.to/lastmile_qr_scan"}, "fusion_lat": 0.0, "lat": 38.9431455, "is_disabled": 0, "lon": -77.01539216666667, "is_reserved": 0}, {"bike_id": "a947798f238b4efe31b3617d14f2b88c", "fusion_lon": 0.0, "type": "electric_scooter", "name": "a947798f238b4efe31b3617d14f2b88c", "rental_uris": {"android": "https://dc.lft.to/lastmile_qr_scan", "ios": "https://dc.lft.to/lastmile_qr_scan"}, "fusion_lat": 0.0, "lat": 38.90363766666667, "is_disabled": 0, "lon": -77.00050666666667, "is_reserved": 0}, {"bike_id": "56956a01340411908f18d3b89f4559ea", "fusion_lon": 0.0, "type": "electric_scooter", "name": "56956a01340411908f18d3b89f4559ea", "rental_uris": {"android": "https://dc.lft.to/lastmile_qr_scan", "ios": "https://dc.lft.to/lastmile_qr_scan"}, "fusion_lat": 0.0, "lat": 38.846220333333335, "is_disabled": 0, "lon": -76.99631066666667, "is_reserved": 0}, {"bike_id": "0a8371bad8f8a73d3b8a8a4b7754929c", "fusion_lon": 0.0, "type": "electric_scooter", "name": "0a8371bad8f8a73d3b8a8a4b7754929c", "rental_uris": {"android": "https://dc.lft.to/lastmile_qr_scan", "ios": "https://dc.lft.to/lastmile_qr_scan"}, "fusion_lat": 0.0, "lat": 38.884798333333336, "is_disabled": 0, "lon": -76.949253, "is_reserved": 0}, {"bike_id": "b073304b62be7c4879bcb9e243a3e3c9", "fusion_lon": 0.0, "type": "electric_scooter", "name": "b073304b62be7c4879bcb9e243a3e3c9", "rental_uris": {"android": "https://dc.lft.to/lastmile_qr_scan", "ios": "https://dc.lft.to/lastmile_qr_scan"}, "fusion_lat": 0.0, "lat": 38.894101166666665, "is_disabled": 0, "lon": -77.02152516666666, "is_reserved": 0}, {"bike_id": "4752458631ede35f80db8fe691436507", "fusion_lon": 0.0, "type": "electric_scooter", "name": "4752458631ede35f80db8fe691436507", "rental_uris": {"android": "https://dc.lft.to/lastmile_qr_scan", "ios": "https://dc.lft.to/lastmile_qr_scan"}, "fusion_lat": 0.0, "lat": 38.895219833333336, "is_disabled": 0, "lon": -76.948945, "is_reserved": 0}, {"bike_id": "bcccc644ee767036275e5b28e726b267", "fusion_lon": 0.0, "type": "electric_scooter", "name": "bcccc644ee767036275e5b28e726b267", "rental_uris": {"android": "https://dc.lft.to/lastmile_qr_scan", "ios": "https://dc.lft.to/lastmile_qr_scan"}, "fusion_lat": 0.0, "lat": 38.86118066666667, "is_disabled": 0, "lon": -76.99016516666667, "is_reserved": 0}, {"bike_id": "e8e113242ee00596b079d5eb4daca642", "fusion_lon": 0.0, "type": "electric_scooter", "name": "e8e113242ee00596b079d5eb4daca642", "rental_uris": {"android": "https://dc.lft.to/lastmile_qr_scan", "ios": "https://dc.lft.to/lastmile_qr_scan"}, "fusion_lat": 0.0, "lat": 38.902741, "is_disabled": 0, "lon": -77.03442983333333, "is_reserved": 0}, {"bike_id": "bed1fc8b2c6c4a870273d2e4999f01b3", "fusion_lon": 0.0, "type": "electric_scooter", "name": "bed1fc8b2c6c4a870273d2e4999f01b3", "rental_uris": {"android": "https://dc.lft.to/lastmile_qr_scan", "ios": "https://dc.lft.to/lastmile_qr_scan"}, "fusion_lat": 0.0, "lat": 38.92106283333333, "is_disabled": 0, "lon": -77.04689616666667, "is_reserved": 0}, {"bike_id": "4ab2a84dca837899b6a591cfe589bb0f", "fusion_lon": 0.0, "type": "electric_scooter", "name": "4ab2a84dca837899b6a591cfe589bb0f", "rental_uris": {"android": "https://dc.lft.to/lastmile_qr_scan", "ios": "https://dc.lft.to/lastmile_qr_scan"}, "fusion_lat": 0.0, "lat": 38.90989116666667, "is_disabled": 0, "lon": -77.0308715, "is_reserved": 0}, {"bike_id": "fefd7387782f45117a1fd6d80b8345fc", "fusion_lon": 0.0, "type": "electric_scooter", "name": "fefd7387782f45117a1fd6d80b8345fc", "rental_uris": {"android": "https://dc.lft.to/lastmile_qr_scan", "ios": "https://dc.lft.to/lastmile_qr_scan"}, "fusion_lat": 0.0, "lat": 38.90141833333333, "is_disabled": 0, "lon": -77.03228533333333, "is_reserved": 0}, {"bike_id": "16117a4f2e30361bd6d6bd480f6c4b6f", "fusion_lon": 0.0, "type": "electric_scooter", "name": "16117a4f2e30361bd6d6bd480f6c4b6f", "rental_uris": {"android": "https://dc.lft.to/lastmile_qr_scan", "ios": "https://dc.lft.to/lastmile_qr_scan"}, "fusion_lat": 0.0, "lat": 38.897602, "is_disabled": 0, "lon": -77.0271135, "is_reserved": 0}, {"bike_id": "3b616c828379fcf31da9c6ae7662e5bc", "fusion_lon": 0.0, "type": "electric_scooter", "name": "3b616c828379fcf31da9c6ae7662e5bc", "rental_uris": {"android": "https://dc.lft.to/lastmile_qr_scan", "ios": "https://dc.lft.to/lastmile_qr_scan"}, "fusion_lat": 0.0, "lat": 38.916345166666666, "is_disabled": 0, "lon": -77.02278583333333, "is_reserved": 0}, {"bike_id": "69d95415f0de72a5a6d145d351efc78e", "fusion_lon": 0.0, "type": "electric_scooter", "name": "69d95415f0de72a5a6d145d351efc78e", "rental_uris": {"android": "https://dc.lft.to/lastmile_qr_scan", "ios": "https://dc.lft.to/lastmile_qr_scan"}, "fusion_lat": 0.0, "lat": 38.9232495, "is_disabled": 0, "lon": -77.04633966666667, "is_reserved": 0}, {"bike_id": "2b47116f8900e1652f30dc49fe916483", "fusion_lon": 0.0, "type": "electric_scooter", "name": "2b47116f8900e1652f30dc49fe916483", "rental_uris": {"android": "https://dc.lft.to/lastmile_qr_scan", "ios": "https://dc.lft.to/lastmile_qr_scan"}, "fusion_lat": 0.0, "lat": 38.9370175, "is_disabled": 0, "lon": -77.02122416666667, "is_reserved": 0}, {"bike_id": "c209e858a67b40231eb59b9ba20ee3d2", "fusion_lon": 0.0, "type": "electric_bike", "name": "c209e858a67b40231eb59b9ba20ee3d2", "rental_uris": {"android": "https://dc.lft.to/lastmile_qr_scan", "ios": "https://dc.lft.to/lastmile_qr_scan"}, "fusion_lat": 0.0, "lat": 38.9496215, "is_disabled": 0, "lon": -76.96107866666667, "is_reserved": 0}, {"bike_id": "b00a95b359ebad3aee1135c98d571be1", "fusion_lon": 0.0, "type": "electric_scooter", "name": "b00a95b359ebad3aee1135c98d571be1", "rental_uris": {"android": "https://dc.lft.to/lastmile_qr_scan", "ios": "https://dc.lft.to/lastmile_qr_scan"}, "fusion_lat": 0.0, "lat": 38.893097, "is_disabled": 0, "lon": -77.026082, "is_reserved": 0}, {"bike_id": "9cab13a83109843afdf2537394d1ea18", "fusion_lon": 0.0, "type": "electric_scooter", "name": "9cab13a83109843afdf2537394d1ea18", "rental_uris": {"android": "https://dc.lft.to/lastmile_qr_scan", "ios": "https://dc.lft.to/lastmile_qr_scan"}, "fusion_lat": 0.0, "lat": 38.90255533333333, "is_disabled": 0, "lon": -77.03274783333333, "is_reserved": 0}, {"bike_id": "c32147cdeecfa570d4dff3227c52c662", "fusion_lon": 0.0, "type": "electric_scooter", "name": "c32147cdeecfa570d4dff3227c52c662", "rental_uris": {"android": "https://dc.lft.to/lastmile_qr_scan", "ios": "https://dc.lft.to/lastmile_qr_scan"}, "fusion_lat": 0.0, "lat": 38.91556833333333, "is_disabled": 0, "lon": -77.0083385, "is_reserved": 0}, {"bike_id": "942ea16ba99ba59bf3ac4c7bf28224d2", "fusion_lon": 0.0, "type": "electric_scooter", "name": "942ea16ba99ba59bf3ac4c7bf28224d2", "rental_uris": {"android": "https://dc.lft.to/lastmile_qr_scan", "ios": "https://dc.lft.to/lastmile_qr_scan"}, "fusion_lat": 0.0, "lat": 38.926444333333336, "is_disabled": 0, "lon": -77.0370265, "is_reserved": 0}, {"bike_id": "47b3a71e6ed1fe34b60c7c8957662747", "fusion_lon": 0.0, "type": "electric_bike", "name": "47b3a71e6ed1fe34b60c7c8957662747", "rental_uris": {"android": "https://dc.lft.to/lastmile_qr_scan", "ios": "https://dc.lft.to/lastmile_qr_scan"}, "fusion_lat": 0.0, "lat": 38.89734083333333, "is_disabled": 0, "lon": -76.90539816666667, "is_reserved": 0}, {"bike_id": "ec11be0032a0df336852926e3d8dc312", "fusion_lon": 0.0, "type": "electric_scooter", "name": "ec11be0032a0df336852926e3d8dc312", "rental_uris": {"android": "https://dc.lft.to/lastmile_qr_scan", "ios": "https://dc.lft.to/lastmile_qr_scan"}, "fusion_lat": 0.0, "lat": 38.901069, "is_disabled": 0, "lon": -77.0392575, "is_reserved": 0}, {"bike_id": "3e4634594d14cf32c80ead0bbfb9f5ec", "fusion_lon": 0.0, "type": "electric_scooter", "name": "3e4634594d14cf32c80ead0bbfb9f5ec", "rental_uris": {"android": "https://dc.lft.to/lastmile_qr_scan", "ios": "https://dc.lft.to/lastmile_qr_scan"}, "fusion_lat": 0.0, "lat": 38.928607166666666, "is_disabled": 0, "lon": -77.032784, "is_reserved": 0}, {"bike_id": "870245388482449f672db3757137e861", "fusion_lon": 0.0, "type": "electric_scooter", "name": "870245388482449f672db3757137e861", "rental_uris": {"android": "https://dc.lft.to/lastmile_qr_scan", "ios": "https://dc.lft.to/lastmile_qr_scan"}, "fusion_lat": 0.0, "lat": 38.94789816666667, "is_disabled": 0, "lon": -77.06755333333334, "is_reserved": 0}, {"bike_id": "189382c36247f6e4d5d873a32fb8b101", "fusion_lon": 0.0, "type": "electric_scooter", "name": "189382c36247f6e4d5d873a32fb8b101", "rental_uris": {"android": "https://dc.lft.to/lastmile_qr_scan", "ios": "https://dc.lft.to/lastmile_qr_scan"}, "fusion_lat": 0.0, "lat": 38.90092716666667, "is_disabled": 0, "lon": -76.99487266666667, "is_reserved": 0}, {"bike_id": "79544c998a01bcf88b22c9b9e9fd3502", "fusion_lon": 0.0, "type": "electric_scooter", "name": "79544c998a01bcf88b22c9b9e9fd3502", "rental_uris": {"android": "https://dc.lft.to/lastmile_qr_scan", "ios": "https://dc.lft.to/lastmile_qr_scan"}, "fusion_lat": 0.0, "lat": 38.907701333333335, "is_disabled": 0, "lon": -77.03867216666667, "is_reserved": 0}, {"bike_id": "f40aff3e4d66c56d060753c52bc8f1a6", "fusion_lon": 0.0, "type": "electric_bike", "name": "f40aff3e4d66c56d060753c52bc8f1a6", "rental_uris": {"android": "https://dc.lft.to/lastmile_qr_scan", "ios": "https://dc.lft.to/lastmile_qr_scan"}, "fusion_lat": 0.0, "lat": 38.869730833333335, "is_disabled": 0, "lon": -77.13233366666667, "is_reserved": 0}, {"bike_id": "67e0dac7f7d2211c77782439db11e93a", "fusion_lon": 0.0, "type": "electric_scooter", "name": "67e0dac7f7d2211c77782439db11e93a", "rental_uris": {"android": "https://dc.lft.to/lastmile_qr_scan", "ios": "https://dc.lft.to/lastmile_qr_scan"}, "fusion_lat": 0.0, "lat": 38.899676666666664, "is_disabled": 0, "lon": -77.01602216666667, "is_reserved": 0}, {"bike_id": "0f6a65bd299be304211e077b715a3419", "fusion_lon": 0.0, "type": "electric_scooter", "name": "0f6a65bd299be304211e077b715a3419", "rental_uris": {"android": "https://dc.lft.to/lastmile_qr_scan", "ios": "https://dc.lft.to/lastmile_qr_scan"}, "fusion_lat": 0.0, "lat": 38.883874, "is_disabled": 0, "lon": -76.98565466666666, "is_reserved": 0}, {"bike_id": "e0076bda4abc5ae55fb342517da8a658", "fusion_lon": 0.0, "type": "electric_scooter", "name": "e0076bda4abc5ae55fb342517da8a658", "rental_uris": {"android": "https://dc.lft.to/lastmile_qr_scan", "ios": "https://dc.lft.to/lastmile_qr_scan"}, "fusion_lat": 0.0, "lat": 38.9180975, "is_disabled": 0, "lon": -77.03437466666666, "is_reserved": 0}, {"bike_id": "5be43171d14cace8c7b2b0ed23baaba1", "fusion_lon": 0.0, "type": "electric_scooter", "name": "5be43171d14cace8c7b2b0ed23baaba1", "rental_uris": {"android": "https://dc.lft.to/lastmile_qr_scan", "ios": "https://dc.lft.to/lastmile_qr_scan"}, "fusion_lat": 0.0, "lat": 38.911874, "is_disabled": 0, "lon": -77.01892816666667, "is_reserved": 0}, {"bike_id": "d8bed0316f57009a329430e0760de0d4", "fusion_lon": 0.0, "type": "electric_scooter", "name": "d8bed0316f57009a329430e0760de0d4", "rental_uris": {"android": "https://dc.lft.to/lastmile_qr_scan", "ios": "https://dc.lft.to/lastmile_qr_scan"}, "fusion_lat": 0.0, "lat": 38.89774966666667, "is_disabled": 0, "lon": -77.00761816666666, "is_reserved": 0}, {"bike_id": "e70e3d591ef1787b981fd302010276b0", "fusion_lon": 0.0, "type": "electric_scooter", "name": "e70e3d591ef1787b981fd302010276b0", "rental_uris": {"android": "https://dc.lft.to/lastmile_qr_scan", "ios": "https://dc.lft.to/lastmile_qr_scan"}, "fusion_lat": 0.0, "lat": 38.90357616666667, "is_disabled": 0, "lon": -77.01895233333333, "is_reserved": 0}, {"bike_id": "a6c41b4dc3dab1eae4133ed44c8a0f9c", "fusion_lon": 0.0, "type": "electric_bike", "name": "a6c41b4dc3dab1eae4133ed44c8a0f9c", "rental_uris": {"android": "https://dc.lft.to/lastmile_qr_scan", "ios": "https://dc.lft.to/lastmile_qr_scan"}, "fusion_lat": 0.0, "lat": 38.9596695, "is_disabled": 0, "lon": -76.981498, "is_reserved": 0}, {"bike_id": "33912bdd6bab5ae9b38b4d957d9acf72", "fusion_lon": 0.0, "type": "electric_scooter", "name": "33912bdd6bab5ae9b38b4d957d9acf72", "rental_uris": {"android": "https://dc.lft.to/lastmile_qr_scan", "ios": "https://dc.lft.to/lastmile_qr_scan"}, "fusion_lat": 0.0, "lat": 38.906935, "is_disabled": 0, "lon": -76.986134, "is_reserved": 0}, {"bike_id": "7cbe06e4b8f74a31a29e73736800ac93", "fusion_lon": 0.0, "type": "electric_scooter", "name": "7cbe06e4b8f74a31a29e73736800ac93", "rental_uris": {"android": "https://dc.lft.to/lastmile_qr_scan", "ios": "https://dc.lft.to/lastmile_qr_scan"}, "fusion_lat": 0.0, "lat": 38.9004395, "is_disabled": 0, "lon": -77.01226233333334, "is_reserved": 0}, {"bike_id": "a16ab5f72c84ca5d8b5ecad98259aa6a", "fusion_lon": 0.0, "type": "electric_scooter", "name": "a16ab5f72c84ca5d8b5ecad98259aa6a", "rental_uris": {"android": "https://dc.lft.to/lastmile_qr_scan", "ios": "https://dc.lft.to/lastmile_qr_scan"}, "fusion_lat": 0.0, "lat": 38.91440733333334, "is_disabled": 0, "lon": -77.021841, "is_reserved": 0}, {"bike_id": "5360d71e6b354252103d273c1ee7fb4f", "fusion_lon": 0.0, "type": "electric_scooter", "name": "5360d71e6b354252103d273c1ee7fb4f", "rental_uris": {"android": "https://dc.lft.to/lastmile_qr_scan", "ios": "https://dc.lft.to/lastmile_qr_scan"}, "fusion_lat": 0.0, "lat": 38.88790733333333, "is_disabled": 0, "lon": -76.95109816666667, "is_reserved": 0}, {"bike_id": "2e2b053f27e7a97031976e49570a4137", "fusion_lon": 0.0, "type": "electric_scooter", "name": "2e2b053f27e7a97031976e49570a4137", "rental_uris": {"android": "https://dc.lft.to/lastmile_qr_scan", "ios": "https://dc.lft.to/lastmile_qr_scan"}, "fusion_lat": 0.0, "lat": 38.870844, "is_disabled": 0, "lon": -77.01118266666667, "is_reserved": 0}, {"bike_id": "140392ca0c805ea45ad519882bccda76", "fusion_lon": 0.0, "type": "electric_scooter", "name": "140392ca0c805ea45ad519882bccda76", "rental_uris": {"android": "https://dc.lft.to/lastmile_qr_scan", "ios": "https://dc.lft.to/lastmile_qr_scan"}, "fusion_lat": 0.0, "lat": 38.91853116666667, "is_disabled": 0, "lon": -77.048366, "is_reserved": 0}, {"bike_id": "ee9a39c29c303a6d28492ff71361d33a", "fusion_lon": 0.0, "type": "electric_bike", "name": "ee9a39c29c303a6d28492ff71361d33a", "rental_uris": {"android": "https://dc.lft.to/lastmile_qr_scan", "ios": "https://dc.lft.to/lastmile_qr_scan"}, "fusion_lat": 0.0, "lat": 38.947299666666666, "is_disabled": 0, "lon": -76.95679716666666, "is_reserved": 0}, {"bike_id": "f95f45775ba2a19b8a7f8b3d51684404", "fusion_lon": 0.0, "type": "electric_bike", "name": "f95f45775ba2a19b8a7f8b3d51684404", "rental_uris": {"android": "https://dc.lft.to/lastmile_qr_scan", "ios": "https://dc.lft.to/lastmile_qr_scan"}, "fusion_lat": 0.0, "lat": 38.949198, "is_disabled": 0, "lon": -77.078405, "is_reserved": 0}, {"bike_id": "9d135e3545396d9dab5cde2d885fbfd3", "fusion_lon": 0.0, "type": "electric_bike", "name": "9d135e3545396d9dab5cde2d885fbfd3", "rental_uris": {"android": "https://dc.lft.to/lastmile_qr_scan", "ios": "https://dc.lft.to/lastmile_qr_scan"}, "fusion_lat": 0.0, "lat": 38.848443, "is_disabled": 0, "lon": -77.08049816666667, "is_reserved": 0}, {"bike_id": "74f34148d580a2c2c275219dcd6f8921", "fusion_lon": 0.0, "type": "electric_scooter", "name": "74f34148d580a2c2c275219dcd6f8921", "rental_uris": {"android": "https://dc.lft.to/lastmile_qr_scan", "ios": "https://dc.lft.to/lastmile_qr_scan"},