{"data": {"bikes": [{"fusion_lon": 0.0, "bike_id": "4b4f8e6e431538f883e6c7c65830d6ca", "name": "4b4f8e6e431538f883e6c7c65830d6ca", "rental_uris": {"android": "https://dc.lft.to/lastmile_qr_scan", "ios": "https://dc.lft.to/lastmile_qr_scan"}, "lon": -77.03271233333334, "fusion_lat": 0.0, "is_disabled": 0, "is_reserved": 0, "lat": 38.92840916666667, "type": "electric_scooter"}, {"fusion_lon": 0.0, "bike_id": "3fd5e266b982d1d12793bfa19258730d", "name": "3fd5e266b982d1d12793bfa19258730d", "rental_uris": {"android": "https://dc.lft.to/lastmile_qr_scan", "ios": "https://dc.lft.to/lastmile_qr_scan"}, "lon": -77.04912233333333, "fusion_lat": 0.0, "is_disabled": 0, "is_reserved": 0, "lat": 38.89828216666667, "type": "electric_scooter"}, {"fusion_lon": 0.0, "bike_id": "f0a77e3492a04012c766ce526594d262", "name": "f0a77e3492a04012c766ce526594d262", "rental_uris": {"android": "https://dc.lft.to/lastmile_qr_scan", "ios": "https://dc.lft.to/lastmile_qr_scan"}, "lon": -76.978082, "fusion_lat": 0.0, "is_disabled": 0, "is_reserved": 0, "lat": 38.90310516666667, "type": "electric_scooter"}, {"fusion_lon": 0.0, "bike_id": "a02cbb206b9df4b5319606bab434a700", "name": "a02cbb206b9df4b5319606bab434a700", "rental_uris": {"android": "https://dc.lft.to/lastmile_qr_scan", "ios": "https://dc.lft.to/lastmile_qr_scan"}, "lon": -77.03456866666667, "fusion_lat": 0.0, "is_disabled": 0, "is_reserved": 0, "lat": 38.903882833333334, "type": "electric_scooter"}, {"fusion_lon": 0.0, "bike_id": "843ee70bd03c84fe207ff407dfe0f589", "name": "843ee70bd03c84fe207ff407dfe0f589", "rental_uris": {"android": "https://dc.lft.to/lastmile_qr_scan", "ios": "https://dc.lft.to/lastmile_qr_scan"}, "lon": -77.00068883333333, "fusion_lat": 0.0, "is_disabled": 0, "is_reserved": 0, "lat": 38.87385033333333, "type": "electric_scooter"}, {"fusion_lon": 0.0, "bike_id": "25cf53d13d5dc99d50594185ddd6216b", "name": "25cf53d13d5dc99d50594185ddd6216b", "rental_uris": {"android": "https://dc.lft.to/lastmile_qr_scan", "ios": "https://dc.lft.to/lastmile_qr_scan"}, "lon": -77.021647, "fusion_lat": 0.0, "is_disabled": 0, "is_reserved": 0, "lat": 38.92613433333333, "type": "electric_scooter"}, {"fusion_lon": 0.0, "bike_id": "e54529fd85b726fa3659df5b9b8eb9b3", "name": "e54529fd85b726fa3659df5b9b8eb9b3", "rental_uris": {"android": "https://dc.lft.to/lastmile_qr_scan", "ios": "https://dc.lft.to/lastmile_qr_scan"}, "lon": -77.02114916666666, "fusion_lat": 0.0, "is_disabled": 0, "is_reserved": 0, "lat": 38.91553116666667, "type": "electric_scooter"}, {"fusion_lon": 0.0, "bike_id": "30db687f2ca12cc70db5fe82b176a132", "name": "30db687f2ca12cc70db5fe82b176a132", "rental_uris": {"android": "https://dc.lft.to/lastmile_qr_scan", "ios": "https://dc.lft.to/lastmile_qr_scan"}, "lon": -77.00291983333334, "fusion_lat": 0.0, "is_disabled": 0, "is_reserved": 0, "lat": 38.891974, "type": "electric_scooter"}, {"fusion_lon": 0.0, "bike_id": "e7daea84ffdcaf888b03adecd5160e6f", "name": "e7daea84ffdcaf888b03adecd5160e6f", "rental_uris": {"android": "https://dc.lft.to/lastmile_qr_scan", "ios": "https://dc.lft.to/lastmile_qr_scan"}, "lon": -77.01133666666666, "fusion_lat": 0.0, "is_disabled": 0, "is_reserved": 0, "lat": 38.895418, "type": "electric_scooter"}, {"fusion_lon": 0.0, "bike_id": "a60d49113931d59cf9983974bf02aa2e", "name": "a60d49113931d59cf9983974bf02aa2e", "rental_uris": {"android": "https://dc.lft.to/lastmile_qr_scan", "ios": "https://dc.lft.to/lastmile_qr_scan"}, "lon": -77.044761, "fusion_lat": 0.0, "is_disabled": 0, "is_reserved": 0, "lat": 38.892258, "type": "electric_scooter"}, {"fusion_lon": 0.0, "bike_id": "6b697416cc00dfd41cd3b29c54718d3e", "name": "6b697416cc00dfd41cd3b29c54718d3e", "rental_uris": {"android": "https://dc.lft.to/lastmile_qr_scan", "ios": "https://dc.lft.to/lastmile_qr_scan"}, "lon": -77.000702, "fusion_lat": 0.0, "is_disabled": 0, "is_reserved": 0, "lat": 38.89434416666667, "type": "electric_scooter"}, {"fusion_lon": 0.0, "bike_id": "0851c542625af968d88bf8853c4ae731", "name": "0851c542625af968d88bf8853c4ae731", "rental_uris": {"android": "https://dc.lft.to/lastmile_qr_scan", "ios": "https://dc.lft.to/lastmile_qr_scan"}, "lon": -77.01610566666666, "fusion_lat": 0.0, "is_disabled": 0, "is_reserved": 0, "lat": 38.920529333333334, "type": "electric_scooter"}, {"fusion_lon": 0.0, "bike_id": "39a86a8abf187039cc0682bce0bc046d", "name": "39a86a8abf187039cc0682bce0bc046d", "rental_uris": {"android": "https://dc.lft.to/lastmile_qr_scan", "ios": "https://dc.lft.to/lastmile_qr_scan"}, "lon": -76.997262, "fusion_lat": 0.0, "is_disabled": 0, "is_reserved": 0, "lat": 38.910212666666666, "type": "electric_scooter"}, {"fusion_lon": 0.0, "bike_id": "8cdf9b3165e7b21d79f5772bf7390a66", "name": "8cdf9b3165e7b21d79f5772bf7390a66", "rental_uris": {"android": "https://dc.lft.to/lastmile_qr_scan", "ios": "https://dc.lft.to/lastmile_qr_scan"}, "lon": -76.98927083333334, "fusion_lat": 0.0, "is_disabled": 0, "is_reserved": 0, "lat": 38.938231333333334, "type": "electric_scooter"}, {"fusion_lon": 0.0, "bike_id": "30541f25ebb6ddca7d7e05d90ead4728", "name": "30541f25ebb6ddca7d7e05d90ead4728", "rental_uris": {"android": "https://dc.lft.to/lastmile_qr_scan", "ios": "https://dc.lft.to/lastmile_qr_scan"}, "lon": -77.0307365, "fusion_lat": 0.0, "is_disabled": 0, "is_reserved": 0, "lat": 38.900180166666665, "type": "electric_scooter"}, {"fusion_lon": 0.0, "bike_id": "30381fbadee37d20c575055e1aeaecbe", "name": "30381fbadee37d20c575055e1aeaecbe", "rental_uris": {"android": "https://dc.lft.to/lastmile_qr_scan", "ios": "https://dc.lft.to/lastmile_qr_scan"}, "lon": -76.99327816666667, "fusion_lat": 0.0, "is_disabled": 0, "is_reserved": 0, "lat": 38.90624716666667, "type": "electric_scooter"}, {"fusion_lon": 0.0, "bike_id": "42d20025a84fa5004f18af152a9285e2", "name": "42d20025a84fa5004f18af152a9285e2", "rental_uris": {"android": "https://dc.lft.to/lastmile_qr_scan", "ios": "https://dc.lft.to/lastmile_qr_scan"}, "lon": -77.03079183333334, "fusion_lat": 0.0, "is_disabled": 0, "is_reserved": 0, "lat": 38.91063533333333, "type": "electric_scooter"}, {"fusion_lon": 0.0, "bike_id": "6a48eac9db60d7d2fbae1b30687f1adc", "name": "6a48eac9db60d7d2fbae1b30687f1adc", "rental_uris": {"android": "https://dc.lft.to/lastmile_qr_scan", "ios": "https://dc.lft.to/lastmile_qr_scan"}, "lon": -77.00644166666666, "fusion_lat": 0.0, "is_disabled": 0, "is_reserved": 0, "lat": 38.87185016666667, "type": "electric_scooter"}, {"fusion_lon": 0.0, "bike_id": "53fe031b24f1afc0e8d296b0bc6d5cbf", "name": "53fe031b24f1afc0e8d296b0bc6d5cbf", "rental_uris": {"android": "https://dc.lft.to/lastmile_qr_scan", "ios": "https://dc.lft.to/lastmile_qr_scan"}, "lon": -77.02154716666666, "fusion_lat": 0.0, "is_disabled": 0, "is_reserved": 0, "lat": 38.9260345, "type": "electric_scooter"}, {"fusion_lon": 0.0, "bike_id": "f14263e00b70edc8a5898d9e8ea55633", "name": "f14263e00b70edc8a5898d9e8ea55633", "rental_uris": {"android": "https://dc.lft.to/lastmile_qr_scan", "ios": "https://dc.lft.to/lastmile_qr_scan"}, "lon": -77.0007125, "fusion_lat": 0.0, "is_disabled": 0, "is_reserved": 0, "lat": 38.876895833333336, "type": "electric_scooter"}, {"fusion_lon": 0.0, "bike_id": "79f1d4a23595d087b82a3de799140a5c", "name": "79f1d4a23595d087b82a3de799140a5c", "rental_uris": {"android": "https://dc.lft.to/lastmile_qr_scan", "ios": "https://dc.lft.to/lastmile_qr_scan"}, "lon": -76.93386016666666, "fusion_lat": 0.0, "is_disabled": 0, "is_reserved": 0, "lat": 38.89914483333333, "type": "electric_scooter"}, {"fusion_lon": 0.0, "bike_id": "ecdd20a46ddcdb7caed25b698db838e6", "name": "ecdd20a46ddcdb7caed25b698db838e6", "rental_uris": {"android": "https://dc.lft.to/lastmile_qr_scan", "ios": "https://dc.lft.to/lastmile_qr_scan"}, "lon": -77.03213616666666, "fusion_lat": 0.0, "is_disabled": 0, "is_reserved": 0, "lat": 38.91923633333333, "type": "electric_scooter"}, {"fusion_lon": 0.0, "bike_id": "dfa1d97013c20964d32e358a133b567f", "name": "dfa1d97013c20964d32e358a133b567f", "rental_uris": {"android": "https://dc.lft.to/lastmile_qr_scan", "ios": "https://dc.lft.to/lastmile_qr_scan"}, "lon": -77.02493333333334, "fusion_lat": 0.0, "is_disabled": 0, "is_reserved": 0, "lat": 38.91931916666667, "type": "electric_scooter"}, {"fusion_lon": 0.0, "bike_id": "a229dcac349cf8ff33a6e6dbe8cf57ce", "name": "a229dcac349cf8ff33a6e6dbe8cf57ce", "rental_uris": {"android": "https://dc.lft.to/lastmile_qr_scan", "ios": "https://dc.lft.to/lastmile_qr_scan"}, "lon": -77.04250183333333, "fusion_lat": 0.0, "is_disabled": 0, "is_reserved": 0, "lat": 38.90650816666667, "type": "electric_scooter"}, {"fusion_lon": 0.0, "bike_id": "37e8185a40564346e46fdafc0acd18a9", "name": "37e8185a40564346e46fdafc0acd18a9", "rental_uris": {"android": "https://dc.lft.to/lastmile_qr_scan", "ios": "https://dc.lft.to/lastmile_qr_scan"}, "lon": -77.09947133333333, "fusion_lat": 0.0, "is_disabled": 0, "is_reserved": 0, "lat": 39.014845, "type": "electric_bike"}, {"fusion_lon": 0.0, "bike_id": "4bf261569faa3ffa04b5a2d7e9e9bede", "name": "4bf261569faa3ffa04b5a2d7e9e9bede", "rental_uris": {"android": "https://dc.lft.to/lastmile_qr_scan", "ios": "https://dc.lft.to/lastmile_qr_scan"}, "lon": -76.965065, "fusion_lat": 0.0, "is_disabled": 0, "is_reserved": 0, "lat": 38.876477333333334, "type": "electric_scooter"}, {"fusion_lon": 0.0, "bike_id": "df5289975bcf075bff010362b22fc543", "name": "df5289975bcf075bff010362b22fc543", "rental_uris": {"android": "https://dc.lft.to/lastmile_qr_scan", "ios": "https://dc.lft.to/lastmile_qr_scan"}, "lon": -77.00219333333334, "fusion_lat": 0.0, "is_disabled": 0, "is_reserved": 0, "lat": 38.900323, "type": "electric_scooter"}, {"fusion_lon": 0.0, "bike_id": "5510d9e3e5e12c0d5c2858bf557f0546", "name": "5510d9e3e5e12c0d5c2858bf557f0546", "rental_uris": {"android": "https://dc.lft.to/lastmile_qr_scan", "ios": "https://dc.lft.to/lastmile_qr_scan"}, "lon": -77.04683983333334, "fusion_lat": 0.0, "is_disabled": 0, "is_reserved": 0, "lat": 38.90317066666667, "type": "electric_scooter"}, {"fusion_lon": 0.0, "bike_id": "2f109c7c71d2935e9ca2ae6bb1ccebff", "name": "2f109c7c71d2935e9ca2ae6bb1ccebff", "rental_uris": {"android": "https://dc.lft.to/lastmile_qr_scan", "ios": "https://dc.lft.to/lastmile_qr_scan"}, "lon": -77.03217433333333, "fusion_lat": 0.0, "is_disabled": 0, "is_reserved": 0, "lat": 38.9159835, "type": "electric_scooter"}, {"fusion_lon": 0.0, "bike_id": "e6bbe3e3a82441a643683c2757f2eb0e", "name": "e6bbe3e3a82441a643683c2757f2eb0e", "rental_uris": {"android": "https://dc.lft.to/lastmile_qr_scan", "ios": "https://dc.lft.to/lastmile_qr_scan"}, "lon": -77.02407866666667, "fusion_lat": 0.0, "is_disabled": 0, "is_reserved": 0, "lat": 38.917630833333334, "type": "electric_scooter"}, {"fusion_lon": 0.0, "bike_id": "eed1040eae739aa8f4dc4ec37353697d", "name": "eed1040eae739aa8f4dc4ec37353697d", "rental_uris": {"android": "https://dc.lft.to/lastmile_qr_scan", "ios": "https://dc.lft.to/lastmile_qr_scan"}, "lon": -77.02397233333333, "fusion_lat": 0.0, "is_disabled": 0, "is_reserved": 0, "lat": 38.937060333333335, "type": "electric_scooter"}, {"fusion_lon": 0.0, "bike_id": "89d1977fcf2f59107a90e7ab9e68085f", "name": "89d1977fcf2f59107a90e7ab9e68085f", "rental_uris": {"android": "https://dc.lft.to/lastmile_qr_scan", "ios": "https://dc.lft.to/lastmile_qr_scan"}, "lon": -76.98671766666666, "fusion_lat": 0.0, "is_disabled": 0, "is_reserved": 0, "lat": 38.83515233333333, "type": "electric_bike"}, {"fusion_lon": 0.0, "bike_id": "c7b133717c0e0684a0e5751295e054ad", "name": "c7b133717c0e0684a0e5751295e054ad", "rental_uris": {"android": "https://dc.lft.to/lastmile_qr_scan", "ios": "https://dc.lft.to/lastmile_qr_scan"}, "lon": -77.03298216666667, "fusion_lat": 0.0, "is_disabled": 0, "is_reserved": 0, "lat": 38.92760633333333, "type": "electric_scooter"}, {"fusion_lon": 0.0, "bike_id": "8d5bb0eb1d468b7caaf227b2585914ee", "name": "8d5bb0eb1d468b7caaf227b2585914ee", "rental_uris": {"android": "https://dc.lft.to/lastmile_qr_scan", "ios": "https://dc.lft.to/lastmile_qr_scan"}, "lon": -76.99721333333333, "fusion_lat": 0.0, "is_disabled": 0, "is_reserved": 0, "lat": 38.89440866666666, "type": "electric_scooter"}, {"fusion_lon": 0.0, "bike_id": "cfacbad58be901d0bc4c79ba5eb040d1", "name": "cfacbad58be901d0bc4c79ba5eb040d1", "rental_uris": {"android": "https://dc.lft.to/lastmile_qr_scan", "ios": "https://dc.lft.to/lastmile_qr_scan"}, "lon": -76.95435416666666, "fusion_lat": 0.0, "is_disabled": 0, "is_reserved": 0, "lat": 38.88999783333333, "type": "electric_scooter"}, {"fusion_lon": 0.0, "bike_id": "527c9b57c647a19a4511c5091913607c", "name": "527c9b57c647a19a4511c5091913607c", "rental_uris": {"android": "https://dc.lft.to/lastmile_qr_scan", "ios": "https://dc.lft.to/lastmile_qr_scan"}, "lon": -77.03761333333334, "fusion_lat": 0.0, "is_disabled": 0, "is_reserved": 0, "lat": 38.916909833333335, "type": "electric_scooter"}, {"fusion_lon": 0.0, "bike_id": "dd29f6e59864497f41cb70cdaf39fe65", "name": "dd29f6e59864497f41cb70cdaf39fe65", "rental_uris": {"android": "https://dc.lft.to/lastmile_qr_scan", "ios": "https://dc.lft.to/lastmile_qr_scan"}, "lon": -77.04004066666667, "fusion_lat": 0.0, "is_disabled": 0, "is_reserved": 0, "lat": 38.934289166666666, "type": "electric_scooter"}, {"fusion_lon": 0.0, "bike_id": "ea5fdeab62d0a8ea94e11ea3e5c45bd2", "name": "ea5fdeab62d0a8ea94e11ea3e5c45bd2", "rental_uris": {"android": "https://dc.lft.to/lastmile_qr_scan", "ios": "https://dc.lft.to/lastmile_qr_scan"}, "lon": -77.03864616666667, "fusion_lat": 0.0, "is_disabled": 0, "is_reserved": 0, "lat": 38.91708033333333, "type": "electric_scooter"}, {"fusion_lon": 0.0, "bike_id": "f63fa16a156a41bb135bec8a9496de2a", "name": "f63fa16a156a41bb135bec8a9496de2a", "rental_uris": {"android": "https://dc.lft.to/lastmile_qr_scan", "ios": "https://dc.lft.to/lastmile_qr_scan"}, "lon": -77.06939483333333, "fusion_lat": 0.0, "is_disabled": 0, "is_reserved": 0, "lat": 38.9174535, "type": "electric_scooter"}, {"fusion_lon": 0.0, "bike_id": "65d1736052fa94b35873c07d87e496d2", "name": "65d1736052fa94b35873c07d87e496d2", "rental_uris": {"android": "https://dc.lft.to/lastmile_qr_scan", "ios": "https://dc.lft.to/lastmile_qr_scan"}, "lon": -77.02598833333333, "fusion_lat": 0.0, "is_disabled": 0, "is_reserved": 0, "lat": 38.916876333333335, "type": "electric_scooter"}, {"fusion_lon": 0.0, "bike_id": "d9a2addea564562c307a7b2a84b504c9", "name": "d9a2addea564562c307a7b2a84b504c9", "rental_uris": {"android": "https://dc.lft.to/lastmile_qr_scan", "ios": "https://dc.lft.to/lastmile_qr_scan"}, "lon": -77.024817, "fusion_lat": 0.0, "is_disabled": 0, "is_reserved": 0, "lat": 38.92401383333333, "type": "electric_scooter"}, {"fusion_lon": 0.0, "bike_id": "ce396ef77753e339716d80e787ae4bf2", "name": "ce396ef77753e339716d80e787ae4bf2", "rental_uris": {"android": "https://dc.lft.to/lastmile_qr_scan", "ios": "https://dc.lft.to/lastmile_qr_scan"}, "lon": -77.045511, "fusion_lat": 0.0, "is_disabled": 0, "is_reserved": 0, "lat": 38.912690166666664, "type": "electric_scooter"}, {"fusion_lon": 0.0, "bike_id": "502bf152183fa681bf4bf96fec2d99eb", "name": "502bf152183fa681bf4bf96fec2d99eb", "rental_uris": {"android": "https://dc.lft.to/lastmile_qr_scan", "ios": "https://dc.lft.to/lastmile_qr_scan"}, "lon": -77.0546915, "fusion_lat": 0.0, "is_disabled": 0, "is_reserved": 0, "lat": 38.9232975, "type": "electric_scooter"}, {"fusion_lon": 0.0, "bike_id": "0659f30d2c8396d27566001b0b5a0f52", "name": "0659f30d2c8396d27566001b0b5a0f52", "rental_uris": {"android": "https://dc.lft.to/lastmile_qr_scan", "ios": "https://dc.lft.to/lastmile_qr_scan"}, "lon": -77.02302616666667, "fusion_lat": 0.0, "is_disabled": 0, "is_reserved": 0, "lat": 38.966763, "type": "electric_bike"}, {"fusion_lon": 0.0, "bike_id": "9e6027024d6fb892283fe9c539ace510", "name": "9e6027024d6fb892283fe9c539ace510", "rental_uris": {"android": "https://dc.lft.to/lastmile_qr_scan", "ios": "https://dc.lft.to/lastmile_qr_scan"}, "lon": -77.04908666666667, "fusion_lat": 0.0, "is_disabled": 0, "is_reserved": 0, "lat": 38.897335166666664, "type": "electric_scooter"}, {"fusion_lon": 0.0, "bike_id": "62d3bb56cc783783e227507f73b696db", "name": "62d3bb56cc783783e227507f73b696db", "rental_uris": {"android": "https://dc.lft.to/lastmile_qr_scan", "ios": "https://dc.lft.to/lastmile_qr_scan"}, "lon": -77.044722, "fusion_lat": 0.0, "is_disabled": 0, "is_reserved": 0, "lat": 38.89219583333333, "type": "electric_scooter"}, {"fusion_lon": 0.0, "bike_id": "d0fad3efac8460169a9fb8a01386bc00", "name": "d0fad3efac8460169a9fb8a01386bc00", "rental_uris": {"android": "https://dc.lft.to/lastmile_qr_scan", "ios": "https://dc.lft.to/lastmile_qr_scan"}, "lon": -77.04179366666666, "fusion_lat": 0.0, "is_disabled": 0, "is_reserved": 0, "lat": 38.901325166666666, "type": "electric_scooter"}, {"fusion_lon": 0.0, "bike_id": "557023e9748abca8119f73dccdc03365", "name": "557023e9748abca8119f73dccdc03365", "rental_uris": {"android": "https://dc.lft.to/lastmile_qr_scan", "ios": "https://dc.lft.to/lastmile_qr_scan"}, "lon": -77.04692216666666, "fusion_lat": 0.0, "is_disabled": 0, "is_reserved": 0, "lat": 38.9003045, "type": "electric_scooter"}, {"fusion_lon": 0.0, "bike_id": "154d8fb505316e9c4dd3961d629c8dd9", "name": "154d8fb505316e9c4dd3961d629c8dd9", "rental_uris": {"android": "https://dc.lft.to/lastmile_qr_scan", "ios": "https://dc.lft.to/lastmile_qr_scan"}, "lon": -77.08142283333333, "fusion_lat": 0.0, "is_disabled": 0, "is_reserved": 0, "lat": 38.822989666666665, "type": "electric_bike"}, {"fusion_lon": 0.0, "bike_id": "806c7cf11819ce5f04ca283806aa1197", "name": "806c7cf11819ce5f04ca283806aa1197", "rental_uris": {"android": "https://dc.lft.to/lastmile_qr_scan", "ios": "https://dc.lft.to/lastmile_qr_scan"}, "lon": -77.0451065, "fusion_lat": 0.0, "is_disabled": 0, "is_reserved": 0, "lat": 38.899468666666664, "type": "electric_scooter"}, {"fusion_lon": 0.0, "bike_id": "3cd43c31f2f3799e2cd85bf0f385692f", "name": "3cd43c31f2f3799e2cd85bf0f385692f", "rental_uris": {"android": "https://dc.lft.to/lastmile_qr_scan", "ios": "https://dc.lft.to/lastmile_qr_scan"}, "lon": -77.04178916666666, "fusion_lat": 0.0, "is_disabled": 0, "is_reserved": 0, "lat": 38.90635483333333, "type": "electric_scooter"}, {"fusion_lon": 0.0, "bike_id": "6b50e830c958a936a2c6678a1ddcff8f", "name": "6b50e830c958a936a2c6678a1ddcff8f", "rental_uris": {"android": "https://dc.lft.to/lastmile_qr_scan", "ios": "https://dc.lft.to/lastmile_qr_scan"}, "lon": -77.0276035, "fusion_lat": 0.0, "is_disabled": 0, "is_reserved": 0, "lat": 38.956145166666666, "type": "electric_scooter"}, {"fusion_lon": 0.0, "bike_id": "e8ea43d75d801685d809f712532cdbe0", "name": "e8ea43d75d801685d809f712532cdbe0", "rental_uris": {"android": "https://dc.lft.to/lastmile_qr_scan", "ios": "https://dc.lft.to/lastmile_qr_scan"}, "lon": -76.997466, "fusion_lat": 0.0, "is_disabled": 0, "is_reserved": 0, "lat": 38.95642316666667, "type": "electric_bike"}, {"fusion_lon": 0.0, "bike_id": "c4cb0511b3460a70d9b3e80d342d9992", "name": "c4cb0511b3460a70d9b3e80d342d9992", "rental_uris": {"android": "https://dc.lft.to/lastmile_qr_scan", "ios": "https://dc.lft.to/lastmile_qr_scan"}, "lon": -77.03838533333334, "fusion_lat": 0.0, "is_disabled": 0, "is_reserved": 0, "lat": 38.91109016666667, "type": "electric_scooter"}, {"fusion_lon": 0.0, "bike_id": "7679aa2a2e9fb3ac632f09b406a60a78", "name": "7679aa2a2e9fb3ac632f09b406a60a78", "rental_uris": {"android": "https://dc.lft.to/lastmile_qr_scan", "ios": "https://dc.lft.to/lastmile_qr_scan"}, "lon": -77.04505066666667, "fusion_lat": 0.0, "is_disabled": 0, "is_reserved": 0, "lat": 38.8925555, "type": "electric_scooter"}, {"fusion_lon": 0.0, "bike_id": "b719b45a9685a8a51b9199f3cff49c2f", "name": "b719b45a9685a8a51b9199f3cff49c2f", "rental_uris": {"android": "https://dc.lft.to/lastmile_qr_scan", "ios": "https://dc.lft.to/lastmile_qr_scan"}, "lon": -77.02828966666667, "fusion_lat": 0.0, "is_disabled": 0, "is_reserved": 0, "lat": 38.88728, "type": "electric_scooter"}, {"fusion_lon": 0.0, "bike_id": "750efab23d2abf0fc2f6b5c7c402ca71", "name": "750efab23d2abf0fc2f6b5c7c402ca71", "rental_uris": {"android": "https://dc.lft.to/lastmile_qr_scan", "ios": "https://dc.lft.to/lastmile_qr_scan"}, "lon": -77.004468, "fusion_lat": 0.0, "is_disabled": 0, "is_reserved": 0, "lat": 38.911149, "type": "electric_scooter"}, {"fusion_lon": 0.0, "bike_id": "bf3cb4bfd05a9b21a2a09d24cd14b8b1", "name": "bf3cb4bfd05a9b21a2a09d24cd14b8b1", "rental_uris": {"android": "https://dc.lft.to/lastmile_qr_scan", "ios": "https://dc.lft.to/lastmile_qr_scan"}, "lon": -76.98583783333333, "fusion_lat": 0.0, "is_disabled": 0, "is_reserved": 0, "lat": 38.91491883333333, "type": "electric_bike"}, {"fusion_lon": 0.0, "bike_id": "d4e80258c016d1e8a6fa671edecd839d", "name": "d4e80258c016d1e8a6fa671edecd839d", "rental_uris": {"android": "https://dc.lft.to/lastmile_qr_scan", "ios": "https://dc.lft.to/lastmile_qr_scan"}, "lon": -77.03051416666666, "fusion_lat": 0.0, "is_disabled": 0, "is_reserved": 0, "lat": 38.913306166666665, "type": "electric_scooter"}, {"fusion_lon": 0.0, "bike_id": "9ac84d86e516313039ac430e12472cf0", "name": "9ac84d86e516313039ac430e12472cf0", "rental_uris": {"android": "https://dc.lft.to/lastmile_qr_scan", "ios": "https://dc.lft.to/lastmile_qr_scan"}, "lon": -77.04467566666666, "fusion_lat": 0.0, "is_disabled": 0, "is_reserved": 0, "lat": 38.905589, "type": "electric_scooter"}, {"fusion_lon": 0.0, "bike_id": "975cb5c3057ab1838f65a8150d2b7950", "name": "975cb5c3057ab1838f65a8150d2b7950", "rental_uris": {"android": "https://dc.lft.to/lastmile_qr_scan", "ios": "https://dc.lft.to/lastmile_qr_scan"}, "lon": -77.06519333333334, "fusion_lat": 0.0, "is_disabled": 0, "is_reserved": 0, "lat": 38.90393433333333, "type": "electric_scooter"}, {"fusion_lon": 0.0, "bike_id": "1208994a69908fc9c1c0a1adf98d51c4", "name": "1208994a69908fc9c1c0a1adf98d51c4", "rental_uris": {"android": "https://dc.lft.to/lastmile_qr_scan", "ios": "https://dc.lft.to/lastmile_qr_scan"}, "lon": -77.03859633333333, "fusion_lat": 0.0, "is_disabled": 0, "is_reserved": 0, "lat": 38.919679333333335, "type": "electric_scooter"}, {"fusion_lon": 0.0, "bike_id": "c8f27190db1552a4885b2691cd35f526", "name": "c8f27190db1552a4885b2691cd35f526", "rental_uris": {"android": "https://dc.lft.to/lastmile_qr_scan", "ios": "https://dc.lft.to/lastmile_qr_scan"}, "lon": -77.05011666666667, "fusion_lat": 0.0, "is_disabled": 0, "is_reserved": 0, "lat": 38.89874233333333, "type": "electric_scooter"}, {"fusion_lon": 0.0, "bike_id": "2b005fc6d3da5e5e6c269a572ed561dc", "name": "2b005fc6d3da5e5e6c269a572ed561dc", "rental_uris": {"android": "https://dc.lft.to/lastmile_qr_scan", "ios": "https://dc.lft.to/lastmile_qr_scan"}, "lon": -77.04884483333333, "fusion_lat": 0.0, "is_disabled": 0, "is_reserved": 0, "lat": 38.89960883333333, "type": "electric_scooter"}, {"fusion_lon": 0.0, "bike_id": "68222249a4efc7397d68962effd388bb", "name": "68222249a4efc7397d68962effd388bb", "rental_uris": {"android": "https://dc.lft.to/lastmile_qr_scan", "ios": "https://dc.lft.to/lastmile_qr_scan"}, "lon": -77.0215145, "fusion_lat": 0.0, "is_disabled": 0, "is_reserved": 0, "lat": 38.8940495, "type": "electric_scooter"}, {"fusion_lon": 0.0, "bike_id": "7c0ee3696b5ec344eb99c3ccd00da6b8", "name": "7c0ee3696b5ec344eb99c3ccd00da6b8", "rental_uris": {"android": "https://dc.lft.to/lastmile_qr_scan", "ios": "https://dc.lft.to/lastmile_qr_scan"}, "lon": -77.019403, "fusion_lat": 0.0, "is_disabled": 0, "is_reserved": 0, "lat": 38.922487333333336, "type": "electric_scooter"}, {"fusion_lon": 0.0, "bike_id": "046132fa357834937cf2234f8a5f166b", "name": "046132fa357834937cf2234f8a5f166b", "rental_uris": {"android": "https://dc.lft.to/lastmile_qr_scan", "ios": "https://dc.lft.to/lastmile_qr_scan"}, "lon": -77.04176566666666, "fusion_lat": 0.0, "is_disabled": 0, "is_reserved": 0, "lat": 38.9036715, "type": "electric_scooter"}, {"fusion_lon": 0.0, "bike_id": "90186fc73962707ae3427aa3c9e9b551", "name": "90186fc73962707ae3427aa3c9e9b551", "rental_uris": {"android": "https://dc.lft.to/lastmile_qr_scan", "ios": "https://dc.lft.to/lastmile_qr_scan"}, "lon": -77.02974183333333, "fusion_lat": 0.0, "is_disabled": 0, "is_reserved": 0, "lat": 38.9189405, "type": "electric_scooter"}, {"fusion_lon": 0.0, "bike_id": "761d71f952ac1fe3930fea3549e969c4", "name": "761d71f952ac1fe3930fea3549e969c4", "rental_uris": {"android": "https://dc.lft.to/lastmile_qr_scan", "ios": "https://dc.lft.to/lastmile_qr_scan"}, "lon": -77.01361383333334, "fusion_lat": 0.0, "is_disabled": 0, "is_reserved": 0, "lat": 38.87269083333333, "type": "electric_scooter"}, {"fusion_lon": 0.0, "bike_id": "a40dcb920d0411fdc5eac7e5c14b8989", "name": "a40dcb920d0411fdc5eac7e5c14b8989", "rental_uris": {"android": "https://dc.lft.to/lastmile_qr_scan", "ios": "https://dc.lft.to/lastmile_qr_scan"}, "lon": -77.02126433333333, "fusion_lat": 0.0, "is_disabled": 0, "is_reserved": 0, "lat": 38.894036666666665, "type": "electric_scooter"}, {"fusion_lon": 0.0, "bike_id": "c99aa31e2cfbe24d8fe97a312e43f644", "name": "c99aa31e2cfbe24d8fe97a312e43f644", "rental_uris": {"android": "https://dc.lft.to/lastmile_qr_scan", "ios": "https://dc.lft.to/lastmile_qr_scan"}, "lon": -77.0216455, "fusion_lat": 0.0, "is_disabled": 0, "is_reserved": 0, "lat": 38.92487083333333, "type": "electric_scooter"}, {"fusion_lon": 0.0, "bike_id": "9f677a9da681b92aa134381850024352", "name": "9f677a9da681b92aa134381850024352", "rental_uris": {"android": "https://dc.lft.to/lastmile_qr_scan", "ios": "https://dc.lft.to/lastmile_qr_scan"}, "lon": -77.01974916666667, "fusion_lat": 0.0, "is_disabled": 0, "is_reserved": 0, "lat": 38.93422133333333, "type": "electric_scooter"}, {"fusion_lon": 0.0, "bike_id": "3ce382d4319b0a9a008d53ad4216a199", "name": "3ce382d4319b0a9a008d53ad4216a199", "rental_uris": {"android": "https://dc.lft.to/lastmile_qr_scan", "ios": "https://dc.lft.to/lastmile_qr_scan"}, "lon": -76.97845966666667, "fusion_lat": 0.0, "is_disabled": 0, "is_reserved": 0, "lat": 38.869701, "type": "electric_scooter"}, {"fusion_lon": 0.0, "bike_id": "6cf73abdc03e8471933bb1037d2b7ebb", "name": "6cf73abdc03e8471933bb1037d2b7ebb", "rental_uris": {"android": "https://dc.lft.to/lastmile_qr_scan", "ios": "https://dc.lft.to/lastmile_qr_scan"}, "lon": -76.99647616666667, "fusion_lat": 0.0, "is_disabled": 0, "is_reserved": 0, "lat": 38.898850333333336, "type": "electric_scooter"}, {"fusion_lon": 0.0, "bike_id": "0a7e024ee49b61a4bac2dd2dc295e021", "name": "0a7e024ee49b61a4bac2dd2dc295e021", "rental_uris": {"android": "https://dc.lft.to/lastmile_qr_scan", "ios": "https://dc.lft.to/lastmile_qr_scan"}, "lon": -77.05171683333333, "fusion_lat": 0.0, "is_disabled": 0, "is_reserved": 0, "lat": 38.923464333333335, "type": "electric_scooter"}, {"fusion_lon": 0.0, "bike_id": "f469892385b2c71b3a326c748efe20ba", "name": "f469892385b2c71b3a326c748efe20ba", "rental_uris": {"android": "https://dc.lft.to/lastmile_qr_scan", "ios": "https://dc.lft.to/lastmile_qr_scan"}, "lon": -77.01822016666667, "fusion_lat": 0.0, "is_disabled": 0, "is_reserved": 0, "lat": 38.90075733333333, "type": "electric_scooter"}, {"fusion_lon": 0.0, "bike_id": "1934a00d7744d755f0746157e02f351f", "name": "1934a00d7744d755f0746157e02f351f", "rental_uris": {"android": "https://dc.lft.to/lastmile_qr_scan", "ios": "https://dc.lft.to/lastmile_qr_scan"}, "lon": -77.03866783333334, "fusion_lat": 0.0, "is_disabled": 0, "is_reserved": 0, "lat": 38.91710716666667, "type": "electric_scooter"}, {"fusion_lon": 0.0, "bike_id": "27fd04e6769705173a5dccc1412f90a5", "name": "27fd04e6769705173a5dccc1412f90a5", "rental_uris": {"android": "https://dc.lft.to/lastmile_qr_scan", "ios": "https://dc.lft.to/lastmile_qr_scan"}, "lon": -77.0416345, "fusion_lat": 0.0, "is_disabled": 0, "is_reserved": 0, "lat": 38.892378, "type": "electric_scooter"}, {"fusion_lon": 0.0, "bike_id": "6e47c69960d23c2198e19bb8974364b2", "name": "6e47c69960d23c2198e19bb8974364b2", "rental_uris": {"android": "https://dc.lft.to/lastmile_qr_scan", "ios": "https://dc.lft.to/lastmile_qr_scan"}, "lon": -77.07257216666666, "fusion_lat": 0.0, "is_disabled": 0, "is_reserved": 0, "lat": 38.90785533333333, "type": "electric_scooter"}, {"fusion_lon": 0.0, "bike_id": "23c1a1f0b04ca336f9bb3f4e39f29872", "name": "23c1a1f0b04ca336f9bb3f4e39f29872", "rental_uris": {"android": "https://dc.lft.to/lastmile_qr_scan", "ios": "https://dc.lft.to/lastmile_qr_scan"}, "lon": -77.01966083333333, "fusion_lat": 0.0, "is_disabled": 0, "is_reserved": 0, "lat": 38.92190566666667, "type": "electric_scooter"}, {"fusion_lon": 0.0, "bike_id": "add8065f7d68fac43ef370607b692b0a", "name": "add8065f7d68fac43ef370607b692b0a", "rental_uris": {"android": "https://dc.lft.to/lastmile_qr_scan", "ios": "https://dc.lft.to/lastmile_qr_scan"}, "lon": -77.03994283333333, "fusion_lat": 0.0, "is_disabled": 0, "is_reserved": 0, "lat": 38.916445833333334, "type": "electric_scooter"}, {"fusion_lon": 0.0, "bike_id": "97708f6295f811f543c71b56dc9c8d02", "name": "97708f6295f811f543c71b56dc9c8d02", "rental_uris": {"android": "https://dc.lft.to/lastmile_qr_scan", "ios": "https://dc.lft.to/lastmile_qr_scan"}, "lon": -76.9979665, "fusion_lat": 0.0, "is_disabled": 0, "is_reserved": 0, "lat": 38.88561083333333, "type": "electric_scooter"}, {"fusion_lon": 0.0, "bike_id": "204909bc70a593a0ea4b0c9f77ea8c90", "name": "204909bc70a593a0ea4b0c9f77ea8c90", "rental_uris": {"android": "https://dc.lft.to/lastmile_qr_scan", "ios": "https://dc.lft.to/lastmile_qr_scan"}, "lon": -77.002181, "fusion_lat": 0.0, "is_disabled": 0, "is_reserved": 0, "lat": 38.874077666666665, "type": "electric_scooter"}, {"fusion_lon": 0.0, "bike_id": "8043e3f698f1ce9260faf5d3a1a5d062", "name": "8043e3f698f1ce9260faf5d3a1a5d062", "rental_uris": {"android": "https://dc.lft.to/lastmile_qr_scan", "ios": "https://dc.lft.to/lastmile_qr_scan"}, "lon": -77.02078616666667, "fusion_lat": 0.0, "is_disabled": 0, "is_reserved": 0, "lat": 38.904154, "type": "electric_scooter"}, {"fusion_lon": 0.0, "bike_id": "1c939edea800e754fc469627a859219f", "name": "1c939edea800e754fc469627a859219f", "rental_uris": {"android": "https://dc.lft.to/lastmile_qr_scan", "ios": "https://dc.lft.to/lastmile_qr_scan"}, "lon": -77.03277583333333, "fusion_lat": 0.0, "is_disabled": 0, "is_reserved": 0, "lat": 38.9126565, "type": "electric_scooter"}, {"fusion_lon": 0.0, "bike_id": "dc2f4b323b67a9dfce4133968fba7786", "name": "dc2f4b323b67a9dfce4133968fba7786", "rental_uris": {"android": "https://dc.lft.to/lastmile_qr_scan", "ios": "https://dc.lft.to/lastmile_qr_scan"}, "lon": -77.06684366666667, "fusion_lat": 0.0, "is_disabled": 0, "is_reserved": 0, "lat": 38.903858, "type": "electric_scooter"}, {"fusion_lon": 0.0, "bike_id": "b2b940928372684927dd58c946ce1661", "name": "b2b940928372684927dd58c946ce1661", "rental_uris": {"android": "https://dc.lft.to/lastmile_qr_scan", "ios": "https://dc.lft.to/lastmile_qr_scan"}, "lon": -77.00881033333333, "fusion_lat": 0.0, "is_disabled": 0, "is_reserved": 0, "lat": 38.879151, "type": "electric_scooter"}, {"fusion_lon": 0.0, "bike_id": "f6f1fb6ace42aaa6199bcc3f99aa1543", "name": "f6f1fb6ace42aaa6199bcc3f99aa1543", "rental_uris": {"android": "https://dc.lft.to/lastmile_qr_scan", "ios": "https://dc.lft.to/lastmile_qr_scan"}, "lon": -77.0194265, "fusion_lat": 0.0, "is_disabled": 0, "is_reserved": 0, "lat": 38.9024075, "type": "electric_scooter"}, {"fusion_lon": 0.0, "bike_id": "e9fb3f8f23b9857ec65b23a2f1c08a32", "name": "e9fb3f8f23b9857ec65b23a2f1c08a32", "rental_uris": {"android": "https://dc.lft.to/lastmile_qr_scan", "ios": "https://dc.lft.to/lastmile_qr_scan"}, "lon": -77.036199, "fusion_lat": 0.0, "is_disabled": 0, "is_reserved": 0, "lat": 38.93325166666666, "type": "electric_scooter"}, {"fusion_lon": 0.0, "bike_id": "8086ee1958fb771898a2b6a10c7a1823", "name": "8086ee1958fb771898a2b6a10c7a1823", "rental_uris": {"android": "https://dc.lft.to/lastmile_qr_scan", "ios": "https://dc.lft.to/lastmile_qr_scan"}, "lon": -77.01265166666667, "fusion_lat": 0.0, "is_disabled": 0, "is_reserved": 0, "lat": 38.9001115, "type": "electric_scooter"}, {"fusion_lon": 0.0, "bike_id": "d58fb78455b860cf89493941130469af", "name": "d58fb78455b860cf89493941130469af", "rental_uris": {"android": "https://dc.lft.to/lastmile_qr_scan", "ios": "https://dc.lft.to/lastmile_qr_scan"}, "lon": -77.07702716666667, "fusion_lat": 0.0, "is_disabled": 0, "is_reserved": 0, "lat": 38.931594, "type": "electric_scooter"}, {"fusion_lon": 0.0, "bike_id": "e2e7a1c05a5a6d6ff22f3933e7d91aa0", "name": "e2e7a1c05a5a6d6ff22f3933e7d91aa0", "rental_uris": {"android": "https://dc.lft.to/lastmile_qr_scan", "ios": "https://dc.lft.to/lastmile_qr_scan"}, "lon": -77.0275815, "fusion_lat": 0.0, "is_disabled": 0, "is_reserved": 0, "lat": 38.902445, "type": "electric_scooter"}, {"fusion_lon": 0.0, "bike_id": "171049345fb50e69c157385cd68061b6", "name": "171049345fb50e69c157385cd68061b6", "rental_uris": {"android": "https://dc.lft.to/lastmile_qr_scan", "ios": "https://dc.lft.to/lastmile_qr_scan"}, "lon": -76.96719616666667, "fusion_lat": 0.0, "is_disabled": 0, "is_reserved": 0, "lat": 38.860612833333334, "type": "electric_scooter"}, {"fusion_lon": 0.0, "bike_id": "eead14cb274c15caf5fe5fc8bdf0f24c", "name": "eead14cb274c15caf5fe5fc8bdf0f24c", "rental_uris": {"android": "https://dc.lft.to/lastmile_qr_scan", "ios": "https://dc.lft.to/lastmile_qr_scan"}, "lon": -77.041345, "fusion_lat": 0.0, "is_disabled": 0, "is_reserved": 0, "lat": 38.923078333333336, "type": "electric_scooter"}, {"fusion_lon": 0.0, "bike_id": "bdda1e7835a563b1013df8331a5564a2", "name": "bdda1e7835a563b1013df8331a5564a2", "rental_uris": {"android": "https://dc.lft.to/lastmile_qr_scan", "ios": "https://dc.lft.to/lastmile_qr_scan"}, "lon": -77.01797533333334, "fusion_lat": 0.0, "is_disabled": 0, "is_reserved": 0, "lat": 38.90642966666667, "type": "electric_scooter"}, {"fusion_lon": 0.0, "bike_id": "4aca7deda563a4f6b8c3eb1d68b3aca4", "name": "4aca7deda563a4f6b8c3eb1d68b3aca4", "rental_uris": {"android": "https://dc.lft.to/lastmile_qr_scan", "ios": "https://dc.lft.to/lastmile_qr_scan"}, "lon": -77.016294, "fusion_lat": 0.0, "is_disabled": 0, "is_reserved": 0, "lat": 38.90323566666667, "type": "electric_scooter"}, {"fusion_lon": 0.0, "bike_id": "427d01a78d3c1c00b7246d9aa9dbbbc2", "name": "427d01a78d3c1c00b7246d9aa9dbbbc2", "rental_uris": {"android": "https://dc.lft.to/lastmile_qr_scan", "ios": "https://dc.lft.to/lastmile_qr_scan"}, "lon": -77.04005183333334, "fusion_lat": 0.0, "is_disabled": 0, "is_reserved": 0, "lat": 38.90838683333333, "type": "electric_scooter"}, {"fusion_lon": 0.0, "bike_id": "e1dc397f8928f51e4cea6125066931ed", "name": "e1dc397f8928f51e4cea6125066931ed", "rental_uris": {"android": "https://dc.lft.to/lastmile_qr_scan", "ios": "https://dc.lft.to/lastmile_qr_scan"}, "lon": -77.047013, "fusion_lat": 0.0, "is_disabled": 0, "is_reserved": 0, "lat": 38.917041, "type": "electric_scooter"}, {"fusion_lon": 0.0, "bike_id": "3c39383aeb536242251731fcbbcc9682", "name": "3c39383aeb536242251731fcbbcc9682", "rental_uris": {"android": "https://dc.lft.to/lastmile_qr_scan", "ios": "https://dc.lft.to/lastmile_qr_scan"}, "lon": -77.042479, "fusion_lat": 0.0, "is_disabled": 0, "is_reserved": 0, "lat": 38.9222425, "type": "electric_scooter"}, {"fusion_lon": 0.0, "bike_id": "d6e4b23d7ae75f920e9333d688c39b60", "name": "d6e4b23d7ae75f920e9333d688c39b60", "rental_uris": {"android": "https://dc.lft.to/lastmile_qr_scan", "ios": "https://dc.lft.to/lastmile_qr_scan"}, "lon": -77.05034566666667, "fusion_lat": 0.0, "is_disabled": 0, "is_reserved": 0, "lat": 39.03900183333333, "type": "electric_bike"}, {"fusion_lon": 0.0, "bike_id": "53bbb451aced518d93b3948df0bd66c5", "name": "53bbb451aced518d93b3948df0bd66c5", "rental_uris": {"android": "https://dc.lft.to/lastmile_qr_scan", "ios": "https://dc.lft.to/lastmile_qr_scan"}, "lon": -77.05816233333333, "fusion_lat": 0.0, "is_disabled": 0, "is_reserved": 0, "lat": 38.93592316666667, "type": "electric_scooter"}, {"fusion_lon": 0.0, "bike_id": "429a6cf709e7c28a11047a72e7811984", "name": "429a6cf709e7c28a11047a72e7811984", "rental_uris": {"android": "https://dc.lft.to/lastmile_qr_scan", "ios": "https://dc.lft.to/lastmile_qr_scan"}, "lon": -76.93387883333334, "fusion_lat": 0.0, "is_disabled": 0, "is_reserved": 0, "lat": 38.89912183333333, "type": "electric_scooter"}, {"fusion_lon": 0.0, "bike_id": "dec6fb558e18d2a9a1563fe4a8b209ad", "name": "dec6fb558e18d2a9a1563fe4a8b209ad", "rental_uris": {"android": "https://dc.lft.to/lastmile_qr_scan", "ios": "https://dc.lft.to/lastmile_qr_scan"}, "lon": -77.02932666666666, "fusion_lat": 0.0, "is_disabled": 0, "is_reserved": 0, "lat": 38.942778833333335, "type": "electric_scooter"}, {"fusion_lon": 0.0, "bike_id": "5ba4ae633531803e327adda0cf26c756", "name": "5ba4ae633531803e327adda0cf26c756", "rental_uris": {"android": "https://dc.lft.to/lastmile_qr_scan", "ios": "https://dc.lft.to/lastmile_qr_scan"}, "lon": -77.069191, "fusion_lat": 0.0, "is_disabled": 0, "is_reserved": 0, "lat": 38.806805, "type": "electric_bike"}, {"fusion_lon": 0.0, "bike_id": "6b5817f54f26b88e8eeaac71ec56f36a", "name": "6b5817f54f26b88e8eeaac71ec56f36a", "rental_uris": {"android": "https://dc.lft.to/lastmile_qr_scan", "ios": "https://dc.lft.to/lastmile_qr_scan"}, "lon": -77.031689, "fusion_lat": 0.0, "is_disabled": 0, "is_reserved": 0, "lat": 38.9181805, "type": "electric_scooter"}, {"fusion_lon": 0.0, "bike_id": "b32bf2991f39f16cade616623a5cc0d0", "name": "b32bf2991f39f16cade616623a5cc0d0", "rental_uris": {"android": "https://dc.lft.to/lastmile_qr_scan", "ios": "https://dc.lft.to/lastmile_qr_scan"}, "lon": -77.03634666666666, "fusion_lat": 0.0, "is_disabled": 0, "is_reserved": 0, "lat": 38.935098333333336, "type": "electric_scooter"}, {"fusion_lon": 0.0, "bike_id": "b21c1ad35bc3001edeb94a03aaf5288a", "name": "b21c1ad35bc3001edeb94a03aaf5288a", "rental_uris": {"android": "https://dc.lft.to/lastmile_qr_scan", "ios": "https://dc.lft.to/lastmile_qr_scan"}, "lon": -77.03040333333334, "fusion_lat": 0.0, "is_disabled": 0, "is_reserved": 0, "lat": 38.897471833333334, "type": "electric_scooter"}, {"fusion_lon": 0.0, "bike_id": "710d264487fb00a0b2e5e961cf3e0f0f", "name": "710d264487fb00a0b2e5e961cf3e0f0f", "rental_uris": {"android": "https://dc.lft.to/lastmile_qr_scan", "ios": "https://dc.lft.to/lastmile_qr_scan"}, "lon": -77.02227116666667, "fusion_lat": 0.0, "is_disabled": 0, "is_reserved": 0, "lat": 38.897302, "type": "electric_scooter"}, {"fusion_lon": 0.0, "bike_id": "04b71136c340787902ddd59f5a53f940", "name": "04b71136c340787902ddd59f5a53f940", "rental_uris": {"android": "https://dc.lft.to/lastmile_qr_scan", "ios": "https://dc.lft.to/lastmile_qr_scan"}, "lon": -77.0405895, "fusion_lat": 0.0, "is_disabled": 0, "is_reserved": 0, "lat": 38.9087705, "type": "electric_scooter"}, {"fusion_lon": 0.0, "bike_id": "a0456122b583f1ae678901b46d3fbaf3", "name": "a0456122b583f1ae678901b46d3fbaf3", "rental_uris": {"android": "https://dc.lft.to/lastmile_qr_scan", "ios": "https://dc.lft.to/lastmile_qr_scan"}, "lon": -76.97890616666666, "fusion_lat": 0.0, "is_disabled": 0, "is_reserved": 0, "lat": 38.88541883333333, "type": "electric_scooter"}, {"fusion_lon": 0.0, "bike_id": "c89b6f35c88094e185816f20c857b47a", "name": "c89b6f35c88094e185816f20c857b47a", "rental_uris": {"android": "https://dc.lft.to/lastmile_qr_scan", "ios": "https://dc.lft.to/lastmile_qr_scan"}, "lon": -77.010312, "fusion_lat": 0.0, "is_disabled": 0, "is_reserved": 0, "lat": 38.92029133333333, "type": "electric_scooter"}, {"fusion_lon": 0.0, "bike_id": "f2ce44a0eed90d12dd5b1ddc56ccbdef", "name": "f2ce44a0eed90d12dd5b1ddc56ccbdef", "rental_uris": {"android": "https://dc.lft.to/lastmile_qr_scan", "ios": "https://dc.lft.to/lastmile_qr_scan"}, "lon": -77.01480083333334, "fusion_lat": 0.0, "is_disabled": 0, "is_reserved": 0, "lat": 38.943303, "type": "electric_scooter"}, {"fusion_lon": 0.0, "bike_id": "b689336763361cdb4f800d4814ed6394", "name": "b689336763361cdb4f800d4814ed6394", "rental_uris": {"android": "https://dc.lft.to/lastmile_qr_scan", "ios": "https://dc.lft.to/lastmile_qr_scan"}, "lon": -77.046603, "fusion_lat": 0.0, "is_disabled": 0, "is_reserved": 0, "lat": 38.89836733333333, "type": "electric_scooter"}, {"fusion_lon": 0.0, "bike_id": "23364d8270c6b2715f5599720c4d8f8c", "name": "23364d8270c6b2715f5599720c4d8f8c", "rental_uris": {"android": "https://dc.lft.to/lastmile_qr_scan", "ios": "https://dc.lft.to/lastmile_qr_scan"}, "lon": -76.98569866666666, "fusion_lat": 0.0, "is_disabled": 0, "is_reserved": 0, "lat": 38.89617, "type": "electric_scooter"}, {"fusion_lon": 0.0, "bike_id": "4debeb842033a52674dacd1db2a429bf", "name": "4debeb842033a52674dacd1db2a429bf", "rental_uris": {"android": "https://dc.lft.to/lastmile_qr_scan", "ios": "https://dc.lft.to/lastmile_qr_scan"}, "lon": -77.02795866666666, "fusion_lat": 0.0, "is_disabled": 0, "is_reserved": 0, "lat": 38.895153666666666, "type": "electric_scooter"}, {"fusion_lon": 0.0, "bike_id": "279c258a4fd1bb37fe9f6b5753ee38d4", "name": "279c258a4fd1bb37fe9f6b5753ee38d4", "rental_uris": {"android": "https://dc.lft.to/lastmile_qr_scan", "ios": "https://dc.lft.to/lastmile_qr_scan"}, "lon": -77.031505, "fusion_lat": 0.0, "is_disabled": 0, "is_reserved": 0, "lat": 38.916245, "type": "electric_scooter"}, {"fusion_lon": 0.0, "bike_id": "06f12a59f33f5d1a87fd3128a0441c27", "name": "06f12a59f33f5d1a87fd3128a0441c27", "rental_uris": {"android": "https://dc.lft.to/lastmile_qr_scan", "ios": "https://dc.lft.to/lastmile_qr_scan"}, "lon": -77.02606333333334, "fusion_lat": 0.0, "is_disabled": 0, "is_reserved": 0, "lat": 38.898604666666664, "type": "electric_scooter"}, {"fusion_lon": 0.0, "bike_id": "df72e637c5a863a7616b6ff77854f5f4", "name": "df72e637c5a863a7616b6ff77854f5f4", "rental_uris": {"android": "https://dc.lft.to/lastmile_qr_scan", "ios": "https://dc.lft.to/lastmile_qr_scan"}, "lon": -77.0314975, "fusion_lat": 0.0, "is_disabled": 0, "is_reserved": 0, "lat": 38.912683, "type": "electric_scooter"}, {"fusion_lon": 0.0, "bike_id": "c405e769840c53729c07e335a4cbe9f4", "name": "c405e769840c53729c07e335a4cbe9f4", "rental_uris": {"android": "https://dc.lft.to/lastmile_qr_scan", "ios": "https://dc.lft.to/lastmile_qr_scan"}, "lon": -77.02730333333334, "fusion_lat": 0.0, "is_disabled": 0, "is_reserved": 0, "lat": 38.93670616666667, "type": "electric_scooter"}, {"fusion_lon": 0.0, "bike_id": "e4fa147f9421878a805d6aa938745cdb", "name": "e4fa147f9421878a805d6aa938745cdb", "rental_uris": {"android": "https://dc.lft.to/lastmile_qr_scan", "ios": "https://dc.lft.to/lastmile_qr_scan"}, "lon": -77.04598733333333, "fusion_lat": 0.0, "is_disabled": 0, "is_reserved": 0, "lat": 38.9027855, "type": "electric_scooter"}, {"fusion_lon": 0.0, "bike_id": "23f0011c871166a2161ffe6c1253048a", "name": "23f0011c871166a2161ffe6c1253048a", "rental_uris": {"android": "https://dc.lft.to/lastmile_qr_scan", "ios": "https://dc.lft.to/lastmile_qr_scan"}, "lon": -77.0281305, "fusion_lat": 0.0, "is_disabled": 0, "is_reserved": 0, "lat": 38.90953483333333, "type": "electric_scooter"}, {"fusion_lon": 0.0, "bike_id": "2d483bb526ed9a51062d57da23e66db6", "name": "2d483bb526ed9a51062d57da23e66db6", "rental_uris": {"android": "https://dc.lft.to/lastmile_qr_scan", "ios": "https://dc.lft.to/lastmile_qr_scan"}, "lon": -77.0214065, "fusion_lat": 0.0, "is_disabled": 0, "is_reserved": 0, "lat": 38.919860666666665, "type": "electric_scooter"}, {"fusion_lon": 0.0, "bike_id": "c9252fa29900dd656efcd61e295db4c2", "name": "c9252fa29900dd656efcd61e295db4c2", "rental_uris": {"android": "https://dc.lft.to/lastmile_qr_scan", "ios": "https://dc.lft.to/lastmile_qr_scan"}, "lon": -77.04835266666667, "fusion_lat": 0.0, "is_disabled": 0, "is_reserved": 0, "lat": 38.92108433333333, "type": "electric_scooter"}, {"fusion_lon": 0.0, "bike_id": "e9155f1bc34de558a7480ea009e9b0eb", "name": "e9155f1bc34de558a7480ea009e9b0eb", "rental_uris": {"android": "https://dc.lft.to/lastmile_qr_scan", "ios": "https://dc.lft.to/lastmile_qr_scan"}, "lon": -76.96973033333333, "fusion_lat": 0.0, "is_disabled": 0, "is_reserved": 0, "lat": 38.87388216666667, "type": "electric_scooter"}, {"fusion_lon": 0.0, "bike_id": "694f882bc93932513c39488bf2fc62a2", "name": "694f882bc93932513c39488bf2fc62a2", "rental_uris": {"android": "https://dc.lft.to/lastmile_qr_scan", "ios": "https://dc.lft.to/lastmile_qr_scan"}, "lon": -77.07300983333333, "fusion_lat": 0.0, "is_disabled": 0, "is_reserved": 0, "lat": 38.929091, "type": "electric_scooter"}, {"fusion_lon": 0.0, "bike_id": "10585cce686727ef71870c1f8ff8377a", "name": "10585cce686727ef71870c1f8ff8377a", "rental_uris": {"android": "https://dc.lft.to/lastmile_qr_scan", "ios": "https://dc.lft.to/lastmile_qr_scan"}, "lon": -77.00579333333333, "fusion_lat": 0.0, "is_disabled": 0, "is_reserved": 0, "lat": 38.92933133333333, "type": "electric_scooter"}, {"fusion_lon": 0.0, "bike_id": "d3b1d1a85eab211977fb45f3ad5d00e0", "name": "d3b1d1a85eab211977fb45f3ad5d00e0", "rental_uris": {"android": "https://dc.lft.to/lastmile_qr_scan", "ios": "https://dc.lft.to/lastmile_qr_scan"}, "lon": -77.02557033333333, "fusion_lat": 0.0, "is_disabled": 0, "is_reserved": 0, "lat": 38.94835166666667, "type": "electric_scooter"}, {"fusion_lon": 0.0, "bike_id": "f51f11adfddb2c3ed217106976edb5d5", "name": "f51f11adfddb2c3ed217106976edb5d5", "rental_uris": {"android": "https://dc.lft.to/lastmile_qr_scan", "ios": "https://dc.lft.to/lastmile_qr_scan"}, "lon": -77.0173665, "fusion_lat": 0.0, "is_disabled": 0, "is_reserved": 0, "lat": 38.88339716666667, "type": "electric_scooter"}, {"fusion_lon": 0.0, "bike_id": "c88780f118ad29c69fd98dc3bbab178a", "name": "c88780f118ad29c69fd98dc3bbab178a", "rental_uris": {"android": "https://dc.lft.to/lastmile_qr_scan", "ios": "https://dc.lft.to/lastmile_qr_scan"}, "lon": -77.046559, "fusion_lat": 0.0, "is_disabled": 0, "is_reserved": 0, "lat": 38.8922345, "type": "electric_scooter"}, {"fusion_lon": 0.0, "bike_id": "baf496419671633506f54b93a41ebce2", "name": "baf496419671633506f54b93a41ebce2", "rental_uris": {"android": "https://dc.lft.to/lastmile_qr_scan", "ios": "https://dc.lft.to/lastmile_qr_scan"}, "lon": -77.04674133333333, "fusion_lat": 0.0, "is_disabled": 0, "is_reserved": 0, "lat": 38.892700833333336, "type": "electric_scooter"}, {"fusion_lon": 0.0, "bike_id": "944e1d2529ec4195325b793932f799d4", "name": "944e1d2529ec4195325b793932f799d4", "rental_uris": {"android": "https://dc.lft.to/lastmile_qr_scan", "ios": "https://dc.lft.to/lastmile_qr_scan"}, "lon": -77.0350395, "fusion_lat": 0.0, "is_disabled": 0, "is_reserved": 0, "lat": 38.9308825, "type": "electric_scooter"}, {"fusion_lon": 0.0, "bike_id": "d9a13293f6b3aee8ac6f8aa8ec4b7262", "name": "d9a13293f6b3aee8ac6f8aa8ec4b7262", "rental_uris": {"android": "https://dc.lft.to/lastmile_qr_scan", "ios": "https://dc.lft.to/lastmile_qr_scan"}, "lon": -77.0269375, "fusion_lat": 0.0, "is_disabled": 0, "is_reserved": 0, "lat": 38.904285, "type": "electric_scooter"}, {"fusion_lon": 0.0, "bike_id": "f4a227b3e327c19fd9e7fab45f4217f3", "name": "f4a227b3e327c19fd9e7fab45f4217f3", "rental_uris": {"android": "https://dc.lft.to/lastmile_qr_scan", "ios": "https://dc.lft.to/lastmile_qr_scan"}, "lon": -77.03184066666667, "fusion_lat": 0.0, "is_disabled": 0, "is_reserved": 0, "lat": 38.89986866666667, "type": "electric_scooter"}, {"fusion_lon": 0.0, "bike_id": "1a8e86645049ae40f076cc9e68864e22", "name": "1a8e86645049ae40f076cc9e68864e22", "rental_uris": {"android": "https://dc.lft.to/lastmile_qr_scan", "ios": "https://dc.lft.to/lastmile_qr_scan"}, "lon": -76.97611333333333, "fusion_lat": 0.0, "is_disabled": 0, "is_reserved": 0, "lat": 38.90386183333333, "type": "electric_scooter"}, {"fusion_lon": 0.0, "bike_id": "fc8aa9ac3db8ea44358a3846d6cf7249", "name": "fc8aa9ac3db8ea44358a3846d6cf7249", "rental_uris": {"android": "https://dc.lft.to/lastmile_qr_scan", "ios": "https://dc.lft.to/lastmile_qr_scan"}, "lon": -77.039623, "fusion_lat": 0.0, "is_disabled": 0, "is_reserved": 0, "lat": 38.892464833333335, "type": "electric_scooter"}, {"fusion_lon": 0.0, "bike_id": "dc9b106e84ef8b74573df4b8a6057313", "name": "dc9b106e84ef8b74573df4b8a6057313", "rental_uris": {"android": "https://dc.lft.to/lastmile_qr_scan", "ios": "https://dc.lft.to/lastmile_qr_scan"}, "lon": -77.020979, "fusion_lat": 0.0, "is_disabled": 0, "is_reserved": 0, "lat": 38.927102, "type": "electric_scooter"}, {"fusion_lon": 0.0, "bike_id": "46876bbb1890067388e63df846d9d62c", "name": "46876bbb1890067388e63df846d9d62c", "rental_uris": {"android": "https://dc.lft.to/lastmile_qr_scan", "ios": "https://dc.lft.to/lastmile_qr_scan"}, "lon": -77.02709716666666, "fusion_lat": 0.0, "is_disabled": 0, "is_reserved": 0, "lat": 38.91797966666667, "type": "electric_scooter"}, {"fusion_lon": 0.0, "bike_id": "9cd48f95c13b2faff0667ba138619841", "name": "9cd48f95c13b2faff0667ba138619841", "rental_uris": {"android": "https://dc.lft.to/lastmile_qr_scan", "ios": "https://dc.lft.to/lastmile_qr_scan"}, "lon": -77.01858766666666, "fusion_lat": 0.0, "is_disabled": 0, "is_reserved": 0, "lat": 38.914927166666665, "type": "electric_scooter"}, {"fusion_lon": 0.0, "bike_id": "e4bbe6a4441ff6b066a9bed41b1fc5a9", "name": "e4bbe6a4441ff6b066a9bed41b1fc5a9", "rental_uris": {"android": "https://dc.lft.to/lastmile_qr_scan", "ios": "https://dc.lft.to/lastmile_qr_scan"}, "lon": -77.04709133333333, "fusion_lat": 0.0, "is_disabled": 0, "is_reserved": 0, "lat": 38.912659, "type": "electric_scooter"}, {"fusion_lon": 0.0, "bike_id": "5e9356977ff78b2011eb2db6ab2b56ff", "name": "5e9356977ff78b2011eb2db6ab2b56ff", "rental_uris": {"android": "https://dc.lft.to/lastmile_qr_scan", "ios": "https://dc.lft.to/lastmile_qr_scan"}, "lon": -77.0629615, "fusion_lat": 0.0, "is_disabled": 0, "is_reserved": 0, "lat": 38.903965666666664, "type": "electric_scooter"}, {"fusion_lon": 0.0, "bike_id": "a7de97c0ed7afbd0ea2bc62ddac9f7c2", "name": "a7de97c0ed7afbd0ea2bc62ddac9f7c2", "rental_uris": {"android": "https://dc.lft.to/lastmile_qr_scan", "ios": "https://dc.lft.to/lastmile_qr_scan"}, "lon": -77.0356865, "fusion_lat": 0.0, "is_disabled": 0, "is_reserved": 0, "lat": 38.964688333333335, "type": "electric_bike"}, {"fusion_lon": 0.0, "bike_id": "a8627091c2ada571ff98adc0ca955a10", "name": "a8627091c2ada571ff98adc0ca955a10", "rental_uris": {"android": "https://dc.lft.to/lastmile_qr_scan", "ios": "https://dc.lft.to/lastmile_qr_scan"}, "lon": -77.00555516666667, "fusion_lat": 0.0, "is_disabled": 0, "is_reserved": 0, "lat": 38.9118025, "type": "electric_scooter"}, {"fusion_lon": 0.0, "bike_id": "14a8168151e431ac8a0e3c3a5087ade9", "name": "14a8168151e431ac8a0e3c3a5087ade9", "rental_uris": {"android": "https://dc.lft.to/lastmile_qr_scan", "ios": "https://dc.lft.to/lastmile_qr_scan"}, "lon": -77.0485155, "fusion_lat": 0.0, "is_disabled": 0, "is_reserved": 0, "lat": 38.90520433333333, "type": "electric_scooter"}, {"fusion_lon": 0.0, "bike_id": "af853b7f9dc5d514a1eda081035e58f2", "name": "af853b7f9dc5d514a1eda081035e58f2", "rental_uris": {"android": "https://dc.lft.to/lastmile_qr_scan", "ios": "https://dc.lft.to/lastmile_qr_scan"}, "lon": -77.0239655, "fusion_lat": 0.0, "is_disabled": 0, "is_reserved": 0, "lat": 38.937069, "type": "electric_scooter"}, {"fusion_lon": 0.0, "bike_id": "3e09949434803c46b837ec5e45abf6ca", "name": "3e09949434803c46b837ec5e45abf6ca", "rental_uris": {"android": "https://dc.lft.to/lastmile_qr_scan", "ios": "https://dc.lft.to/lastmile_qr_scan"}, "lon": -77.03438033333333, "fusion_lat": 0.0, "is_disabled": 0, "is_reserved": 0, "lat": 38.92050866666666, "type": "electric_scooter"}, {"fusion_lon": 0.0, "bike_id": "f7adb5043605a294646aa55f7a099b78", "name": "f7adb5043605a294646aa55f7a099b78", "rental_uris": {"android": "https://dc.lft.to/lastmile_qr_scan", "ios": "https://dc.lft.to/lastmile_qr_scan"}, "lon": -77.04351466666667, "fusion_lat": 0.0, "is_disabled": 0, "is_reserved": 0, "lat": 38.907597333333335, "type": "electric_scooter"}, {"fusion_lon": 0.0, "bike_id": "a84f7bb1c7ea7ad61d3f2934f4a1b878", "name": "a84f7bb1c7ea7ad61d3f2934f4a1b878", "rental_uris": {"android": "https://dc.lft.to/lastmile_qr_scan", "ios": "https://dc.lft.to/lastmile_qr_scan"}, "lon": -77.02695783333333, "fusion_lat": 0.0, "is_disabled": 0, "is_reserved": 0, "lat": 38.913025166666664, "type": "electric_scooter"}, {"fusion_lon": 0.0, "bike_id": "9f1d913d2f478892b8a6ba70708e7fae", "name": "9f1d913d2f478892b8a6ba70708e7fae", "rental_uris": {"android": "https://dc.lft.to/lastmile_qr_scan", "ios": "https://dc.lft.to/lastmile_qr_scan"}, "lon": -76.99099883333334, "fusion_lat": 0.0, "is_disabled": 0, "is_reserved": 0, "lat": 38.8980575, "type": "electric_bike"}, {"fusion_lon": 0.0, "bike_id": "aec4e00703f3e27135788510e77e5807", "name": "aec4e00703f3e27135788510e77e5807", "rental_uris": {"android": "https://dc.lft.to/lastmile_qr_scan", "ios": "https://dc.lft.to/lastmile_qr_scan"}, "lon": -77.04094116666667, "fusion_lat": 0.0, "is_disabled": 0, "is_reserved": 0, "lat": 38.8981635, "type": "electric_scooter"}, {"fusion_lon": 0.0, "bike_id": "0f1c95a4760c459e73ef06100ba38906", "name": "0f1c95a4760c459e73ef06100ba38906", "rental_uris": {"android": "https://dc.lft.to/lastmile_qr_scan", "ios": "https://dc.lft.to/lastmile_qr_scan"}, "lon": -77.02186916666666, "fusion_lat": 0.0, "is_disabled": 0, "is_reserved": 0, "lat": 38.91480466666667, "type": "electric_scooter"}, {"fusion_lon": 0.0, "bike_id": "88e0d0ca2dcffbcd68b686e8e9646e7a", "name": "88e0d0ca2dcffbcd68b686e8e9646e7a", "rental_uris": {"android": "https://dc.lft.to/lastmile_qr_scan", "ios": "https://dc.lft.to/lastmile_qr_scan"}, "lon": -77.04372033333334, "fusion_lat": 0.0, "is_disabled": 0, "is_reserved": 0, "lat": 38.9024365, "type": "electric_scooter"}, {"fusion_lon": 0.0, "bike_id": "43e0f4f506395c491e48b7e1a128d2f5", "name": "43e0f4f506395c491e48b7e1a128d2f5", "rental_uris": {"android": "https://dc.lft.to/lastmile_qr_scan", "ios": "https://dc.lft.to/lastmile_qr_scan"}, "lon": -77.03507983333333, "fusion_lat": 0.0, "is_disabled": 0, "is_reserved": 0, "lat": 38.92632916666667, "type": "electric_scooter"}, {"fusion_lon": 0.0, "bike_id": "aba556f4626a31fdb731c0e37975ee96", "name": "aba556f4626a31fdb731c0e37975ee96", "rental_uris": {"android": "https://dc.lft.to/lastmile_qr_scan", "ios": "https://dc.lft.to/lastmile_qr_scan"}, "lon": -77.0347865, "fusion_lat": 0.0, "is_disabled": 0, "is_reserved": 0, "lat": 38.90429233333333, "type": "electric_scooter"}, {"fusion_lon": 0.0, "bike_id": "0ab8dc252c2d66f2de82082a0026cc58", "name": "0ab8dc252c2d66f2de82082a0026cc58", "rental_uris": {"android": "https://dc.lft.to/lastmile_qr_scan", "ios": "https://dc.lft.to/lastmile_qr_scan"}, "lon": -77.129878, "fusion_lat": 0.0, "is_disabled": 0, "is_reserved": 0, "lat": 38.8076245, "type": "electric_bike"}, {"fusion_lon": 0.0, "bike_id": "7c9e947d3ac6bbfb0943611f0fabebae", "name": "7c9e947d3ac6bbfb0943611f0fabebae", "rental_uris": {"android": "https://dc.lft.to/lastmile_qr_scan", "ios": "https://dc.lft.to/lastmile_qr_scan"}, "lon": -77.03825916666666, "fusion_lat": 0.0, "is_disabled": 0, "is_reserved": 0, "lat": 38.927108, "type": "electric_scooter"}, {"fusion_lon": 0.0, "bike_id": "25f0b62b76370d0e3d717f511df40170", "name": "25f0b62b76370d0e3d717f511df40170", "rental_uris": {"android": "https://dc.lft.to/lastmile_qr_scan", "ios": "https://dc.lft.to/lastmile_qr_scan"}, "lon": -77.00509916666667, "fusion_lat": 0.0, "is_disabled": 0, "is_reserved": 0, "lat": 38.875352, "type": "electric_scooter"}, {"fusion_lon": 0.0, "bike_id": "587bcbd16f7b92ac3975dd9a559dcb2b", "name": "587bcbd16f7b92ac3975dd9a559dcb2b", "rental_uris": {"android": "https://dc.lft.to/lastmile_qr_scan", "ios": "https://dc.lft.to/lastmile_qr_scan"}, "lon": -76.99700166666666, "fusion_lat": 0.0, "is_disabled": 0, "is_reserved": 0, "lat": 38.907963333333335, "type": "electric_scooter"}, {"fusion_lon": 0.0, "bike_id": "622f40400515120f35daebe0a209ccac", "name": "622f40400515120f35daebe0a209ccac", "rental_uris": {"android": "https://dc.lft.to/lastmile_qr_scan", "ios": "https://dc.lft.to/lastmile_qr_scan"}, "lon": -76.94256283333333, "fusion_lat": 0.0, "is_disabled": 0, "is_reserved": 0, "lat": 38.89844766666667, "type": "electric_scooter"}, {"fusion_lon": 0.0, "bike_id": "ec94fec9c4ebe22e59540e0e0325c6e2", "name": "ec94fec9c4ebe22e59540e0e0325c6e2", "rental_uris": {"android": "https://dc.lft.to/lastmile_qr_scan", "ios": "https://dc.lft.to/lastmile_qr_scan"}, "lon": -77.09379566666667, "fusion_lat": 0.0, "is_disabled": 0, "is_reserved": 0, "lat": 38.860339333333336, "type": "electric_bike"}, {"fusion_lon": 0.0, "bike_id": "f102458e13dc419892beb8d869edea78", "name": "f102458e13dc419892beb8d869edea78", "rental_uris": {"android": "https://dc.lft.to/lastmile_qr_scan", "ios": "https://dc.lft.to/lastmile_qr_scan"}, "lon": -77.04421516666666, "fusion_lat": 0.0, "is_disabled": 0, "is_reserved": 0, "lat": 38.92130183333333, "type": "electric_scooter"}, {"fusion_lon": 0.0, "bike_id": "e74c312761a0ca5d927bc68f7f4f4330", "name": "e74c312761a0ca5d927bc68f7f4f4330", "rental_uris": {"android": "https://dc.lft.to/lastmile_qr_scan", "ios": "https://dc.lft.to/lastmile_qr_scan"}, "lon": -77.02988766666667, "fusion_lat": 0.0, "is_disabled": 0, "is_reserved": 0, "lat": 38.90372933333333, "type": "electric_scooter"}, {"fusion_lon": 0.0, "bike_id": "a4930298f7e5167ab12b84499fd044da", "name": "a4930298f7e5167ab12b84499fd044da", "rental_uris": {"android": "https://dc.lft.to/lastmile_qr_scan", "ios": "https://dc.lft.to/lastmile_qr_scan"}, "lon": -77.0221725, "fusion_lat": 0.0, "is_disabled": 0, "is_reserved": 0, "lat": 38.9247675, "type": "electric_scooter"}, {"fusion_lon": 0.0, "bike_id": "5715b17f31f4c46427fc99d84704d266", "name": "5715b17f31f4c46427fc99d84704d266", "rental_uris": {"android": "https://dc.lft.to/lastmile_qr_scan", "ios": "https://dc.lft.to/lastmile_qr_scan"}, "lon": -76.99255866666667, "fusion_lat": 0.0, "is_disabled": 0, "is_reserved": 0, "lat": 38.881819166666666, "type": "electric_scooter"}, {"fusion_lon": 0.0, "bike_id": "446f1edc4e5dd3e69ccb4fa1566e0ec1", "name": "446f1edc4e5dd3e69ccb4fa1566e0ec1", "rental_uris": {"android": "https://dc.lft.to/lastmile_qr_scan", "ios": "https://dc.lft.to/lastmile_qr_scan"}, "lon": -77.03762133333333, "fusion_lat": 0.0, "is_disabled": 0, "is_reserved": 0, "lat": 38.929168, "type": "electric_scooter"}, {"fusion_lon": 0.0, "bike_id": "6d3aee522a059d1f130f5430207baaef", "name": "6d3aee522a059d1f130f5430207baaef", "rental_uris": {"android": "https://dc.lft.to/lastmile_qr_scan", "ios": "https://dc.lft.to/lastmile_qr_scan"}, "lon": -77.02210283333334, "fusion_lat": 0.0, "is_disabled": 0, "is_reserved": 0, "lat": 38.906809833333334, "type": "electric_scooter"}, {"fusion_lon": 0.0, "bike_id": "bebda4098d27cbe9b2e51c12176160fe", "name": "bebda4098d27cbe9b2e51c12176160fe", "rental_uris": {"android": "https://dc.lft.to/lastmile_qr_scan", "ios": "https://dc.lft.to/lastmile_qr_scan"}, "lon": -77.04198066666666, "fusion_lat": 0.0, "is_disabled": 0, "is_reserved": 0, "lat": 38.892229, "type": "electric_scooter"}, {"fusion_lon": 0.0, "bike_id": "3e0ee5b4451e65c5b3b898bf3ea104e4", "name": "3e0ee5b4451e65c5b3b898bf3ea104e4", "rental_uris": {"android": "https://dc.lft.to/lastmile_qr_scan", "ios": "https://dc.lft.to/lastmile_qr_scan"}, "lon": -77.03438483333333, "fusion_lat": 0.0, "is_disabled": 0, "is_reserved": 0, "lat": 38.91264616666667, "type": "electric_scooter"}, {"fusion_lon": 0.0, "bike_id": "1b67604405f7eb33991fda8a7ff21d50", "name": "1b67604405f7eb33991fda8a7ff21d50", "rental_uris": {"android": "https://dc.lft.to/lastmile_qr_scan", "ios": "https://dc.lft.to/lastmile_qr_scan"}, "lon": -77.03329866666667, "fusion_lat": 0.0, "is_disabled": 0, "is_reserved": 0, "lat": 38.927552, "type": "electric_scooter"}, {"fusion_lon": 0.0, "bike_id": "4a77459e76be62f37079de60ecf50996", "name": "4a77459e76be62f37079de60ecf50996", "rental_uris": {"android": "https://dc.lft.to/lastmile_qr_scan", "ios": "https://dc.lft.to/lastmile_qr_scan"}, "lon": -77.045436, "fusion_lat": 0.0, "is_disabled": 0, "is_reserved": 0, "lat": 38.91109066666667, "type": "electric_scooter"}, {"fusion_lon": 0.0, "bike_id": "3e14107a7c45bc91f1fc0a4ecbe0412c", "name": "3e14107a7c45bc91f1fc0a4ecbe0412c", "rental_uris": {"android": "https://dc.lft.to/lastmile_qr_scan", "ios": "https://dc.lft.to/lastmile_qr_scan"}, "lon": -76.9374555, "fusion_lat": 0.0, "is_disabled": 0, "is_reserved": 0, "lat": 38.89006916666666, "type": "electric_scooter"}, {"fusion_lon": 0.0, "bike_id": "4d75d83cb0d7837b4c40cbc9ddfba677", "name": "4d75d83cb0d7837b4c40cbc9ddfba677", "rental_uris": {"android": "https://dc.lft.to/lastmile_qr_scan", "ios": "https://dc.lft.to/lastmile_qr_scan"}, "lon": -77.0203035, "fusion_lat": 0.0, "is_disabled": 0, "is_reserved": 0, "lat": 38.922495166666664, "type": "electric_scooter"}, {"fusion_lon": 0.0, "bike_id": "7bee406930bedc9cbb8b3d3ef67225c7", "name": "7bee406930bedc9cbb8b3d3ef67225c7", "rental_uris": {"android": "https://dc.lft.to/lastmile_qr_scan", "ios": "https://dc.lft.to/lastmile_qr_scan"}, "lon": -77.01952133333333, "fusion_lat": 0.0, "is_disabled": 0, "is_reserved": 0, "lat": 38.92252966666667, "type": "electric_scooter"}, {"fusion_lon": 0.0, "bike_id": "40ded5d612234d88c51818c82c301fec", "name": "40ded5d612234d88c51818c82c301fec", "rental_uris": {"android": "https://dc.lft.to/lastmile_qr_scan", "ios": "https://dc.lft.to/lastmile_qr_scan"}, "lon": -77.03563066666666, "fusion_lat": 0.0, "is_disabled": 0, "is_reserved": 0, "lat": 38.91865883333333, "type": "electric_scooter"}, {"fusion_lon": 0.0, "bike_id": "1e63efc8a9db166019920575204e9b82", "name": "1e63efc8a9db166019920575204e9b82", "rental_uris": {"android": "https://dc.lft.to/lastmile_qr_scan", "ios": "https://dc.lft.to/lastmile_qr_scan"}, "lon": -77.089853, "fusion_lat": 0.0, "is_disabled": 0, "is_reserved": 0, "lat": 38.937062, "type": "electric_scooter"}, {"fusion_lon": 0.0, "bike_id": "3d3839c55b19b5ad100037cd26e639da", "name": "3d3839c55b19b5ad100037cd26e639da", "rental_uris": {"android": "https://dc.lft.to/lastmile_qr_scan", "ios": "https://dc.lft.to/lastmile_qr_scan"}, "lon": -76.995675, "fusion_lat": 0.0, "is_disabled": 0, "is_reserved": 0, "lat": 38.86270966666667, "type": "electric_scooter"}, {"fusion_lon": 0.0, "bike_id": "e3f319f281927bd7944fe4852b53d159", "name": "e3f319f281927bd7944fe4852b53d159", "rental_uris": {"android": "https://dc.lft.to/lastmile_qr_scan", "ios": "https://dc.lft.to/lastmile_qr_scan"}, "lon": -77.01898866666667, "fusion_lat": 0.0, "is_disabled": 0, "is_reserved": 0, "lat": 38.92335683333334, "type": "electric_scooter"}, {"fusion_lon": 0.0, "bike_id": "b4ee478132d0bbcb6b8d1adc27fa479c", "name": "b4ee478132d0bbcb6b8d1adc27fa479c", "rental_uris": {"android": "https://dc.lft.to/lastmile_qr_scan", "ios": "https://dc.lft.to/lastmile_qr_scan"}, "lon": -76.9626335, "fusion_lat": 0.0, "is_disabled": 0, "is_reserved": 0, "lat": 38.967878, "type": "electric_bike"}, {"fusion_lon": 0.0, "bike_id": "d817fafb67313adc3ee9ae5048e42e1d", "name": "d817fafb67313adc3ee9ae5048e42e1d", "rental_uris": {"android": "https://dc.lft.to/lastmile_qr_scan", "ios": "https://dc.lft.to/lastmile_qr_scan"}, "lon": -76.93191733333333, "fusion_lat": 0.0, "is_disabled": 0, "is_reserved": 0, "lat": 38.898528, "type": "electric_bike"}, {"fusion_lon": 0.0, "bike_id": "40ccf3542933bf8517dd21fe6fc1c132", "name": "40ccf3542933bf8517dd21fe6fc1c132", "rental_uris": {"android": "https://dc.lft.to/lastmile_qr_scan", "ios": "https://dc.lft.to/lastmile_qr_scan"}, "lon": -77.03649866666666, "fusion_lat": 0.0, "is_disabled": 0, "is_reserved": 0, "lat": 38.912437, "type": "electric_scooter"}, {"fusion_lon": 0.0, "bike_id": "34f4bed4f8039e5948b3247f8b622591", "name": "34f4bed4f8039e5948b3247f8b622591", "rental_uris": {"android": "https://dc.lft.to/lastmile_qr_scan", "ios": "https://dc.lft.to/lastmile_qr_scan"}, "lon": -77.04297416666667, "fusion_lat": 0.0, "is_disabled": 0, "is_reserved": 0, "lat": 38.905945, "type": "electric_scooter"}, {"fusion_lon": 0.0, "bike_id": "48ae3133d825a1a71057b33d916f80fc", "name": "48ae3133d825a1a71057b33d916f80fc", "rental_uris": {"android": "https://dc.lft.to/lastmile_qr_scan", "ios": "https://dc.lft.to/lastmile_qr_scan"}, "lon": -77.0164055, "fusion_lat": 0.0, "is_disabled": 0, "is_reserved": 0, "lat": 38.784613666666665, "type": "electric_bike"}, {"fusion_lon": 0.0, "bike_id": "961b10b63474eea3b5fbca24ba593a50", "name": "961b10b63474eea3b5fbca24ba593a50", "rental_uris": {"android": "https://dc.lft.to/lastmile_qr_scan", "ios": "https://dc.lft.to/lastmile_qr_scan"}, "lon": -77.059281, "fusion_lat": 0.0, "is_disabled": 0, "is_reserved": 0, "lat": 38.94306433333333, "type": "electric_scooter"}, {"fusion_lon": 0.0, "bike_id": "76490b6ac21e04c47ee4a7578efe0dab", "name": "76490b6ac21e04c47ee4a7578efe0dab", "rental_uris": {"android": "https://dc.lft.to/lastmile_qr_scan", "ios": "https://dc.lft.to/lastmile_qr_scan"}, "lon": -77.04426083333334, "fusion_lat": 0.0, "is_disabled": 0, "is_reserved": 0, "lat": 38.91141966666667, "type": "electric_scooter"}, {"fusion_lon": 0.0, "bike_id": "92d17660eba3cd5fdcf1d405aef69e08", "name": "92d17660eba3cd5fdcf1d405aef69e08", "rental_uris": {"android": "https://dc.lft.to/lastmile_qr_scan", "ios": "https://dc.lft.to/lastmile_qr_scan"}, "lon": -76.97007616666667, "fusion_lat": 0.0, "is_disabled": 0, "is_reserved": 0, "lat": 38.860252, "type": "electric_scooter"}, {"fusion_lon": 0.0, "bike_id": "427325bd0a44208cd78ba04af870277e", "name": "427325bd0a44208cd78ba04af870277e", "rental_uris": {"android": "https://dc.lft.to/lastmile_qr_scan", "ios": "https://dc.lft.to/lastmile_qr_scan"}, "lon": -76.98692716666666, "fusion_lat": 0.0, "is_disabled": 0, "is_reserved": 0, "lat": 38.94475766666667, "type": "electric_bike"}, {"fusion_lon": 0.0, "bike_id": "d3eaa2fec2dce6014dff15a275bb0316", "name": "d3eaa2fec2dce6014dff15a275bb0316", "rental_uris": {"android": "https://dc.lft.to/lastmile_qr_scan", "ios": "https://dc.lft.to/lastmile_qr_scan"}, "lon": -77.04228783333333, "fusion_lat": 0.0, "is_disabled": 0, "is_reserved": 0, "lat": 38.931503666666664, "type": "electric_scooter"}, {"fusion_lon": 0.0, "bike_id": "242285ce933d93decc7de6987c808ff7", "name": "242285ce933d93decc7de6987c808ff7", "rental_uris": {"android": "https://dc.lft.to/lastmile_qr_scan", "ios": "https://dc.lft.to/lastmile_qr_scan"}, "lon": -77.1830675, "fusion_lat": 0.0, "is_disabled": 0, "is_reserved": 0, "lat": 39.09965483333333, "type": "electric_bike"}, {"fusion_lon": 0.0, "bike_id": "379862994919ee3d3f9b2f5ecfd7024c", "name": "379862994919ee3d3f9b2f5ecfd7024c", "rental_uris": {"android": "https://dc.lft.to/lastmile_qr_scan", "ios": "https://dc.lft.to/lastmile_qr_scan"}, "lon": -77.02135533333333, "fusion_lat": 0.0, "is_disabled": 0, "is_reserved": 0, "lat": 38.89977616666667, "type": "electric_scooter"}, {"fusion_lon": 0.0, "bike_id": "c7864f2464d78353e79d5dc47b6415a8", "name": "c7864f2464d78353e79d5dc47b6415a8", "rental_uris": {"android": "https://dc.lft.to/lastmile_qr_scan", "ios": "https://dc.lft.to/lastmile_qr_scan"}, "lon": -77.0264725, "fusion_lat": 0.0, "is_disabled": 0, "is_reserved": 0, "lat": 38.90850433333333, "type": "electric_scooter"}, {"fusion_lon": 0.0, "bike_id": "99cce80ea72d54d4fd3a0a1381d114c5", "name": "99cce80ea72d54d4fd3a0a1381d114c5", "rental_uris": {"android": "https://dc.lft.to/lastmile_qr_scan", "ios": "https://dc.lft.to/lastmile_qr_scan"}, "lon": -77.0220325, "fusion_lat": 0.0, "is_disabled": 0, "is_reserved": 0, "lat": 38.92171716666667, "type": "electric_scooter"}, {"fusion_lon": 0.0, "bike_id": "f33a4b9dc77c3e828a9081c014ac157e", "name": "f33a4b9dc77c3e828a9081c014ac157e", "rental_uris": {"android": "https://dc.lft.to/lastmile_qr_scan", "ios": "https://dc.lft.to/lastmile_qr_scan"}, "lon": -77.12073583333333, "fusion_lat": 0.0, "is_disabled": 0, "is_reserved": 0, "lat": 39.062039, "type": "electric_bike"}, {"fusion_lon": 0.0, "bike_id": "21441e437ae64aa84053d813850bf5db", "name": "21441e437ae64aa84053d813850bf5db", "rental_uris": {"android": "https://dc.lft.to/lastmile_qr_scan", "ios": "https://dc.lft.to/lastmile_qr_scan"}, "lon": -77.032171, "fusion_lat": 0.0, "is_disabled": 0, "is_reserved": 0, "lat": 38.90968, "type": "electric_scooter"}, {"fusion_lon": 0.0, "bike_id": "e2aca2cb17751314e208cd15ef313317", "name": "e2aca2cb17751314e208cd15ef313317", "rental_uris": {"android": "https://dc.lft.to/lastmile_qr_scan", "ios": "https://dc.lft.to/lastmile_qr_scan"}, "lon": -76.93738733333333, "fusion_lat": 0.0, "is_disabled": 0, "is_reserved": 0, "lat": 38.890141166666666, "type": "electric_scooter"}, {"fusion_lon": 0.0, "bike_id": "58e20edebbe45808948d2f1e713cb3d4", "name": "58e20edebbe45808948d2f1e713cb3d4", "rental_uris": {"android": "https://dc.lft.to/lastmile_qr_scan", "ios": "https://dc.lft.to/lastmile_qr_scan"}, "lon": -77.02711533333333, "fusion_lat": 0.0, "is_disabled": 0, "is_reserved": 0, "lat": 38.91802533333333, "type": "electric_scooter"}, {"fusion_lon": 0.0, "bike_id": "136de18bcf91d0542eaeb8c3ebbfe5ec", "name": "136de18bcf91d0542eaeb8c3ebbfe5ec", "rental_uris": {"android": "https://dc.lft.to/lastmile_qr_scan", "ios": "https://dc.lft.to/lastmile_qr_scan"}, "lon": -77.054331, "fusion_lat": 0.0, "is_disabled": 0, "is_reserved": 0, "lat": 38.928515166666664, "type": "electric_scooter"}, {"fusion_lon": 0.0, "bike_id": "0d0dd02105634b968345966fe378d4c0", "name": "0d0dd02105634b968345966fe378d4c0", "rental_uris": {"android": "https://dc.lft.to/lastmile_qr_scan", "ios": "https://dc.lft.to/lastmile_qr_scan"}, "lon": -77.003033, "fusion_lat": 0.0, "is_disabled": 0, "is_reserved": 0, "lat": 38.8922445, "type": "electric_scooter"}, {"fusion_lon": 0.0, "bike_id": "3059befd96e1f60e5bb80d4a811234e7", "name": "3059befd96e1f60e5bb80d4a811234e7", "rental_uris": {"android": "https://dc.lft.to/lastmile_qr_scan", "ios": "https://dc.lft.to/lastmile_qr_scan"}, "lon": -77.04092366666667, "fusion_lat": 0.0, "is_disabled": 0, "is_reserved": 0, "lat": 38.90125483333333, "type": "electric_scooter"}, {"fusion_lon": 0.0, "bike_id": "3848161f10aaeed4f1457c3bebce1de9", "name": "3848161f10aaeed4f1457c3bebce1de9", "rental_uris": {"android": "https://dc.lft.to/lastmile_qr_scan", "ios": "https://dc.lft.to/lastmile_qr_scan"}, "lon": -77.02094683333333, "fusion_lat": 0.0, "is_disabled": 0, "is_reserved": 0, "lat": 38.930122, "type": "electric_scooter"}, {"fusion_lon": 0.0, "bike_id": "cd162f9980c9a3176c303327faf46a6d", "name": "cd162f9980c9a3176c303327faf46a6d", "rental_uris": {"android": "https://dc.lft.to/lastmile_qr_scan", "ios": "https://dc.lft.to/lastmile_qr_scan"}, "lon": -77.02202283333334, "fusion_lat": 0.0, "is_disabled": 0, "is_reserved": 0, "lat": 38.89698283333333, "type": "electric_scooter"}, {"fusion_lon": 0.0, "bike_id": "eb84fc7bd74ca47c1930e3c4aa9fdef4", "name": "eb84fc7bd74ca47c1930e3c4aa9fdef4", "rental_uris": {"android": "https://dc.lft.to/lastmile_qr_scan", "ios": "https://dc.lft.to/lastmile_qr_scan"}, "lon": -77.001515, "fusion_lat": 0.0, "is_disabled": 0, "is_reserved": 0, "lat": 38.908429166666664, "type": "electric_scooter"}, {"fusion_lon": 0.0, "bike_id": "a375c27479a3da286bdcfa40120f4016", "name": "a375c27479a3da286bdcfa40120f4016", "rental_uris": {"android": "https://dc.lft.to/lastmile_qr_scan", "ios": "https://dc.lft.to/lastmile_qr_scan"}, "lon": -77.02721316666667, "fusion_lat": 0.0, "is_disabled": 0, "is_reserved": 0, "lat": 38.940883166666666, "type": "electric_scooter"}, {"fusion_lon": 0.0, "bike_id": "09584be85ff9ccf6af7756b05ac43396", "name": "09584be85ff9ccf6af7756b05ac43396", "rental_uris": {"android": "https://dc.lft.to/lastmile_qr_scan", "ios": "https://dc.lft.to/lastmile_qr_scan"}, "lon": -76.9774615, "fusion_lat": 0.0, "is_disabled": 0, "is_reserved": 0, "lat": 38.86504433333333, "type": "electric_bike"}, {"fusion_lon": 0.0, "bike_id": "d423a1f6889b2fdd1e359a12312fe714", "name": "d423a1f6889b2fdd1e359a12312fe714", "rental_uris": {"android": "https://dc.lft.to/lastmile_qr_scan", "ios": "https://dc.lft.to/lastmile_qr_scan"}, "lon": -77.05075216666667, "fusion_lat": 0.0, "is_disabled": 0, "is_reserved": 0, "lat": 38.916332833333335, "type": "electric_scooter"}, {"fusion_lon": 0.0, "bike_id": "ac2ea731370f52e5ad2beca9b12a9ead", "name": "ac2ea731370f52e5ad2beca9b12a9ead", "rental_uris": {"android": "https://dc.lft.to/lastmile_qr_scan", "ios": "https://dc.lft.to/lastmile_qr_scan"}, "lon": -77.0322855, "fusion_lat": 0.0, "is_disabled": 0, "is_reserved": 0, "lat": 38.96140333333334, "type": "electric_scooter"}, {"fusion_lon": 0.0, "bike_id": "ab0aedafba3eadab690598ecfa1a549f", "name": "ab0aedafba3eadab690598ecfa1a549f", "rental_uris": {"android": "https://dc.lft.to/lastmile_qr_scan", "ios": "https://dc.lft.to/lastmile_qr_scan"}, "lon": -77.04359, "fusion_lat": 0.0, "is_disabled": 0, "is_reserved": 0, "lat": 38.910464833333336, "type": "electric_scooter"}, {"fusion_lon": 0.0, "bike_id": "482cef08c39cbd0a681abea2f2d6942c", "name": "482cef08c39cbd0a681abea2f2d6942c", "rental_uris": {"android": "https://dc.lft.to/lastmile_qr_scan", "ios": "https://dc.lft.to/lastmile_qr_scan"}, "lon": -77.04163533333333, "fusion_lat": 0.0, "is_disabled": 0, "is_reserved": 0, "lat": 38.90722683333333, "type": "electric_scooter"}, {"fusion_lon": 0.0, "bike_id": "4806a510c505027bcb2834b91d69eae1", "name": "4806a510c505027bcb2834b91d69eae1", "rental_uris": {"android": "https://dc.lft.to/lastmile_qr_scan", "ios": "https://dc.lft.to/lastmile_qr_scan"}, "lon": -77.048638, "fusion_lat": 0.0, "is_disabled": 0, "is_reserved": 0, "lat": 38.89222916666667, "type": "electric_scooter"}, {"fusion_lon": 0.0, "bike_id": "4102326a592e67ddf8eeafe857a6e9d0", "name": "4102326a592e67ddf8eeafe857a6e9d0", "rental_uris": {"android": "https://dc.lft.to/lastmile_qr_scan", "ios": "https://dc.lft.to/lastmile_qr_scan"}, "lon": -77.0807235, "fusion_lat": 0.0, "is_disabled": 0, "is_reserved": 0, "lat": 38.95597516666667, "type": "electric_scooter"}, {"fusion_lon": 0.0, "bike_id": "a62704c3669cee99b6e44abc331e3686", "name": "a62704c3669cee99b6e44abc331e3686", "rental_uris": {"android": "https://dc.lft.to/lastmile_qr_scan", "ios": "https://dc.lft.to/lastmile_qr_scan"}, "lon": -76.96980183333334, "fusion_lat": 0.0, "is_disabled": 0, "is_reserved": 0, "lat": 38.87388216666667, "type": "electric_scooter"}, {"fusion_lon": 0.0, "bike_id": "c6725e5c3297b35e6185551aa18985f1", "name": "c6725e5c3297b35e6185551aa18985f1", "rental_uris": {"android": "https://dc.lft.to/lastmile_qr_scan", "ios": "https://dc.lft.to/lastmile_qr_scan"}, "lon": -76.957574, "fusion_lat": 0.0, "is_disabled": 0, "is_reserved": 0, "lat": 38.884267333333334, "type": "electric_scooter"}, {"fusion_lon": 0.0, "bike_id": "e02022d2d8dbe89ec744f907bd444c4a", "name": "e02022d2d8dbe89ec744f907bd444c4a", "rental_uris": {"android": "https://dc.lft.to/lastmile_qr_scan", "ios": "https://dc.lft.to/lastmile_qr_scan"}, "lon": -76.998334, "fusion_lat": 0.0, "is_disabled": 0, "is_reserved": 0, "lat": 38.900581833333334, "type": "electric_scooter"}, {"fusion_lon": 0.0, "bike_id": "aba82295c6cd60efb0219dbd61bc468a", "name": "aba82295c6cd60efb0219dbd61bc468a", "rental_uris": {"android": "https://dc.lft.to/lastmile_qr_scan", "ios": "https://dc.lft.to/lastmile_qr_scan"}, "lon": -77.04868383333333, "fusion_lat": 0.0, "is_disabled": 0, "is_reserved": 0, "lat": 38.909550333333335, "type": "electric_scooter"}, {"fusion_lon": 0.0, "bike_id": "43f3c3874958c2252112dd9f172e4bba", "name": "43f3c3874958c2252112dd9f172e4bba", "rental_uris": {"android": "https://dc.lft.to/lastmile_qr_scan", "ios": "https://dc.lft.to/lastmile_qr_scan"}, "lon": -77.01919933333333, "fusion_lat": 0.0, "is_disabled": 0, "is_reserved": 0, "lat": 38.9226875, "type": "electric_scooter"}, {"fusion_lon": 0.0, "bike_id": "dc4dc17a154f2ef789a58a7f1b3cb110", "name": "dc4dc17a154f2ef789a58a7f1b3cb110", "rental_uris": {"android": "https://dc.lft.to/lastmile_qr_scan", "ios": "https://dc.lft.to/lastmile_qr_scan"}, "lon": -77.04306916666667, "fusion_lat": 0.0, "is_disabled": 0, "is_reserved": 0, "lat": 38.9236445, "type": "electric_scooter"}, {"fusion_lon": 0.0, "bike_id": "1d4e86f3948b6d88958c1e77b1d1d4b5", "name": "1d4e86f3948b6d88958c1e77b1d1d4b5", "rental_uris": {"android": "https://dc.lft.to/lastmile_qr_scan", "ios": "https://dc.lft.to/lastmile_qr_scan"}, "lon": -77.02543616666667, "fusion_lat": 0.0, "is_disabled": 0, "is_reserved": 0, "lat": 38.93083766666667, "type": "electric_scooter"}, {"fusion_lon": 0.0, "bike_id": "a80e23c58dedb28980391db0a0fe6df3", "name": "a80e23c58dedb28980391db0a0fe6df3", "rental_uris": {"android": "https://dc.lft.to/lastmile_qr_scan", "ios": "https://dc.lft.to/lastmile_qr_scan"}, "lon": -77.01514933333333, "fusion_lat": 0.0, "is_disabled": 0, "is_reserved": 0, "lat": 38.958004333333335, "type": "electric_scooter"}, {"fusion_lon": 0.0, "bike_id": "c906039f1037fde317e3559d45633e45", "name": "c906039f1037fde317e3559d45633e45", "rental_uris": {"android": "https://dc.lft.to/lastmile_qr_scan", "ios": "https://dc.lft.to/lastmile_qr_scan"}, "lon": -77.0234035, "fusion_lat": 0.0, "is_disabled": 0, "is_reserved": 0, "lat": 38.920653333333334, "type": "electric_scooter"}, {"fusion_lon": 0.0, "bike_id": "b25d7cbff97a53814cae8a1dcd7b69d4", "name": "b25d7cbff97a53814cae8a1dcd7b69d4", "rental_uris": {"android": "https://dc.lft.to/lastmile_qr_scan", "ios": "https://dc.lft.to/lastmile_qr_scan"}, "lon": -77.03717416666667, "fusion_lat": 0.0, "is_disabled": 0, "is_reserved": 0, "lat": 38.91693633333333, "type": "electric_scooter"}, {"fusion_lon": 0.0, "bike_id": "d0a1096fec4d515436ad93186dfab3db", "name": "d0a1096fec4d515436ad93186dfab3db", "rental_uris": {"android": "https://dc.lft.to/lastmile_qr_scan", "ios": "https://dc.lft.to/lastmile_qr_scan"}, "lon": -77.05016033333334, "fusion_lat": 0.0, "is_disabled": 0, "is_reserved": 0, "lat": 38.923425333333334, "type": "electric_scooter"}, {"fusion_lon": 0.0, "bike_id": "3d2b531a31dcf9a3e09017fe408da9c6", "name": "3d2b531a31dcf9a3e09017fe408da9c6", "rental_uris": {"android": "https://dc.lft.to/lastmile_qr_scan", "ios": "https://dc.lft.to/lastmile_qr_scan"}, "lon": -77.00766033333333, "fusion_lat": 0.0, "is_disabled": 0, "is_reserved": 0, "lat": 38.876359, "type": "electric_scooter"}, {"fusion_lon": 0.0, "bike_id": "57bdb8e42887291bb7adec61acd4cbc2", "name": "57bdb8e42887291bb7adec61acd4cbc2", "rental_uris": {"android": "https://dc.lft.to/lastmile_qr_scan", "ios": "https://dc.lft.to/lastmile_qr_scan"}, "lon": -76.92582383333334, "fusion_lat": 0.0, "is_disabled": 0, "is_reserved": 0, "lat": 38.89773116666667, "type": "electric_scooter"}, {"fusion_lon": 0.0, "bike_id": "4fb1c7031f2835b80626ca4cd2ad4f66", "name": "4fb1c7031f2835b80626ca4cd2ad4f66", "rental_uris": {"android": "https://dc.lft.to/lastmile_qr_scan", "ios": "https://dc.lft.to/lastmile_qr_scan"}, "lon": -77.0461145, "fusion_lat": 0.0, "is_disabled": 0, "is_reserved": 0, "lat": 38.91717216666667, "type": "electric_scooter"}, {"fusion_lon": 0.0, "bike_id": "c19796092799162849f774b37d020553", "name": "c19796092799162849f774b37d020553", "rental_uris": {"android": "https://dc.lft.to/lastmile_qr_scan", "ios": "https://dc.lft.to/lastmile_qr_scan"}, "lon": -77.022885, "fusion_lat": 0.0, "is_disabled": 0, "is_reserved": 0, "lat": 38.918346, "type": "electric_scooter"}, {"fusion_lon": 0.0, "bike_id": "bffe82279f99097505eff8082fd52db6", "name": "bffe82279f99097505eff8082fd52db6", "rental_uris": {"android": "https://dc.lft.to/lastmile_qr_scan", "ios": "https://dc.lft.to/lastmile_qr_scan"}, "lon": -77.04867766666666, "fusion_lat": 0.0, "is_disabled": 0, "is_reserved": 0, "lat": 38.892234333333334, "type": "electric_scooter"}, {"fusion_lon": 0.0, "bike_id": "034c30b9825654fb779b69947526fbf6", "name": "034c30b9825654fb779b69947526fbf6", "rental_uris": {"android": "https://dc.lft.to/lastmile_qr_scan", "ios": "https://dc.lft.to/lastmile_qr_scan"}, "lon": -76.98658883333333, "fusion_lat": 0.0, "is_disabled": 0, "is_reserved": 0, "lat": 38.8935565, "type": "electric_scooter"}, {"fusion_lon": 0.0, "bike_id": "7468efe054b28943350e73a65ce1129c", "name": "7468efe054b28943350e73a65ce1129c", "rental_uris": {"android": "https://dc.lft.to/lastmile_qr_scan", "ios": "https://dc.lft.to/lastmile_qr_scan"}, "lon": -77.03281666666666, "fusion_lat": 0.0, "is_disabled": 0, "is_reserved": 0, "lat": 38.939643333333336, "type": "electric_scooter"}, {"fusion_lon": 0.0, "bike_id": "a1d051bf2d0c4095a87816f17e8bda8f", "name": "a1d051bf2d0c4095a87816f17e8bda8f", "rental_uris": {"android": "https://dc.lft.to/lastmile_qr_scan", "ios": "https://dc.lft.to/lastmile_qr_scan"}, "lon": -77.00747316666667, "fusion_lat": 0.0, "is_disabled": 0, "is_reserved": 0, "lat": 38.87650166666667, "type": "electric_scooter"}, {"fusion_lon": 0.0, "bike_id": "0ca4003d0fddfbf5fcf90d7561353580", "name": "0ca4003d0fddfbf5fcf90d7561353580", "rental_uris": {"android": "https://dc.lft.to/lastmile_qr_scan", "ios": "https://dc.lft.to/lastmile_qr_scan"}, "lon": -77.06524333333333, "fusion_lat": 0.0, "is_disabled": 0, "is_reserved": 0, "lat": 38.90529933333333, "type": "electric_scooter"}, {"fusion_lon": 0.0, "bike_id": "d0e3538a64f1f2a7ff7e7a56c530a51f", "name": "d0e3538a64f1f2a7ff7e7a56c530a51f", "rental_uris": {"android": "https://dc.lft.to/lastmile_qr_scan", "ios": "https://dc.lft.to/lastmile_qr_scan"}, "lon": -77.03162833333333, "fusion_lat": 0.0, "is_disabled": 0, "is_reserved": 0, "lat": 38.892186833333334, "type": "electric_scooter"}, {"fusion_lon": 0.0, "bike_id": "d9758ebbd40653a03522e50f2a650cc2", "name": "d9758ebbd40653a03522e50f2a650cc2", "rental_uris": {"android": "https://dc.lft.to/lastmile_qr_scan", "ios": "https://dc.lft.to/lastmile_qr_scan"}, "lon": -77.0137855, "fusion_lat": 0.0, "is_disabled": 0, "is_reserved": 0, "lat": 38.897308333333335, "type": "electric_scooter"}, {"fusion_lon": 0.0, "bike_id": "51fa1f793fd7df9bb3abbffb6509025e", "name": "51fa1f793fd7df9bb3abbffb6509025e", "rental_uris": {"android": "https://dc.lft.to/lastmile_qr_scan", "ios": "https://dc.lft.to/lastmile_qr_scan"}, "lon": -77.00245433333333, "fusion_lat": 0.0, "is_disabled": 0, "is_reserved": 0, "lat": 38.91187, "type": "electric_scooter"}, {"fusion_lon": 0.0, "bike_id": "8f31aa0a1d4e25b9c565276e6c11a939", "name": "8f31aa0a1d4e25b9c565276e6c11a939", "rental_uris": {"android": "https://dc.lft.to/lastmile_qr_scan", "ios": "https://dc.lft.to/lastmile_qr_scan"}, "lon": -77.05536383333333, "fusion_lat": 0.0, "is_disabled": 0, "is_reserved": 0, "lat": 39.03611033333333, "type": "electric_bike"}, {"fusion_lon": 0.0, "bike_id": "90539377b858596eaf7e946fbf0d889f", "name": "90539377b858596eaf7e946fbf0d889f", "rental_uris": {"android": "https://dc.lft.to/lastmile_qr_scan", "ios": "https://dc.lft.to/lastmile_qr_scan"}, "lon": -77.09453783333333, "fusion_lat": 0.0, "is_disabled": 0, "is_reserved": 0, "lat": 38.8075435, "type": "electric_bike"}, {"fusion_lon": 0.0, "bike_id": "71bb35e1a138a584ce226f746b788ba3", "name": "71bb35e1a138a584ce226f746b788ba3", "rental_uris": {"android": "https://dc.lft.to/lastmile_qr_scan", "ios": "https://dc.lft.to/lastmile_qr_scan"}, "lon": -77.04215416666666, "fusion_lat": 0.0, "is_disabled": 0, "is_reserved": 0, "lat": 38.9024465, "type": "electric_scooter"}, {"fusion_lon": 0.0, "bike_id": "80007ac8d733deb831edeac4371117d2", "name": "80007ac8d733deb831edeac4371117d2", "rental_uris": {"android": "https://dc.lft.to/lastmile_qr_scan", "ios": "https://dc.lft.to/lastmile_qr_scan"}, "lon": -77.05556666666666, "fusion_lat": 0.0, "is_disabled": 0, "is_reserved": 0, "lat": 38.925333, "type": "electric_scooter"}, {"fusion_lon": 0.0, "bike_id": "fdd2530227966de4b5ded7c65e303b15", "name": "fdd2530227966de4b5ded7c65e303b15", "rental_uris": {"android": "https://dc.lft.to/lastmile_qr_scan", "ios": "https://dc.lft.to/lastmile_qr_scan"}, "lon": -77.03283116666667, "fusion_lat": 0.0, "is_disabled": 0, "is_reserved": 0, "lat": 38.9396675, "type": "electric_scooter"}, {"fusion_lon": 0.0, "bike_id": "a394399394766cb3d903f3de1d41a672", "name": "a394399394766cb3d903f3de1d41a672", "rental_uris": {"android": "https://dc.lft.to/lastmile_qr_scan", "ios": "https://dc.lft.to/lastmile_qr_scan"}, "lon": -77.01534733333334, "fusion_lat": 0.0, "is_disabled": 0, "is_reserved": 0, "lat": 38.8873365, "type": "electric_scooter"}, {"fusion_lon": 0.0, "bike_id": "e90d45bb62f77eed03777859ada152d2", "name": "e90d45bb62f77eed03777859ada152d2", "rental_uris": {"android": "https://dc.lft.to/lastmile_qr_scan", "ios": "https://dc.lft.to/lastmile_qr_scan"}, "lon": -77.06348366666667, "fusion_lat": 0.0, "is_disabled": 0, "is_reserved": 0, "lat": 38.944554, "type": "electric_scooter"}, {"fusion_lon": 0.0, "bike_id": "0d82288233c80de84d6cb721d5b8df50", "name": "0d82288233c80de84d6cb721d5b8df50", "rental_uris": {"android": "https://dc.lft.to/lastmile_qr_scan", "ios": "https://dc.lft.to/lastmile_qr_scan"}, "lon": -77.09627816666666, "fusion_lat": 0.0, "is_disabled": 0, "is_reserved": 0, "lat": 38.9460805, "type": "electric_scooter"}, {"fusion_lon": 0.0, "bike_id": "95d7f3df2f2b4bdd85beef4a3b5c28b7", "name": "95d7f3df2f2b4bdd85beef4a3b5c28b7", "rental_uris": {"android": "https://dc.lft.to/lastmile_qr_scan", "ios": "https://dc.lft.to/lastmile_qr_scan"}, "lon": -77.02065966666666, "fusion_lat": 0.0, "is_disabled": 0, "is_reserved": 0, "lat": 38.927653, "type": "electric_scooter"}, {"fusion_lon": 0.0, "bike_id": "7ed26d0683b308af339c8518fef4dfdd", "name": "7ed26d0683b308af339c8518fef4dfdd", "rental_uris": {"android": "https://dc.lft.to/lastmile_qr_scan", "ios": "https://dc.lft.to/lastmile_qr_scan"}, "lon": -77.01686416666666, "fusion_lat": 0.0, "is_disabled": 0, "is_reserved": 0, "lat": 38.92058733333333, "type": "electric_scooter"}, {"fusion_lon": 0.0, "bike_id": "4bde0867654516a1e52414f887440306", "name": "4bde0867654516a1e52414f887440306", "rental_uris": {"android": "https://dc.lft.to/lastmile_qr_scan", "ios": "https://dc.lft.to/lastmile_qr_scan"}, "lon": -77.00287883333333, "fusion_lat": 0.0, "is_disabled": 0, "is_reserved": 0, "lat": 38.87648083333333, "type": "electric_scooter"}, {"fusion_lon": 0.0, "bike_id": "566b3bb6f3a20a5ff1015d7abee57f98", "name": "566b3bb6f3a20a5ff1015d7abee57f98", "rental_uris": {"android": "https://dc.lft.to/lastmile_qr_scan", "ios": "https://dc.lft.to/lastmile_qr_scan"}, "lon": -77.0378535, "fusion_lat": 0.0, "is_disabled": 0, "is_reserved": 0, "lat": 38.90250966666667, "type": "electric_scooter"}, {"fusion_lon": 0.0, "bike_id": "131ac47f599e3d8fbaea49b66fcb7121", "name": "131ac47f599e3d8fbaea49b66fcb7121", "rental_uris": {"android": "https://dc.lft.to/lastmile_qr_scan", "ios": "https://dc.lft.to/lastmile_qr_scan"}, "lon": -77.0315555, "fusion_lat": 0.0, "is_disabled": 0, "is_reserved": 0, "lat": 38.899532666666666, "type": "electric_scooter"}, {"fusion_lon": 0.0, "bike_id": "50d619dc138dc7a747db599f1207cd7c", "name": "50d619dc138dc7a747db599f1207cd7c", "rental_uris": {"android": "https://dc.lft.to/lastmile_qr_scan", "ios": "https://dc.lft.to/lastmile_qr_scan"}, "lon": -77.02396216666666, "fusion_lat": 0.0, "is_disabled": 0, "is_reserved": 0, "lat": 38.91607533333333, "type": "electric_scooter"}, {"fusion_lon": 0.0, "bike_id": "702582c8aeee6568c1955b24b4618649", "name": "702582c8aeee6568c1955b24b4618649", "rental_uris": {"android": "https://dc.lft.to/lastmile_qr_scan", "ios": "https://dc.lft.to/lastmile_qr_scan"}, "lon": -77.067851, "fusion_lat": 0.0, "is_disabled": 0, "is_reserved": 0, "lat": 38.915973, "type": "electric_scooter"}, {"fusion_lon": 0.0, "bike_id": "0104f599eb5223e8a8c9027ab5c9ec73", "name": "0104f599eb5223e8a8c9027ab5c9ec73", "rental_uris": {"android": "https://dc.lft.to/lastmile_qr_scan", "ios": "https://dc.lft.to/lastmile_qr_scan"}, "lon": -77.08860033333333, "fusion_lat": 0.0, "is_disabled": 0, "is_reserved": 0, "lat": 38.93384133333333, "type": "electric_scooter"}, {"fusion_lon": 0.0, "bike_id": "1d2bc08e7db49ec19485c26922572f17", "name": "1d2bc08e7db49ec19485c26922572f17", "rental_uris": {"android": "https://dc.lft.to/lastmile_qr_scan", "ios": "https://dc.lft.to/lastmile_qr_scan"}, "lon": -77.02476366666667, "fusion_lat": 0.0, "is_disabled": 0, "is_reserved": 0, "lat": 38.9419655, "type": "electric_scooter"}, {"fusion_lon": 0.0, "bike_id": "766bd6ba53169d65b28eadcf57410982", "name": "766bd6ba53169d65b28eadcf57410982", "rental_uris": {"android": "https://dc.lft.to/lastmile_qr_scan", "ios": "https://dc.lft.to/lastmile_qr_scan"}, "lon": -77.01378366666667, "fusion_lat": 0.0, "is_disabled": 0, "is_reserved": 0, "lat": 38.954019, "type": "electric_scooter"}, {"fusion_lon": 0.0, "bike_id": "44d2c8baadd34b3fa49bab42b9687a58", "name": "44d2c8baadd34b3fa49bab42b9687a58", "rental_uris": {"android": "https://dc.lft.to/lastmile_qr_scan", "ios": "https://dc.lft.to/lastmile_qr_scan"}, "lon": -77.01373766666667, "fusion_lat": 0.0, "is_disabled": 0, "is_reserved": 0, "lat": 38.928800333333335, "type": "electric_scooter"}, {"fusion_lon": 0.0, "bike_id": "27e72476185e7dde7767b5e4c7d405a3", "name": "27e72476185e7dde7767b5e4c7d405a3", "rental_uris": {"android": "https://dc.lft.to/lastmile_qr_scan", "ios": "https://dc.lft.to/lastmile_qr_scan"}, "lon": -77.00361083333334, "fusion_lat": 0.0, "is_disabled": 0, "is_reserved": 0, "lat": 38.896374333333334, "type": "electric_scooter"}, {"fusion_lon": 0.0, "bike_id": "0c694cdb0d863187749516d2fdca5512", "name": "0c694cdb0d863187749516d2fdca5512", "rental_uris": {"android": "https://dc.lft.to/lastmile_qr_scan", "ios": "https://dc.lft.to/lastmile_qr_scan"}, "lon": -77.042794, "fusion_lat": 0.0, "is_disabled": 0, "is_reserved": 0, "lat": 38.93424666666667, "type": "electric_scooter"}, {"fusion_lon": 0.0, "bike_id": "f0a0c7aa82ba0562944a321c7057c58e", "name": "f0a0c7aa82ba0562944a321c7057c58e", "rental_uris": {"android": "https://dc.lft.to/lastmile_qr_scan", "ios": "https://dc.lft.to/lastmile_qr_scan"}, "lon": -77.03936816666666, "fusion_lat": 0.0, "is_disabled": 0, "is_reserved": 0, "lat": 38.901647833333335, "type": "electric_scooter"}, {"fusion_lon": 0.0, "bike_id": "2d7ef9eb555c52cf7c6b726326f97dee", "name": "2d7ef9eb555c52cf7c6b726326f97dee", "rental_uris": {"android": "https://dc.lft.to/lastmile_qr_scan", "ios": "https://dc.lft.to/lastmile_qr_scan"}, "lon": -77.00073083333334, "fusion_lat": 0.0, "is_disabled": 0, "is_reserved": 0, "lat": 38.92391933333333, "type": "electric_scooter"}, {"fusion_lon": 0.0, "bike_id": "438886f73e3fe7d2f55771ddee06f4e3", "name": "438886f73e3fe7d2f55771ddee06f4e3", "rental_uris": {"android": "https://dc.lft.to/lastmile_qr_scan", "ios": "https://dc.lft.to/lastmile_qr_scan"}, "lon": -77.03284516666666, "fusion_lat": 0.0, "is_disabled": 0, "is_reserved": 0, "lat": 38.9379815, "type": "electric_scooter"}, {"fusion_lon": 0.0, "bike_id": "303126265592a4b8759a378b05bd457f", "name": "303126265592a4b8759a378b05bd457f", "rental_uris": {"android": "https://dc.lft.to/lastmile_qr_scan", "ios": "https://dc.lft.to/lastmile_qr_scan"}, "lon": -77.0414445, "fusion_lat": 0.0, "is_disabled": 0, "is_reserved": 0, "lat": 38.9068395, "type": "electric_scooter"}, {"fusion_lon": 0.0, "bike_id": "eefedd4f799b018167e28c05718a7115", "name": "eefedd4f799b018167e28c05718a7115", "rental_uris": {"android": "https://dc.lft.to/lastmile_qr_scan", "ios": "https://dc.lft.to/lastmile_qr_scan"}, "lon": -77.00482416666667, "fusion_lat": 0.0, "is_disabled": 0, "is_reserved": 0, "lat": 38.88514416666666, "type": "electric_scooter"}, {"fusion_lon": 0.0, "bike_id": "aa2fd7762c4fb05e93c54a26861bdb45", "name": "aa2fd7762c4fb05e93c54a26861bdb45", "rental_uris": {"android": "https://dc.lft.to/lastmile_qr_scan", "ios": "https://dc.lft.to/lastmile_qr_scan"}, "lon": -77.00432066666667, "fusion_lat": 0.0, "is_disabled": 0, "is_reserved": 0, "lat": 38.8765855, "type": "electric_scooter"}, {"fusion_lon": 0.0, "bike_id": "8861c6bd142e8e237520a9a18a1beda6", "name": "8861c6bd142e8e237520a9a18a1beda6", "rental_uris": {"android": "https://dc.lft.to/lastmile_qr_scan", "ios": "https://dc.lft.to/lastmile_qr_scan"}, "lon": -77.03959016666667, "fusion_lat": 0.0, "is_disabled": 0, "is_reserved": 0, "lat": 38.89243066666667, "type": "electric_scooter"}, {"fusion_lon": 0.0, "bike_id": "76084006f015e4d3e7e477684ba507c9", "name": "76084006f015e4d3e7e477684ba507c9", "rental_uris": {"android": "https://dc.lft.to/lastmile_qr_scan", "ios": "https://dc.lft.to/lastmile_qr_scan"}, "lon": -76.99312783333333, "fusion_lat": 0.0, "is_disabled": 0, "is_reserved": 0, "lat": 38.946350833333334, "type": "electric_bike"}, {"fusion_lon": 0.0, "bike_id": "ddf2fa29e1380b78c1eab58a5b9e23ed", "name": "ddf2fa29e1380b78c1eab58a5b9e23ed", "rental_uris": {"android": "https://dc.lft.to/lastmile_qr_scan", "ios": "https://dc.lft.to/lastmile_qr_scan"}, "lon": -77.03228983333334, "fusion_lat": 0.0, "is_disabled": 0, "is_reserved": 0, "lat": 38.9288135, "type": "electric_scooter"}, {"fusion_lon": 0.0, "bike_id": "70c743df91fbddde00adcc74e390daa9", "name": "70c743df91fbddde00adcc74e390daa9", "rental_uris": {"android": "https://dc.lft.to/lastmile_qr_scan", "ios": "https://dc.lft.to/lastmile_qr_scan"}, "lon": -76.95826366666667, "fusion_lat": 0.0, "is_disabled": 0, "is_reserved": 0, "lat": 38.92003183333333, "type": "electric_bike"}, {"fusion_lon": 0.0, "bike_id": "219f32c1fc30a026a2dd782e2d9d3a21", "name": "219f32c1fc30a026a2dd782e2d9d3a21", "rental_uris": {"android": "https://dc.lft.to/lastmile_qr_scan", "ios": "https://dc.lft.to/lastmile_qr_scan"}, "lon": -77.0314335, "fusion_lat": 0.0, "is_disabled": 0, "is_reserved": 0, "lat": 38.89953916666666, "type": "electric_scooter"}, {"fusion_lon": 0.0, "bike_id": "25a517a532636c7211e0dc69ee364080", "name": "25a517a532636c7211e0dc69ee364080", "rental_uris": {"android": "https://dc.lft.to/lastmile_qr_scan", "ios": "https://dc.lft.to/lastmile_qr_scan"}, "lon": -77.02403516666666, "fusion_lat": 0.0, "is_disabled": 0, "is_reserved": 0, "lat": 38.925029333333335, "type": "electric_scooter"}, {"fusion_lon": 0.0, "bike_id": "ec85d70aa2dc9c4f1ff1b60da322c7a3", "name": "ec85d70aa2dc9c4f1ff1b60da322c7a3", "rental_uris": {"android": "https://dc.lft.to/lastmile_qr_scan", "ios": "https://dc.lft.to/lastmile_qr_scan"}, "lon": -77.0215605, "fusion_lat": 0.0, "is_disabled": 0, "is_reserved": 0, "lat": 38.92603733333333, "type": "electric_scooter"}, {"fusion_lon": 0.0, "bike_id": "859e73d5576673fa4b9ae80574e668a7", "name": "859e73d5576673fa4b9ae80574e668a7", "rental_uris": {"android": "https://dc.lft.to/lastmile_qr_scan", "ios": "https://dc.lft.to/lastmile_qr_scan"}, "lon": -77.02609066666666, "fusion_lat": 0.0, "is_disabled": 0, "is_reserved": 0, "lat": 38.898582833333336, "type": "electric_scooter"}, {"fusion_lon": 0.0, "bike_id": "9313b17886db99cff67a74dc3b99b1b4", "name": "9313b17886db99cff67a74dc3b99b1b4", "rental_uris": {"android": "https://dc.lft.to/lastmile_qr_scan", "ios": "https://dc.lft.to/lastmile_qr_scan"}, "lon": -76.97990816666666, "fusion_lat": 0.0, "is_disabled": 0, "is_reserved": 0, "lat": 38.907311666666665, "type": "electric_scooter"}, {"fusion_lon": 0.0, "bike_id": "a881a895f8d99b6d46ed50408f134307", "name": "a881a895f8d99b6d46ed50408f134307", "rental_uris": {"android": "https://dc.lft.to/lastmile_qr_scan", "ios": "https://dc.lft.to/lastmile_qr_scan"}, "lon": -76.97328833333333, "fusion_lat": 0.0, "is_disabled": 0, "is_reserved": 0, "lat": 38.904097, "type": "electric_scooter"}, {"fusion_lon": 0.0, "bike_id": "b83f094a5a5b0e63b1e863b752c82447", "name": "b83f094a5a5b0e63b1e863b752c82447", "rental_uris": {"android": "https://dc.lft.to/lastmile_qr_scan", "ios": "https://dc.lft.to/lastmile_qr_scan"}, "lon": -77.04864966666666, "fusion_lat": 0.0, "is_disabled": 0, "is_reserved": 0, "lat": 38.8995675, "type": "electric_scooter"}, {"fusion_lon": 0.0, "bike_id": "8bcc398eccf0b9e32009ef4b947a1b63", "name": "8bcc398eccf0b9e32009ef4b947a1b63", "rental_uris": {"android": "https://dc.lft.to/lastmile_qr_scan", "ios": "https://dc.lft.to/lastmile_qr_scan"}, "lon": -77.06077516666667, "fusion_lat": 0.0, "is_disabled": 0, "is_reserved": 0, "lat": 38.902317833333335, "type": "electric_scooter"}, {"fusion_lon": 0.0, "bike_id": "f2f6479fabfa8d42e66c0583d5b5b4ed", "name": "f2f6479fabfa8d42e66c0583d5b5b4ed", "rental_uris": {"android": "https://dc.lft.to/lastmile_qr_scan", "ios": "https://dc.lft.to/lastmile_qr_scan"}, "lon": -77.02312366666666, "fusion_lat": 0.0, "is_disabled": 0, "is_reserved": 0, "lat": 38.9015825, "type": "electric_scooter"}, {"fusion_lon": 0.0, "bike_id": "81101ca50ddad5c8dd4d3150f279ef1f", "name": "81101ca50ddad5c8dd4d3150f279ef1f", "rental_uris": {"android": "https://dc.lft.to/lastmile_qr_scan", "ios": "https://dc.lft.to/lastmile_qr_scan"}, "lon": -77.03740716666667, "fusion_lat": 0.0, "is_disabled": 0, "is_reserved": 0, "lat": 38.90763533333333, "type": "electric_scooter"}, {"fusion_lon": 0.0, "bike_id": "316167abf0d54a69f17161c1c31d2d09", "name": "316167abf0d54a69f17161c1c31d2d09", "rental_uris": {"android": "https://dc.lft.to/lastmile_qr_scan", "ios": "https://dc.lft.to/lastmile_qr_scan"}, "lon": -77.12988083333333, "fusion_lat": 0.0, "is_disabled": 0, "is_reserved": 0, "lat": 38.7998525, "type": "electric_bike"}, {"fusion_lon": 0.0, "bike_id": "4e10efd0b3838ac1fe7aa76d487ca8ee", "name": "4e10efd0b3838ac1fe7aa76d487ca8ee", "rental_uris": {"android": "https://dc.lft.to/lastmile_qr_scan", "ios": "https://dc.lft.to/lastmile_qr_scan"}, "lon": -77.00764683333334, "fusion_lat": 0.0, "is_disabled": 0, "is_reserved": 0, "lat": 38.87111316666667, "type": "electric_scooter"}, {"fusion_lon": 0.0, "bike_id": "92aeb6a5975d605e9928297773570772", "name": "92aeb6a5975d605e9928297773570772", "rental_uris": {"android": "https://dc.lft.to/lastmile_qr_scan", "ios": "https://dc.lft.to/lastmile_qr_scan"}, "lon": -76.97338016666667, "fusion_lat": 0.0, "is_disabled": 0, "is_reserved": 0, "lat": 38.855555, "type": "electric_bike"}, {"fusion_lon": 0.0, "bike_id": "46180a1cc54683c09c39ba2fd1eb8b55", "name": "46180a1cc54683c09c39ba2fd1eb8b55", "rental_uris": {"android": "https://dc.lft.to/lastmile_qr_scan", "ios": "https://dc.lft.to/lastmile_qr_scan"}, "lon": -77.11775766666666, "fusion_lat": 0.0, "is_disabled": 0, "is_reserved": 0, "lat": 38.81258533333333, "type": "electric_bike"}, {"fusion_lon": 0.0, "bike_id": "4f64c94776ab0eafdeb7bdc7c245c385", "name": "4f64c94776ab0eafdeb7bdc7c245c385", "rental_uris": {"android": "https://dc.lft.to/lastmile_qr_scan", "ios": "https://dc.lft.to/lastmile_qr_scan"}, "lon": -77.04248533333333, "fusion_lat": 0.0, "is_disabled": 0, "is_reserved": 0, "lat": 38.92430433333333, "type": "electric_scooter"}, {"fusion_lon": 0.0, "bike_id": "3ade80b894d32a3044b99a934263b3a4", "name": "3ade80b894d32a3044b99a934263b3a4", "rental_uris": {"android": "https://dc.lft.to/lastmile_qr_scan", "ios": "https://dc.lft.to/lastmile_qr_scan"}, "lon": -77.041646, "fusion_lat": 0.0, "is_disabled": 0, "is_reserved": 0, "lat": 38.907215, "type": "electric_scooter"}, {"fusion_lon": 0.0, "bike_id": "826a02b8e2007af3c70e246e79f80523", "name": "826a02b8e2007af3c70e246e79f80523", "rental_uris": {"android": "https://dc.lft.to/lastmile_qr_scan", "ios": "https://dc.lft.to/lastmile_qr_scan"}, "lon": -77.0365685, "fusion_lat": 0.0, "is_disabled": 0, "is_reserved": 0, "lat": 38.90678283333333, "type": "electric_scooter"}, {"fusion_lon": 0.0, "bike_id": "8562524376741dd53ce0bb322917206b", "name": "8562524376741dd53ce0bb322917206b", "rental_uris": {"android": "https://dc.lft.to/lastmile_qr_scan", "ios": "https://dc.lft.to/lastmile_qr_scan"}, "lon": -77.03220033333334, "fusion_lat": 0.0, "is_disabled": 0, "is_reserved": 0, "lat": 38.929016, "type": "electric_scooter"}, {"fusion_lon": 0.0, "bike_id": "d6aba2740f76659842ea045ed0ca5a4a", "name": "d6aba2740f76659842ea045ed0ca5a4a", "rental_uris": {"android": "https://dc.lft.to/lastmile_qr_scan", "ios": "https://dc.lft.to/lastmile_qr_scan"}, "lon": -77.041971, "fusion_lat": 0.0, "is_disabled": 0, "is_reserved": 0, "lat": 38.926226, "type": "electric_scooter"}, {"fusion_lon": 0.0, "bike_id": "57b96ee323e7958d5c0facc67817513d", "name": "57b96ee323e7958d5c0facc67817513d", "rental_uris": {"android": "https://dc.lft.to/lastmile_qr_scan", "ios": "https://dc.lft.to/lastmile_qr_scan"}, "lon": -77.0420005, "fusion_lat": 0.0, "is_disabled": 0, "is_reserved": 0, "lat": 38.927178, "type": "electric_scooter"},