{"data": {"bikes": [{"lon": -77.038554, "bike_id": "ce65cf7ecf56ec4df40f45f18ed5e0d2", "lat": 38.91581133333333, "fusion_lon": 0.0, "fusion_lat": 0.0, "type": "electric_scooter", "name": "ce65cf7ecf56ec4df40f45f18ed5e0d2", "is_disabled": 0, "rental_uris": {"ios": "https://dc.lft.to/lastmile_qr_scan", "android": "https://dc.lft.to/lastmile_qr_scan"}, "is_reserved": 0}, {"lon": -77.054282, "bike_id": "6356309e4d1fd3997ce6930989ff5df3", "lat": 38.90137333333333, "fusion_lon": 0.0, "fusion_lat": 0.0, "type": "electric_scooter", "name": "6356309e4d1fd3997ce6930989ff5df3", "is_disabled": 0, "rental_uris": {"ios": "https://dc.lft.to/lastmile_qr_scan", "android": "https://dc.lft.to/lastmile_qr_scan"}, "is_reserved": 0}, {"lon": -77.03356616666666, "bike_id": "7e1db5d827bd51a60ce7657eebf52030", "lat": 38.9029095, "fusion_lon": 0.0, "fusion_lat": 0.0, "type": "electric_scooter", "name": "7e1db5d827bd51a60ce7657eebf52030", "is_disabled": 0, "rental_uris": {"ios": "https://dc.lft.to/lastmile_qr_scan", "android": "https://dc.lft.to/lastmile_qr_scan"}, "is_reserved": 0}, {"lon": -76.988895, "bike_id": "12e05466fa8a148923a5dd3d6d6ca22e", "lat": 38.866535999999996, "fusion_lon": 0.0, "fusion_lat": 0.0, "type": "electric_scooter", "name": "12e05466fa8a148923a5dd3d6d6ca22e", "is_disabled": 0, "rental_uris": {"ios": "https://dc.lft.to/lastmile_qr_scan", "android": "https://dc.lft.to/lastmile_qr_scan"}, "is_reserved": 0}, {"lon": -77.03206916666667, "bike_id": "b6017455aade0b7e7f505bdebd500b62", "lat": 38.944054666666666, "fusion_lon": 0.0, "fusion_lat": 0.0, "type": "electric_scooter", "name": "b6017455aade0b7e7f505bdebd500b62", "is_disabled": 0, "rental_uris": {"ios": "https://dc.lft.to/lastmile_qr_scan", "android": "https://dc.lft.to/lastmile_qr_scan"}, "is_reserved": 0}, {"lon": -77.02022066666666, "bike_id": "0c1e64dd3f9d85760e358927468b2aec", "lat": 38.901369333333335, "fusion_lon": 0.0, "fusion_lat": 0.0, "type": "electric_scooter", "name": "0c1e64dd3f9d85760e358927468b2aec", "is_disabled": 0, "rental_uris": {"ios": "https://dc.lft.to/lastmile_qr_scan", "android": "https://dc.lft.to/lastmile_qr_scan"}, "is_reserved": 0}, {"lon": -77.03763233333333, "bike_id": "68dcbc5ba733aca36cd32abf43f209ae", "lat": 38.92947483333333, "fusion_lon": 0.0, "fusion_lat": 0.0, "type": "electric_scooter", "name": "68dcbc5ba733aca36cd32abf43f209ae", "is_disabled": 0, "rental_uris": {"ios": "https://dc.lft.to/lastmile_qr_scan", "android": "https://dc.lft.to/lastmile_qr_scan"}, "is_reserved": 0}, {"lon": -77.00040683333333, "bike_id": "13edc93206e194f0663cfe8051ae2bd4", "lat": 38.968119333333334, "fusion_lon": 0.0, "fusion_lat": 0.0, "type": "electric_bike", "name": "13edc93206e194f0663cfe8051ae2bd4", "is_disabled": 0, "rental_uris": {"ios": "https://dc.lft.to/lastmile_qr_scan", "android": "https://dc.lft.to/lastmile_qr_scan"}, "is_reserved": 0}, {"lon": -76.97690366666667, "bike_id": "bcf35d84c2ccedba43bd9d84ccc31e24", "lat": 38.89610733333333, "fusion_lon": 0.0, "fusion_lat": 0.0, "type": "electric_scooter", "name": "bcf35d84c2ccedba43bd9d84ccc31e24", "is_disabled": 0, "rental_uris": {"ios": "https://dc.lft.to/lastmile_qr_scan", "android": "https://dc.lft.to/lastmile_qr_scan"}, "is_reserved": 0}, {"lon": -76.9864735, "bike_id": "61a3879be5702fbd4c430e29096786a8", "lat": 38.901417333333335, "fusion_lon": 0.0, "fusion_lat": 0.0, "type": "electric_scooter", "name": "61a3879be5702fbd4c430e29096786a8", "is_disabled": 0, "rental_uris": {"ios": "https://dc.lft.to/lastmile_qr_scan", "android": "https://dc.lft.to/lastmile_qr_scan"}, "is_reserved": 0}, {"lon": -77.015338, "bike_id": "4c45639ae8876fe5986618e520d44ca4", "lat": 38.89224983333333, "fusion_lon": 0.0, "fusion_lat": 0.0, "type": "electric_scooter", "name": "4c45639ae8876fe5986618e520d44ca4", "is_disabled": 0, "rental_uris": {"ios": "https://dc.lft.to/lastmile_qr_scan", "android": "https://dc.lft.to/lastmile_qr_scan"}, "is_reserved": 0}, {"lon": -77.00073133333333, "bike_id": "046e7aeab5a478d2ec21b1f67d6a965a", "lat": 38.897288833333334, "fusion_lon": 0.0, "fusion_lat": 0.0, "type": "electric_scooter", "name": "046e7aeab5a478d2ec21b1f67d6a965a", "is_disabled": 0, "rental_uris": {"ios": "https://dc.lft.to/lastmile_qr_scan", "android": "https://dc.lft.to/lastmile_qr_scan"}, "is_reserved": 0}, {"lon": -77.022005, "bike_id": "c58f5272e7089c2ce6d0d2179964f3cd", "lat": 38.916443, "fusion_lon": 0.0, "fusion_lat": 0.0, "type": "electric_scooter", "name": "c58f5272e7089c2ce6d0d2179964f3cd", "is_disabled": 0, "rental_uris": {"ios": "https://dc.lft.to/lastmile_qr_scan", "android": "https://dc.lft.to/lastmile_qr_scan"}, "is_reserved": 0}, {"lon": -77.01433766666666, "bike_id": "1e045e049d720d6fabdc3eac46b634e7", "lat": 38.97215533333333, "fusion_lon": 0.0, "fusion_lat": 0.0, "type": "electric_bike", "name": "1e045e049d720d6fabdc3eac46b634e7", "is_disabled": 0, "rental_uris": {"ios": "https://dc.lft.to/lastmile_qr_scan", "android": "https://dc.lft.to/lastmile_qr_scan"}, "is_reserved": 0}, {"lon": -77.0546715, "bike_id": "04f28205b6ae1858e21bab960fca1b57", "lat": 38.8554585, "fusion_lon": 0.0, "fusion_lat": 0.0, "type": "electric_bike", "name": "04f28205b6ae1858e21bab960fca1b57", "is_disabled": 0, "rental_uris": {"ios": "https://dc.lft.to/lastmile_qr_scan", "android": "https://dc.lft.to/lastmile_qr_scan"}, "is_reserved": 0}, {"lon": -77.028718, "bike_id": "2fbf79a04f0cf2254d8d4a55230d5d19", "lat": 38.8849265, "fusion_lon": 0.0, "fusion_lat": 0.0, "type": "electric_scooter", "name": "2fbf79a04f0cf2254d8d4a55230d5d19", "is_disabled": 0, "rental_uris": {"ios": "https://dc.lft.to/lastmile_qr_scan", "android": "https://dc.lft.to/lastmile_qr_scan"}, "is_reserved": 0}, {"lon": -76.97619183333333, "bike_id": "ac58160c6052354afebac020ea2858b9", "lat": 38.92654, "fusion_lon": 0.0, "fusion_lat": 0.0, "type": "electric_scooter", "name": "ac58160c6052354afebac020ea2858b9", "is_disabled": 0, "rental_uris": {"ios": "https://dc.lft.to/lastmile_qr_scan", "android": "https://dc.lft.to/lastmile_qr_scan"}, "is_reserved": 0}, {"lon": -77.0436135, "bike_id": "40f4eaffc2222445940b055b2e64c6d7", "lat": 38.921403833333336, "fusion_lon": 0.0, "fusion_lat": 0.0, "type": "electric_scooter", "name": "40f4eaffc2222445940b055b2e64c6d7", "is_disabled": 0, "rental_uris": {"ios": "https://dc.lft.to/lastmile_qr_scan", "android": "https://dc.lft.to/lastmile_qr_scan"}, "is_reserved": 0}, {"lon": -77.0186965, "bike_id": "d258de5494d2356f964bc992d3a14d10", "lat": 38.9515155, "fusion_lon": 0.0, "fusion_lat": 0.0, "type": "electric_scooter", "name": "d258de5494d2356f964bc992d3a14d10", "is_disabled": 0, "rental_uris": {"ios": "https://dc.lft.to/lastmile_qr_scan", "android": "https://dc.lft.to/lastmile_qr_scan"}, "is_reserved": 0}, {"lon": -77.03926416666667, "bike_id": "7ac5638ccc5a72410549de60e00550b7", "lat": 38.92798483333333, "fusion_lon": 0.0, "fusion_lat": 0.0, "type": "electric_scooter", "name": "7ac5638ccc5a72410549de60e00550b7", "is_disabled": 0, "rental_uris": {"ios": "https://dc.lft.to/lastmile_qr_scan", "android": "https://dc.lft.to/lastmile_qr_scan"}, "is_reserved": 0}, {"lon": -77.0330125, "bike_id": "f7559c21cb9e7a25534420ac77bd0ef7", "lat": 38.903665, "fusion_lon": 0.0, "fusion_lat": 0.0, "type": "electric_scooter", "name": "f7559c21cb9e7a25534420ac77bd0ef7", "is_disabled": 0, "rental_uris": {"ios": "https://dc.lft.to/lastmile_qr_scan", "android": "https://dc.lft.to/lastmile_qr_scan"}, "is_reserved": 0}, {"lon": -77.00661683333334, "bike_id": "240181acc96f5b1f8ecb3c5920cf09d8", "lat": 38.8999365, "fusion_lon": 0.0, "fusion_lat": 0.0, "type": "electric_scooter", "name": "240181acc96f5b1f8ecb3c5920cf09d8", "is_disabled": 0, "rental_uris": {"ios": "https://dc.lft.to/lastmile_qr_scan", "android": "https://dc.lft.to/lastmile_qr_scan"}, "is_reserved": 0}, {"lon": -77.12977266666667, "bike_id": "14d03ee84cea446e482b4cb5e8fbbc28", "lat": 38.799867666666664, "fusion_lon": 0.0, "fusion_lat": 0.0, "type": "electric_bike", "name": "14d03ee84cea446e482b4cb5e8fbbc28", "is_disabled": 0, "rental_uris": {"ios": "https://dc.lft.to/lastmile_qr_scan", "android": "https://dc.lft.to/lastmile_qr_scan"}, "is_reserved": 0}, {"lon": -77.02595883333333, "bike_id": "b312519002fe4e0fa0254c287d28462b", "lat": 38.918483, "fusion_lon": 0.0, "fusion_lat": 0.0, "type": "electric_scooter", "name": "b312519002fe4e0fa0254c287d28462b", "is_disabled": 0, "rental_uris": {"ios": "https://dc.lft.to/lastmile_qr_scan", "android": "https://dc.lft.to/lastmile_qr_scan"}, "is_reserved": 0}, {"lon": -77.00200333333333, "bike_id": "d23839af13a2b86060b7956f6a52a069", "lat": 38.90240266666667, "fusion_lon": 0.0, "fusion_lat": 0.0, "type": "electric_scooter", "name": "d23839af13a2b86060b7956f6a52a069", "is_disabled": 0, "rental_uris": {"ios": "https://dc.lft.to/lastmile_qr_scan", "android": "https://dc.lft.to/lastmile_qr_scan"}, "is_reserved": 0}, {"lon": -77.00675433333333, "bike_id": "34aeefdf9a7a4e131c63da4d5e53a0fa", "lat": 38.90032433333333, "fusion_lon": 0.0, "fusion_lat": 0.0, "type": "electric_scooter", "name": "34aeefdf9a7a4e131c63da4d5e53a0fa", "is_disabled": 0, "rental_uris": {"ios": "https://dc.lft.to/lastmile_qr_scan", "android": "https://dc.lft.to/lastmile_qr_scan"}, "is_reserved": 0}, {"lon": -76.99379816666666, "bike_id": "ffe1daa9646b623b8c610c6ea3b6704c", "lat": 38.971853, "fusion_lon": 0.0, "fusion_lat": 0.0, "type": "electric_bike", "name": "ffe1daa9646b623b8c610c6ea3b6704c", "is_disabled": 0, "rental_uris": {"ios": "https://dc.lft.to/lastmile_qr_scan", "android": "https://dc.lft.to/lastmile_qr_scan"}, "is_reserved": 0}, {"lon": -77.07011466666667, "bike_id": "25af0ac72220175195c82ee74fe4f19f", "lat": 38.95850216666667, "fusion_lon": 0.0, "fusion_lat": 0.0, "type": "electric_scooter", "name": "25af0ac72220175195c82ee74fe4f19f", "is_disabled": 0, "rental_uris": {"ios": "https://dc.lft.to/lastmile_qr_scan", "android": "https://dc.lft.to/lastmile_qr_scan"}, "is_reserved": 0}, {"lon": -77.00576283333334, "bike_id": "7456e5bf5521c49d1181f7652c0b5754", "lat": 38.8359245, "fusion_lon": 0.0, "fusion_lat": 0.0, "type": "electric_scooter", "name": "7456e5bf5521c49d1181f7652c0b5754", "is_disabled": 0, "rental_uris": {"ios": "https://dc.lft.to/lastmile_qr_scan", "android": "https://dc.lft.to/lastmile_qr_scan"}, "is_reserved": 0}, {"lon": -76.948883, "bike_id": "c89e98091a7bdcb0600c6b3bd2eff86d", "lat": 38.8953665, "fusion_lon": 0.0, "fusion_lat": 0.0, "type": "electric_scooter", "name": "c89e98091a7bdcb0600c6b3bd2eff86d", "is_disabled": 0, "rental_uris": {"ios": "https://dc.lft.to/lastmile_qr_scan", "android": "https://dc.lft.to/lastmile_qr_scan"}, "is_reserved": 0}, {"lon": -77.08072333333334, "bike_id": "c92104d83fed89c5a2de1f411a94b05d", "lat": 38.963126, "fusion_lon": 0.0, "fusion_lat": 0.0, "type": "electric_bike", "name": "c92104d83fed89c5a2de1f411a94b05d", "is_disabled": 0, "rental_uris": {"ios": "https://dc.lft.to/lastmile_qr_scan", "android": "https://dc.lft.to/lastmile_qr_scan"}, "is_reserved": 0}, {"lon": -77.02562416666666, "bike_id": "1ea15ac9c6018087e2373b7147c04927", "lat": 38.91680366666667, "fusion_lon": 0.0, "fusion_lat": 0.0, "type": "electric_scooter", "name": "1ea15ac9c6018087e2373b7147c04927", "is_disabled": 0, "rental_uris": {"ios": "https://dc.lft.to/lastmile_qr_scan", "android": "https://dc.lft.to/lastmile_qr_scan"}, "is_reserved": 0}, {"lon": -77.024958, "bike_id": "a8303b53cc3b83a5581a0b59a3173da0", "lat": 38.94182383333333, "fusion_lon": 0.0, "fusion_lat": 0.0, "type": "electric_scooter", "name": "a8303b53cc3b83a5581a0b59a3173da0", "is_disabled": 0, "rental_uris": {"ios": "https://dc.lft.to/lastmile_qr_scan", "android": "https://dc.lft.to/lastmile_qr_scan"}, "is_reserved": 0}, {"lon": -76.98350716666667, "bike_id": "44ab4bb5fd886d15e99ccd2e42530fd4", "lat": 38.90303933333333, "fusion_lon": 0.0, "fusion_lat": 0.0, "type": "electric_scooter", "name": "44ab4bb5fd886d15e99ccd2e42530fd4", "is_disabled": 0, "rental_uris": {"ios": "https://dc.lft.to/lastmile_qr_scan", "android": "https://dc.lft.to/lastmile_qr_scan"}, "is_reserved": 0}, {"lon": -77.052483, "bike_id": "b67a632225abcfdce6123f247b708eb6", "lat": 38.923820166666665, "fusion_lon": 0.0, "fusion_lat": 0.0, "type": "electric_scooter", "name": "b67a632225abcfdce6123f247b708eb6", "is_disabled": 0, "rental_uris": {"ios": "https://dc.lft.to/lastmile_qr_scan", "android": "https://dc.lft.to/lastmile_qr_scan"}, "is_reserved": 0}, {"lon": -77.02177083333333, "bike_id": "5140253a381a0c749b739113ff98b0c2", "lat": 38.909592833333335, "fusion_lon": 0.0, "fusion_lat": 0.0, "type": "electric_scooter", "name": "5140253a381a0c749b739113ff98b0c2", "is_disabled": 0, "rental_uris": {"ios": "https://dc.lft.to/lastmile_qr_scan", "android": "https://dc.lft.to/lastmile_qr_scan"}, "is_reserved": 0}, {"lon": -77.03951483333333, "bike_id": "afb68b2cf5d91a23bb52836739894709", "lat": 38.90082983333333, "fusion_lon": 0.0, "fusion_lat": 0.0, "type": "electric_scooter", "name": "afb68b2cf5d91a23bb52836739894709", "is_disabled": 0, "rental_uris": {"ios": "https://dc.lft.to/lastmile_qr_scan", "android": "https://dc.lft.to/lastmile_qr_scan"}, "is_reserved": 0}, {"lon": -77.02413716666666, "bike_id": "1f5915f5ba83721a5b92d7cf8509cd6d", "lat": 38.908652000000004, "fusion_lon": 0.0, "fusion_lat": 0.0, "type": "electric_bike", "name": "1f5915f5ba83721a5b92d7cf8509cd6d", "is_disabled": 0, "rental_uris": {"ios": "https://dc.lft.to/lastmile_qr_scan", "android": "https://dc.lft.to/lastmile_qr_scan"}, "is_reserved": 0}, {"lon": -77.032051, "bike_id": "4be2e82d7b9fb363c63b191dc4db1269", "lat": 38.89806183333334, "fusion_lon": 0.0, "fusion_lat": 0.0, "type": "electric_scooter", "name": "4be2e82d7b9fb363c63b191dc4db1269", "is_disabled": 0, "rental_uris": {"ios": "https://dc.lft.to/lastmile_qr_scan", "android": "https://dc.lft.to/lastmile_qr_scan"}, "is_reserved": 0}, {"lon": -77.0468735, "bike_id": "1bb31983c52acd90f6e1d11bd06fc1bd", "lat": 38.90861116666667, "fusion_lon": 0.0, "fusion_lat": 0.0, "type": "electric_scooter", "name": "1bb31983c52acd90f6e1d11bd06fc1bd", "is_disabled": 0, "rental_uris": {"ios": "https://dc.lft.to/lastmile_qr_scan", "android": "https://dc.lft.to/lastmile_qr_scan"}, "is_reserved": 0}, {"lon": -77.048794, "bike_id": "42e19cb39fbf2be4872d4afca0e7d9e1", "lat": 38.905553, "fusion_lon": 0.0, "fusion_lat": 0.0, "type": "electric_bike", "name": "42e19cb39fbf2be4872d4afca0e7d9e1", "is_disabled": 0, "rental_uris": {"ios": "https://dc.lft.to/lastmile_qr_scan", "android": "https://dc.lft.to/lastmile_qr_scan"}, "is_reserved": 0}, {"lon": -76.98886516666667, "bike_id": "dfbf2dfd51eea2276f1219b5713fcf93", "lat": 38.8665235, "fusion_lon": 0.0, "fusion_lat": 0.0, "type": "electric_scooter", "name": "dfbf2dfd51eea2276f1219b5713fcf93", "is_disabled": 0, "rental_uris": {"ios": "https://dc.lft.to/lastmile_qr_scan", "android": "https://dc.lft.to/lastmile_qr_scan"}, "is_reserved": 0}, {"lon": -76.99500933333333, "bike_id": "cc63685fa0fe12e8cead8ff7b79724dd", "lat": 38.8814215, "fusion_lon": 0.0, "fusion_lat": 0.0, "type": "electric_scooter", "name": "cc63685fa0fe12e8cead8ff7b79724dd", "is_disabled": 0, "rental_uris": {"ios": "https://dc.lft.to/lastmile_qr_scan", "android": "https://dc.lft.to/lastmile_qr_scan"}, "is_reserved": 0}, {"lon": -77.02361483333334, "bike_id": "2136234022805065cddfd90b9b92c1d0", "lat": 38.896263166666664, "fusion_lon": 0.0, "fusion_lat": 0.0, "type": "electric_scooter", "name": "2136234022805065cddfd90b9b92c1d0", "is_disabled": 0, "rental_uris": {"ios": "https://dc.lft.to/lastmile_qr_scan", "android": "https://dc.lft.to/lastmile_qr_scan"}, "is_reserved": 0}, {"lon": -77.0346775, "bike_id": "4e6dca3f6645e6f331d6d4e2309f8f89", "lat": 38.92643533333333, "fusion_lon": 0.0, "fusion_lat": 0.0, "type": "electric_scooter", "name": "4e6dca3f6645e6f331d6d4e2309f8f89", "is_disabled": 0, "rental_uris": {"ios": "https://dc.lft.to/lastmile_qr_scan", "android": "https://dc.lft.to/lastmile_qr_scan"}, "is_reserved": 0}, {"lon": -77.03681966666667, "bike_id": "f72a9745c9acb7314bd41d4515d3e080", "lat": 38.9087445, "fusion_lon": 0.0, "fusion_lat": 0.0, "type": "electric_scooter", "name": "f72a9745c9acb7314bd41d4515d3e080", "is_disabled": 0, "rental_uris": {"ios": "https://dc.lft.to/lastmile_qr_scan", "android": "https://dc.lft.to/lastmile_qr_scan"}, "is_reserved": 0}, {"lon": -77.0464265, "bike_id": "4348d1fa7fd1d1b059f01aac80385208", "lat": 38.903364333333336, "fusion_lon": 0.0, "fusion_lat": 0.0, "type": "electric_scooter", "name": "4348d1fa7fd1d1b059f01aac80385208", "is_disabled": 0, "rental_uris": {"ios": "https://dc.lft.to/lastmile_qr_scan", "android": "https://dc.lft.to/lastmile_qr_scan"}, "is_reserved": 0}, {"lon": -77.03079633333333, "bike_id": "efb55f79a51dc183003ce59240fbdaed", "lat": 38.880380333333335, "fusion_lon": 0.0, "fusion_lat": 0.0, "type": "electric_scooter", "name": "efb55f79a51dc183003ce59240fbdaed", "is_disabled": 0, "rental_uris": {"ios": "https://dc.lft.to/lastmile_qr_scan", "android": "https://dc.lft.to/lastmile_qr_scan"}, "is_reserved": 0}, {"lon": -77.02096666666667, "bike_id": "59d4f04173e5e9ebac17ceb9b6f790b0", "lat": 38.899956333333336, "fusion_lon": 0.0, "fusion_lat": 0.0, "type": "electric_scooter", "name": "59d4f04173e5e9ebac17ceb9b6f790b0", "is_disabled": 0, "rental_uris": {"ios": "https://dc.lft.to/lastmile_qr_scan", "android": "https://dc.lft.to/lastmile_qr_scan"}, "is_reserved": 0}, {"lon": -77.03990516666667, "bike_id": "9ca9d506313733f5089aff8d753e181e", "lat": 38.924439, "fusion_lon": 0.0, "fusion_lat": 0.0, "type": "electric_scooter", "name": "9ca9d506313733f5089aff8d753e181e", "is_disabled": 0, "rental_uris": {"ios": "https://dc.lft.to/lastmile_qr_scan", "android": "https://dc.lft.to/lastmile_qr_scan"}, "is_reserved": 0}, {"lon": -77.04215916666666, "bike_id": "a175c5e81ead55f4f02a5f098145d35a", "lat": 38.92127933333333, "fusion_lon": 0.0, "fusion_lat": 0.0, "type": "electric_scooter", "name": "a175c5e81ead55f4f02a5f098145d35a", "is_disabled": 0, "rental_uris": {"ios": "https://dc.lft.to/lastmile_qr_scan", "android": "https://dc.lft.to/lastmile_qr_scan"}, "is_reserved": 0}, {"lon": -77.04449733333334, "bike_id": "9ab90ee2b1577c17456517a8836aa0fc", "lat": 38.91878666666667, "fusion_lon": 0.0, "fusion_lat": 0.0, "type": "electric_scooter", "name": "9ab90ee2b1577c17456517a8836aa0fc", "is_disabled": 0, "rental_uris": {"ios": "https://dc.lft.to/lastmile_qr_scan", "android": "https://dc.lft.to/lastmile_qr_scan"}, "is_reserved": 0}, {"lon": -77.02603616666667, "bike_id": "9f4f62794c2abde92ce14f09103f8adb", "lat": 38.92655383333334, "fusion_lon": 0.0, "fusion_lat": 0.0, "type": "electric_scooter", "name": "9f4f62794c2abde92ce14f09103f8adb", "is_disabled": 0, "rental_uris": {"ios": "https://dc.lft.to/lastmile_qr_scan", "android": "https://dc.lft.to/lastmile_qr_scan"}, "is_reserved": 0}, {"lon": -77.0222025, "bike_id": "f740712d0a885a72039373c0067f8d1e", "lat": 38.94094333333334, "fusion_lon": 0.0, "fusion_lat": 0.0, "type": "electric_scooter", "name": "f740712d0a885a72039373c0067f8d1e", "is_disabled": 0, "rental_uris": {"ios": "https://dc.lft.to/lastmile_qr_scan", "android": "https://dc.lft.to/lastmile_qr_scan"}, "is_reserved": 0}, {"lon": -77.04929566666667, "bike_id": "40a1db9777021891e746825bc2405a94", "lat": 39.029393, "fusion_lon": 0.0, "fusion_lat": 0.0, "type": "electric_bike", "name": "40a1db9777021891e746825bc2405a94", "is_disabled": 0, "rental_uris": {"ios": "https://dc.lft.to/lastmile_qr_scan", "android": "https://dc.lft.to/lastmile_qr_scan"}, "is_reserved": 0}, {"lon": -77.03597633333334, "bike_id": "7c2b4b206e80a0d87849fc633d73e593", "lat": 38.9367285, "fusion_lon": 0.0, "fusion_lat": 0.0, "type": "electric_scooter", "name": "7c2b4b206e80a0d87849fc633d73e593", "is_disabled": 0, "rental_uris": {"ios": "https://dc.lft.to/lastmile_qr_scan", "android": "https://dc.lft.to/lastmile_qr_scan"}, "is_reserved": 0}, {"lon": -77.03822516666666, "bike_id": "9afa1ca945c5b596e3fe4706c54f4758", "lat": 38.9104405, "fusion_lon": 0.0, "fusion_lat": 0.0, "type": "electric_scooter", "name": "9afa1ca945c5b596e3fe4706c54f4758", "is_disabled": 0, "rental_uris": {"ios": "https://dc.lft.to/lastmile_qr_scan", "android": "https://dc.lft.to/lastmile_qr_scan"}, "is_reserved": 0}, {"lon": -77.04124316666666, "bike_id": "38fa069d6d80c0aa260efde83a8ce924", "lat": 38.9171, "fusion_lon": 0.0, "fusion_lat": 0.0, "type": "electric_scooter", "name": "38fa069d6d80c0aa260efde83a8ce924", "is_disabled": 0, "rental_uris": {"ios": "https://dc.lft.to/lastmile_qr_scan", "android": "https://dc.lft.to/lastmile_qr_scan"}, "is_reserved": 0}, {"lon": -77.013337, "bike_id": "75d8ed7b297df5814091ce2090b0dc6f", "lat": 38.87921583333333, "fusion_lon": 0.0, "fusion_lat": 0.0, "type": "electric_scooter", "name": "75d8ed7b297df5814091ce2090b0dc6f", "is_disabled": 0, "rental_uris": {"ios": "https://dc.lft.to/lastmile_qr_scan", "android": "https://dc.lft.to/lastmile_qr_scan"}, "is_reserved": 0}, {"lon": -77.18745516666667, "bike_id": "23a93a3059e5ec639f814efbf4452437", "lat": 38.89352216666666, "fusion_lon": 0.0, "fusion_lat": 0.0, "type": "electric_bike", "name": "23a93a3059e5ec639f814efbf4452437", "is_disabled": 0, "rental_uris": {"ios": "https://dc.lft.to/lastmile_qr_scan", "android": "https://dc.lft.to/lastmile_qr_scan"}, "is_reserved": 0}, {"lon": -77.03502816666666, "bike_id": "00dd22dd44758155ac00f8e6bc9d6559", "lat": 38.9375595, "fusion_lon": 0.0, "fusion_lat": 0.0, "type": "electric_scooter", "name": "00dd22dd44758155ac00f8e6bc9d6559", "is_disabled": 0, "rental_uris": {"ios": "https://dc.lft.to/lastmile_qr_scan", "android": "https://dc.lft.to/lastmile_qr_scan"}, "is_reserved": 0}, {"lon": -77.0553975, "bike_id": "0482666a7239ba06a94720b40b899c23", "lat": 38.93431733333333, "fusion_lon": 0.0, "fusion_lat": 0.0, "type": "electric_scooter", "name": "0482666a7239ba06a94720b40b899c23", "is_disabled": 0, "rental_uris": {"ios": "https://dc.lft.to/lastmile_qr_scan", "android": "https://dc.lft.to/lastmile_qr_scan"}, "is_reserved": 0}, {"lon": -76.98837933333333, "bike_id": "e84e0f7ab60ff4673a7f4a47ef5f2774", "lat": 38.90067283333333, "fusion_lon": 0.0, "fusion_lat": 0.0, "type": "electric_scooter", "name": "e84e0f7ab60ff4673a7f4a47ef5f2774", "is_disabled": 0, "rental_uris": {"ios": "https://dc.lft.to/lastmile_qr_scan", "android": "https://dc.lft.to/lastmile_qr_scan"}, "is_reserved": 0}, {"lon": -77.06342783333334, "bike_id": "a1db57630fa32622f09ca0cc68cb0940", "lat": 38.906884166666664, "fusion_lon": 0.0, "fusion_lat": 0.0, "type": "electric_scooter", "name": "a1db57630fa32622f09ca0cc68cb0940", "is_disabled": 0, "rental_uris": {"ios": "https://dc.lft.to/lastmile_qr_scan", "android": "https://dc.lft.to/lastmile_qr_scan"}, "is_reserved": 0}, {"lon": -77.03894866666667, "bike_id": "f1cbdf9a12927eb76e3921dd6c4c159e", "lat": 38.92353883333333, "fusion_lon": 0.0, "fusion_lat": 0.0, "type": "electric_scooter", "name": "f1cbdf9a12927eb76e3921dd6c4c159e", "is_disabled": 0, "rental_uris": {"ios": "https://dc.lft.to/lastmile_qr_scan", "android": "https://dc.lft.to/lastmile_qr_scan"}, "is_reserved": 0}, {"lon": -77.03191633333333, "bike_id": "46b5684226a7cfeade0c0c7739d03cb7", "lat": 38.90877366666667, "fusion_lon": 0.0, "fusion_lat": 0.0, "type": "electric_scooter", "name": "46b5684226a7cfeade0c0c7739d03cb7", "is_disabled": 0, "rental_uris": {"ios": "https://dc.lft.to/lastmile_qr_scan", "android": "https://dc.lft.to/lastmile_qr_scan"}, "is_reserved": 0}, {"lon": -77.0036, "bike_id": "d8177999dd9e62e278e9e2840bb858ec", "lat": 38.92042383333333, "fusion_lon": 0.0, "fusion_lat": 0.0, "type": "electric_scooter", "name": "d8177999dd9e62e278e9e2840bb858ec", "is_disabled": 0, "rental_uris": {"ios": "https://dc.lft.to/lastmile_qr_scan", "android": "https://dc.lft.to/lastmile_qr_scan"}, "is_reserved": 0}, {"lon": -77.084619, "bike_id": "780d8fc391ac09c1447a23cf43db445c", "lat": 38.848190833333334, "fusion_lon": 0.0, "fusion_lat": 0.0, "type": "electric_bike", "name": "780d8fc391ac09c1447a23cf43db445c", "is_disabled": 0, "rental_uris": {"ios": "https://dc.lft.to/lastmile_qr_scan", "android": "https://dc.lft.to/lastmile_qr_scan"}, "is_reserved": 0}, {"lon": -77.03409233333333, "bike_id": "4f9493f66d05e47d581d1ee1488b52e1", "lat": 38.92255733333333, "fusion_lon": 0.0, "fusion_lat": 0.0, "type": "electric_scooter", "name": "4f9493f66d05e47d581d1ee1488b52e1", "is_disabled": 0, "rental_uris": {"ios": "https://dc.lft.to/lastmile_qr_scan", "android": "https://dc.lft.to/lastmile_qr_scan"}, "is_reserved": 0}, {"lon": -77.03189916666666, "bike_id": "f0db9efdf151de64a79b392e07245981", "lat": 38.908724, "fusion_lon": 0.0, "fusion_lat": 0.0, "type": "electric_scooter", "name": "f0db9efdf151de64a79b392e07245981", "is_disabled": 0, "rental_uris": {"ios": "https://dc.lft.to/lastmile_qr_scan", "android": "https://dc.lft.to/lastmile_qr_scan"}, "is_reserved": 0}, {"lon": -77.02428766666667, "bike_id": "f722cbc46d21da42de1b03229afa8acb", "lat": 38.9265625, "fusion_lon": 0.0, "fusion_lat": 0.0, "type": "electric_scooter", "name": "f722cbc46d21da42de1b03229afa8acb", "is_disabled": 0, "rental_uris": {"ios": "https://dc.lft.to/lastmile_qr_scan", "android": "https://dc.lft.to/lastmile_qr_scan"}, "is_reserved": 0}, {"lon": -76.981142, "bike_id": "df6e9a48ae891937d05b51648ad5c7cc", "lat": 38.90403883333333, "fusion_lon": 0.0, "fusion_lat": 0.0, "type": "electric_scooter", "name": "df6e9a48ae891937d05b51648ad5c7cc", "is_disabled": 0, "rental_uris": {"ios": "https://dc.lft.to/lastmile_qr_scan", "android": "https://dc.lft.to/lastmile_qr_scan"}, "is_reserved": 0}, {"lon": -77.0023295, "bike_id": "18e7b74325073507b81dccc5e0f2456f", "lat": 38.879341, "fusion_lon": 0.0, "fusion_lat": 0.0, "type": "electric_scooter", "name": "18e7b74325073507b81dccc5e0f2456f", "is_disabled": 0, "rental_uris": {"ios": "https://dc.lft.to/lastmile_qr_scan", "android": "https://dc.lft.to/lastmile_qr_scan"}, "is_reserved": 0}, {"lon": -77.02348083333334, "bike_id": "d059ab1cba6b03ffaed37e102f516dfb", "lat": 38.92249783333333, "fusion_lon": 0.0, "fusion_lat": 0.0, "type": "electric_scooter", "name": "d059ab1cba6b03ffaed37e102f516dfb", "is_disabled": 0, "rental_uris": {"ios": "https://dc.lft.to/lastmile_qr_scan", "android": "https://dc.lft.to/lastmile_qr_scan"}, "is_reserved": 0}, {"lon": -76.98691366666667, "bike_id": "9f550be8645c273be8e8b302fd85e4d5", "lat": 38.912172166666664, "fusion_lon": 0.0, "fusion_lat": 0.0, "type": "electric_scooter", "name": "9f550be8645c273be8e8b302fd85e4d5", "is_disabled": 0, "rental_uris": {"ios": "https://dc.lft.to/lastmile_qr_scan", "android": "https://dc.lft.to/lastmile_qr_scan"}, "is_reserved": 0}, {"lon": -77.02165766666667, "bike_id": "e5f1efa1fd74275af24cff05529a3385", "lat": 38.90967966666667, "fusion_lon": 0.0, "fusion_lat": 0.0, "type": "electric_scooter", "name": "e5f1efa1fd74275af24cff05529a3385", "is_disabled": 0, "rental_uris": {"ios": "https://dc.lft.to/lastmile_qr_scan", "android": "https://dc.lft.to/lastmile_qr_scan"}, "is_reserved": 0}, {"lon": -77.0239, "bike_id": "b1041bfbeab204fcca52a0ff32f0e6d3", "lat": 38.90953966666667, "fusion_lon": 0.0, "fusion_lat": 0.0, "type": "electric_scooter", "name": "b1041bfbeab204fcca52a0ff32f0e6d3", "is_disabled": 0, "rental_uris": {"ios": "https://dc.lft.to/lastmile_qr_scan", "android": "https://dc.lft.to/lastmile_qr_scan"}, "is_reserved": 0}, {"lon": -76.981784, "bike_id": "c64da2674ef25fa1039999d6a5aaf126", "lat": 38.90437083333333, "fusion_lon": 0.0, "fusion_lat": 0.0, "type": "electric_scooter", "name": "c64da2674ef25fa1039999d6a5aaf126", "is_disabled": 0, "rental_uris": {"ios": "https://dc.lft.to/lastmile_qr_scan", "android": "https://dc.lft.to/lastmile_qr_scan"}, "is_reserved": 0}, {"lon": -76.934552, "bike_id": "9b9655657d68f68f136aff67262b62b8", "lat": 38.96969566666667, "fusion_lon": 0.0, "fusion_lat": 0.0, "type": "electric_bike", "name": "9b9655657d68f68f136aff67262b62b8", "is_disabled": 0, "rental_uris": {"ios": "https://dc.lft.to/lastmile_qr_scan", "android": "https://dc.lft.to/lastmile_qr_scan"}, "is_reserved": 0}, {"lon": -77.0261715, "bike_id": "164c1b17a0f6966e4ceb46df80b0c45e", "lat": 38.91414433333333, "fusion_lon": 0.0, "fusion_lat": 0.0, "type": "electric_scooter", "name": "164c1b17a0f6966e4ceb46df80b0c45e", "is_disabled": 0, "rental_uris": {"ios": "https://dc.lft.to/lastmile_qr_scan", "android": "https://dc.lft.to/lastmile_qr_scan"}, "is_reserved": 0}, {"lon": -76.98989216666666, "bike_id": "f2ef009b12b92a01718386c4fe0bdcf0", "lat": 38.9335945, "fusion_lon": 0.0, "fusion_lat": 0.0, "type": "electric_scooter", "name": "f2ef009b12b92a01718386c4fe0bdcf0", "is_disabled": 0, "rental_uris": {"ios": "https://dc.lft.to/lastmile_qr_scan", "android": "https://dc.lft.to/lastmile_qr_scan"}, "is_reserved": 0}, {"lon": -77.02163333333333, "bike_id": "73258017152ea0eccfb62fb0cb37f57f", "lat": 38.950738666666666, "fusion_lon": 0.0, "fusion_lat": 0.0, "type": "electric_scooter", "name": "73258017152ea0eccfb62fb0cb37f57f", "is_disabled": 0, "rental_uris": {"ios": "https://dc.lft.to/lastmile_qr_scan", "android": "https://dc.lft.to/lastmile_qr_scan"}, "is_reserved": 0}, {"lon": -77.02962666666667, "bike_id": "bf3bd1d53e61ddda83d21c727a9e0ff3", "lat": 38.9167355, "fusion_lon": 0.0, "fusion_lat": 0.0, "type": "electric_scooter", "name": "bf3bd1d53e61ddda83d21c727a9e0ff3", "is_disabled": 0, "rental_uris": {"ios": "https://dc.lft.to/lastmile_qr_scan", "android": "https://dc.lft.to/lastmile_qr_scan"}, "is_reserved": 0}, {"lon": -77.034699, "bike_id": "b04089f49446d8129b059a2157cc0e83", "lat": 38.921519833333335, "fusion_lon": 0.0, "fusion_lat": 0.0, "type": "electric_scooter", "name": "b04089f49446d8129b059a2157cc0e83", "is_disabled": 0, "rental_uris": {"ios": "https://dc.lft.to/lastmile_qr_scan", "android": "https://dc.lft.to/lastmile_qr_scan"}, "is_reserved": 0}, {"lon": -77.007228, "bike_id": "e5fbc66408ba0e3d1f1adb2eb64072ef", "lat": 38.89901833333333, "fusion_lon": 0.0, "fusion_lat": 0.0, "type": "electric_scooter", "name": "e5fbc66408ba0e3d1f1adb2eb64072ef", "is_disabled": 0, "rental_uris": {"ios": "https://dc.lft.to/lastmile_qr_scan", "android": "https://dc.lft.to/lastmile_qr_scan"}, "is_reserved": 0}, {"lon": -77.02010433333334, "bike_id": "d619bc2b6df7ab0eeff3962aa6fa3bf2", "lat": 38.924119, "fusion_lon": 0.0, "fusion_lat": 0.0, "type": "electric_scooter", "name": "d619bc2b6df7ab0eeff3962aa6fa3bf2", "is_disabled": 0, "rental_uris": {"ios": "https://dc.lft.to/lastmile_qr_scan", "android": "https://dc.lft.to/lastmile_qr_scan"}, "is_reserved": 0}, {"lon": -77.05886683333334, "bike_id": "9e3e7e008f4cc3849f8f972be9fc6c32", "lat": 38.86292366666667, "fusion_lon": 0.0, "fusion_lat": 0.0, "type": "electric_bike", "name": "9e3e7e008f4cc3849f8f972be9fc6c32", "is_disabled": 0, "rental_uris": {"ios": "https://dc.lft.to/lastmile_qr_scan", "android": "https://dc.lft.to/lastmile_qr_scan"}, "is_reserved": 0}, {"lon": -77.01930616666667, "bike_id": "21dc871d9d3cf7a084c34be50979d91e", "lat": 38.892453833333335, "fusion_lon": 0.0, "fusion_lat": 0.0, "type": "electric_scooter", "name": "21dc871d9d3cf7a084c34be50979d91e", "is_disabled": 0, "rental_uris": {"ios": "https://dc.lft.to/lastmile_qr_scan", "android": "https://dc.lft.to/lastmile_qr_scan"}, "is_reserved": 0}, {"lon": -76.995221, "bike_id": "982e6f485e79334641a65eb21ad7a9d6", "lat": 38.862564, "fusion_lon": 0.0, "fusion_lat": 0.0, "type": "electric_scooter", "name": "982e6f485e79334641a65eb21ad7a9d6", "is_disabled": 0, "rental_uris": {"ios": "https://dc.lft.to/lastmile_qr_scan", "android": "https://dc.lft.to/lastmile_qr_scan"}, "is_reserved": 0}, {"lon": -76.98024166666667, "bike_id": "122ddc274c8b7130164e2832bda4d2b9", "lat": 38.853132333333335, "fusion_lon": 0.0, "fusion_lat": 0.0, "type": "electric_bike", "name": "122ddc274c8b7130164e2832bda4d2b9", "is_disabled": 0, "rental_uris": {"ios": "https://dc.lft.to/lastmile_qr_scan", "android": "https://dc.lft.to/lastmile_qr_scan"}, "is_reserved": 0}, {"lon": -77.02435666666666, "bike_id": "2f3991a1c653784d8acaa79fb21f0ad2", "lat": 38.92049883333333, "fusion_lon": 0.0, "fusion_lat": 0.0, "type": "electric_scooter", "name": "2f3991a1c653784d8acaa79fb21f0ad2", "is_disabled": 0, "rental_uris": {"ios": "https://dc.lft.to/lastmile_qr_scan", "android": "https://dc.lft.to/lastmile_qr_scan"}, "is_reserved": 0}, {"lon": -77.02363866666667, "bike_id": "49bad7c05bc0c196f2f1286ed67ebb00", "lat": 38.89614683333333, "fusion_lon": 0.0, "fusion_lat": 0.0, "type": "electric_scooter", "name": "49bad7c05bc0c196f2f1286ed67ebb00", "is_disabled": 0, "rental_uris": {"ios": "https://dc.lft.to/lastmile_qr_scan", "android": "https://dc.lft.to/lastmile_qr_scan"}, "is_reserved": 0}, {"lon": -77.01734666666667, "bike_id": "3a9000c13e5e64336c356510f8467325", "lat": 38.916722, "fusion_lon": 0.0, "fusion_lat": 0.0, "type": "electric_scooter", "name": "3a9000c13e5e64336c356510f8467325", "is_disabled": 0, "rental_uris": {"ios": "https://dc.lft.to/lastmile_qr_scan", "android": "https://dc.lft.to/lastmile_qr_scan"}, "is_reserved": 0}, {"lon": -77.03127183333334, "bike_id": "c00f0a0997715a05b1829bf2962e928f", "lat": 38.988261333333334, "fusion_lon": 0.0, "fusion_lat": 0.0, "type": "electric_scooter", "name": "c00f0a0997715a05b1829bf2962e928f", "is_disabled": 0, "rental_uris": {"ios": "https://dc.lft.to/lastmile_qr_scan", "android": "https://dc.lft.to/lastmile_qr_scan"}, "is_reserved": 0}, {"lon": -77.02969783333333, "bike_id": "c7f20e41b477360b288f0c466d00d90c", "lat": 38.91727366666667, "fusion_lon": 0.0, "fusion_lat": 0.0, "type": "electric_scooter", "name": "c7f20e41b477360b288f0c466d00d90c", "is_disabled": 0, "rental_uris": {"ios": "https://dc.lft.to/lastmile_qr_scan", "android": "https://dc.lft.to/lastmile_qr_scan"}, "is_reserved": 0}, {"lon": -77.02103433333333, "bike_id": "c179b973c87aec55c048960f444a86a7", "lat": 38.9096985, "fusion_lon": 0.0, "fusion_lat": 0.0, "type": "electric_scooter", "name": "c179b973c87aec55c048960f444a86a7", "is_disabled": 0, "rental_uris": {"ios": "https://dc.lft.to/lastmile_qr_scan", "android": "https://dc.lft.to/lastmile_qr_scan"}, "is_reserved": 0}, {"lon": -77.046095, "bike_id": "32f5ce0cebb96d12a334f8fe43532021", "lat": 38.883821833333336, "fusion_lon": 0.0, "fusion_lat": 0.0, "type": "electric_scooter", "name": "32f5ce0cebb96d12a334f8fe43532021", "is_disabled": 0, "rental_uris": {"ios": "https://dc.lft.to/lastmile_qr_scan", "android": "https://dc.lft.to/lastmile_qr_scan"}, "is_reserved": 0}, {"lon": -76.99550366666666, "bike_id": "f356bea36ad0792e12e033e0d5ba7372", "lat": 38.86250183333333, "fusion_lon": 0.0, "fusion_lat": 0.0, "type": "electric_scooter", "name": "f356bea36ad0792e12e033e0d5ba7372", "is_disabled": 0, "rental_uris": {"ios": "https://dc.lft.to/lastmile_qr_scan", "android": "https://dc.lft.to/lastmile_qr_scan"}, "is_reserved": 0}, {"lon": -77.02210866666667, "bike_id": "d2bfde696f061511113e1bf673f318dc", "lat": 38.903159, "fusion_lon": 0.0, "fusion_lat": 0.0, "type": "electric_scooter", "name": "d2bfde696f061511113e1bf673f318dc", "is_disabled": 0, "rental_uris": {"ios": "https://dc.lft.to/lastmile_qr_scan", "android": "https://dc.lft.to/lastmile_qr_scan"}, "is_reserved": 0}, {"lon": -77.02314166666666, "bike_id": "5c17e8e769131c170e4fd72d2168692e", "lat": 38.909586, "fusion_lon": 0.0, "fusion_lat": 0.0, "type": "electric_scooter", "name": "5c17e8e769131c170e4fd72d2168692e", "is_disabled": 0, "rental_uris": {"ios": "https://dc.lft.to/lastmile_qr_scan", "android": "https://dc.lft.to/lastmile_qr_scan"}, "is_reserved": 0}, {"lon": -77.03773783333334, "bike_id": "9c99c0347582ccc79896fe7ac67ffa69", "lat": 38.915626, "fusion_lon": 0.0, "fusion_lat": 0.0, "type": "electric_scooter", "name": "9c99c0347582ccc79896fe7ac67ffa69", "is_disabled": 0, "rental_uris": {"ios": "https://dc.lft.to/lastmile_qr_scan", "android": "https://dc.lft.to/lastmile_qr_scan"}, "is_reserved": 0}, {"lon": -77.04004683333334, "bike_id": "82bc36fc7fd9247d84a1a95d010f868d", "lat": 38.914116666666665, "fusion_lon": 0.0, "fusion_lat": 0.0, "type": "electric_scooter", "name": "82bc36fc7fd9247d84a1a95d010f868d", "is_disabled": 0, "rental_uris": {"ios": "https://dc.lft.to/lastmile_qr_scan", "android": "https://dc.lft.to/lastmile_qr_scan"}, "is_reserved": 0}, {"lon": -77.0333165, "bike_id": "c8321fa5804025309095e9519956e7a8", "lat": 38.96047166666666, "fusion_lon": 0.0, "fusion_lat": 0.0, "type": "electric_scooter", "name": "c8321fa5804025309095e9519956e7a8", "is_disabled": 0, "rental_uris": {"ios": "https://dc.lft.to/lastmile_qr_scan", "android": "https://dc.lft.to/lastmile_qr_scan"}, "is_reserved": 0}, {"lon": -77.02800183333333, "bike_id": "634ce11f12167bc3533c6ae270a160f0", "lat": 38.95406666666667, "fusion_lon": 0.0, "fusion_lat": 0.0, "type": "electric_scooter", "name": "634ce11f12167bc3533c6ae270a160f0", "is_disabled": 0, "rental_uris": {"ios": "https://dc.lft.to/lastmile_qr_scan", "android": "https://dc.lft.to/lastmile_qr_scan"}, "is_reserved": 0}, {"lon": -77.0219995, "bike_id": "efb13630bb19f12acaa9b1c5c3da86fd", "lat": 38.91081166666667, "fusion_lon": 0.0, "fusion_lat": 0.0, "type": "electric_scooter", "name": "efb13630bb19f12acaa9b1c5c3da86fd", "is_disabled": 0, "rental_uris": {"ios": "https://dc.lft.to/lastmile_qr_scan", "android": "https://dc.lft.to/lastmile_qr_scan"}, "is_reserved": 0}, {"lon": -76.99124583333334, "bike_id": "18e0999bc5f945e603be7c403cda7339", "lat": 38.92276233333333, "fusion_lon": 0.0, "fusion_lat": 0.0, "type": "electric_scooter", "name": "18e0999bc5f945e603be7c403cda7339", "is_disabled": 0, "rental_uris": {"ios": "https://dc.lft.to/lastmile_qr_scan", "android": "https://dc.lft.to/lastmile_qr_scan"}, "is_reserved": 0}, {"lon": -77.02003983333333, "bike_id": "fd3278f3f2bf9d68c83e62fbfed66d8e", "lat": 38.90443583333333, "fusion_lon": 0.0, "fusion_lat": 0.0, "type": "electric_scooter", "name": "fd3278f3f2bf9d68c83e62fbfed66d8e", "is_disabled": 0, "rental_uris": {"ios": "https://dc.lft.to/lastmile_qr_scan", "android": "https://dc.lft.to/lastmile_qr_scan"}, "is_reserved": 0}, {"lon": -76.963871, "bike_id": "8803a5431eb02a05375d0e72cddfc1c0", "lat": 38.95179916666667, "fusion_lon": 0.0, "fusion_lat": 0.0, "type": "electric_bike", "name": "8803a5431eb02a05375d0e72cddfc1c0", "is_disabled": 0, "rental_uris": {"ios": "https://dc.lft.to/lastmile_qr_scan", "android": "https://dc.lft.to/lastmile_qr_scan"}, "is_reserved": 0}, {"lon": -77.028153, "bike_id": "e7f7445ec7147eebb50735c3e62a3a17", "lat": 38.917013833333336, "fusion_lon": 0.0, "fusion_lat": 0.0, "type": "electric_scooter", "name": "e7f7445ec7147eebb50735c3e62a3a17", "is_disabled": 0, "rental_uris": {"ios": "https://dc.lft.to/lastmile_qr_scan", "android": "https://dc.lft.to/lastmile_qr_scan"}, "is_reserved": 0}, {"lon": -77.0268685, "bike_id": "adab744b7e51e5f22a65ff6a9feb330b", "lat": 38.9126105, "fusion_lon": 0.0, "fusion_lat": 0.0, "type": "electric_scooter", "name": "adab744b7e51e5f22a65ff6a9feb330b", "is_disabled": 0, "rental_uris": {"ios": "https://dc.lft.to/lastmile_qr_scan", "android": "https://dc.lft.to/lastmile_qr_scan"}, "is_reserved": 0}, {"lon": -76.962215, "bike_id": "cb992c2e4079c8c5d091cd7fcc685c8c", "lat": 38.877793, "fusion_lon": 0.0, "fusion_lat": 0.0, "type": "electric_scooter", "name": "cb992c2e4079c8c5d091cd7fcc685c8c", "is_disabled": 0, "rental_uris": {"ios": "https://dc.lft.to/lastmile_qr_scan", "android": "https://dc.lft.to/lastmile_qr_scan"}, "is_reserved": 0}, {"lon": -77.02279733333333, "bike_id": "fc887e9271ba32c5e1f838f138351290", "lat": 38.92686883333333, "fusion_lon": 0.0, "fusion_lat": 0.0, "type": "electric_scooter", "name": "fc887e9271ba32c5e1f838f138351290", "is_disabled": 0, "rental_uris": {"ios": "https://dc.lft.to/lastmile_qr_scan", "android": "https://dc.lft.to/lastmile_qr_scan"}, "is_reserved": 0}, {"lon": -77.03330933333334, "bike_id": "cd36302166b007f66a21f34890ff6435", "lat": 38.939022333333334, "fusion_lon": 0.0, "fusion_lat": 0.0, "type": "electric_scooter", "name": "cd36302166b007f66a21f34890ff6435", "is_disabled": 0, "rental_uris": {"ios": "https://dc.lft.to/lastmile_qr_scan", "android": "https://dc.lft.to/lastmile_qr_scan"}, "is_reserved": 0}, {"lon": -77.03632283333333, "bike_id": "6e6c9a927764c22550fb3c6c410b9c81", "lat": 38.903574, "fusion_lon": 0.0, "fusion_lat": 0.0, "type": "electric_scooter", "name": "6e6c9a927764c22550fb3c6c410b9c81", "is_disabled": 0, "rental_uris": {"ios": "https://dc.lft.to/lastmile_qr_scan", "android": "https://dc.lft.to/lastmile_qr_scan"}, "is_reserved": 0}, {"lon": -77.028022, "bike_id": "07695fda6982376ca3e924ce036b267f", "lat": 38.902367166666664, "fusion_lon": 0.0, "fusion_lat": 0.0, "type": "electric_scooter", "name": "07695fda6982376ca3e924ce036b267f", "is_disabled": 0, "rental_uris": {"ios": "https://dc.lft.to/lastmile_qr_scan", "android": "https://dc.lft.to/lastmile_qr_scan"}, "is_reserved": 0}, {"lon": -77.02795866666666, "bike_id": "83fbe60ea8ef5e470e5a208be5a30c2d", "lat": 38.9308085, "fusion_lon": 0.0, "fusion_lat": 0.0, "type": "electric_scooter", "name": "83fbe60ea8ef5e470e5a208be5a30c2d", "is_disabled": 0, "rental_uris": {"ios": "https://dc.lft.to/lastmile_qr_scan", "android": "https://dc.lft.to/lastmile_qr_scan"}, "is_reserved": 0}, {"lon": -77.02511333333334, "bike_id": "5e14f11e82aba03752619699e7763dd6", "lat": 38.91705433333333, "fusion_lon": 0.0, "fusion_lat": 0.0, "type": "electric_scooter", "name": "5e14f11e82aba03752619699e7763dd6", "is_disabled": 0, "rental_uris": {"ios": "https://dc.lft.to/lastmile_qr_scan", "android": "https://dc.lft.to/lastmile_qr_scan"}, "is_reserved": 0}, {"lon": -77.073315, "bike_id": "be97ebcc92025b6d94c86e276d4c4b80", "lat": 38.91392733333333, "fusion_lon": 0.0, "fusion_lat": 0.0, "type": "electric_scooter", "name": "be97ebcc92025b6d94c86e276d4c4b80", "is_disabled": 0, "rental_uris": {"ios": "https://dc.lft.to/lastmile_qr_scan", "android": "https://dc.lft.to/lastmile_qr_scan"}, "is_reserved": 0}, {"lon": -77.0320265, "bike_id": "2fb47ed99b889df0ff0e427ba68f27a4", "lat": 38.9166745, "fusion_lon": 0.0, "fusion_lat": 0.0, "type": "electric_scooter", "name": "2fb47ed99b889df0ff0e427ba68f27a4", "is_disabled": 0, "rental_uris": {"ios": "https://dc.lft.to/lastmile_qr_scan", "android": "https://dc.lft.to/lastmile_qr_scan"}, "is_reserved": 0}, {"lon": -77.02209233333333, "bike_id": "4be5dee62bed9fed076f32ce85708b39", "lat": 38.899854166666664, "fusion_lon": 0.0, "fusion_lat": 0.0, "type": "electric_scooter", "name": "4be5dee62bed9fed076f32ce85708b39", "is_disabled": 0, "rental_uris": {"ios": "https://dc.lft.to/lastmile_qr_scan", "android": "https://dc.lft.to/lastmile_qr_scan"}, "is_reserved": 0}, {"lon": -77.0639065, "bike_id": "1aede13bf722dcbb999bf930370f69a9", "lat": 38.909227, "fusion_lon": 0.0, "fusion_lat": 0.0, "type": "electric_scooter", "name": "1aede13bf722dcbb999bf930370f69a9", "is_disabled": 0, "rental_uris": {"ios": "https://dc.lft.to/lastmile_qr_scan", "android": "https://dc.lft.to/lastmile_qr_scan"}, "is_reserved": 0}, {"lon": -77.04457016666667, "bike_id": "cc5352ef1656d648388bd659756e8635", "lat": 38.92284866666667, "fusion_lon": 0.0, "fusion_lat": 0.0, "type": "electric_scooter", "name": "cc5352ef1656d648388bd659756e8635", "is_disabled": 0, "rental_uris": {"ios": "https://dc.lft.to/lastmile_qr_scan", "android": "https://dc.lft.to/lastmile_qr_scan"}, "is_reserved": 0}, {"lon": -77.04638266666667, "bike_id": "449f47b959d587ef0ab5614849730029", "lat": 38.915614833333336, "fusion_lon": 0.0, "fusion_lat": 0.0, "type": "electric_scooter", "name": "449f47b959d587ef0ab5614849730029", "is_disabled": 0, "rental_uris": {"ios": "https://dc.lft.to/lastmile_qr_scan", "android": "https://dc.lft.to/lastmile_qr_scan"}, "is_reserved": 0}, {"lon": -77.03477966666667, "bike_id": "0ec14dcfa6b790318610abcc412499fc", "lat": 38.91629483333333, "fusion_lon": 0.0, "fusion_lat": 0.0, "type": "electric_scooter", "name": "0ec14dcfa6b790318610abcc412499fc", "is_disabled": 0, "rental_uris": {"ios": "https://dc.lft.to/lastmile_qr_scan", "android": "https://dc.lft.to/lastmile_qr_scan"}, "is_reserved": 0}, {"lon": -77.03580316666667, "bike_id": "1fa5fc3761ce2558699ec12c2d14a14c", "lat": 38.90763716666667, "fusion_lon": 0.0, "fusion_lat": 0.0, "type": "electric_scooter", "name": "1fa5fc3761ce2558699ec12c2d14a14c", "is_disabled": 0, "rental_uris": {"ios": "https://dc.lft.to/lastmile_qr_scan", "android": "https://dc.lft.to/lastmile_qr_scan"}, "is_reserved": 0}, {"lon": -76.9823115, "bike_id": "497162a3447ce6ab91da80b7598ae170", "lat": 38.91645666666667, "fusion_lon": 0.0, "fusion_lat": 0.0, "type": "electric_scooter", "name": "497162a3447ce6ab91da80b7598ae170", "is_disabled": 0, "rental_uris": {"ios": "https://dc.lft.to/lastmile_qr_scan", "android": "https://dc.lft.to/lastmile_qr_scan"}, "is_reserved": 0}, {"lon": -77.02187016666667, "bike_id": "7661e91855ff4fd787d8e12bd4424a72", "lat": 38.90584616666666, "fusion_lon": 0.0, "fusion_lat": 0.0, "type": "electric_scooter", "name": "7661e91855ff4fd787d8e12bd4424a72", "is_disabled": 0, "rental_uris": {"ios": "https://dc.lft.to/lastmile_qr_scan", "android": "https://dc.lft.to/lastmile_qr_scan"}, "is_reserved": 0}, {"lon": -77.00212466666666, "bike_id": "9639651352b8196ee11dde9f7c21a064", "lat": 38.90020116666667, "fusion_lon": 0.0, "fusion_lat": 0.0, "type": "electric_scooter", "name": "9639651352b8196ee11dde9f7c21a064", "is_disabled": 0, "rental_uris": {"ios": "https://dc.lft.to/lastmile_qr_scan", "android": "https://dc.lft.to/lastmile_qr_scan"}, "is_reserved": 0}, {"lon": -77.02510733333334, "bike_id": "ceea2819b39fb2bbd39d6d4f1d5b6809", "lat": 38.939789, "fusion_lon": 0.0, "fusion_lat": 0.0, "type": "electric_scooter", "name": "ceea2819b39fb2bbd39d6d4f1d5b6809", "is_disabled": 0, "rental_uris": {"ios": "https://dc.lft.to/lastmile_qr_scan", "android": "https://dc.lft.to/lastmile_qr_scan"}, "is_reserved": 0}, {"lon": -76.9319155, "bike_id": "92b64f39e488be48d3fbaf4c0591f2a5", "lat": 38.89876816666667, "fusion_lon": 0.0, "fusion_lat": 0.0, "type": "electric_scooter", "name": "92b64f39e488be48d3fbaf4c0591f2a5", "is_disabled": 0, "rental_uris": {"ios": "https://dc.lft.to/lastmile_qr_scan", "android": "https://dc.lft.to/lastmile_qr_scan"}, "is_reserved": 0}, {"lon": -76.983439, "bike_id": "998ffdb4422dc861ea735a239f905131", "lat": 38.86640333333333, "fusion_lon": 0.0, "fusion_lat": 0.0, "type": "electric_scooter", "name": "998ffdb4422dc861ea735a239f905131", "is_disabled": 0, "rental_uris": {"ios": "https://dc.lft.to/lastmile_qr_scan", "android": "https://dc.lft.to/lastmile_qr_scan"}, "is_reserved": 0}, {"lon": -77.016294, "bike_id": "27eadab129bc63bdbe9693c5d6601201", "lat": 38.90614216666667, "fusion_lon": 0.0, "fusion_lat": 0.0, "type": "electric_scooter", "name": "27eadab129bc63bdbe9693c5d6601201", "is_disabled": 0, "rental_uris": {"ios": "https://dc.lft.to/lastmile_qr_scan", "android": "https://dc.lft.to/lastmile_qr_scan"}, "is_reserved": 0}, {"lon": -77.036381, "bike_id": "94d6a7edcea3e23ee70ebd5c63c4561b", "lat": 38.92744233333333, "fusion_lon": 0.0, "fusion_lat": 0.0, "type": "electric_scooter", "name": "94d6a7edcea3e23ee70ebd5c63c4561b", "is_disabled": 0, "rental_uris": {"ios": "https://dc.lft.to/lastmile_qr_scan", "android": "https://dc.lft.to/lastmile_qr_scan"}, "is_reserved": 0}, {"lon": -77.002035, "bike_id": "dee20aac75be3ec641aeafa9a21bf180", "lat": 38.902397, "fusion_lon": 0.0, "fusion_lat": 0.0, "type": "electric_scooter", "name": "dee20aac75be3ec641aeafa9a21bf180", "is_disabled": 0, "rental_uris": {"ios": "https://dc.lft.to/lastmile_qr_scan", "android": "https://dc.lft.to/lastmile_qr_scan"}, "is_reserved": 0}, {"lon": -77.01605933333333, "bike_id": "0a57b0200461a323c3733ae1e6e4168d", "lat": 38.9031715, "fusion_lon": 0.0, "fusion_lat": 0.0, "type": "electric_scooter", "name": "0a57b0200461a323c3733ae1e6e4168d", "is_disabled": 0, "rental_uris": {"ios": "https://dc.lft.to/lastmile_qr_scan", "android": "https://dc.lft.to/lastmile_qr_scan"}, "is_reserved": 0}, {"lon": -76.98575966666667, "bike_id": "939a3de1e80845c5d492d01540e6808c", "lat": 38.898874666666664, "fusion_lon": 0.0, "fusion_lat": 0.0, "type": "electric_scooter", "name": "939a3de1e80845c5d492d01540e6808c", "is_disabled": 0, "rental_uris": {"ios": "https://dc.lft.to/lastmile_qr_scan", "android": "https://dc.lft.to/lastmile_qr_scan"}, "is_reserved": 0}, {"lon": -77.042307, "bike_id": "0418c4d575b59e3daea50c6a1c374ca5", "lat": 38.907535, "fusion_lon": 0.0, "fusion_lat": 0.0, "type": "electric_scooter", "name": "0418c4d575b59e3daea50c6a1c374ca5", "is_disabled": 0, "rental_uris": {"ios": "https://dc.lft.to/lastmile_qr_scan", "android": "https://dc.lft.to/lastmile_qr_scan"}, "is_reserved": 0}, {"lon": -77.06398033333333, "bike_id": "7ac7e1726d9448603abaf685199e3421", "lat": 38.94329533333333, "fusion_lon": 0.0, "fusion_lat": 0.0, "type": "electric_scooter", "name": "7ac7e1726d9448603abaf685199e3421", "is_disabled": 0, "rental_uris": {"ios": "https://dc.lft.to/lastmile_qr_scan", "android": "https://dc.lft.to/lastmile_qr_scan"}, "is_reserved": 0}, {"lon": -77.00044316666667, "bike_id": "4f510cd4917156a9247fe0c735010ccb", "lat": 38.87383616666666, "fusion_lon": 0.0, "fusion_lat": 0.0, "type": "electric_scooter", "name": "4f510cd4917156a9247fe0c735010ccb", "is_disabled": 0, "rental_uris": {"ios": "https://dc.lft.to/lastmile_qr_scan", "android": "https://dc.lft.to/lastmile_qr_scan"}, "is_reserved": 0}, {"lon": -77.03447683333333, "bike_id": "2a1be7ddc9ed05a12112a86d11ff0505", "lat": 38.927359, "fusion_lon": 0.0, "fusion_lat": 0.0, "type": "electric_scooter", "name": "2a1be7ddc9ed05a12112a86d11ff0505", "is_disabled": 0, "rental_uris": {"ios": "https://dc.lft.to/lastmile_qr_scan", "android": "https://dc.lft.to/lastmile_qr_scan"}, "is_reserved": 0}, {"lon": -77.0010165, "bike_id": "88be9a60dce04c3b3f9293fb02321026", "lat": 38.916336666666666, "fusion_lon": 0.0, "fusion_lat": 0.0, "type": "electric_scooter", "name": "88be9a60dce04c3b3f9293fb02321026", "is_disabled": 0, "rental_uris": {"ios": "https://dc.lft.to/lastmile_qr_scan", "android": "https://dc.lft.to/lastmile_qr_scan"}, "is_reserved": 0}, {"lon": -77.02456233333334, "bike_id": "c36ae47b7d14d26e6d947076e70121ee", "lat": 38.907188, "fusion_lon": 0.0, "fusion_lat": 0.0, "type": "electric_scooter", "name": "c36ae47b7d14d26e6d947076e70121ee", "is_disabled": 0, "rental_uris": {"ios": "https://dc.lft.to/lastmile_qr_scan", "android": "https://dc.lft.to/lastmile_qr_scan"}, "is_reserved": 0}, {"lon": -76.957505, "bike_id": "639b1abe3f771ade5c0a8a4c08578828", "lat": 38.88427816666667, "fusion_lon": 0.0, "fusion_lat": 0.0, "type": "electric_scooter", "name": "639b1abe3f771ade5c0a8a4c08578828", "is_disabled": 0, "rental_uris": {"ios": "https://dc.lft.to/lastmile_qr_scan", "android": "https://dc.lft.to/lastmile_qr_scan"}, "is_reserved": 0}, {"lon": -77.0481875, "bike_id": "a445011295e2bcf40a2ed39f6a2c7ffc", "lat": 38.9072655, "fusion_lon": 0.0, "fusion_lat": 0.0, "type": "electric_scooter", "name": "a445011295e2bcf40a2ed39f6a2c7ffc", "is_disabled": 0, "rental_uris": {"ios": "https://dc.lft.to/lastmile_qr_scan", "android": "https://dc.lft.to/lastmile_qr_scan"}, "is_reserved": 0}, {"lon": -77.0434615, "bike_id": "1a83ddbe96dc225e6d9b923270c928b2", "lat": 38.915799666666665, "fusion_lon": 0.0, "fusion_lat": 0.0, "type": "electric_scooter", "name": "1a83ddbe96dc225e6d9b923270c928b2", "is_disabled": 0, "rental_uris": {"ios": "https://dc.lft.to/lastmile_qr_scan", "android": "https://dc.lft.to/lastmile_qr_scan"}, "is_reserved": 0}, {"lon": -77.03472683333334, "bike_id": "39bc40171e3d49756e2137cde5d61fc5", "lat": 38.9207265, "fusion_lon": 0.0, "fusion_lat": 0.0, "type": "electric_scooter", "name": "39bc40171e3d49756e2137cde5d61fc5", "is_disabled": 0, "rental_uris": {"ios": "https://dc.lft.to/lastmile_qr_scan", "android": "https://dc.lft.to/lastmile_qr_scan"}, "is_reserved": 0}, {"lon": -77.04754433333333, "bike_id": "a39938846f5524e0126dbfb39e328771", "lat": 38.917616833333334, "fusion_lon": 0.0, "fusion_lat": 0.0, "type": "electric_scooter", "name": "a39938846f5524e0126dbfb39e328771", "is_disabled": 0, "rental_uris": {"ios": "https://dc.lft.to/lastmile_qr_scan", "android": "https://dc.lft.to/lastmile_qr_scan"}, "is_reserved": 0}, {"lon": -77.03670216666667, "bike_id": "11a20c07de89cd20440ff4079e20c454", "lat": 38.921056166666666, "fusion_lon": 0.0, "fusion_lat": 0.0, "type": "electric_scooter", "name": "11a20c07de89cd20440ff4079e20c454", "is_disabled": 0, "rental_uris": {"ios": "https://dc.lft.to/lastmile_qr_scan", "android": "https://dc.lft.to/lastmile_qr_scan"}, "is_reserved": 0}, {"lon": -77.0448845, "bike_id": "9ca73b3a42ea083fa85ab6437938ceb4", "lat": 38.90783716666667, "fusion_lon": 0.0, "fusion_lat": 0.0, "type": "electric_scooter", "name": "9ca73b3a42ea083fa85ab6437938ceb4", "is_disabled": 0, "rental_uris": {"ios": "https://dc.lft.to/lastmile_qr_scan", "android": "https://dc.lft.to/lastmile_qr_scan"}, "is_reserved": 0}, {"lon": -77.01344566666667, "bike_id": "ed0daaa6f57a1b5ecee835d07b7563e4", "lat": 38.87811833333333, "fusion_lon": 0.0, "fusion_lat": 0.0, "type": "electric_scooter", "name": "ed0daaa6f57a1b5ecee835d07b7563e4", "is_disabled": 0, "rental_uris": {"ios": "https://dc.lft.to/lastmile_qr_scan", "android": "https://dc.lft.to/lastmile_qr_scan"}, "is_reserved": 0}, {"lon": -77.03820233333333, "bike_id": "4f6cfa4b1ac34239cd90a742e775c43d", "lat": 38.9305715, "fusion_lon": 0.0, "fusion_lat": 0.0, "type": "electric_scooter", "name": "4f6cfa4b1ac34239cd90a742e775c43d", "is_disabled": 0, "rental_uris": {"ios": "https://dc.lft.to/lastmile_qr_scan", "android": "https://dc.lft.to/lastmile_qr_scan"}, "is_reserved": 0}, {"lon": -77.11711866666667, "bike_id": "c0d6c22db005b865bc9f8b079a6e0144", "lat": 38.86744133333333, "fusion_lon": 0.0, "fusion_lat": 0.0, "type": "electric_bike", "name": "c0d6c22db005b865bc9f8b079a6e0144", "is_disabled": 0, "rental_uris": {"ios": "https://dc.lft.to/lastmile_qr_scan", "android": "https://dc.lft.to/lastmile_qr_scan"}, "is_reserved": 0}, {"lon": -76.998147, "bike_id": "1cb84aca70dd6b64e1a74345c7f84ee1", "lat": 38.829099666666664, "fusion_lon": 0.0, "fusion_lat": 0.0, "type": "electric_bike", "name": "1cb84aca70dd6b64e1a74345c7f84ee1", "is_disabled": 0, "rental_uris": {"ios": "https://dc.lft.to/lastmile_qr_scan", "android": "https://dc.lft.to/lastmile_qr_scan"}, "is_reserved": 0}, {"lon": -76.98529666666667, "bike_id": "18e7b1d1a032fc1e213c14636d5f853d", "lat": 38.904574, "fusion_lon": 0.0, "fusion_lat": 0.0, "type": "electric_scooter", "name": "18e7b1d1a032fc1e213c14636d5f853d", "is_disabled": 0, "rental_uris": {"ios": "https://dc.lft.to/lastmile_qr_scan", "android": "https://dc.lft.to/lastmile_qr_scan"}, "is_reserved": 0}, {"lon": -77.00005133333333, "bike_id": "4981ce455bf0bc71e0c540fe7a91861b", "lat": 38.89740483333333, "fusion_lon": 0.0, "fusion_lat": 0.0, "type": "electric_scooter", "name": "4981ce455bf0bc71e0c540fe7a91861b", "is_disabled": 0, "rental_uris": {"ios": "https://dc.lft.to/lastmile_qr_scan", "android": "https://dc.lft.to/lastmile_qr_scan"}, "is_reserved": 0}, {"lon": -77.06490316666667, "bike_id": "8eecccd635bdc53bb960bce27f8d485a", "lat": 38.909781333333335, "fusion_lon": 0.0, "fusion_lat": 0.0, "type": "electric_scooter", "name": "8eecccd635bdc53bb960bce27f8d485a", "is_disabled": 0, "rental_uris": {"ios": "https://dc.lft.to/lastmile_qr_scan", "android": "https://dc.lft.to/lastmile_qr_scan"}, "is_reserved": 0}, {"lon": -76.96500416666666, "bike_id": "a735d2d08480406268d3ba52fbe08015", "lat": 38.87637266666667, "fusion_lon": 0.0, "fusion_lat": 0.0, "type": "electric_scooter", "name": "a735d2d08480406268d3ba52fbe08015", "is_disabled": 0, "rental_uris": {"ios": "https://dc.lft.to/lastmile_qr_scan", "android": "https://dc.lft.to/lastmile_qr_scan"}, "is_reserved": 0}, {"lon": -77.04599833333333, "bike_id": "48d11383215c0bfb6cf00591f3314a73", "lat": 38.9135645, "fusion_lon": 0.0, "fusion_lat": 0.0, "type": "electric_scooter", "name": "48d11383215c0bfb6cf00591f3314a73", "is_disabled": 0, "rental_uris": {"ios": "https://dc.lft.to/lastmile_qr_scan", "android": "https://dc.lft.to/lastmile_qr_scan"}, "is_reserved": 0}, {"lon": -77.10813133333333, "bike_id": "73079fa1ab54883010952619a288ab40", "lat": 38.81200483333333, "fusion_lon": 0.0, "fusion_lat": 0.0, "type": "electric_bike", "name": "73079fa1ab54883010952619a288ab40", "is_disabled": 0, "rental_uris": {"ios": "https://dc.lft.to/lastmile_qr_scan", "android": "https://dc.lft.to/lastmile_qr_scan"}, "is_reserved": 0}, {"lon": -77.02504366666666, "bike_id": "cd245e865f9208c97a15879bf251cbf2", "lat": 38.91981066666666, "fusion_lon": 0.0, "fusion_lat": 0.0, "type": "electric_scooter", "name": "cd245e865f9208c97a15879bf251cbf2", "is_disabled": 0, "rental_uris": {"ios": "https://dc.lft.to/lastmile_qr_scan", "android": "https://dc.lft.to/lastmile_qr_scan"}, "is_reserved": 0}, {"lon": -77.05002966666666, "bike_id": "ff79dad756227e13cfe26bca39556624", "lat": 38.9008495, "fusion_lon": 0.0, "fusion_lat": 0.0, "type": "electric_scooter", "name": "ff79dad756227e13cfe26bca39556624", "is_disabled": 0, "rental_uris": {"ios": "https://dc.lft.to/lastmile_qr_scan", "android": "https://dc.lft.to/lastmile_qr_scan"}, "is_reserved": 0}, {"lon": -76.99876166666667, "bike_id": "58eea26ce082c28526461cf712967f2a", "lat": 38.9001385, "fusion_lon": 0.0, "fusion_lat": 0.0, "type": "electric_scooter", "name": "58eea26ce082c28526461cf712967f2a", "is_disabled": 0, "rental_uris": {"ios": "https://dc.lft.to/lastmile_qr_scan", "android": "https://dc.lft.to/lastmile_qr_scan"}, "is_reserved": 0}, {"lon": -77.01076483333334, "bike_id": "242503e0f39514f91f7939f74db9fa8a", "lat": 38.8943895, "fusion_lon": 0.0, "fusion_lat": 0.0, "type": "electric_scooter", "name": "242503e0f39514f91f7939f74db9fa8a", "is_disabled": 0, "rental_uris": {"ios": "https://dc.lft.to/lastmile_qr_scan", "android": "https://dc.lft.to/lastmile_qr_scan"}, "is_reserved": 0}, {"lon": -76.985435, "bike_id": "dcdd890ada0a9a9cf5a2568e7a01a6be", "lat": 38.92502416666667, "fusion_lon": 0.0, "fusion_lat": 0.0, "type": "electric_bike", "name": "dcdd890ada0a9a9cf5a2568e7a01a6be", "is_disabled": 0, "rental_uris": {"ios": "https://dc.lft.to/lastmile_qr_scan", "android": "https://dc.lft.to/lastmile_qr_scan"}, "is_reserved": 0}, {"lon": -77.0150705, "bike_id": "44781553f96e4e327dbb31c0d6a2681d", "lat": 38.88500666666667, "fusion_lon": 0.0, "fusion_lat": 0.0, "type": "electric_scooter", "name": "44781553f96e4e327dbb31c0d6a2681d", "is_disabled": 0, "rental_uris": {"ios": "https://dc.lft.to/lastmile_qr_scan", "android": "https://dc.lft.to/lastmile_qr_scan"}, "is_reserved": 0}, {"lon": -77.04448, "bike_id": "64ff3f93eb6590d68914a5db77f5ac0c", "lat": 38.91867166666667, "fusion_lon": 0.0, "fusion_lat": 0.0, "type": "electric_scooter", "name": "64ff3f93eb6590d68914a5db77f5ac0c", "is_disabled": 0, "rental_uris": {"ios": "https://dc.lft.to/lastmile_qr_scan", "android": "https://dc.lft.to/lastmile_qr_scan"}, "is_reserved": 0}, {"lon": -77.034324, "bike_id": "ae1f07b4b47b4ce29d5b29606cd87ea4", "lat": 38.9653475, "fusion_lon": 0.0, "fusion_lat": 0.0, "type": "electric_bike", "name": "ae1f07b4b47b4ce29d5b29606cd87ea4", "is_disabled": 0, "rental_uris": {"ios": "https://dc.lft.to/lastmile_qr_scan", "android": "https://dc.lft.to/lastmile_qr_scan"}, "is_reserved": 0}, {"lon": -77.1393325, "bike_id": "f9a2585b1d48d957381f7107a14a50d3", "lat": 38.872979, "fusion_lon": 0.0, "fusion_lat": 0.0, "type": "electric_bike", "name": "f9a2585b1d48d957381f7107a14a50d3", "is_disabled": 0, "rental_uris": {"ios": "https://dc.lft.to/lastmile_qr_scan", "android": "https://dc.lft.to/lastmile_qr_scan"}, "is_reserved": 0}, {"lon": -77.0491185, "bike_id": "0e78dd384f19299eeb69d3c77357afc5", "lat": 38.915998, "fusion_lon": 0.0, "fusion_lat": 0.0, "type": "electric_scooter", "name": "0e78dd384f19299eeb69d3c77357afc5", "is_disabled": 0, "rental_uris": {"ios": "https://dc.lft.to/lastmile_qr_scan", "android": "https://dc.lft.to/lastmile_qr_scan"}, "is_reserved": 0}, {"lon": -76.97211133333333, "bike_id": "ca418499c0006a50584d80b4c631269f", "lat": 38.8928675, "fusion_lon": 0.0, "fusion_lat": 0.0, "type": "electric_bike", "name": "ca418499c0006a50584d80b4c631269f", "is_disabled": 0, "rental_uris": {"ios": "https://dc.lft.to/lastmile_qr_scan", "android": "https://dc.lft.to/lastmile_qr_scan"}, "is_reserved": 0}, {"lon": -76.9883795, "bike_id": "f988ac3f9773675dedf48adc49825de7", "lat": 38.89665633333333, "fusion_lon": 0.0, "fusion_lat": 0.0, "type": "electric_scooter", "name": "f988ac3f9773675dedf48adc49825de7", "is_disabled": 0, "rental_uris": {"ios": "https://dc.lft.to/lastmile_qr_scan", "android": "https://dc.lft.to/lastmile_qr_scan"}, "is_reserved": 0}, {"lon": -77.02415266666667, "bike_id": "af46a0699a9534d42343c391f2635f77", "lat": 38.917083166666664, "fusion_lon": 0.0, "fusion_lat": 0.0, "type": "electric_scooter", "name": "af46a0699a9534d42343c391f2635f77", "is_disabled": 0, "rental_uris": {"ios": "https://dc.lft.to/lastmile_qr_scan", "android": "https://dc.lft.to/lastmile_qr_scan"}, "is_reserved": 0}, {"lon": -76.98237316666666, "bike_id": "7f1fc2674ce8bcaa2ff4b61903d7d171", "lat": 38.864756666666665, "fusion_lon": 0.0, "fusion_lat": 0.0, "type": "electric_scooter", "name": "7f1fc2674ce8bcaa2ff4b61903d7d171", "is_disabled": 0, "rental_uris": {"ios": "https://dc.lft.to/lastmile_qr_scan", "android": "https://dc.lft.to/lastmile_qr_scan"}, "is_reserved": 0}, {"lon": -76.93958, "bike_id": "b38c361c966dcd6750dbf1d560c3e386", "lat": 38.8983095, "fusion_lon": 0.0, "fusion_lat": 0.0, "type": "electric_scooter", "name": "b38c361c966dcd6750dbf1d560c3e386", "is_disabled": 0, "rental_uris": {"ios": "https://dc.lft.to/lastmile_qr_scan", "android": "https://dc.lft.to/lastmile_qr_scan"}, "is_reserved": 0}, {"lon": -77.017811, "bike_id": "ab62fcd304ad5cd21e79d9944f40e362", "lat": 38.9005055, "fusion_lon": 0.0, "fusion_lat": 0.0, "type": "electric_scooter", "name": "ab62fcd304ad5cd21e79d9944f40e362", "is_disabled": 0, "rental_uris": {"ios": "https://dc.lft.to/lastmile_qr_scan", "android": "https://dc.lft.to/lastmile_qr_scan"}, "is_reserved": 0}, {"lon": -77.06118233333333, "bike_id": "4008a21096ebf0a75e1c90424faf1a99", "lat": 38.9053305, "fusion_lon": 0.0, "fusion_lat": 0.0, "type": "electric_scooter", "name": "4008a21096ebf0a75e1c90424faf1a99", "is_disabled": 0, "rental_uris": {"ios": "https://dc.lft.to/lastmile_qr_scan", "android": "https://dc.lft.to/lastmile_qr_scan"}, "is_reserved": 0}, {"lon": -76.97730616666666, "bike_id": "5f1e5b26c8ed7c4ad182ef57f3f0665e", "lat": 38.872455, "fusion_lon": 0.0, "fusion_lat": 0.0, "type": "electric_scooter", "name": "5f1e5b26c8ed7c4ad182ef57f3f0665e", "is_disabled": 0, "rental_uris": {"ios": "https://dc.lft.to/lastmile_qr_scan", "android": "https://dc.lft.to/lastmile_qr_scan"}, "is_reserved": 0}, {"lon": -77.05572983333333, "bike_id": "41000360f84bc30edf6f2855b4f6fa0d", "lat": 38.8973045, "fusion_lon": 0.0, "fusion_lat": 0.0, "type": "electric_scooter", "name": "41000360f84bc30edf6f2855b4f6fa0d", "is_disabled": 0, "rental_uris": {"ios": "https://dc.lft.to/lastmile_qr_scan", "android": "https://dc.lft.to/lastmile_qr_scan"}, "is_reserved": 0}, {"lon": -76.98110066666666, "bike_id": "003977ece6862146f8075aaba5175b7a", "lat": 38.87729866666667, "fusion_lon": 0.0, "fusion_lat": 0.0, "type": "electric_bike", "name": "003977ece6862146f8075aaba5175b7a", "is_disabled": 0, "rental_uris": {"ios": "https://dc.lft.to/lastmile_qr_scan", "android": "https://dc.lft.to/lastmile_qr_scan"}, "is_reserved": 0}, {"lon": -77.0470225, "bike_id": "c1a0c1287bb7f5b70d435258ed52b4ad", "lat": 38.91895316666667, "fusion_lon": 0.0, "fusion_lat": 0.0, "type": "electric_scooter", "name": "c1a0c1287bb7f5b70d435258ed52b4ad", "is_disabled": 0, "rental_uris": {"ios": "https://dc.lft.to/lastmile_qr_scan", "android": "https://dc.lft.to/lastmile_qr_scan"}, "is_reserved": 0}, {"lon": -77.0029545, "bike_id": "058de63db89f3e7312c0ba4ea2ce0572", "lat": 38.901326, "fusion_lon": 0.0, "fusion_lat": 0.0, "type": "electric_scooter", "name": "058de63db89f3e7312c0ba4ea2ce0572", "is_disabled": 0, "rental_uris": {"ios": "https://dc.lft.to/lastmile_qr_scan", "android": "https://dc.lft.to/lastmile_qr_scan"}, "is_reserved": 0}, {"lon": -77.04009, "bike_id": "5f3bb9d3f249439ae5c8e9b468ef6542", "lat": 38.934264166666665, "fusion_lon": 0.0, "fusion_lat": 0.0, "type": "electric_scooter", "name": "5f3bb9d3f249439ae5c8e9b468ef6542", "is_disabled": 0, "rental_uris": {"ios": "https://dc.lft.to/lastmile_qr_scan", "android": "https://dc.lft.to/lastmile_qr_scan"}, "is_reserved": 0}, {"lon": -76.98248783333334, "bike_id": "87b06102320a86954b142a03c8087e94", "lat": 38.864545166666666, "fusion_lon": 0.0, "fusion_lat": 0.0, "type": "electric_scooter", "name": "87b06102320a86954b142a03c8087e94", "is_disabled": 0, "rental_uris": {"ios": "https://dc.lft.to/lastmile_qr_scan", "android": "https://dc.lft.to/lastmile_qr_scan"}, "is_reserved": 0}, {"lon": -77.031529, "bike_id": "788f4f5d300c9c34456fa1cabc02d413", "lat": 38.91712233333333, "fusion_lon": 0.0, "fusion_lat": 0.0, "type": "electric_scooter", "name": "788f4f5d300c9c34456fa1cabc02d413", "is_disabled": 0, "rental_uris": {"ios": "https://dc.lft.to/lastmile_qr_scan", "android": "https://dc.lft.to/lastmile_qr_scan"}, "is_reserved": 0}, {"lon": -76.94944633333333, "bike_id": "9230bd63514721f135b1140784a16705", "lat": 38.90372766666667, "fusion_lon": 0.0, "fusion_lat": 0.0, "type": "electric_scooter", "name": "9230bd63514721f135b1140784a16705", "is_disabled": 0, "rental_uris": {"ios": "https://dc.lft.to/lastmile_qr_scan", "android": "https://dc.lft.to/lastmile_qr_scan"}, "is_reserved": 0}, {"lon": -77.03215633333333, "bike_id": "e3542cf53921135bef4da7a2d70ccee3", "lat": 38.91916283333333, "fusion_lon": 0.0, "fusion_lat": 0.0, "type": "electric_scooter", "name": "e3542cf53921135bef4da7a2d70ccee3", "is_disabled": 0, "rental_uris": {"ios": "https://dc.lft.to/lastmile_qr_scan", "android": "https://dc.lft.to/lastmile_qr_scan"}, "is_reserved": 0}, {"lon": -77.0586425, "bike_id": "72a3f0c10016562b7813f54f20867bf1", "lat": 38.93602683333334, "fusion_lon": 0.0, "fusion_lat": 0.0, "type": "electric_scooter", "name": "72a3f0c10016562b7813f54f20867bf1", "is_disabled": 0, "rental_uris": {"ios": "https://dc.lft.to/lastmile_qr_scan", "android": "https://dc.lft.to/lastmile_qr_scan"}, "is_reserved": 0}, {"lon": -77.00116716666666, "bike_id": "a05a1b3ff5e47c9864b980679c439514", "lat": 38.9196765, "fusion_lon": 0.0, "fusion_lat": 0.0, "type": "electric_scooter", "name": "a05a1b3ff5e47c9864b980679c439514", "is_disabled": 0, "rental_uris": {"ios": "https://dc.lft.to/lastmile_qr_scan", "android": "https://dc.lft.to/lastmile_qr_scan"}, "is_reserved": 0}, {"lon": -77.03275383333333, "bike_id": "d4282d55a813063ec001b013148c6f39", "lat": 38.9003865, "fusion_lon": 0.0, "fusion_lat": 0.0, "type": "electric_scooter", "name": "d4282d55a813063ec001b013148c6f39", "is_disabled": 0, "rental_uris": {"ios": "https://dc.lft.to/lastmile_qr_scan", "android": "https://dc.lft.to/lastmile_qr_scan"}, "is_reserved": 0}, {"lon": -77.02809466666666, "bike_id": "1418d0489b574bbfcd05295d47f8ea49", "lat": 38.9022605, "fusion_lon": 0.0, "fusion_lat": 0.0, "type": "electric_scooter", "name": "1418d0489b574bbfcd05295d47f8ea49", "is_disabled": 0, "rental_uris": {"ios": "https://dc.lft.to/lastmile_qr_scan", "android": "https://dc.lft.to/lastmile_qr_scan"}, "is_reserved": 0}, {"lon": -77.03217066666667, "bike_id": "a9f46da971733c143ef2d9464cf6461a", "lat": 38.919123, "fusion_lon": 0.0, "fusion_lat": 0.0, "type": "electric_scooter", "name": "a9f46da971733c143ef2d9464cf6461a", "is_disabled": 0, "rental_uris": {"ios": "https://dc.lft.to/lastmile_qr_scan", "android": "https://dc.lft.to/lastmile_qr_scan"}, "is_reserved": 0}, {"lon": -77.001943, "bike_id": "13aedb44a0afd2fb3419ca6af6a7ad5b", "lat": 38.89472266666667, "fusion_lon": 0.0, "fusion_lat": 0.0, "type": "electric_scooter", "name": "13aedb44a0afd2fb3419ca6af6a7ad5b", "is_disabled": 0, "rental_uris": {"ios": "https://dc.lft.to/lastmile_qr_scan", "android": "https://dc.lft.to/lastmile_qr_scan"}, "is_reserved": 0}, {"lon": -76.9978795, "bike_id": "41ef44c3d9c33b093141df7d88d2cf79", "lat": 38.890884166666666, "fusion_lon": 0.0, "fusion_lat": 0.0, "type": "electric_scooter", "name": "41ef44c3d9c33b093141df7d88d2cf79", "is_disabled": 0, "rental_uris": {"ios": "https://dc.lft.to/lastmile_qr_scan", "android": "https://dc.lft.to/lastmile_qr_scan"}, "is_reserved": 0}, {"lon": -76.99870533333333, "bike_id": "99b8bcd44f74116ed6c0d05b5328f2ee", "lat": 38.900223, "fusion_lon": 0.0, "fusion_lat": 0.0, "type": "electric_scooter", "name": "99b8bcd44f74116ed6c0d05b5328f2ee", "is_disabled": 0, "rental_uris": {"ios": "https://dc.lft.to/lastmile_qr_scan", "android": "https://dc.lft.to/lastmile_qr_scan"}, "is_reserved": 0}, {"lon": -77.03720633333333, "bike_id": "d68cf5030515bcfa06d06225f4723ad4", "lat": 38.9283955, "fusion_lon": 0.0, "fusion_lat": 0.0, "type": "electric_scooter", "name": "d68cf5030515bcfa06d06225f4723ad4", "is_disabled": 0, "rental_uris": {"ios": "https://dc.lft.to/lastmile_qr_scan", "android": "https://dc.lft.to/lastmile_qr_scan"}, "is_reserved": 0}, {"lon": -77.0321045, "bike_id": "91a19a5d24b17e461da905272a511777", "lat": 38.91808316666667, "fusion_lon": 0.0, "fusion_lat": 0.0, "type": "electric_scooter", "name": "91a19a5d24b17e461da905272a511777", "is_disabled": 0, "rental_uris": {"ios": "https://dc.lft.to/lastmile_qr_scan", "android": "https://dc.lft.to/lastmile_qr_scan"}, "is_reserved": 0}, {"lon": -77.00613916666667, "bike_id": "50a4f0d2fef4f729ef65b48444d78e7b", "lat": 38.90022616666667, "fusion_lon": 0.0, "fusion_lat": 0.0, "type": "electric_scooter", "name": "50a4f0d2fef4f729ef65b48444d78e7b", "is_disabled": 0, "rental_uris": {"ios": "https://dc.lft.to/lastmile_qr_scan", "android": "https://dc.lft.to/lastmile_qr_scan"}, "is_reserved": 0}, {"lon": -77.00249166666667, "bike_id": "8b97ac51fb623b32423dae6234b38cd8", "lat": 38.88512383333333, "fusion_lon": 0.0, "fusion_lat": 0.0, "type": "electric_scooter", "name": "8b97ac51fb623b32423dae6234b38cd8", "is_disabled": 0, "rental_uris": {"ios": "https://dc.lft.to/lastmile_qr_scan", "android": "https://dc.lft.to/lastmile_qr_scan"}, "is_reserved": 0}, {"lon": -77.01503566666666, "bike_id": "a67dc3935e667c09f8f18e76d5dadd0a", "lat": 38.9453085, "fusion_lon": 0.0, "fusion_lat": 0.0, "type": "electric_scooter", "name": "a67dc3935e667c09f8f18e76d5dadd0a", "is_disabled": 0, "rental_uris": {"ios": "https://dc.lft.to/lastmile_qr_scan", "android": "https://dc.lft.to/lastmile_qr_scan"}, "is_reserved": 0}, {"lon": -77.01306633333333, "bike_id": "afb73229c66a9658fd8fd66e2200451c", "lat": 38.91146616666666, "fusion_lon": 0.0, "fusion_lat": 0.0, "type": "electric_scooter", "name": "afb73229c66a9658fd8fd66e2200451c", "is_disabled": 0, "rental_uris": {"ios": "https://dc.lft.to/lastmile_qr_scan", "android": "https://dc.lft.to/lastmile_qr_scan"}, "is_reserved": 0}, {"lon": -77.03135583333334, "bike_id": "088d6b9cba00e8993ac7bf1c72a697d1", "lat": 38.914991, "fusion_lon": 0.0, "fusion_lat": 0.0, "type": "electric_scooter", "name": "088d6b9cba00e8993ac7bf1c72a697d1", "is_disabled": 0, "rental_uris": {"ios": "https://dc.lft.to/lastmile_qr_scan", "android": "https://dc.lft.to/lastmile_qr_scan"}, "is_reserved": 0}, {"lon": -76.949514, "bike_id": "17e712705350c77d2d31cd222568341c", "lat": 38.904987166666665, "fusion_lon": 0.0, "fusion_lat": 0.0, "type": "electric_scooter", "name": "17e712705350c77d2d31cd222568341c", "is_disabled": 0, "rental_uris": {"ios": "https://dc.lft.to/lastmile_qr_scan", "android": "https://dc.lft.to/lastmile_qr_scan"}, "is_reserved": 0}, {"lon": -77.007404, "bike_id": "45096411a14a887315d08b56b27cdbcb", "lat": 38.92542066666667, "fusion_lon": 0.0, "fusion_lat": 0.0, "type": "electric_scooter", "name": "45096411a14a887315d08b56b27cdbcb", "is_disabled": 0, "rental_uris": {"ios": "https://dc.lft.to/lastmile_qr_scan", "android": "https://dc.lft.to/lastmile_qr_scan"}, "is_reserved": 0}, {"lon": -77.04268683333333, "bike_id": "562f5960f6c772c8300e2c414b761b2a", "lat": 38.91051866666667, "fusion_lon": 0.0, "fusion_lat": 0.0, "type": "electric_scooter", "name": "562f5960f6c772c8300e2c414b761b2a", "is_disabled": 0, "rental_uris": {"ios": "https://dc.lft.to/lastmile_qr_scan", "android": "https://dc.lft.to/lastmile_qr_scan"}, "is_reserved": 0}, {"lon": -77.034448, "bike_id": "25d03da2bb951f2648dcf4febc808c7e", "lat": 38.907362, "fusion_lon": 0.0, "fusion_lat": 0.0, "type": "electric_scooter", "name": "25d03da2bb951f2648dcf4febc808c7e", "is_disabled": 0, "rental_uris": {"ios": "https://dc.lft.to/lastmile_qr_scan", "android": "https://dc.lft.to/lastmile_qr_scan"}, "is_reserved": 0}, {"lon": -76.95761733333333, "bike_id": "9914d176930b44897b1bb2cfcfd55d82", "lat": 38.8842585, "fusion_lon": 0.0, "fusion_lat": 0.0, "type": "electric_scooter", "name": "9914d176930b44897b1bb2cfcfd55d82", "is_disabled": 0, "rental_uris": {"ios": "https://dc.lft.to/lastmile_qr_scan", "android": "https://dc.lft.to/lastmile_qr_scan"}, "is_reserved": 0}, {"lon": -77.02281016666667, "bike_id": "202a15368b2183a29828294e0eb8ae21", "lat": 38.87883766666667, "fusion_lon": 0.0, "fusion_lat": 0.0, "type": "electric_scooter", "name": "202a15368b2183a29828294e0eb8ae21", "is_disabled": 0, "rental_uris": {"ios": "https://dc.lft.to/lastmile_qr_scan", "android": "https://dc.lft.to/lastmile_qr_scan"}, "is_reserved": 0}, {"lon": -77.024397, "bike_id": "966bb977504a5c2acf6629ac61daeb66", "lat": 38.920784166666664, "fusion_lon": 0.0, "fusion_lat": 0.0, "type": "electric_scooter", "name": "966bb977504a5c2acf6629ac61daeb66", "is_disabled": 0, "rental_uris": {"ios": "https://dc.lft.to/lastmile_qr_scan", "android": "https://dc.lft.to/lastmile_qr_scan"}, "is_reserved": 0}, {"lon": -77.03062466666667, "bike_id": "1f879a272e6759f5aae86cb161344538", "lat": 38.93097983333333, "fusion_lon": 0.0, "fusion_lat": 0.0, "type": "electric_scooter", "name": "1f879a272e6759f5aae86cb161344538", "is_disabled": 0, "rental_uris": {"ios": "https://dc.lft.to/lastmile_qr_scan", "android": "https://dc.lft.to/lastmile_qr_scan"}, "is_reserved": 0}, {"lon": -77.01437233333333, "bike_id": "44ed8b7492c02e5db32202222d7e42b9", "lat": 38.99802016666667, "fusion_lon": 0.0, "fusion_lat": 0.0, "type": "electric_bike", "name": "44ed8b7492c02e5db32202222d7e42b9", "is_disabled": 0, "rental_uris": {"ios": "https://dc.lft.to/lastmile_qr_scan", "android": "https://dc.lft.to/lastmile_qr_scan"}, "is_reserved": 0}, {"lon": -77.004182, "bike_id": "2213f7686a4a4ecf968dfeeefef15949", "lat": 38.877158, "fusion_lon": 0.0, "fusion_lat": 0.0, "type": "electric_scooter", "name": "2213f7686a4a4ecf968dfeeefef15949", "is_disabled": 0, "rental_uris": {"ios": "https://dc.lft.to/lastmile_qr_scan", "android": "https://dc.lft.to/lastmile_qr_scan"}, "is_reserved": 0}, {"lon": -77.05152183333334, "bike_id": "cabe52aacb3f381b9872096a5dcbd1d8", "lat": 38.89808716666667, "fusion_lon": 0.0, "fusion_lat": 0.0, "type": "electric_scooter", "name": "cabe52aacb3f381b9872096a5dcbd1d8", "is_disabled": 0, "rental_uris": {"ios": "https://dc.lft.to/lastmile_qr_scan", "android": "https://dc.lft.to/lastmile_qr_scan"}, "is_reserved": 0}, {"lon": -77.03941216666666, "bike_id": "6c8ecbb202893f5bcc1d8dafe6ada46b", "lat": 38.91564616666667, "fusion_lon": 0.0, "fusion_lat": 0.0, "type": "electric_scooter", "name": "6c8ecbb202893f5bcc1d8dafe6ada46b", "is_disabled": 0, "rental_uris": {"ios": "https://dc.lft.to/lastmile_qr_scan", "android": "https://dc.lft.to/lastmile_qr_scan"}, "is_reserved": 0}, {"lon": -77.02029866666666, "bike_id": "70c8f2d65d9e48061406b025c8f45723", "lat": 38.90553116666667, "fusion_lon": 0.0, "fusion_lat": 0.0, "type": "electric_scooter", "name": "70c8f2d65d9e48061406b025c8f45723", "is_disabled": 0, "rental_uris": {"ios": "https://dc.lft.to/lastmile_qr_scan", "android": "https://dc.lft.to/lastmile_qr_scan"}, "is_reserved": 0}, {"lon": -77.0229495, "bike_id": "3567430f3cae3ae5f608ff99c46b489f", "lat": 38.922265, "fusion_lon": 0.0, "fusion_lat": 0.0, "type": "electric_scooter", "name": "3567430f3cae3ae5f608ff99c46b489f", "is_disabled": 0, "rental_uris": {"ios": "https://dc.lft.to/lastmile_qr_scan", "android": "https://dc.lft.to/lastmile_qr_scan"}, "is_reserved": 0}, {"lon": -77.00840666666667, "bike_id": "a9a24c97098ef747011bc2a57ba2641e", "lat": 38.8971025, "fusion_lon": 0.0, "fusion_lat": 0.0, "type": "electric_scooter", "name": "a9a24c97098ef747011bc2a57ba2641e", "is_disabled": 0, "rental_uris": {"ios": "https://dc.lft.to/lastmile_qr_scan", "android": "https://dc.lft.to/lastmile_qr_scan"}, "is_reserved": 0}, {"lon": -77.018576, "bike_id": "1717165f921eff5f00bbbaa2cb6f48c5", "lat": 38.90380666666667, "fusion_lon": 0.0, "fusion_lat": 0.0, "type": "electric_scooter", "name": "1717165f921eff5f00bbbaa2cb6f48c5", "is_disabled": 0, "rental_uris": {"ios": "https://dc.lft.to/lastmile_qr_scan", "android": "https://dc.lft.to/lastmile_qr_scan"}, "is_reserved": 0}, {"lon": -77.03185016666667, "bike_id": "2bcf0bf418f614d187324dcf928fd371", "lat": 38.91170866666667, "fusion_lon": 0.0, "fusion_lat": 0.0, "type": "electric_scooter", "name": "2bcf0bf418f614d187324dcf928fd371", "is_disabled": 0, "rental_uris": {"ios": "https://dc.lft.to/lastmile_qr_scan", "android": "https://dc.lft.to/lastmile_qr_scan"}, "is_reserved": 0}, {"lon": -77.02698766666667, "bike_id": "ded4629976a7889584c88e4f438c9d33", "lat": 38.91224116666667, "fusion_lon": 0.0, "fusion_lat": 0.0, "type": "electric_scooter", "name": "ded4629976a7889584c88e4f438c9d33", "is_disabled": 0, "rental_uris": {"ios": "https://dc.lft.to/lastmile_qr_scan", "android": "https://dc.lft.to/lastmile_qr_scan"}, "is_reserved": 0}, {"lon": -76.98526966666667, "bike_id": "394dacfc51737225e1e9287f50804004", "lat": 38.8668295, "fusion_lon": 0.0, "fusion_lat": 0.0, "type": "electric_scooter", "name": "394dacfc51737225e1e9287f50804004", "is_disabled": 0, "rental_uris": {"ios": "https://dc.lft.to/lastmile_qr_scan", "android": "https://dc.lft.to/lastmile_qr_scan"}, "is_reserved": 0}, {"lon": -77.044729, "bike_id": "04bf36f4933ec7addad20e50bec0dafe", "lat": 38.92390666666667, "fusion_lon": 0.0, "fusion_lat": 0.0, "type": "electric_scooter", "name": "04bf36f4933ec7addad20e50bec0dafe", "is_disabled": 0, "rental_uris": {"ios": "https://dc.lft.to/lastmile_qr_scan", "android": "https://dc.lft.to/lastmile_qr_scan"}, "is_reserved": 0}, {"lon": -77.06237416666667, "bike_id": "e7bb60bb06e274c04b50aa60bf4339e5", "lat": 38.90247166666666, "fusion_lon": 0.0, "fusion_lat": 0.0, "type": "electric_scooter", "name": "e7bb60bb06e274c04b50aa60bf4339e5", "is_disabled": 0, "rental_uris": {"ios": "https://dc.lft.to/lastmile_qr_scan", "android": "https://dc.lft.to/lastmile_qr_scan"}, "is_reserved": 0}, {"lon": -77.02766516666667, "bike_id": "1ae4cb78eee6913b45085cecbedbb62f", "lat": 38.954256, "fusion_lon": 0.0, "fusion_lat": 0.0, "type": "electric_scooter", "name": "1ae4cb78eee6913b45085cecbedbb62f", "is_disabled": 0, "rental_uris": {"ios": "https://dc.lft.to/lastmile_qr_scan", "android": "https://dc.lft.to/lastmile_qr_scan"}, "is_reserved": 0}, {"lon": -76.96615366666667, "bike_id": "7bf023618569fd8ddcbdc5f9cd4a31c9", "lat": 38.871039333333336, "fusion_lon": 0.0, "fusion_lat": 0.0, "type": "electric_scooter", "name": "7bf023618569fd8ddcbdc5f9cd4a31c9", "is_disabled": 0, "rental_uris": {"ios": "https://dc.lft.to/lastmile_qr_scan", "android": "https://dc.lft.to/lastmile_qr_scan"}, "is_reserved": 0}, {"lon": -77.02605183333333, "bike_id": "c7db58bd22ea0d1637cea95841a969ce", "lat": 38.901318333333336, "fusion_lon": 0.0, "fusion_lat": 0.0, "type": "electric_scooter", "name": "c7db58bd22ea0d1637cea95841a969ce", "is_disabled": 0, "rental_uris": {"ios": "https://dc.lft.to/lastmile_qr_scan", "android": "https://dc.lft.to/lastmile_qr_scan"}, "is_reserved": 0}, {"lon": -77.02578366666667, "bike_id": "05957ef42f73fca3ecfdbd1e8317b5f3", "lat": 38.92607733333333, "fusion_lon": 0.0, "fusion_lat": 0.0, "type": "electric_scooter", "name": "05957ef42f73fca3ecfdbd1e8317b5f3", "is_disabled": 0, "rental_uris": {"ios": "https://dc.lft.to/lastmile_qr_scan", "android": "https://dc.lft.to/lastmile_qr_scan"}, "is_reserved": 0}, {"lon": -77.05177066666667, "bike_id": "85345205c7b0b56088ece4a799583ee6", "lat": 38.923776, "fusion_lon": 0.0, "fusion_lat": 0.0, "type": "electric_scooter", "name": "85345205c7b0b56088ece4a799583ee6", "is_disabled": 0, "rental_uris": {"ios": "https://dc.lft.to/lastmile_qr_scan", "android": "https://dc.lft.to/lastmile_qr_scan"}, "is_reserved": 0}, {"lon": -77.02619466666667, "bike_id": "98cc190181c0256270353a8e3ebdf62b", "lat": 38.9141685, "fusion_lon": 0.0, "fusion_lat": 0.0, "type": "electric_scooter", "name": "98cc190181c0256270353a8e3ebdf62b", "is_disabled": 0, "rental_uris": {"ios": "https://dc.lft.to/lastmile_qr_scan", "android": "https://dc.lft.to/lastmile_qr_scan"}, "is_reserved": 0}, {"lon": -77.02563533333333, "bike_id": "8d03f15f8536d6f9fd5e390d0e2136a5", "lat": 38.88417333333334, "fusion_lon": 0.0, "fusion_lat": 0.0, "type": "electric_scooter", "name": "8d03f15f8536d6f9fd5e390d0e2136a5", "is_disabled": 0, "rental_uris": {"ios": "https://dc.lft.to/lastmile_qr_scan", "android": "https://dc.lft.to/lastmile_qr_scan"}, "is_reserved": 0}, {"lon": -77.02187816666667, "bike_id": "d6fd08bfe62f4c5428c554f4d19681a3", "lat": 38.914873666666665, "fusion_lon": 0.0, "fusion_lat": 0.0, "type": "electric_scooter", "name": "d6fd08bfe62f4c5428c554f4d19681a3", "is_disabled": 0, "rental_uris": {"ios": "https://dc.lft.to/lastmile_qr_scan", "android": "https://dc.lft.to/lastmile_qr_scan"}, "is_reserved": 0}, {"lon": -77.03765366666667, "bike_id": "d0083e107ea351af87c43918b14d9807", "lat": 38.907730666666666, "fusion_lon": 0.0, "fusion_lat": 0.0, "type": "electric_scooter", "name": "d0083e107ea351af87c43918b14d9807", "is_disabled": 0, "rental_uris": {"ios": "https://dc.lft.to/lastmile_qr_scan", "android": "https://dc.lft.to/lastmile_qr_scan"}, "is_reserved": 0}, {"lon": -76.97809533333333, "bike_id": "b8d4d041e583a447ad59845551fe5be1", "lat": 38.906724, "fusion_lon": 0.0, "fusion_lat": 0.0, "type": "electric_scooter", "name": "b8d4d041e583a447ad59845551fe5be1", "is_disabled": 0, "rental_uris": {"ios": "https://dc.lft.to/lastmile_qr_scan", "android": "https://dc.lft.to/lastmile_qr_scan"}, "is_reserved": 0}, {"lon": -77.04341316666667, "bike_id": "e7b0a63596f9da85a6cec261ef78fc1f", "lat": 38.904358333333334, "fusion_lon": 0.0, "fusion_lat": 0.0, "type": "electric_scooter", "name": "e7b0a63596f9da85a6cec261ef78fc1f", "is_disabled": 0, "rental_uris": {"ios": "https://dc.lft.to/lastmile_qr_scan", "android": "https://dc.lft.to/lastmile_qr_scan"}, "is_reserved": 0}, {"lon": -77.02732166666667, "bike_id": "4503cbf979d664646c080e17e64227b9", "lat": 38.940856333333336, "fusion_lon": 0.0, "fusion_lat": 0.0, "type": "electric_scooter", "name": "4503cbf979d664646c080e17e64227b9", "is_disabled": 0, "rental_uris": {"ios": "https://dc.lft.to/lastmile_qr_scan", "android": "https://dc.lft.to/lastmile_qr_scan"}, "is_reserved": 0}, {"lon": -76.89546733333333, "bike_id": "6d4c9c2e6ebf300edd12e0fdf17111d8", "lat": 38.945550833333336, "fusion_lon": 0.0, "fusion_lat": 0.0, "type": "electric_bike", "name": "6d4c9c2e6ebf300edd12e0fdf17111d8", "is_disabled": 0, "rental_uris": {"ios": "https://dc.lft.to/lastmile_qr_scan", "android": "https://dc.lft.to/lastmile_qr_scan"}, "is_reserved": 0}, {"lon": -77.033323, "bike_id": "779161601131c66802dc2e097fc34e8c", "lat": 38.901237, "fusion_lon": 0.0, "fusion_lat": 0.0, "type": "electric_scooter", "name": "779161601131c66802dc2e097fc34e8c", "is_disabled": 0, "rental_uris": {"ios": "https://dc.lft.to/lastmile_qr_scan", "android": "https://dc.lft.to/lastmile_qr_scan"}, "is_reserved": 0}, {"lon": -77.04382966666667, "bike_id": "1718bb6464265c97419039381ec60fc2", "lat": 38.92065766666666, "fusion_lon": 0.0, "fusion_lat": 0.0, "type": "electric_scooter", "name": "1718bb6464265c97419039381ec60fc2", "is_disabled": 0, "rental_uris": {"ios": "https://dc.lft.to/lastmile_qr_scan", "android": "https://dc.lft.to/lastmile_qr_scan"}, "is_reserved": 0}, {"lon": -77.04011466666667, "bike_id": "7dd40c6a1997d29059698bf025ce6bb0", "lat": 38.9100615, "fusion_lon": 0.0, "fusion_lat": 0.0, "type": "electric_scooter", "name": "7dd40c6a1997d29059698bf025ce6bb0", "is_disabled": 0, "rental_uris": {"ios": "https://dc.lft.to/lastmile_qr_scan", "android": "https://dc.lft.to/lastmile_qr_scan"}, "is_reserved": 0}, {"lon": -77.02191983333333, "bike_id": "61fa721044ae7b5b1730d88b20d380a2", "lat": 38.91126883333333, "fusion_lon": 0.0, "fusion_lat": 0.0, "type": "electric_scooter", "name": "61fa721044ae7b5b1730d88b20d380a2", "is_disabled": 0, "rental_uris": {"ios": "https://dc.lft.to/lastmile_qr_scan", "android": "https://dc.lft.to/lastmile_qr_scan"}, "is_reserved": 0}, {"lon": -77.04480283333334, "bike_id": "ba2a7f1b6e5b38639c26b4d9a4a16540", "lat": 38.91600966666667, "fusion_lon": 0.0, "fusion_lat": 0.0, "type": "electric_scooter", "name": "ba2a7f1b6e5b38639c26b4d9a4a16540", "is_disabled": 0, "rental_uris": {"ios": "https://dc.lft.to/lastmile_qr_scan", "android": "https://dc.lft.to/lastmile_qr_scan"}, "is_reserved": 0}, {"lon": -77.033304, "bike_id": "da56417dc3a2ed6effc6e559fa5bea6a", "lat": 38.9012765, "fusion_lon": 0.0, "fusion_lat": 0.0, "type": "electric_scooter", "name": "da56417dc3a2ed6effc6e559fa5bea6a", "is_disabled": 0, "rental_uris": {"ios": "https://dc.lft.to/lastmile_qr_scan", "android": "https://dc.lft.to/lastmile_qr_scan"}, "is_reserved": 0}, {"lon": -77.00120516666667, "bike_id": "e857d6292da4c21af978e1c276624693", "lat": 38.916974833333335, "fusion_lon": 0.0, "fusion_lat": 0.0, "type": "electric_scooter", "name": "e857d6292da4c21af978e1c276624693", "is_disabled": 0, "rental_uris": {"ios": "https://dc.lft.to/lastmile_qr_scan", "android": "https://dc.lft.to/lastmile_qr_scan"}, "is_reserved": 0}, {"lon": -77.031838, "bike_id": "b9d87ddc961b819a1c0e119f45776fab", "lat": 38.887313166666665, "fusion_lon": 0.0, "fusion_lat": 0.0, "type": "electric_scooter", "name": "b9d87ddc961b819a1c0e119f45776fab", "is_disabled": 0, "rental_uris": {"ios": "https://dc.lft.to/lastmile_qr_scan", "android": "https://dc.lft.to/lastmile_qr_scan"}, "is_reserved": 0}, {"lon": -77.02698716666667, "bike_id": "8ea29a2126dbd81fd53c4709f8f40b0c", "lat": 38.92399016666667, "fusion_lon": 0.0, "fusion_lat": 0.0, "type": "electric_scooter", "name": "8ea29a2126dbd81fd53c4709f8f40b0c", "is_disabled": 0, "rental_uris": {"ios": "https://dc.lft.to/lastmile_qr_scan", "android": "https://dc.lft.to/lastmile_qr_scan"}, "is_reserved": 0}, {"lon": -76.9837865, "bike_id": "3574aee90893cf596b437efa405d2767", "lat": 38.89603316666667, "fusion_lon": 0.0, "fusion_lat": 0.0, "type": "electric_scooter", "name": "3574aee90893cf596b437efa405d2767", "is_disabled": 0, "rental_uris": {"ios": "https://dc.lft.to/lastmile_qr_scan", "android": "https://dc.lft.to/lastmile_qr_scan"}, "is_reserved": 0}, {"lon": -77.0411135, "bike_id": "82131dc7c6627470abbb04867fbc80b5", "lat": 38.927957666666664, "fusion_lon": 0.0, "fusion_lat": 0.0, "type": "electric_scooter", "name": "82131dc7c6627470abbb04867fbc80b5", "is_disabled": 0, "rental_uris": {"ios": "https://dc.lft.to/lastmile_qr_scan", "android": "https://dc.lft.to/lastmile_qr_scan"}, "is_reserved": 0}, {"lon": -77.03543483333333, "bike_id": "da3737c7c62978c76014f025e0804d6f", "lat": 38.925726166666664, "fusion_lon": 0.0, "fusion_lat": 0.0, "type": "electric_scooter", "name": "da3737c7c62978c76014f025e0804d6f", "is_disabled": 0, "rental_uris": {"ios": "https://dc.lft.to/lastmile_qr_scan", "android": "https://dc.lft.to/lastmile_qr_scan"}, "is_reserved": 0}, {"lon": -77.03568216666666, "bike_id": "49bcd790314e2f005c8f339af3a53da1", "lat": 38.918158, "fusion_lon": 0.0, "fusion_lat": 0.0, "type": "electric_scooter", "name": "49bcd790314e2f005c8f339af3a53da1", "is_disabled": 0, "rental_uris": {"ios": "https://dc.lft.to/lastmile_qr_scan", "android": "https://dc.lft.to/lastmile_qr_scan"}, "is_reserved": 0}, {"lon": -77.00931766666666, "bike_id": "5998ed620a090838fadf584544ccf07e", "lat": 38.88310083333333, "fusion_lon": 0.0, "fusion_lat": 0.0, "type": "electric_scooter", "name": "5998ed620a090838fadf584544ccf07e", "is_disabled": 0, "rental_uris": {"ios": "https://dc.lft.to/lastmile_qr_scan", "android": "https://dc.lft.to/lastmile_qr_scan"}, "is_reserved": 0}, {"lon": -77.01788816666667, "bike_id": "9699f6e26354adcbe54fe389962e68c8", "lat": 38.9048265, "fusion_lon": 0.0, "fusion_lat": 0.0, "type": "electric_scooter", "name": "9699f6e26354adcbe54fe389962e68c8", "is_disabled": 0, "rental_uris": {"ios": "https://dc.lft.to/lastmile_qr_scan", "android": "https://dc.lft.to/lastmile_qr_scan"}, "is_reserved": 0}, {"lon": -77.0095355, "bike_id": "5be430ed12448ef55b63493c35fbe12e", "lat": 38.92125883333333, "fusion_lon": 0.0, "fusion_lat": 0.0, "type": "electric_scooter", "name": "5be430ed12448ef55b63493c35fbe12e", "is_disabled": 0, "rental_uris": {"ios": "https://dc.lft.to/lastmile_qr_scan", "android": "https://dc.lft.to/lastmile_qr_scan"}, "is_reserved": 0}, {"lon": -77.0447115, "bike_id": "1402600e664d7973b23e89295d9110c8", "lat": 38.915336, "fusion_lon": 0.0, "fusion_lat": 0.0, "type": "electric_scooter", "name": "1402600e664d7973b23e89295d9110c8", "is_disabled": 0, "rental_uris": {"ios": "https://dc.lft.to/lastmile_qr_scan", "android": "https://dc.lft.to/lastmile_qr_scan"}, "is_reserved": 0}, {"lon": -77.0376775, "bike_id": "24705bb99e2745fe9a26ac582094ad37", "lat": 38.920049, "fusion_lon": 0.0, "fusion_lat": 0.0, "type": "electric_scooter", "name": "24705bb99e2745fe9a26ac582094ad37", "is_disabled": 0, "rental_uris": {"ios": "https://dc.lft.to/lastmile_qr_scan", "android": "https://dc.lft.to/lastmile_qr_scan"}, "is_reserved": 0}, {"lon": -77.046589, "bike_id": "9d72a9065ae36899dd86e571fb2dab28", "lat": 38.904361333333334, "fusion_lon": 0.0, "fusion_lat": 0.0, "type": "electric_scooter", "name": "9d72a9065ae36899dd86e571fb2dab28", "is_disabled": 0, "rental_uris": {"ios": "https://dc.lft.to/lastmile_qr_scan", "android": "https://dc.lft.to/lastmile_qr_scan"}, "is_reserved": 0}, {"lon": -77.00720433333333, "bike_id": "60fe5b60915c5fab8bbaf5c02d3c02e0", "lat": 38.833437333333336, "fusion_lon": 0.0, "fusion_lat": 0.0, "type": "electric_bike", "name": "60fe5b60915c5fab8bbaf5c02d3c02e0", "is_disabled": 0, "rental_uris": {"ios": "https://dc.lft.to/lastmile_qr_scan", "android": "https://dc.lft.to/lastmile_qr_scan"}, "is_reserved": 0}, {"lon": -77.02755983333333, "bike_id": "0c3cdc5fba449142ff346169e83758ac", "lat": 38.94179833333333, "fusion_lon": 0.0, "fusion_lat": 0.0, "type": "electric_scooter", "name": "0c3cdc5fba449142ff346169e83758ac", "is_disabled": 0, "rental_uris": {"ios": "https://dc.lft.to/lastmile_qr_scan", "android": "https://dc.lft.to/lastmile_qr_scan"}, "is_reserved": 0}, {"lon": -77.03471533333334, "bike_id": "138a0ff6be1916edbfd0c088ead31a84", "lat": 38.92155533333333, "fusion_lon": 0.0, "fusion_lat": 0.0, "type": "electric_scooter", "name": "138a0ff6be1916edbfd0c088ead31a84", "is_disabled": 0, "rental_uris": {"ios": "https://dc.lft.to/lastmile_qr_scan", "android": "https://dc.lft.to/lastmile_qr_scan"}, "is_reserved": 0}, {"lon": -76.97305133333333, "bike_id": "0b35d2af06ca13147641334249ad7c45", "lat": 38.88744783333333, "fusion_lon": 0.0, "fusion_lat": 0.0, "type": "electric_scooter", "name": "0b35d2af06ca13147641334249ad7c45", "is_disabled": 0, "rental_uris": {"ios": "https://dc.lft.to/lastmile_qr_scan", "android": "https://dc.lft.to/lastmile_qr_scan"}, "is_reserved": 0}, {"lon": -77.0272835, "bike_id": "3d6fb8996819a6f5d40f7168ea4075b8", "lat": 38.91565, "fusion_lon": 0.0, "fusion_lat": 0.0, "type": "electric_scooter", "name": "3d6fb8996819a6f5d40f7168ea4075b8", "is_disabled": 0, "rental_uris": {"ios": "https://dc.lft.to/lastmile_qr_scan", "android": "https://dc.lft.to/lastmile_qr_scan"}, "is_reserved": 0}, {"lon": -76.99696033333333, "bike_id": "3adc67337d16999bc8762ea690309918", "lat": 38.9083365, "fusion_lon": 0.0, "fusion_lat": 0.0, "type": "electric_scooter", "name": "3adc67337d16999bc8762ea690309918", "is_disabled": 0, "rental_uris": {"ios": "https://dc.lft.to/lastmile_qr_scan", "android": "https://dc.lft.to/lastmile_qr_scan"}, "is_reserved": 0}, {"lon": -77.03420666666666, "bike_id": "2ca085c47efc05d19113cec37e40cb67", "lat": 38.932476333333334, "fusion_lon": 0.0, "fusion_lat": 0.0, "type": "electric_scooter", "name": "2ca085c47efc05d19113cec37e40cb67", "is_disabled": 0, "rental_uris": {"ios": "https://dc.lft.to/lastmile_qr_scan", "android": "https://dc.lft.to/lastmile_qr_scan"}, "is_reserved": 0}, {"lon": -77.030562, "bike_id": "cd8aecf24a2925eeb9cf577ca8425fde", "lat": 38.88399066666667, "fusion_lon": 0.0, "fusion_lat": 0.0, "type": "electric_scooter", "name": "cd8aecf24a2925eeb9cf577ca8425fde", "is_disabled": 0, "rental_uris": {"ios": "https://dc.lft.to/lastmile_qr_scan", "android": "https://dc.lft.to/lastmile_qr_scan"}, "is_reserved": 0}, {"lon": -77.03948316666667, "bike_id": "53d5807f0ce7931729c2058995073024", "lat": 38.90118483333333, "fusion_lon": 0.0, "fusion_lat": 0.0, "type": "electric_scooter", "name": "53d5807f0ce7931729c2058995073024", "is_disabled": 0, "rental_uris": {"ios": "https://dc.lft.to/lastmile_qr_scan", "android": "https://dc.lft.to/lastmile_qr_scan"}, "is_reserved": 0}, {"lon": -77.0231665, "bike_id": "356e2a51a45c8c4e21368cb1c902e02f", "lat": 38.91845333333333, "fusion_lon": 0.0, "fusion_lat": 0.0, "type": "electric_scooter", "name": "356e2a51a45c8c4e21368cb1c902e02f", "is_disabled": 0, "rental_uris": {"ios": "https://dc.lft.to/lastmile_qr_scan", "android": "https://dc.lft.to/lastmile_qr_scan"}, "is_reserved": 0}, {"lon": -76.97499783333333, "bike_id": "f7314cbd3d09ab2185f998f04ae3583f", "lat": 38.91923533333333, "fusion_lon": 0.0, "fusion_lat": 0.0, "type": "electric_scooter", "name": "f7314cbd3d09ab2185f998f04ae3583f", "is_disabled": 0, "rental_uris": {"ios": "https://dc.lft.to/lastmile_qr_scan", "android": "https://dc.lft.to/lastmile_qr_scan"}, "is_reserved": 0}, {"lon": -77.0456925, "bike_id": "8e7b0a00031fcd0126270817b749d307", "lat": 38.921236666666665, "fusion_lon": 0.0, "fusion_lat": 0.0, "type": "electric_scooter", "name": "8e7b0a00031fcd0126270817b749d307", "is_disabled": 0, "rental_uris": {"ios": "https://dc.lft.to/lastmile_qr_scan", "android": "https://dc.lft.to/lastmile_qr_scan"}, "is_reserved": 0}, {"lon": -76.99358483333333, "bike_id": "18a90e8793378da530c5b69e5a8603f1", "lat": 38.845007333333335, "fusion_lon": 0.0, "fusion_lat": 0.0, "type": "electric_bike", "name": "18a90e8793378da530c5b69e5a8603f1", "is_disabled": 0, "rental_uris": {"ios": "https://dc.lft.to/lastmile_qr_scan", "android": "https://dc.lft.to/lastmile_qr_scan"}, "is_reserved": 0}, {"lon": -77.0434455, "bike_id": "f842d24c2e37aaea54b17643a6db8c2e", "lat": 38.92352283333334, "fusion_lon": 0.0, "fusion_lat": 0.0, "type": "electric_scooter", "name": "f842d24c2e37aaea54b17643a6db8c2e", "is_disabled": 0, "rental_uris": {"ios": "https://dc.lft.to/lastmile_qr_scan", "android": "https://dc.lft.to/lastmile_qr_scan"}, "is_reserved": 0}, {"lon": -77.06301533333334, "bike_id": "b215dfdf55092d5cb449162278843f2d", "lat": 38.90392533333333, "fusion_lon": 0.0, "fusion_lat": 0.0, "type": "electric_scooter", "name": "b215dfdf55092d5cb449162278843f2d", "is_disabled": 0, "rental_uris": {"ios": "https://dc.lft.to/lastmile_qr_scan", "android": "https://dc.lft.to/lastmile_qr_scan"}, "is_reserved": 0}, {"lon": -77.022184, "bike_id": "726668c92377adaf152adf9fb280e93f", "lat": 38.899787, "fusion_lon": 0.0, "fusion_lat": 0.0, "type": "electric_scooter", "name": "726668c92377adaf152adf9fb280e93f", "is_disabled": 0, "rental_uris": {"ios": "https://dc.lft.to/lastmile_qr_scan", "android": "https://dc.lft.to/lastmile_qr_scan"}, "is_reserved": 0}, {"lon": -76.944024, "bike_id": "655f025d55f5f671e5c6ef850a190448", "lat": 38.88137583333334, "fusion_lon": 0.0, "fusion_lat": 0.0, "type": "electric_scooter", "name": "655f025d55f5f671e5c6ef850a190448", "is_disabled": 0, "rental_uris": {"ios": "https://dc.lft.to/lastmile_qr_scan", "android": "https://dc.lft.to/lastmile_qr_scan"}, "is_reserved": 0}, {"lon": -77.03570316666666, "bike_id": "df32cba7eef08533218e69502fb01831", "lat": 38.918108, "fusion_lon": 0.0, "fusion_lat": 0.0, "type": "electric_scooter", "name": "df32cba7eef08533218e69502fb01831", "is_disabled": 0, "rental_uris": {"ios": "https://dc.lft.to/lastmile_qr_scan", "android": "https://dc.lft.to/lastmile_qr_scan"}, "is_reserved": 0}, {"lon": -77.04417883333333, "bike_id": "d9f02a2a1d0386ed310f4296647661fe", "lat": 38.911302, "fusion_lon": 0.0, "fusion_lat": 0.0, "type": "electric_scooter", "name": "d9f02a2a1d0386ed310f4296647661fe", "is_disabled": 0, "rental_uris": {"ios": "https://dc.lft.to/lastmile_qr_scan", "android": "https://dc.lft.to/lastmile_qr_scan"}, "is_reserved": 0}, {"lon": -77.03067416666667, "bike_id": "d34f3c2509a3d6a2db6899a60428b610", "lat": 38.90752366666667, "fusion_lon": 0.0, "fusion_lat": 0.0, "type": "electric_scooter", "name": "d34f3c2509a3d6a2db6899a60428b610", "is_disabled": 0, "rental_uris": {"ios": "https://dc.lft.to/lastmile_qr_scan", "android": "https://dc.lft.to/lastmile_qr_scan"}, "is_reserved": 0}, {"lon": -77.04319916666667, "bike_id": "5f43c3ec3ed1770f78870ca074164788", "lat": 38.91876533333333, "fusion_lon": 0.0, "fusion_lat": 0.0, "type": "electric_scooter", "name": "5f43c3ec3ed1770f78870ca074164788", "is_disabled": 0, "rental_uris": {"ios": "https://dc.lft.to/lastmile_qr_scan", "android": "https://dc.lft.to/lastmile_qr_scan"}, "is_reserved": 0}, {"lon": -76.96580516666667, "bike_id": "2ccb6cce9e604f006922075cf808cce0", "lat": 38.87135716666667, "fusion_lon": 0.0, "fusion_lat": 0.0, "type": "electric_scooter", "name": "2ccb6cce9e604f006922075cf808cce0", "is_disabled": 0, "rental_uris": {"ios": "https://dc.lft.to/lastmile_qr_scan", "android": "https://dc.lft.to/lastmile_qr_scan"}, "is_reserved": 0}, {"lon": -77.05770033333333, "bike_id": "6e434ff053739e6165f5dec32b982349", "lat": 38.936211166666666, "fusion_lon": 0.0, "fusion_lat": 0.0, "type": "electric_scooter", "name": "6e434ff053739e6165f5dec32b982349", "is_disabled": 0, "rental_uris": {"ios": "https://dc.lft.to/lastmile_qr_scan", "android": "https://dc.lft.to/lastmile_qr_scan"}, "is_reserved": 0}, {"lon": -77.00290733333334, "bike_id": "cc90f2f3c9df212455b0e6fcec0199fd", "lat": 38.956984166666665, "fusion_lon": 0.0, "fusion_lat": 0.0, "type": "electric_bike", "name": "cc90f2f3c9df212455b0e6fcec0199fd", "is_disabled": 0, "rental_uris": {"ios": "https://dc.lft.to/lastmile_qr_scan", "android": "https://dc.lft.to/lastmile_qr_scan"}, "is_reserved": 0}, {"lon": -77.06427533333333, "bike_id": "fcf27eb5764b86f86aa37fe103a57564", "lat": 38.908879, "fusion_lon": 0.0, "fusion_lat": 0.0, "type": "electric_scooter", "name": "fcf27eb5764b86f86aa37fe103a57564", "is_disabled": 0, "rental_uris": {"ios": "https://dc.lft.to/lastmile_qr_scan", "android": "https://dc.lft.to/lastmile_qr_scan"}, "is_reserved": 0}, {"lon": -77.124905, "bike_id": "d328c9caa4cfbbd994216796929a317d", "lat": 38.827895166666664, "fusion_lon": 0.0, "fusion_lat": 0.0, "type": "electric_bike", "name": "d328c9caa4cfbbd994216796929a317d", "is_disabled": 0, "rental_uris": {"ios": "https://dc.lft.to/lastmile_qr_scan", "android": "https://dc.lft.to/lastmile_qr_scan"}, "is_reserved": 0}, {"lon": -77.03406883333334, "bike_id": "38dad57722111484aebcedfddb7f3826", "lat": 38.96030016666667, "fusion_lon": 0.0, "fusion_lat": 0.0, "type": "electric_bike", "name": "38dad57722111484aebcedfddb7f3826", "is_disabled": 0, "rental_uris": {"ios": "https://dc.lft.to/lastmile_qr_scan", "android": "https://dc.lft.to/lastmile_qr_scan"}, "is_reserved": 0}, {"lon": -76.99515, "bike_id": "74608e11e29ff530144ae821beccb65a", "lat": 38.87770033333334, "fusion_lon": 0.0, "fusion_lat": 0.0, "type": "electric_scooter", "name": "74608e11e29ff530144ae821beccb65a", "is_disabled": 0, "rental_uris": {"ios": "https://dc.lft.to/lastmile_qr_scan", "android": "https://dc.lft.to/lastmile_qr_scan"}, "is_reserved": 0},