{"data": {"bikes": [{"bike_id": "b7552ffdae64fa9d2fe83b09124ff3c9", "is_reserved": 0, "fusion_lon": 0.0, "lat": 38.892245, "is_disabled": 0, "name": "b7552ffdae64fa9d2fe83b09124ff3c9", "fusion_lat": 0.0, "rental_uris": {"ios": "https://dc.lft.to/lastmile_qr_scan", "android": "https://dc.lft.to/lastmile_qr_scan"}, "lon": -77.039821, "type": "electric_scooter"}, {"bike_id": "ee74a2dfbc8a8e8d2823170bb6a80dac", "is_reserved": 0, "fusion_lon": 0.0, "lat": 38.90544233333333, "is_disabled": 0, "name": "ee74a2dfbc8a8e8d2823170bb6a80dac", "fusion_lat": 0.0, "rental_uris": {"ios": "https://dc.lft.to/lastmile_qr_scan", "android": "https://dc.lft.to/lastmile_qr_scan"}, "lon": -77.038303, "type": "electric_scooter"}, {"bike_id": "cf452fb7b5817b2949522cf99dcebbe8", "is_reserved": 0, "fusion_lon": 0.0, "lat": 38.891973666666665, "is_disabled": 0, "name": "cf452fb7b5817b2949522cf99dcebbe8", "fusion_lat": 0.0, "rental_uris": {"ios": "https://dc.lft.to/lastmile_qr_scan", "android": "https://dc.lft.to/lastmile_qr_scan"}, "lon": -77.02379866666666, "type": "electric_scooter"}, {"bike_id": "4c7bf13ac86dca577770fd8f25765caa", "is_reserved": 0, "fusion_lon": 0.0, "lat": 38.918577666666664, "is_disabled": 0, "name": "4c7bf13ac86dca577770fd8f25765caa", "fusion_lat": 0.0, "rental_uris": {"ios": "https://dc.lft.to/lastmile_qr_scan", "android": "https://dc.lft.to/lastmile_qr_scan"}, "lon": -77.04372916666667, "type": "electric_scooter"}, {"bike_id": "ee1bc3a2367929a04a9d7b1a2464d73d", "is_reserved": 0, "fusion_lon": 0.0, "lat": 38.90582066666666, "is_disabled": 0, "name": "ee1bc3a2367929a04a9d7b1a2464d73d", "fusion_lat": 0.0, "rental_uris": {"ios": "https://dc.lft.to/lastmile_qr_scan", "android": "https://dc.lft.to/lastmile_qr_scan"}, "lon": -77.0221095, "type": "electric_scooter"}, {"bike_id": "5102609273891fb3a92b744021282f09", "is_reserved": 0, "fusion_lon": 0.0, "lat": 38.93582966666666, "is_disabled": 0, "name": "5102609273891fb3a92b744021282f09", "fusion_lat": 0.0, "rental_uris": {"ios": "https://dc.lft.to/lastmile_qr_scan", "android": "https://dc.lft.to/lastmile_qr_scan"}, "lon": -77.05606216666666, "type": "electric_scooter"}, {"bike_id": "166a428273e4a8258c115db3c9c590f5", "is_reserved": 0, "fusion_lon": 0.0, "lat": 38.90155033333333, "is_disabled": 0, "name": "166a428273e4a8258c115db3c9c590f5", "fusion_lat": 0.0, "rental_uris": {"ios": "https://dc.lft.to/lastmile_qr_scan", "android": "https://dc.lft.to/lastmile_qr_scan"}, "lon": -76.93061683333333, "type": "electric_scooter"}, {"bike_id": "ea2a998c4fda5ef99b8f82643eef2dc4", "is_reserved": 0, "fusion_lon": 0.0, "lat": 38.89812466666667, "is_disabled": 0, "name": "ea2a998c4fda5ef99b8f82643eef2dc4", "fusion_lat": 0.0, "rental_uris": {"ios": "https://dc.lft.to/lastmile_qr_scan", "android": "https://dc.lft.to/lastmile_qr_scan"}, "lon": -77.043283, "type": "electric_scooter"}, {"bike_id": "8fe6bc3625fc83551fa1cb1c23561eea", "is_reserved": 0, "fusion_lon": 0.0, "lat": 38.940717666666664, "is_disabled": 0, "name": "8fe6bc3625fc83551fa1cb1c23561eea", "fusion_lat": 0.0, "rental_uris": {"ios": "https://dc.lft.to/lastmile_qr_scan", "android": "https://dc.lft.to/lastmile_qr_scan"}, "lon": -76.99463683333333, "type": "electric_scooter"}, {"bike_id": "0b701bd3d15762f607c28427018aacea", "is_reserved": 0, "fusion_lon": 0.0, "lat": 38.891947333333334, "is_disabled": 0, "name": "0b701bd3d15762f607c28427018aacea", "fusion_lat": 0.0, "rental_uris": {"ios": "https://dc.lft.to/lastmile_qr_scan", "android": "https://dc.lft.to/lastmile_qr_scan"}, "lon": -77.02218583333334, "type": "electric_scooter"}, {"bike_id": "665f7bc8ee7c5ea24ca999a67fc3e620", "is_reserved": 0, "fusion_lon": 0.0, "lat": 38.922271333333335, "is_disabled": 0, "name": "665f7bc8ee7c5ea24ca999a67fc3e620", "fusion_lat": 0.0, "rental_uris": {"ios": "https://dc.lft.to/lastmile_qr_scan", "android": "https://dc.lft.to/lastmile_qr_scan"}, "lon": -77.0333545, "type": "electric_scooter"}, {"bike_id": "bd6bde10f04b91e7f7dce4b73cc4ace7", "is_reserved": 0, "fusion_lon": 0.0, "lat": 38.911535666666666, "is_disabled": 0, "name": "bd6bde10f04b91e7f7dce4b73cc4ace7", "fusion_lat": 0.0, "rental_uris": {"ios": "https://dc.lft.to/lastmile_qr_scan", "android": "https://dc.lft.to/lastmile_qr_scan"}, "lon": -77.04179283333333, "type": "electric_scooter"}, {"bike_id": "ab709af01b460582ad94638993a1e84f", "is_reserved": 0, "fusion_lon": 0.0, "lat": 38.915643333333335, "is_disabled": 0, "name": "ab709af01b460582ad94638993a1e84f", "fusion_lat": 0.0, "rental_uris": {"ios": "https://dc.lft.to/lastmile_qr_scan", "android": "https://dc.lft.to/lastmile_qr_scan"}, "lon": -77.03852216666667, "type": "electric_scooter"}, {"bike_id": "a2cdc39bba75373894def46d997990e0", "is_reserved": 0, "fusion_lon": 0.0, "lat": 38.9268845, "is_disabled": 0, "name": "a2cdc39bba75373894def46d997990e0", "fusion_lat": 0.0, "rental_uris": {"ios": "https://dc.lft.to/lastmile_qr_scan", "android": "https://dc.lft.to/lastmile_qr_scan"}, "lon": -77.09569933333333, "type": "electric_scooter"}, {"bike_id": "d61ebb0c4c27273feceb5ac6b790a16e", "is_reserved": 0, "fusion_lon": 0.0, "lat": 38.9159795, "is_disabled": 0, "name": "d61ebb0c4c27273feceb5ac6b790a16e", "fusion_lat": 0.0, "rental_uris": {"ios": "https://dc.lft.to/lastmile_qr_scan", "android": "https://dc.lft.to/lastmile_qr_scan"}, "lon": -77.04468483333333, "type": "electric_scooter"}, {"bike_id": "7dc110216d45671751fbe266e4c974f6", "is_reserved": 0, "fusion_lon": 0.0, "lat": 38.909603, "is_disabled": 0, "name": "7dc110216d45671751fbe266e4c974f6", "fusion_lat": 0.0, "rental_uris": {"ios": "https://dc.lft.to/lastmile_qr_scan", "android": "https://dc.lft.to/lastmile_qr_scan"}, "lon": -77.03165466666667, "type": "electric_scooter"}, {"bike_id": "33dd5936c88a3a951e2f7eb62f9a1e79", "is_reserved": 0, "fusion_lon": 0.0, "lat": 38.88963583333334, "is_disabled": 0, "name": "33dd5936c88a3a951e2f7eb62f9a1e79", "fusion_lat": 0.0, "rental_uris": {"ios": "https://dc.lft.to/lastmile_qr_scan", "android": "https://dc.lft.to/lastmile_qr_scan"}, "lon": -76.98037883333333, "type": "electric_scooter"}, {"bike_id": "fb8a702f81a80fe32d0b052873bf9518", "is_reserved": 0, "fusion_lon": 0.0, "lat": 38.89832033333333, "is_disabled": 0, "name": "fb8a702f81a80fe32d0b052873bf9518", "fusion_lat": 0.0, "rental_uris": {"ios": "https://dc.lft.to/lastmile_qr_scan", "android": "https://dc.lft.to/lastmile_qr_scan"}, "lon": -76.98029316666667, "type": "electric_scooter"}, {"bike_id": "c53c4eba6961b9708815d671cd801654", "is_reserved": 0, "fusion_lon": 0.0, "lat": 38.89546383333333, "is_disabled": 0, "name": "c53c4eba6961b9708815d671cd801654", "fusion_lat": 0.0, "rental_uris": {"ios": "https://dc.lft.to/lastmile_qr_scan", "android": "https://dc.lft.to/lastmile_qr_scan"}, "lon": -77.02560783333334, "type": "electric_scooter"}, {"bike_id": "0d3da602ed17ff9a39bd7f1596e2bc27", "is_reserved": 0, "fusion_lon": 0.0, "lat": 38.897256166666665, "is_disabled": 0, "name": "0d3da602ed17ff9a39bd7f1596e2bc27", "fusion_lat": 0.0, "rental_uris": {"ios": "https://dc.lft.to/lastmile_qr_scan", "android": "https://dc.lft.to/lastmile_qr_scan"}, "lon": -77.027146, "type": "electric_scooter"}, {"bike_id": "b978c3e37a8cae6b86d0892eafbb0704", "is_reserved": 0, "fusion_lon": 0.0, "lat": 38.908342833333336, "is_disabled": 0, "name": "b978c3e37a8cae6b86d0892eafbb0704", "fusion_lat": 0.0, "rental_uris": {"ios": "https://dc.lft.to/lastmile_qr_scan", "android": "https://dc.lft.to/lastmile_qr_scan"}, "lon": -76.99701133333333, "type": "electric_scooter"}, {"bike_id": "03eb7161db46a4c543dbd5c8024e8127", "is_reserved": 0, "fusion_lon": 0.0, "lat": 38.899781833333336, "is_disabled": 0, "name": "03eb7161db46a4c543dbd5c8024e8127", "fusion_lat": 0.0, "rental_uris": {"ios": "https://dc.lft.to/lastmile_qr_scan", "android": "https://dc.lft.to/lastmile_qr_scan"}, "lon": -77.00924533333334, "type": "electric_scooter"}, {"bike_id": "caf5b39da6f09d4f65960f8619bf70c7", "is_reserved": 0, "fusion_lon": 0.0, "lat": 38.93345516666667, "is_disabled": 0, "name": "caf5b39da6f09d4f65960f8619bf70c7", "fusion_lat": 0.0, "rental_uris": {"ios": "https://dc.lft.to/lastmile_qr_scan", "android": "https://dc.lft.to/lastmile_qr_scan"}, "lon": -77.05709816666666, "type": "electric_scooter"}, {"bike_id": "702414cb961799fbcf97480e52f4baf6", "is_reserved": 0, "fusion_lon": 0.0, "lat": 38.94408116666666, "is_disabled": 0, "name": "702414cb961799fbcf97480e52f4baf6", "fusion_lat": 0.0, "rental_uris": {"ios": "https://dc.lft.to/lastmile_qr_scan", "android": "https://dc.lft.to/lastmile_qr_scan"}, "lon": -77.0625785, "type": "electric_scooter"}, {"bike_id": "a644888fb63312aa26f863a14673e4bd", "is_reserved": 0, "fusion_lon": 0.0, "lat": 38.8919815, "is_disabled": 0, "name": "a644888fb63312aa26f863a14673e4bd", "fusion_lat": 0.0, "rental_uris": {"ios": "https://dc.lft.to/lastmile_qr_scan", "android": "https://dc.lft.to/lastmile_qr_scan"}, "lon": -77.01551216666667, "type": "electric_scooter"}, {"bike_id": "9530db6a384420c15a6accb126b02dca", "is_reserved": 0, "fusion_lon": 0.0, "lat": 39.03044116666667, "is_disabled": 0, "name": "9530db6a384420c15a6accb126b02dca", "fusion_lat": 0.0, "rental_uris": {"ios": "https://dc.lft.to/lastmile_qr_scan", "android": "https://dc.lft.to/lastmile_qr_scan"}, "lon": -77.094832, "type": "electric_bike"}, {"bike_id": "020cf6fc161dfb9266dae4a39e8294ad", "is_reserved": 0, "fusion_lon": 0.0, "lat": 38.92028633333334, "is_disabled": 0, "name": "020cf6fc161dfb9266dae4a39e8294ad", "fusion_lat": 0.0, "rental_uris": {"ios": "https://dc.lft.to/lastmile_qr_scan", "android": "https://dc.lft.to/lastmile_qr_scan"}, "lon": -76.995638, "type": "electric_scooter"}, {"bike_id": "5999da0d2ecf39d4c6d045e8b1b9290e", "is_reserved": 0, "fusion_lon": 0.0, "lat": 38.9021875, "is_disabled": 0, "name": "5999da0d2ecf39d4c6d045e8b1b9290e", "fusion_lat": 0.0, "rental_uris": {"ios": "https://dc.lft.to/lastmile_qr_scan", "android": "https://dc.lft.to/lastmile_qr_scan"}, "lon": -77.0347965, "type": "electric_scooter"}, {"bike_id": "2370df6c44a58ff81b26c9f381832274", "is_reserved": 0, "fusion_lon": 0.0, "lat": 38.88706783333333, "is_disabled": 0, "name": "2370df6c44a58ff81b26c9f381832274", "fusion_lat": 0.0, "rental_uris": {"ios": "https://dc.lft.to/lastmile_qr_scan", "android": "https://dc.lft.to/lastmile_qr_scan"}, "lon": -77.00149866666666, "type": "electric_scooter"}, {"bike_id": "7eb755bd6ea9c92db0745395bde70dab", "is_reserved": 0, "fusion_lon": 0.0, "lat": 38.9186855, "is_disabled": 0, "name": "7eb755bd6ea9c92db0745395bde70dab", "fusion_lat": 0.0, "rental_uris": {"ios": "https://dc.lft.to/lastmile_qr_scan", "android": "https://dc.lft.to/lastmile_qr_scan"}, "lon": -77.04459766666666, "type": "electric_scooter"}, {"bike_id": "ba021012bfaa3b6024fd7dd6dc763198", "is_reserved": 0, "fusion_lon": 0.0, "lat": 38.90518, "is_disabled": 0, "name": "ba021012bfaa3b6024fd7dd6dc763198", "fusion_lat": 0.0, "rental_uris": {"ios": "https://dc.lft.to/lastmile_qr_scan", "android": "https://dc.lft.to/lastmile_qr_scan"}, "lon": -77.06534466666666, "type": "electric_scooter"}, {"bike_id": "9668c81a52540010a84017913e06acd8", "is_reserved": 0, "fusion_lon": 0.0, "lat": 38.89196466666667, "is_disabled": 0, "name": "9668c81a52540010a84017913e06acd8", "fusion_lat": 0.0, "rental_uris": {"ios": "https://dc.lft.to/lastmile_qr_scan", "android": "https://dc.lft.to/lastmile_qr_scan"}, "lon": -77.02837183333334, "type": "electric_scooter"}, {"bike_id": "b862e547cf74000d854861f5ed3cefc6", "is_reserved": 0, "fusion_lon": 0.0, "lat": 38.95645016666667, "is_disabled": 0, "name": "b862e547cf74000d854861f5ed3cefc6", "fusion_lat": 0.0, "rental_uris": {"ios": "https://dc.lft.to/lastmile_qr_scan", "android": "https://dc.lft.to/lastmile_qr_scan"}, "lon": -77.03283766666667, "type": "electric_scooter"}, {"bike_id": "b82ded055e5b655dde60cae8719ab042", "is_reserved": 0, "fusion_lon": 0.0, "lat": 39.00136366666667, "is_disabled": 0, "name": "b82ded055e5b655dde60cae8719ab042", "fusion_lat": 0.0, "rental_uris": {"ios": "https://dc.lft.to/lastmile_qr_scan", "android": "https://dc.lft.to/lastmile_qr_scan"}, "lon": -77.05688816666667, "type": "electric_bike"}, {"bike_id": "a36b06ea9d1a1ade9f6c542c9ddbea3c", "is_reserved": 0, "fusion_lon": 0.0, "lat": 38.82781133333334, "is_disabled": 0, "name": "a36b06ea9d1a1ade9f6c542c9ddbea3c", "fusion_lat": 0.0, "rental_uris": {"ios": "https://dc.lft.to/lastmile_qr_scan", "android": "https://dc.lft.to/lastmile_qr_scan"}, "lon": -77.00914816666666, "type": "electric_bike"}, {"bike_id": "607b6dc38886bdcadcc3d653c0dd8bef", "is_reserved": 0, "fusion_lon": 0.0, "lat": 38.900415333333335, "is_disabled": 0, "name": "607b6dc38886bdcadcc3d653c0dd8bef", "fusion_lat": 0.0, "rental_uris": {"ios": "https://dc.lft.to/lastmile_qr_scan", "android": "https://dc.lft.to/lastmile_qr_scan"}, "lon": -77.0075805, "type": "electric_scooter"}, {"bike_id": "27ba5b089c96ebf8e6d6c15ff8889fb5", "is_reserved": 0, "fusion_lon": 0.0, "lat": 38.89206266666667, "is_disabled": 0, "name": "27ba5b089c96ebf8e6d6c15ff8889fb5", "fusion_lat": 0.0, "rental_uris": {"ios": "https://dc.lft.to/lastmile_qr_scan", "android": "https://dc.lft.to/lastmile_qr_scan"}, "lon": -77.03161633333333, "type": "electric_scooter"}, {"bike_id": "51453a5fd62c9a3ffb69b4ceb1882686", "is_reserved": 0, "fusion_lon": 0.0, "lat": 39.00376833333333, "is_disabled": 0, "name": "51453a5fd62c9a3ffb69b4ceb1882686", "fusion_lat": 0.0, "rental_uris": {"ios": "https://dc.lft.to/lastmile_qr_scan", "android": "https://dc.lft.to/lastmile_qr_scan"}, "lon": -77.012943, "type": "electric_bike"}, {"bike_id": "72579ae71785f392f520ae6d6d94141d", "is_reserved": 0, "fusion_lon": 0.0, "lat": 38.8950225, "is_disabled": 0, "name": "72579ae71785f392f520ae6d6d94141d", "fusion_lat": 0.0, "rental_uris": {"ios": "https://dc.lft.to/lastmile_qr_scan", "android": "https://dc.lft.to/lastmile_qr_scan"}, "lon": -77.0219055, "type": "electric_scooter"}, {"bike_id": "32598808df6519f52d3b3612af9e068c", "is_reserved": 0, "fusion_lon": 0.0, "lat": 38.9842995, "is_disabled": 0, "name": "32598808df6519f52d3b3612af9e068c", "fusion_lat": 0.0, "rental_uris": {"ios": "https://dc.lft.to/lastmile_qr_scan", "android": "https://dc.lft.to/lastmile_qr_scan"}, "lon": -77.02674166666667, "type": "electric_scooter"}, {"bike_id": "543df59970215337cdf5074ddd43d189", "is_reserved": 0, "fusion_lon": 0.0, "lat": 38.9178455, "is_disabled": 0, "name": "543df59970215337cdf5074ddd43d189", "fusion_lat": 0.0, "rental_uris": {"ios": "https://dc.lft.to/lastmile_qr_scan", "android": "https://dc.lft.to/lastmile_qr_scan"}, "lon": -77.0270265, "type": "electric_scooter"}, {"bike_id": "3faa5ec684a85c9290e0d1a5529e68ee", "is_reserved": 0, "fusion_lon": 0.0, "lat": 38.90130516666667, "is_disabled": 0, "name": "3faa5ec684a85c9290e0d1a5529e68ee", "fusion_lat": 0.0, "rental_uris": {"ios": "https://dc.lft.to/lastmile_qr_scan", "android": "https://dc.lft.to/lastmile_qr_scan"}, "lon": -77.04791433333334, "type": "electric_scooter"}, {"bike_id": "05095abc66d1416f417ed11e3b40600d", "is_reserved": 0, "fusion_lon": 0.0, "lat": 38.884921166666665, "is_disabled": 0, "name": "05095abc66d1416f417ed11e3b40600d", "fusion_lat": 0.0, "rental_uris": {"ios": "https://dc.lft.to/lastmile_qr_scan", "android": "https://dc.lft.to/lastmile_qr_scan"}, "lon": -77.00728833333334, "type": "electric_scooter"}, {"bike_id": "1f63729f89f2992c3ab389af21167936", "is_reserved": 0, "fusion_lon": 0.0, "lat": 38.917244333333336, "is_disabled": 0, "name": "1f63729f89f2992c3ab389af21167936", "fusion_lat": 0.0, "rental_uris": {"ios": "https://dc.lft.to/lastmile_qr_scan", "android": "https://dc.lft.to/lastmile_qr_scan"}, "lon": -77.00796066666666, "type": "electric_scooter"}, {"bike_id": "d173cb3ede26c913c9091c161cdb23b8", "is_reserved": 0, "fusion_lon": 0.0, "lat": 38.9237215, "is_disabled": 0, "name": "d173cb3ede26c913c9091c161cdb23b8", "fusion_lat": 0.0, "rental_uris": {"ios": "https://dc.lft.to/lastmile_qr_scan", "android": "https://dc.lft.to/lastmile_qr_scan"}, "lon": -77.051771, "type": "electric_scooter"}, {"bike_id": "586ea6b87c2761a5a8925a387376dd4c", "is_reserved": 0, "fusion_lon": 0.0, "lat": 38.89998516666667, "is_disabled": 0, "name": "586ea6b87c2761a5a8925a387376dd4c", "fusion_lat": 0.0, "rental_uris": {"ios": "https://dc.lft.to/lastmile_qr_scan", "android": "https://dc.lft.to/lastmile_qr_scan"}, "lon": -77.04375883333333, "type": "electric_scooter"}, {"bike_id": "81ff4ff48934d766a093d1b54ba8d735", "is_reserved": 0, "fusion_lon": 0.0, "lat": 38.9027805, "is_disabled": 0, "name": "81ff4ff48934d766a093d1b54ba8d735", "fusion_lat": 0.0, "rental_uris": {"ios": "https://dc.lft.to/lastmile_qr_scan", "android": "https://dc.lft.to/lastmile_qr_scan"}, "lon": -77.0385855, "type": "electric_scooter"}, {"bike_id": "d98c568c653122b3431f4077685cfc54", "is_reserved": 0, "fusion_lon": 0.0, "lat": 38.8786785, "is_disabled": 0, "name": "d98c568c653122b3431f4077685cfc54", "fusion_lat": 0.0, "rental_uris": {"ios": "https://dc.lft.to/lastmile_qr_scan", "android": "https://dc.lft.to/lastmile_qr_scan"}, "lon": -76.98983366666667, "type": "electric_scooter"}, {"bike_id": "1863c2c273898bde892c71248221f169", "is_reserved": 0, "fusion_lon": 0.0, "lat": 38.877349333333335, "is_disabled": 0, "name": "1863c2c273898bde892c71248221f169", "fusion_lat": 0.0, "rental_uris": {"ios": "https://dc.lft.to/lastmile_qr_scan", "android": "https://dc.lft.to/lastmile_qr_scan"}, "lon": -77.11849416666666, "type": "electric_bike"}, {"bike_id": "469107cb0c539fcbe79a4842952309ae", "is_reserved": 0, "fusion_lon": 0.0, "lat": 38.928778, "is_disabled": 0, "name": "469107cb0c539fcbe79a4842952309ae", "fusion_lat": 0.0, "rental_uris": {"ios": "https://dc.lft.to/lastmile_qr_scan", "android": "https://dc.lft.to/lastmile_qr_scan"}, "lon": -77.03303616666666, "type": "electric_scooter"}, {"bike_id": "a7fd4351e58bd6b8e353f8a9ff3fea1f", "is_reserved": 0, "fusion_lon": 0.0, "lat": 38.90607966666666, "is_disabled": 0, "name": "a7fd4351e58bd6b8e353f8a9ff3fea1f", "fusion_lat": 0.0, "rental_uris": {"ios": "https://dc.lft.to/lastmile_qr_scan", "android": "https://dc.lft.to/lastmile_qr_scan"}, "lon": -77.041219, "type": "electric_scooter"}, {"bike_id": "cc0917cf800b417db6c8109d48dfc84c", "is_reserved": 0, "fusion_lon": 0.0, "lat": 38.902776, "is_disabled": 0, "name": "cc0917cf800b417db6c8109d48dfc84c", "fusion_lat": 0.0, "rental_uris": {"ios": "https://dc.lft.to/lastmile_qr_scan", "android": "https://dc.lft.to/lastmile_qr_scan"}, "lon": -77.03463066666667, "type": "electric_scooter"}, {"bike_id": "76c1827989f5a35ede2c57b9c8e03205", "is_reserved": 0, "fusion_lon": 0.0, "lat": 38.93270483333333, "is_disabled": 0, "name": "76c1827989f5a35ede2c57b9c8e03205", "fusion_lat": 0.0, "rental_uris": {"ios": "https://dc.lft.to/lastmile_qr_scan", "android": "https://dc.lft.to/lastmile_qr_scan"}, "lon": -77.03621383333333, "type": "electric_scooter"}, {"bike_id": "c050e6ee6a2816dee16e843528d50715", "is_reserved": 0, "fusion_lon": 0.0, "lat": 38.912545333333334, "is_disabled": 0, "name": "c050e6ee6a2816dee16e843528d50715", "fusion_lat": 0.0, "rental_uris": {"ios": "https://dc.lft.to/lastmile_qr_scan", "android": "https://dc.lft.to/lastmile_qr_scan"}, "lon": -77.03630966666667, "type": "electric_scooter"}, {"bike_id": "5eef96d3a14a0ad3d70b36afc87e9df9", "is_reserved": 0, "fusion_lon": 0.0, "lat": 38.88399283333333, "is_disabled": 0, "name": "5eef96d3a14a0ad3d70b36afc87e9df9", "fusion_lat": 0.0, "rental_uris": {"ios": "https://dc.lft.to/lastmile_qr_scan", "android": "https://dc.lft.to/lastmile_qr_scan"}, "lon": -77.01767233333334, "type": "electric_scooter"}, {"bike_id": "3dd3435e6d948d7aa5f78341a09c6a0e", "is_reserved": 0, "fusion_lon": 0.0, "lat": 38.9021405, "is_disabled": 0, "name": "3dd3435e6d948d7aa5f78341a09c6a0e", "fusion_lat": 0.0, "rental_uris": {"ios": "https://dc.lft.to/lastmile_qr_scan", "android": "https://dc.lft.to/lastmile_qr_scan"}, "lon": -77.02170966666667, "type": "electric_scooter"}, {"bike_id": "12fc81064cebfbea04feb6ff7f438204", "is_reserved": 0, "fusion_lon": 0.0, "lat": 38.92132216666667, "is_disabled": 0, "name": "12fc81064cebfbea04feb6ff7f438204", "fusion_lat": 0.0, "rental_uris": {"ios": "https://dc.lft.to/lastmile_qr_scan", "android": "https://dc.lft.to/lastmile_qr_scan"}, "lon": -77.04136766666667, "type": "electric_scooter"}, {"bike_id": "162c5fe76d4487ecf39cb2d43cb0c789", "is_reserved": 0, "fusion_lon": 0.0, "lat": 38.879235333333334, "is_disabled": 0, "name": "162c5fe76d4487ecf39cb2d43cb0c789", "fusion_lat": 0.0, "rental_uris": {"ios": "https://dc.lft.to/lastmile_qr_scan", "android": "https://dc.lft.to/lastmile_qr_scan"}, "lon": -77.0134245, "type": "electric_scooter"}, {"bike_id": "6c0fcb7f3130b39a967cd028a8f0d111", "is_reserved": 0, "fusion_lon": 0.0, "lat": 38.89018866666667, "is_disabled": 0, "name": "6c0fcb7f3130b39a967cd028a8f0d111", "fusion_lat": 0.0, "rental_uris": {"ios": "https://dc.lft.to/lastmile_qr_scan", "android": "https://dc.lft.to/lastmile_qr_scan"}, "lon": -76.9373905, "type": "electric_scooter"}, {"bike_id": "9f8e23f912e50ea4f0d936bd7dd69f3c", "is_reserved": 0, "fusion_lon": 0.0, "lat": 38.88502366666667, "is_disabled": 0, "name": "9f8e23f912e50ea4f0d936bd7dd69f3c", "fusion_lat": 0.0, "rental_uris": {"ios": "https://dc.lft.to/lastmile_qr_scan", "android": "https://dc.lft.to/lastmile_qr_scan"}, "lon": -77.00565566666667, "type": "electric_scooter"}, {"bike_id": "d99079808277a48a3396256bc922737b", "is_reserved": 0, "fusion_lon": 0.0, "lat": 38.90211983333333, "is_disabled": 0, "name": "d99079808277a48a3396256bc922737b", "fusion_lat": 0.0, "rental_uris": {"ios": "https://dc.lft.to/lastmile_qr_scan", "android": "https://dc.lft.to/lastmile_qr_scan"}, "lon": -77.019755, "type": "electric_scooter"}, {"bike_id": "599f7e42390d003eaab54d77051d8e80", "is_reserved": 0, "fusion_lon": 0.0, "lat": 38.89736883333333, "is_disabled": 0, "name": "599f7e42390d003eaab54d77051d8e80", "fusion_lat": 0.0, "rental_uris": {"ios": "https://dc.lft.to/lastmile_qr_scan", "android": "https://dc.lft.to/lastmile_qr_scan"}, "lon": -76.94723016666667, "type": "electric_scooter"}, {"bike_id": "9e674439568583c61787cfb226363400", "is_reserved": 0, "fusion_lon": 0.0, "lat": 38.96619283333333, "is_disabled": 0, "name": "9e674439568583c61787cfb226363400", "fusion_lat": 0.0, "rental_uris": {"ios": "https://dc.lft.to/lastmile_qr_scan", "android": "https://dc.lft.to/lastmile_qr_scan"}, "lon": -77.03429716666666, "type": "electric_bike"}, {"bike_id": "f016a331ff4a0a466f618c530e33a3aa", "is_reserved": 0, "fusion_lon": 0.0, "lat": 38.90399033333333, "is_disabled": 0, "name": "f016a331ff4a0a466f618c530e33a3aa", "fusion_lat": 0.0, "rental_uris": {"ios": "https://dc.lft.to/lastmile_qr_scan", "android": "https://dc.lft.to/lastmile_qr_scan"}, "lon": -77.04011216666666, "type": "electric_scooter"}, {"bike_id": "71ff15719aa137e840dbd348761d71a7", "is_reserved": 0, "fusion_lon": 0.0, "lat": 38.895309833333336, "is_disabled": 0, "name": "71ff15719aa137e840dbd348761d71a7", "fusion_lat": 0.0, "rental_uris": {"ios": "https://dc.lft.to/lastmile_qr_scan", "android": "https://dc.lft.to/lastmile_qr_scan"}, "lon": -77.029391, "type": "electric_scooter"}, {"bike_id": "df909d2e9efa44cf8e5113c52d8c3d9c", "is_reserved": 0, "fusion_lon": 0.0, "lat": 38.91539433333333, "is_disabled": 0, "name": "df909d2e9efa44cf8e5113c52d8c3d9c", "fusion_lat": 0.0, "rental_uris": {"ios": "https://dc.lft.to/lastmile_qr_scan", "android": "https://dc.lft.to/lastmile_qr_scan"}, "lon": -77.02343966666666, "type": "electric_scooter"}, {"bike_id": "3b227defac6096e0843bcf07430d4240", "is_reserved": 0, "fusion_lon": 0.0, "lat": 38.909996166666666, "is_disabled": 0, "name": "3b227defac6096e0843bcf07430d4240", "fusion_lat": 0.0, "rental_uris": {"ios": "https://dc.lft.to/lastmile_qr_scan", "android": "https://dc.lft.to/lastmile_qr_scan"}, "lon": -77.0209875, "type": "electric_scooter"}, {"bike_id": "06f25b0f0f7ac17c3ff56e32d9f647e8", "is_reserved": 0, "fusion_lon": 0.0, "lat": 38.91691766666667, "is_disabled": 0, "name": "06f25b0f0f7ac17c3ff56e32d9f647e8", "fusion_lat": 0.0, "rental_uris": {"ios": "https://dc.lft.to/lastmile_qr_scan", "android": "https://dc.lft.to/lastmile_qr_scan"}, "lon": -77.02892516666667, "type": "electric_scooter"}, {"bike_id": "bc0f2bb5953320dcc5db7682a44eb584", "is_reserved": 0, "fusion_lon": 0.0, "lat": 38.90421216666667, "is_disabled": 0, "name": "bc0f2bb5953320dcc5db7682a44eb584", "fusion_lat": 0.0, "rental_uris": {"ios": "https://dc.lft.to/lastmile_qr_scan", "android": "https://dc.lft.to/lastmile_qr_scan"}, "lon": -77.04661166666666, "type": "electric_scooter"}, {"bike_id": "5c69e536dc334cb12aefa16af7a6e533", "is_reserved": 0, "fusion_lon": 0.0, "lat": 38.8747965, "is_disabled": 0, "name": "5c69e536dc334cb12aefa16af7a6e533", "fusion_lat": 0.0, "rental_uris": {"ios": "https://dc.lft.to/lastmile_qr_scan", "android": "https://dc.lft.to/lastmile_qr_scan"}, "lon": -76.965335, "type": "electric_bike"}, {"bike_id": "e421787f2c46d485c682734fca14dbba", "is_reserved": 0, "fusion_lon": 0.0, "lat": 38.916186333333336, "is_disabled": 0, "name": "e421787f2c46d485c682734fca14dbba", "fusion_lat": 0.0, "rental_uris": {"ios": "https://dc.lft.to/lastmile_qr_scan", "android": "https://dc.lft.to/lastmile_qr_scan"}, "lon": -77.03646216666667, "type": "electric_scooter"}, {"bike_id": "d50787ce0962cfbca49ba9d8bd4f166e", "is_reserved": 0, "fusion_lon": 0.0, "lat": 38.924467666666665, "is_disabled": 0, "name": "d50787ce0962cfbca49ba9d8bd4f166e", "fusion_lat": 0.0, "rental_uris": {"ios": "https://dc.lft.to/lastmile_qr_scan", "android": "https://dc.lft.to/lastmile_qr_scan"}, "lon": -77.03375116666666, "type": "electric_scooter"}, {"bike_id": "65b1dd4b1c5b053678a2d99df29665ae", "is_reserved": 0, "fusion_lon": 0.0, "lat": 38.83826766666667, "is_disabled": 0, "name": "65b1dd4b1c5b053678a2d99df29665ae", "fusion_lat": 0.0, "rental_uris": {"ios": "https://dc.lft.to/lastmile_qr_scan", "android": "https://dc.lft.to/lastmile_qr_scan"}, "lon": -76.99679583333334, "type": "electric_bike"}, {"bike_id": "5c7cbd3a81e8df29532e4be173948e20", "is_reserved": 0, "fusion_lon": 0.0, "lat": 38.904733, "is_disabled": 0, "name": "5c7cbd3a81e8df29532e4be173948e20", "fusion_lat": 0.0, "rental_uris": {"ios": "https://dc.lft.to/lastmile_qr_scan", "android": "https://dc.lft.to/lastmile_qr_scan"}, "lon": -77.02973316666667, "type": "electric_scooter"}, {"bike_id": "3c3eecec314f134b0c23d5df82de67c7", "is_reserved": 0, "fusion_lon": 0.0, "lat": 38.876308, "is_disabled": 0, "name": "3c3eecec314f134b0c23d5df82de67c7", "fusion_lat": 0.0, "rental_uris": {"ios": "https://dc.lft.to/lastmile_qr_scan", "android": "https://dc.lft.to/lastmile_qr_scan"}, "lon": -76.9652405, "type": "electric_scooter"}, {"bike_id": "5622afdf321401067c7b6b608d26c5b7", "is_reserved": 0, "fusion_lon": 0.0, "lat": 38.92879966666667, "is_disabled": 0, "name": "5622afdf321401067c7b6b608d26c5b7", "fusion_lat": 0.0, "rental_uris": {"ios": "https://dc.lft.to/lastmile_qr_scan", "android": "https://dc.lft.to/lastmile_qr_scan"}, "lon": -77.013656, "type": "electric_scooter"}, {"bike_id": "ed0be337c050327f608c7b0a024cdcb3", "is_reserved": 0, "fusion_lon": 0.0, "lat": 38.86520433333333, "is_disabled": 0, "name": "ed0be337c050327f608c7b0a024cdcb3", "fusion_lat": 0.0, "rental_uris": {"ios": "https://dc.lft.to/lastmile_qr_scan", "android": "https://dc.lft.to/lastmile_qr_scan"}, "lon": -76.990287, "type": "electric_scooter"}, {"bike_id": "215503de8160151df28b430c61f2cc4e", "is_reserved": 0, "fusion_lon": 0.0, "lat": 38.89617916666667, "is_disabled": 0, "name": "215503de8160151df28b430c61f2cc4e", "fusion_lat": 0.0, "rental_uris": {"ios": "https://dc.lft.to/lastmile_qr_scan", "android": "https://dc.lft.to/lastmile_qr_scan"}, "lon": -77.04459166666666, "type": "electric_scooter"}, {"bike_id": "3c7d1d20a7071e54ef1ba77b6bf8a590", "is_reserved": 0, "fusion_lon": 0.0, "lat": 38.838116, "is_disabled": 0, "name": "3c7d1d20a7071e54ef1ba77b6bf8a590", "fusion_lat": 0.0, "rental_uris": {"ios": "https://dc.lft.to/lastmile_qr_scan", "android": "https://dc.lft.to/lastmile_qr_scan"}, "lon": -77.09524333333333, "type": "electric_bike"}, {"bike_id": "dc82c7fb0fa5d0d5f693eeea93438467", "is_reserved": 0, "fusion_lon": 0.0, "lat": 38.932937, "is_disabled": 0, "name": "dc82c7fb0fa5d0d5f693eeea93438467", "fusion_lat": 0.0, "rental_uris": {"ios": "https://dc.lft.to/lastmile_qr_scan", "android": "https://dc.lft.to/lastmile_qr_scan"}, "lon": -77.03986133333333, "type": "electric_scooter"}, {"bike_id": "25bbac03e792069dfac86556528077e0", "is_reserved": 0, "fusion_lon": 0.0, "lat": 38.946305333333335, "is_disabled": 0, "name": "25bbac03e792069dfac86556528077e0", "fusion_lat": 0.0, "rental_uris": {"ios": "https://dc.lft.to/lastmile_qr_scan", "android": "https://dc.lft.to/lastmile_qr_scan"}, "lon": -77.01844916666667, "type": "electric_scooter"}, {"bike_id": "998ee4f82a7fa5f25013de7b97a80100", "is_reserved": 0, "fusion_lon": 0.0, "lat": 38.90330766666666, "is_disabled": 0, "name": "998ee4f82a7fa5f25013de7b97a80100", "fusion_lat": 0.0, "rental_uris": {"ios": "https://dc.lft.to/lastmile_qr_scan", "android": "https://dc.lft.to/lastmile_qr_scan"}, "lon": -76.97595666666666, "type": "electric_scooter"}, {"bike_id": "3ca4e9f1ceae0c5c8ee341782e464a11", "is_reserved": 0, "fusion_lon": 0.0, "lat": 38.89737066666667, "is_disabled": 0, "name": "3ca4e9f1ceae0c5c8ee341782e464a11", "fusion_lat": 0.0, "rental_uris": {"ios": "https://dc.lft.to/lastmile_qr_scan", "android": "https://dc.lft.to/lastmile_qr_scan"}, "lon": -76.93844966666667, "type": "electric_scooter"}, {"bike_id": "b472181bd395aa636c4658bc37368085", "is_reserved": 0, "fusion_lon": 0.0, "lat": 38.8666615, "is_disabled": 0, "name": "b472181bd395aa636c4658bc37368085", "fusion_lat": 0.0, "rental_uris": {"ios": "https://dc.lft.to/lastmile_qr_scan", "android": "https://dc.lft.to/lastmile_qr_scan"}, "lon": -76.98906966666667, "type": "electric_scooter"}, {"bike_id": "b1b8c78800cc2a5f82bc7266d11e8215", "is_reserved": 0, "fusion_lon": 0.0, "lat": 38.9333885, "is_disabled": 0, "name": "b1b8c78800cc2a5f82bc7266d11e8215", "fusion_lat": 0.0, "rental_uris": {"ios": "https://dc.lft.to/lastmile_qr_scan", "android": "https://dc.lft.to/lastmile_qr_scan"}, "lon": -77.03280216666667, "type": "electric_scooter"}, {"bike_id": "2cead49ca2c1b437e0d5f2bacb7d00d7", "is_reserved": 0, "fusion_lon": 0.0, "lat": 38.924379, "is_disabled": 0, "name": "2cead49ca2c1b437e0d5f2bacb7d00d7", "fusion_lat": 0.0, "rental_uris": {"ios": "https://dc.lft.to/lastmile_qr_scan", "android": "https://dc.lft.to/lastmile_qr_scan"}, "lon": -77.040038, "type": "electric_scooter"}, {"bike_id": "04c4e9833d49d092a4437a643c51bf48", "is_reserved": 0, "fusion_lon": 0.0, "lat": 38.952796666666664, "is_disabled": 0, "name": "04c4e9833d49d092a4437a643c51bf48", "fusion_lat": 0.0, "rental_uris": {"ios": "https://dc.lft.to/lastmile_qr_scan", "android": "https://dc.lft.to/lastmile_qr_scan"}, "lon": -77.00791, "type": "electric_scooter"}, {"bike_id": "e4f179af9a7f5d2c6b8982fa10efdfdd", "is_reserved": 0, "fusion_lon": 0.0, "lat": 38.89961266666667, "is_disabled": 0, "name": "e4f179af9a7f5d2c6b8982fa10efdfdd", "fusion_lat": 0.0, "rental_uris": {"ios": "https://dc.lft.to/lastmile_qr_scan", "android": "https://dc.lft.to/lastmile_qr_scan"}, "lon": -77.01620966666667, "type": "electric_scooter"}, {"bike_id": "fd0883376daf1532c4b8b97f987245e4", "is_reserved": 0, "fusion_lon": 0.0, "lat": 38.940469666666665, "is_disabled": 0, "name": "fd0883376daf1532c4b8b97f987245e4", "fusion_lat": 0.0, "rental_uris": {"ios": "https://dc.lft.to/lastmile_qr_scan", "android": "https://dc.lft.to/lastmile_qr_scan"}, "lon": -77.029812, "type": "electric_scooter"}, {"bike_id": "2061fee5ae1fecfb9f89d487af7606ec", "is_reserved": 0, "fusion_lon": 0.0, "lat": 38.899949, "is_disabled": 0, "name": "2061fee5ae1fecfb9f89d487af7606ec", "fusion_lat": 0.0, "rental_uris": {"ios": "https://dc.lft.to/lastmile_qr_scan", "android": "https://dc.lft.to/lastmile_qr_scan"}, "lon": -76.9978415, "type": "electric_scooter"}, {"bike_id": "e74b7435041332bae8c0f3a98fa2927f", "is_reserved": 0, "fusion_lon": 0.0, "lat": 38.8532175, "is_disabled": 0, "name": "e74b7435041332bae8c0f3a98fa2927f", "fusion_lat": 0.0, "rental_uris": {"ios": "https://dc.lft.to/lastmile_qr_scan", "android": "https://dc.lft.to/lastmile_qr_scan"}, "lon": -76.98002983333333, "type": "electric_scooter"}, {"bike_id": "5b17ab7f561bcc827d7eb832311e668f", "is_reserved": 0, "fusion_lon": 0.0, "lat": 38.939515666666665, "is_disabled": 0, "name": "5b17ab7f561bcc827d7eb832311e668f", "fusion_lat": 0.0, "rental_uris": {"ios": "https://dc.lft.to/lastmile_qr_scan", "android": "https://dc.lft.to/lastmile_qr_scan"}, "lon": -77.03270233333333, "type": "electric_scooter"}, {"bike_id": "1a7dd753456ab2763956d710a0ca96b1", "is_reserved": 0, "fusion_lon": 0.0, "lat": 38.9906735, "is_disabled": 0, "name": "1a7dd753456ab2763956d710a0ca96b1", "fusion_lat": 0.0, "rental_uris": {"ios": "https://dc.lft.to/lastmile_qr_scan", "android": "https://dc.lft.to/lastmile_qr_scan"}, "lon": -77.10027133333334, "type": "electric_bike"}, {"bike_id": "bba640bdf56bfc461e05df504152e1d1", "is_reserved": 0, "fusion_lon": 0.0, "lat": 38.91883466666667, "is_disabled": 0, "name": "bba640bdf56bfc461e05df504152e1d1", "fusion_lat": 0.0, "rental_uris": {"ios": "https://dc.lft.to/lastmile_qr_scan", "android": "https://dc.lft.to/lastmile_qr_scan"}, "lon": -77.03511333333333, "type": "electric_scooter"}, {"bike_id": "28aea72a9c4f9cdada3d102baceb709b", "is_reserved": 0, "fusion_lon": 0.0, "lat": 38.922585, "is_disabled": 0, "name": "28aea72a9c4f9cdada3d102baceb709b", "fusion_lat": 0.0, "rental_uris": {"ios": "https://dc.lft.to/lastmile_qr_scan", "android": "https://dc.lft.to/lastmile_qr_scan"}, "lon": -77.04134583333334, "type": "electric_scooter"}, {"bike_id": "75949ec167ac0ac21503ca6cae5d6195", "is_reserved": 0, "fusion_lon": 0.0, "lat": 38.92050833333333, "is_disabled": 0, "name": "75949ec167ac0ac21503ca6cae5d6195", "fusion_lat": 0.0, "rental_uris": {"ios": "https://dc.lft.to/lastmile_qr_scan", "android": "https://dc.lft.to/lastmile_qr_scan"}, "lon": -76.998179, "type": "electric_scooter"}, {"bike_id": "2eef1c55b27471aba97a94b45aa47fc9", "is_reserved": 0, "fusion_lon": 0.0, "lat": 38.907973, "is_disabled": 0, "name": "2eef1c55b27471aba97a94b45aa47fc9", "fusion_lat": 0.0, "rental_uris": {"ios": "https://dc.lft.to/lastmile_qr_scan", "android": "https://dc.lft.to/lastmile_qr_scan"}, "lon": -77.03463883333333, "type": "electric_scooter"}, {"bike_id": "4ee5423c7a25fdd41af4a0cebc954383", "is_reserved": 0, "fusion_lon": 0.0, "lat": 38.9339975, "is_disabled": 0, "name": "4ee5423c7a25fdd41af4a0cebc954383", "fusion_lat": 0.0, "rental_uris": {"ios": "https://dc.lft.to/lastmile_qr_scan", "android": "https://dc.lft.to/lastmile_qr_scan"}, "lon": -77.02067316666667, "type": "electric_scooter"}, {"bike_id": "e47b1571e16c38e8bce0a0bb21a2b782", "is_reserved": 0, "fusion_lon": 0.0, "lat": 38.918023, "is_disabled": 0, "name": "e47b1571e16c38e8bce0a0bb21a2b782", "fusion_lat": 0.0, "rental_uris": {"ios": "https://dc.lft.to/lastmile_qr_scan", "android": "https://dc.lft.to/lastmile_qr_scan"}, "lon": -77.03436316666667, "type": "electric_scooter"}, {"bike_id": "934fc634b652ff450cae5960dd3cb459", "is_reserved": 0, "fusion_lon": 0.0, "lat": 38.923876666666665, "is_disabled": 0, "name": "934fc634b652ff450cae5960dd3cb459", "fusion_lat": 0.0, "rental_uris": {"ios": "https://dc.lft.to/lastmile_qr_scan", "android": "https://dc.lft.to/lastmile_qr_scan"}, "lon": -77.0408005, "type": "electric_scooter"}, {"bike_id": "1917a31d33bc56f8e6b93cf069d16fd1", "is_reserved": 0, "fusion_lon": 0.0, "lat": 38.892280666666665, "is_disabled": 0, "name": "1917a31d33bc56f8e6b93cf069d16fd1", "fusion_lat": 0.0, "rental_uris": {"ios": "https://dc.lft.to/lastmile_qr_scan", "android": "https://dc.lft.to/lastmile_qr_scan"}, "lon": -77.021783, "type": "electric_scooter"}, {"bike_id": "eb5c3f1af0888f867e9db51691b0535c", "is_reserved": 0, "fusion_lon": 0.0, "lat": 38.89619716666667, "is_disabled": 0, "name": "eb5c3f1af0888f867e9db51691b0535c", "fusion_lat": 0.0, "rental_uris": {"ios": "https://dc.lft.to/lastmile_qr_scan", "android": "https://dc.lft.to/lastmile_qr_scan"}, "lon": -76.9984955, "type": "electric_scooter"}, {"bike_id": "dc560658e2c6a0993c965d81fbd4c1d5", "is_reserved": 0, "fusion_lon": 0.0, "lat": 38.92848333333333, "is_disabled": 0, "name": "dc560658e2c6a0993c965d81fbd4c1d5", "fusion_lat": 0.0, "rental_uris": {"ios": "https://dc.lft.to/lastmile_qr_scan", "android": "https://dc.lft.to/lastmile_qr_scan"}, "lon": -77.05433933333333, "type": "electric_scooter"}, {"bike_id": "0cad16ee9293074f8d61ec240380f191", "is_reserved": 0, "fusion_lon": 0.0, "lat": 38.894759666666666, "is_disabled": 0, "name": "0cad16ee9293074f8d61ec240380f191", "fusion_lat": 0.0, "rental_uris": {"ios": "https://dc.lft.to/lastmile_qr_scan", "android": "https://dc.lft.to/lastmile_qr_scan"}, "lon": -77.02295583333333, "type": "electric_scooter"}, {"bike_id": "b1ebc9c85d0ddc1e172d08d6361df4b8", "is_reserved": 0, "fusion_lon": 0.0, "lat": 38.90568533333333, "is_disabled": 0, "name": "b1ebc9c85d0ddc1e172d08d6361df4b8", "fusion_lat": 0.0, "rental_uris": {"ios": "https://dc.lft.to/lastmile_qr_scan", "android": "https://dc.lft.to/lastmile_qr_scan"}, "lon": -77.03816816666667, "type": "electric_scooter"}, {"bike_id": "15b3fb3d3bcca67f1df7f76ed45d1d7e", "is_reserved": 0, "fusion_lon": 0.0, "lat": 38.902598833333336, "is_disabled": 0, "name": "15b3fb3d3bcca67f1df7f76ed45d1d7e", "fusion_lat": 0.0, "rental_uris": {"ios": "https://dc.lft.to/lastmile_qr_scan", "android": "https://dc.lft.to/lastmile_qr_scan"}, "lon": -77.05924333333333, "type": "electric_scooter"}, {"bike_id": "3046e945f58b81e53ea2e8fe11a12d69", "is_reserved": 0, "fusion_lon": 0.0, "lat": 38.892201, "is_disabled": 0, "name": "3046e945f58b81e53ea2e8fe11a12d69", "fusion_lat": 0.0, "rental_uris": {"ios": "https://dc.lft.to/lastmile_qr_scan", "android": "https://dc.lft.to/lastmile_qr_scan"}, "lon": -77.04191333333333, "type": "electric_scooter"}, {"bike_id": "db37122e96e7b9fbe1d8babcdfc084dc", "is_reserved": 0, "fusion_lon": 0.0, "lat": 38.928972, "is_disabled": 0, "name": "db37122e96e7b9fbe1d8babcdfc084dc", "fusion_lat": 0.0, "rental_uris": {"ios": "https://dc.lft.to/lastmile_qr_scan", "android": "https://dc.lft.to/lastmile_qr_scan"}, "lon": -77.031764, "type": "electric_scooter"}, {"bike_id": "2cca2d1185e6ffa11eba4dd4ef6f6881", "is_reserved": 0, "fusion_lon": 0.0, "lat": 38.895602333333336, "is_disabled": 0, "name": "2cca2d1185e6ffa11eba4dd4ef6f6881", "fusion_lat": 0.0, "rental_uris": {"ios": "https://dc.lft.to/lastmile_qr_scan", "android": "https://dc.lft.to/lastmile_qr_scan"}, "lon": -77.04676366666666, "type": "electric_scooter"}, {"bike_id": "50ed81a1bfd6b1ef67fcf7f7d1c01e56", "is_reserved": 0, "fusion_lon": 0.0, "lat": 38.92783983333333, "is_disabled": 0, "name": "50ed81a1bfd6b1ef67fcf7f7d1c01e56", "fusion_lat": 0.0, "rental_uris": {"ios": "https://dc.lft.to/lastmile_qr_scan", "android": "https://dc.lft.to/lastmile_qr_scan"}, "lon": -77.03199616666667, "type": "electric_scooter"}, {"bike_id": "ce49121290ffa2d635e485b20de955a5", "is_reserved": 0, "fusion_lon": 0.0, "lat": 38.89391116666667, "is_disabled": 0, "name": "ce49121290ffa2d635e485b20de955a5", "fusion_lat": 0.0, "rental_uris": {"ios": "https://dc.lft.to/lastmile_qr_scan", "android": "https://dc.lft.to/lastmile_qr_scan"}, "lon": -77.02254416666666, "type": "electric_bike"}, {"bike_id": "37fb62234f4a19dd1f4df67302c4672a", "is_reserved": 0, "fusion_lon": 0.0, "lat": 38.890013333333336, "is_disabled": 0, "name": "37fb62234f4a19dd1f4df67302c4672a", "fusion_lat": 0.0, "rental_uris": {"ios": "https://dc.lft.to/lastmile_qr_scan", "android": "https://dc.lft.to/lastmile_qr_scan"}, "lon": -77.048903, "type": "electric_scooter"}, {"bike_id": "4bd7b7997cfca222c311382e2c32eb26", "is_reserved": 0, "fusion_lon": 0.0, "lat": 38.9069165, "is_disabled": 0, "name": "4bd7b7997cfca222c311382e2c32eb26", "fusion_lat": 0.0, "rental_uris": {"ios": "https://dc.lft.to/lastmile_qr_scan", "android": "https://dc.lft.to/lastmile_qr_scan"}, "lon": -77.01342683333333, "type": "electric_scooter"}, {"bike_id": "12133311edca2b2fc5895a75a7d4315b", "is_reserved": 0, "fusion_lon": 0.0, "lat": 38.92378516666667, "is_disabled": 0, "name": "12133311edca2b2fc5895a75a7d4315b", "fusion_lat": 0.0, "rental_uris": {"ios": "https://dc.lft.to/lastmile_qr_scan", "android": "https://dc.lft.to/lastmile_qr_scan"}, "lon": -77.00210366666667, "type": "electric_scooter"}, {"bike_id": "283c2fc69360f716851457f921977ec5", "is_reserved": 0, "fusion_lon": 0.0, "lat": 38.8959965, "is_disabled": 0, "name": "283c2fc69360f716851457f921977ec5", "fusion_lat": 0.0, "rental_uris": {"ios": "https://dc.lft.to/lastmile_qr_scan", "android": "https://dc.lft.to/lastmile_qr_scan"}, "lon": -77.02842683333333, "type": "electric_scooter"}, {"bike_id": "d767050b6038623fee72498758c45f63", "is_reserved": 0, "fusion_lon": 0.0, "lat": 38.9073165, "is_disabled": 0, "name": "d767050b6038623fee72498758c45f63", "fusion_lat": 0.0, "rental_uris": {"ios": "https://dc.lft.to/lastmile_qr_scan", "android": "https://dc.lft.to/lastmile_qr_scan"}, "lon": -77.04672433333333, "type": "electric_scooter"}, {"bike_id": "0bfee61d0b8d39f4b0c39961ff07d3fb", "is_reserved": 0, "fusion_lon": 0.0, "lat": 38.934165666666665, "is_disabled": 0, "name": "0bfee61d0b8d39f4b0c39961ff07d3fb", "fusion_lat": 0.0, "rental_uris": {"ios": "https://dc.lft.to/lastmile_qr_scan", "android": "https://dc.lft.to/lastmile_qr_scan"}, "lon": -77.0431925, "type": "electric_scooter"}, {"bike_id": "00feac596354b674886d7597c0757803", "is_reserved": 0, "fusion_lon": 0.0, "lat": 38.869116, "is_disabled": 0, "name": "00feac596354b674886d7597c0757803", "fusion_lat": 0.0, "rental_uris": {"ios": "https://dc.lft.to/lastmile_qr_scan", "android": "https://dc.lft.to/lastmile_qr_scan"}, "lon": -77.13180616666666, "type": "electric_bike"}, {"bike_id": "8bc9cb28a79bb94706113323b71cfe16", "is_reserved": 0, "fusion_lon": 0.0, "lat": 38.9224125, "is_disabled": 0, "name": "8bc9cb28a79bb94706113323b71cfe16", "fusion_lat": 0.0, "rental_uris": {"ios": "https://dc.lft.to/lastmile_qr_scan", "android": "https://dc.lft.to/lastmile_qr_scan"}, "lon": -77.01007883333334, "type": "electric_scooter"}, {"bike_id": "7d8619571cb0ab1b2b54a9d2ccdd71cf", "is_reserved": 0, "fusion_lon": 0.0, "lat": 38.90238683333333, "is_disabled": 0, "name": "7d8619571cb0ab1b2b54a9d2ccdd71cf", "fusion_lat": 0.0, "rental_uris": {"ios": "https://dc.lft.to/lastmile_qr_scan", "android": "https://dc.lft.to/lastmile_qr_scan"}, "lon": -77.0293415, "type": "electric_scooter"}, {"bike_id": "da788e29902272800126ece1f9fbb825", "is_reserved": 0, "fusion_lon": 0.0, "lat": 38.89790683333333, "is_disabled": 0, "name": "da788e29902272800126ece1f9fbb825", "fusion_lat": 0.0, "rental_uris": {"ios": "https://dc.lft.to/lastmile_qr_scan", "android": "https://dc.lft.to/lastmile_qr_scan"}, "lon": -77.03301083333334, "type": "electric_scooter"}, {"bike_id": "110d3711cac2aedff746032a866282e4", "is_reserved": 0, "fusion_lon": 0.0, "lat": 38.89193733333333, "is_disabled": 0, "name": "110d3711cac2aedff746032a866282e4", "fusion_lat": 0.0, "rental_uris": {"ios": "https://dc.lft.to/lastmile_qr_scan", "android": "https://dc.lft.to/lastmile_qr_scan"}, "lon": -77.02981033333333, "type": "electric_scooter"}, {"bike_id": "2c0c0392f848ca2d8676f6642fedf66a", "is_reserved": 0, "fusion_lon": 0.0, "lat": 38.924702333333336, "is_disabled": 0, "name": "2c0c0392f848ca2d8676f6642fedf66a", "fusion_lat": 0.0, "rental_uris": {"ios": "https://dc.lft.to/lastmile_qr_scan", "android": "https://dc.lft.to/lastmile_qr_scan"}, "lon": -77.05209066666667, "type": "electric_scooter"}, {"bike_id": "8700180efa322a2a840291f810f6364f", "is_reserved": 0, "fusion_lon": 0.0, "lat": 38.85289383333333, "is_disabled": 0, "name": "8700180efa322a2a840291f810f6364f", "fusion_lat": 0.0, "rental_uris": {"ios": "https://dc.lft.to/lastmile_qr_scan", "android": "https://dc.lft.to/lastmile_qr_scan"}, "lon": -77.0527655, "type": "electric_bike"}, {"bike_id": "5daf9ed779515513e1d7e2d7441389c1", "is_reserved": 0, "fusion_lon": 0.0, "lat": 38.87142266666667, "is_disabled": 0, "name": "5daf9ed779515513e1d7e2d7441389c1", "fusion_lat": 0.0, "rental_uris": {"ios": "https://dc.lft.to/lastmile_qr_scan", "android": "https://dc.lft.to/lastmile_qr_scan"}, "lon": -76.97755733333334, "type": "electric_scooter"}, {"bike_id": "9daa6de0f3d89377bdccdb22f8cd1ec3", "is_reserved": 0, "fusion_lon": 0.0, "lat": 38.86522316666667, "is_disabled": 0, "name": "9daa6de0f3d89377bdccdb22f8cd1ec3", "fusion_lat": 0.0, "rental_uris": {"ios": "https://dc.lft.to/lastmile_qr_scan", "android": "https://dc.lft.to/lastmile_qr_scan"}, "lon": -76.99029066666667, "type": "electric_scooter"}, {"bike_id": "3303eeca8b67a9b8aaa3738fccd61e56", "is_reserved": 0, "fusion_lon": 0.0, "lat": 38.900348, "is_disabled": 0, "name": "3303eeca8b67a9b8aaa3738fccd61e56", "fusion_lat": 0.0, "rental_uris": {"ios": "https://dc.lft.to/lastmile_qr_scan", "android": "https://dc.lft.to/lastmile_qr_scan"}, "lon": -76.99744366666667, "type": "electric_scooter"}, {"bike_id": "8cac9cbb868c9fe5c362754adb341c40", "is_reserved": 0, "fusion_lon": 0.0, "lat": 38.90134583333333, "is_disabled": 0, "name": "8cac9cbb868c9fe5c362754adb341c40", "fusion_lat": 0.0, "rental_uris": {"ios": "https://dc.lft.to/lastmile_qr_scan", "android": "https://dc.lft.to/lastmile_qr_scan"}, "lon": -77.03187266666667, "type": "electric_scooter"}, {"bike_id": "08cacdc3b6284961855e25ba31bb7f80", "is_reserved": 0, "fusion_lon": 0.0, "lat": 38.91032933333334, "is_disabled": 0, "name": "08cacdc3b6284961855e25ba31bb7f80", "fusion_lat": 0.0, "rental_uris": {"ios": "https://dc.lft.to/lastmile_qr_scan", "android": "https://dc.lft.to/lastmile_qr_scan"}, "lon": -77.03859033333333, "type": "electric_scooter"}, {"bike_id": "8c488aabef855308a7a5af9ab09e4a5f", "is_reserved": 0, "fusion_lon": 0.0, "lat": 38.856831666666665, "is_disabled": 0, "name": "8c488aabef855308a7a5af9ab09e4a5f", "fusion_lat": 0.0, "rental_uris": {"ios": "https://dc.lft.to/lastmile_qr_scan", "android": "https://dc.lft.to/lastmile_qr_scan"}, "lon": -77.085711, "type": "electric_bike"}, {"bike_id": "27913f0a1d452e0ff1c165aba0eee116", "is_reserved": 0, "fusion_lon": 0.0, "lat": 38.92610666666667, "is_disabled": 0, "name": "27913f0a1d452e0ff1c165aba0eee116", "fusion_lat": 0.0, "rental_uris": {"ios": "https://dc.lft.to/lastmile_qr_scan", "android": "https://dc.lft.to/lastmile_qr_scan"}, "lon": -77.02163316666666, "type": "electric_scooter"}, {"bike_id": "061a50ec693d716aba40c9409045c6a8", "is_reserved": 0, "fusion_lon": 0.0, "lat": 38.898177833333335, "is_disabled": 0, "name": "061a50ec693d716aba40c9409045c6a8", "fusion_lat": 0.0, "rental_uris": {"ios": "https://dc.lft.to/lastmile_qr_scan", "android": "https://dc.lft.to/lastmile_qr_scan"}, "lon": -77.03260333333333, "type": "electric_scooter"}, {"bike_id": "8c4aa77bc83014a3fca21f5493429ccc", "is_reserved": 0, "fusion_lon": 0.0, "lat": 38.90030333333333, "is_disabled": 0, "name": "8c4aa77bc83014a3fca21f5493429ccc", "fusion_lat": 0.0, "rental_uris": {"ios": "https://dc.lft.to/lastmile_qr_scan", "android": "https://dc.lft.to/lastmile_qr_scan"}, "lon": -77.02944666666667, "type": "electric_bike"}, {"bike_id": "a97396119d8b531f1ceef3a688950507", "is_reserved": 0, "fusion_lon": 0.0, "lat": 38.8872145, "is_disabled": 0, "name": "a97396119d8b531f1ceef3a688950507", "fusion_lat": 0.0, "rental_uris": {"ios": "https://dc.lft.to/lastmile_qr_scan", "android": "https://dc.lft.to/lastmile_qr_scan"}, "lon": -77.02583183333333, "type": "electric_scooter"}, {"bike_id": "e4aadb8d1c92f99717280a7101412666", "is_reserved": 0, "fusion_lon": 0.0, "lat": 38.920394333333334, "is_disabled": 0, "name": "e4aadb8d1c92f99717280a7101412666", "fusion_lat": 0.0, "rental_uris": {"ios": "https://dc.lft.to/lastmile_qr_scan", "android": "https://dc.lft.to/lastmile_qr_scan"}, "lon": -77.01670666666666, "type": "electric_scooter"}, {"bike_id": "27aa70a5e7ac7064adf5964a4fe56adf", "is_reserved": 0, "fusion_lon": 0.0, "lat": 38.86372583333333, "is_disabled": 0, "name": "27aa70a5e7ac7064adf5964a4fe56adf", "fusion_lat": 0.0, "rental_uris": {"ios": "https://dc.lft.to/lastmile_qr_scan", "android": "https://dc.lft.to/lastmile_qr_scan"}, "lon": -76.99061333333333, "type": "electric_scooter"}, {"bike_id": "9fe087c609949dce011bec5922002ef1", "is_reserved": 0, "fusion_lon": 0.0, "lat": 38.901331, "is_disabled": 0, "name": "9fe087c609949dce011bec5922002ef1", "fusion_lat": 0.0, "rental_uris": {"ios": "https://dc.lft.to/lastmile_qr_scan", "android": "https://dc.lft.to/lastmile_qr_scan"}, "lon": -77.04493033333334, "type": "electric_scooter"}, {"bike_id": "0bb97a7c0e35b746890538be74dc7bef", "is_reserved": 0, "fusion_lon": 0.0, "lat": 38.9051745, "is_disabled": 0, "name": "0bb97a7c0e35b746890538be74dc7bef", "fusion_lat": 0.0, "rental_uris": {"ios": "https://dc.lft.to/lastmile_qr_scan", "android": "https://dc.lft.to/lastmile_qr_scan"}, "lon": -77.04166833333333, "type": "electric_scooter"}, {"bike_id": "5823911b92b9eb36d96c9a5648bb12d5", "is_reserved": 0, "fusion_lon": 0.0, "lat": 38.926398166666665, "is_disabled": 0, "name": "5823911b92b9eb36d96c9a5648bb12d5", "fusion_lat": 0.0, "rental_uris": {"ios": "https://dc.lft.to/lastmile_qr_scan", "android": "https://dc.lft.to/lastmile_qr_scan"}, "lon": -77.03505516666667, "type": "electric_scooter"}, {"bike_id": "d30fe709da4d21190888387b85aa23ed", "is_reserved": 0, "fusion_lon": 0.0, "lat": 38.8981835, "is_disabled": 0, "name": "d30fe709da4d21190888387b85aa23ed", "fusion_lat": 0.0, "rental_uris": {"ios": "https://dc.lft.to/lastmile_qr_scan", "android": "https://dc.lft.to/lastmile_qr_scan"}, "lon": -77.03343166666667, "type": "electric_scooter"}, {"bike_id": "e5332520c06563570969e32fb35faaf9", "is_reserved": 0, "fusion_lon": 0.0, "lat": 38.9335175, "is_disabled": 0, "name": "e5332520c06563570969e32fb35faaf9", "fusion_lat": 0.0, "rental_uris": {"ios": "https://dc.lft.to/lastmile_qr_scan", "android": "https://dc.lft.to/lastmile_qr_scan"}, "lon": -77.05865066666667, "type": "electric_scooter"}, {"bike_id": "abd1eadc3e187221582a5b613097ebb1", "is_reserved": 0, "fusion_lon": 0.0, "lat": 38.920942833333335, "is_disabled": 0, "name": "abd1eadc3e187221582a5b613097ebb1", "fusion_lat": 0.0, "rental_uris": {"ios": "https://dc.lft.to/lastmile_qr_scan", "android": "https://dc.lft.to/lastmile_qr_scan"}, "lon": -77.074772, "type": "electric_scooter"}, {"bike_id": "de7e6ae4cc793da6c6f65da36e59c9bc", "is_reserved": 0, "fusion_lon": 0.0, "lat": 38.904349, "is_disabled": 0, "name": "de7e6ae4cc793da6c6f65da36e59c9bc", "fusion_lat": 0.0, "rental_uris": {"ios": "https://dc.lft.to/lastmile_qr_scan", "android": "https://dc.lft.to/lastmile_qr_scan"}, "lon": -77.04033016666666, "type": "electric_scooter"}, {"bike_id": "d16774ac1f6fa0a00a616d9e8b8fe50d", "is_reserved": 0, "fusion_lon": 0.0, "lat": 38.88511966666667, "is_disabled": 0, "name": "d16774ac1f6fa0a00a616d9e8b8fe50d", "fusion_lat": 0.0, "rental_uris": {"ios": "https://dc.lft.to/lastmile_qr_scan", "android": "https://dc.lft.to/lastmile_qr_scan"}, "lon": -77.0057455, "type": "electric_scooter"}, {"bike_id": "0778d589755e4a1e679e1221d508475c", "is_reserved": 0, "fusion_lon": 0.0, "lat": 38.88605416666667, "is_disabled": 0, "name": "0778d589755e4a1e679e1221d508475c", "fusion_lat": 0.0, "rental_uris": {"ios": "https://dc.lft.to/lastmile_qr_scan", "android": "https://dc.lft.to/lastmile_qr_scan"}, "lon": -76.93602716666666, "type": "electric_scooter"}, {"bike_id": "c1b20b6baddcf0864af262dd7b3aba24", "is_reserved": 0, "fusion_lon": 0.0, "lat": 38.93433383333333, "is_disabled": 0, "name": "c1b20b6baddcf0864af262dd7b3aba24", "fusion_lat": 0.0, "rental_uris": {"ios": "https://dc.lft.to/lastmile_qr_scan", "android": "https://dc.lft.to/lastmile_qr_scan"}, "lon": -77.03999516666667, "type": "electric_scooter"}, {"bike_id": "efe1b4982a62817ff3832ca5f71a4fc3", "is_reserved": 0, "fusion_lon": 0.0, "lat": 38.904450833333335, "is_disabled": 0, "name": "efe1b4982a62817ff3832ca5f71a4fc3", "fusion_lat": 0.0, "rental_uris": {"ios": "https://dc.lft.to/lastmile_qr_scan", "android": "https://dc.lft.to/lastmile_qr_scan"}, "lon": -77.04035183333333, "type": "electric_scooter"}, {"bike_id": "811b8c253cb49b2e010cabb4e76d7b05", "is_reserved": 0, "fusion_lon": 0.0, "lat": 38.9138205, "is_disabled": 0, "name": "811b8c253cb49b2e010cabb4e76d7b05", "fusion_lat": 0.0, "rental_uris": {"ios": "https://dc.lft.to/lastmile_qr_scan", "android": "https://dc.lft.to/lastmile_qr_scan"}, "lon": -77.01703666666667, "type": "electric_scooter"}, {"bike_id": "bd116673cc9427661fd4ca93d7dc10b4", "is_reserved": 0, "fusion_lon": 0.0, "lat": 38.83728516666667, "is_disabled": 0, "name": "bd116673cc9427661fd4ca93d7dc10b4", "fusion_lat": 0.0, "rental_uris": {"ios": "https://dc.lft.to/lastmile_qr_scan", "android": "https://dc.lft.to/lastmile_qr_scan"}, "lon": -76.99762466666667, "type": "electric_bike"}, {"bike_id": "061f7ad0217f6eebbfe12ea94e06ec44", "is_reserved": 0, "fusion_lon": 0.0, "lat": 38.9025025, "is_disabled": 0, "name": "061f7ad0217f6eebbfe12ea94e06ec44", "fusion_lat": 0.0, "rental_uris": {"ios": "https://dc.lft.to/lastmile_qr_scan", "android": "https://dc.lft.to/lastmile_qr_scan"}, "lon": -77.0072155, "type": "electric_scooter"}, {"bike_id": "b189a0a2bf40c89f6359f64ab5c32b54", "is_reserved": 0, "fusion_lon": 0.0, "lat": 38.85514883333333, "is_disabled": 0, "name": "b189a0a2bf40c89f6359f64ab5c32b54", "fusion_lat": 0.0, "rental_uris": {"ios": "https://dc.lft.to/lastmile_qr_scan", "android": "https://dc.lft.to/lastmile_qr_scan"}, "lon": -76.98427966666667, "type": "electric_bike"}, {"bike_id": "dc15a95edbfe92339ad409789d5f7cd9", "is_reserved": 0, "fusion_lon": 0.0, "lat": 38.9371055, "is_disabled": 0, "name": "dc15a95edbfe92339ad409789d5f7cd9", "fusion_lat": 0.0, "rental_uris": {"ios": "https://dc.lft.to/lastmile_qr_scan", "android": "https://dc.lft.to/lastmile_qr_scan"}, "lon": -77.0293645, "type": "electric_scooter"}, {"bike_id": "ad5635151dd5b72bfe6dada4d8102f52", "is_reserved": 0, "fusion_lon": 0.0, "lat": 38.92175483333333, "is_disabled": 0, "name": "ad5635151dd5b72bfe6dada4d8102f52", "fusion_lat": 0.0, "rental_uris": {"ios": "https://dc.lft.to/lastmile_qr_scan", "android": "https://dc.lft.to/lastmile_qr_scan"}, "lon": -77.04010783333334, "type": "electric_scooter"}, {"bike_id": "83c3ae3bacae50f2f5fa8da91b070b91", "is_reserved": 0, "fusion_lon": 0.0, "lat": 38.9507915, "is_disabled": 0, "name": "83c3ae3bacae50f2f5fa8da91b070b91", "fusion_lat": 0.0, "rental_uris": {"ios": "https://dc.lft.to/lastmile_qr_scan", "android": "https://dc.lft.to/lastmile_qr_scan"}, "lon": -77.01202616666667, "type": "electric_bike"}, {"bike_id": "eeb7c4221e22eae40763db3a85fb3977", "is_reserved": 0, "fusion_lon": 0.0, "lat": 38.90106333333333, "is_disabled": 0, "name": "eeb7c4221e22eae40763db3a85fb3977", "fusion_lat": 0.0, "rental_uris": {"ios": "https://dc.lft.to/lastmile_qr_scan", "android": "https://dc.lft.to/lastmile_qr_scan"}, "lon": -77.03321766666667, "type": "electric_scooter"}, {"bike_id": "294b6bd1c8190f4a6c47d3243d946437", "is_reserved": 0, "fusion_lon": 0.0, "lat": 38.939715666666665, "is_disabled": 0, "name": "294b6bd1c8190f4a6c47d3243d946437", "fusion_lat": 0.0, "rental_uris": {"ios": "https://dc.lft.to/lastmile_qr_scan", "android": "https://dc.lft.to/lastmile_qr_scan"}, "lon": -77.03256966666666, "type": "electric_scooter"}, {"bike_id": "d668a61ec6f62c3a27fb952f5c2b7c38", "is_reserved": 0, "fusion_lon": 0.0, "lat": 38.9285475, "is_disabled": 0, "name": "d668a61ec6f62c3a27fb952f5c2b7c38", "fusion_lat": 0.0, "rental_uris": {"ios": "https://dc.lft.to/lastmile_qr_scan", "android": "https://dc.lft.to/lastmile_qr_scan"}, "lon": -77.01373116666667, "type": "electric_scooter"}, {"bike_id": "c9952b1fa764c24d08bee7b197eb1f56", "is_reserved": 0, "fusion_lon": 0.0, "lat": 38.88419916666667, "is_disabled": 0, "name": "c9952b1fa764c24d08bee7b197eb1f56", "fusion_lat": 0.0, "rental_uris": {"ios": "https://dc.lft.to/lastmile_qr_scan", "android": "https://dc.lft.to/lastmile_qr_scan"}, "lon": -76.996962, "type": "electric_scooter"}, {"bike_id": "277de5c7346bc48f40086af2c34df88d", "is_reserved": 0, "fusion_lon": 0.0, "lat": 38.924786833333336, "is_disabled": 0, "name": "277de5c7346bc48f40086af2c34df88d", "fusion_lat": 0.0, "rental_uris": {"ios": "https://dc.lft.to/lastmile_qr_scan", "android": "https://dc.lft.to/lastmile_qr_scan"}, "lon": -77.02650666666666, "type": "electric_scooter"}, {"bike_id": "9a22464fb239bebabef5ab772222a656", "is_reserved": 0, "fusion_lon": 0.0, "lat": 38.89721633333333, "is_disabled": 0, "name": "9a22464fb239bebabef5ab772222a656", "fusion_lat": 0.0, "rental_uris": {"ios": "https://dc.lft.to/lastmile_qr_scan", "android": "https://dc.lft.to/lastmile_qr_scan"}, "lon": -77.02169033333334, "type": "electric_scooter"}, {"bike_id": "a131003464a6ad2cf8716db4c84e17e2", "is_reserved": 0, "fusion_lon": 0.0, "lat": 38.90610866666667, "is_disabled": 0, "name": "a131003464a6ad2cf8716db4c84e17e2", "fusion_lat": 0.0, "rental_uris": {"ios": "https://dc.lft.to/lastmile_qr_scan", "android": "https://dc.lft.to/lastmile_qr_scan"}, "lon": -77.05086083333333, "type": "electric_scooter"}, {"bike_id": "9fa63c54075787b13dd455df1b9ff718", "is_reserved": 0, "fusion_lon": 0.0, "lat": 38.93143333333333, "is_disabled": 0, "name": "9fa63c54075787b13dd455df1b9ff718", "fusion_lat": 0.0, "rental_uris": {"ios": "https://dc.lft.to/lastmile_qr_scan", "android": "https://dc.lft.to/lastmile_qr_scan"}, "lon": -77.03833433333334, "type": "electric_scooter"}, {"bike_id": "bb7d7eaa31d44bb02a0d421c4122ef29", "is_reserved": 0, "fusion_lon": 0.0, "lat": 38.89531183333333, "is_disabled": 0, "name": "bb7d7eaa31d44bb02a0d421c4122ef29", "fusion_lat": 0.0, "rental_uris": {"ios": "https://dc.lft.to/lastmile_qr_scan", "android": "https://dc.lft.to/lastmile_qr_scan"}, "lon": -77.04180316666667, "type": "electric_scooter"}, {"bike_id": "b0aa91ef4133e8a601bf0b91f4027a04", "is_reserved": 0, "fusion_lon": 0.0, "lat": 38.925907, "is_disabled": 0, "name": "b0aa91ef4133e8a601bf0b91f4027a04", "fusion_lat": 0.0, "rental_uris": {"ios": "https://dc.lft.to/lastmile_qr_scan", "android": "https://dc.lft.to/lastmile_qr_scan"}, "lon": -77.00561533333334, "type": "electric_scooter"}, {"bike_id": "238038616167b743cf27b4803860b8dd", "is_reserved": 0, "fusion_lon": 0.0, "lat": 38.8843685, "is_disabled": 0, "name": "238038616167b743cf27b4803860b8dd", "fusion_lat": 0.0, "rental_uris": {"ios": "https://dc.lft.to/lastmile_qr_scan", "android": "https://dc.lft.to/lastmile_qr_scan"}, "lon": -76.9575765, "type": "electric_scooter"}, {"bike_id": "b20f9f24ee61f1463187bf933d49bc83", "is_reserved": 0, "fusion_lon": 0.0, "lat": 38.899899, "is_disabled": 0, "name": "b20f9f24ee61f1463187bf933d49bc83", "fusion_lat": 0.0, "rental_uris": {"ios": "https://dc.lft.to/lastmile_qr_scan", "android": "https://dc.lft.to/lastmile_qr_scan"}, "lon": -77.04038533333333, "type": "electric_scooter"}, {"bike_id": "a6cad597c6f693458b864bb02865110a", "is_reserved": 0, "fusion_lon": 0.0, "lat": 38.912594166666665, "is_disabled": 0, "name": "a6cad597c6f693458b864bb02865110a", "fusion_lat": 0.0, "rental_uris": {"ios": "https://dc.lft.to/lastmile_qr_scan", "android": "https://dc.lft.to/lastmile_qr_scan"}, "lon": -77.03126133333333, "type": "electric_scooter"}, {"bike_id": "5af54b671609a96e4cd069309fa9d5c5", "is_reserved": 0, "fusion_lon": 0.0, "lat": 38.89903316666667, "is_disabled": 0, "name": "5af54b671609a96e4cd069309fa9d5c5", "fusion_lat": 0.0, "rental_uris": {"ios": "https://dc.lft.to/lastmile_qr_scan", "android": "https://dc.lft.to/lastmile_qr_scan"}, "lon": -76.933506, "type": "electric_scooter"}, {"bike_id": "4aa4a129dc704f881e8fe9b50dd71005", "is_reserved": 0, "fusion_lon": 0.0, "lat": 38.92054516666666, "is_disabled": 0, "name": "4aa4a129dc704f881e8fe9b50dd71005", "fusion_lat": 0.0, "rental_uris": {"ios": "https://dc.lft.to/lastmile_qr_scan", "android": "https://dc.lft.to/lastmile_qr_scan"}, "lon": -77.042546, "type": "electric_scooter"}, {"bike_id": "f8b40530ebc466e79a3823e32253ebf8", "is_reserved": 0, "fusion_lon": 0.0, "lat": 38.9035635, "is_disabled": 0, "name": "f8b40530ebc466e79a3823e32253ebf8", "fusion_lat": 0.0, "rental_uris": {"ios": "https://dc.lft.to/lastmile_qr_scan", "android": "https://dc.lft.to/lastmile_qr_scan"}, "lon": -77.04000883333333, "type": "electric_scooter"}, {"bike_id": "53dff6191a040769b6a71ffb327f6b08", "is_reserved": 0, "fusion_lon": 0.0, "lat": 38.90451483333333, "is_disabled": 0, "name": "53dff6191a040769b6a71ffb327f6b08", "fusion_lat": 0.0, "rental_uris": {"ios": "https://dc.lft.to/lastmile_qr_scan", "android": "https://dc.lft.to/lastmile_qr_scan"}, "lon": -77.04896583333333, "type": "electric_scooter"}, {"bike_id": "ea6760994f3367dae38c9144205ed1c7", "is_reserved": 0, "fusion_lon": 0.0, "lat": 38.897578333333335, "is_disabled": 0, "name": "ea6760994f3367dae38c9144205ed1c7", "fusion_lat": 0.0, "rental_uris": {"ios": "https://dc.lft.to/lastmile_qr_scan", "android": "https://dc.lft.to/lastmile_qr_scan"}, "lon": -76.94184183333333, "type": "electric_scooter"}, {"bike_id": "c471baf3876eebd71b0f9e6a2c12fc7e", "is_reserved": 0, "fusion_lon": 0.0, "lat": 38.920899666666664, "is_disabled": 0, "name": "c471baf3876eebd71b0f9e6a2c12fc7e", "fusion_lat": 0.0, "rental_uris": {"ios": "https://dc.lft.to/lastmile_qr_scan", "android": "https://dc.lft.to/lastmile_qr_scan"}, "lon": -77.02596166666666, "type": "electric_scooter"}, {"bike_id": "3fe2eacc65ee5ead1c27178a67fca765", "is_reserved": 0, "fusion_lon": 0.0, "lat": 38.95479816666667, "is_disabled": 0, "name": "3fe2eacc65ee5ead1c27178a67fca765", "fusion_lat": 0.0, "rental_uris": {"ios": "https://dc.lft.to/lastmile_qr_scan", "android": "https://dc.lft.to/lastmile_qr_scan"}, "lon": -77.08241733333334, "type": "electric_bike"}, {"bike_id": "42a8471012885e5d552247b064e8cdce", "is_reserved": 0, "fusion_lon": 0.0, "lat": 38.95925233333333, "is_disabled": 0, "name": "42a8471012885e5d552247b064e8cdce", "fusion_lat": 0.0, "rental_uris": {"ios": "https://dc.lft.to/lastmile_qr_scan", "android": "https://dc.lft.to/lastmile_qr_scan"}, "lon": -77.03323733333333, "type": "electric_scooter"}, {"bike_id": "b249d99dfa3e7c11ea9fa763aba38d51", "is_reserved": 0, "fusion_lon": 0.0, "lat": 38.90369416666667, "is_disabled": 0, "name": "b249d99dfa3e7c11ea9fa763aba38d51", "fusion_lat": 0.0, "rental_uris": {"ios": "https://dc.lft.to/lastmile_qr_scan", "android": "https://dc.lft.to/lastmile_qr_scan"}, "lon": -77.02715933333333, "type": "electric_scooter"}, {"bike_id": "1c825bb5e6ff7acbeb31d7c3a2f043a2", "is_reserved": 0, "fusion_lon": 0.0, "lat": 38.908064833333334, "is_disabled": 0, "name": "1c825bb5e6ff7acbeb31d7c3a2f043a2", "fusion_lat": 0.0, "rental_uris": {"ios": "https://dc.lft.to/lastmile_qr_scan", "android": "https://dc.lft.to/lastmile_qr_scan"}, "lon": -77.03436783333333, "type": "electric_scooter"}, {"bike_id": "e242293b6a89a9955af5ae9d238b1cbb", "is_reserved": 0, "fusion_lon": 0.0, "lat": 38.9033815, "is_disabled": 0, "name": "e242293b6a89a9955af5ae9d238b1cbb", "fusion_lat": 0.0, "rental_uris": {"ios": "https://dc.lft.to/lastmile_qr_scan", "android": "https://dc.lft.to/lastmile_qr_scan"}, "lon": -77.03830716666667, "type": "electric_scooter"}, {"bike_id": "68eef71e53fa3c76617da409fbb2e953", "is_reserved": 0, "fusion_lon": 0.0, "lat": 38.90341516666667, "is_disabled": 0, "name": "68eef71e53fa3c76617da409fbb2e953", "fusion_lat": 0.0, "rental_uris": {"ios": "https://dc.lft.to/lastmile_qr_scan", "android": "https://dc.lft.to/lastmile_qr_scan"}, "lon": -77.04373416666667, "type": "electric_scooter"}, {"bike_id": "2e2a922e7bb5ac8319cba39617d77aec", "is_reserved": 0, "fusion_lon": 0.0, "lat": 38.86559866666666, "is_disabled": 0, "name": "2e2a922e7bb5ac8319cba39617d77aec", "fusion_lat": 0.0, "rental_uris": {"ios": "https://dc.lft.to/lastmile_qr_scan", "android": "https://dc.lft.to/lastmile_qr_scan"}, "lon": -76.98947833333334, "type": "electric_scooter"}, {"bike_id": "242e81427ece44ba80e18546a82da8c9", "is_reserved": 0, "fusion_lon": 0.0, "lat": 38.903596, "is_disabled": 0, "name": "242e81427ece44ba80e18546a82da8c9", "fusion_lat": 0.0, "rental_uris": {"ios": "https://dc.lft.to/lastmile_qr_scan", "android": "https://dc.lft.to/lastmile_qr_scan"}, "lon": -77.051476, "type": "electric_bike"}, {"bike_id": "7c2595e7c822d65f5f5794627f7c9271", "is_reserved": 0, "fusion_lon": 0.0, "lat": 38.9167215, "is_disabled": 0, "name": "7c2595e7c822d65f5f5794627f7c9271", "fusion_lat": 0.0, "rental_uris": {"ios": "https://dc.lft.to/lastmile_qr_scan", "android": "https://dc.lft.to/lastmile_qr_scan"}, "lon": -77.02956616666667, "type": "electric_scooter"}, {"bike_id": "4545c42bdacd9e3690c6ef40778e9f73", "is_reserved": 0, "fusion_lon": 0.0, "lat": 38.906523, "is_disabled": 0, "name": "4545c42bdacd9e3690c6ef40778e9f73", "fusion_lat": 0.0, "rental_uris": {"ios": "https://dc.lft.to/lastmile_qr_scan", "android": "https://dc.lft.to/lastmile_qr_scan"}, "lon": -77.05011666666667, "type": "electric_scooter"}, {"bike_id": "d030b863fed210cda7dc0b7516940233", "is_reserved": 0, "fusion_lon": 0.0, "lat": 38.903558833333335, "is_disabled": 0, "name": "d030b863fed210cda7dc0b7516940233", "fusion_lat": 0.0, "rental_uris": {"ios": "https://dc.lft.to/lastmile_qr_scan", "android": "https://dc.lft.to/lastmile_qr_scan"}, "lon": -77.02991383333334, "type": "electric_scooter"}, {"bike_id": "1e037ccb59785af08da6cdb5d5c51253", "is_reserved": 0, "fusion_lon": 0.0, "lat": 38.909666666666666, "is_disabled": 0, "name": "1e037ccb59785af08da6cdb5d5c51253", "fusion_lat": 0.0, "rental_uris": {"ios": "https://dc.lft.to/lastmile_qr_scan", "android": "https://dc.lft.to/lastmile_qr_scan"}, "lon": -77.03464683333333, "type": "electric_scooter"}, {"bike_id": "083bf62f2f2477b19dc9acccf9810d83", "is_reserved": 0, "fusion_lon": 0.0, "lat": 38.926592, "is_disabled": 0, "name": "083bf62f2f2477b19dc9acccf9810d83", "fusion_lat": 0.0, "rental_uris": {"ios": "https://dc.lft.to/lastmile_qr_scan", "android": "https://dc.lft.to/lastmile_qr_scan"}, "lon": -77.03724916666667, "type": "electric_scooter"}, {"bike_id": "22fb8bca9b38ddbd8c1bd93df05be62d", "is_reserved": 0, "fusion_lon": 0.0, "lat": 38.906304, "is_disabled": 0, "name": "22fb8bca9b38ddbd8c1bd93df05be62d", "fusion_lat": 0.0, "rental_uris": {"ios": "https://dc.lft.to/lastmile_qr_scan", "android": "https://dc.lft.to/lastmile_qr_scan"}, "lon": -77.03880566666666, "type": "electric_scooter"}, {"bike_id": "cbcc6804b92844e10e91571c27769f09", "is_reserved": 0, "fusion_lon": 0.0, "lat": 38.914159166666664, "is_disabled": 0, "name": "cbcc6804b92844e10e91571c27769f09", "fusion_lat": 0.0, "rental_uris": {"ios": "https://dc.lft.to/lastmile_qr_scan", "android": "https://dc.lft.to/lastmile_qr_scan"}, "lon": -77.02679216666667, "type": "electric_scooter"}, {"bike_id": "82ea8d9fae96cd20b3685ed35945c8db", "is_reserved": 0, "fusion_lon": 0.0, "lat": 38.907964166666666, "is_disabled": 0, "name": "82ea8d9fae96cd20b3685ed35945c8db", "fusion_lat": 0.0, "rental_uris": {"ios": "https://dc.lft.to/lastmile_qr_scan", "android": "https://dc.lft.to/lastmile_qr_scan"}, "lon": -77.00015633333334, "type": "electric_scooter"}, {"bike_id": "c96252be1fad2deb86c1892ad6aa5afb", "is_reserved": 0, "fusion_lon": 0.0, "lat": 38.917588, "is_disabled": 0, "name": "c96252be1fad2deb86c1892ad6aa5afb", "fusion_lat": 0.0, "rental_uris": {"ios": "https://dc.lft.to/lastmile_qr_scan", "android": "https://dc.lft.to/lastmile_qr_scan"}, "lon": -76.98960716666667, "type": "electric_bike"}, {"bike_id": "d691547aaa6c56e1e4dda7c9b5e17f77", "is_reserved": 0, "fusion_lon": 0.0, "lat": 38.883341333333334, "is_disabled": 0, "name": "d691547aaa6c56e1e4dda7c9b5e17f77", "fusion_lat": 0.0, "rental_uris": {"ios": "https://dc.lft.to/lastmile_qr_scan", "android": "https://dc.lft.to/lastmile_qr_scan"}, "lon": -77.0052345, "type": "electric_scooter"}, {"bike_id": "70e3840f96e88586557a67d0d485f270", "is_reserved": 0, "fusion_lon": 0.0, "lat": 38.884923, "is_disabled": 0, "name": "70e3840f96e88586557a67d0d485f270", "fusion_lat": 0.0, "rental_uris": {"ios": "https://dc.lft.to/lastmile_qr_scan", "android": "https://dc.lft.to/lastmile_qr_scan"}, "lon": -77.0072785, "type": "electric_scooter"}, {"bike_id": "53e87ee740c8ecff077904b744242175", "is_reserved": 0, "fusion_lon": 0.0, "lat": 38.90366, "is_disabled": 0, "name": "53e87ee740c8ecff077904b744242175", "fusion_lat": 0.0, "rental_uris": {"ios": "https://dc.lft.to/lastmile_qr_scan", "android": "https://dc.lft.to/lastmile_qr_scan"}, "lon": -77.0319735, "type": "electric_scooter"}, {"bike_id": "a317c67d424ccc26ac14522fb42924b2", "is_reserved": 0, "fusion_lon": 0.0, "lat": 38.926541, "is_disabled": 0, "name": "a317c67d424ccc26ac14522fb42924b2", "fusion_lat": 0.0, "rental_uris": {"ios": "https://dc.lft.to/lastmile_qr_scan", "android": "https://dc.lft.to/lastmile_qr_scan"}, "lon": -77.037072, "type": "electric_scooter"}, {"bike_id": "7123eeac7b8a205b8904130bbbd385c2", "is_reserved": 0, "fusion_lon": 0.0, "lat": 38.932502166666666, "is_disabled": 0, "name": "7123eeac7b8a205b8904130bbbd385c2", "fusion_lat": 0.0, "rental_uris": {"ios": "https://dc.lft.to/lastmile_qr_scan", "android": "https://dc.lft.to/lastmile_qr_scan"}, "lon": -77.0327635, "type": "electric_scooter"}, {"bike_id": "183bf5e8af4e315f13e006ee2f830b11", "is_reserved": 0, "fusion_lon": 0.0, "lat": 38.86241183333333, "is_disabled": 0, "name": "183bf5e8af4e315f13e006ee2f830b11", "fusion_lat": 0.0, "rental_uris": {"ios": "https://dc.lft.to/lastmile_qr_scan", "android": "https://dc.lft.to/lastmile_qr_scan"}, "lon": -76.99493216666667, "type": "electric_scooter"}, {"bike_id": "6e00bf6a78d670a2c9ec7cf32c669d9b", "is_reserved": 0, "fusion_lon": 0.0, "lat": 38.9590795, "is_disabled": 0, "name": "6e00bf6a78d670a2c9ec7cf32c669d9b", "fusion_lat": 0.0, "rental_uris": {"ios": "https://dc.lft.to/lastmile_qr_scan", "android": "https://dc.lft.to/lastmile_qr_scan"}, "lon": -77.08078266666666, "type": "electric_scooter"}, {"bike_id": "fdb4f7d9d678e139c318d9234c865624", "is_reserved": 0, "fusion_lon": 0.0, "lat": 38.9021865, "is_disabled": 0, "name": "fdb4f7d9d678e139c318d9234c865624", "fusion_lat": 0.0, "rental_uris": {"ios": "https://dc.lft.to/lastmile_qr_scan", "android": "https://dc.lft.to/lastmile_qr_scan"}, "lon": -77.02174366666667, "type": "electric_scooter"}, {"bike_id": "8670afeaf1c6ae1092e91ac07049dc1e", "is_reserved": 0, "fusion_lon": 0.0, "lat": 38.917999333333334, "is_disabled": 0, "name": "8670afeaf1c6ae1092e91ac07049dc1e", "fusion_lat": 0.0, "rental_uris": {"ios": "https://dc.lft.to/lastmile_qr_scan", "android": "https://dc.lft.to/lastmile_qr_scan"}, "lon": -77.0344185, "type": "electric_scooter"}, {"bike_id": "d7f2fcd30852571fe19d08982ad07fd2", "is_reserved": 0, "fusion_lon": 0.0, "lat": 38.93403383333333, "is_disabled": 0, "name": "d7f2fcd30852571fe19d08982ad07fd2", "fusion_lat": 0.0, "rental_uris": {"ios": "https://dc.lft.to/lastmile_qr_scan", "android": "https://dc.lft.to/lastmile_qr_scan"}, "lon": -77.0388825, "type": "electric_scooter"}, {"bike_id": "8b9dc69d62e3fcb18acf31b91b1e8bfd", "is_reserved": 0, "fusion_lon": 0.0, "lat": 38.91579933333333, "is_disabled": 0, "name": "8b9dc69d62e3fcb18acf31b91b1e8bfd", "fusion_lat": 0.0, "rental_uris": {"ios": "https://dc.lft.to/lastmile_qr_scan", "android": "https://dc.lft.to/lastmile_qr_scan"}, "lon": -77.04679816666666, "type": "electric_scooter"}, {"bike_id": "c9921aa59bac23d118333506ea4c97ac", "is_reserved": 0, "fusion_lon": 0.0, "lat": 38.93163633333333, "is_disabled": 0, "name": "c9921aa59bac23d118333506ea4c97ac", "fusion_lat": 0.0, "rental_uris": {"ios": "https://dc.lft.to/lastmile_qr_scan", "android": "https://dc.lft.to/lastmile_qr_scan"}, "lon": -77.036265, "type": "electric_scooter"}, {"bike_id": "3d00aa4b33e9602bc33cd455e5f7ba1a", "is_reserved": 0, "fusion_lon": 0.0, "lat": 38.90328, "is_disabled": 0, "name": "3d00aa4b33e9602bc33cd455e5f7ba1a", "fusion_lat": 0.0, "rental_uris": {"ios": "https://dc.lft.to/lastmile_qr_scan", "android": "https://dc.lft.to/lastmile_qr_scan"}, "lon": -77.03844166666667, "type": "electric_scooter"}, {"bike_id": "980065fab501e22b64031f14e3e445de", "is_reserved": 0, "fusion_lon": 0.0, "lat": 38.9196325, "is_disabled": 0, "name": "980065fab501e22b64031f14e3e445de", "fusion_lat": 0.0, "rental_uris": {"ios": "https://dc.lft.to/lastmile_qr_scan", "android": "https://dc.lft.to/lastmile_qr_scan"}, "lon": -76.9726435, "type": "electric_bike"}, {"bike_id": "882d5b1e4353ef1761cc3414836bb1ad", "is_reserved": 0, "fusion_lon": 0.0, "lat": 38.9056115, "is_disabled": 0, "name": "882d5b1e4353ef1761cc3414836bb1ad", "fusion_lat": 0.0, "rental_uris": {"ios": "https://dc.lft.to/lastmile_qr_scan", "android": "https://dc.lft.to/lastmile_qr_scan"}, "lon": -77.0056695, "type": "electric_scooter"}, {"bike_id": "29aca72a23bcc1ecb4bcb77ed1310e43", "is_reserved": 0, "fusion_lon": 0.0, "lat": 38.90216866666667, "is_disabled": 0, "name": "29aca72a23bcc1ecb4bcb77ed1310e43", "fusion_lat": 0.0, "rental_uris": {"ios": "https://dc.lft.to/lastmile_qr_scan", "android": "https://dc.lft.to/lastmile_qr_scan"}, "lon": -76.94593, "type": "electric_scooter"}, {"bike_id": "dc1acbe2a0cf274c220f10a7bbecf60c", "is_reserved": 0, "fusion_lon": 0.0, "lat": 38.94938616666666, "is_disabled": 0, "name": "dc1acbe2a0cf274c220f10a7bbecf60c", "fusion_lat": 0.0, "rental_uris": {"ios": "https://dc.lft.to/lastmile_qr_scan", "android": "https://dc.lft.to/lastmile_qr_scan"}, "lon": -77.0161235, "type": "electric_scooter"}, {"bike_id": "2d51c1290ab1fb1df61bcbe8e4daf183", "is_reserved": 0, "fusion_lon": 0.0, "lat": 38.9058175, "is_disabled": 0, "name": "2d51c1290ab1fb1df61bcbe8e4daf183", "fusion_lat": 0.0, "rental_uris": {"ios": "https://dc.lft.to/lastmile_qr_scan", "android": "https://dc.lft.to/lastmile_qr_scan"}, "lon": -77.04680466666667, "type": "electric_scooter"}, {"bike_id": "a4abe59c6a6fa3b39b548f8d3e3a8fc4", "is_reserved": 0, "fusion_lon": 0.0, "lat": 38.95528683333333, "is_disabled": 0, "name": "a4abe59c6a6fa3b39b548f8d3e3a8fc4", "fusion_lat": 0.0, "rental_uris": {"ios": "https://dc.lft.to/lastmile_qr_scan", "android": "https://dc.lft.to/lastmile_qr_scan"}, "lon": -77.0241705, "type": "electric_bike"}, {"bike_id": "4f3c8550766700c0ac0eb29a5aa6e03b", "is_reserved": 0, "fusion_lon": 0.0, "lat": 38.862033, "is_disabled": 0, "name": "4f3c8550766700c0ac0eb29a5aa6e03b", "fusion_lat": 0.0, "rental_uris": {"ios": "https://dc.lft.to/lastmile_qr_scan", "android": "https://dc.lft.to/lastmile_qr_scan"}, "lon": -76.99465733333334, "type": "electric_scooter"}, {"bike_id": "4e9edfd698913e95ff23d2c59772ca68", "is_reserved": 0, "fusion_lon": 0.0, "lat": 38.92950616666667, "is_disabled": 0, "name": "4e9edfd698913e95ff23d2c59772ca68", "fusion_lat": 0.0, "rental_uris": {"ios": "https://dc.lft.to/lastmile_qr_scan", "android": "https://dc.lft.to/lastmile_qr_scan"}, "lon": -77.225719, "type": "electric_bike"}, {"bike_id": "3479d51f463f4b364f9743f8304bb287", "is_reserved": 0, "fusion_lon": 0.0, "lat": 38.93145466666667, "is_disabled": 0, "name": "3479d51f463f4b364f9743f8304bb287", "fusion_lat": 0.0, "rental_uris": {"ios": "https://dc.lft.to/lastmile_qr_scan", "android": "https://dc.lft.to/lastmile_qr_scan"}, "lon": -77.05709683333333, "type": "electric_scooter"}, {"bike_id": "2ac6b3f12e977068f809dcf56011d195", "is_reserved": 0, "fusion_lon": 0.0, "lat": 38.8848885, "is_disabled": 0, "name": "2ac6b3f12e977068f809dcf56011d195", "fusion_lat": 0.0, "rental_uris": {"ios": "https://dc.lft.to/lastmile_qr_scan", "android": "https://dc.lft.to/lastmile_qr_scan"}, "lon": -77.0347415, "type": "electric_scooter"}, {"bike_id": "249ea81de6d955402d0dd5e45e841ae6", "is_reserved": 0, "fusion_lon": 0.0, "lat": 38.9121875, "is_disabled": 0, "name": "249ea81de6d955402d0dd5e45e841ae6", "fusion_lat": 0.0, "rental_uris": {"ios": "https://dc.lft.to/lastmile_qr_scan", "android": "https://dc.lft.to/lastmile_qr_scan"}, "lon": -77.02799616666667, "type": "electric_scooter"}, {"bike_id": "7454e4298f5be074800252717ffc8be4", "is_reserved": 0, "fusion_lon": 0.0, "lat": 38.8990065, "is_disabled": 0, "name": "7454e4298f5be074800252717ffc8be4", "fusion_lat": 0.0, "rental_uris": {"ios": "https://dc.lft.to/lastmile_qr_scan", "android": "https://dc.lft.to/lastmile_qr_scan"}, "lon": -77.03941883333333, "type": "electric_scooter"}, {"bike_id": "c8928a13f16176ea6f8d3e9e23185e57", "is_reserved": 0, "fusion_lon": 0.0, "lat": 38.89833616666667, "is_disabled": 0, "name": "c8928a13f16176ea6f8d3e9e23185e57", "fusion_lat": 0.0, "rental_uris": {"ios": "https://dc.lft.to/lastmile_qr_scan", "android": "https://dc.lft.to/lastmile_qr_scan"}, "lon": -76.9463345, "type": "electric_scooter"}, {"bike_id": "b7a374656edd5bab8c8d82c6f20be2c1", "is_reserved": 0, "fusion_lon": 0.0, "lat": 38.8666585, "is_disabled": 0, "name": "b7a374656edd5bab8c8d82c6f20be2c1", "fusion_lat": 0.0, "rental_uris": {"ios": "https://dc.lft.to/lastmile_qr_scan", "android": "https://dc.lft.to/lastmile_qr_scan"}, "lon": -76.98905583333334, "type": "electric_scooter"}, {"bike_id": "00dc3cb675e08750d98c3bd10353ff2c", "is_reserved": 0, "fusion_lon": 0.0, "lat": 38.93114966666667, "is_disabled": 0, "name": "00dc3cb675e08750d98c3bd10353ff2c", "fusion_lat": 0.0, "rental_uris": {"ios": "https://dc.lft.to/lastmile_qr_scan", "android": "https://dc.lft.to/lastmile_qr_scan"}, "lon": -77.02139866666667, "type": "electric_scooter"}, {"bike_id": "c50241034285f77ea8138ca6a342a0a8", "is_reserved": 0, "fusion_lon": 0.0, "lat": 38.89013883333333, "is_disabled": 0, "name": "c50241034285f77ea8138ca6a342a0a8", "fusion_lat": 0.0, "rental_uris": {"ios": "https://dc.lft.to/lastmile_qr_scan", "android": "https://dc.lft.to/lastmile_qr_scan"}, "lon": -76.93738366666666, "type": "electric_scooter"}, {"bike_id": "275a43b33811dc9764b01a555c8b4fea", "is_reserved": 0, "fusion_lon": 0.0, "lat": 38.91884566666667, "is_disabled": 0, "name": "275a43b33811dc9764b01a555c8b4fea", "fusion_lat": 0.0, "rental_uris": {"ios": "https://dc.lft.to/lastmile_qr_scan", "android": "https://dc.lft.to/lastmile_qr_scan"}, "lon": -77.044558, "type": "electric_scooter"}, {"bike_id": "537c8f4ee0bfcc647c4b481cacc5e967", "is_reserved": 0, "fusion_lon": 0.0, "lat": 38.905011, "is_disabled": 0, "name": "537c8f4ee0bfcc647c4b481cacc5e967", "fusion_lat": 0.0, "rental_uris": {"ios": "https://dc.lft.to/lastmile_qr_scan", "android": "https://dc.lft.to/lastmile_qr_scan"}, "lon": -77.04340233333333, "type": "electric_scooter"}, {"bike_id": "85d8d735035a91bece92595471b90e62", "is_reserved": 0, "fusion_lon": 0.0, "lat": 38.89062533333333, "is_disabled": 0, "name": "85d8d735035a91bece92595471b90e62", "fusion_lat": 0.0, "rental_uris": {"ios": "https://dc.lft.to/lastmile_qr_scan", "android": "https://dc.lft.to/lastmile_qr_scan"}, "lon": -77.0230105, "type": "electric_scooter"}, {"bike_id": "c58ac1aac565f1bdbc46bb5ff350e2f4", "is_reserved": 0, "fusion_lon": 0.0, "lat": 38.964897666666666, "is_disabled": 0, "name": "c58ac1aac565f1bdbc46bb5ff350e2f4", "fusion_lat": 0.0, "rental_uris": {"ios": "https://dc.lft.to/lastmile_qr_scan", "android": "https://dc.lft.to/lastmile_qr_scan"}, "lon": -77.06491766666667, "type": "electric_bike"}, {"bike_id": "f516a1def6e37d13628150ea2ddc04f2", "is_reserved": 0, "fusion_lon": 0.0, "lat": 38.909434833333336, "is_disabled": 0, "name": "f516a1def6e37d13628150ea2ddc04f2", "fusion_lat": 0.0, "rental_uris": {"ios": "https://dc.lft.to/lastmile_qr_scan", "android": "https://dc.lft.to/lastmile_qr_scan"}, "lon": -76.999119, "type": "electric_scooter"}, {"bike_id": "09ba30284d27aa3b90852174fdfc870b", "is_reserved": 0, "fusion_lon": 0.0, "lat": 38.910298166666664, "is_disabled": 0, "name": "09ba30284d27aa3b90852174fdfc870b", "fusion_lat": 0.0, "rental_uris": {"ios": "https://dc.lft.to/lastmile_qr_scan", "android": "https://dc.lft.to/lastmile_qr_scan"}, "lon": -77.04389233333333, "type": "electric_scooter"}, {"bike_id": "43e4a82bfdb7a7d3f1a944cf28f78a67", "is_reserved": 0, "fusion_lon": 0.0, "lat": 38.884357666666666, "is_disabled": 0, "name": "43e4a82bfdb7a7d3f1a944cf28f78a67", "fusion_lat": 0.0, "rental_uris": {"ios": "https://dc.lft.to/lastmile_qr_scan", "android": "https://dc.lft.to/lastmile_qr_scan"}, "lon": -76.95758133333334, "type": "electric_scooter"}, {"bike_id": "c95a7998cd4ecfa2667239c6d338ddf9", "is_reserved": 0, "fusion_lon": 0.0, "lat": 38.902816333333334, "is_disabled": 0, "name": "c95a7998cd4ecfa2667239c6d338ddf9", "fusion_lat": 0.0, "rental_uris": {"ios": "https://dc.lft.to/lastmile_qr_scan", "android": "https://dc.lft.to/lastmile_qr_scan"}, "lon": -77.03466933333333, "type": "electric_scooter"}, {"bike_id": "796c350a29b8f1432ea4d850d7e1d60e", "is_reserved": 0, "fusion_lon": 0.0, "lat": 38.909789833333335, "is_disabled": 0, "name": "796c350a29b8f1432ea4d850d7e1d60e", "fusion_lat": 0.0, "rental_uris": {"ios": "https://dc.lft.to/lastmile_qr_scan", "android": "https://dc.lft.to/lastmile_qr_scan"}, "lon": -77.04872683333333, "type": "electric_scooter"}, {"bike_id": "b76aec971f5f7015872d40470ac641ce", "is_reserved": 0, "fusion_lon": 0.0, "lat": 38.86830366666667, "is_disabled": 0, "name": "b76aec971f5f7015872d40470ac641ce", "fusion_lat": 0.0, "rental_uris": {"ios": "https://dc.lft.to/lastmile_qr_scan", "android": "https://dc.lft.to/lastmile_qr_scan"}, "lon": -76.98612716666666, "type": "electric_scooter"}, {"bike_id": "e3a37d82163155e6f45a98e102dccccc", "is_reserved": 0, "fusion_lon": 0.0, "lat": 38.88020866666667, "is_disabled": 0, "name": "e3a37d82163155e6f45a98e102dccccc", "fusion_lat": 0.0, "rental_uris": {"ios": "https://dc.lft.to/lastmile_qr_scan", "android": "https://dc.lft.to/lastmile_qr_scan"}, "lon": -77.002475, "type": "electric_scooter"}, {"bike_id": "b3f4928d7e7770e0ef0a16687c5c958b", "is_reserved": 0, "fusion_lon": 0.0, "lat": 38.907061666666664, "is_disabled": 0, "name": "b3f4928d7e7770e0ef0a16687c5c958b", "fusion_lat": 0.0, "rental_uris": {"ios": "https://dc.lft.to/lastmile_qr_scan", "android": "https://dc.lft.to/lastmile_qr_scan"}, "lon": -76.98697233333333, "type": "electric_scooter"}, {"bike_id": "897791e0dba61c21d11ed490a6aa95f1", "is_reserved": 0, "fusion_lon": 0.0, "lat": 38.904453833333335, "is_disabled": 0, "name": "897791e0dba61c21d11ed490a6aa95f1", "fusion_lat": 0.0, "rental_uris": {"ios": "https://dc.lft.to/lastmile_qr_scan", "android": "https://dc.lft.to/lastmile_qr_scan"}, "lon": -77.03992033333333, "type": "electric_scooter"}, {"bike_id": "f092c274ff10c0d96af60f6bfaf1eace", "is_reserved": 0, "fusion_lon": 0.0, "lat": 38.892249, "is_disabled": 0, "name": "f092c274ff10c0d96af60f6bfaf1eace", "fusion_lat": 0.0, "rental_uris": {"ios": "https://dc.lft.to/lastmile_qr_scan", "android": "https://dc.lft.to/lastmile_qr_scan"}, "lon": -77.02176633333333, "type": "electric_scooter"}, {"bike_id": "57e65c8b9af20f5ae88b41e142eb70a1", "is_reserved": 0, "fusion_lon": 0.0, "lat": 39.056348666666665, "is_disabled": 0, "name": "57e65c8b9af20f5ae88b41e142eb70a1", "fusion_lat": 0.0, "rental_uris": {"ios": "https://dc.lft.to/lastmile_qr_scan", "android": "https://dc.lft.to/lastmile_qr_scan"}, "lon": -77.12529166666667, "type": "electric_bike"}, {"bike_id": "84d2759108f6ff3712489edad6e0c1b8", "is_reserved": 0, "fusion_lon": 0.0, "lat": 38.945321166666666, "is_disabled": 0, "name": "84d2759108f6ff3712489edad6e0c1b8", "fusion_lat": 0.0, "rental_uris": {"ios": "https://dc.lft.to/lastmile_qr_scan", "android": "https://dc.lft.to/lastmile_qr_scan"}, "lon": -77.02211383333334, "type": "electric_scooter"}, {"bike_id": "a0c02e4ad78b03607ca046d30cb61de9", "is_reserved": 0, "fusion_lon": 0.0, "lat": 38.93238316666667, "is_disabled": 0, "name": "a0c02e4ad78b03607ca046d30cb61de9", "fusion_lat": 0.0, "rental_uris": {"ios": "https://dc.lft.to/lastmile_qr_scan", "android": "https://dc.lft.to/lastmile_qr_scan"}, "lon": -77.02831516666667, "type": "electric_scooter"}, {"bike_id": "14f0e0e03dae72133b6413f7fbcb58dc", "is_reserved": 0, "fusion_lon": 0.0, "lat": 38.90651733333333, "is_disabled": 0, "name": "14f0e0e03dae72133b6413f7fbcb58dc", "fusion_lat": 0.0, "rental_uris": {"ios": "https://dc.lft.to/lastmile_qr_scan", "android": "https://dc.lft.to/lastmile_qr_scan"}, "lon": -77.04665933333334, "type": "electric_scooter"}, {"bike_id": "a1d0084fe08ec0bcda9e2f4325a218dd", "is_reserved": 0, "fusion_lon": 0.0, "lat": 38.90469733333333, "is_disabled": 0, "name": "a1d0084fe08ec0bcda9e2f4325a218dd", "fusion_lat": 0.0, "rental_uris": {"ios": "https://dc.lft.to/lastmile_qr_scan", "android": "https://dc.lft.to/lastmile_qr_scan"}, "lon": -77.02939383333333, "type": "electric_scooter"}, {"bike_id": "e9fdbddf3a7a801c5eb73daf2b338676", "is_reserved": 0, "fusion_lon": 0.0, "lat": 38.8922, "is_disabled": 0, "name": "e9fdbddf3a7a801c5eb73daf2b338676", "fusion_lat": 0.0, "rental_uris": {"ios": "https://dc.lft.to/lastmile_qr_scan", "android": "https://dc.lft.to/lastmile_qr_scan"}, "lon": -77.032213, "type": "electric_scooter"}, {"bike_id": "fdeeac336d13a6b0dc68ac0ba0cc245c", "is_reserved": 0, "fusion_lon": 0.0, "lat": 38.9246515, "is_disabled": 0, "name": "fdeeac336d13a6b0dc68ac0ba0cc245c", "fusion_lat": 0.0, "rental_uris": {"ios": "https://dc.lft.to/lastmile_qr_scan", "android": "https://dc.lft.to/lastmile_qr_scan"}, "lon": -77.20835116666667, "type": "electric_bike"}, {"bike_id": "3af5430d81397aa94ea26b0a15a21440", "is_reserved": 0, "fusion_lon": 0.0, "lat": 38.905707666666665, "is_disabled": 0, "name": "3af5430d81397aa94ea26b0a15a21440", "fusion_lat": 0.0, "rental_uris": {"ios": "https://dc.lft.to/lastmile_qr_scan", "android": "https://dc.lft.to/lastmile_qr_scan"}, "lon": -77.00432866666667, "type": "electric_scooter"}, {"bike_id": "5ebeb57b33ecfe7d7c579d89e26b48ec", "is_reserved": 0, "fusion_lon": 0.0, "lat": 38.880443666666665, "is_disabled": 0, "name": "5ebeb57b33ecfe7d7c579d89e26b48ec", "fusion_lat": 0.0, "rental_uris": {"ios": "https://dc.lft.to/lastmile_qr_scan", "android": "https://dc.lft.to/lastmile_qr_scan"}, "lon": -76.9272015, "type": "electric_scooter"}, {"bike_id": "67aff65a774de365c43438db2e287db0", "is_reserved": 0, "fusion_lon": 0.0, "lat": 38.93432883333333, "is_disabled": 0, "name": "67aff65a774de365c43438db2e287db0", "fusion_lat": 0.0, "rental_uris": {"ios": "https://dc.lft.to/lastmile_qr_scan", "android": "https://dc.lft.to/lastmile_qr_scan"}, "lon": -77.03412016666667, "type": "electric_scooter"}, {"bike_id": "f1f4289f464576a020462eec8cddd9e8", "is_reserved": 0, "fusion_lon": 0.0, "lat": 38.924403166666664, "is_disabled": 0, "name": "f1f4289f464576a020462eec8cddd9e8", "fusion_lat": 0.0, "rental_uris": {"ios": "https://dc.lft.to/lastmile_qr_scan", "android": "https://dc.lft.to/lastmile_qr_scan"}, "lon": -77.034044, "type": "electric_scooter"}, {"bike_id": "adf720a07f7ade42f68a535ceb4f12ab", "is_reserved": 0, "fusion_lon": 0.0, "lat": 38.93587083333333, "is_disabled": 0, "name": "adf720a07f7ade42f68a535ceb4f12ab", "fusion_lat": 0.0, "rental_uris": {"ios": "https://dc.lft.to/lastmile_qr_scan", "android": "https://dc.lft.to/lastmile_qr_scan"}, "lon": -77.023384, "type": "electric_scooter"}, {"bike_id": "0b9a13d5894630514f4ed084eea21448", "is_reserved": 0, "fusion_lon": 0.0, "lat": 38.903453, "is_disabled": 0, "name": "0b9a13d5894630514f4ed084eea21448", "fusion_lat": 0.0, "rental_uris": {"ios": "https://dc.lft.to/lastmile_qr_scan", "android": "https://dc.lft.to/lastmile_qr_scan"}, "lon": -77.03185816666667, "type": "electric_scooter"}, {"bike_id": "918a9d4960b6ddc52535e87c34565f42", "is_reserved": 0, "fusion_lon": 0.0, "lat": 38.90274633333333, "is_disabled": 0, "name": "918a9d4960b6ddc52535e87c34565f42", "fusion_lat": 0.0, "rental_uris": {"ios": "https://dc.lft.to/lastmile_qr_scan", "android": "https://dc.lft.to/lastmile_qr_scan"}, "lon": -77.0345, "type": "electric_scooter"}, {"bike_id": "aa7686b51b636929ff368997508a6400", "is_reserved": 0, "fusion_lon": 0.0, "lat": 38.897824166666666, "is_disabled": 0, "name": "aa7686b51b636929ff368997508a6400", "fusion_lat": 0.0, "rental_uris": {"ios": "https://dc.lft.to/lastmile_qr_scan", "android": "https://dc.lft.to/lastmile_qr_scan"}, "lon": -76.99961966666666, "type": "electric_bike"}, {"bike_id": "ea32a738996aa9875ea946afb4ac9156", "is_reserved": 0, "fusion_lon": 0.0, "lat": 38.924743166666666, "is_disabled": 0, "name": "ea32a738996aa9875ea946afb4ac9156", "fusion_lat": 0.0, "rental_uris": {"ios": "https://dc.lft.to/lastmile_qr_scan", "android": "https://dc.lft.to/lastmile_qr_scan"}, "lon": -77.05212283333333, "type": "electric_scooter"}, {"bike_id": "af800931f0df9de5e95beb5ecd15cd66", "is_reserved": 0, "fusion_lon": 0.0, "lat": 38.85806783333334, "is_disabled": 0, "name": "af800931f0df9de5e95beb5ecd15cd66", "fusion_lat": 0.0, "rental_uris": {"ios": "https://dc.lft.to/lastmile_qr_scan", "android": "https://dc.lft.to/lastmile_qr_scan"}, "lon": -76.98654416666666, "type": "electric_scooter"}, {"bike_id": "5cfd57819d2dfdb333a5339f21e4d377", "is_reserved": 0, "fusion_lon": 0.0, "lat": 38.90539, "is_disabled": 0, "name": "5cfd57819d2dfdb333a5339f21e4d377", "fusion_lat": 0.0, "rental_uris": {"ios": "https://dc.lft.to/lastmile_qr_scan", "android": "https://dc.lft.to/lastmile_qr_scan"}, "lon": -77.050319, "type": "electric_scooter"}, {"bike_id": "62af782f68c7c798cc8bcc79b740b681", "is_reserved": 0, "fusion_lon": 0.0, "lat": 38.911544666666664, "is_disabled": 0, "name": "62af782f68c7c798cc8bcc79b740b681", "fusion_lat": 0.0, "rental_uris": {"ios": "https://dc.lft.to/lastmile_qr_scan", "android": "https://dc.lft.to/lastmile_qr_scan"}, "lon": -77.04179016666667, "type": "electric_scooter"}, {"bike_id": "d6a40651f68b52521cb2237d95f9bada", "is_reserved": 0, "fusion_lon": 0.0, "lat": 38.9554735, "is_disabled": 0, "name": "d6a40651f68b52521cb2237d95f9bada", "fusion_lat": 0.0, "rental_uris": {"ios": "https://dc.lft.to/lastmile_qr_scan", "android": "https://dc.lft.to/lastmile_qr_scan"}, "lon": -76.93542733333334, "type": "electric_bike"}, {"bike_id": "65dcfab7f2f4943644fbe58ad4e5011f", "is_reserved": 0, "fusion_lon": 0.0, "lat": 38.920123, "is_disabled": 0, "name": "65dcfab7f2f4943644fbe58ad4e5011f", "fusion_lat": 0.0, "rental_uris": {"ios": "https://dc.lft.to/lastmile_qr_scan", "android": "https://dc.lft.to/lastmile_qr_scan"}, "lon": -77.04178516666667, "type": "electric_scooter"}, {"bike_id": "984171d1417b27f2eea0bb8e660da2d4", "is_reserved": 0, "fusion_lon": 0.0, "lat": 38.90710083333333, "is_disabled": 0, "name": "984171d1417b27f2eea0bb8e660da2d4", "fusion_lat": 0.0, "rental_uris": {"ios": "https://dc.lft.to/lastmile_qr_scan", "android": "https://dc.lft.to/lastmile_qr_scan"}, "lon": -76.99799366666667, "type": "electric_scooter"}, {"bike_id": "83edfe3efecdae8ed43808b82ad198ac", "is_reserved": 0, "fusion_lon": 0.0, "lat": 38.891905333333334, "is_disabled": 0, "name": "83edfe3efecdae8ed43808b82ad198ac", "fusion_lat": 0.0, "rental_uris": {"ios": "https://dc.lft.to/lastmile_qr_scan", "android": "https://dc.lft.to/lastmile_qr_scan"}, "lon": -77.1226235, "type": "electric_bike"}, {"bike_id": "b5e00da026205114477ec322aeea49ea", "is_reserved": 0, "fusion_lon": 0.0, "lat": 38.91646883333333, "is_disabled": 0, "name": "b5e00da026205114477ec322aeea49ea", "fusion_lat": 0.0, "rental_uris": {"ios": "https://dc.lft.to/lastmile_qr_scan", "android": "https://dc.lft.to/lastmile_qr_scan"}, "lon": -77.0320815, "type": "electric_scooter"}, {"bike_id": "d9a40cba96233d9e81359fed6ca5f349", "is_reserved": 0, "fusion_lon": 0.0, "lat": 38.90957616666667, "is_disabled": 0, "name": "d9a40cba96233d9e81359fed6ca5f349", "fusion_lat": 0.0, "rental_uris": {"ios": "https://dc.lft.to/lastmile_qr_scan", "android": "https://dc.lft.to/lastmile_qr_scan"}, "lon": -77.04824, "type": "electric_scooter"}, {"bike_id": "8c84ec330593dd1a7b7e10ceee306e93", "is_reserved": 0, "fusion_lon": 0.0, "lat": 38.904299, "is_disabled": 0, "name": "8c84ec330593dd1a7b7e10ceee306e93", "fusion_lat": 0.0, "rental_uris": {"ios": "https://dc.lft.to/lastmile_qr_scan", "android": "https://dc.lft.to/lastmile_qr_scan"}, "lon": -77.046682, "type": "electric_scooter"}, {"bike_id": "34ca89d93d67dcc1348cdc9d97216c32", "is_reserved": 0, "fusion_lon": 0.0, "lat": 38.90335916666667, "is_disabled": 0, "name": "34ca89d93d67dcc1348cdc9d97216c32", "fusion_lat": 0.0, "rental_uris": {"ios": "https://dc.lft.to/lastmile_qr_scan", "android": "https://dc.lft.to/lastmile_qr_scan"}, "lon": -77.025853, "type": "electric_scooter"}, {"bike_id": "8771c494da7fe3f530d1d46a67c9474c", "is_reserved": 0, "fusion_lon": 0.0, "lat": 38.902322, "is_disabled": 0, "name": "8771c494da7fe3f530d1d46a67c9474c", "fusion_lat": 0.0, "rental_uris": {"ios": "https://dc.lft.to/lastmile_qr_scan", "android": "https://dc.lft.to/lastmile_qr_scan"}, "lon": -76.97408033333333, "type": "electric_scooter"}, {"bike_id": "256796aef6e2a12c3d0598dbb8b87d2d", "is_reserved": 0, "fusion_lon": 0.0, "lat": 38.861641, "is_disabled": 0, "name": "256796aef6e2a12c3d0598dbb8b87d2d", "fusion_lat": 0.0, "rental_uris": {"ios": "https://dc.lft.to/lastmile_qr_scan", "android": "https://dc.lft.to/lastmile_qr_scan"}, "lon": -77.13094716666667, "type": "electric_bike"}, {"bike_id": "2fecd00575e6859c9084c52ca51870b4", "is_reserved": 0, "fusion_lon": 0.0, "lat": 38.9041225, "is_disabled": 0, "name": "2fecd00575e6859c9084c52ca51870b4", "fusion_lat": 0.0, "rental_uris": {"ios": "https://dc.lft.to/lastmile_qr_scan", "android": "https://dc.lft.to/lastmile_qr_scan"}, "lon": -77.029587, "type": "electric_scooter"}, {"bike_id": "0aea90d69ffa52cab0bd25b6a4d50b81", "is_reserved": 0, "fusion_lon": 0.0, "lat": 38.909655666666666, "is_disabled": 0, "name": "0aea90d69ffa52cab0bd25b6a4d50b81", "fusion_lat": 0.0, "rental_uris": {"ios": "https://dc.lft.to/lastmile_qr_scan", "android": "https://dc.lft.to/lastmile_qr_scan"}, "lon": -77.02724866666667, "type": "electric_scooter"}, {"bike_id": "bb389ea1c767f88ffceee27804131e36", "is_reserved": 0, "fusion_lon": 0.0, "lat": 38.896187166666664, "is_disabled": 0, "name": "bb389ea1c767f88ffceee27804131e36", "fusion_lat": 0.0, "rental_uris": {"ios": "https://dc.lft.to/lastmile_qr_scan", "android": "https://dc.lft.to/lastmile_qr_scan"}, "lon": -76.9957305, "type": "electric_scooter"}, {"bike_id": "523d4916b8b2c590846c12bf2853090a", "is_reserved": 0, "fusion_lon": 0.0, "lat": 38.925836, "is_disabled": 0, "name": "523d4916b8b2c590846c12bf2853090a", "fusion_lat": 0.0, "rental_uris": {"ios": "https://dc.lft.to/lastmile_qr_scan", "android": "https://dc.lft.to/lastmile_qr_scan"}, "lon": -77.00464983333333, "type": "electric_scooter"}, {"bike_id": "a8205c065b3e83f6abab32a97fbd0b3e", "is_reserved": 0, "fusion_lon": 0.0, "lat": 38.892218166666666, "is_disabled": 0, "name": "a8205c065b3e83f6abab32a97fbd0b3e", "fusion_lat": 0.0, "rental_uris": {"ios": "https://dc.lft.to/lastmile_qr_scan", "android": "https://dc.lft.to/lastmile_qr_scan"}, "lon": -77.03341683333333, "type": "electric_scooter"}, {"bike_id": "d329db0c1a7900c97f64616c1642737e", "is_reserved": 0, "fusion_lon": 0.0, "lat": 38.913353666666666, "is_disabled": 0, "name": "d329db0c1a7900c97f64616c1642737e", "fusion_lat": 0.0, "rental_uris": {"ios": "https://dc.lft.to/lastmile_qr_scan", "android": "https://dc.lft.to/lastmile_qr_scan"}, "lon": -77.03443566666667, "type": "electric_scooter"}, {"bike_id": "b686da1a8ffd0cd49eaf7c2de20067b8", "is_reserved": 0, "fusion_lon": 0.0, "lat": 38.967621, "is_disabled": 0, "name": "b686da1a8ffd0cd49eaf7c2de20067b8", "fusion_lat": 0.0, "rental_uris": {"ios": "https://dc.lft.to/lastmile_qr_scan", "android": "https://dc.lft.to/lastmile_qr_scan"}, "lon": -77.09162083333334, "type": "electric_bike"}, {"bike_id": "ab1ddea3f77db0addfa39605500c0c1f", "is_reserved": 0, "fusion_lon": 0.0, "lat": 38.905603, "is_disabled": 0, "name": "ab1ddea3f77db0addfa39605500c0c1f", "fusion_lat": 0.0, "rental_uris": {"ios": "https://dc.lft.to/lastmile_qr_scan", "android": "https://dc.lft.to/lastmile_qr_scan"}, "lon": -77.044536, "type": "electric_scooter"}, {"bike_id": "0b14bc5c015333bf1b06c94f5dc01481", "is_reserved": 0, "fusion_lon": 0.0, "lat": 38.895396833333336, "is_disabled": 0, "name": "0b14bc5c015333bf1b06c94f5dc01481", "fusion_lat": 0.0, "rental_uris": {"ios": "https://dc.lft.to/lastmile_qr_scan", "android": "https://dc.lft.to/lastmile_qr_scan"}, "lon": -76.98081233333333, "type": "electric_scooter"}, {"bike_id": "fbd84fc46a51945b81f947d10b76e9f4", "is_reserved": 0, "fusion_lon": 0.0, "lat": 38.906396, "is_disabled": 0, "name": "fbd84fc46a51945b81f947d10b76e9f4", "fusion_lat": 0.0, "rental_uris": {"ios": "https://dc.lft.to/lastmile_qr_scan", "android": "https://dc.lft.to/lastmile_qr_scan"}, "lon": -77.03870783333333, "type": "electric_scooter"}, {"bike_id": "5d8820e073ff8643c58ca0905b0bcb7b", "is_reserved": 0, "fusion_lon": 0.0, "lat": 38.90345883333333, "is_disabled": 0, "name": "5d8820e073ff8643c58ca0905b0bcb7b", "fusion_lat": 0.0, "rental_uris": {"ios": "https://dc.lft.to/lastmile_qr_scan", "android": "https://dc.lft.to/lastmile_qr_scan"}, "lon": -77.03765933333334, "type": "electric_scooter"}, {"bike_id": "b8d6001a573496aa0032a14c774aaf6e", "is_reserved": 0, "fusion_lon": 0.0, "lat": 38.896168333333335, "is_disabled": 0, "name": "b8d6001a573496aa0032a14c774aaf6e", "fusion_lat": 0.0, "rental_uris": {"ios": "https://dc.lft.to/lastmile_qr_scan", "android": "https://dc.lft.to/lastmile_qr_scan"}, "lon": -77.04802533333333, "type": "electric_scooter"}, {"bike_id": "2dd38e25f5c590bbf90dbf1a2f5c3e10", "is_reserved": 0, "fusion_lon": 0.0, "lat": 38.912669333333334, "is_disabled": 0, "name": "2dd38e25f5c590bbf90dbf1a2f5c3e10", "fusion_lat": 0.0, "rental_uris": {"ios": "https://dc.lft.to/lastmile_qr_scan", "android": "https://dc.lft.to/lastmile_qr_scan"}, "lon": -77.02565966666667, "type": "electric_scooter"}, {"bike_id": "22f115a1471ebf0f21b744edf84c04e2", "is_reserved": 0, "fusion_lon": 0.0, "lat": 38.9330945, "is_disabled": 0, "name": "22f115a1471ebf0f21b744edf84c04e2", "fusion_lat": 0.0, "rental_uris": {"ios": "https://dc.lft.to/lastmile_qr_scan", "android": "https://dc.lft.to/lastmile_qr_scan"}, "lon": -77.02854183333334, "type": "electric_scooter"}, {"bike_id": "099794817f42c03c0ce1afb4949279a2", "is_reserved": 0, "fusion_lon": 0.0, "lat": 38.932398666666664, "is_disabled": 0, "name": "099794817f42c03c0ce1afb4949279a2", "fusion_lat": 0.0, "rental_uris": {"ios": "https://dc.lft.to/lastmile_qr_scan", "android": "https://dc.lft.to/lastmile_qr_scan"}, "lon": -77.03884316666667, "type": "electric_scooter"}, {"bike_id": "06e61c9848981141dc7a9df46532f129", "is_reserved": 0, "fusion_lon": 0.0, "lat": 38.90857333333334, "is_disabled": 0, "name": "06e61c9848981141dc7a9df46532f129", "fusion_lat": 0.0, "rental_uris": {"ios": "https://dc.lft.to/lastmile_qr_scan", "android": "https://dc.lft.to/lastmile_qr_scan"}, "lon": -77.02728233333333, "type": "electric_scooter"}, {"bike_id": "79f0082fca38135d87d33750eea5e32a", "is_reserved": 0, "fusion_lon": 0.0, "lat": 38.93390466666666, "is_disabled": 0, "name": "79f0082fca38135d87d33750eea5e32a", "fusion_lat": 0.0, "rental_uris": {"ios": "https://dc.lft.to/lastmile_qr_scan", "android": "https://dc.lft.to/lastmile_qr_scan"}, "lon": -77.03582433333334, "type": "electric_scooter"}, {"bike_id": "00bf6d9728a85848e10d7ce989c1859c", "is_reserved": 0, "fusion_lon": 0.0, "lat": 38.89231316666667, "is_disabled": 0, "name": "00bf6d9728a85848e10d7ce989c1859c", "fusion_lat": 0.0, "rental_uris": {"ios": "https://dc.lft.to/lastmile_qr_scan", "android": "https://dc.lft.to/lastmile_qr_scan"}, "lon": -77.02208366666666, "type": "electric_scooter"}, {"bike_id": "783d92d060cf8232713b3e23651f49da", "is_reserved": 0, "fusion_lon": 0.0, "lat": 38.905038833333336, "is_disabled": 0, "name": "783d92d060cf8232713b3e23651f49da", "fusion_lat": 0.0, "rental_uris": {"ios": "https://dc.lft.to/lastmile_qr_scan", "android": "https://dc.lft.to/lastmile_qr_scan"}, "lon": -77.0675115, "type": "electric_scooter"}, {"bike_id": "3941a5d377be7f70cf9e2ca53b90b44f", "is_reserved": 0, "fusion_lon": 0.0, "lat": 38.909136333333336, "is_disabled": 0, "name": "3941a5d377be7f70cf9e2ca53b90b44f", "fusion_lat": 0.0, "rental_uris": {"ios": "https://dc.lft.to/lastmile_qr_scan", "android": "https://dc.lft.to/lastmile_qr_scan"}, "lon": -77.0091935, "type": "electric_scooter"},