{"data": {"bikes": [{"name": "e7c5558541db90ffde5c626314a127a9", "type": "electric_scooter", "lat": 38.913357, "is_reserved": 0, "lon": -77.03168666666667, "fusion_lon": 0.0, "is_disabled": 0, "fusion_lat": 0.0, "bike_id": "e7c5558541db90ffde5c626314a127a9", "rental_uris": {"ios": "https://dc.lft.to/lastmile_qr_scan", "android": "https://dc.lft.to/lastmile_qr_scan"}}, {"name": "ddbef0da320630295a8f942b5acae948", "type": "electric_scooter", "lat": 38.919184666666666, "is_reserved": 0, "lon": -77.03426983333334, "fusion_lon": 0.0, "is_disabled": 0, "fusion_lat": 0.0, "bike_id": "ddbef0da320630295a8f942b5acae948", "rental_uris": {"ios": "https://dc.lft.to/lastmile_qr_scan", "android": "https://dc.lft.to/lastmile_qr_scan"}}, {"name": "eb81528fe4ffc35858f5d130615366c9", "type": "electric_scooter", "lat": 38.930661666666666, "is_reserved": 0, "lon": -77.02915666666667, "fusion_lon": 0.0, "is_disabled": 0, "fusion_lat": 0.0, "bike_id": "eb81528fe4ffc35858f5d130615366c9", "rental_uris": {"ios": "https://dc.lft.to/lastmile_qr_scan", "android": "https://dc.lft.to/lastmile_qr_scan"}}, {"name": "bb445b861b3b5a8df0e7ef3da8090b2f", "type": "electric_scooter", "lat": 38.93764216666667, "is_reserved": 0, "lon": -77.02270366666667, "fusion_lon": 0.0, "is_disabled": 0, "fusion_lat": 0.0, "bike_id": "bb445b861b3b5a8df0e7ef3da8090b2f", "rental_uris": {"ios": "https://dc.lft.to/lastmile_qr_scan", "android": "https://dc.lft.to/lastmile_qr_scan"}}, {"name": "fd9ddca3c29bb8d18d2ad38dc5686ff8", "type": "electric_scooter", "lat": 38.898286166666665, "is_reserved": 0, "lon": -76.9465335, "fusion_lon": 0.0, "is_disabled": 0, "fusion_lat": 0.0, "bike_id": "fd9ddca3c29bb8d18d2ad38dc5686ff8", "rental_uris": {"ios": "https://dc.lft.to/lastmile_qr_scan", "android": "https://dc.lft.to/lastmile_qr_scan"}}, {"name": "801d645506a3c04a5a6d580ab3267eaf", "type": "electric_scooter", "lat": 38.924809833333335, "is_reserved": 0, "lon": -77.0288535, "fusion_lon": 0.0, "is_disabled": 0, "fusion_lat": 0.0, "bike_id": "801d645506a3c04a5a6d580ab3267eaf", "rental_uris": {"ios": "https://dc.lft.to/lastmile_qr_scan", "android": "https://dc.lft.to/lastmile_qr_scan"}}, {"name": "6b9b35502c06683bd2aaf97d0d1f9679", "type": "electric_scooter", "lat": 38.90564883333333, "is_reserved": 0, "lon": -77.02172183333333, "fusion_lon": 0.0, "is_disabled": 0, "fusion_lat": 0.0, "bike_id": "6b9b35502c06683bd2aaf97d0d1f9679", "rental_uris": {"ios": "https://dc.lft.to/lastmile_qr_scan", "android": "https://dc.lft.to/lastmile_qr_scan"}}, {"name": "86ee6082ef68ec7c3d52b9f29646840b", "type": "electric_scooter", "lat": 38.866569166666665, "is_reserved": 0, "lon": -76.99013583333333, "fusion_lon": 0.0, "is_disabled": 0, "fusion_lat": 0.0, "bike_id": "86ee6082ef68ec7c3d52b9f29646840b", "rental_uris": {"ios": "https://dc.lft.to/lastmile_qr_scan", "android": "https://dc.lft.to/lastmile_qr_scan"}}, {"name": "48b3713b32d57034def3e90a19791813", "type": "electric_scooter", "lat": 38.899561166666665, "is_reserved": 0, "lon": -76.98567083333333, "fusion_lon": 0.0, "is_disabled": 0, "fusion_lat": 0.0, "bike_id": "48b3713b32d57034def3e90a19791813", "rental_uris": {"ios": "https://dc.lft.to/lastmile_qr_scan", "android": "https://dc.lft.to/lastmile_qr_scan"}}, {"name": "8783ba391515fce4b8129ea8141881a5", "type": "electric_scooter", "lat": 38.9141975, "is_reserved": 0, "lon": -77.02280416666666, "fusion_lon": 0.0, "is_disabled": 0, "fusion_lat": 0.0, "bike_id": "8783ba391515fce4b8129ea8141881a5", "rental_uris": {"ios": "https://dc.lft.to/lastmile_qr_scan", "android": "https://dc.lft.to/lastmile_qr_scan"}}, {"name": "b8517a7579a61c9f2a5e5eb0546638b3", "type": "electric_scooter", "lat": 38.90065283333333, "is_reserved": 0, "lon": -77.05131266666666, "fusion_lon": 0.0, "is_disabled": 0, "fusion_lat": 0.0, "bike_id": "b8517a7579a61c9f2a5e5eb0546638b3", "rental_uris": {"ios": "https://dc.lft.to/lastmile_qr_scan", "android": "https://dc.lft.to/lastmile_qr_scan"}}, {"name": "57dfbf5eb580513ef23d576bcf557426", "type": "electric_scooter", "lat": 38.930639666666664, "is_reserved": 0, "lon": -77.02979933333333, "fusion_lon": 0.0, "is_disabled": 0, "fusion_lat": 0.0, "bike_id": "57dfbf5eb580513ef23d576bcf557426", "rental_uris": {"ios": "https://dc.lft.to/lastmile_qr_scan", "android": "https://dc.lft.to/lastmile_qr_scan"}}, {"name": "fca98f4baf3148e456c54ddc83d51e8c", "type": "electric_bike", "lat": 38.839873, "is_reserved": 0, "lon": -77.00561683333333, "fusion_lon": 0.0, "is_disabled": 0, "fusion_lat": 0.0, "bike_id": "fca98f4baf3148e456c54ddc83d51e8c", "rental_uris": {"ios": "https://dc.lft.to/lastmile_qr_scan", "android": "https://dc.lft.to/lastmile_qr_scan"}}, {"name": "e01afe45b8d06d779d12b0543e63b178", "type": "electric_bike", "lat": 38.9220925, "is_reserved": 0, "lon": -77.08191066666667, "fusion_lon": 0.0, "is_disabled": 0, "fusion_lat": 0.0, "bike_id": "e01afe45b8d06d779d12b0543e63b178", "rental_uris": {"ios": "https://dc.lft.to/lastmile_qr_scan", "android": "https://dc.lft.to/lastmile_qr_scan"}}, {"name": "2e504b15a896388853db4698aeb4da9d", "type": "electric_scooter", "lat": 38.88772566666667, "is_reserved": 0, "lon": -76.932658, "fusion_lon": 0.0, "is_disabled": 0, "fusion_lat": 0.0, "bike_id": "2e504b15a896388853db4698aeb4da9d", "rental_uris": {"ios": "https://dc.lft.to/lastmile_qr_scan", "android": "https://dc.lft.to/lastmile_qr_scan"}}, {"name": "73390f561077e7c4dfdae03fb606fe4c", "type": "electric_scooter", "lat": 38.8982865, "is_reserved": 0, "lon": -76.94652116666667, "fusion_lon": 0.0, "is_disabled": 0, "fusion_lat": 0.0, "bike_id": "73390f561077e7c4dfdae03fb606fe4c", "rental_uris": {"ios": "https://dc.lft.to/lastmile_qr_scan", "android": "https://dc.lft.to/lastmile_qr_scan"}}, {"name": "f256497c1571a5d992e5579efc053e6c", "type": "electric_scooter", "lat": 38.89827233333333, "is_reserved": 0, "lon": -76.94652766666667, "fusion_lon": 0.0, "is_disabled": 0, "fusion_lat": 0.0, "bike_id": "f256497c1571a5d992e5579efc053e6c", "rental_uris": {"ios": "https://dc.lft.to/lastmile_qr_scan", "android": "https://dc.lft.to/lastmile_qr_scan"}}, {"name": "82ad024a21f3ff9b35ec63fe8c85463a", "type": "electric_scooter", "lat": 38.922497, "is_reserved": 0, "lon": -77.03470816666666, "fusion_lon": 0.0, "is_disabled": 0, "fusion_lat": 0.0, "bike_id": "82ad024a21f3ff9b35ec63fe8c85463a", "rental_uris": {"ios": "https://dc.lft.to/lastmile_qr_scan", "android": "https://dc.lft.to/lastmile_qr_scan"}}, {"name": "1a4c3e157244d355eff0fa2c115fba59", "type": "electric_scooter", "lat": 38.89475066666667, "is_reserved": 0, "lon": -77.021122, "fusion_lon": 0.0, "is_disabled": 0, "fusion_lat": 0.0, "bike_id": "1a4c3e157244d355eff0fa2c115fba59", "rental_uris": {"ios": "https://dc.lft.to/lastmile_qr_scan", "android": "https://dc.lft.to/lastmile_qr_scan"}}, {"name": "8ef1eeff3fa82b1b9b93ee30e1bc26b2", "type": "electric_scooter", "lat": 38.929666, "is_reserved": 0, "lon": -77.00531416666666, "fusion_lon": 0.0, "is_disabled": 0, "fusion_lat": 0.0, "bike_id": "8ef1eeff3fa82b1b9b93ee30e1bc26b2", "rental_uris": {"ios": "https://dc.lft.to/lastmile_qr_scan", "android": "https://dc.lft.to/lastmile_qr_scan"}}, {"name": "3a8d3500f7bc58fb25d3f6bb0adb326a", "type": "electric_scooter", "lat": 38.93866933333334, "is_reserved": 0, "lon": -77.02674, "fusion_lon": 0.0, "is_disabled": 0, "fusion_lat": 0.0, "bike_id": "3a8d3500f7bc58fb25d3f6bb0adb326a", "rental_uris": {"ios": "https://dc.lft.to/lastmile_qr_scan", "android": "https://dc.lft.to/lastmile_qr_scan"}}, {"name": "06debfb410824130f6975d05f9b6c07b", "type": "electric_scooter", "lat": 38.92638616666667, "is_reserved": 0, "lon": -77.03466183333333, "fusion_lon": 0.0, "is_disabled": 0, "fusion_lat": 0.0, "bike_id": "06debfb410824130f6975d05f9b6c07b", "rental_uris": {"ios": "https://dc.lft.to/lastmile_qr_scan", "android": "https://dc.lft.to/lastmile_qr_scan"}}, {"name": "f64eafa68fe24ba5c9cd9c79c80f40a4", "type": "electric_scooter", "lat": 38.89663083333333, "is_reserved": 0, "lon": -77.02607266666666, "fusion_lon": 0.0, "is_disabled": 0, "fusion_lat": 0.0, "bike_id": "f64eafa68fe24ba5c9cd9c79c80f40a4", "rental_uris": {"ios": "https://dc.lft.to/lastmile_qr_scan", "android": "https://dc.lft.to/lastmile_qr_scan"}}, {"name": "776042a0e559bf04b999c76c2058b38f", "type": "electric_bike", "lat": 38.95687083333333, "is_reserved": 0, "lon": -77.02226233333333, "fusion_lon": 0.0, "is_disabled": 0, "fusion_lat": 0.0, "bike_id": "776042a0e559bf04b999c76c2058b38f", "rental_uris": {"ios": "https://dc.lft.to/lastmile_qr_scan", "android": "https://dc.lft.to/lastmile_qr_scan"}}, {"name": "f0bfd33c82265403212e191c7223646a", "type": "electric_scooter", "lat": 38.91546783333333, "is_reserved": 0, "lon": -77.03854683333333, "fusion_lon": 0.0, "is_disabled": 0, "fusion_lat": 0.0, "bike_id": "f0bfd33c82265403212e191c7223646a", "rental_uris": {"ios": "https://dc.lft.to/lastmile_qr_scan", "android": "https://dc.lft.to/lastmile_qr_scan"}}, {"name": "f7110d0b20951b83a2849ff0648691a1", "type": "electric_bike", "lat": 38.86164133333333, "is_reserved": 0, "lon": -77.1309185, "fusion_lon": 0.0, "is_disabled": 0, "fusion_lat": 0.0, "bike_id": "f7110d0b20951b83a2849ff0648691a1", "rental_uris": {"ios": "https://dc.lft.to/lastmile_qr_scan", "android": "https://dc.lft.to/lastmile_qr_scan"}}, {"name": "9f3f55b28fe610b74e6db737baf83410", "type": "electric_scooter", "lat": 38.91405616666667, "is_reserved": 0, "lon": -77.00807083333333, "fusion_lon": 0.0, "is_disabled": 0, "fusion_lat": 0.0, "bike_id": "9f3f55b28fe610b74e6db737baf83410", "rental_uris": {"ios": "https://dc.lft.to/lastmile_qr_scan", "android": "https://dc.lft.to/lastmile_qr_scan"}}, {"name": "11f30ad5aae87224f60a5b91263c501b", "type": "electric_scooter", "lat": 38.896310666666665, "is_reserved": 0, "lon": -77.027395, "fusion_lon": 0.0, "is_disabled": 0, "fusion_lat": 0.0, "bike_id": "11f30ad5aae87224f60a5b91263c501b", "rental_uris": {"ios": "https://dc.lft.to/lastmile_qr_scan", "android": "https://dc.lft.to/lastmile_qr_scan"}}, {"name": "59d02c6cad6cff567d2e5c9d2481658a", "type": "electric_scooter", "lat": 38.9002755, "is_reserved": 0, "lon": -76.99858, "fusion_lon": 0.0, "is_disabled": 0, "fusion_lat": 0.0, "bike_id": "59d02c6cad6cff567d2e5c9d2481658a", "rental_uris": {"ios": "https://dc.lft.to/lastmile_qr_scan", "android": "https://dc.lft.to/lastmile_qr_scan"}}, {"name": "5b1dfa708ee6509c7fa0388248863272", "type": "electric_scooter", "lat": 38.90239583333333, "is_reserved": 0, "lon": -76.97415533333333, "fusion_lon": 0.0, "is_disabled": 0, "fusion_lat": 0.0, "bike_id": "5b1dfa708ee6509c7fa0388248863272", "rental_uris": {"ios": "https://dc.lft.to/lastmile_qr_scan", "android": "https://dc.lft.to/lastmile_qr_scan"}}, {"name": "14a0f1a2d1409376973448d589e4fea3", "type": "electric_scooter", "lat": 38.929537833333335, "is_reserved": 0, "lon": -77.02319, "fusion_lon": 0.0, "is_disabled": 0, "fusion_lat": 0.0, "bike_id": "14a0f1a2d1409376973448d589e4fea3", "rental_uris": {"ios": "https://dc.lft.to/lastmile_qr_scan", "android": "https://dc.lft.to/lastmile_qr_scan"}}, {"name": "c21a418f916b7391248a443fc3fe2267", "type": "electric_scooter", "lat": 38.891859333333336, "is_reserved": 0, "lon": -77.01530366666667, "fusion_lon": 0.0, "is_disabled": 0, "fusion_lat": 0.0, "bike_id": "c21a418f916b7391248a443fc3fe2267", "rental_uris": {"ios": "https://dc.lft.to/lastmile_qr_scan", "android": "https://dc.lft.to/lastmile_qr_scan"}}, {"name": "510372a30ab885d50e0f8ef73762af97", "type": "electric_scooter", "lat": 38.92580266666667, "is_reserved": 0, "lon": -77.0284105, "fusion_lon": 0.0, "is_disabled": 0, "fusion_lat": 0.0, "bike_id": "510372a30ab885d50e0f8ef73762af97", "rental_uris": {"ios": "https://dc.lft.to/lastmile_qr_scan", "android": "https://dc.lft.to/lastmile_qr_scan"}}, {"name": "df20a83830828ae62fe0d49cbb330f85", "type": "electric_scooter", "lat": 38.93489966666667, "is_reserved": 0, "lon": -77.03285533333333, "fusion_lon": 0.0, "is_disabled": 0, "fusion_lat": 0.0, "bike_id": "df20a83830828ae62fe0d49cbb330f85", "rental_uris": {"ios": "https://dc.lft.to/lastmile_qr_scan", "android": "https://dc.lft.to/lastmile_qr_scan"}}, {"name": "377d495abf40b1f595205d040e9e59dd", "type": "electric_scooter", "lat": 38.91714416666667, "is_reserved": 0, "lon": -77.03857533333333, "fusion_lon": 0.0, "is_disabled": 0, "fusion_lat": 0.0, "bike_id": "377d495abf40b1f595205d040e9e59dd", "rental_uris": {"ios": "https://dc.lft.to/lastmile_qr_scan", "android": "https://dc.lft.to/lastmile_qr_scan"}}, {"name": "704f8c3b634fde0a28f6c0c03bb18dcd", "type": "electric_scooter", "lat": 38.91689066666667, "is_reserved": 0, "lon": -77.009284, "fusion_lon": 0.0, "is_disabled": 0, "fusion_lat": 0.0, "bike_id": "704f8c3b634fde0a28f6c0c03bb18dcd", "rental_uris": {"ios": "https://dc.lft.to/lastmile_qr_scan", "android": "https://dc.lft.to/lastmile_qr_scan"}}, {"name": "7461ae5b1add6166f493ae80de1c072e", "type": "electric_scooter", "lat": 38.90087183333333, "is_reserved": 0, "lon": -76.93868816666667, "fusion_lon": 0.0, "is_disabled": 0, "fusion_lat": 0.0, "bike_id": "7461ae5b1add6166f493ae80de1c072e", "rental_uris": {"ios": "https://dc.lft.to/lastmile_qr_scan", "android": "https://dc.lft.to/lastmile_qr_scan"}}, {"name": "0e3e39cff311911695e243b3ac0088b7", "type": "electric_scooter", "lat": 38.92978433333333, "is_reserved": 0, "lon": -77.02611833333333, "fusion_lon": 0.0, "is_disabled": 0, "fusion_lat": 0.0, "bike_id": "0e3e39cff311911695e243b3ac0088b7", "rental_uris": {"ios": "https://dc.lft.to/lastmile_qr_scan", "android": "https://dc.lft.to/lastmile_qr_scan"}}, {"name": "fa67710ba9dbc0072a3a6cd69adb7654", "type": "electric_bike", "lat": 38.8272705, "is_reserved": 0, "lon": -77.00863416666667, "fusion_lon": 0.0, "is_disabled": 0, "fusion_lat": 0.0, "bike_id": "fa67710ba9dbc0072a3a6cd69adb7654", "rental_uris": {"ios": "https://dc.lft.to/lastmile_qr_scan", "android": "https://dc.lft.to/lastmile_qr_scan"}}, {"name": "144388d4352ee7a8bcedf376dcf11f6a", "type": "electric_scooter", "lat": 38.88017083333333, "is_reserved": 0, "lon": -76.93127116666666, "fusion_lon": 0.0, "is_disabled": 0, "fusion_lat": 0.0, "bike_id": "144388d4352ee7a8bcedf376dcf11f6a", "rental_uris": {"ios": "https://dc.lft.to/lastmile_qr_scan", "android": "https://dc.lft.to/lastmile_qr_scan"}}, {"name": "233bae88a9cbdf9f5d2a62b1cec518d7", "type": "electric_scooter", "lat": 38.91896633333333, "is_reserved": 0, "lon": -77.05291566666666, "fusion_lon": 0.0, "is_disabled": 0, "fusion_lat": 0.0, "bike_id": "233bae88a9cbdf9f5d2a62b1cec518d7", "rental_uris": {"ios": "https://dc.lft.to/lastmile_qr_scan", "android": "https://dc.lft.to/lastmile_qr_scan"}}, {"name": "0737476f92557d7a7c03596598d0f1a4", "type": "electric_scooter", "lat": 38.90831816666667, "is_reserved": 0, "lon": -77.036783, "fusion_lon": 0.0, "is_disabled": 0, "fusion_lat": 0.0, "bike_id": "0737476f92557d7a7c03596598d0f1a4", "rental_uris": {"ios": "https://dc.lft.to/lastmile_qr_scan", "android": "https://dc.lft.to/lastmile_qr_scan"}}, {"name": "cb39e0532926df788a98fa151b3156a9", "type": "electric_scooter", "lat": 38.928014166666664, "is_reserved": 0, "lon": -77.05354733333333, "fusion_lon": 0.0, "is_disabled": 0, "fusion_lat": 0.0, "bike_id": "cb39e0532926df788a98fa151b3156a9", "rental_uris": {"ios": "https://dc.lft.to/lastmile_qr_scan", "android": "https://dc.lft.to/lastmile_qr_scan"}}, {"name": "b79d3e1cfedb4ff5b7877c42616f9d07", "type": "electric_scooter", "lat": 38.91055766666667, "is_reserved": 0, "lon": -77.045835, "fusion_lon": 0.0, "is_disabled": 0, "fusion_lat": 0.0, "bike_id": "b79d3e1cfedb4ff5b7877c42616f9d07", "rental_uris": {"ios": "https://dc.lft.to/lastmile_qr_scan", "android": "https://dc.lft.to/lastmile_qr_scan"}}, {"name": "d046a7181e88238ca907a987143b723b", "type": "electric_scooter", "lat": 38.92356083333333, "is_reserved": 0, "lon": -77.035276, "fusion_lon": 0.0, "is_disabled": 0, "fusion_lat": 0.0, "bike_id": "d046a7181e88238ca907a987143b723b", "rental_uris": {"ios": "https://dc.lft.to/lastmile_qr_scan", "android": "https://dc.lft.to/lastmile_qr_scan"}}, {"name": "07ef1c56b1a5cb89e0011b338f25ee60", "type": "electric_scooter", "lat": 38.91682983333333, "is_reserved": 0, "lon": -77.0280485, "fusion_lon": 0.0, "is_disabled": 0, "fusion_lat": 0.0, "bike_id": "07ef1c56b1a5cb89e0011b338f25ee60", "rental_uris": {"ios": "https://dc.lft.to/lastmile_qr_scan", "android": "https://dc.lft.to/lastmile_qr_scan"}}, {"name": "9c41e49f7cee40a5a37a2e5e389d7655", "type": "electric_scooter", "lat": 38.88495266666666, "is_reserved": 0, "lon": -77.00728133333334, "fusion_lon": 0.0, "is_disabled": 0, "fusion_lat": 0.0, "bike_id": "9c41e49f7cee40a5a37a2e5e389d7655", "rental_uris": {"ios": "https://dc.lft.to/lastmile_qr_scan", "android": "https://dc.lft.to/lastmile_qr_scan"}}, {"name": "59d80f0fe67538e73f9baba5cd169661", "type": "electric_scooter", "lat": 38.894934166666665, "is_reserved": 0, "lon": -77.02383133333333, "fusion_lon": 0.0, "is_disabled": 0, "fusion_lat": 0.0, "bike_id": "59d80f0fe67538e73f9baba5cd169661", "rental_uris": {"ios": "https://dc.lft.to/lastmile_qr_scan", "android": "https://dc.lft.to/lastmile_qr_scan"}}, {"name": "42673ef3959144f6df16fb02b297c2fb", "type": "electric_scooter", "lat": 38.90017666666667, "is_reserved": 0, "lon": -76.997493, "fusion_lon": 0.0, "is_disabled": 0, "fusion_lat": 0.0, "bike_id": "42673ef3959144f6df16fb02b297c2fb", "rental_uris": {"ios": "https://dc.lft.to/lastmile_qr_scan", "android": "https://dc.lft.to/lastmile_qr_scan"}}, {"name": "5eee4fb40d7104c7f90450c8937d3f47", "type": "electric_scooter", "lat": 38.934234000000004, "is_reserved": 0, "lon": -77.02419183333333, "fusion_lon": 0.0, "is_disabled": 0, "fusion_lat": 0.0, "bike_id": "5eee4fb40d7104c7f90450c8937d3f47", "rental_uris": {"ios": "https://dc.lft.to/lastmile_qr_scan", "android": "https://dc.lft.to/lastmile_qr_scan"}}, {"name": "d9af02bc92f9d28c9248743a700340de", "type": "electric_scooter", "lat": 38.90052883333333, "is_reserved": 0, "lon": -77.03187166666666, "fusion_lon": 0.0, "is_disabled": 0, "fusion_lat": 0.0, "bike_id": "d9af02bc92f9d28c9248743a700340de", "rental_uris": {"ios": "https://dc.lft.to/lastmile_qr_scan", "android": "https://dc.lft.to/lastmile_qr_scan"}}, {"name": "f48cc1ba296634ed7df92857516b82a2", "type": "electric_scooter", "lat": 38.88874933333334, "is_reserved": 0, "lon": -76.990316, "fusion_lon": 0.0, "is_disabled": 0, "fusion_lat": 0.0, "bike_id": "f48cc1ba296634ed7df92857516b82a2", "rental_uris": {"ios": "https://dc.lft.to/lastmile_qr_scan", "android": "https://dc.lft.to/lastmile_qr_scan"}}, {"name": "15c89398b6e97c1cb5398be9b7f66823", "type": "electric_scooter", "lat": 38.89879616666666, "is_reserved": 0, "lon": -77.03273766666666, "fusion_lon": 0.0, "is_disabled": 0, "fusion_lat": 0.0, "bike_id": "15c89398b6e97c1cb5398be9b7f66823", "rental_uris": {"ios": "https://dc.lft.to/lastmile_qr_scan", "android": "https://dc.lft.to/lastmile_qr_scan"}}, {"name": "8558f26b0604d6fd86da51b2d6062151", "type": "electric_scooter", "lat": 38.92045666666667, "is_reserved": 0, "lon": -77.02417016666666, "fusion_lon": 0.0, "is_disabled": 0, "fusion_lat": 0.0, "bike_id": "8558f26b0604d6fd86da51b2d6062151", "rental_uris": {"ios": "https://dc.lft.to/lastmile_qr_scan", "android": "https://dc.lft.to/lastmile_qr_scan"}}, {"name": "c91b0213f0298724d1390865295e3bb4", "type": "electric_scooter", "lat": 38.967258666666666, "is_reserved": 0, "lon": -77.0234865, "fusion_lon": 0.0, "is_disabled": 0, "fusion_lat": 0.0, "bike_id": "c91b0213f0298724d1390865295e3bb4", "rental_uris": {"ios": "https://dc.lft.to/lastmile_qr_scan", "android": "https://dc.lft.to/lastmile_qr_scan"}}, {"name": "e03ee3c64a914c4dffed2386bf825277", "type": "electric_scooter", "lat": 38.90456233333333, "is_reserved": 0, "lon": -77.04178083333333, "fusion_lon": 0.0, "is_disabled": 0, "fusion_lat": 0.0, "bike_id": "e03ee3c64a914c4dffed2386bf825277", "rental_uris": {"ios": "https://dc.lft.to/lastmile_qr_scan", "android": "https://dc.lft.to/lastmile_qr_scan"}}, {"name": "2a048e2d3ad5c18b68c57d55f78fd0a1", "type": "electric_scooter", "lat": 38.88717783333333, "is_reserved": 0, "lon": -77.01778866666666, "fusion_lon": 0.0, "is_disabled": 0, "fusion_lat": 0.0, "bike_id": "2a048e2d3ad5c18b68c57d55f78fd0a1", "rental_uris": {"ios": "https://dc.lft.to/lastmile_qr_scan", "android": "https://dc.lft.to/lastmile_qr_scan"}}, {"name": "44d87a9ec3d22f3913e717f95b29f07b", "type": "electric_scooter", "lat": 38.928657333333334, "is_reserved": 0, "lon": -77.02613633333333, "fusion_lon": 0.0, "is_disabled": 0, "fusion_lat": 0.0, "bike_id": "44d87a9ec3d22f3913e717f95b29f07b", "rental_uris": {"ios": "https://dc.lft.to/lastmile_qr_scan", "android": "https://dc.lft.to/lastmile_qr_scan"}}, {"name": "f8d3d614ebb8b63bb03171773e620d1a", "type": "electric_scooter", "lat": 38.935288166666666, "is_reserved": 0, "lon": -77.033131, "fusion_lon": 0.0, "is_disabled": 0, "fusion_lat": 0.0, "bike_id": "f8d3d614ebb8b63bb03171773e620d1a", "rental_uris": {"ios": "https://dc.lft.to/lastmile_qr_scan", "android": "https://dc.lft.to/lastmile_qr_scan"}}, {"name": "259662bb212c19346a01ae78e64b0e58", "type": "electric_scooter", "lat": 38.92119683333333, "is_reserved": 0, "lon": -77.03657983333333, "fusion_lon": 0.0, "is_disabled": 0, "fusion_lat": 0.0, "bike_id": "259662bb212c19346a01ae78e64b0e58", "rental_uris": {"ios": "https://dc.lft.to/lastmile_qr_scan", "android": "https://dc.lft.to/lastmile_qr_scan"}}, {"name": "2a5776085367463bd2337a1f7d222d17", "type": "electric_scooter", "lat": 38.9011265, "is_reserved": 0, "lon": -77.0498845, "fusion_lon": 0.0, "is_disabled": 0, "fusion_lat": 0.0, "bike_id": "2a5776085367463bd2337a1f7d222d17", "rental_uris": {"ios": "https://dc.lft.to/lastmile_qr_scan", "android": "https://dc.lft.to/lastmile_qr_scan"}}, {"name": "16df3375a62279cba181bd4afb69763e", "type": "electric_scooter", "lat": 38.883815166666665, "is_reserved": 0, "lon": -77.01982966666667, "fusion_lon": 0.0, "is_disabled": 0, "fusion_lat": 0.0, "bike_id": "16df3375a62279cba181bd4afb69763e", "rental_uris": {"ios": "https://dc.lft.to/lastmile_qr_scan", "android": "https://dc.lft.to/lastmile_qr_scan"}}, {"name": "8a1e8d9d0872791e69f5e67f77e67a7b", "type": "electric_bike", "lat": 38.852466666666665, "is_reserved": 0, "lon": -77.11431233333333, "fusion_lon": 0.0, "is_disabled": 0, "fusion_lat": 0.0, "bike_id": "8a1e8d9d0872791e69f5e67f77e67a7b", "rental_uris": {"ios": "https://dc.lft.to/lastmile_qr_scan", "android": "https://dc.lft.to/lastmile_qr_scan"}}, {"name": "d4aa29c10478afafff94d2d1b12f24e0", "type": "electric_scooter", "lat": 38.899342, "is_reserved": 0, "lon": -77.0298415, "fusion_lon": 0.0, "is_disabled": 0, "fusion_lat": 0.0, "bike_id": "d4aa29c10478afafff94d2d1b12f24e0", "rental_uris": {"ios": "https://dc.lft.to/lastmile_qr_scan", "android": "https://dc.lft.to/lastmile_qr_scan"}}, {"name": "aa319f8405d1d38b93f5fc42d0d6bbd5", "type": "electric_scooter", "lat": 38.91920283333333, "is_reserved": 0, "lon": -77.03017333333334, "fusion_lon": 0.0, "is_disabled": 0, "fusion_lat": 0.0, "bike_id": "aa319f8405d1d38b93f5fc42d0d6bbd5", "rental_uris": {"ios": "https://dc.lft.to/lastmile_qr_scan", "android": "https://dc.lft.to/lastmile_qr_scan"}}, {"name": "9593a41baed1622e7a9f1e17ad4dcc7d", "type": "electric_scooter", "lat": 38.902745, "is_reserved": 0, "lon": -77.038432, "fusion_lon": 0.0, "is_disabled": 0, "fusion_lat": 0.0, "bike_id": "9593a41baed1622e7a9f1e17ad4dcc7d", "rental_uris": {"ios": "https://dc.lft.to/lastmile_qr_scan", "android": "https://dc.lft.to/lastmile_qr_scan"}}, {"name": "08b42a6d636454b7ab676210c319c5ec", "type": "electric_scooter", "lat": 38.8429495, "is_reserved": 0, "lon": -76.9995195, "fusion_lon": 0.0, "is_disabled": 0, "fusion_lat": 0.0, "bike_id": "08b42a6d636454b7ab676210c319c5ec", "rental_uris": {"ios": "https://dc.lft.to/lastmile_qr_scan", "android": "https://dc.lft.to/lastmile_qr_scan"}}, {"name": "baae307dbbdcb7fcc820eb844c16facb", "type": "electric_scooter", "lat": 38.916866666666664, "is_reserved": 0, "lon": -77.01224483333333, "fusion_lon": 0.0, "is_disabled": 0, "fusion_lat": 0.0, "bike_id": "baae307dbbdcb7fcc820eb844c16facb", "rental_uris": {"ios": "https://dc.lft.to/lastmile_qr_scan", "android": "https://dc.lft.to/lastmile_qr_scan"}}, {"name": "61c675f0c4544464b7c3bfe45dff85f1", "type": "electric_scooter", "lat": 38.934462, "is_reserved": 0, "lon": -77.07244816666666, "fusion_lon": 0.0, "is_disabled": 0, "fusion_lat": 0.0, "bike_id": "61c675f0c4544464b7c3bfe45dff85f1", "rental_uris": {"ios": "https://dc.lft.to/lastmile_qr_scan", "android": "https://dc.lft.to/lastmile_qr_scan"}}, {"name": "7cf454b1380cce893f720dc89d400f65", "type": "electric_scooter", "lat": 38.896818, "is_reserved": 0, "lon": -76.9962685, "fusion_lon": 0.0, "is_disabled": 0, "fusion_lat": 0.0, "bike_id": "7cf454b1380cce893f720dc89d400f65", "rental_uris": {"ios": "https://dc.lft.to/lastmile_qr_scan", "android": "https://dc.lft.to/lastmile_qr_scan"}}, {"name": "8c1df103f085378120db7d10a5d17237", "type": "electric_scooter", "lat": 38.8973395, "is_reserved": 0, "lon": -77.05568683333334, "fusion_lon": 0.0, "is_disabled": 0, "fusion_lat": 0.0, "bike_id": "8c1df103f085378120db7d10a5d17237", "rental_uris": {"ios": "https://dc.lft.to/lastmile_qr_scan", "android": "https://dc.lft.to/lastmile_qr_scan"}}, {"name": "5369784df7b8c5841ea1f0efb5acb2a0", "type": "electric_scooter", "lat": 38.89483116666667, "is_reserved": 0, "lon": -76.94872716666667, "fusion_lon": 0.0, "is_disabled": 0, "fusion_lat": 0.0, "bike_id": "5369784df7b8c5841ea1f0efb5acb2a0", "rental_uris": {"ios": "https://dc.lft.to/lastmile_qr_scan", "android": "https://dc.lft.to/lastmile_qr_scan"}}, {"name": "fc0329e1021ac94150fb6abc9df35fae", "type": "electric_scooter", "lat": 38.9033265, "is_reserved": 0, "lon": -76.9897445, "fusion_lon": 0.0, "is_disabled": 0, "fusion_lat": 0.0, "bike_id": "fc0329e1021ac94150fb6abc9df35fae", "rental_uris": {"ios": "https://dc.lft.to/lastmile_qr_scan", "android": "https://dc.lft.to/lastmile_qr_scan"}}, {"name": "03cb52baf5d3dc5dea70993955f5f602", "type": "electric_scooter", "lat": 38.9215515, "is_reserved": 0, "lon": -77.03382916666666, "fusion_lon": 0.0, "is_disabled": 0, "fusion_lat": 0.0, "bike_id": "03cb52baf5d3dc5dea70993955f5f602", "rental_uris": {"ios": "https://dc.lft.to/lastmile_qr_scan", "android": "https://dc.lft.to/lastmile_qr_scan"}}, {"name": "2c27210c8d8f2cf82f943ebfa45b3f70", "type": "electric_scooter", "lat": 38.9025955, "is_reserved": 0, "lon": -77.03211766666666, "fusion_lon": 0.0, "is_disabled": 0, "fusion_lat": 0.0, "bike_id": "2c27210c8d8f2cf82f943ebfa45b3f70", "rental_uris": {"ios": "https://dc.lft.to/lastmile_qr_scan", "android": "https://dc.lft.to/lastmile_qr_scan"}}, {"name": "422f7b8d2e13cd18b7a29a2d5205665a", "type": "electric_scooter", "lat": 38.922138333333336, "is_reserved": 0, "lon": -77.04248683333333, "fusion_lon": 0.0, "is_disabled": 0, "fusion_lat": 0.0, "bike_id": "422f7b8d2e13cd18b7a29a2d5205665a", "rental_uris": {"ios": "https://dc.lft.to/lastmile_qr_scan", "android": "https://dc.lft.to/lastmile_qr_scan"}}, {"name": "a6fd0818255031f86c011988827689c2", "type": "electric_scooter", "lat": 38.911204, "is_reserved": 0, "lon": -77.01816483333333, "fusion_lon": 0.0, "is_disabled": 0, "fusion_lat": 0.0, "bike_id": "a6fd0818255031f86c011988827689c2", "rental_uris": {"ios": "https://dc.lft.to/lastmile_qr_scan", "android": "https://dc.lft.to/lastmile_qr_scan"}}, {"name": "523f6ed439f990c3771b390da9d580fe", "type": "electric_scooter", "lat": 38.886095, "is_reserved": 0, "lon": -76.9951475, "fusion_lon": 0.0, "is_disabled": 0, "fusion_lat": 0.0, "bike_id": "523f6ed439f990c3771b390da9d580fe", "rental_uris": {"ios": "https://dc.lft.to/lastmile_qr_scan", "android": "https://dc.lft.to/lastmile_qr_scan"}}, {"name": "da1ea8f8ade794d78c06232ab84dd89c", "type": "electric_scooter", "lat": 38.88218783333333, "is_reserved": 0, "lon": -76.94181116666667, "fusion_lon": 0.0, "is_disabled": 0, "fusion_lat": 0.0, "bike_id": "da1ea8f8ade794d78c06232ab84dd89c", "rental_uris": {"ios": "https://dc.lft.to/lastmile_qr_scan", "android": "https://dc.lft.to/lastmile_qr_scan"}}, {"name": "9384f44fdd72a49ea501f9d49fdee5e0", "type": "electric_scooter", "lat": 38.905629833333336, "is_reserved": 0, "lon": -77.005829, "fusion_lon": 0.0, "is_disabled": 0, "fusion_lat": 0.0, "bike_id": "9384f44fdd72a49ea501f9d49fdee5e0", "rental_uris": {"ios": "https://dc.lft.to/lastmile_qr_scan", "android": "https://dc.lft.to/lastmile_qr_scan"}}, {"name": "8ff22005707f34bc9da7374f918cac3b", "type": "electric_scooter", "lat": 38.929731333333336, "is_reserved": 0, "lon": -77.02344066666667, "fusion_lon": 0.0, "is_disabled": 0, "fusion_lat": 0.0, "bike_id": "8ff22005707f34bc9da7374f918cac3b", "rental_uris": {"ios": "https://dc.lft.to/lastmile_qr_scan", "android": "https://dc.lft.to/lastmile_qr_scan"}}, {"name": "b0c8757365ac039ef3d6d7e4c8cdfff3", "type": "electric_scooter", "lat": 38.907258666666664, "is_reserved": 0, "lon": -77.01131383333333, "fusion_lon": 0.0, "is_disabled": 0, "fusion_lat": 0.0, "bike_id": "b0c8757365ac039ef3d6d7e4c8cdfff3", "rental_uris": {"ios": "https://dc.lft.to/lastmile_qr_scan", "android": "https://dc.lft.to/lastmile_qr_scan"}}, {"name": "25c3e03a627c2be42c50529b9cb1b609", "type": "electric_scooter", "lat": 38.92926333333333, "is_reserved": 0, "lon": -77.0233905, "fusion_lon": 0.0, "is_disabled": 0, "fusion_lat": 0.0, "bike_id": "25c3e03a627c2be42c50529b9cb1b609", "rental_uris": {"ios": "https://dc.lft.to/lastmile_qr_scan", "android": "https://dc.lft.to/lastmile_qr_scan"}}, {"name": "c1073d2dc113db633ae1a8cbfc96a6ef", "type": "electric_scooter", "lat": 38.87195216666667, "is_reserved": 0, "lon": -77.00578183333333, "fusion_lon": 0.0, "is_disabled": 0, "fusion_lat": 0.0, "bike_id": "c1073d2dc113db633ae1a8cbfc96a6ef", "rental_uris": {"ios": "https://dc.lft.to/lastmile_qr_scan", "android": "https://dc.lft.to/lastmile_qr_scan"}}, {"name": "f1278510568f09a293c515df0dad4e10", "type": "electric_scooter", "lat": 38.8442575, "is_reserved": 0, "lon": -76.99777233333333, "fusion_lon": 0.0, "is_disabled": 0, "fusion_lat": 0.0, "bike_id": "f1278510568f09a293c515df0dad4e10", "rental_uris": {"ios": "https://dc.lft.to/lastmile_qr_scan", "android": "https://dc.lft.to/lastmile_qr_scan"}}, {"name": "02a95a85d72e3ffae438a5057c5a4c2d", "type": "electric_scooter", "lat": 38.862459333333334, "is_reserved": 0, "lon": -76.99499766666666, "fusion_lon": 0.0, "is_disabled": 0, "fusion_lat": 0.0, "bike_id": "02a95a85d72e3ffae438a5057c5a4c2d", "rental_uris": {"ios": "https://dc.lft.to/lastmile_qr_scan", "android": "https://dc.lft.to/lastmile_qr_scan"}}, {"name": "8f1a2d8a7e0a84fc37928a235bdf2b69", "type": "electric_bike", "lat": 38.9618205, "is_reserved": 0, "lon": -77.07363333333333, "fusion_lon": 0.0, "is_disabled": 0, "fusion_lat": 0.0, "bike_id": "8f1a2d8a7e0a84fc37928a235bdf2b69", "rental_uris": {"ios": "https://dc.lft.to/lastmile_qr_scan", "android": "https://dc.lft.to/lastmile_qr_scan"}}, {"name": "05b88544fd5f555782677bafe36be56d", "type": "electric_scooter", "lat": 38.914084, "is_reserved": 0, "lon": -77.03909916666667, "fusion_lon": 0.0, "is_disabled": 0, "fusion_lat": 0.0, "bike_id": "05b88544fd5f555782677bafe36be56d", "rental_uris": {"ios": "https://dc.lft.to/lastmile_qr_scan", "android": "https://dc.lft.to/lastmile_qr_scan"}}, {"name": "40fcc24ed65a0381ca696c405bf36639", "type": "electric_scooter", "lat": 38.92381066666667, "is_reserved": 0, "lon": -77.03183483333333, "fusion_lon": 0.0, "is_disabled": 0, "fusion_lat": 0.0, "bike_id": "40fcc24ed65a0381ca696c405bf36639", "rental_uris": {"ios": "https://dc.lft.to/lastmile_qr_scan", "android": "https://dc.lft.to/lastmile_qr_scan"}}, {"name": "ec3fcaecff93f2ea363aa2fad2458d61", "type": "electric_scooter", "lat": 38.91589233333333, "is_reserved": 0, "lon": -76.983881, "fusion_lon": 0.0, "is_disabled": 0, "fusion_lat": 0.0, "bike_id": "ec3fcaecff93f2ea363aa2fad2458d61", "rental_uris": {"ios": "https://dc.lft.to/lastmile_qr_scan", "android": "https://dc.lft.to/lastmile_qr_scan"}}, {"name": "e86f8bcadddec712f1fd65599134958a", "type": "electric_scooter", "lat": 38.93528933333333, "is_reserved": 0, "lon": -77.0582155, "fusion_lon": 0.0, "is_disabled": 0, "fusion_lat": 0.0, "bike_id": "e86f8bcadddec712f1fd65599134958a", "rental_uris": {"ios": "https://dc.lft.to/lastmile_qr_scan", "android": "https://dc.lft.to/lastmile_qr_scan"}}, {"name": "e0132db20dcadb31ed871f7d442f386d", "type": "electric_scooter", "lat": 38.89506216666667, "is_reserved": 0, "lon": -77.00335633333333, "fusion_lon": 0.0, "is_disabled": 0, "fusion_lat": 0.0, "bike_id": "e0132db20dcadb31ed871f7d442f386d", "rental_uris": {"ios": "https://dc.lft.to/lastmile_qr_scan", "android": "https://dc.lft.to/lastmile_qr_scan"}}, {"name": "d7d1b167f2516c572a3082ad4d0a8fee", "type": "electric_bike", "lat": 38.855198333333334, "is_reserved": 0, "lon": -77.1116, "fusion_lon": 0.0, "is_disabled": 0, "fusion_lat": 0.0, "bike_id": "d7d1b167f2516c572a3082ad4d0a8fee", "rental_uris": {"ios": "https://dc.lft.to/lastmile_qr_scan", "android": "https://dc.lft.to/lastmile_qr_scan"}}, {"name": "7ff59ad98e098b82a6192aecd7fbf43e", "type": "electric_scooter", "lat": 38.89884933333333, "is_reserved": 0, "lon": -76.9317355, "fusion_lon": 0.0, "is_disabled": 0, "fusion_lat": 0.0, "bike_id": "7ff59ad98e098b82a6192aecd7fbf43e", "rental_uris": {"ios": "https://dc.lft.to/lastmile_qr_scan", "android": "https://dc.lft.to/lastmile_qr_scan"}}, {"name": "6329bd9514be502011058bb918187d47", "type": "electric_scooter", "lat": 38.900365, "is_reserved": 0, "lon": -76.98837783333333, "fusion_lon": 0.0, "is_disabled": 0, "fusion_lat": 0.0, "bike_id": "6329bd9514be502011058bb918187d47", "rental_uris": {"ios": "https://dc.lft.to/lastmile_qr_scan", "android": "https://dc.lft.to/lastmile_qr_scan"}}, {"name": "e00e23271a3fbca2faaae8dd2a695840", "type": "electric_scooter", "lat": 38.915678166666666, "is_reserved": 0, "lon": -77.02185166666666, "fusion_lon": 0.0, "is_disabled": 0, "fusion_lat": 0.0, "bike_id": "e00e23271a3fbca2faaae8dd2a695840", "rental_uris": {"ios": "https://dc.lft.to/lastmile_qr_scan", "android": "https://dc.lft.to/lastmile_qr_scan"}}, {"name": "cef427d2290fb783ef4c50d2a2c7eab7", "type": "electric_scooter", "lat": 38.901966333333334, "is_reserved": 0, "lon": -77.02191133333334, "fusion_lon": 0.0, "is_disabled": 0, "fusion_lat": 0.0, "bike_id": "cef427d2290fb783ef4c50d2a2c7eab7", "rental_uris": {"ios": "https://dc.lft.to/lastmile_qr_scan", "android": "https://dc.lft.to/lastmile_qr_scan"}}, {"name": "702730a1379450e0e42dab42cb3b057f", "type": "electric_bike", "lat": 38.93672433333333, "is_reserved": 0, "lon": -76.9520685, "fusion_lon": 0.0, "is_disabled": 0, "fusion_lat": 0.0, "bike_id": "702730a1379450e0e42dab42cb3b057f", "rental_uris": {"ios": "https://dc.lft.to/lastmile_qr_scan", "android": "https://dc.lft.to/lastmile_qr_scan"}}, {"name": "04ac7b967d45538a718a3e8286742743", "type": "electric_scooter", "lat": 38.91196083333333, "is_reserved": 0, "lon": -77.032184, "fusion_lon": 0.0, "is_disabled": 0, "fusion_lat": 0.0, "bike_id": "04ac7b967d45538a718a3e8286742743", "rental_uris": {"ios": "https://dc.lft.to/lastmile_qr_scan", "android": "https://dc.lft.to/lastmile_qr_scan"}}, {"name": "f2c8464a37795397b77b25223e3187e3", "type": "electric_bike", "lat": 38.9546725, "is_reserved": 0, "lon": -76.99010816666667, "fusion_lon": 0.0, "is_disabled": 0, "fusion_lat": 0.0, "bike_id": "f2c8464a37795397b77b25223e3187e3", "rental_uris": {"ios": "https://dc.lft.to/lastmile_qr_scan", "android": "https://dc.lft.to/lastmile_qr_scan"}}, {"name": "5328ca2aa479a3c919a03c50e51ccf10", "type": "electric_scooter", "lat": 38.87709683333333, "is_reserved": 0, "lon": -77.0184455, "fusion_lon": 0.0, "is_disabled": 0, "fusion_lat": 0.0, "bike_id": "5328ca2aa479a3c919a03c50e51ccf10", "rental_uris": {"ios": "https://dc.lft.to/lastmile_qr_scan", "android": "https://dc.lft.to/lastmile_qr_scan"}}, {"name": "ea01b6f7a1e036a404e0f6c497be5dfa", "type": "electric_scooter", "lat": 38.928825, "is_reserved": 0, "lon": -77.040534, "fusion_lon": 0.0, "is_disabled": 0, "fusion_lat": 0.0, "bike_id": "ea01b6f7a1e036a404e0f6c497be5dfa", "rental_uris": {"ios": "https://dc.lft.to/lastmile_qr_scan", "android": "https://dc.lft.to/lastmile_qr_scan"}}, {"name": "c77160ffbc7f5bc9cfa7857feaccee8e", "type": "electric_scooter", "lat": 38.87644816666667, "is_reserved": 0, "lon": -77.01484483333333, "fusion_lon": 0.0, "is_disabled": 0, "fusion_lat": 0.0, "bike_id": "c77160ffbc7f5bc9cfa7857feaccee8e", "rental_uris": {"ios": "https://dc.lft.to/lastmile_qr_scan", "android": "https://dc.lft.to/lastmile_qr_scan"}}, {"name": "cb6f460687513b7c29a4eca4418bade8", "type": "electric_scooter", "lat": 38.930868833333335, "is_reserved": 0, "lon": -77.02540733333333, "fusion_lon": 0.0, "is_disabled": 0, "fusion_lat": 0.0, "bike_id": "cb6f460687513b7c29a4eca4418bade8", "rental_uris": {"ios": "https://dc.lft.to/lastmile_qr_scan", "android": "https://dc.lft.to/lastmile_qr_scan"}}, {"name": "9e22067cfe3846e21f539fc1e5d66782", "type": "electric_scooter", "lat": 38.89239366666666, "is_reserved": 0, "lon": -77.015311, "fusion_lon": 0.0, "is_disabled": 0, "fusion_lat": 0.0, "bike_id": "9e22067cfe3846e21f539fc1e5d66782", "rental_uris": {"ios": "https://dc.lft.to/lastmile_qr_scan", "android": "https://dc.lft.to/lastmile_qr_scan"}}, {"name": "15d23f9c2db2a839303d6f3345487da1", "type": "electric_scooter", "lat": 38.923469833333336, "is_reserved": 0, "lon": -77.05321666666667, "fusion_lon": 0.0, "is_disabled": 0, "fusion_lat": 0.0, "bike_id": "15d23f9c2db2a839303d6f3345487da1", "rental_uris": {"ios": "https://dc.lft.to/lastmile_qr_scan", "android": "https://dc.lft.to/lastmile_qr_scan"}}, {"name": "88d3b6b9ab387d9b1684b7286f289209", "type": "electric_bike", "lat": 38.8382845, "is_reserved": 0, "lon": -76.99684883333333, "fusion_lon": 0.0, "is_disabled": 0, "fusion_lat": 0.0, "bike_id": "88d3b6b9ab387d9b1684b7286f289209", "rental_uris": {"ios": "https://dc.lft.to/lastmile_qr_scan", "android": "https://dc.lft.to/lastmile_qr_scan"}}, {"name": "166c76c8504c24b1f5c1cf27d52cb006", "type": "electric_scooter", "lat": 38.93292616666667, "is_reserved": 0, "lon": -77.039813, "fusion_lon": 0.0, "is_disabled": 0, "fusion_lat": 0.0, "bike_id": "166c76c8504c24b1f5c1cf27d52cb006", "rental_uris": {"ios": "https://dc.lft.to/lastmile_qr_scan", "android": "https://dc.lft.to/lastmile_qr_scan"}}, {"name": "89c765504adccf4762f08cdbfdc89ff8", "type": "electric_scooter", "lat": 38.865216, "is_reserved": 0, "lon": -76.99029016666667, "fusion_lon": 0.0, "is_disabled": 0, "fusion_lat": 0.0, "bike_id": "89c765504adccf4762f08cdbfdc89ff8", "rental_uris": {"ios": "https://dc.lft.to/lastmile_qr_scan", "android": "https://dc.lft.to/lastmile_qr_scan"}}, {"name": "d0febaaaca69b2fa7dc582bd9bc71514", "type": "electric_scooter", "lat": 38.906753, "is_reserved": 0, "lon": -77.03819233333333, "fusion_lon": 0.0, "is_disabled": 0, "fusion_lat": 0.0, "bike_id": "d0febaaaca69b2fa7dc582bd9bc71514", "rental_uris": {"ios": "https://dc.lft.to/lastmile_qr_scan", "android": "https://dc.lft.to/lastmile_qr_scan"}}, {"name": "f986e15fe513534b11f445cdc3d622fc", "type": "electric_scooter", "lat": 38.8973955, "is_reserved": 0, "lon": -76.9384545, "fusion_lon": 0.0, "is_disabled": 0, "fusion_lat": 0.0, "bike_id": "f986e15fe513534b11f445cdc3d622fc", "rental_uris": {"ios": "https://dc.lft.to/lastmile_qr_scan", "android": "https://dc.lft.to/lastmile_qr_scan"}}, {"name": "7356a265c358d8e868603748939da7fd", "type": "electric_scooter", "lat": 38.89454683333334, "is_reserved": 0, "lon": -77.01922516666667, "fusion_lon": 0.0, "is_disabled": 0, "fusion_lat": 0.0, "bike_id": "7356a265c358d8e868603748939da7fd", "rental_uris": {"ios": "https://dc.lft.to/lastmile_qr_scan", "android": "https://dc.lft.to/lastmile_qr_scan"}}, {"name": "40d5d2f4d88b6d06e014a5a8ad9869e7", "type": "electric_scooter", "lat": 38.908404166666664, "is_reserved": 0, "lon": -77.02696983333334, "fusion_lon": 0.0, "is_disabled": 0, "fusion_lat": 0.0, "bike_id": "40d5d2f4d88b6d06e014a5a8ad9869e7", "rental_uris": {"ios": "https://dc.lft.to/lastmile_qr_scan", "android": "https://dc.lft.to/lastmile_qr_scan"}}, {"name": "52254342826e4e19fa856ca90d5ff4b0", "type": "electric_scooter", "lat": 38.8869235, "is_reserved": 0, "lon": -76.95765816666666, "fusion_lon": 0.0, "is_disabled": 0, "fusion_lat": 0.0, "bike_id": "52254342826e4e19fa856ca90d5ff4b0", "rental_uris": {"ios": "https://dc.lft.to/lastmile_qr_scan", "android": "https://dc.lft.to/lastmile_qr_scan"}}, {"name": "cd72c03464630fd4410130794f311562", "type": "electric_scooter", "lat": 38.87627483333333, "is_reserved": 0, "lon": -76.96528016666667, "fusion_lon": 0.0, "is_disabled": 0, "fusion_lat": 0.0, "bike_id": "cd72c03464630fd4410130794f311562", "rental_uris": {"ios": "https://dc.lft.to/lastmile_qr_scan", "android": "https://dc.lft.to/lastmile_qr_scan"}}, {"name": "5bcc5cf6ecfab38ab9a141896f6b7eeb", "type": "electric_scooter", "lat": 38.90022166666667, "is_reserved": 0, "lon": -77.00201883333334, "fusion_lon": 0.0, "is_disabled": 0, "fusion_lat": 0.0, "bike_id": "5bcc5cf6ecfab38ab9a141896f6b7eeb", "rental_uris": {"ios": "https://dc.lft.to/lastmile_qr_scan", "android": "https://dc.lft.to/lastmile_qr_scan"}}, {"name": "7bfbb52b63be7b7220ca038c616524af", "type": "electric_scooter", "lat": 38.93066966666667, "is_reserved": 0, "lon": -77.0380825, "fusion_lon": 0.0, "is_disabled": 0, "fusion_lat": 0.0, "bike_id": "7bfbb52b63be7b7220ca038c616524af", "rental_uris": {"ios": "https://dc.lft.to/lastmile_qr_scan", "android": "https://dc.lft.to/lastmile_qr_scan"}}, {"name": "4646faf55a60c4cbd986cd3e8fda7543", "type": "electric_scooter", "lat": 38.917554833333334, "is_reserved": 0, "lon": -77.0385975, "fusion_lon": 0.0, "is_disabled": 0, "fusion_lat": 0.0, "bike_id": "4646faf55a60c4cbd986cd3e8fda7543", "rental_uris": {"ios": "https://dc.lft.to/lastmile_qr_scan", "android": "https://dc.lft.to/lastmile_qr_scan"}}, {"name": "d4879e5118cecb6c6f427de28c8d8edd", "type": "electric_scooter", "lat": 38.949618, "is_reserved": 0, "lon": -77.02723783333333, "fusion_lon": 0.0, "is_disabled": 0, "fusion_lat": 0.0, "bike_id": "d4879e5118cecb6c6f427de28c8d8edd", "rental_uris": {"ios": "https://dc.lft.to/lastmile_qr_scan", "android": "https://dc.lft.to/lastmile_qr_scan"}}, {"name": "6ebef697806d1c994c3a905efc0e86e0", "type": "electric_scooter", "lat": 38.918974666666664, "is_reserved": 0, "lon": -77.0196415, "fusion_lon": 0.0, "is_disabled": 0, "fusion_lat": 0.0, "bike_id": "6ebef697806d1c994c3a905efc0e86e0", "rental_uris": {"ios": "https://dc.lft.to/lastmile_qr_scan", "android": "https://dc.lft.to/lastmile_qr_scan"}}, {"name": "7c6f11bcb3ad429586abacb38c091b23", "type": "electric_scooter", "lat": 38.876395333333335, "is_reserved": 0, "lon": -76.9958975, "fusion_lon": 0.0, "is_disabled": 0, "fusion_lat": 0.0, "bike_id": "7c6f11bcb3ad429586abacb38c091b23", "rental_uris": {"ios": "https://dc.lft.to/lastmile_qr_scan", "android": "https://dc.lft.to/lastmile_qr_scan"}}, {"name": "2f1e4052e9f27ada72a6b0faafeeb9d8", "type": "electric_scooter", "lat": 38.90004166666667, "is_reserved": 0, "lon": -77.0111685, "fusion_lon": 0.0, "is_disabled": 0, "fusion_lat": 0.0, "bike_id": "2f1e4052e9f27ada72a6b0faafeeb9d8", "rental_uris": {"ios": "https://dc.lft.to/lastmile_qr_scan", "android": "https://dc.lft.to/lastmile_qr_scan"}}, {"name": "7fe8edaddd65b8c3698a83a38ff62056", "type": "electric_scooter", "lat": 38.8770705, "is_reserved": 0, "lon": -76.99385716666667, "fusion_lon": 0.0, "is_disabled": 0, "fusion_lat": 0.0, "bike_id": "7fe8edaddd65b8c3698a83a38ff62056", "rental_uris": {"ios": "https://dc.lft.to/lastmile_qr_scan", "android": "https://dc.lft.to/lastmile_qr_scan"}}, {"name": "172a538aa87efbf2ea5305daf35762f8", "type": "electric_scooter", "lat": 38.898131666666664, "is_reserved": 0, "lon": -77.03305116666667, "fusion_lon": 0.0, "is_disabled": 0, "fusion_lat": 0.0, "bike_id": "172a538aa87efbf2ea5305daf35762f8", "rental_uris": {"ios": "https://dc.lft.to/lastmile_qr_scan", "android": "https://dc.lft.to/lastmile_qr_scan"}}, {"name": "e7e025ab3cf78d136ccbc140af704f9e", "type": "electric_scooter", "lat": 38.90278716666667, "is_reserved": 0, "lon": -77.03836166666666, "fusion_lon": 0.0, "is_disabled": 0, "fusion_lat": 0.0, "bike_id": "e7e025ab3cf78d136ccbc140af704f9e", "rental_uris": {"ios": "https://dc.lft.to/lastmile_qr_scan", "android": "https://dc.lft.to/lastmile_qr_scan"}}, {"name": "0c1a065c5828512f9378cf0d95924ad1", "type": "electric_scooter", "lat": 38.9592465, "is_reserved": 0, "lon": -77.03324, "fusion_lon": 0.0, "is_disabled": 0, "fusion_lat": 0.0, "bike_id": "0c1a065c5828512f9378cf0d95924ad1", "rental_uris": {"ios": "https://dc.lft.to/lastmile_qr_scan", "android": "https://dc.lft.to/lastmile_qr_scan"}}, {"name": "fc79eaa3233f50476a83586db0c95656", "type": "electric_scooter", "lat": 38.90042116666667, "is_reserved": 0, "lon": -76.9191635, "fusion_lon": 0.0, "is_disabled": 0, "fusion_lat": 0.0, "bike_id": "fc79eaa3233f50476a83586db0c95656", "rental_uris": {"ios": "https://dc.lft.to/lastmile_qr_scan", "android": "https://dc.lft.to/lastmile_qr_scan"}}, {"name": "7c233871eecc9490078e14f4a2731e1d", "type": "electric_scooter", "lat": 38.89806683333333, "is_reserved": 0, "lon": -76.99504666666667, "fusion_lon": 0.0, "is_disabled": 0, "fusion_lat": 0.0, "bike_id": "7c233871eecc9490078e14f4a2731e1d", "rental_uris": {"ios": "https://dc.lft.to/lastmile_qr_scan", "android": "https://dc.lft.to/lastmile_qr_scan"}}, {"name": "4e7768b8c46300fc21391e9eb2128afd", "type": "electric_scooter", "lat": 38.92344166666667, "is_reserved": 0, "lon": -77.05045216666667, "fusion_lon": 0.0, "is_disabled": 0, "fusion_lat": 0.0, "bike_id": "4e7768b8c46300fc21391e9eb2128afd", "rental_uris": {"ios": "https://dc.lft.to/lastmile_qr_scan", "android": "https://dc.lft.to/lastmile_qr_scan"}}, {"name": "ba9a391d74180dbf3363406689ee3171", "type": "electric_scooter", "lat": 38.90109366666667, "is_reserved": 0, "lon": -77.05161566666666, "fusion_lon": 0.0, "is_disabled": 0, "fusion_lat": 0.0, "bike_id": "ba9a391d74180dbf3363406689ee3171", "rental_uris": {"ios": "https://dc.lft.to/lastmile_qr_scan", "android": "https://dc.lft.to/lastmile_qr_scan"}}, {"name": "d7ee894b7590c376e7b3d4f502cace10", "type": "electric_scooter", "lat": 38.904245833333334, "is_reserved": 0, "lon": -77.02088916666666, "fusion_lon": 0.0, "is_disabled": 0, "fusion_lat": 0.0, "bike_id": "d7ee894b7590c376e7b3d4f502cace10", "rental_uris": {"ios": "https://dc.lft.to/lastmile_qr_scan", "android": "https://dc.lft.to/lastmile_qr_scan"}}, {"name": "bf7429eace4ac1cab572075ab0d8fa9b", "type": "electric_bike", "lat": 38.9290705, "is_reserved": 0, "lon": -77.023815, "fusion_lon": 0.0, "is_disabled": 0, "fusion_lat": 0.0, "bike_id": "bf7429eace4ac1cab572075ab0d8fa9b", "rental_uris": {"ios": "https://dc.lft.to/lastmile_qr_scan", "android": "https://dc.lft.to/lastmile_qr_scan"}}, {"name": "ea8c8a9342065f9b1cae0de2a426be98", "type": "electric_scooter", "lat": 38.903391666666664, "is_reserved": 0, "lon": -77.03826566666666, "fusion_lon": 0.0, "is_disabled": 0, "fusion_lat": 0.0, "bike_id": "ea8c8a9342065f9b1cae0de2a426be98", "rental_uris": {"ios": "https://dc.lft.to/lastmile_qr_scan", "android": "https://dc.lft.to/lastmile_qr_scan"}}, {"name": "73cfe91970a6807e7412644b4bda26b2", "type": "electric_scooter", "lat": 38.8620085, "is_reserved": 0, "lon": -76.9947315, "fusion_lon": 0.0, "is_disabled": 0, "fusion_lat": 0.0, "bike_id": "73cfe91970a6807e7412644b4bda26b2", "rental_uris": {"ios": "https://dc.lft.to/lastmile_qr_scan", "android": "https://dc.lft.to/lastmile_qr_scan"}}, {"name": "98d71eb1ff04d6cfef9dce2af2a70819", "type": "electric_scooter", "lat": 38.91192566666667, "is_reserved": 0, "lon": -77.060937, "fusion_lon": 0.0, "is_disabled": 0, "fusion_lat": 0.0, "bike_id": "98d71eb1ff04d6cfef9dce2af2a70819", "rental_uris": {"ios": "https://dc.lft.to/lastmile_qr_scan", "android": "https://dc.lft.to/lastmile_qr_scan"}}, {"name": "55d20ef082ba65778db1e991eb87d22a", "type": "electric_scooter", "lat": 38.90394233333333, "is_reserved": 0, "lon": -77.0435735, "fusion_lon": 0.0, "is_disabled": 0, "fusion_lat": 0.0, "bike_id": "55d20ef082ba65778db1e991eb87d22a", "rental_uris": {"ios": "https://dc.lft.to/lastmile_qr_scan", "android": "https://dc.lft.to/lastmile_qr_scan"}}, {"name": "71e298d1cae6e3ec8cbb6499ca512845", "type": "electric_scooter", "lat": 38.91571533333333, "is_reserved": 0, "lon": -77.03944033333333, "fusion_lon": 0.0, "is_disabled": 0, "fusion_lat": 0.0, "bike_id": "71e298d1cae6e3ec8cbb6499ca512845", "rental_uris": {"ios": "https://dc.lft.to/lastmile_qr_scan", "android": "https://dc.lft.to/lastmile_qr_scan"}}, {"name": "d739bc6c7434b8790e2408572f5be37a", "type": "electric_scooter", "lat": 38.90461666666667, "is_reserved": 0, "lon": -77.01422783333334, "fusion_lon": 0.0, "is_disabled": 0, "fusion_lat": 0.0, "bike_id": "d739bc6c7434b8790e2408572f5be37a", "rental_uris": {"ios": "https://dc.lft.to/lastmile_qr_scan", "android": "https://dc.lft.to/lastmile_qr_scan"}}, {"name": "29c08235647330b65bc524f5c54ac4a1", "type": "electric_bike", "lat": 38.929063166666666, "is_reserved": 0, "lon": -77.0650365, "fusion_lon": 0.0, "is_disabled": 0, "fusion_lat": 0.0, "bike_id": "29c08235647330b65bc524f5c54ac4a1", "rental_uris": {"ios": "https://dc.lft.to/lastmile_qr_scan", "android": "https://dc.lft.to/lastmile_qr_scan"}}, {"name": "24660f55e7c9da744fca47ddcdd8f83f", "type": "electric_scooter", "lat": 38.92847016666666, "is_reserved": 0, "lon": -77.05432716666667, "fusion_lon": 0.0, "is_disabled": 0, "fusion_lat": 0.0, "bike_id": "24660f55e7c9da744fca47ddcdd8f83f", "rental_uris": {"ios": "https://dc.lft.to/lastmile_qr_scan", "android": "https://dc.lft.to/lastmile_qr_scan"}}, {"name": "c5de6824e40e6521109ceac6e10a8b45", "type": "electric_scooter", "lat": 38.8955285, "is_reserved": 0, "lon": -77.009209, "fusion_lon": 0.0, "is_disabled": 0, "fusion_lat": 0.0, "bike_id": "c5de6824e40e6521109ceac6e10a8b45", "rental_uris": {"ios": "https://dc.lft.to/lastmile_qr_scan", "android": "https://dc.lft.to/lastmile_qr_scan"}}, {"name": "07ef482b15a9266cd64d45c4e6288e44", "type": "electric_scooter", "lat": 38.895087333333336, "is_reserved": 0, "lon": -77.00336966666667, "fusion_lon": 0.0, "is_disabled": 0, "fusion_lat": 0.0, "bike_id": "07ef482b15a9266cd64d45c4e6288e44", "rental_uris": {"ios": "https://dc.lft.to/lastmile_qr_scan", "android": "https://dc.lft.to/lastmile_qr_scan"}}, {"name": "89f329c09c6a75edb095b78f6da6f47d", "type": "electric_scooter", "lat": 38.929628666666666, "is_reserved": 0, "lon": -77.02353316666667, "fusion_lon": 0.0, "is_disabled": 0, "fusion_lat": 0.0, "bike_id": "89f329c09c6a75edb095b78f6da6f47d", "rental_uris": {"ios": "https://dc.lft.to/lastmile_qr_scan", "android": "https://dc.lft.to/lastmile_qr_scan"}}, {"name": "d9624b2cf9c6cee85521248ed4671f0c", "type": "electric_bike", "lat": 38.959564, "is_reserved": 0, "lon": -77.10094533333333, "fusion_lon": 0.0, "is_disabled": 0, "fusion_lat": 0.0, "bike_id": "d9624b2cf9c6cee85521248ed4671f0c", "rental_uris": {"ios": "https://dc.lft.to/lastmile_qr_scan", "android": "https://dc.lft.to/lastmile_qr_scan"}}, {"name": "5ad7063c066f9800c4af45ef3599fc99", "type": "electric_scooter", "lat": 38.884966166666665, "is_reserved": 0, "lon": -77.00727966666666, "fusion_lon": 0.0, "is_disabled": 0, "fusion_lat": 0.0, "bike_id": "5ad7063c066f9800c4af45ef3599fc99", "rental_uris": {"ios": "https://dc.lft.to/lastmile_qr_scan", "android": "https://dc.lft.to/lastmile_qr_scan"}}, {"name": "3a375dcdafdb0df7e21f291121431fdd", "type": "electric_scooter", "lat": 38.90788416666667, "is_reserved": 0, "lon": -77.00963933333334, "fusion_lon": 0.0, "is_disabled": 0, "fusion_lat": 0.0, "bike_id": "3a375dcdafdb0df7e21f291121431fdd", "rental_uris": {"ios": "https://dc.lft.to/lastmile_qr_scan", "android": "https://dc.lft.to/lastmile_qr_scan"}}, {"name": "606aec8b234833804d79854ae09491ef", "type": "electric_scooter", "lat": 38.90648066666667, "is_reserved": 0, "lon": -77.00890666666666, "fusion_lon": 0.0, "is_disabled": 0, "fusion_lat": 0.0, "bike_id": "606aec8b234833804d79854ae09491ef", "rental_uris": {"ios": "https://dc.lft.to/lastmile_qr_scan", "android": "https://dc.lft.to/lastmile_qr_scan"}}, {"name": "df5f9c3aa76ad64bc261fd9a7b250657", "type": "electric_scooter", "lat": 38.929862666666665, "is_reserved": 0, "lon": -77.02486833333333, "fusion_lon": 0.0, "is_disabled": 0, "fusion_lat": 0.0, "bike_id": "df5f9c3aa76ad64bc261fd9a7b250657", "rental_uris": {"ios": "https://dc.lft.to/lastmile_qr_scan", "android": "https://dc.lft.to/lastmile_qr_scan"}}, {"name": "62a00b5021413a9316f4a3774a89426c", "type": "electric_scooter", "lat": 38.90271933333333, "is_reserved": 0, "lon": -77.05958783333334, "fusion_lon": 0.0, "is_disabled": 0, "fusion_lat": 0.0, "bike_id": "62a00b5021413a9316f4a3774a89426c", "rental_uris": {"ios": "https://dc.lft.to/lastmile_qr_scan", "android": "https://dc.lft.to/lastmile_qr_scan"}}, {"name": "59301fcefadb909dad37869dc9bf916a", "type": "electric_scooter", "lat": 38.92794833333333, "is_reserved": 0, "lon": -77.03989033333333, "fusion_lon": 0.0, "is_disabled": 0, "fusion_lat": 0.0, "bike_id": "59301fcefadb909dad37869dc9bf916a", "rental_uris": {"ios": "https://dc.lft.to/lastmile_qr_scan", "android": "https://dc.lft.to/lastmile_qr_scan"}}, {"name": "fc57983c6ce869ee4a83253866830198", "type": "electric_scooter", "lat": 38.9169745, "is_reserved": 0, "lon": -77.00813133333334, "fusion_lon": 0.0, "is_disabled": 0, "fusion_lat": 0.0, "bike_id": "fc57983c6ce869ee4a83253866830198", "rental_uris": {"ios": "https://dc.lft.to/lastmile_qr_scan", "android": "https://dc.lft.to/lastmile_qr_scan"}}, {"name": "140704de7e9f28b17d61b15af49bf460", "type": "electric_scooter", "lat": 38.94989916666667, "is_reserved": 0, "lon": -77.0668, "fusion_lon": 0.0, "is_disabled": 0, "fusion_lat": 0.0, "bike_id": "140704de7e9f28b17d61b15af49bf460", "rental_uris": {"ios": "https://dc.lft.to/lastmile_qr_scan", "android": "https://dc.lft.to/lastmile_qr_scan"}}, {"name": "fe922e0ab9eb0b9da5e67ae1f613dc1e", "type": "electric_scooter", "lat": 38.90283866666667, "is_reserved": 0, "lon": -77.03653883333334, "fusion_lon": 0.0, "is_disabled": 0, "fusion_lat": 0.0, "bike_id": "fe922e0ab9eb0b9da5e67ae1f613dc1e", "rental_uris": {"ios": "https://dc.lft.to/lastmile_qr_scan", "android": "https://dc.lft.to/lastmile_qr_scan"}}, {"name": "04aa1fa5f956048183dc026a8641c25a", "type": "electric_scooter", "lat": 38.894745666666665, "is_reserved": 0, "lon": -76.985987, "fusion_lon": 0.0, "is_disabled": 0, "fusion_lat": 0.0, "bike_id": "04aa1fa5f956048183dc026a8641c25a", "rental_uris": {"ios": "https://dc.lft.to/lastmile_qr_scan", "android": "https://dc.lft.to/lastmile_qr_scan"}}, {"name": "f396574d8f57e57300bf022f6cc445b1", "type": "electric_bike", "lat": 38.8506275, "is_reserved": 0, "lon": -76.973316, "fusion_lon": 0.0, "is_disabled": 0, "fusion_lat": 0.0, "bike_id": "f396574d8f57e57300bf022f6cc445b1", "rental_uris": {"ios": "https://dc.lft.to/lastmile_qr_scan", "android": "https://dc.lft.to/lastmile_qr_scan"}}, {"name": "ea1e1b95f1bffb775ec398ab9c0fd10a", "type": "electric_scooter", "lat": 38.930995833333334, "is_reserved": 0, "lon": -77.02512016666667, "fusion_lon": 0.0, "is_disabled": 0, "fusion_lat": 0.0, "bike_id": "ea1e1b95f1bffb775ec398ab9c0fd10a", "rental_uris": {"ios": "https://dc.lft.to/lastmile_qr_scan", "android": "https://dc.lft.to/lastmile_qr_scan"}}, {"name": "92e02f012368a3d33d3f217fa83e9be4", "type": "electric_scooter", "lat": 38.907236, "is_reserved": 0, "lon": -76.9860075, "fusion_lon": 0.0, "is_disabled": 0, "fusion_lat": 0.0, "bike_id": "92e02f012368a3d33d3f217fa83e9be4", "rental_uris": {"ios": "https://dc.lft.to/lastmile_qr_scan", "android": "https://dc.lft.to/lastmile_qr_scan"}}, {"name": "83a6c94951893998c8029bac4b613080", "type": "electric_scooter", "lat": 38.9424925, "is_reserved": 0, "lon": -77.021722, "fusion_lon": 0.0, "is_disabled": 0, "fusion_lat": 0.0, "bike_id": "83a6c94951893998c8029bac4b613080", "rental_uris": {"ios": "https://dc.lft.to/lastmile_qr_scan", "android": "https://dc.lft.to/lastmile_qr_scan"}}, {"name": "d4f00fe3850697f42af4a2d94244ec4c", "type": "electric_scooter", "lat": 38.90367833333333, "is_reserved": 0, "lon": -77.04507283333334, "fusion_lon": 0.0, "is_disabled": 0, "fusion_lat": 0.0, "bike_id": "d4f00fe3850697f42af4a2d94244ec4c", "rental_uris": {"ios": "https://dc.lft.to/lastmile_qr_scan", "android": "https://dc.lft.to/lastmile_qr_scan"}}, {"name": "bb816ae25039f8d404dd8e47ae863793", "type": "electric_scooter", "lat": 38.95101833333333, "is_reserved": 0, "lon": -77.01579433333333, "fusion_lon": 0.0, "is_disabled": 0, "fusion_lat": 0.0, "bike_id": "bb816ae25039f8d404dd8e47ae863793", "rental_uris": {"ios": "https://dc.lft.to/lastmile_qr_scan", "android": "https://dc.lft.to/lastmile_qr_scan"}}, {"name": "c701fc1b875c3f5bd889998d3ce2b9cf", "type": "electric_scooter", "lat": 38.94013983333333, "is_reserved": 0, "lon": -77.07173766666666, "fusion_lon": 0.0, "is_disabled": 0, "fusion_lat": 0.0, "bike_id": "c701fc1b875c3f5bd889998d3ce2b9cf", "rental_uris": {"ios": "https://dc.lft.to/lastmile_qr_scan", "android": "https://dc.lft.to/lastmile_qr_scan"}}, {"name": "20e5c7d6bd30890fcb74e4b28433ac11", "type": "electric_scooter", "lat": 38.91349116666667, "is_reserved": 0, "lon": -77.02080283333333, "fusion_lon": 0.0, "is_disabled": 0, "fusion_lat": 0.0, "bike_id": "20e5c7d6bd30890fcb74e4b28433ac11", "rental_uris": {"ios": "https://dc.lft.to/lastmile_qr_scan", "android": "https://dc.lft.to/lastmile_qr_scan"}}, {"name": "30d85d73a2bfcc920246eb25b4e57955", "type": "electric_scooter", "lat": 38.9573055, "is_reserved": 0, "lon": -77.02407883333333, "fusion_lon": 0.0, "is_disabled": 0, "fusion_lat": 0.0, "bike_id": "30d85d73a2bfcc920246eb25b4e57955", "rental_uris": {"ios": "https://dc.lft.to/lastmile_qr_scan", "android": "https://dc.lft.to/lastmile_qr_scan"}}, {"name": "1ddcdfb0742d86d93b2424cbf2779578", "type": "electric_scooter", "lat": 38.9039135, "is_reserved": 0, "lon": -77.04041233333334, "fusion_lon": 0.0, "is_disabled": 0, "fusion_lat": 0.0, "bike_id": "1ddcdfb0742d86d93b2424cbf2779578", "rental_uris": {"ios": "https://dc.lft.to/lastmile_qr_scan", "android": "https://dc.lft.to/lastmile_qr_scan"}}, {"name": "91b9712cdf9bf3587293538016cb117c", "type": "electric_scooter", "lat": 38.917136, "is_reserved": 0, "lon": -77.0385855, "fusion_lon": 0.0, "is_disabled": 0, "fusion_lat": 0.0, "bike_id": "91b9712cdf9bf3587293538016cb117c", "rental_uris": {"ios": "https://dc.lft.to/lastmile_qr_scan", "android": "https://dc.lft.to/lastmile_qr_scan"}}, {"name": "a6d6489de6106ffa1f8bfa8f12a24d5a", "type": "electric_scooter", "lat": 38.897827166666666, "is_reserved": 0, "lon": -77.05167083333333, "fusion_lon": 0.0, "is_disabled": 0, "fusion_lat": 0.0, "bike_id": "a6d6489de6106ffa1f8bfa8f12a24d5a", "rental_uris": {"ios": "https://dc.lft.to/lastmile_qr_scan", "android": "https://dc.lft.to/lastmile_qr_scan"}}, {"name": "03c5df4b8c0612b287cd603de33ac93f", "type": "electric_scooter", "lat": 38.928816, "is_reserved": 0, "lon": -77.037653, "fusion_lon": 0.0, "is_disabled": 0, "fusion_lat": 0.0, "bike_id": "03c5df4b8c0612b287cd603de33ac93f", "rental_uris": {"ios": "https://dc.lft.to/lastmile_qr_scan", "android": "https://dc.lft.to/lastmile_qr_scan"}}, {"name": "ab9d7f9a9a97e55f6265d5adbfb9cea5", "type": "electric_scooter", "lat": 38.92482316666667, "is_reserved": 0, "lon": -77.0284215, "fusion_lon": 0.0, "is_disabled": 0, "fusion_lat": 0.0, "bike_id": "ab9d7f9a9a97e55f6265d5adbfb9cea5", "rental_uris": {"ios": "https://dc.lft.to/lastmile_qr_scan", "android": "https://dc.lft.to/lastmile_qr_scan"}}, {"name": "4020cb0309ecb6b32ddcf44dfc7118d3", "type": "electric_scooter", "lat": 38.878398833333335, "is_reserved": 0, "lon": -77.01968816666667, "fusion_lon": 0.0, "is_disabled": 0, "fusion_lat": 0.0, "bike_id": "4020cb0309ecb6b32ddcf44dfc7118d3", "rental_uris": {"ios": "https://dc.lft.to/lastmile_qr_scan", "android": "https://dc.lft.to/lastmile_qr_scan"}}, {"name": "81361f75332b940d193d0b471d3b1aef", "type": "electric_bike", "lat": 38.959101, "is_reserved": 0, "lon": -77.00155183333334, "fusion_lon": 0.0, "is_disabled": 0, "fusion_lat": 0.0, "bike_id": "81361f75332b940d193d0b471d3b1aef", "rental_uris": {"ios": "https://dc.lft.to/lastmile_qr_scan", "android": "https://dc.lft.to/lastmile_qr_scan"}}, {"name": "9b0c3472ba0915abda891fe8b5ac261c", "type": "electric_scooter", "lat": 38.899359, "is_reserved": 0, "lon": -77.03116, "fusion_lon": 0.0, "is_disabled": 0, "fusion_lat": 0.0, "bike_id": "9b0c3472ba0915abda891fe8b5ac261c", "rental_uris": {"ios": "https://dc.lft.to/lastmile_qr_scan", "android": "https://dc.lft.to/lastmile_qr_scan"}}, {"name": "31cda39184df7e63beceb1b96e22c8ed", "type": "electric_scooter", "lat": 38.872347833333336, "is_reserved": 0, "lon": -77.01165783333333, "fusion_lon": 0.0, "is_disabled": 0, "fusion_lat": 0.0, "bike_id": "31cda39184df7e63beceb1b96e22c8ed", "rental_uris": {"ios": "https://dc.lft.to/lastmile_qr_scan", "android": "https://dc.lft.to/lastmile_qr_scan"}}, {"name": "6984fcb750c5b9609c6c96a60515a553", "type": "electric_scooter", "lat": 38.94099666666666, "is_reserved": 0, "lon": -77.0211105, "fusion_lon": 0.0, "is_disabled": 0, "fusion_lat": 0.0, "bike_id": "6984fcb750c5b9609c6c96a60515a553", "rental_uris": {"ios": "https://dc.lft.to/lastmile_qr_scan", "android": "https://dc.lft.to/lastmile_qr_scan"}}, {"name": "229b1840051d9cb1c17109ec19b35eae", "type": "electric_scooter", "lat": 38.915692666666665, "is_reserved": 0, "lon": -77.0220135, "fusion_lon": 0.0, "is_disabled": 0, "fusion_lat": 0.0, "bike_id": "229b1840051d9cb1c17109ec19b35eae", "rental_uris": {"ios": "https://dc.lft.to/lastmile_qr_scan", "android": "https://dc.lft.to/lastmile_qr_scan"}}, {"name": "ae0a6f274eff1cd87ae1461e2c82e999", "type": "electric_scooter", "lat": 38.9187625, "is_reserved": 0, "lon": -77.043546, "fusion_lon": 0.0, "is_disabled": 0, "fusion_lat": 0.0, "bike_id": "ae0a6f274eff1cd87ae1461e2c82e999", "rental_uris": {"ios": "https://dc.lft.to/lastmile_qr_scan", "android": "https://dc.lft.to/lastmile_qr_scan"}}, {"name": "02838eb85c59e91942eefc10b56b1151", "type": "electric_scooter", "lat": 38.8544865, "is_reserved": 0, "lon": -76.985814, "fusion_lon": 0.0, "is_disabled": 0, "fusion_lat": 0.0, "bike_id": "02838eb85c59e91942eefc10b56b1151", "rental_uris": {"ios": "https://dc.lft.to/lastmile_qr_scan", "android": "https://dc.lft.to/lastmile_qr_scan"}}, {"name": "365bf7deae2fcb3dd8e085881be7860d", "type": "electric_scooter", "lat": 38.913348166666665, "is_reserved": 0, "lon": -77.0304555, "fusion_lon": 0.0, "is_disabled": 0, "fusion_lat": 0.0, "bike_id": "365bf7deae2fcb3dd8e085881be7860d", "rental_uris": {"ios": "https://dc.lft.to/lastmile_qr_scan", "android": "https://dc.lft.to/lastmile_qr_scan"}}, {"name": "adfbea3c43a891fed98baa562944d697", "type": "electric_scooter", "lat": 38.941546333333335, "is_reserved": 0, "lon": -77.03653166666666, "fusion_lon": 0.0, "is_disabled": 0, "fusion_lat": 0.0, "bike_id": "adfbea3c43a891fed98baa562944d697", "rental_uris": {"ios": "https://dc.lft.to/lastmile_qr_scan", "android": "https://dc.lft.to/lastmile_qr_scan"}}, {"name": "16b68670bc2c65166abacbf87d2f6120", "type": "electric_bike", "lat": 38.905326, "is_reserved": 0, "lon": -76.998078, "fusion_lon": 0.0, "is_disabled": 0, "fusion_lat": 0.0, "bike_id": "16b68670bc2c65166abacbf87d2f6120", "rental_uris": {"ios": "https://dc.lft.to/lastmile_qr_scan", "android": "https://dc.lft.to/lastmile_qr_scan"}}, {"name": "36d45ab20b3ba95ee1b68b03fa74fdf3", "type": "electric_scooter", "lat": 38.93101883333333, "is_reserved": 0, "lon": -77.02665866666666, "fusion_lon": 0.0, "is_disabled": 0, "fusion_lat": 0.0, "bike_id": "36d45ab20b3ba95ee1b68b03fa74fdf3", "rental_uris": {"ios": "https://dc.lft.to/lastmile_qr_scan", "android": "https://dc.lft.to/lastmile_qr_scan"}}, {"name": "fc2d23cb31aefef2b7500d276bf03089", "type": "electric_scooter", "lat": 38.898994, "is_reserved": 0, "lon": -77.00731183333333, "fusion_lon": 0.0, "is_disabled": 0, "fusion_lat": 0.0, "bike_id": "fc2d23cb31aefef2b7500d276bf03089", "rental_uris": {"ios": "https://dc.lft.to/lastmile_qr_scan", "android": "https://dc.lft.to/lastmile_qr_scan"}}, {"name": "755e4268073ff29b09c1fc0248029dc2", "type": "electric_scooter", "lat": 38.89825416666667, "is_reserved": 0, "lon": -76.926436, "fusion_lon": 0.0, "is_disabled": 0, "fusion_lat": 0.0, "bike_id": "755e4268073ff29b09c1fc0248029dc2", "rental_uris": {"ios": "https://dc.lft.to/lastmile_qr_scan", "android": "https://dc.lft.to/lastmile_qr_scan"}}, {"name": "f4655778d96549eb5d115c0ad4edc333", "type": "electric_scooter", "lat": 38.867008, "is_reserved": 0, "lon": -76.98711216666666, "fusion_lon": 0.0, "is_disabled": 0, "fusion_lat": 0.0, "bike_id": "f4655778d96549eb5d115c0ad4edc333", "rental_uris": {"ios": "https://dc.lft.to/lastmile_qr_scan", "android": "https://dc.lft.to/lastmile_qr_scan"}}, {"name": "d25587d155e3ceb1546330fbc4a3be9a", "type": "electric_bike", "lat": 38.990905, "is_reserved": 0, "lon": -76.87498383333333, "fusion_lon": 0.0, "is_disabled": 0, "fusion_lat": 0.0, "bike_id": "d25587d155e3ceb1546330fbc4a3be9a", "rental_uris": {"ios": "https://dc.lft.to/lastmile_qr_scan", "android": "https://dc.lft.to/lastmile_qr_scan"}}, {"name": "6ae11c880794e8731c06a15a7434ae2c", "type": "electric_scooter", "lat": 38.937161, "is_reserved": 0, "lon": -77.036525, "fusion_lon": 0.0, "is_disabled": 0, "fusion_lat": 0.0, "bike_id": "6ae11c880794e8731c06a15a7434ae2c", "rental_uris": {"ios": "https://dc.lft.to/lastmile_qr_scan", "android": "https://dc.lft.to/lastmile_qr_scan"}}, {"name": "953402c007238734d5065fa872bea65c", "type": "electric_scooter", "lat": 38.896764, "is_reserved": 0, "lon": -77.05402833333333, "fusion_lon": 0.0, "is_disabled": 0, "fusion_lat": 0.0, "bike_id": "953402c007238734d5065fa872bea65c", "rental_uris": {"ios": "https://dc.lft.to/lastmile_qr_scan", "android": "https://dc.lft.to/lastmile_qr_scan"}}, {"name": "5a2bb28b701d41b1d0645edb183e40e9", "type": "electric_scooter", "lat": 38.92288833333333, "is_reserved": 0, "lon": -77.02067333333333, "fusion_lon": 0.0, "is_disabled": 0, "fusion_lat": 0.0, "bike_id": "5a2bb28b701d41b1d0645edb183e40e9", "rental_uris": {"ios": "https://dc.lft.to/lastmile_qr_scan", "android": "https://dc.lft.to/lastmile_qr_scan"}}, {"name": "aa2611da6b7c8354e0bb6aa87c2079fd", "type": "electric_scooter", "lat": 38.912676, "is_reserved": 0, "lon": -77.03142416666667, "fusion_lon": 0.0, "is_disabled": 0, "fusion_lat": 0.0, "bike_id": "aa2611da6b7c8354e0bb6aa87c2079fd", "rental_uris": {"ios": "https://dc.lft.to/lastmile_qr_scan", "android": "https://dc.lft.to/lastmile_qr_scan"}}, {"name": "4fdeb117d018abb5a7e3cad0c39a9d44", "type": "electric_scooter", "lat": 38.914070833333334, "is_reserved": 0, "lon": -77.03902966666666, "fusion_lon": 0.0, "is_disabled": 0, "fusion_lat": 0.0, "bike_id": "4fdeb117d018abb5a7e3cad0c39a9d44", "rental_uris": {"ios": "https://dc.lft.to/lastmile_qr_scan", "android": "https://dc.lft.to/lastmile_qr_scan"}}, {"name": "d4db9515780d61e75e13aabbf347f9c4", "type": "electric_scooter", "lat": 38.895236833333335, "is_reserved": 0, "lon": -77.04850516666667, "fusion_lon": 0.0, "is_disabled": 0, "fusion_lat": 0.0, "bike_id": "d4db9515780d61e75e13aabbf347f9c4", "rental_uris": {"ios": "https://dc.lft.to/lastmile_qr_scan", "android": "https://dc.lft.to/lastmile_qr_scan"}}, {"name": "e294a360ccf7cadabd6e2930a58d94e6", "type": "electric_scooter", "lat": 38.90001266666667, "is_reserved": 0, "lon": -77.0524735, "fusion_lon": 0.0, "is_disabled": 0, "fusion_lat": 0.0, "bike_id": "e294a360ccf7cadabd6e2930a58d94e6", "rental_uris": {"ios": "https://dc.lft.to/lastmile_qr_scan", "android": "https://dc.lft.to/lastmile_qr_scan"}}, {"name": "808d2135c71bd8d714121a3c11ddc3a1", "type": "electric_scooter", "lat": 38.90363383333333, "is_reserved": 0, "lon": -77.033715, "fusion_lon": 0.0, "is_disabled": 0, "fusion_lat": 0.0, "bike_id": "808d2135c71bd8d714121a3c11ddc3a1", "rental_uris": {"ios": "https://dc.lft.to/lastmile_qr_scan", "android": "https://dc.lft.to/lastmile_qr_scan"}}, {"name": "5f50c8043d6212f845543365dd4f8eaf", "type": "electric_scooter", "lat": 38.87553966666667, "is_reserved": 0, "lon": -76.96490133333333, "fusion_lon": 0.0, "is_disabled": 0, "fusion_lat": 0.0, "bike_id": "5f50c8043d6212f845543365dd4f8eaf", "rental_uris": {"ios": "https://dc.lft.to/lastmile_qr_scan", "android": "https://dc.lft.to/lastmile_qr_scan"}}, {"name": "33dd7860f68c30e4806b23b309a1900d", "type": "electric_scooter", "lat": 38.915312, "is_reserved": 0, "lon": -77.046258, "fusion_lon": 0.0, "is_disabled": 0, "fusion_lat": 0.0, "bike_id": "33dd7860f68c30e4806b23b309a1900d", "rental_uris": {"ios": "https://dc.lft.to/lastmile_qr_scan", "android": "https://dc.lft.to/lastmile_qr_scan"}}, {"name": "c8e5bce1395c13b2f2b45ecf12356125", "type": "electric_bike", "lat": 38.92351133333333, "is_reserved": 0, "lon": -76.99246316666667, "fusion_lon": 0.0, "is_disabled": 0, "fusion_lat": 0.0, "bike_id": "c8e5bce1395c13b2f2b45ecf12356125", "rental_uris": {"ios": "https://dc.lft.to/lastmile_qr_scan", "android": "https://dc.lft.to/lastmile_qr_scan"}}, {"name": "6cb7e3ec04f79f6fa79efc26cb13d006", "type": "electric_bike", "lat": 38.90471983333333, "is_reserved": 0, "lon": -76.929475, "fusion_lon": 0.0, "is_disabled": 0, "fusion_lat": 0.0, "bike_id": "6cb7e3ec04f79f6fa79efc26cb13d006", "rental_uris": {"ios": "https://dc.lft.to/lastmile_qr_scan", "android": "https://dc.lft.to/lastmile_qr_scan"}}, {"name": "ddb8926d10d7495454936901391f4060", "type": "electric_scooter", "lat": 38.87433333333333, "is_reserved": 0, "lon": -77.02069, "fusion_lon": 0.0, "is_disabled": 0, "fusion_lat": 0.0, "bike_id": "ddb8926d10d7495454936901391f4060", "rental_uris": {"ios": "https://dc.lft.to/lastmile_qr_scan", "android": "https://dc.lft.to/lastmile_qr_scan"}}, {"name": "07d051b549591508431e392b4dac6777", "type": "electric_scooter", "lat": 38.899982, "is_reserved": 0, "lon": -76.98562366666667, "fusion_lon": 0.0, "is_disabled": 0, "fusion_lat": 0.0, "bike_id": "07d051b549591508431e392b4dac6777", "rental_uris": {"ios": "https://dc.lft.to/lastmile_qr_scan", "android": "https://dc.lft.to/lastmile_qr_scan"}}, {"name": "38e5f737f9f6acb536199c6e6fd6ed14", "type": "electric_scooter", "lat": 38.912658666666665, "is_reserved": 0, "lon": -77.00366066666666, "fusion_lon": 0.0, "is_disabled": 0, "fusion_lat": 0.0, "bike_id": "38e5f737f9f6acb536199c6e6fd6ed14", "rental_uris": {"ios": "https://dc.lft.to/lastmile_qr_scan", "android": "https://dc.lft.to/lastmile_qr_scan"}}, {"name": "bc95c50ce5611db8ca754aacc1335b77", "type": "electric_scooter", "lat": 38.894829, "is_reserved": 0, "lon": -76.94872833333334, "fusion_lon": 0.0, "is_disabled": 0, "fusion_lat": 0.0, "bike_id": "bc95c50ce5611db8ca754aacc1335b77", "rental_uris": {"ios": "https://dc.lft.to/lastmile_qr_scan", "android": "https://dc.lft.to/lastmile_qr_scan"}}, {"name": "2dbfbf608bbee40866be003b568a792a", "type": "electric_scooter", "lat": 38.87656116666667, "is_reserved": 0, "lon": -77.00416716666666, "fusion_lon": 0.0, "is_disabled": 0, "fusion_lat": 0.0, "bike_id": "2dbfbf608bbee40866be003b568a792a", "rental_uris": {"ios": "https://dc.lft.to/lastmile_qr_scan", "android": "https://dc.lft.to/lastmile_qr_scan"}}, {"name": "12327af9b597f54daae2430c8471e581", "type": "electric_scooter", "lat": 38.930767333333336, "is_reserved": 0, "lon": -77.0413905, "fusion_lon": 0.0, "is_disabled": 0, "fusion_lat": 0.0, "bike_id": "12327af9b597f54daae2430c8471e581", "rental_uris": {"ios": "https://dc.lft.to/lastmile_qr_scan", "android": "https://dc.lft.to/lastmile_qr_scan"}}, {"name": "2e44a61bbbe905eeb2fd09fcc86d5046", "type": "electric_scooter", "lat": 38.911056333333335, "is_reserved": 0, "lon": -77.00755983333333, "fusion_lon": 0.0, "is_disabled": 0, "fusion_lat": 0.0, "bike_id": "2e44a61bbbe905eeb2fd09fcc86d5046", "rental_uris": {"ios": "https://dc.lft.to/lastmile_qr_scan", "android": "https://dc.lft.to/lastmile_qr_scan"}}, {"name": "8071fe4287bed48e1cd3538ad665337f", "type": "electric_scooter", "lat": 38.892203333333335, "is_reserved": 0, "lon": -77.04370966666667, "fusion_lon": 0.0, "is_disabled": 0, "fusion_lat": 0.0, "bike_id": "8071fe4287bed48e1cd3538ad665337f", "rental_uris": {"ios": "https://dc.lft.to/lastmile_qr_scan", "android": "https://dc.lft.to/lastmile_qr_scan"}}, {"name": "5942d13b719fc81552a108f4c9b47b98", "type": "electric_scooter", "lat": 38.94051666666667, "is_reserved": 0, "lon": -77.03281116666666, "fusion_lon": 0.0, "is_disabled": 0, "fusion_lat": 0.0, "bike_id": "5942d13b719fc81552a108f4c9b47b98", "rental_uris": {"ios": "https://dc.lft.to/lastmile_qr_scan", "android": "https://dc.lft.to/lastmile_qr_scan"}}, {"name": "ed41eb4412b3fd4ec12c592b9ee29115", "type": "electric_scooter", "lat": 38.9277175, "is_reserved": 0, "lon": -77.02780483333333, "fusion_lon": 0.0, "is_disabled": 0, "fusion_lat": 0.0, "bike_id": "ed41eb4412b3fd4ec12c592b9ee29115", "rental_uris": {"ios": "https://dc.lft.to/lastmile_qr_scan", "android": "https://dc.lft.to/lastmile_qr_scan"}}, {"name": "2c6eba4c7e82d1e452954b44bae0c255", "type": "electric_scooter", "lat": 38.86374883333333, "is_reserved": 0, "lon": -76.99060233333333, "fusion_lon": 0.0, "is_disabled": 0, "fusion_lat": 0.0, "bike_id": "2c6eba4c7e82d1e452954b44bae0c255", "rental_uris": {"ios": "https://dc.lft.to/lastmile_qr_scan", "android": "https://dc.lft.to/lastmile_qr_scan"}}, {"name": "69fe4812f2eb903d625fb3346e4a617c", "type": "electric_scooter", "lat": 38.94271466666667, "is_reserved": 0, "lon": -77.03260933333334, "fusion_lon": 0.0, "is_disabled": 0, "fusion_lat": 0.0, "bike_id": "69fe4812f2eb903d625fb3346e4a617c", "rental_uris": {"ios": "https://dc.lft.to/lastmile_qr_scan", "android": "https://dc.lft.to/lastmile_qr_scan"}}, {"name": "80c29b31cdc61c2ce76c557782225a38", "type": "electric_scooter", "lat": 38.92094183333333, "is_reserved": 0, "lon": -77.03741383333333, "fusion_lon": 0.0, "is_disabled": 0, "fusion_lat": 0.0, "bike_id": "80c29b31cdc61c2ce76c557782225a38", "rental_uris": {"ios": "https://dc.lft.to/lastmile_qr_scan", "android": "https://dc.lft.to/lastmile_qr_scan"}}, {"name": "65ad4ca6604c3a9e25cc898b4f8cc3e7", "type": "electric_bike", "lat": 38.89225066666667, "is_reserved": 0, "lon": -76.97024816666666, "fusion_lon": 0.0, "is_disabled": 0, "fusion_lat": 0.0, "bike_id": "65ad4ca6604c3a9e25cc898b4f8cc3e7", "rental_uris": {"ios": "https://dc.lft.to/lastmile_qr_scan", "android": "https://dc.lft.to/lastmile_qr_scan"}}, {"name": "920ff95bd5271f1080e8b23a0dfe2e50", "type": "electric_scooter", "lat": 38.90553516666667, "is_reserved": 0, "lon": -77.0465125, "fusion_lon": 0.0, "is_disabled": 0, "fusion_lat": 0.0, "bike_id": "920ff95bd5271f1080e8b23a0dfe2e50", "rental_uris": {"ios": "https://dc.lft.to/lastmile_qr_scan", "android": "https://dc.lft.to/lastmile_qr_scan"}}, {"name": "7faae0d38298512614ea405ca5d44ac9", "type": "electric_scooter", "lat": 38.893559833333335, "is_reserved": 0, "lon": -77.019892, "fusion_lon": 0.0, "is_disabled": 0, "fusion_lat": 0.0, "bike_id": "7faae0d38298512614ea405ca5d44ac9", "rental_uris": {"ios": "https://dc.lft.to/lastmile_qr_scan", "android": "https://dc.lft.to/lastmile_qr_scan"}}, {"name": "805c381e469bcbdec7d70ef7884609fa", "type": "electric_scooter", "lat": 38.897759, "is_reserved": 0, "lon": -76.97729716666667, "fusion_lon": 0.0, "is_disabled": 0, "fusion_lat": 0.0, "bike_id": "805c381e469bcbdec7d70ef7884609fa", "rental_uris": {"ios": "https://dc.lft.to/lastmile_qr_scan", "android": "https://dc.lft.to/lastmile_qr_scan"}}, {"name": "7e6e7f7acd64f5a6c30e64672db02a89", "type": "electric_scooter", "lat": 38.91717283333333, "is_reserved": 0, "lon": -77.0684025, "fusion_lon": 0.0, "is_disabled": 0, "fusion_lat": 0.0, "bike_id": "7e6e7f7acd64f5a6c30e64672db02a89", "rental_uris": {"ios": "https://dc.lft.to/lastmile_qr_scan", "android": "https://dc.lft.to/lastmile_qr_scan"}}, {"name": "ad6765cd75b49b00526cdbfb89a63136", "type": "electric_scooter", "lat": 38.912067666666665, "is_reserved": 0, "lon": -77.04503266666667, "fusion_lon": 0.0, "is_disabled": 0, "fusion_lat": 0.0, "bike_id": "ad6765cd75b49b00526cdbfb89a63136", "rental_uris": {"ios": "https://dc.lft.to/lastmile_qr_scan", "android": "https://dc.lft.to/lastmile_qr_scan"}}, {"name": "afd08bcf0ca54acc0053ed549f97f590", "type": "electric_scooter", "lat": 38.92733483333333, "is_reserved": 0, "lon": -77.0298315, "fusion_lon": 0.0, "is_disabled": 0, "fusion_lat": 0.0, "bike_id": "afd08bcf0ca54acc0053ed549f97f590", "rental_uris": {"ios": "https://dc.lft.to/lastmile_qr_scan", "android": "https://dc.lft.to/lastmile_qr_scan"}}, {"name": "07f292b288f9b5cbe4803623f57c2836", "type": "electric_scooter", "lat": 38.95845633333333, "is_reserved": 0, "lon": -77.02931083333333, "fusion_lon": 0.0, "is_disabled": 0, "fusion_lat": 0.0, "bike_id": "07f292b288f9b5cbe4803623f57c2836", "rental_uris": {"ios": "https://dc.lft.to/lastmile_qr_scan", "android": "https://dc.lft.to/lastmile_qr_scan"}}, {"name": "f8bf383183e27e147f9103525d2c3762", "type": "electric_bike", "lat": 38.94835283333333, "is_reserved": 0, "lon": -77.03902416666666, "fusion_lon": 0.0, "is_disabled": 0, "fusion_lat": 0.0, "bike_id": "f8bf383183e27e147f9103525d2c3762", "rental_uris": {"ios": "https://dc.lft.to/lastmile_qr_scan", "android": "https://dc.lft.to/lastmile_qr_scan"}}, {"name": "689d21aee6dbc9c74a0ccff6e1b62d8b", "type": "electric_scooter", "lat": 38.934886166666665, "is_reserved": 0, "lon": -77.032855, "fusion_lon": 0.0, "is_disabled": 0, "fusion_lat": 0.0, "bike_id": "689d21aee6dbc9c74a0ccff6e1b62d8b", "rental_uris": {"ios": "https://dc.lft.to/lastmile_qr_scan", "android": "https://dc.lft.to/lastmile_qr_scan"}}, {"name": "6f0e632e3f5e078200347feac8ed95c6", "type": "electric_scooter", "lat": 38.933755833333336, "is_reserved": 0, "lon": -77.03462733333333, "fusion_lon": 0.0, "is_disabled": 0, "fusion_lat": 0.0, "bike_id": "6f0e632e3f5e078200347feac8ed95c6", "rental_uris": {"ios": "https://dc.lft.to/lastmile_qr_scan", "android": "https://dc.lft.to/lastmile_qr_scan"}}, {"name": "810bba8909f16a5705ce3a81ee2aec73", "type": "electric_scooter", "lat": 38.89477083333333, "is_reserved": 0, "lon": -77.03056266666667, "fusion_lon": 0.0, "is_disabled": 0, "fusion_lat": 0.0, "bike_id": "810bba8909f16a5705ce3a81ee2aec73", "rental_uris": {"ios": "https://dc.lft.to/lastmile_qr_scan", "android": "https://dc.lft.to/lastmile_qr_scan"}}, {"name": "ee4befb030d371ed4a20f4556c91f214", "type": "electric_scooter", "lat": 38.88115916666667, "is_reserved": 0, "lon": -77.01662683333333, "fusion_lon": 0.0, "is_disabled": 0, "fusion_lat": 0.0, "bike_id": "ee4befb030d371ed4a20f4556c91f214", "rental_uris": {"ios": "https://dc.lft.to/lastmile_qr_scan", "android": "https://dc.lft.to/lastmile_qr_scan"}}, {"name": "5e621d2ad3c9582a75ed81223712cdb9", "type": "electric_scooter", "lat": 38.89754533333333, "is_reserved": 0, "lon": -77.010497, "fusion_lon": 0.0, "is_disabled": 0, "fusion_lat": 0.0, "bike_id": "5e621d2ad3c9582a75ed81223712cdb9", "rental_uris": {"ios": "https://dc.lft.to/lastmile_qr_scan", "android": "https://dc.lft.to/lastmile_qr_scan"}}, {"name": "ebf069015cc1f519f2b59e3ce1e083d3", "type": "electric_bike", "lat": 38.827856833333335, "is_reserved": 0, "lon": -77.0091065, "fusion_lon": 0.0, "is_disabled": 0, "fusion_lat": 0.0, "bike_id": "ebf069015cc1f519f2b59e3ce1e083d3", "rental_uris": {"ios": "https://dc.lft.to/lastmile_qr_scan", "android": "https://dc.lft.to/lastmile_qr_scan"}}, {"name": "01662cf1979a3d22b8d349bc34aec34e", "type": "electric_scooter", "lat": 38.89843416666667, "is_reserved": 0, "lon": -76.94479583333333, "fusion_lon": 0.0, "is_disabled": 0, "fusion_lat": 0.0, "bike_id": "01662cf1979a3d22b8d349bc34aec34e", "rental_uris": {"ios": "https://dc.lft.to/lastmile_qr_scan", "android": "https://dc.lft.to/lastmile_qr_scan"}}, {"name": "e71f41d56167dbafe280d4a72a73fcac", "type": "electric_bike", "lat": 38.86756966666667, "is_reserved": 0, "lon": -76.94538766666666, "fusion_lon": 0.0, "is_disabled": 0, "fusion_lat": 0.0, "bike_id": "e71f41d56167dbafe280d4a72a73fcac", "rental_uris": {"ios": "https://dc.lft.to/lastmile_qr_scan", "android": "https://dc.lft.to/lastmile_qr_scan"}}, {"name": "41593398fbc5094fec4068562f99e23d", "type": "electric_scooter", "lat": 38.89496783333333, "is_reserved": 0, "lon": -77.00218566666666, "fusion_lon": 0.0, "is_disabled": 0, "fusion_lat": 0.0, "bike_id": "41593398fbc5094fec4068562f99e23d", "rental_uris": {"ios": "https://dc.lft.to/lastmile_qr_scan", "android": "https://dc.lft.to/lastmile_qr_scan"}}, {"name": "733debb3b56f4f6e53b34e095e10e28c", "type": "electric_scooter", "lat": 38.86243283333334, "is_reserved": 0, "lon": -76.9949935, "fusion_lon": 0.0, "is_disabled": 0, "fusion_lat": 0.0, "bike_id": "733debb3b56f4f6e53b34e095e10e28c", "rental_uris": {"ios": "https://dc.lft.to/lastmile_qr_scan", "android": "https://dc.lft.to/lastmile_qr_scan"}}, {"name": "9db38a7ec7d985d8f3b738c4019e555e", "type": "electric_bike", "lat": 38.8627965, "is_reserved": 0, "lon": -77.06361116666666, "fusion_lon": 0.0, "is_disabled": 0, "fusion_lat": 0.0, "bike_id": "9db38a7ec7d985d8f3b738c4019e555e", "rental_uris": {"ios": "https://dc.lft.to/lastmile_qr_scan", "android": "https://dc.lft.to/lastmile_qr_scan"}}, {"name": "6447bf8dce48bab1cfe95d709c326cf7", "type": "electric_scooter", "lat": 38.9272605, "is_reserved": 0, "lon": -77.00571516666666, "fusion_lon": 0.0, "is_disabled": 0, "fusion_lat": 0.0, "bike_id": "6447bf8dce48bab1cfe95d709c326cf7", "rental_uris": {"ios": "https://dc.lft.to/lastmile_qr_scan", "android": "https://dc.lft.to/lastmile_qr_scan"}}, {"name": "e600d05641b395c02ea911092e67ee62", "type": "electric_scooter", "lat": 38.8990965, "is_reserved": 0, "lon": -76.93353366666666, "fusion_lon": 0.0, "is_disabled": 0, "fusion_lat": 0.0, "bike_id": "e600d05641b395c02ea911092e67ee62", "rental_uris": {"ios": "https://dc.lft.to/lastmile_qr_scan", "android": "https://dc.lft.to/lastmile_qr_scan"}}, {"name": "3e107aa31cedf52200d226d3ebd3fa90", "type": "electric_bike", "lat": 38.8752805, "is_reserved": 0, "lon": -77.1990965, "fusion_lon": 0.0, "is_disabled": 0, "fusion_lat": 0.0, "bike_id": "3e107aa31cedf52200d226d3ebd3fa90", "rental_uris": {"ios": "https://dc.lft.to/lastmile_qr_scan", "android": "https://dc.lft.to/lastmile_qr_scan"}}, {"name": "80ac27381f1e3d14482140bb3c04a21b", "type": "electric_bike", "lat": 38.840557833333335, "is_reserved": 0, "lon": -77.064067, "fusion_lon": 0.0, "is_disabled": 0, "fusion_lat": 0.0, "bike_id": "80ac27381f1e3d14482140bb3c04a21b", "rental_uris": {"ios": "https://dc.lft.to/lastmile_qr_scan", "android": "https://dc.lft.to/lastmile_qr_scan"}}, {"name": "902ccf8f1f46c3c37167fe727f3404ec", "type": "electric_scooter", "lat": 38.92950716666667, "is_reserved": 0, "lon": -77.05511666666666, "fusion_lon": 0.0, "is_disabled": 0, "fusion_lat": 0.0, "bike_id": "902ccf8f1f46c3c37167fe727f3404ec", "rental_uris": {"ios": "https://dc.lft.to/lastmile_qr_scan", "android": "https://dc.lft.to/lastmile_qr_scan"}}, {"name": "127c3da9137dbe026188ec2127f72668", "type": "electric_bike", "lat": 39.094643833333336, "is_reserved": 0, "lon": -77.14995816666666, "fusion_lon": 0.0, "is_disabled": 0, "fusion_lat": 0.0, "bike_id": "127c3da9137dbe026188ec2127f72668", "rental_uris": {"ios": "https://dc.lft.to/lastmile_qr_scan", "android": "https://dc.lft.to/lastmile_qr_scan"}}, {"name": "c0d2559002d4143d9a0083d9bb7071c1", "type": "electric_scooter", "lat": 38.893888833333335, "is_reserved": 0, "lon": -77.02992116666667, "fusion_lon": 0.0, "is_disabled": 0, "fusion_lat": 0.0, "bike_id": "c0d2559002d4143d9a0083d9bb7071c1", "rental_uris": {"ios": "https://dc.lft.to/lastmile_qr_scan", "android": "https://dc.lft.to/lastmile_qr_scan"}}, {"name": "0b8ac7359041fcfab70fcec3067d9352", "type": "electric_scooter", "lat": 38.865229166666666, "is_reserved": 0, "lon": -76.9902895, "fusion_lon": 0.0, "is_disabled": 0, "fusion_lat": 0.0, "bike_id": "0b8ac7359041fcfab70fcec3067d9352", "rental_uris": {"ios": "https://dc.lft.to/lastmile_qr_scan", "android": "https://dc.lft.to/lastmile_qr_scan"}}, {"name": "498df0c5d6fba408373f648206155214", "type": "electric_bike", "lat": 38.9527205, "is_reserved": 0, "lon": -77.06981183333333, "fusion_lon": 0.0, "is_disabled": 0, "fusion_lat": 0.0, "bike_id": "498df0c5d6fba408373f648206155214", "rental_uris": {"ios": "https://dc.lft.to/lastmile_qr_scan", "android": "https://dc.lft.to/lastmile_qr_scan"}}, {"name": "c15cfe570a64ea49159ac6d7d4396c36", "type": "electric_bike", "lat": 38.862796333333335, "is_reserved": 0, "lon": -77.06359516666667, "fusion_lon": 0.0, "is_disabled": 0, "fusion_lat": 0.0, "bike_id": "c15cfe570a64ea49159ac6d7d4396c36", "rental_uris": {"ios": "https://dc.lft.to/lastmile_qr_scan", "android": "https://dc.lft.to/lastmile_qr_scan"}}, {"name": "db63146d471de20787ce1972a90954e9", "type": "electric_scooter", "lat": 38.92481166666666, "is_reserved": 0, "lon": -77.0348425, "fusion_lon": 0.0, "is_disabled": 0, "fusion_lat": 0.0, "bike_id": "db63146d471de20787ce1972a90954e9", "rental_uris": {"ios": "https://dc.lft.to/lastmile_qr_scan", "android": "https://dc.lft.to/lastmile_qr_scan"}}, {"name": "a04e5ce78e068b38859ef2a6c14ee81c", "type": "electric_scooter", "lat": 38.88609266666667, "is_reserved": 0, "lon": -76.99517566666667, "fusion_lon": 0.0, "is_disabled": 0, "fusion_lat": 0.0, "bike_id": "a04e5ce78e068b38859ef2a6c14ee81c", "rental_uris": {"ios": "https://dc.lft.to/lastmile_qr_scan", "android": "https://dc.lft.to/lastmile_qr_scan"}}, {"name": "d742c77ed96d42865e3356bc7c7dea7c", "type": "electric_scooter", "lat": 38.92743, "is_reserved": 0, "lon": -77.032614, "fusion_lon": 0.0, "is_disabled": 0, "fusion_lat": 0.0, "bike_id": "d742c77ed96d42865e3356bc7c7dea7c", "rental_uris": {"ios": "https://dc.lft.to/lastmile_qr_scan", "android": "https://dc.lft.to/lastmile_qr_scan"}}, {"name": "186f5b32261e875b36463010c3a1d6e2", "type": "electric_scooter", "lat": 38.925131666666665, "is_reserved": 0, "lon": -77.019363, "fusion_lon": 0.0, "is_disabled": 0, "fusion_lat": 0.0, "bike_id": "186f5b32261e875b36463010c3a1d6e2", "rental_uris": {"ios": "https://dc.lft.to/lastmile_qr_scan", "android": "https://dc.lft.to/lastmile_qr_scan"}}, {"name": "681f4b0fb42d7f509b9dbeac6bbbe440", "type": "electric_scooter", "lat": 38.91111716666666, "is_reserved": 0, "lon": -77.038305, "fusion_lon": 0.0, "is_disabled": 0, "fusion_lat": 0.0, "bike_id": "681f4b0fb42d7f509b9dbeac6bbbe440", "rental_uris": {"ios": "https://dc.lft.to/lastmile_qr_scan", "android": "https://dc.lft.to/lastmile_qr_scan"}}, {"name": "105d23ee0f7d5e442ab4801ddeab54b6", "type": "electric_scooter", "lat": 38.9214685, "is_reserved": 0, "lon": -77.03387416666666, "fusion_lon": 0.0, "is_disabled": 0, "fusion_lat": 0.0, "bike_id": "105d23ee0f7d5e442ab4801ddeab54b6", "rental_uris": {"ios": "https://dc.lft.to/lastmile_qr_scan", "android": "https://dc.lft.to/lastmile_qr_scan"}}, {"name": "dda96811981393928e73c97b45af68b0", "type": "electric_scooter", "lat": 38.911075, "is_reserved": 0, "lon": -77.013932, "fusion_lon": 0.0, "is_disabled": 0, "fusion_lat": 0.0, "bike_id": "dda96811981393928e73c97b45af68b0", "rental_uris": {"ios": "https://dc.lft.to/lastmile_qr_scan", "android": "https://dc.lft.to/lastmile_qr_scan"}}, {"name": "3d8ae4645da368671e403729c4cc2229", "type": "electric_scooter", "lat": 38.863745333333334, "is_reserved": 0, "lon": -76.99062, "fusion_lon": 0.0, "is_disabled": 0, "fusion_lat": 0.0, "bike_id": "3d8ae4645da368671e403729c4cc2229", "rental_uris": {"ios": "https://dc.lft.to/lastmile_qr_scan", "android": "https://dc.lft.to/lastmile_qr_scan"}}, {"name": "e023acad15999dc241fb9c287cb4c159", "type": "electric_scooter", "lat": 38.9200195, "is_reserved": 0, "lon": -77.038988, "fusion_lon": 0.0, "is_disabled": 0, "fusion_lat": 0.0, "bike_id": "e023acad15999dc241fb9c287cb4c159", "rental_uris": {"ios": "https://dc.lft.to/lastmile_qr_scan", "android": "https://dc.lft.to/lastmile_qr_scan"}}, {"name": "9f0a900ac2fef66fe5e0f4877d80febc", "type": "electric_scooter", "lat": 38.906767, "is_reserved": 0, "lon": -77.0382525, "fusion_lon": 0.0, "is_disabled": 0, "fusion_lat": 0.0, "bike_id": "9f0a900ac2fef66fe5e0f4877d80febc", "rental_uris": {"ios": "https://dc.lft.to/lastmile_qr_scan", "android": "https://dc.lft.to/lastmile_qr_scan"}}, {"name": "c4ccd75f9e2c2219d293e6e90dd133e9", "type": "electric_scooter", "lat": 38.866609, "is_reserved": 0, "lon": -76.98886266666666, "fusion_lon": 0.0, "is_disabled": 0, "fusion_lat": 0.0, "bike_id": "c4ccd75f9e2c2219d293e6e90dd133e9", "rental_uris": {"ios": "https://dc.lft.to/lastmile_qr_scan", "android": "https://dc.lft.to/lastmile_qr_scan"}}, {"name": "6ef5043619e7f7742424d51ad5b3c1d7", "type": "electric_scooter", "lat": 38.90587, "is_reserved": 0, "lon": -77.03441783333334, "fusion_lon": 0.0, "is_disabled": 0, "fusion_lat": 0.0, "bike_id": "6ef5043619e7f7742424d51ad5b3c1d7", "rental_uris": {"ios": "https://dc.lft.to/lastmile_qr_scan", "android": "https://dc.lft.to/lastmile_qr_scan"}}, {"name": "9ffea5655948f6e4600f0cb74c8128ed", "type": "electric_scooter", "lat": 38.90626133333333, "is_reserved": 0, "lon": -77.051366, "fusion_lon": 0.0, "is_disabled": 0, "fusion_lat": 0.0, "bike_id": "9ffea5655948f6e4600f0cb74c8128ed", "rental_uris": {"ios": "https://dc.lft.to/lastmile_qr_scan", "android": "https://dc.lft.to/lastmile_qr_scan"}}, {"name": "ab59496dfd5aeced3dd5e67554b1a537", "type": "electric_scooter", "lat": 38.90652466666667, "is_reserved": 0, "lon": -77.05131433333334, "fusion_lon": 0.0, "is_disabled": 0, "fusion_lat": 0.0, "bike_id": "ab59496dfd5aeced3dd5e67554b1a537", "rental_uris": {"ios": "https://dc.lft.to/lastmile_qr_scan", "android": "https://dc.lft.to/lastmile_qr_scan"}}, {"name": "fc972c1c5cb323f30f5b97365e2a3e2d", "type": "electric_scooter", "lat": 38.9301205, "is_reserved": 0, "lon": -77.02328683333333, "fusion_lon": 0.0, "is_disabled": 0, "fusion_lat": 0.0, "bike_id": "fc972c1c5cb323f30f5b97365e2a3e2d", "rental_uris": {"ios": "https://dc.lft.to/lastmile_qr_scan", "android": "https://dc.lft.to/lastmile_qr_scan"}}, {"name": "3ff5c677bb07a5fc635fb69496b9dc02", "type": "electric_scooter", "lat": 38.900231833333336, "is_reserved": 0, "lon": -77.040302, "fusion_lon": 0.0, "is_disabled": 0, "fusion_lat": 0.0, "bike_id": "3ff5c677bb07a5fc635fb69496b9dc02", "rental_uris": {"ios": "https://dc.lft.to/lastmile_qr_scan", "android": "https://dc.lft.to/lastmile_qr_scan"}}, {"name": "9790cc8773c05ad523d1c44286a3ed1a", "type": "electric_scooter", "lat": 38.923342166666664, "is_reserved": 0, "lon": -77.0351415, "fusion_lon": 0.0, "is_disabled": 0, "fusion_lat": 0.0, "bike_id": "9790cc8773c05ad523d1c44286a3ed1a", "rental_uris": {"ios": "https://dc.lft.to/lastmile_qr_scan", "android": "https://dc.lft.to/lastmile_qr_scan"}}, {"name": "be13f8d73d1c8527c8ee5d67e6f532f3", "type": "electric_scooter", "lat": 38.897292166666666, "is_reserved": 0, "lon": -77.04339783333333, "fusion_lon": 0.0, "is_disabled": 0, "fusion_lat": 0.0, "bike_id": "be13f8d73d1c8527c8ee5d67e6f532f3", "rental_uris": {"ios": "https://dc.lft.to/lastmile_qr_scan", "android": "https://dc.lft.to/lastmile_qr_scan"}}, {"name": "c5312218b70c13c8f99d8c3b44adc4ea", "type": "electric_scooter", "lat": 38.91093333333333, "is_reserved": 0, "lon": -77.00500783333334, "fusion_lon": 0.0, "is_disabled": 0, "fusion_lat": 0.0, "bike_id": "c5312218b70c13c8f99d8c3b44adc4ea", "rental_uris": {"ios": "https://dc.lft.to/lastmile_qr_scan", "android": "https://dc.lft.to/lastmile_qr_scan"}}, {"name": "9182ec83620e0c16a0ccb8b7ea139cae", "type": "electric_scooter", "lat": 38.92358466666667, "is_reserved": 0, "lon": -77.0415365, "fusion_lon": 0.0, "is_disabled": 0, "fusion_lat": 0.0, "bike_id": "9182ec83620e0c16a0ccb8b7ea139cae", "rental_uris": {"ios": "https://dc.lft.to/lastmile_qr_scan", "android": "https://dc.lft.to/lastmile_qr_scan"}}, {"name": "25ff2d50190c5a77f674e83dfdc28454", "type": "electric_bike", "lat": 38.9675005, "is_reserved": 0, "lon": -77.02791083333334, "fusion_lon": 0.0, "is_disabled": 0, "fusion_lat": 0.0, "bike_id": "25ff2d50190c5a77f674e83dfdc28454", "rental_uris": {"ios": "https://dc.lft.to/lastmile_qr_scan", "android": "https://dc.lft.to/lastmile_qr_scan"}}, {"name": "ca8730c22c80b9e4f2d6ea50722bfb1c", "type": "electric_scooter", "lat": 38.91564966666667, "is_reserved": 0, "lon": -77.046527, "fusion_lon": 0.0, "is_disabled": 0, "fusion_lat": 0.0, "bike_id": "ca8730c22c80b9e4f2d6ea50722bfb1c", "rental_uris": {"ios": "https://dc.lft.to/lastmile_qr_scan", "android": "https://dc.lft.to/lastmile_qr_scan"}}, {"name": "785d8d3f4fd34eec771fdd9b9002ed2b", "type": "electric_scooter", "lat": 38.910122666666666, "is_reserved": 0, "lon": -76.99388066666667, "fusion_lon": 0.0, "is_disabled": 0, "fusion_lat": 0.0, "bike_id": "785d8d3f4fd34eec771fdd9b9002ed2b", "rental_uris": {"ios": "https://dc.lft.to/lastmile_qr_scan", "android": "https://dc.lft.to/lastmile_qr_scan"}}, {"name": "e0d300ec6220c0e727534333d821fa17", "type": "electric_scooter", "lat": 38.939401833333335, "is_reserved": 0, "lon": -77.01708, "fusion_lon": 0.0, "is_disabled": 0, "fusion_lat": 0.0, "bike_id": "e0d300ec6220c0e727534333d821fa17", "rental_uris": {"ios": "https://dc.lft.to/lastmile_qr_scan", "android": "https://dc.lft.to/lastmile_qr_scan"}}, {"name": "3cd713c1623722216ffd5f64f3c2a227", "type": "electric_scooter", "lat": 38.90088083333333, "is_reserved": 0, "lon": -77.012804, "fusion_lon": 0.0, "is_disabled": 0, "fusion_lat": 0.0, "bike_id": "3cd713c1623722216ffd5f64f3c2a227", "rental_uris": {"ios": "https://dc.lft.to/lastmile_qr_scan", "android": "https://dc.lft.to/lastmile_qr_scan"}}, {"name": "f1de2465139f53b507cceee1acc0b6f3", "type": "electric_scooter", "lat": 38.883194833333334, "is_reserved": 0, "lon": -77.00942216666667, "fusion_lon": 0.0, "is_disabled": 0, "fusion_lat": 0.0, "bike_id": "f1de2465139f53b507cceee1acc0b6f3", "rental_uris": {"ios": "https://dc.lft.to/lastmile_qr_scan", "android": "https://dc.lft.to/lastmile_qr_scan"}}, {"name": "2410cb8fe65116ff2ad78e7502554f2c", "type": "electric_scooter", "lat": 38.934517, "is_reserved": 0, "lon": -77.07241916666666, "fusion_lon": 0.0, "is_disabled": 0, "fusion_lat": 0.0, "bike_id": "2410cb8fe65116ff2ad78e7502554f2c", "rental_uris": {"ios": "https://dc.lft.to/lastmile_qr_scan", "android": "https://dc.lft.to/lastmile_qr_scan"}}, {"name": "f79601def85d3370d66dafa5fdeffc54", "type": "electric_scooter", "lat": 38.88449516666667, "is_reserved": 0, "lon": -77.005806, "fusion_lon": 0.0, "is_disabled": 0, "fusion_lat": 0.0, "bike_id": "f79601def85d3370d66dafa5fdeffc54", "rental_uris": {"ios": "https://dc.lft.to/lastmile_qr_scan", "android": "https://dc.lft.to/lastmile_qr_scan"}}, {"name": "181a33c03f8b7fb33069d21304a75685", "type": "electric_scooter", "lat": 38.896129333333334, "is_reserved": 0, "lon": -77.01021483333334, "fusion_lon": 0.0, "is_disabled": 0, "fusion_lat": 0.0, "bike_id": "181a33c03f8b7fb33069d21304a75685", "rental_uris": {"ios": "https://dc.lft.to/lastmile_qr_scan", "android": "https://dc.lft.to/lastmile_qr_scan"}}, {"name": "422d177ce10e15fbef72df941251c1b0", "type": "electric_scooter", "lat": 38.920188, "is_reserved": 0, "lon": -77.044023, "fusion_lon": 0.0, "is_disabled": 0, "fusion_lat": 0.0, "bike_id": "422d177ce10e15fbef72df941251c1b0", "rental_uris": {"ios": "https://dc.lft.to/lastmile_qr_scan", "android": "https://dc.lft.to/lastmile_qr_scan"}}, {"name": "d8e0c26b7be04cd6f835415e092c6843", "type": "electric_bike", "lat": 38.94273716666667, "is_reserved": 0, "lon": -76.98073866666667, "fusion_lon": 0.0, "is_disabled": 0, "fusion_lat": 0.0, "bike_id": "d8e0c26b7be04cd6f835415e092c6843", "rental_uris": {"ios": "https://dc.lft.to/lastmile_qr_scan", "android": "https://dc.lft.to/lastmile_qr_scan"}}, {"name": "d6d8aa9f6548659e9ecf433f6406d86a", "type": "electric_scooter", "lat": 38.89885016666667, "is_reserved": 0, "lon": -76.93173016666667, "fusion_lon": 0.0, "is_disabled": 0, "fusion_lat": 0.0, "bike_id": "d6d8aa9f6548659e9ecf433f6406d86a", "rental_uris": {"ios": "https://dc.lft.to/lastmile_qr_scan", "android": "https://dc.lft.to/lastmile_qr_scan"}}, {"name": "b3be1d08c00d260730b81545faefdef7", "type": "electric_scooter", "lat": 38.92883166666667, "is_reserved": 0, "lon": -77.03738583333333, "fusion_lon": 0.0, "is_disabled": 0, "fusion_lat": 0.0, "bike_id": "b3be1d08c00d260730b81545faefdef7", "rental_uris": {"ios": "https://dc.lft.to/lastmile_qr_scan", "android": "https://dc.lft.to/lastmile_qr_scan"}}, {"name": "88bb8ec7835cbd96e86e94c6a018329e", "type": "electric_scooter", "lat": 38.92758516666667, "is_reserved": 0, "lon": -77.02421666666666, "fusion_lon": 0.0, "is_disabled": 0, "fusion_lat": 0.0, "bike_id": "88bb8ec7835cbd96e86e94c6a018329e", "rental_uris": {"ios": "https://dc.lft.to/lastmile_qr_scan", "android": "https://dc.lft.to/lastmile_qr_scan"}}, {"name": "e4424e0dcc0fb203d20b38cfeb31c0e6", "type": "electric_scooter", "lat": 38.89400216666667, "is_reserved": 0, "lon": -76.9936805, "fusion_lon": 0.0, "is_disabled": 0, "fusion_lat": 0.0, "bike_id": "e4424e0dcc0fb203d20b38cfeb31c0e6", "rental_uris": {"ios": "https://dc.lft.to/lastmile_qr_scan", "android": "https://dc.lft.to/lastmile_qr_scan"}}, {"name": "456dae6678c4980d9217caa1da98a2ba", "type": "electric_bike", "lat": 38.89886416666667, "is_reserved": 0, "lon": -76.98388733333333, "fusion_lon": 0.0, "is_disabled": 0, "fusion_lat": 0.0, "bike_id": "456dae6678c4980d9217caa1da98a2ba", "rental_uris": {"ios": "https://dc.lft.to/lastmile_qr_scan", "android": "https://dc.lft.to/lastmile_qr_scan"}}, {"name": "0732c8de32dab59340f91ba9e5623661", "type": "electric_scooter", "lat": 38.9051885, "is_reserved": 0, "lon": -77.06627066666667, "fusion_lon": 0.0, "is_disabled": 0, "fusion_lat": 0.0, "bike_id": "0732c8de32dab59340f91ba9e5623661", "rental_uris": {"ios": "https://dc.lft.to/lastmile_qr_scan", "android": "https://dc.lft.to/lastmile_qr_scan"}}, {"name": "11be7805dfdfe157fd7891cd247620ff", "type": "electric_bike", "lat": 38.87477833333333, "is_reserved": 0, "lon": -76.96532466666666, "fusion_lon": 0.0, "is_disabled": 0, "fusion_lat": 0.0, "bike_id": "11be7805dfdfe157fd7891cd247620ff", "rental_uris": {"ios": "https://dc.lft.to/lastmile_qr_scan", "android": "https://dc.lft.to/lastmile_qr_scan"}}, {"name": "b427901ff131f394c1df7676c70c955d", "type": "electric_scooter", "lat": 38.94639266666667, "is_reserved": 0, "lon": -77.0192335, "fusion_lon": 0.0, "is_disabled": 0, "fusion_lat": 0.0, "bike_id": "b427901ff131f394c1df7676c70c955d", "rental_uris": {"ios": "https://dc.lft.to/lastmile_qr_scan", "android": "https://dc.lft.to/lastmile_qr_scan"}}, {"name": "5837ef17597eb14ef835e7fa3e96eeca", "type": "electric_scooter", "lat": 38.866577166666666, "is_reserved": 0, "lon": -76.98888133333334, "fusion_lon": 0.0, "is_disabled": 0, "fusion_lat": 0.0, "bike_id": "5837ef17597eb14ef835e7fa3e96eeca", "rental_uris": {"ios": "https://dc.lft.to/lastmile_qr_scan", "android": "https://dc.lft.to/lastmile_qr_scan"}}, {"name": "0c4237b39305f4c2a57a42d5ce0f1127", "type": "electric_scooter", "lat": 38.92737566666667, "is_reserved": 0, "lon": -77.02990966666667, "fusion_lon": 0.0, "is_disabled": 0, "fusion_lat": 0.0, "bike_id": "0c4237b39305f4c2a57a42d5ce0f1127", "rental_uris": {"ios": "https://dc.lft.to/lastmile_qr_scan", "android": "https://dc.lft.to/lastmile_qr_scan"}}, {"name": "00c7224c17ae871d47040c21bd480923", "type": "electric_scooter", "lat": 38.9416515, "is_reserved": 0, "lon": -77.015469, "fusion_lon": 0.0, "is_disabled": 0, "fusion_lat": 0.0, "bike_id": "00c7224c17ae871d47040c21bd480923", "rental_uris": {"ios": "https://dc.lft.to/lastmile_qr_scan", "android": "https://dc.lft.to/lastmile_qr_scan"}}, {"name": "bda0e2d10733138f42d476315e9e6308", "type": "electric_bike", "lat": 38.8324035, "is_reserved": 0, "lon": -76.94626683333334, "fusion_lon": 0.0, "is_disabled": 0, "fusion_lat": 0.0, "bike_id": "bda0e2d10733138f42d476315e9e6308", "rental_uris": {"ios": "https://dc.lft.to/lastmile_qr_scan", "android": "https://dc.lft.to/lastmile_qr_scan"}},