{"data": {"bikes": [{"name": "b0f5ecc35940127fc2d0060a41706141", "lon": -77.025933, "lat": 38.907501333333336, "type": "electric_scooter", "fusion_lon": 0.0, "is_reserved": 0, "bike_id": "b0f5ecc35940127fc2d0060a41706141", "fusion_lat": 0.0, "is_disabled": 0, "rental_uris": {"ios": "https://dc.lft.to/lastmile_qr_scan", "android": "https://dc.lft.to/lastmile_qr_scan"}}, {"name": "e5f2f57e6a0ca66b13391e47a16899f3", "lon": -77.01510433333333, "lat": 38.91048683333333, "type": "electric_scooter", "fusion_lon": 0.0, "is_reserved": 0, "bike_id": "e5f2f57e6a0ca66b13391e47a16899f3", "fusion_lat": 0.0, "is_disabled": 0, "rental_uris": {"ios": "https://dc.lft.to/lastmile_qr_scan", "android": "https://dc.lft.to/lastmile_qr_scan"}}, {"name": "68a055ff9045858a683e1977362ac19b", "lon": -77.04095016666666, "lat": 38.917736, "type": "electric_scooter", "fusion_lon": 0.0, "is_reserved": 0, "bike_id": "68a055ff9045858a683e1977362ac19b", "fusion_lat": 0.0, "is_disabled": 0, "rental_uris": {"ios": "https://dc.lft.to/lastmile_qr_scan", "android": "https://dc.lft.to/lastmile_qr_scan"}}, {"name": "b8b4f69f917e823acf0b46957359ae9b", "lon": -76.98093433333334, "lat": 38.921125333333336, "type": "electric_bike", "fusion_lon": 0.0, "is_reserved": 0, "bike_id": "b8b4f69f917e823acf0b46957359ae9b", "fusion_lat": 0.0, "is_disabled": 0, "rental_uris": {"ios": "https://dc.lft.to/lastmile_qr_scan", "android": "https://dc.lft.to/lastmile_qr_scan"}}, {"name": "ad0fcc8e853cbde7d5ccd49e26dbabc3", "lon": -76.9097385, "lat": 38.85429883333333, "type": "electric_bike", "fusion_lon": 0.0, "is_reserved": 0, "bike_id": "ad0fcc8e853cbde7d5ccd49e26dbabc3", "fusion_lat": 0.0, "is_disabled": 0, "rental_uris": {"ios": "https://dc.lft.to/lastmile_qr_scan", "android": "https://dc.lft.to/lastmile_qr_scan"}}, {"name": "47c46d3790fc06257f2b2dd0e3ee8ac6", "lon": -77.0229365, "lat": 38.936709666666665, "type": "electric_scooter", "fusion_lon": 0.0, "is_reserved": 0, "bike_id": "47c46d3790fc06257f2b2dd0e3ee8ac6", "fusion_lat": 0.0, "is_disabled": 0, "rental_uris": {"ios": "https://dc.lft.to/lastmile_qr_scan", "android": "https://dc.lft.to/lastmile_qr_scan"}}, {"name": "85368be486b3e43be6c39e931361c771", "lon": -77.0401675, "lat": 38.92251066666667, "type": "electric_scooter", "fusion_lon": 0.0, "is_reserved": 0, "bike_id": "85368be486b3e43be6c39e931361c771", "fusion_lat": 0.0, "is_disabled": 0, "rental_uris": {"ios": "https://dc.lft.to/lastmile_qr_scan", "android": "https://dc.lft.to/lastmile_qr_scan"}}, {"name": "9cee0bd0937c65847eac5f5e58bff9a4", "lon": -77.043456, "lat": 38.90214266666667, "type": "electric_scooter", "fusion_lon": 0.0, "is_reserved": 0, "bike_id": "9cee0bd0937c65847eac5f5e58bff9a4", "fusion_lat": 0.0, "is_disabled": 0, "rental_uris": {"ios": "https://dc.lft.to/lastmile_qr_scan", "android": "https://dc.lft.to/lastmile_qr_scan"}}, {"name": "746e488ada92c2d4506b36fe3ee7a226", "lon": -77.004836, "lat": 38.8747815, "type": "electric_scooter", "fusion_lon": 0.0, "is_reserved": 0, "bike_id": "746e488ada92c2d4506b36fe3ee7a226", "fusion_lat": 0.0, "is_disabled": 0, "rental_uris": {"ios": "https://dc.lft.to/lastmile_qr_scan", "android": "https://dc.lft.to/lastmile_qr_scan"}}, {"name": "0de6f4263e9fbca1b4378bb54a4d292c", "lon": -77.04590066666667, "lat": 38.90215366666666, "type": "electric_scooter", "fusion_lon": 0.0, "is_reserved": 0, "bike_id": "0de6f4263e9fbca1b4378bb54a4d292c", "fusion_lat": 0.0, "is_disabled": 0, "rental_uris": {"ios": "https://dc.lft.to/lastmile_qr_scan", "android": "https://dc.lft.to/lastmile_qr_scan"}}, {"name": "b071e775fb2f55d86882a411ca17e167", "lon": -76.96546566666666, "lat": 38.9186685, "type": "electric_scooter", "fusion_lon": 0.0, "is_reserved": 0, "bike_id": "b071e775fb2f55d86882a411ca17e167", "fusion_lat": 0.0, "is_disabled": 0, "rental_uris": {"ios": "https://dc.lft.to/lastmile_qr_scan", "android": "https://dc.lft.to/lastmile_qr_scan"}}, {"name": "32332d0eb7aea6796d2d2b530a9ce229", "lon": -77.022131, "lat": 38.89606933333334, "type": "electric_scooter", "fusion_lon": 0.0, "is_reserved": 0, "bike_id": "32332d0eb7aea6796d2d2b530a9ce229", "fusion_lat": 0.0, "is_disabled": 0, "rental_uris": {"ios": "https://dc.lft.to/lastmile_qr_scan", "android": "https://dc.lft.to/lastmile_qr_scan"}}, {"name": "ec39c22ab25683f682b494060e78bf65", "lon": -77.03261083333334, "lat": 38.946272666666665, "type": "electric_scooter", "fusion_lon": 0.0, "is_reserved": 0, "bike_id": "ec39c22ab25683f682b494060e78bf65", "fusion_lat": 0.0, "is_disabled": 0, "rental_uris": {"ios": "https://dc.lft.to/lastmile_qr_scan", "android": "https://dc.lft.to/lastmile_qr_scan"}}, {"name": "047f0602d81ae63e8dacc72c3ba4cabb", "lon": -77.04331366666666, "lat": 38.8922175, "type": "electric_scooter", "fusion_lon": 0.0, "is_reserved": 0, "bike_id": "047f0602d81ae63e8dacc72c3ba4cabb", "fusion_lat": 0.0, "is_disabled": 0, "rental_uris": {"ios": "https://dc.lft.to/lastmile_qr_scan", "android": "https://dc.lft.to/lastmile_qr_scan"}}, {"name": "a42d439fdeac914271f0580a0470a19b", "lon": -77.02175766666667, "lat": 38.90202333333333, "type": "electric_scooter", "fusion_lon": 0.0, "is_reserved": 0, "bike_id": "a42d439fdeac914271f0580a0470a19b", "fusion_lat": 0.0, "is_disabled": 0, "rental_uris": {"ios": "https://dc.lft.to/lastmile_qr_scan", "android": "https://dc.lft.to/lastmile_qr_scan"}}, {"name": "05d0d7aea4f36f645a13b548cf8a81dd", "lon": -77.00574266666666, "lat": 38.902002833333334, "type": "electric_scooter", "fusion_lon": 0.0, "is_reserved": 0, "bike_id": "05d0d7aea4f36f645a13b548cf8a81dd", "fusion_lat": 0.0, "is_disabled": 0, "rental_uris": {"ios": "https://dc.lft.to/lastmile_qr_scan", "android": "https://dc.lft.to/lastmile_qr_scan"}}, {"name": "66d90a429ebdaf61d3beaa1b893c82e5", "lon": -76.93365983333334, "lat": 38.8991605, "type": "electric_scooter", "fusion_lon": 0.0, "is_reserved": 0, "bike_id": "66d90a429ebdaf61d3beaa1b893c82e5", "fusion_lat": 0.0, "is_disabled": 0, "rental_uris": {"ios": "https://dc.lft.to/lastmile_qr_scan", "android": "https://dc.lft.to/lastmile_qr_scan"}}, {"name": "ccace67ea4cb5398a3788f97fa822e47", "lon": -77.0321205, "lat": 38.909747833333334, "type": "electric_scooter", "fusion_lon": 0.0, "is_reserved": 0, "bike_id": "ccace67ea4cb5398a3788f97fa822e47", "fusion_lat": 0.0, "is_disabled": 0, "rental_uris": {"ios": "https://dc.lft.to/lastmile_qr_scan", "android": "https://dc.lft.to/lastmile_qr_scan"}}, {"name": "6f9f13517444adf1957648f565a700e9", "lon": -77.02340466666666, "lat": 38.945072, "type": "electric_scooter", "fusion_lon": 0.0, "is_reserved": 0, "bike_id": "6f9f13517444adf1957648f565a700e9", "fusion_lat": 0.0, "is_disabled": 0, "rental_uris": {"ios": "https://dc.lft.to/lastmile_qr_scan", "android": "https://dc.lft.to/lastmile_qr_scan"}}, {"name": "cfc65f342c2e433e3fee1b0dbf6e84fa", "lon": -76.97706033333333, "lat": 38.9025555, "type": "electric_scooter", "fusion_lon": 0.0, "is_reserved": 0, "bike_id": "cfc65f342c2e433e3fee1b0dbf6e84fa", "fusion_lat": 0.0, "is_disabled": 0, "rental_uris": {"ios": "https://dc.lft.to/lastmile_qr_scan", "android": "https://dc.lft.to/lastmile_qr_scan"}}, {"name": "6aa9c13e13310d71f30011c407023d9e", "lon": -77.04346666666666, "lat": 38.9235555, "type": "electric_scooter", "fusion_lon": 0.0, "is_reserved": 0, "bike_id": "6aa9c13e13310d71f30011c407023d9e", "fusion_lat": 0.0, "is_disabled": 0, "rental_uris": {"ios": "https://dc.lft.to/lastmile_qr_scan", "android": "https://dc.lft.to/lastmile_qr_scan"}}, {"name": "52ef3d55509484301d7c0fb33472d39c", "lon": -77.021569, "lat": 38.92604866666667, "type": "electric_scooter", "fusion_lon": 0.0, "is_reserved": 0, "bike_id": "52ef3d55509484301d7c0fb33472d39c", "fusion_lat": 0.0, "is_disabled": 0, "rental_uris": {"ios": "https://dc.lft.to/lastmile_qr_scan", "android": "https://dc.lft.to/lastmile_qr_scan"}}, {"name": "ff1cf8866a7306b8c2e67f7833692078", "lon": -77.03182466666667, "lat": 38.91775583333333, "type": "electric_scooter", "fusion_lon": 0.0, "is_reserved": 0, "bike_id": "ff1cf8866a7306b8c2e67f7833692078", "fusion_lat": 0.0, "is_disabled": 0, "rental_uris": {"ios": "https://dc.lft.to/lastmile_qr_scan", "android": "https://dc.lft.to/lastmile_qr_scan"}}, {"name": "2ae9e0da595a83e057adf57f408edb83", "lon": -77.03264116666666, "lat": 38.935249, "type": "electric_scooter", "fusion_lon": 0.0, "is_reserved": 0, "bike_id": "2ae9e0da595a83e057adf57f408edb83", "fusion_lat": 0.0, "is_disabled": 0, "rental_uris": {"ios": "https://dc.lft.to/lastmile_qr_scan", "android": "https://dc.lft.to/lastmile_qr_scan"}}, {"name": "1f5d35611480bfa8606a1de0f1fd828f", "lon": -77.05001483333334, "lat": 38.89233816666667, "type": "electric_scooter", "fusion_lon": 0.0, "is_reserved": 0, "bike_id": "1f5d35611480bfa8606a1de0f1fd828f", "fusion_lat": 0.0, "is_disabled": 0, "rental_uris": {"ios": "https://dc.lft.to/lastmile_qr_scan", "android": "https://dc.lft.to/lastmile_qr_scan"}}, {"name": "5e9d5e98968338027881d7633b6cdee3", "lon": -77.00429433333333, "lat": 38.876691666666666, "type": "electric_scooter", "fusion_lon": 0.0, "is_reserved": 0, "bike_id": "5e9d5e98968338027881d7633b6cdee3", "fusion_lat": 0.0, "is_disabled": 0, "rental_uris": {"ios": "https://dc.lft.to/lastmile_qr_scan", "android": "https://dc.lft.to/lastmile_qr_scan"}}, {"name": "12e59bde5a2dc4d0c1552d86e0a7bc2d", "lon": -77.03668916666666, "lat": 38.927251, "type": "electric_scooter", "fusion_lon": 0.0, "is_reserved": 0, "bike_id": "12e59bde5a2dc4d0c1552d86e0a7bc2d", "fusion_lat": 0.0, "is_disabled": 0, "rental_uris": {"ios": "https://dc.lft.to/lastmile_qr_scan", "android": "https://dc.lft.to/lastmile_qr_scan"}}, {"name": "043fbf0d02b2ce54a2fa41a6927c486d", "lon": -77.0416635, "lat": 38.901756166666665, "type": "electric_scooter", "fusion_lon": 0.0, "is_reserved": 0, "bike_id": "043fbf0d02b2ce54a2fa41a6927c486d", "fusion_lat": 0.0, "is_disabled": 0, "rental_uris": {"ios": "https://dc.lft.to/lastmile_qr_scan", "android": "https://dc.lft.to/lastmile_qr_scan"}}, {"name": "4c681e57b4df28d3e62cc3958096876e", "lon": -77.04005766666667, "lat": 38.908397666666666, "type": "electric_scooter", "fusion_lon": 0.0, "is_reserved": 0, "bike_id": "4c681e57b4df28d3e62cc3958096876e", "fusion_lat": 0.0, "is_disabled": 0, "rental_uris": {"ios": "https://dc.lft.to/lastmile_qr_scan", "android": "https://dc.lft.to/lastmile_qr_scan"}}, {"name": "bec6f161b7be52573e5d5ccc5229c6b6", "lon": -77.058168, "lat": 38.93564216666667, "type": "electric_scooter", "fusion_lon": 0.0, "is_reserved": 0, "bike_id": "bec6f161b7be52573e5d5ccc5229c6b6", "fusion_lat": 0.0, "is_disabled": 0, "rental_uris": {"ios": "https://dc.lft.to/lastmile_qr_scan", "android": "https://dc.lft.to/lastmile_qr_scan"}}, {"name": "1500b95c72b83617bf408451c702976d", "lon": -77.0334515, "lat": 38.920590833333335, "type": "electric_scooter", "fusion_lon": 0.0, "is_reserved": 0, "bike_id": "1500b95c72b83617bf408451c702976d", "fusion_lat": 0.0, "is_disabled": 0, "rental_uris": {"ios": "https://dc.lft.to/lastmile_qr_scan", "android": "https://dc.lft.to/lastmile_qr_scan"}}, {"name": "5d3efe8348a68f8e5e491ea9e4b7fd73", "lon": -77.02171533333333, "lat": 38.9056035, "type": "electric_scooter", "fusion_lon": 0.0, "is_reserved": 0, "bike_id": "5d3efe8348a68f8e5e491ea9e4b7fd73", "fusion_lat": 0.0, "is_disabled": 0, "rental_uris": {"ios": "https://dc.lft.to/lastmile_qr_scan", "android": "https://dc.lft.to/lastmile_qr_scan"}}, {"name": "5d7f5c1848c44337b188dc545305c60f", "lon": -76.93749666666666, "lat": 38.890483833333334, "type": "electric_scooter", "fusion_lon": 0.0, "is_reserved": 0, "bike_id": "5d7f5c1848c44337b188dc545305c60f", "fusion_lat": 0.0, "is_disabled": 0, "rental_uris": {"ios": "https://dc.lft.to/lastmile_qr_scan", "android": "https://dc.lft.to/lastmile_qr_scan"}}, {"name": "32619725fb1fbe6891cba47e70fa7c2c", "lon": -76.99516066666666, "lat": 38.88374616666667, "type": "electric_scooter", "fusion_lon": 0.0, "is_reserved": 0, "bike_id": "32619725fb1fbe6891cba47e70fa7c2c", "fusion_lat": 0.0, "is_disabled": 0, "rental_uris": {"ios": "https://dc.lft.to/lastmile_qr_scan", "android": "https://dc.lft.to/lastmile_qr_scan"}}, {"name": "d34af414cf6d350d83cd23ffbc2eea92", "lon": -77.002018, "lat": 38.936838333333334, "type": "electric_bike", "fusion_lon": 0.0, "is_reserved": 0, "bike_id": "d34af414cf6d350d83cd23ffbc2eea92", "fusion_lat": 0.0, "is_disabled": 0, "rental_uris": {"ios": "https://dc.lft.to/lastmile_qr_scan", "android": "https://dc.lft.to/lastmile_qr_scan"}}, {"name": "77c2596b610662d213607e0cd97231b6", "lon": -77.02296783333334, "lat": 38.95634883333334, "type": "electric_bike", "fusion_lon": 0.0, "is_reserved": 0, "bike_id": "77c2596b610662d213607e0cd97231b6", "fusion_lat": 0.0, "is_disabled": 0, "rental_uris": {"ios": "https://dc.lft.to/lastmile_qr_scan", "android": "https://dc.lft.to/lastmile_qr_scan"}}, {"name": "ffd3ff49bfe7daacc7a5de71fa08ff2a", "lon": -76.99334816666666, "lat": 38.87143566666667, "type": "electric_scooter", "fusion_lon": 0.0, "is_reserved": 0, "bike_id": "ffd3ff49bfe7daacc7a5de71fa08ff2a", "fusion_lat": 0.0, "is_disabled": 0, "rental_uris": {"ios": "https://dc.lft.to/lastmile_qr_scan", "android": "https://dc.lft.to/lastmile_qr_scan"}}, {"name": "362ae9522b7f5223d056a042db635514", "lon": -77.01853883333334, "lat": 38.97372283333333, "type": "electric_scooter", "fusion_lon": 0.0, "is_reserved": 0, "bike_id": "362ae9522b7f5223d056a042db635514", "fusion_lat": 0.0, "is_disabled": 0, "rental_uris": {"ios": "https://dc.lft.to/lastmile_qr_scan", "android": "https://dc.lft.to/lastmile_qr_scan"}}, {"name": "a057ee1afb1179dcf6ac88f08e89df9d", "lon": -77.02605933333334, "lat": 38.93142516666666, "type": "electric_scooter", "fusion_lon": 0.0, "is_reserved": 0, "bike_id": "a057ee1afb1179dcf6ac88f08e89df9d", "fusion_lat": 0.0, "is_disabled": 0, "rental_uris": {"ios": "https://dc.lft.to/lastmile_qr_scan", "android": "https://dc.lft.to/lastmile_qr_scan"}}, {"name": "25075cfe9200aed29b53185ed1bcae71", "lon": -76.98864733333333, "lat": 38.954837166666664, "type": "electric_bike", "fusion_lon": 0.0, "is_reserved": 0, "bike_id": "25075cfe9200aed29b53185ed1bcae71", "fusion_lat": 0.0, "is_disabled": 0, "rental_uris": {"ios": "https://dc.lft.to/lastmile_qr_scan", "android": "https://dc.lft.to/lastmile_qr_scan"}}, {"name": "9515c96dc2bae452fffa94ce800d04d8", "lon": -77.05124416666666, "lat": 38.92345533333334, "type": "electric_scooter", "fusion_lon": 0.0, "is_reserved": 0, "bike_id": "9515c96dc2bae452fffa94ce800d04d8", "fusion_lat": 0.0, "is_disabled": 0, "rental_uris": {"ios": "https://dc.lft.to/lastmile_qr_scan", "android": "https://dc.lft.to/lastmile_qr_scan"}}, {"name": "bcba5d86936e55102e75299fe22efcff", "lon": -77.03191333333334, "lat": 38.90376883333333, "type": "electric_scooter", "fusion_lon": 0.0, "is_reserved": 0, "bike_id": "bcba5d86936e55102e75299fe22efcff", "fusion_lat": 0.0, "is_disabled": 0, "rental_uris": {"ios": "https://dc.lft.to/lastmile_qr_scan", "android": "https://dc.lft.to/lastmile_qr_scan"}}, {"name": "f393a32c0194ea20d937770d608be751", "lon": -77.04500933333334, "lat": 38.90470716666667, "type": "electric_scooter", "fusion_lon": 0.0, "is_reserved": 0, "bike_id": "f393a32c0194ea20d937770d608be751", "fusion_lat": 0.0, "is_disabled": 0, "rental_uris": {"ios": "https://dc.lft.to/lastmile_qr_scan", "android": "https://dc.lft.to/lastmile_qr_scan"}}, {"name": "c34742983dd709b1d96da64bee232540", "lon": -77.03127616666667, "lat": 38.903705333333335, "type": "electric_scooter", "fusion_lon": 0.0, "is_reserved": 0, "bike_id": "c34742983dd709b1d96da64bee232540", "fusion_lat": 0.0, "is_disabled": 0, "rental_uris": {"ios": "https://dc.lft.to/lastmile_qr_scan", "android": "https://dc.lft.to/lastmile_qr_scan"}}, {"name": "adaecde8f58e7fa4253260c2e46c50d9", "lon": -77.09803783333334, "lat": 38.85028116666667, "type": "electric_bike", "fusion_lon": 0.0, "is_reserved": 0, "bike_id": "adaecde8f58e7fa4253260c2e46c50d9", "fusion_lat": 0.0, "is_disabled": 0, "rental_uris": {"ios": "https://dc.lft.to/lastmile_qr_scan", "android": "https://dc.lft.to/lastmile_qr_scan"}}, {"name": "68e213235d82ba9c764f9c95b0dc500a", "lon": -76.9487955, "lat": 38.895530666666666, "type": "electric_scooter", "fusion_lon": 0.0, "is_reserved": 0, "bike_id": "68e213235d82ba9c764f9c95b0dc500a", "fusion_lat": 0.0, "is_disabled": 0, "rental_uris": {"ios": "https://dc.lft.to/lastmile_qr_scan", "android": "https://dc.lft.to/lastmile_qr_scan"}}, {"name": "4528be98eb2a68216fae16dc5c56eed6", "lon": -77.02320016666667, "lat": 38.9073095, "type": "electric_scooter", "fusion_lon": 0.0, "is_reserved": 0, "bike_id": "4528be98eb2a68216fae16dc5c56eed6", "fusion_lat": 0.0, "is_disabled": 0, "rental_uris": {"ios": "https://dc.lft.to/lastmile_qr_scan", "android": "https://dc.lft.to/lastmile_qr_scan"}}, {"name": "4c663979c9e3744d61eb577e21e23083", "lon": -77.02551116666666, "lat": 38.942255833333334, "type": "electric_scooter", "fusion_lon": 0.0, "is_reserved": 0, "bike_id": "4c663979c9e3744d61eb577e21e23083", "fusion_lat": 0.0, "is_disabled": 0, "rental_uris": {"ios": "https://dc.lft.to/lastmile_qr_scan", "android": "https://dc.lft.to/lastmile_qr_scan"}}, {"name": "d77088dcccc3ca74d3799191cc2a4e50", "lon": -77.03902983333333, "lat": 38.906546666666664, "type": "electric_scooter", "fusion_lon": 0.0, "is_reserved": 0, "bike_id": "d77088dcccc3ca74d3799191cc2a4e50", "fusion_lat": 0.0, "is_disabled": 0, "rental_uris": {"ios": "https://dc.lft.to/lastmile_qr_scan", "android": "https://dc.lft.to/lastmile_qr_scan"}}, {"name": "b9f5a1844ece23dcd53cf654d19fe9c8", "lon": -77.07796583333334, "lat": 38.84878833333333, "type": "electric_bike", "fusion_lon": 0.0, "is_reserved": 0, "bike_id": "b9f5a1844ece23dcd53cf654d19fe9c8", "fusion_lat": 0.0, "is_disabled": 0, "rental_uris": {"ios": "https://dc.lft.to/lastmile_qr_scan", "android": "https://dc.lft.to/lastmile_qr_scan"}}, {"name": "6a85889f45e79a05b7f4804c51d10c39", "lon": -77.02621533333334, "lat": 38.8966915, "type": "electric_scooter", "fusion_lon": 0.0, "is_reserved": 0, "bike_id": "6a85889f45e79a05b7f4804c51d10c39", "fusion_lat": 0.0, "is_disabled": 0, "rental_uris": {"ios": "https://dc.lft.to/lastmile_qr_scan", "android": "https://dc.lft.to/lastmile_qr_scan"}}, {"name": "efccaf0fdb84beda4a4dd63fe76d216a", "lon": -76.99548333333334, "lat": 38.862616333333335, "type": "electric_scooter", "fusion_lon": 0.0, "is_reserved": 0, "bike_id": "efccaf0fdb84beda4a4dd63fe76d216a", "fusion_lat": 0.0, "is_disabled": 0, "rental_uris": {"ios": "https://dc.lft.to/lastmile_qr_scan", "android": "https://dc.lft.to/lastmile_qr_scan"}}, {"name": "194c1a5521c5b940aef3bc96912279b5", "lon": -76.99541166666667, "lat": 38.926661, "type": "electric_scooter", "fusion_lon": 0.0, "is_reserved": 0, "bike_id": "194c1a5521c5b940aef3bc96912279b5", "fusion_lat": 0.0, "is_disabled": 0, "rental_uris": {"ios": "https://dc.lft.to/lastmile_qr_scan", "android": "https://dc.lft.to/lastmile_qr_scan"}}, {"name": "cbeb604f0d45024d5324d917e686cbeb", "lon": -77.0436165, "lat": 38.908004166666665, "type": "electric_scooter", "fusion_lon": 0.0, "is_reserved": 0, "bike_id": "cbeb604f0d45024d5324d917e686cbeb", "fusion_lat": 0.0, "is_disabled": 0, "rental_uris": {"ios": "https://dc.lft.to/lastmile_qr_scan", "android": "https://dc.lft.to/lastmile_qr_scan"}}, {"name": "88d5582a771d00f5741481d9caeffee7", "lon": -77.03496183333333, "lat": 38.932698, "type": "electric_scooter", "fusion_lon": 0.0, "is_reserved": 0, "bike_id": "88d5582a771d00f5741481d9caeffee7", "fusion_lat": 0.0, "is_disabled": 0, "rental_uris": {"ios": "https://dc.lft.to/lastmile_qr_scan", "android": "https://dc.lft.to/lastmile_qr_scan"}}, {"name": "ab76c311c767ed3fc6051f490bc06e86", "lon": -76.993492, "lat": 38.900288, "type": "electric_scooter", "fusion_lon": 0.0, "is_reserved": 0, "bike_id": "ab76c311c767ed3fc6051f490bc06e86", "fusion_lat": 0.0, "is_disabled": 0, "rental_uris": {"ios": "https://dc.lft.to/lastmile_qr_scan", "android": "https://dc.lft.to/lastmile_qr_scan"}}, {"name": "503528f8eb66e28521ee99aaaf977ae3", "lon": -76.9809265, "lat": 38.95357766666667, "type": "electric_bike", "fusion_lon": 0.0, "is_reserved": 0, "bike_id": "503528f8eb66e28521ee99aaaf977ae3", "fusion_lat": 0.0, "is_disabled": 0, "rental_uris": {"ios": "https://dc.lft.to/lastmile_qr_scan", "android": "https://dc.lft.to/lastmile_qr_scan"}}, {"name": "825e7a9a7b194023f87d00f36570b5ac", "lon": -77.04257633333333, "lat": 38.90946016666667, "type": "electric_scooter", "fusion_lon": 0.0, "is_reserved": 0, "bike_id": "825e7a9a7b194023f87d00f36570b5ac", "fusion_lat": 0.0, "is_disabled": 0, "rental_uris": {"ios": "https://dc.lft.to/lastmile_qr_scan", "android": "https://dc.lft.to/lastmile_qr_scan"}}, {"name": "eb55b20f923e661de92f5155befca273", "lon": -77.04694166666667, "lat": 38.91570766666667, "type": "electric_scooter", "fusion_lon": 0.0, "is_reserved": 0, "bike_id": "eb55b20f923e661de92f5155befca273", "fusion_lat": 0.0, "is_disabled": 0, "rental_uris": {"ios": "https://dc.lft.to/lastmile_qr_scan", "android": "https://dc.lft.to/lastmile_qr_scan"}}, {"name": "29ca415a7037fe755eed46256d39e7b6", "lon": -76.9892415, "lat": 38.858093333333336, "type": "electric_scooter", "fusion_lon": 0.0, "is_reserved": 0, "bike_id": "29ca415a7037fe755eed46256d39e7b6", "fusion_lat": 0.0, "is_disabled": 0, "rental_uris": {"ios": "https://dc.lft.to/lastmile_qr_scan", "android": "https://dc.lft.to/lastmile_qr_scan"}}, {"name": "882b0e35a8a37fde3baa3c488aed4115", "lon": -76.9903375, "lat": 38.89857516666667, "type": "electric_scooter", "fusion_lon": 0.0, "is_reserved": 0, "bike_id": "882b0e35a8a37fde3baa3c488aed4115", "fusion_lat": 0.0, "is_disabled": 0, "rental_uris": {"ios": "https://dc.lft.to/lastmile_qr_scan", "android": "https://dc.lft.to/lastmile_qr_scan"}}, {"name": "c1ca0af2c66f5bdd3ee071ef59e2ac6e", "lon": -77.03816616666667, "lat": 38.90678966666667, "type": "electric_scooter", "fusion_lon": 0.0, "is_reserved": 0, "bike_id": "c1ca0af2c66f5bdd3ee071ef59e2ac6e", "fusion_lat": 0.0, "is_disabled": 0, "rental_uris": {"ios": "https://dc.lft.to/lastmile_qr_scan", "android": "https://dc.lft.to/lastmile_qr_scan"}}, {"name": "547f8533eebecc2cec548d769d183d2e", "lon": -76.907043, "lat": 38.896006166666666, "type": "electric_bike", "fusion_lon": 0.0, "is_reserved": 0, "bike_id": "547f8533eebecc2cec548d769d183d2e", "fusion_lat": 0.0, "is_disabled": 0, "rental_uris": {"ios": "https://dc.lft.to/lastmile_qr_scan", "android": "https://dc.lft.to/lastmile_qr_scan"}}, {"name": "f60d7547bfae4003f893fab28890d903", "lon": -77.01983333333334, "lat": 38.922709166666664, "type": "electric_bike", "fusion_lon": 0.0, "is_reserved": 0, "bike_id": "f60d7547bfae4003f893fab28890d903", "fusion_lat": 0.0, "is_disabled": 0, "rental_uris": {"ios": "https://dc.lft.to/lastmile_qr_scan", "android": "https://dc.lft.to/lastmile_qr_scan"}}, {"name": "e87a03e696b2c9ed95e86aaa17cb2dae", "lon": -76.998146, "lat": 38.844316, "type": "electric_scooter", "fusion_lon": 0.0, "is_reserved": 0, "bike_id": "e87a03e696b2c9ed95e86aaa17cb2dae", "fusion_lat": 0.0, "is_disabled": 0, "rental_uris": {"ios": "https://dc.lft.to/lastmile_qr_scan", "android": "https://dc.lft.to/lastmile_qr_scan"}}, {"name": "b1f17b89ffcec1423f57e92e0d887d39", "lon": -77.04350883333333, "lat": 38.907695, "type": "electric_scooter", "fusion_lon": 0.0, "is_reserved": 0, "bike_id": "b1f17b89ffcec1423f57e92e0d887d39", "fusion_lat": 0.0, "is_disabled": 0, "rental_uris": {"ios": "https://dc.lft.to/lastmile_qr_scan", "android": "https://dc.lft.to/lastmile_qr_scan"}}, {"name": "4d48ec4a197b4e3e710341f02202b668", "lon": -76.99743816666667, "lat": 38.900025, "type": "electric_scooter", "fusion_lon": 0.0, "is_reserved": 0, "bike_id": "4d48ec4a197b4e3e710341f02202b668", "fusion_lat": 0.0, "is_disabled": 0, "rental_uris": {"ios": "https://dc.lft.to/lastmile_qr_scan", "android": "https://dc.lft.to/lastmile_qr_scan"}}, {"name": "d0e7ee16005c89fe566aa03f172f2555", "lon": -77.05413683333333, "lat": 38.927945333333334, "type": "electric_scooter", "fusion_lon": 0.0, "is_reserved": 0, "bike_id": "d0e7ee16005c89fe566aa03f172f2555", "fusion_lat": 0.0, "is_disabled": 0, "rental_uris": {"ios": "https://dc.lft.to/lastmile_qr_scan", "android": "https://dc.lft.to/lastmile_qr_scan"}}, {"name": "f863b5fa975594030af2799497a05335", "lon": -77.03443966666667, "lat": 38.918088833333336, "type": "electric_scooter", "fusion_lon": 0.0, "is_reserved": 0, "bike_id": "f863b5fa975594030af2799497a05335", "fusion_lat": 0.0, "is_disabled": 0, "rental_uris": {"ios": "https://dc.lft.to/lastmile_qr_scan", "android": "https://dc.lft.to/lastmile_qr_scan"}}, {"name": "96560bd7e4a4eb1f9f20d16300070542", "lon": -77.002063, "lat": 38.9024095, "type": "electric_scooter", "fusion_lon": 0.0, "is_reserved": 0, "bike_id": "96560bd7e4a4eb1f9f20d16300070542", "fusion_lat": 0.0, "is_disabled": 0, "rental_uris": {"ios": "https://dc.lft.to/lastmile_qr_scan", "android": "https://dc.lft.to/lastmile_qr_scan"}}, {"name": "46c26f7f8857ff411a23dffc8562bd8a", "lon": -77.04593033333333, "lat": 38.9027625, "type": "electric_scooter", "fusion_lon": 0.0, "is_reserved": 0, "bike_id": "46c26f7f8857ff411a23dffc8562bd8a", "fusion_lat": 0.0, "is_disabled": 0, "rental_uris": {"ios": "https://dc.lft.to/lastmile_qr_scan", "android": "https://dc.lft.to/lastmile_qr_scan"}}, {"name": "e2e52d3810aa24a6ecc245ca0f701c76", "lon": -77.04362116666667, "lat": 38.9043065, "type": "electric_scooter", "fusion_lon": 0.0, "is_reserved": 0, "bike_id": "e2e52d3810aa24a6ecc245ca0f701c76", "fusion_lat": 0.0, "is_disabled": 0, "rental_uris": {"ios": "https://dc.lft.to/lastmile_qr_scan", "android": "https://dc.lft.to/lastmile_qr_scan"}}, {"name": "1659df5c0d22cdd0064772c306655e94", "lon": -76.983518, "lat": 38.91550766666667, "type": "electric_scooter", "fusion_lon": 0.0, "is_reserved": 0, "bike_id": "1659df5c0d22cdd0064772c306655e94", "fusion_lat": 0.0, "is_disabled": 0, "rental_uris": {"ios": "https://dc.lft.to/lastmile_qr_scan", "android": "https://dc.lft.to/lastmile_qr_scan"}}, {"name": "97cf672659ddddad2a30880e122a8a43", "lon": -77.02486316666666, "lat": 38.938665, "type": "electric_scooter", "fusion_lon": 0.0, "is_reserved": 0, "bike_id": "97cf672659ddddad2a30880e122a8a43", "fusion_lat": 0.0, "is_disabled": 0, "rental_uris": {"ios": "https://dc.lft.to/lastmile_qr_scan", "android": "https://dc.lft.to/lastmile_qr_scan"}}, {"name": "519517aad25d23cd13a64ae926a7cd0d", "lon": -77.052399, "lat": 38.923595666666664, "type": "electric_scooter", "fusion_lon": 0.0, "is_reserved": 0, "bike_id": "519517aad25d23cd13a64ae926a7cd0d", "fusion_lat": 0.0, "is_disabled": 0, "rental_uris": {"ios": "https://dc.lft.to/lastmile_qr_scan", "android": "https://dc.lft.to/lastmile_qr_scan"}}, {"name": "6f799e2a316f4970f53f131be443fe98", "lon": -77.03047366666667, "lat": 38.926755666666665, "type": "electric_scooter", "fusion_lon": 0.0, "is_reserved": 0, "bike_id": "6f799e2a316f4970f53f131be443fe98", "fusion_lat": 0.0, "is_disabled": 0, "rental_uris": {"ios": "https://dc.lft.to/lastmile_qr_scan", "android": "https://dc.lft.to/lastmile_qr_scan"}}, {"name": "61f385bc8be3a4f0b179a6e9cc9c3b34", "lon": -77.0279385, "lat": 38.953993833333335, "type": "electric_scooter", "fusion_lon": 0.0, "is_reserved": 0, "bike_id": "61f385bc8be3a4f0b179a6e9cc9c3b34", "fusion_lat": 0.0, "is_disabled": 0, "rental_uris": {"ios": "https://dc.lft.to/lastmile_qr_scan", "android": "https://dc.lft.to/lastmile_qr_scan"}}, {"name": "37d5d068f35bf671f450d9e9086b21fb", "lon": -77.03542833333333, "lat": 38.9270605, "type": "electric_scooter", "fusion_lon": 0.0, "is_reserved": 0, "bike_id": "37d5d068f35bf671f450d9e9086b21fb", "fusion_lat": 0.0, "is_disabled": 0, "rental_uris": {"ios": "https://dc.lft.to/lastmile_qr_scan", "android": "https://dc.lft.to/lastmile_qr_scan"}}, {"name": "ba53b653f485196adab66d2a3de65f69", "lon": -77.02100183333333, "lat": 38.921757166666666, "type": "electric_scooter", "fusion_lon": 0.0, "is_reserved": 0, "bike_id": "ba53b653f485196adab66d2a3de65f69", "fusion_lat": 0.0, "is_disabled": 0, "rental_uris": {"ios": "https://dc.lft.to/lastmile_qr_scan", "android": "https://dc.lft.to/lastmile_qr_scan"}}, {"name": "40bf7b1ddcb21f551aeb793f1938dcb2", "lon": -76.99605233333334, "lat": 38.88580133333333, "type": "electric_scooter", "fusion_lon": 0.0, "is_reserved": 0, "bike_id": "40bf7b1ddcb21f551aeb793f1938dcb2", "fusion_lat": 0.0, "is_disabled": 0, "rental_uris": {"ios": "https://dc.lft.to/lastmile_qr_scan", "android": "https://dc.lft.to/lastmile_qr_scan"}}, {"name": "1621fcab234b0e9a5eb338ea0107d964", "lon": -76.99403933333333, "lat": 38.910124333333336, "type": "electric_scooter", "fusion_lon": 0.0, "is_reserved": 0, "bike_id": "1621fcab234b0e9a5eb338ea0107d964", "fusion_lat": 0.0, "is_disabled": 0, "rental_uris": {"ios": "https://dc.lft.to/lastmile_qr_scan", "android": "https://dc.lft.to/lastmile_qr_scan"}}, {"name": "8a68487982c250e907222ff046c01985", "lon": -76.99806916666667, "lat": 38.90006116666667, "type": "electric_scooter", "fusion_lon": 0.0, "is_reserved": 0, "bike_id": "8a68487982c250e907222ff046c01985", "fusion_lat": 0.0, "is_disabled": 0, "rental_uris": {"ios": "https://dc.lft.to/lastmile_qr_scan", "android": "https://dc.lft.to/lastmile_qr_scan"}}, {"name": "d2500f6648898f6d2cf1e30741b548c2", "lon": -77.02362583333333, "lat": 38.9251445, "type": "electric_scooter", "fusion_lon": 0.0, "is_reserved": 0, "bike_id": "d2500f6648898f6d2cf1e30741b548c2", "fusion_lat": 0.0, "is_disabled": 0, "rental_uris": {"ios": "https://dc.lft.to/lastmile_qr_scan", "android": "https://dc.lft.to/lastmile_qr_scan"}}, {"name": "8d1330983dbd07a81dbc17eb88ea69a1", "lon": -77.03594116666666, "lat": 38.91273066666667, "type": "electric_scooter", "fusion_lon": 0.0, "is_reserved": 0, "bike_id": "8d1330983dbd07a81dbc17eb88ea69a1", "fusion_lat": 0.0, "is_disabled": 0, "rental_uris": {"ios": "https://dc.lft.to/lastmile_qr_scan", "android": "https://dc.lft.to/lastmile_qr_scan"}}, {"name": "c26b0172e2c7a50eda23dae8b2da954b", "lon": -77.02680733333334, "lat": 38.912669333333334, "type": "electric_scooter", "fusion_lon": 0.0, "is_reserved": 0, "bike_id": "c26b0172e2c7a50eda23dae8b2da954b", "fusion_lat": 0.0, "is_disabled": 0, "rental_uris": {"ios": "https://dc.lft.to/lastmile_qr_scan", "android": "https://dc.lft.to/lastmile_qr_scan"}}, {"name": "0993fa1eb9fdcce10843dfb523d2543e", "lon": -77.02302216666666, "lat": 38.91793633333333, "type": "electric_scooter", "fusion_lon": 0.0, "is_reserved": 0, "bike_id": "0993fa1eb9fdcce10843dfb523d2543e", "fusion_lat": 0.0, "is_disabled": 0, "rental_uris": {"ios": "https://dc.lft.to/lastmile_qr_scan", "android": "https://dc.lft.to/lastmile_qr_scan"}}, {"name": "eb7c5ca87957dc1522988a9dd4e350b0", "lon": -76.989739, "lat": 38.865158, "type": "electric_scooter", "fusion_lon": 0.0, "is_reserved": 0, "bike_id": "eb7c5ca87957dc1522988a9dd4e350b0", "fusion_lat": 0.0, "is_disabled": 0, "rental_uris": {"ios": "https://dc.lft.to/lastmile_qr_scan", "android": "https://dc.lft.to/lastmile_qr_scan"}}, {"name": "a8f6bc81b9d7ae18a79e51532751559d", "lon": -76.98719083333333, "lat": 38.86629516666667, "type": "electric_scooter", "fusion_lon": 0.0, "is_reserved": 0, "bike_id": "a8f6bc81b9d7ae18a79e51532751559d", "fusion_lat": 0.0, "is_disabled": 0, "rental_uris": {"ios": "https://dc.lft.to/lastmile_qr_scan", "android": "https://dc.lft.to/lastmile_qr_scan"}}, {"name": "bbf4349553999d3cb3322253f3d69413", "lon": -77.0819025, "lat": 38.855639833333335, "type": "electric_bike", "fusion_lon": 0.0, "is_reserved": 0, "bike_id": "bbf4349553999d3cb3322253f3d69413", "fusion_lat": 0.0, "is_disabled": 0, "rental_uris": {"ios": "https://dc.lft.to/lastmile_qr_scan", "android": "https://dc.lft.to/lastmile_qr_scan"}}, {"name": "b917de9c8260f129a03b0f94567c5f85", "lon": -77.00348483333333, "lat": 38.887037666666664, "type": "electric_scooter", "fusion_lon": 0.0, "is_reserved": 0, "bike_id": "b917de9c8260f129a03b0f94567c5f85", "fusion_lat": 0.0, "is_disabled": 0, "rental_uris": {"ios": "https://dc.lft.to/lastmile_qr_scan", "android": "https://dc.lft.to/lastmile_qr_scan"}}, {"name": "d7cfffb5c6ff5d121b05d1e187a27cb7", "lon": -76.9883655, "lat": 38.90045033333333, "type": "electric_scooter", "fusion_lon": 0.0, "is_reserved": 0, "bike_id": "d7cfffb5c6ff5d121b05d1e187a27cb7", "fusion_lat": 0.0, "is_disabled": 0, "rental_uris": {"ios": "https://dc.lft.to/lastmile_qr_scan", "android": "https://dc.lft.to/lastmile_qr_scan"}}, {"name": "4e30c053c1c34f2b7a11f125d6b080fd", "lon": -77.051391, "lat": 38.90592616666667, "type": "electric_scooter", "fusion_lon": 0.0, "is_reserved": 0, "bike_id": "4e30c053c1c34f2b7a11f125d6b080fd", "fusion_lat": 0.0, "is_disabled": 0, "rental_uris": {"ios": "https://dc.lft.to/lastmile_qr_scan", "android": "https://dc.lft.to/lastmile_qr_scan"}}, {"name": "e61aadac419e07ace9b5cb272c9748ab", "lon": -76.9518685, "lat": 38.907392333333334, "type": "electric_scooter", "fusion_lon": 0.0, "is_reserved": 0, "bike_id": "e61aadac419e07ace9b5cb272c9748ab", "fusion_lat": 0.0, "is_disabled": 0, "rental_uris": {"ios": "https://dc.lft.to/lastmile_qr_scan", "android": "https://dc.lft.to/lastmile_qr_scan"}}, {"name": "6229e18015da5d93c8a9c50a7026ddbe", "lon": -77.07272016666667, "lat": 38.934857666666666, "type": "electric_scooter", "fusion_lon": 0.0, "is_reserved": 0, "bike_id": "6229e18015da5d93c8a9c50a7026ddbe", "fusion_lat": 0.0, "is_disabled": 0, "rental_uris": {"ios": "https://dc.lft.to/lastmile_qr_scan", "android": "https://dc.lft.to/lastmile_qr_scan"}}, {"name": "8a8c74052ce602c813927c7162d049bf", "lon": -77.00589566666666, "lat": 38.875583166666665, "type": "electric_scooter", "fusion_lon": 0.0, "is_reserved": 0, "bike_id": "8a8c74052ce602c813927c7162d049bf", "fusion_lat": 0.0, "is_disabled": 0, "rental_uris": {"ios": "https://dc.lft.to/lastmile_qr_scan", "android": "https://dc.lft.to/lastmile_qr_scan"}}, {"name": "e32c6dbd3012673d76d2bffde2048e10", "lon": -77.03517783333334, "lat": 38.962083, "type": "electric_bike", "fusion_lon": 0.0, "is_reserved": 0, "bike_id": "e32c6dbd3012673d76d2bffde2048e10", "fusion_lat": 0.0, "is_disabled": 0, "rental_uris": {"ios": "https://dc.lft.to/lastmile_qr_scan", "android": "https://dc.lft.to/lastmile_qr_scan"}}, {"name": "7b922d81c061d39af3db85c0cd0eb753", "lon": -77.01819216666667, "lat": 38.92368833333333, "type": "electric_scooter", "fusion_lon": 0.0, "is_reserved": 0, "bike_id": "7b922d81c061d39af3db85c0cd0eb753", "fusion_lat": 0.0, "is_disabled": 0, "rental_uris": {"ios": "https://dc.lft.to/lastmile_qr_scan", "android": "https://dc.lft.to/lastmile_qr_scan"}}, {"name": "ab7e3b85fb3884c2ba2f0e0c2f937fa7", "lon": -77.036179, "lat": 38.928588500000004, "type": "electric_scooter", "fusion_lon": 0.0, "is_reserved": 0, "bike_id": "ab7e3b85fb3884c2ba2f0e0c2f937fa7", "fusion_lat": 0.0, "is_disabled": 0, "rental_uris": {"ios": "https://dc.lft.to/lastmile_qr_scan", "android": "https://dc.lft.to/lastmile_qr_scan"}}, {"name": "73e843a3180980e670683ad6cd464a55", "lon": -77.0351645, "lat": 38.90060916666667, "type": "electric_scooter", "fusion_lon": 0.0, "is_reserved": 0, "bike_id": "73e843a3180980e670683ad6cd464a55", "fusion_lat": 0.0, "is_disabled": 0, "rental_uris": {"ios": "https://dc.lft.to/lastmile_qr_scan", "android": "https://dc.lft.to/lastmile_qr_scan"}}, {"name": "2c4ff206b70562e0db581f80c5409a6c", "lon": -77.04570833333334, "lat": 38.913382166666665, "type": "electric_scooter", "fusion_lon": 0.0, "is_reserved": 0, "bike_id": "2c4ff206b70562e0db581f80c5409a6c", "fusion_lat": 0.0, "is_disabled": 0, "rental_uris": {"ios": "https://dc.lft.to/lastmile_qr_scan", "android": "https://dc.lft.to/lastmile_qr_scan"}}, {"name": "84100fa7873e3d21895bbe9133f1b5eb", "lon": -77.07267916666666, "lat": 38.934906, "type": "electric_scooter", "fusion_lon": 0.0, "is_reserved": 0, "bike_id": "84100fa7873e3d21895bbe9133f1b5eb", "fusion_lat": 0.0, "is_disabled": 0, "rental_uris": {"ios": "https://dc.lft.to/lastmile_qr_scan", "android": "https://dc.lft.to/lastmile_qr_scan"}}, {"name": "592b61a4b509f2c7b74c714a62b7f640", "lon": -77.01805516666667, "lat": 38.91418733333333, "type": "electric_scooter", "fusion_lon": 0.0, "is_reserved": 0, "bike_id": "592b61a4b509f2c7b74c714a62b7f640", "fusion_lat": 0.0, "is_disabled": 0, "rental_uris": {"ios": "https://dc.lft.to/lastmile_qr_scan", "android": "https://dc.lft.to/lastmile_qr_scan"}}, {"name": "423855788db4f07289b721d5be182558", "lon": -77.0238965, "lat": 38.91743983333333, "type": "electric_scooter", "fusion_lon": 0.0, "is_reserved": 0, "bike_id": "423855788db4f07289b721d5be182558", "fusion_lat": 0.0, "is_disabled": 0, "rental_uris": {"ios": "https://dc.lft.to/lastmile_qr_scan", "android": "https://dc.lft.to/lastmile_qr_scan"}}, {"name": "536f3678f6153ded59c3fb6c6eb2cfbf", "lon": -77.038407, "lat": 38.90360883333334, "type": "electric_scooter", "fusion_lon": 0.0, "is_reserved": 0, "bike_id": "536f3678f6153ded59c3fb6c6eb2cfbf", "fusion_lat": 0.0, "is_disabled": 0, "rental_uris": {"ios": "https://dc.lft.to/lastmile_qr_scan", "android": "https://dc.lft.to/lastmile_qr_scan"}}, {"name": "8b0a304f3918c6fe7db43f06d0154a07", "lon": -77.03660866666667, "lat": 38.909187, "type": "electric_scooter", "fusion_lon": 0.0, "is_reserved": 0, "bike_id": "8b0a304f3918c6fe7db43f06d0154a07", "fusion_lat": 0.0, "is_disabled": 0, "rental_uris": {"ios": "https://dc.lft.to/lastmile_qr_scan", "android": "https://dc.lft.to/lastmile_qr_scan"}}, {"name": "754bf2f136e409315d694f0caf6e00ef", "lon": -77.007577, "lat": 38.91031383333333, "type": "electric_scooter", "fusion_lon": 0.0, "is_reserved": 0, "bike_id": "754bf2f136e409315d694f0caf6e00ef", "fusion_lat": 0.0, "is_disabled": 0, "rental_uris": {"ios": "https://dc.lft.to/lastmile_qr_scan", "android": "https://dc.lft.to/lastmile_qr_scan"}}, {"name": "eb18962b71009c0ac2c295bf1fbbc511", "lon": -76.99031733333334, "lat": 38.89856433333333, "type": "electric_scooter", "fusion_lon": 0.0, "is_reserved": 0, "bike_id": "eb18962b71009c0ac2c295bf1fbbc511", "fusion_lat": 0.0, "is_disabled": 0, "rental_uris": {"ios": "https://dc.lft.to/lastmile_qr_scan", "android": "https://dc.lft.to/lastmile_qr_scan"}}, {"name": "890946d271da1586fadece58ad4875cd", "lon": -77.03031433333334, "lat": 38.89828766666667, "type": "electric_bike", "fusion_lon": 0.0, "is_reserved": 0, "bike_id": "890946d271da1586fadece58ad4875cd", "fusion_lat": 0.0, "is_disabled": 0, "rental_uris": {"ios": "https://dc.lft.to/lastmile_qr_scan", "android": "https://dc.lft.to/lastmile_qr_scan"}}, {"name": "ba900c53ef7874a789b8644c820bc7a5", "lon": -77.044658, "lat": 38.911136666666664, "type": "electric_scooter", "fusion_lon": 0.0, "is_reserved": 0, "bike_id": "ba900c53ef7874a789b8644c820bc7a5", "fusion_lat": 0.0, "is_disabled": 0, "rental_uris": {"ios": "https://dc.lft.to/lastmile_qr_scan", "android": "https://dc.lft.to/lastmile_qr_scan"}}, {"name": "d937c619d2a5c87fa77a623b0d1a6cd6", "lon": -77.02285333333333, "lat": 38.897156833333334, "type": "electric_scooter", "fusion_lon": 0.0, "is_reserved": 0, "bike_id": "d937c619d2a5c87fa77a623b0d1a6cd6", "fusion_lat": 0.0, "is_disabled": 0, "rental_uris": {"ios": "https://dc.lft.to/lastmile_qr_scan", "android": "https://dc.lft.to/lastmile_qr_scan"}}, {"name": "3996f06028b07cf3edb56966d1ab1dc2", "lon": -77.00747566666666, "lat": 38.898502666666666, "type": "electric_scooter", "fusion_lon": 0.0, "is_reserved": 0, "bike_id": "3996f06028b07cf3edb56966d1ab1dc2", "fusion_lat": 0.0, "is_disabled": 0, "rental_uris": {"ios": "https://dc.lft.to/lastmile_qr_scan", "android": "https://dc.lft.to/lastmile_qr_scan"}}, {"name": "e83be3e0adb033bba66c5ad476620bdf", "lon": -77.02166283333334, "lat": 38.9191415, "type": "electric_scooter", "fusion_lon": 0.0, "is_reserved": 0, "bike_id": "e83be3e0adb033bba66c5ad476620bdf", "fusion_lat": 0.0, "is_disabled": 0, "rental_uris": {"ios": "https://dc.lft.to/lastmile_qr_scan", "android": "https://dc.lft.to/lastmile_qr_scan"}}, {"name": "3bc869f943f2a5487cdd709d408b4fe1", "lon": -77.04137216666666, "lat": 38.92270116666667, "type": "electric_scooter", "fusion_lon": 0.0, "is_reserved": 0, "bike_id": "3bc869f943f2a5487cdd709d408b4fe1", "fusion_lat": 0.0, "is_disabled": 0, "rental_uris": {"ios": "https://dc.lft.to/lastmile_qr_scan", "android": "https://dc.lft.to/lastmile_qr_scan"}}, {"name": "44e1aa5abd4499b1dd2d93b519c00241", "lon": -77.02599483333333, "lat": 38.895947166666666, "type": "electric_scooter", "fusion_lon": 0.0, "is_reserved": 0, "bike_id": "44e1aa5abd4499b1dd2d93b519c00241", "fusion_lat": 0.0, "is_disabled": 0, "rental_uris": {"ios": "https://dc.lft.to/lastmile_qr_scan", "android": "https://dc.lft.to/lastmile_qr_scan"}}, {"name": "cdbf423cc998c0b731a040b177d3397e", "lon": -77.00896633333333, "lat": 38.903506666666665, "type": "electric_scooter", "fusion_lon": 0.0, "is_reserved": 0, "bike_id": "cdbf423cc998c0b731a040b177d3397e", "fusion_lat": 0.0, "is_disabled": 0, "rental_uris": {"ios": "https://dc.lft.to/lastmile_qr_scan", "android": "https://dc.lft.to/lastmile_qr_scan"}}, {"name": "bec4252d758d730fe934bbb702301409", "lon": -77.04483616666667, "lat": 38.91110166666667, "type": "electric_scooter", "fusion_lon": 0.0, "is_reserved": 0, "bike_id": "bec4252d758d730fe934bbb702301409", "fusion_lat": 0.0, "is_disabled": 0, "rental_uris": {"ios": "https://dc.lft.to/lastmile_qr_scan", "android": "https://dc.lft.to/lastmile_qr_scan"}}, {"name": "c54f1caa52816752a71684c0977edadb", "lon": -76.99600016666666, "lat": 38.8569075, "type": "electric_scooter", "fusion_lon": 0.0, "is_reserved": 0, "bike_id": "c54f1caa52816752a71684c0977edadb", "fusion_lat": 0.0, "is_disabled": 0, "rental_uris": {"ios": "https://dc.lft.to/lastmile_qr_scan", "android": "https://dc.lft.to/lastmile_qr_scan"}}, {"name": "ea63baf2e6589b6361e482b452cf0fdc", "lon": -77.00360616666667, "lat": 38.89899883333333, "type": "electric_scooter", "fusion_lon": 0.0, "is_reserved": 0, "bike_id": "ea63baf2e6589b6361e482b452cf0fdc", "fusion_lat": 0.0, "is_disabled": 0, "rental_uris": {"ios": "https://dc.lft.to/lastmile_qr_scan", "android": "https://dc.lft.to/lastmile_qr_scan"}}, {"name": "ca671da01bb813fbee8294210fb6b0f8", "lon": -77.03443133333333, "lat": 38.909741833333335, "type": "electric_scooter", "fusion_lon": 0.0, "is_reserved": 0, "bike_id": "ca671da01bb813fbee8294210fb6b0f8", "fusion_lat": 0.0, "is_disabled": 0, "rental_uris": {"ios": "https://dc.lft.to/lastmile_qr_scan", "android": "https://dc.lft.to/lastmile_qr_scan"}}, {"name": "faac97f6c177c9f1dc14c7c537eb9f6e", "lon": -77.07192033333334, "lat": 38.959583333333335, "type": "electric_scooter", "fusion_lon": 0.0, "is_reserved": 0, "bike_id": "faac97f6c177c9f1dc14c7c537eb9f6e", "fusion_lat": 0.0, "is_disabled": 0, "rental_uris": {"ios": "https://dc.lft.to/lastmile_qr_scan", "android": "https://dc.lft.to/lastmile_qr_scan"}}, {"name": "918972bd22de57a59b0b5bbb8e7a7896", "lon": -77.00831, "lat": 38.82912533333333, "type": "electric_bike", "fusion_lon": 0.0, "is_reserved": 0, "bike_id": "918972bd22de57a59b0b5bbb8e7a7896", "fusion_lat": 0.0, "is_disabled": 0, "rental_uris": {"ios": "https://dc.lft.to/lastmile_qr_scan", "android": "https://dc.lft.to/lastmile_qr_scan"}}, {"name": "bb127852c644ddaee0985651bb1476f0", "lon": -77.04674683333333, "lat": 38.90158366666667, "type": "electric_scooter", "fusion_lon": 0.0, "is_reserved": 0, "bike_id": "bb127852c644ddaee0985651bb1476f0", "fusion_lat": 0.0, "is_disabled": 0, "rental_uris": {"ios": "https://dc.lft.to/lastmile_qr_scan", "android": "https://dc.lft.to/lastmile_qr_scan"}}, {"name": "843a4b0583cd350ab271a388a83f082f", "lon": -77.01400866666667, "lat": 38.918178166666664, "type": "electric_scooter", "fusion_lon": 0.0, "is_reserved": 0, "bike_id": "843a4b0583cd350ab271a388a83f082f", "fusion_lat": 0.0, "is_disabled": 0, "rental_uris": {"ios": "https://dc.lft.to/lastmile_qr_scan", "android": "https://dc.lft.to/lastmile_qr_scan"}}, {"name": "d3e071c1b3fbd53b2458fa321a7b43a3", "lon": -77.035348, "lat": 38.924110666666664, "type": "electric_scooter", "fusion_lon": 0.0, "is_reserved": 0, "bike_id": "d3e071c1b3fbd53b2458fa321a7b43a3", "fusion_lat": 0.0, "is_disabled": 0, "rental_uris": {"ios": "https://dc.lft.to/lastmile_qr_scan", "android": "https://dc.lft.to/lastmile_qr_scan"}}, {"name": "d9ceda0e94a69e36f57e925d9511a736", "lon": -77.03485866666666, "lat": 38.93270533333333, "type": "electric_scooter", "fusion_lon": 0.0, "is_reserved": 0, "bike_id": "d9ceda0e94a69e36f57e925d9511a736", "fusion_lat": 0.0, "is_disabled": 0, "rental_uris": {"ios": "https://dc.lft.to/lastmile_qr_scan", "android": "https://dc.lft.to/lastmile_qr_scan"}}, {"name": "793158b470acc9d1febf6e5968202376", "lon": -77.03214483333333, "lat": 38.9097485, "type": "electric_scooter", "fusion_lon": 0.0, "is_reserved": 0, "bike_id": "793158b470acc9d1febf6e5968202376", "fusion_lat": 0.0, "is_disabled": 0, "rental_uris": {"ios": "https://dc.lft.to/lastmile_qr_scan", "android": "https://dc.lft.to/lastmile_qr_scan"}}, {"name": "494a8e33908dd92a5f3016dc49be5dd4", "lon": -77.03143266666666, "lat": 38.9297265, "type": "electric_scooter", "fusion_lon": 0.0, "is_reserved": 0, "bike_id": "494a8e33908dd92a5f3016dc49be5dd4", "fusion_lat": 0.0, "is_disabled": 0, "rental_uris": {"ios": "https://dc.lft.to/lastmile_qr_scan", "android": "https://dc.lft.to/lastmile_qr_scan"}}, {"name": "e4a6f75d9318ea2dc499d2a9bdc61f44", "lon": -77.0190405, "lat": 38.91386966666666, "type": "electric_scooter", "fusion_lon": 0.0, "is_reserved": 0, "bike_id": "e4a6f75d9318ea2dc499d2a9bdc61f44", "fusion_lat": 0.0, "is_disabled": 0, "rental_uris": {"ios": "https://dc.lft.to/lastmile_qr_scan", "android": "https://dc.lft.to/lastmile_qr_scan"}}, {"name": "49936afa78afea59980bb49d841584f3", "lon": -77.02740566666667, "lat": 38.924101666666665, "type": "electric_scooter", "fusion_lon": 0.0, "is_reserved": 0, "bike_id": "49936afa78afea59980bb49d841584f3", "fusion_lat": 0.0, "is_disabled": 0, "rental_uris": {"ios": "https://dc.lft.to/lastmile_qr_scan", "android": "https://dc.lft.to/lastmile_qr_scan"}}, {"name": "99893a5b836f6c70b1f95885b7dabc0b", "lon": -77.029693, "lat": 38.924263333333336, "type": "electric_scooter", "fusion_lon": 0.0, "is_reserved": 0, "bike_id": "99893a5b836f6c70b1f95885b7dabc0b", "fusion_lat": 0.0, "is_disabled": 0, "rental_uris": {"ios": "https://dc.lft.to/lastmile_qr_scan", "android": "https://dc.lft.to/lastmile_qr_scan"}}, {"name": "c26131cecafd5980834279ff1704650e", "lon": -77.03762866666666, "lat": 38.916914, "type": "electric_scooter", "fusion_lon": 0.0, "is_reserved": 0, "bike_id": "c26131cecafd5980834279ff1704650e", "fusion_lat": 0.0, "is_disabled": 0, "rental_uris": {"ios": "https://dc.lft.to/lastmile_qr_scan", "android": "https://dc.lft.to/lastmile_qr_scan"}}, {"name": "96aafccd133019517c01318042f65859", "lon": -77.0273505, "lat": 38.92764616666667, "type": "electric_scooter", "fusion_lon": 0.0, "is_reserved": 0, "bike_id": "96aafccd133019517c01318042f65859", "fusion_lat": 0.0, "is_disabled": 0, "rental_uris": {"ios": "https://dc.lft.to/lastmile_qr_scan", "android": "https://dc.lft.to/lastmile_qr_scan"}}, {"name": "b1ab884138f8f3879b19878ea1e6cc1a", "lon": -77.042469, "lat": 38.906427, "type": "electric_scooter", "fusion_lon": 0.0, "is_reserved": 0, "bike_id": "b1ab884138f8f3879b19878ea1e6cc1a", "fusion_lat": 0.0, "is_disabled": 0, "rental_uris": {"ios": "https://dc.lft.to/lastmile_qr_scan", "android": "https://dc.lft.to/lastmile_qr_scan"}}, {"name": "c03e682b4bd721eda031a6a32fff3af6", "lon": -77.0229165, "lat": 38.895117, "type": "electric_scooter", "fusion_lon": 0.0, "is_reserved": 0, "bike_id": "c03e682b4bd721eda031a6a32fff3af6", "fusion_lat": 0.0, "is_disabled": 0, "rental_uris": {"ios": "https://dc.lft.to/lastmile_qr_scan", "android": "https://dc.lft.to/lastmile_qr_scan"}}, {"name": "5eec0edfebc7a93770193d3017b907fd", "lon": -77.039174, "lat": 38.903763, "type": "electric_scooter", "fusion_lon": 0.0, "is_reserved": 0, "bike_id": "5eec0edfebc7a93770193d3017b907fd", "fusion_lat": 0.0, "is_disabled": 0, "rental_uris": {"ios": "https://dc.lft.to/lastmile_qr_scan", "android": "https://dc.lft.to/lastmile_qr_scan"}}, {"name": "3c655ca16fcd673fd9fd2eb530fb7d17", "lon": -77.020837, "lat": 38.93015966666667, "type": "electric_scooter", "fusion_lon": 0.0, "is_reserved": 0, "bike_id": "3c655ca16fcd673fd9fd2eb530fb7d17", "fusion_lat": 0.0, "is_disabled": 0, "rental_uris": {"ios": "https://dc.lft.to/lastmile_qr_scan", "android": "https://dc.lft.to/lastmile_qr_scan"}}, {"name": "03200e12302a4cef8659c33b21543191", "lon": -77.02200316666666, "lat": 38.90585866666667, "type": "electric_scooter", "fusion_lon": 0.0, "is_reserved": 0, "bike_id": "03200e12302a4cef8659c33b21543191", "fusion_lat": 0.0, "is_disabled": 0, "rental_uris": {"ios": "https://dc.lft.to/lastmile_qr_scan", "android": "https://dc.lft.to/lastmile_qr_scan"}}, {"name": "baf380f002f9995d734ad64c2fbbe1b6", "lon": -77.063862, "lat": 38.905199, "type": "electric_scooter", "fusion_lon": 0.0, "is_reserved": 0, "bike_id": "baf380f002f9995d734ad64c2fbbe1b6", "fusion_lat": 0.0, "is_disabled": 0, "rental_uris": {"ios": "https://dc.lft.to/lastmile_qr_scan", "android": "https://dc.lft.to/lastmile_qr_scan"}}, {"name": "954795d42108efddc9bd0c0615712875", "lon": -77.10132233333333, "lat": 38.852097666666666, "type": "electric_bike", "fusion_lon": 0.0, "is_reserved": 0, "bike_id": "954795d42108efddc9bd0c0615712875", "fusion_lat": 0.0, "is_disabled": 0, "rental_uris": {"ios": "https://dc.lft.to/lastmile_qr_scan", "android": "https://dc.lft.to/lastmile_qr_scan"}}, {"name": "e04d3a94998e0b4c874f40df87e041b5", "lon": -77.03320966666666, "lat": 38.947170666666665, "type": "electric_scooter", "fusion_lon": 0.0, "is_reserved": 0, "bike_id": "e04d3a94998e0b4c874f40df87e041b5", "fusion_lat": 0.0, "is_disabled": 0, "rental_uris": {"ios": "https://dc.lft.to/lastmile_qr_scan", "android": "https://dc.lft.to/lastmile_qr_scan"}}, {"name": "a66c26838adb16fcdce369900e26223a", "lon": -77.048445, "lat": 38.90477633333333, "type": "electric_scooter", "fusion_lon": 0.0, "is_reserved": 0, "bike_id": "a66c26838adb16fcdce369900e26223a", "fusion_lat": 0.0, "is_disabled": 0, "rental_uris": {"ios": "https://dc.lft.to/lastmile_qr_scan", "android": "https://dc.lft.to/lastmile_qr_scan"}}, {"name": "8bb9a8186f8638afc8d9260b85297e9e", "lon": -77.04758916666667, "lat": 38.917537333333335, "type": "electric_scooter", "fusion_lon": 0.0, "is_reserved": 0, "bike_id": "8bb9a8186f8638afc8d9260b85297e9e", "fusion_lat": 0.0, "is_disabled": 0, "rental_uris": {"ios": "https://dc.lft.to/lastmile_qr_scan", "android": "https://dc.lft.to/lastmile_qr_scan"}}, {"name": "35eb2ba2bde8183fa18c40d9dc01451b", "lon": -77.04230583333333, "lat": 38.90114416666667, "type": "electric_bike", "fusion_lon": 0.0, "is_reserved": 0, "bike_id": "35eb2ba2bde8183fa18c40d9dc01451b", "fusion_lat": 0.0, "is_disabled": 0, "rental_uris": {"ios": "https://dc.lft.to/lastmile_qr_scan", "android": "https://dc.lft.to/lastmile_qr_scan"}}, {"name": "4542e6531cb210502900109ac4246c4d", "lon": -77.00381883333333, "lat": 38.9236155, "type": "electric_scooter", "fusion_lon": 0.0, "is_reserved": 0, "bike_id": "4542e6531cb210502900109ac4246c4d", "fusion_lat": 0.0, "is_disabled": 0, "rental_uris": {"ios": "https://dc.lft.to/lastmile_qr_scan", "android": "https://dc.lft.to/lastmile_qr_scan"}}, {"name": "2467a325b3488d5559f6d032d15cf13b", "lon": -76.931838, "lat": 38.89876366666667, "type": "electric_scooter", "fusion_lon": 0.0, "is_reserved": 0, "bike_id": "2467a325b3488d5559f6d032d15cf13b", "fusion_lat": 0.0, "is_disabled": 0, "rental_uris": {"ios": "https://dc.lft.to/lastmile_qr_scan", "android": "https://dc.lft.to/lastmile_qr_scan"}}, {"name": "eb6dd2f2adca04de2a2225c74d87166d", "lon": -77.0502255, "lat": 38.9006925, "type": "electric_scooter", "fusion_lon": 0.0, "is_reserved": 0, "bike_id": "eb6dd2f2adca04de2a2225c74d87166d", "fusion_lat": 0.0, "is_disabled": 0, "rental_uris": {"ios": "https://dc.lft.to/lastmile_qr_scan", "android": "https://dc.lft.to/lastmile_qr_scan"}}, {"name": "046324e3d4b93512e8358956a6724901", "lon": -77.03472533333333, "lat": 38.90727016666666, "type": "electric_scooter", "fusion_lon": 0.0, "is_reserved": 0, "bike_id": "046324e3d4b93512e8358956a6724901", "fusion_lat": 0.0, "is_disabled": 0, "rental_uris": {"ios": "https://dc.lft.to/lastmile_qr_scan", "android": "https://dc.lft.to/lastmile_qr_scan"}}, {"name": "4219e2fe10ea4c077ee644c10984281f", "lon": -77.02365883333333, "lat": 38.892215, "type": "electric_scooter", "fusion_lon": 0.0, "is_reserved": 0, "bike_id": "4219e2fe10ea4c077ee644c10984281f", "fusion_lat": 0.0, "is_disabled": 0, "rental_uris": {"ios": "https://dc.lft.to/lastmile_qr_scan", "android": "https://dc.lft.to/lastmile_qr_scan"}}, {"name": "01d9d63fb1592f413519b74790ae16e1", "lon": -77.03639933333334, "lat": 38.9225225, "type": "electric_scooter", "fusion_lon": 0.0, "is_reserved": 0, "bike_id": "01d9d63fb1592f413519b74790ae16e1", "fusion_lat": 0.0, "is_disabled": 0, "rental_uris": {"ios": "https://dc.lft.to/lastmile_qr_scan", "android": "https://dc.lft.to/lastmile_qr_scan"}}, {"name": "e5c2e2733e049083d99be8744c4ef415", "lon": -76.9733165, "lat": 38.904141833333334, "type": "electric_scooter", "fusion_lon": 0.0, "is_reserved": 0, "bike_id": "e5c2e2733e049083d99be8744c4ef415", "fusion_lat": 0.0, "is_disabled": 0, "rental_uris": {"ios": "https://dc.lft.to/lastmile_qr_scan", "android": "https://dc.lft.to/lastmile_qr_scan"}}, {"name": "5409ccd83ddbef8d0eadb86d58e425ef", "lon": -77.01696766666667, "lat": 38.974977833333334, "type": "electric_scooter", "fusion_lon": 0.0, "is_reserved": 0, "bike_id": "5409ccd83ddbef8d0eadb86d58e425ef", "fusion_lat": 0.0, "is_disabled": 0, "rental_uris": {"ios": "https://dc.lft.to/lastmile_qr_scan", "android": "https://dc.lft.to/lastmile_qr_scan"}}, {"name": "8f9bdffa1fb592fc7eb44474d3e16723", "lon": -77.04743383333333, "lat": 38.90525816666667, "type": "electric_scooter", "fusion_lon": 0.0, "is_reserved": 0, "bike_id": "8f9bdffa1fb592fc7eb44474d3e16723", "fusion_lat": 0.0, "is_disabled": 0, "rental_uris": {"ios": "https://dc.lft.to/lastmile_qr_scan", "android": "https://dc.lft.to/lastmile_qr_scan"}}, {"name": "6670d3206b784eea597eaaa9326d4e05", "lon": -77.05547483333334, "lat": 38.907716, "type": "electric_scooter", "fusion_lon": 0.0, "is_reserved": 0, "bike_id": "6670d3206b784eea597eaaa9326d4e05", "fusion_lat": 0.0, "is_disabled": 0, "rental_uris": {"ios": "https://dc.lft.to/lastmile_qr_scan", "android": "https://dc.lft.to/lastmile_qr_scan"}}, {"name": "00f7c1cb4e703c08a3841761c5c830a6", "lon": -77.0335185, "lat": 38.90720683333333, "type": "electric_scooter", "fusion_lon": 0.0, "is_reserved": 0, "bike_id": "00f7c1cb4e703c08a3841761c5c830a6", "fusion_lat": 0.0, "is_disabled": 0, "rental_uris": {"ios": "https://dc.lft.to/lastmile_qr_scan", "android": "https://dc.lft.to/lastmile_qr_scan"}}, {"name": "337e61d7960896cae2979815ac5fdea9", "lon": -76.8836695, "lat": 38.99836116666667, "type": "electric_bike", "fusion_lon": 0.0, "is_reserved": 0, "bike_id": "337e61d7960896cae2979815ac5fdea9", "fusion_lat": 0.0, "is_disabled": 0, "rental_uris": {"ios": "https://dc.lft.to/lastmile_qr_scan", "android": "https://dc.lft.to/lastmile_qr_scan"}}, {"name": "fabac00d6130d1cba2b9ae68b0b67114", "lon": -76.95139833333333, "lat": 38.89037916666667, "type": "electric_scooter", "fusion_lon": 0.0, "is_reserved": 0, "bike_id": "fabac00d6130d1cba2b9ae68b0b67114", "fusion_lat": 0.0, "is_disabled": 0, "rental_uris": {"ios": "https://dc.lft.to/lastmile_qr_scan", "android": "https://dc.lft.to/lastmile_qr_scan"}}, {"name": "f696709318b929899e4fb99f2a74309f", "lon": -77.02623333333334, "lat": 38.962309166666664, "type": "electric_bike", "fusion_lon": 0.0, "is_reserved": 0, "bike_id": "f696709318b929899e4fb99f2a74309f", "fusion_lat": 0.0, "is_disabled": 0, "rental_uris": {"ios": "https://dc.lft.to/lastmile_qr_scan", "android": "https://dc.lft.to/lastmile_qr_scan"}}, {"name": "9e732b9461e2610cbd3397fc81e63171", "lon": -77.02984416666666, "lat": 38.895589666666666, "type": "electric_scooter", "fusion_lon": 0.0, "is_reserved": 0, "bike_id": "9e732b9461e2610cbd3397fc81e63171", "fusion_lat": 0.0, "is_disabled": 0, "rental_uris": {"ios": "https://dc.lft.to/lastmile_qr_scan", "android": "https://dc.lft.to/lastmile_qr_scan"}}, {"name": "abcb878b9bce70875ece458843ec19ba", "lon": -77.03852766666667, "lat": 38.9320095, "type": "electric_scooter", "fusion_lon": 0.0, "is_reserved": 0, "bike_id": "abcb878b9bce70875ece458843ec19ba", "fusion_lat": 0.0, "is_disabled": 0, "rental_uris": {"ios": "https://dc.lft.to/lastmile_qr_scan", "android": "https://dc.lft.to/lastmile_qr_scan"}}, {"name": "878e064e87b8511f9b1d6c515c5cda39", "lon": -77.03635983333334, "lat": 38.922518333333336, "type": "electric_scooter", "fusion_lon": 0.0, "is_reserved": 0, "bike_id": "878e064e87b8511f9b1d6c515c5cda39", "fusion_lat": 0.0, "is_disabled": 0, "rental_uris": {"ios": "https://dc.lft.to/lastmile_qr_scan", "android": "https://dc.lft.to/lastmile_qr_scan"}}, {"name": "f9a5e08c28d6c314066491813c59c992", "lon": -77.03281133333333, "lat": 38.90022033333333, "type": "electric_scooter", "fusion_lon": 0.0, "is_reserved": 0, "bike_id": "f9a5e08c28d6c314066491813c59c992", "fusion_lat": 0.0, "is_disabled": 0, "rental_uris": {"ios": "https://dc.lft.to/lastmile_qr_scan", "android": "https://dc.lft.to/lastmile_qr_scan"}}, {"name": "b32391636e779f4574f798704555c4c5", "lon": -77.00743916666667, "lat": 38.926772666666665, "type": "electric_scooter", "fusion_lon": 0.0, "is_reserved": 0, "bike_id": "b32391636e779f4574f798704555c4c5", "fusion_lat": 0.0, "is_disabled": 0, "rental_uris": {"ios": "https://dc.lft.to/lastmile_qr_scan", "android": "https://dc.lft.to/lastmile_qr_scan"}}, {"name": "28f48f436c13a73f825d4fca91c101e3", "lon": -77.36087383333333, "lat": 38.93970433333333, "type": "electric_bike", "fusion_lon": 0.0, "is_reserved": 0, "bike_id": "28f48f436c13a73f825d4fca91c101e3", "fusion_lat": 0.0, "is_disabled": 0, "rental_uris": {"ios": "https://dc.lft.to/lastmile_qr_scan", "android": "https://dc.lft.to/lastmile_qr_scan"}}, {"name": "6901e476975f0a25cd2b3f75bc1f181a", "lon": -76.97706233333334, "lat": 38.9491495, "type": "electric_bike", "fusion_lon": 0.0, "is_reserved": 0, "bike_id": "6901e476975f0a25cd2b3f75bc1f181a", "fusion_lat": 0.0, "is_disabled": 0, "rental_uris": {"ios": "https://dc.lft.to/lastmile_qr_scan", "android": "https://dc.lft.to/lastmile_qr_scan"}}, {"name": "e2929c9fa7cd60632f723eb8b9e8b31c", "lon": -77.0397755, "lat": 38.911932166666666, "type": "electric_scooter", "fusion_lon": 0.0, "is_reserved": 0, "bike_id": "e2929c9fa7cd60632f723eb8b9e8b31c", "fusion_lat": 0.0, "is_disabled": 0, "rental_uris": {"ios": "https://dc.lft.to/lastmile_qr_scan", "android": "https://dc.lft.to/lastmile_qr_scan"}}, {"name": "f60131f9e28ca624e76b82f9b87d6471", "lon": -77.05040166666667, "lat": 38.92358133333333, "type": "electric_scooter", "fusion_lon": 0.0, "is_reserved": 0, "bike_id": "f60131f9e28ca624e76b82f9b87d6471", "fusion_lat": 0.0, "is_disabled": 0, "rental_uris": {"ios": "https://dc.lft.to/lastmile_qr_scan", "android": "https://dc.lft.to/lastmile_qr_scan"}}, {"name": "9eb05c587c448ad6886cfac60c809253", "lon": -77.04644866666666, "lat": 38.905575, "type": "electric_scooter", "fusion_lon": 0.0, "is_reserved": 0, "bike_id": "9eb05c587c448ad6886cfac60c809253", "fusion_lat": 0.0, "is_disabled": 0, "rental_uris": {"ios": "https://dc.lft.to/lastmile_qr_scan", "android": "https://dc.lft.to/lastmile_qr_scan"}}, {"name": "bcf68dff1151bcb7ce445f4fc4327f1d", "lon": -77.02163033333333, "lat": 38.90298933333333, "type": "electric_scooter", "fusion_lon": 0.0, "is_reserved": 0, "bike_id": "bcf68dff1151bcb7ce445f4fc4327f1d", "fusion_lat": 0.0, "is_disabled": 0, "rental_uris": {"ios": "https://dc.lft.to/lastmile_qr_scan", "android": "https://dc.lft.to/lastmile_qr_scan"}}, {"name": "fa9fd2d4c927ac8626ef90b7cbfa4cfa", "lon": -77.01400633333333, "lat": 38.9747105, "type": "electric_scooter", "fusion_lon": 0.0, "is_reserved": 0, "bike_id": "fa9fd2d4c927ac8626ef90b7cbfa4cfa", "fusion_lat": 0.0, "is_disabled": 0, "rental_uris": {"ios": "https://dc.lft.to/lastmile_qr_scan", "android": "https://dc.lft.to/lastmile_qr_scan"}}, {"name": "755dcb1da6ef1a8a53f54914fb8d9ec4", "lon": -77.01757066666667, "lat": 38.8831815, "type": "electric_scooter", "fusion_lon": 0.0, "is_reserved": 0, "bike_id": "755dcb1da6ef1a8a53f54914fb8d9ec4", "fusion_lat": 0.0, "is_disabled": 0, "rental_uris": {"ios": "https://dc.lft.to/lastmile_qr_scan", "android": "https://dc.lft.to/lastmile_qr_scan"}}, {"name": "6c1fd782e8fffd173be456c261c31694", "lon": -77.03147016666667, "lat": 38.911173166666664, "type": "electric_scooter", "fusion_lon": 0.0, "is_reserved": 0, "bike_id": "6c1fd782e8fffd173be456c261c31694", "fusion_lat": 0.0, "is_disabled": 0, "rental_uris": {"ios": "https://dc.lft.to/lastmile_qr_scan", "android": "https://dc.lft.to/lastmile_qr_scan"}}, {"name": "b66429c93eb5ede0cb8fcc1ab29d9bc6", "lon": -76.9990925, "lat": 38.923312, "type": "electric_scooter", "fusion_lon": 0.0, "is_reserved": 0, "bike_id": "b66429c93eb5ede0cb8fcc1ab29d9bc6", "fusion_lat": 0.0, "is_disabled": 0, "rental_uris": {"ios": "https://dc.lft.to/lastmile_qr_scan", "android": "https://dc.lft.to/lastmile_qr_scan"}}, {"name": "2c4ffeee79149df7fb468c0b386280ba", "lon": -77.01595, "lat": 38.9171635, "type": "electric_scooter", "fusion_lon": 0.0, "is_reserved": 0, "bike_id": "2c4ffeee79149df7fb468c0b386280ba", "fusion_lat": 0.0, "is_disabled": 0, "rental_uris": {"ios": "https://dc.lft.to/lastmile_qr_scan", "android": "https://dc.lft.to/lastmile_qr_scan"}}, {"name": "c71682627143a9248f1989f08e8959f3", "lon": -77.02960333333333, "lat": 38.9233175, "type": "electric_scooter", "fusion_lon": 0.0, "is_reserved": 0, "bike_id": "c71682627143a9248f1989f08e8959f3", "fusion_lat": 0.0, "is_disabled": 0, "rental_uris": {"ios": "https://dc.lft.to/lastmile_qr_scan", "android": "https://dc.lft.to/lastmile_qr_scan"}}, {"name": "033947f029e5ae8bf7d0326e86e1d085", "lon": -77.029833, "lat": 38.90520766666667, "type": "electric_scooter", "fusion_lon": 0.0, "is_reserved": 0, "bike_id": "033947f029e5ae8bf7d0326e86e1d085", "fusion_lat": 0.0, "is_disabled": 0, "rental_uris": {"ios": "https://dc.lft.to/lastmile_qr_scan", "android": "https://dc.lft.to/lastmile_qr_scan"}}, {"name": "dd7f1250aea1f607913a9a4518d76b7a", "lon": -77.04174933333333, "lat": 38.917351, "type": "electric_scooter", "fusion_lon": 0.0, "is_reserved": 0, "bike_id": "dd7f1250aea1f607913a9a4518d76b7a", "fusion_lat": 0.0, "is_disabled": 0, "rental_uris": {"ios": "https://dc.lft.to/lastmile_qr_scan", "android": "https://dc.lft.to/lastmile_qr_scan"}}, {"name": "e1c8bd0d105218bbd0286789e8be888a", "lon": -77.02169816666667, "lat": 38.902043666666664, "type": "electric_scooter", "fusion_lon": 0.0, "is_reserved": 0, "bike_id": "e1c8bd0d105218bbd0286789e8be888a", "fusion_lat": 0.0, "is_disabled": 0, "rental_uris": {"ios": "https://dc.lft.to/lastmile_qr_scan", "android": "https://dc.lft.to/lastmile_qr_scan"}}, {"name": "02483ecce253bb28d45acbd4f944ca0c", "lon": -77.0308215, "lat": 38.899902166666664, "type": "electric_scooter", "fusion_lon": 0.0, "is_reserved": 0, "bike_id": "02483ecce253bb28d45acbd4f944ca0c", "fusion_lat": 0.0, "is_disabled": 0, "rental_uris": {"ios": "https://dc.lft.to/lastmile_qr_scan", "android": "https://dc.lft.to/lastmile_qr_scan"}}, {"name": "508c29c4c4fbe47610d38a7f368e2f8a", "lon": -77.01529833333333, "lat": 38.884134833333334, "type": "electric_scooter", "fusion_lon": 0.0, "is_reserved": 0, "bike_id": "508c29c4c4fbe47610d38a7f368e2f8a", "fusion_lat": 0.0, "is_disabled": 0, "rental_uris": {"ios": "https://dc.lft.to/lastmile_qr_scan", "android": "https://dc.lft.to/lastmile_qr_scan"}}, {"name": "88dd6dd40e118e02b7fb9e372acdb887", "lon": -77.00054383333334, "lat": 38.91604783333333, "type": "electric_scooter", "fusion_lon": 0.0, "is_reserved": 0, "bike_id": "88dd6dd40e118e02b7fb9e372acdb887", "fusion_lat": 0.0, "is_disabled": 0, "rental_uris": {"ios": "https://dc.lft.to/lastmile_qr_scan", "android": "https://dc.lft.to/lastmile_qr_scan"}}, {"name": "b6e74e694b413b2eaf147879b2f4a4e2", "lon": -77.07696733333333, "lat": 38.84093133333333, "type": "electric_bike", "fusion_lon": 0.0, "is_reserved": 0, "bike_id": "b6e74e694b413b2eaf147879b2f4a4e2", "fusion_lat": 0.0, "is_disabled": 0, "rental_uris": {"ios": "https://dc.lft.to/lastmile_qr_scan", "android": "https://dc.lft.to/lastmile_qr_scan"}}, {"name": "9c13cb32a2eae71a880030a8e1e77803", "lon": -77.02040483333333, "lat": 38.89273416666666, "type": "electric_scooter", "fusion_lon": 0.0, "is_reserved": 0, "bike_id": "9c13cb32a2eae71a880030a8e1e77803", "fusion_lat": 0.0, "is_disabled": 0, "rental_uris": {"ios": "https://dc.lft.to/lastmile_qr_scan", "android": "https://dc.lft.to/lastmile_qr_scan"}}, {"name": "0d52b7852e6eb1c721063314b5115069", "lon": -77.04330966666667, "lat": 38.89228816666667, "type": "electric_scooter", "fusion_lon": 0.0, "is_reserved": 0, "bike_id": "0d52b7852e6eb1c721063314b5115069", "fusion_lat": 0.0, "is_disabled": 0, "rental_uris": {"ios": "https://dc.lft.to/lastmile_qr_scan", "android": "https://dc.lft.to/lastmile_qr_scan"}}, {"name": "89bfcb66d320224accec5bd9dba4037e", "lon": -76.97422283333333, "lat": 38.93237116666667, "type": "electric_bike", "fusion_lon": 0.0, "is_reserved": 0, "bike_id": "89bfcb66d320224accec5bd9dba4037e", "fusion_lat": 0.0, "is_disabled": 0, "rental_uris": {"ios": "https://dc.lft.to/lastmile_qr_scan", "android": "https://dc.lft.to/lastmile_qr_scan"}}, {"name": "fec60c73fc55e56c8a90364e345b794f", "lon": -77.002366, "lat": 38.9572075, "type": "electric_scooter", "fusion_lon": 0.0, "is_reserved": 0, "bike_id": "fec60c73fc55e56c8a90364e345b794f", "fusion_lat": 0.0, "is_disabled": 0, "rental_uris": {"ios": "https://dc.lft.to/lastmile_qr_scan", "android": "https://dc.lft.to/lastmile_qr_scan"}}, {"name": "78efd83e4adb58fd741caad302181882", "lon": -77.0399795, "lat": 38.9126295, "type": "electric_scooter", "fusion_lon": 0.0, "is_reserved": 0, "bike_id": "78efd83e4adb58fd741caad302181882", "fusion_lat": 0.0, "is_disabled": 0, "rental_uris": {"ios": "https://dc.lft.to/lastmile_qr_scan", "android": "https://dc.lft.to/lastmile_qr_scan"}}, {"name": "990a71a9d94e0b02ec0594231f3af2be", "lon": -77.01690616666667, "lat": 38.97500266666667, "type": "electric_scooter", "fusion_lon": 0.0, "is_reserved": 0, "bike_id": "990a71a9d94e0b02ec0594231f3af2be", "fusion_lat": 0.0, "is_disabled": 0, "rental_uris": {"ios": "https://dc.lft.to/lastmile_qr_scan", "android": "https://dc.lft.to/lastmile_qr_scan"}}, {"name": "73d3eef759a30a4b6e6596bc00e7b1e0", "lon": -77.04290683333333, "lat": 38.90553233333333, "type": "electric_scooter", "fusion_lon": 0.0, "is_reserved": 0, "bike_id": "73d3eef759a30a4b6e6596bc00e7b1e0", "fusion_lat": 0.0, "is_disabled": 0, "rental_uris": {"ios": "https://dc.lft.to/lastmile_qr_scan", "android": "https://dc.lft.to/lastmile_qr_scan"}}, {"name": "bad1795a15a70037d3e2f56ed1e31c59", "lon": -77.03208333333333, "lat": 38.895347666666666, "type": "electric_scooter", "fusion_lon": 0.0, "is_reserved": 0, "bike_id": "bad1795a15a70037d3e2f56ed1e31c59", "fusion_lat": 0.0, "is_disabled": 0, "rental_uris": {"ios": "https://dc.lft.to/lastmile_qr_scan", "android": "https://dc.lft.to/lastmile_qr_scan"}}, {"name": "5fb8ec755f7a4f3bc0862bd4c59ee8a9", "lon": -77.04830783333334, "lat": 38.9111315, "type": "electric_scooter", "fusion_lon": 0.0, "is_reserved": 0, "bike_id": "5fb8ec755f7a4f3bc0862bd4c59ee8a9", "fusion_lat": 0.0, "is_disabled": 0, "rental_uris": {"ios": "https://dc.lft.to/lastmile_qr_scan", "android": "https://dc.lft.to/lastmile_qr_scan"}}, {"name": "0a0e7da52ab0630e5f6f3ecd79281099", "lon": -77.02182083333334, "lat": 38.92497483333333, "type": "electric_scooter", "fusion_lon": 0.0, "is_reserved": 0, "bike_id": "0a0e7da52ab0630e5f6f3ecd79281099", "fusion_lat": 0.0, "is_disabled": 0, "rental_uris": {"ios": "https://dc.lft.to/lastmile_qr_scan", "android": "https://dc.lft.to/lastmile_qr_scan"}}, {"name": "a6e631d409d9d7d78499411d23174042", "lon": -77.09522016666666, "lat": 38.83812, "type": "electric_bike", "fusion_lon": 0.0, "is_reserved": 0, "bike_id": "a6e631d409d9d7d78499411d23174042", "fusion_lat": 0.0, "is_disabled": 0, "rental_uris": {"ios": "https://dc.lft.to/lastmile_qr_scan", "android": "https://dc.lft.to/lastmile_qr_scan"}}, {"name": "d33b4490d7ba096b1bdca991503c96a0", "lon": -77.00202666666667, "lat": 38.90235583333333, "type": "electric_scooter", "fusion_lon": 0.0, "is_reserved": 0, "bike_id": "d33b4490d7ba096b1bdca991503c96a0", "fusion_lat": 0.0, "is_disabled": 0, "rental_uris": {"ios": "https://dc.lft.to/lastmile_qr_scan", "android": "https://dc.lft.to/lastmile_qr_scan"}}, {"name": "7e0f160b994533a86efac7774d31317b", "lon": -77.02499566666667, "lat": 38.90637183333333, "type": "electric_scooter", "fusion_lon": 0.0, "is_reserved": 0, "bike_id": "7e0f160b994533a86efac7774d31317b", "fusion_lat": 0.0, "is_disabled": 0, "rental_uris": {"ios": "https://dc.lft.to/lastmile_qr_scan", "android": "https://dc.lft.to/lastmile_qr_scan"}}, {"name": "5809df6f8cfca13fb4d06d0484eb59b9", "lon": -77.04333983333333, "lat": 38.903678666666664, "type": "electric_scooter", "fusion_lon": 0.0, "is_reserved": 0, "bike_id": "5809df6f8cfca13fb4d06d0484eb59b9", "fusion_lat": 0.0, "is_disabled": 0, "rental_uris": {"ios": "https://dc.lft.to/lastmile_qr_scan", "android": "https://dc.lft.to/lastmile_qr_scan"}}, {"name": "5b849ee690f666346c64a7a4154870a9", "lon": -76.99546066666667, "lat": 38.86261566666667, "type": "electric_scooter", "fusion_lon": 0.0, "is_reserved": 0, "bike_id": "5b849ee690f666346c64a7a4154870a9", "fusion_lat": 0.0, "is_disabled": 0, "rental_uris": {"ios": "https://dc.lft.to/lastmile_qr_scan", "android": "https://dc.lft.to/lastmile_qr_scan"}}, {"name": "8c2f05100eabc5cdf87f8c560b89e56f", "lon": -77.22802216666666, "lat": 38.910159166666666, "type": "electric_bike", "fusion_lon": 0.0, "is_reserved": 0, "bike_id": "8c2f05100eabc5cdf87f8c560b89e56f", "fusion_lat": 0.0, "is_disabled": 0, "rental_uris": {"ios": "https://dc.lft.to/lastmile_qr_scan", "android": "https://dc.lft.to/lastmile_qr_scan"}}, {"name": "27b872553cc09e23ddb75fc019ae1f28", "lon": -76.97556883333333, "lat": 38.92459866666667, "type": "electric_bike", "fusion_lon": 0.0, "is_reserved": 0, "bike_id": "27b872553cc09e23ddb75fc019ae1f28", "fusion_lat": 0.0, "is_disabled": 0, "rental_uris": {"ios": "https://dc.lft.to/lastmile_qr_scan", "android": "https://dc.lft.to/lastmile_qr_scan"}}, {"name": "b91c4af1a49695df4056c8dfe5e888f5", "lon": -77.01416433333333, "lat": 38.90643433333334, "type": "electric_scooter", "fusion_lon": 0.0, "is_reserved": 0, "bike_id": "b91c4af1a49695df4056c8dfe5e888f5", "fusion_lat": 0.0, "is_disabled": 0, "rental_uris": {"ios": "https://dc.lft.to/lastmile_qr_scan", "android": "https://dc.lft.to/lastmile_qr_scan"}}, {"name": "08099013af823d9e916019d3d6108f5c", "lon": -77.04112983333333, "lat": 38.91068666666666, "type": "electric_scooter", "fusion_lon": 0.0, "is_reserved": 0, "bike_id": "08099013af823d9e916019d3d6108f5c", "fusion_lat": 0.0, "is_disabled": 0, "rental_uris": {"ios": "https://dc.lft.to/lastmile_qr_scan", "android": "https://dc.lft.to/lastmile_qr_scan"}}, {"name": "118d4c0e37e12127e404e45bdf807849", "lon": -76.99624716666666, "lat": 38.90038116666667, "type": "electric_scooter", "fusion_lon": 0.0, "is_reserved": 0, "bike_id": "118d4c0e37e12127e404e45bdf807849", "fusion_lat": 0.0, "is_disabled": 0, "rental_uris": {"ios": "https://dc.lft.to/lastmile_qr_scan", "android": "https://dc.lft.to/lastmile_qr_scan"}}, {"name": "a19338d20746afbfe4c976e176696825", "lon": -77.0338735, "lat": 38.9288735, "type": "electric_scooter", "fusion_lon": 0.0, "is_reserved": 0, "bike_id": "a19338d20746afbfe4c976e176696825", "fusion_lat": 0.0, "is_disabled": 0, "rental_uris": {"ios": "https://dc.lft.to/lastmile_qr_scan", "android": "https://dc.lft.to/lastmile_qr_scan"}}, {"name": "0b2538ba6fce8d23570cd03a2a57e2c6", "lon": -76.99410766666666, "lat": 38.92105166666666, "type": "electric_scooter", "fusion_lon": 0.0, "is_reserved": 0, "bike_id": "0b2538ba6fce8d23570cd03a2a57e2c6", "fusion_lat": 0.0, "is_disabled": 0, "rental_uris": {"ios": "https://dc.lft.to/lastmile_qr_scan", "android": "https://dc.lft.to/lastmile_qr_scan"}}, {"name": "0e9b98f099330ea03f6105c38e057511", "lon": -77.04689116666667, "lat": 38.8974205, "type": "electric_scooter", "fusion_lon": 0.0, "is_reserved": 0, "bike_id": "0e9b98f099330ea03f6105c38e057511", "fusion_lat": 0.0, "is_disabled": 0, "rental_uris": {"ios": "https://dc.lft.to/lastmile_qr_scan", "android": "https://dc.lft.to/lastmile_qr_scan"}}, {"name": "d86de40097c9e588522975c1f8d18caf", "lon": -77.0109615, "lat": 38.895069, "type": "electric_scooter", "fusion_lon": 0.0, "is_reserved": 0, "bike_id": "d86de40097c9e588522975c1f8d18caf", "fusion_lat": 0.0, "is_disabled": 0, "rental_uris": {"ios": "https://dc.lft.to/lastmile_qr_scan", "android": "https://dc.lft.to/lastmile_qr_scan"}}, {"name": "c6da4cd11807300723957a27685da7cf", "lon": -77.03207933333333, "lat": 38.91428666666667, "type": "electric_scooter", "fusion_lon": 0.0, "is_reserved": 0, "bike_id": "c6da4cd11807300723957a27685da7cf", "fusion_lat": 0.0, "is_disabled": 0, "rental_uris": {"ios": "https://dc.lft.to/lastmile_qr_scan", "android": "https://dc.lft.to/lastmile_qr_scan"}}, {"name": "8f1d7c8002e88d6d8abe1645fa99ede1", "lon": -77.04508833333334, "lat": 38.903676833333336, "type": "electric_scooter", "fusion_lon": 0.0, "is_reserved": 0, "bike_id": "8f1d7c8002e88d6d8abe1645fa99ede1", "fusion_lat": 0.0, "is_disabled": 0, "rental_uris": {"ios": "https://dc.lft.to/lastmile_qr_scan", "android": "https://dc.lft.to/lastmile_qr_scan"}}, {"name": "bdd70e06ee5576b37695e506499d7a66", "lon": -77.041854, "lat": 38.892886, "type": "electric_scooter", "fusion_lon": 0.0, "is_reserved": 0, "bike_id": "bdd70e06ee5576b37695e506499d7a66", "fusion_lat": 0.0, "is_disabled": 0, "rental_uris": {"ios": "https://dc.lft.to/lastmile_qr_scan", "android": "https://dc.lft.to/lastmile_qr_scan"}}, {"name": "94015d62bb498e201e35dd6f29357cde", "lon": -77.0248815, "lat": 38.941841833333335, "type": "electric_scooter", "fusion_lon": 0.0, "is_reserved": 0, "bike_id": "94015d62bb498e201e35dd6f29357cde", "fusion_lat": 0.0, "is_disabled": 0, "rental_uris": {"ios": "https://dc.lft.to/lastmile_qr_scan", "android": "https://dc.lft.to/lastmile_qr_scan"}}, {"name": "47c38d91871113cd30cfe18f69b827d7", "lon": -77.02475716666666, "lat": 38.89823033333333, "type": "electric_bike", "fusion_lon": 0.0, "is_reserved": 0, "bike_id": "47c38d91871113cd30cfe18f69b827d7", "fusion_lat": 0.0, "is_disabled": 0, "rental_uris": {"ios": "https://dc.lft.to/lastmile_qr_scan", "android": "https://dc.lft.to/lastmile_qr_scan"}}, {"name": "ef5a319831f099c058cb45cf742d729e", "lon": -77.034476, "lat": 38.9081765, "type": "electric_scooter", "fusion_lon": 0.0, "is_reserved": 0, "bike_id": "ef5a319831f099c058cb45cf742d729e", "fusion_lat": 0.0, "is_disabled": 0, "rental_uris": {"ios": "https://dc.lft.to/lastmile_qr_scan", "android": "https://dc.lft.to/lastmile_qr_scan"}}, {"name": "1e33aba85c854b9f1b93db5b93f45785", "lon": -77.02296583333333, "lat": 38.92810083333333, "type": "electric_scooter", "fusion_lon": 0.0, "is_reserved": 0, "bike_id": "1e33aba85c854b9f1b93db5b93f45785", "fusion_lat": 0.0, "is_disabled": 0, "rental_uris": {"ios": "https://dc.lft.to/lastmile_qr_scan", "android": "https://dc.lft.to/lastmile_qr_scan"}}, {"name": "8741ce18b219b1be15ecd96d07265722", "lon": -76.99125216666667, "lat": 38.862046, "type": "electric_scooter", "fusion_lon": 0.0, "is_reserved": 0, "bike_id": "8741ce18b219b1be15ecd96d07265722", "fusion_lat": 0.0, "is_disabled": 0, "rental_uris": {"ios": "https://dc.lft.to/lastmile_qr_scan", "android": "https://dc.lft.to/lastmile_qr_scan"}}, {"name": "ee52c060622eaedeb71a584b8bbc9cf3", "lon": -77.04309516666666, "lat": 38.908571, "type": "electric_scooter", "fusion_lon": 0.0, "is_reserved": 0, "bike_id": "ee52c060622eaedeb71a584b8bbc9cf3", "fusion_lat": 0.0, "is_disabled": 0, "rental_uris": {"ios": "https://dc.lft.to/lastmile_qr_scan", "android": "https://dc.lft.to/lastmile_qr_scan"}}, {"name": "252cfbc30a7845c205224fca14233a00", "lon": -77.027253, "lat": 38.895000833333334, "type": "electric_scooter", "fusion_lon": 0.0, "is_reserved": 0, "bike_id": "252cfbc30a7845c205224fca14233a00", "fusion_lat": 0.0, "is_disabled": 0, "rental_uris": {"ios": "https://dc.lft.to/lastmile_qr_scan", "android": "https://dc.lft.to/lastmile_qr_scan"}}, {"name": "565a76f221839fa6ff091c38eb541905", "lon": -77.0318105, "lat": 38.92126566666666, "type": "electric_scooter", "fusion_lon": 0.0, "is_reserved": 0, "bike_id": "565a76f221839fa6ff091c38eb541905", "fusion_lat": 0.0, "is_disabled": 0, "rental_uris": {"ios": "https://dc.lft.to/lastmile_qr_scan", "android": "https://dc.lft.to/lastmile_qr_scan"}}, {"name": "8b913fdfbecb69095b5167f1ce9bb7fa", "lon": -77.01029483333333, "lat": 38.91706766666667, "type": "electric_scooter", "fusion_lon": 0.0, "is_reserved": 0, "bike_id": "8b913fdfbecb69095b5167f1ce9bb7fa", "fusion_lat": 0.0, "is_disabled": 0, "rental_uris": {"ios": "https://dc.lft.to/lastmile_qr_scan", "android": "https://dc.lft.to/lastmile_qr_scan"}}, {"name": "3944276d36eff088dd586753398deda1", "lon": -77.03442933333334, "lat": 38.90971616666667, "type": "electric_scooter", "fusion_lon": 0.0, "is_reserved": 0, "bike_id": "3944276d36eff088dd586753398deda1", "fusion_lat": 0.0, "is_disabled": 0, "rental_uris": {"ios": "https://dc.lft.to/lastmile_qr_scan", "android": "https://dc.lft.to/lastmile_qr_scan"}}, {"name": "b57895ac589ff9846ef98f2019ea0064", "lon": -77.0465025, "lat": 38.90561433333333, "type": "electric_scooter", "fusion_lon": 0.0, "is_reserved": 0, "bike_id": "b57895ac589ff9846ef98f2019ea0064", "fusion_lat": 0.0, "is_disabled": 0, "rental_uris": {"ios": "https://dc.lft.to/lastmile_qr_scan", "android": "https://dc.lft.to/lastmile_qr_scan"}}, {"name": "981134afa5f1dd57e943b59ca169d649", "lon": -77.047196, "lat": 38.90949033333333, "type": "electric_scooter", "fusion_lon": 0.0, "is_reserved": 0, "bike_id": "981134afa5f1dd57e943b59ca169d649", "fusion_lat": 0.0, "is_disabled": 0, "rental_uris": {"ios": "https://dc.lft.to/lastmile_qr_scan", "android": "https://dc.lft.to/lastmile_qr_scan"}}, {"name": "66f79452e1106c9351d4d34295184a6d", "lon": -76.95365016666666, "lat": 38.89210083333333, "type": "electric_scooter", "fusion_lon": 0.0, "is_reserved": 0, "bike_id": "66f79452e1106c9351d4d34295184a6d", "fusion_lat": 0.0, "is_disabled": 0, "rental_uris": {"ios": "https://dc.lft.to/lastmile_qr_scan", "android": "https://dc.lft.to/lastmile_qr_scan"}}, {"name": "7b07cf1a75d06accf932b9936039ea19", "lon": -77.05438583333333, "lat": 38.928282333333335, "type": "electric_scooter", "fusion_lon": 0.0, "is_reserved": 0, "bike_id": "7b07cf1a75d06accf932b9936039ea19", "fusion_lat": 0.0, "is_disabled": 0, "rental_uris": {"ios": "https://dc.lft.to/lastmile_qr_scan", "android": "https://dc.lft.to/lastmile_qr_scan"}}, {"name": "09769895e65b35ed854988c20d1a66b3", "lon": -76.948779, "lat": 38.895511, "type": "electric_scooter", "fusion_lon": 0.0, "is_reserved": 0, "bike_id": "09769895e65b35ed854988c20d1a66b3", "fusion_lat": 0.0, "is_disabled": 0, "rental_uris": {"ios": "https://dc.lft.to/lastmile_qr_scan", "android": "https://dc.lft.to/lastmile_qr_scan"}}, {"name": "3e40063f57e2b5603f6d6ee8fee117d8", "lon": -76.98711716666666, "lat": 38.86702416666667, "type": "electric_scooter", "fusion_lon": 0.0, "is_reserved": 0, "bike_id": "3e40063f57e2b5603f6d6ee8fee117d8", "fusion_lat": 0.0, "is_disabled": 0, "rental_uris": {"ios": "https://dc.lft.to/lastmile_qr_scan", "android": "https://dc.lft.to/lastmile_qr_scan"}}, {"name": "5415a5e6d80e8684dd44f2ac732061bf", "lon": -77.02368466666667, "lat": 38.892232666666665, "type": "electric_scooter", "fusion_lon": 0.0, "is_reserved": 0, "bike_id": "5415a5e6d80e8684dd44f2ac732061bf", "fusion_lat": 0.0, "is_disabled": 0, "rental_uris": {"ios": "https://dc.lft.to/lastmile_qr_scan", "android": "https://dc.lft.to/lastmile_qr_scan"}}, {"name": "52183f63cda4e9ce399319c29b41ddcb", "lon": -77.0539595, "lat": 38.928123, "type": "electric_scooter", "fusion_lon": 0.0, "is_reserved": 0, "bike_id": "52183f63cda4e9ce399319c29b41ddcb", "fusion_lat": 0.0, "is_disabled": 0, "rental_uris": {"ios": "https://dc.lft.to/lastmile_qr_scan", "android": "https://dc.lft.to/lastmile_qr_scan"}}, {"name": "79d2276328cb7b4bcf020e7f68a4bdca", "lon": -77.03266116666667, "lat": 38.93148933333333, "type": "electric_scooter", "fusion_lon": 0.0, "is_reserved": 0, "bike_id": "79d2276328cb7b4bcf020e7f68a4bdca", "fusion_lat": 0.0, "is_disabled": 0, "rental_uris": {"ios": "https://dc.lft.to/lastmile_qr_scan", "android": "https://dc.lft.to/lastmile_qr_scan"}}, {"name": "96332a706cfbf97e3992b3c5601b105a", "lon": -77.03947966666667, "lat": 38.9012885, "type": "electric_bike", "fusion_lon": 0.0, "is_reserved": 0, "bike_id": "96332a706cfbf97e3992b3c5601b105a", "fusion_lat": 0.0, "is_disabled": 0, "rental_uris": {"ios": "https://dc.lft.to/lastmile_qr_scan", "android": "https://dc.lft.to/lastmile_qr_scan"}}, {"name": "f3983caf66aeeee55b49831d912dd84a", "lon": -76.99409083333333, "lat": 38.92100416666667, "type": "electric_scooter", "fusion_lon": 0.0, "is_reserved": 0, "bike_id": "f3983caf66aeeee55b49831d912dd84a", "fusion_lat": 0.0, "is_disabled": 0, "rental_uris": {"ios": "https://dc.lft.to/lastmile_qr_scan", "android": "https://dc.lft.to/lastmile_qr_scan"}}, {"name": "0c06fc0179e5d99b5117d1187957ced4", "lon": -76.99061216666666, "lat": 38.863579333333334, "type": "electric_scooter", "fusion_lon": 0.0, "is_reserved": 0, "bike_id": "0c06fc0179e5d99b5117d1187957ced4", "fusion_lat": 0.0, "is_disabled": 0, "rental_uris": {"ios": "https://dc.lft.to/lastmile_qr_scan", "android": "https://dc.lft.to/lastmile_qr_scan"}}, {"name": "f60582f3dac6f1c7519816eb6b374eef", "lon": -77.034376, "lat": 38.90441466666667, "type": "electric_scooter", "fusion_lon": 0.0, "is_reserved": 0, "bike_id": "f60582f3dac6f1c7519816eb6b374eef", "fusion_lat": 0.0, "is_disabled": 0, "rental_uris": {"ios": "https://dc.lft.to/lastmile_qr_scan", "android": "https://dc.lft.to/lastmile_qr_scan"}}, {"name": "f6bf6277260932f7718e3364edbd7c29", "lon": -77.01188883333333, "lat": 38.91552183333334, "type": "electric_scooter", "fusion_lon": 0.0, "is_reserved": 0, "bike_id": "f6bf6277260932f7718e3364edbd7c29", "fusion_lat": 0.0, "is_disabled": 0, "rental_uris": {"ios": "https://dc.lft.to/lastmile_qr_scan", "android": "https://dc.lft.to/lastmile_qr_scan"}}, {"name": "f680a4dd229474d31a460c6950a2d9fa", "lon": -77.02735966666667, "lat": 38.928538, "type": "electric_scooter", "fusion_lon": 0.0, "is_reserved": 0, "bike_id": "f680a4dd229474d31a460c6950a2d9fa", "fusion_lat": 0.0, "is_disabled": 0, "rental_uris": {"ios": "https://dc.lft.to/lastmile_qr_scan", "android": "https://dc.lft.to/lastmile_qr_scan"}}, {"name": "08d2f2c33d3fa2f6980c4f68af462c80", "lon": -77.00096183333333, "lat": 38.920283833333336, "type": "electric_scooter", "fusion_lon": 0.0, "is_reserved": 0, "bike_id": "08d2f2c33d3fa2f6980c4f68af462c80", "fusion_lat": 0.0, "is_disabled": 0, "rental_uris": {"ios": "https://dc.lft.to/lastmile_qr_scan", "android": "https://dc.lft.to/lastmile_qr_scan"}}, {"name": "0e7da697070811b42597018173a76f04", "lon": -77.00876566666666, "lat": 38.876583, "type": "electric_scooter", "fusion_lon": 0.0, "is_reserved": 0, "bike_id": "0e7da697070811b42597018173a76f04", "fusion_lat": 0.0, "is_disabled": 0, "rental_uris": {"ios": "https://dc.lft.to/lastmile_qr_scan", "android": "https://dc.lft.to/lastmile_qr_scan"}}, {"name": "fa4fd953078cc73d48eef47dab653bf1", "lon": -77.0014775, "lat": 38.873850833333336, "type": "electric_scooter", "fusion_lon": 0.0, "is_reserved": 0, "bike_id": "fa4fd953078cc73d48eef47dab653bf1", "fusion_lat": 0.0, "is_disabled": 0, "rental_uris": {"ios": "https://dc.lft.to/lastmile_qr_scan", "android": "https://dc.lft.to/lastmile_qr_scan"}}, {"name": "af316e1fca4384e61343362cef8b7e79", "lon": -77.0232005, "lat": 38.94092466666667, "type": "electric_scooter", "fusion_lon": 0.0, "is_reserved": 0, "bike_id": "af316e1fca4384e61343362cef8b7e79", "fusion_lat": 0.0, "is_disabled": 0, "rental_uris": {"ios": "https://dc.lft.to/lastmile_qr_scan", "android": "https://dc.lft.to/lastmile_qr_scan"}}, {"name": "f449cec52c974678c756697c6835437b", "lon": -77.0279745, "lat": 38.90296883333333, "type": "electric_scooter", "fusion_lon": 0.0, "is_reserved": 0, "bike_id": "f449cec52c974678c756697c6835437b", "fusion_lat": 0.0, "is_disabled": 0, "rental_uris": {"ios": "https://dc.lft.to/lastmile_qr_scan", "android": "https://dc.lft.to/lastmile_qr_scan"}}, {"name": "80dc212e004336fdb26ead197e045231", "lon": -77.10718466666667, "lat": 38.855507333333335, "type": "electric_bike", "fusion_lon": 0.0, "is_reserved": 0, "bike_id": "80dc212e004336fdb26ead197e045231", "fusion_lat": 0.0, "is_disabled": 0, "rental_uris": {"ios": "https://dc.lft.to/lastmile_qr_scan", "android": "https://dc.lft.to/lastmile_qr_scan"}}, {"name": "e58fa8105c9b6198401ca63ef99aa998", "lon": -77.02793616666666, "lat": 38.9308185, "type": "electric_scooter", "fusion_lon": 0.0, "is_reserved": 0, "bike_id": "e58fa8105c9b6198401ca63ef99aa998", "fusion_lat": 0.0, "is_disabled": 0, "rental_uris": {"ios": "https://dc.lft.to/lastmile_qr_scan", "android": "https://dc.lft.to/lastmile_qr_scan"}}, {"name": "b837f6ec7e5ef1b01eb6a4573979f462", "lon": -77.02164683333334, "lat": 38.89728816666667, "type": "electric_scooter", "fusion_lon": 0.0, "is_reserved": 0, "bike_id": "b837f6ec7e5ef1b01eb6a4573979f462", "fusion_lat": 0.0, "is_disabled": 0, "rental_uris": {"ios": "https://dc.lft.to/lastmile_qr_scan", "android": "https://dc.lft.to/lastmile_qr_scan"}}, {"name": "351054e58d7dd475d8fea91b3dde8039", "lon": -77.00766216666666, "lat": 38.926793, "type": "electric_scooter", "fusion_lon": 0.0, "is_reserved": 0, "bike_id": "351054e58d7dd475d8fea91b3dde8039", "fusion_lat": 0.0, "is_disabled": 0, "rental_uris": {"ios": "https://dc.lft.to/lastmile_qr_scan", "android": "https://dc.lft.to/lastmile_qr_scan"}}, {"name": "bb4a8ef4ed1a770064ad52d44d58065e", "lon": -77.02285766666667, "lat": 38.916908, "type": "electric_scooter", "fusion_lon": 0.0, "is_reserved": 0, "bike_id": "bb4a8ef4ed1a770064ad52d44d58065e", "fusion_lat": 0.0, "is_disabled": 0, "rental_uris": {"ios": "https://dc.lft.to/lastmile_qr_scan", "android": "https://dc.lft.to/lastmile_qr_scan"}}, {"name": "fc19c24ec478f5ff8cfdf0f414d826e5", "lon": -77.02976033333333, "lat": 38.90729866666667, "type": "electric_scooter", "fusion_lon": 0.0, "is_reserved": 0, "bike_id": "fc19c24ec478f5ff8cfdf0f414d826e5", "fusion_lat": 0.0, "is_disabled": 0, "rental_uris": {"ios": "https://dc.lft.to/lastmile_qr_scan", "android": "https://dc.lft.to/lastmile_qr_scan"}}, {"name": "83ef04cfd45888f50d51a00148cf7e50", "lon": -77.04989966666666, "lat": 38.901193166666665, "type": "electric_scooter", "fusion_lon": 0.0, "is_reserved": 0, "bike_id": "83ef04cfd45888f50d51a00148cf7e50", "fusion_lat": 0.0, "is_disabled": 0, "rental_uris": {"ios": "https://dc.lft.to/lastmile_qr_scan", "android": "https://dc.lft.to/lastmile_qr_scan"}}, {"name": "7575b32229cc0b8269c3ce4b627ec8cf", "lon": -77.02717966666667, "lat": 38.93697733333333, "type": "electric_scooter", "fusion_lon": 0.0, "is_reserved": 0, "bike_id": "7575b32229cc0b8269c3ce4b627ec8cf", "fusion_lat": 0.0, "is_disabled": 0, "rental_uris": {"ios": "https://dc.lft.to/lastmile_qr_scan", "android": "https://dc.lft.to/lastmile_qr_scan"}}, {"name": "7ec63b2f8acc82f03e5712a90af90ba4", "lon": -77.03537266666666, "lat": 38.923245333333334, "type": "electric_scooter", "fusion_lon": 0.0, "is_reserved": 0, "bike_id": "7ec63b2f8acc82f03e5712a90af90ba4", "fusion_lat": 0.0, "is_disabled": 0, "rental_uris": {"ios": "https://dc.lft.to/lastmile_qr_scan", "android": "https://dc.lft.to/lastmile_qr_scan"}}, {"name": "4420903c25b93c925f146c235410d63d", "lon": -77.08456833333334, "lat": 38.8482175, "type": "electric_bike", "fusion_lon": 0.0, "is_reserved": 0, "bike_id": "4420903c25b93c925f146c235410d63d", "fusion_lat": 0.0, "is_disabled": 0, "rental_uris": {"ios": "https://dc.lft.to/lastmile_qr_scan", "android": "https://dc.lft.to/lastmile_qr_scan"}}, {"name": "e7d8b605143916d633dd668bc26a67cc", "lon": -77.04178566666667, "lat": 38.9202475, "type": "electric_scooter", "fusion_lon": 0.0, "is_reserved": 0, "bike_id": "e7d8b605143916d633dd668bc26a67cc", "fusion_lat": 0.0, "is_disabled": 0, "rental_uris": {"ios": "https://dc.lft.to/lastmile_qr_scan", "android": "https://dc.lft.to/lastmile_qr_scan"}}, {"name": "6ffeef388b507edd0058b583a89018cb", "lon": -77.11246483333333, "lat": 38.85643816666666, "type": "electric_bike", "fusion_lon": 0.0, "is_reserved": 0, "bike_id": "6ffeef388b507edd0058b583a89018cb", "fusion_lat": 0.0, "is_disabled": 0, "rental_uris": {"ios": "https://dc.lft.to/lastmile_qr_scan", "android": "https://dc.lft.to/lastmile_qr_scan"}}, {"name": "ee46a20b8fef118e858762a86e255c78", "lon": -77.127308, "lat": 38.895609, "type": "electric_bike", "fusion_lon": 0.0, "is_reserved": 0, "bike_id": "ee46a20b8fef118e858762a86e255c78", "fusion_lat": 0.0, "is_disabled": 0, "rental_uris": {"ios": "https://dc.lft.to/lastmile_qr_scan", "android": "https://dc.lft.to/lastmile_qr_scan"}}, {"name": "023848b17cd03eafb9109ab8b0a65674", "lon": -77.03639116666666, "lat": 38.92747983333334, "type": "electric_scooter", "fusion_lon": 0.0, "is_reserved": 0, "bike_id": "023848b17cd03eafb9109ab8b0a65674", "fusion_lat": 0.0, "is_disabled": 0, "rental_uris": {"ios": "https://dc.lft.to/lastmile_qr_scan", "android": "https://dc.lft.to/lastmile_qr_scan"}}, {"name": "22a0c69503ad55e4500193ef5ff1a559", "lon": -77.0074415, "lat": 38.898475, "type": "electric_scooter", "fusion_lon": 0.0, "is_reserved": 0, "bike_id": "22a0c69503ad55e4500193ef5ff1a559", "fusion_lat": 0.0, "is_disabled": 0, "rental_uris": {"ios": "https://dc.lft.to/lastmile_qr_scan", "android": "https://dc.lft.to/lastmile_qr_scan"}}, {"name": "7ec024bdde9470f275949f82ac45673c", "lon": -77.0465445, "lat": 38.90556933333333, "type": "electric_scooter", "fusion_lon": 0.0, "is_reserved": 0, "bike_id": "7ec024bdde9470f275949f82ac45673c", "fusion_lat": 0.0, "is_disabled": 0, "rental_uris": {"ios": "https://dc.lft.to/lastmile_qr_scan", "android": "https://dc.lft.to/lastmile_qr_scan"}}, {"name": "974f2b7cff9a4630becc21970a9c122f", "lon": -76.931964, "lat": 38.89882766666667, "type": "electric_scooter", "fusion_lon": 0.0, "is_reserved": 0, "bike_id": "974f2b7cff9a4630becc21970a9c122f", "fusion_lat": 0.0, "is_disabled": 0, "rental_uris": {"ios": "https://dc.lft.to/lastmile_qr_scan", "android": "https://dc.lft.to/lastmile_qr_scan"}}, {"name": "f2abe9680531f1a405d07ca9adc66471", "lon": -77.02705766666666, "lat": 38.928844166666664, "type": "electric_scooter", "fusion_lon": 0.0, "is_reserved": 0, "bike_id": "f2abe9680531f1a405d07ca9adc66471", "fusion_lat": 0.0, "is_disabled": 0, "rental_uris": {"ios": "https://dc.lft.to/lastmile_qr_scan", "android": "https://dc.lft.to/lastmile_qr_scan"}}, {"name": "e6753bf0fa3e853b7deb7d15b21f0ac9", "lon": -77.02596583333333, "lat": 38.9169725, "type": "electric_scooter", "fusion_lon": 0.0, "is_reserved": 0, "bike_id": "e6753bf0fa3e853b7deb7d15b21f0ac9", "fusion_lat": 0.0, "is_disabled": 0, "rental_uris": {"ios": "https://dc.lft.to/lastmile_qr_scan", "android": "https://dc.lft.to/lastmile_qr_scan"}}, {"name": "0b328fb77eb1e21984cc691feecf76ca", "lon": -76.99904016666666, "lat": 38.94820716666667, "type": "electric_scooter", "fusion_lon": 0.0, "is_reserved": 0, "bike_id": "0b328fb77eb1e21984cc691feecf76ca", "fusion_lat": 0.0, "is_disabled": 0, "rental_uris": {"ios": "https://dc.lft.to/lastmile_qr_scan", "android": "https://dc.lft.to/lastmile_qr_scan"}}, {"name": "c14caa4b9a8ef82d297660f732903d49", "lon": -77.02949566666666, "lat": 38.89942666666666, "type": "electric_scooter", "fusion_lon": 0.0, "is_reserved": 0, "bike_id": "c14caa4b9a8ef82d297660f732903d49", "fusion_lat": 0.0, "is_disabled": 0, "rental_uris": {"ios": "https://dc.lft.to/lastmile_qr_scan", "android": "https://dc.lft.to/lastmile_qr_scan"}}, {"name": "0cf4209267eb867a85891f5f66acee8a", "lon": -77.03261216666667, "lat": 38.9352575, "type": "electric_scooter", "fusion_lon": 0.0, "is_reserved": 0, "bike_id": "0cf4209267eb867a85891f5f66acee8a", "fusion_lat": 0.0, "is_disabled": 0, "rental_uris": {"ios": "https://dc.lft.to/lastmile_qr_scan", "android": "https://dc.lft.to/lastmile_qr_scan"}}, {"name": "0ccac87b8c86d6aeade3f2e1a8305735", "lon": -77.0228485, "lat": 38.916098, "type": "electric_scooter", "fusion_lon": 0.0, "is_reserved": 0, "bike_id": "0ccac87b8c86d6aeade3f2e1a8305735", "fusion_lat": 0.0, "is_disabled": 0, "rental_uris": {"ios": "https://dc.lft.to/lastmile_qr_scan", "android": "https://dc.lft.to/lastmile_qr_scan"}}, {"name": "14d8d1e6542db89eb94425710773ab51", "lon": -77.07031216666667, "lat": 38.9063705, "type": "electric_scooter", "fusion_lon": 0.0, "is_reserved": 0, "bike_id": "14d8d1e6542db89eb94425710773ab51", "fusion_lat": 0.0, "is_disabled": 0, "rental_uris": {"ios": "https://dc.lft.to/lastmile_qr_scan", "android": "https://dc.lft.to/lastmile_qr_scan"}}, {"name": "a3b415e74116fc35648f4732d9184c74", "lon": -77.0326895, "lat": 38.927527833333336, "type": "electric_scooter", "fusion_lon": 0.0, "is_reserved": 0, "bike_id": "a3b415e74116fc35648f4732d9184c74", "fusion_lat": 0.0, "is_disabled": 0, "rental_uris": {"ios": "https://dc.lft.to/lastmile_qr_scan", "android": "https://dc.lft.to/lastmile_qr_scan"}}, {"name": "b41a69ee84907776fe552ea3de0f7144", "lon": -77.01480116666667, "lat": 38.908671166666664, "type": "electric_scooter", "fusion_lon": 0.0, "is_reserved": 0, "bike_id": "b41a69ee84907776fe552ea3de0f7144", "fusion_lat": 0.0, "is_disabled": 0, "rental_uris": {"ios": "https://dc.lft.to/lastmile_qr_scan", "android": "https://dc.lft.to/lastmile_qr_scan"}}, {"name": "617e3a4007014afb8d4e25a63022d678", "lon": -77.02322816666667, "lat": 38.87886783333333, "type": "electric_scooter", "fusion_lon": 0.0, "is_reserved": 0, "bike_id": "617e3a4007014afb8d4e25a63022d678", "fusion_lat": 0.0, "is_disabled": 0, "rental_uris": {"ios": "https://dc.lft.to/lastmile_qr_scan", "android": "https://dc.lft.to/lastmile_qr_scan"}}, {"name": "6362fed70b7c1783e993769b453f8416", "lon": -76.99140283333334, "lat": 38.909772333333336, "type": "electric_scooter", "fusion_lon": 0.0, "is_reserved": 0, "bike_id": "6362fed70b7c1783e993769b453f8416", "fusion_lat": 0.0, "is_disabled": 0, "rental_uris": {"ios": "https://dc.lft.to/lastmile_qr_scan", "android": "https://dc.lft.to/lastmile_qr_scan"}}, {"name": "f02620f5fa227a45509822e49ea198ab", "lon": -77.04338066666666, "lat": 38.906256166666665, "type": "electric_scooter", "fusion_lon": 0.0, "is_reserved": 0, "bike_id": "f02620f5fa227a45509822e49ea198ab", "fusion_lat": 0.0, "is_disabled": 0, "rental_uris": {"ios": "https://dc.lft.to/lastmile_qr_scan", "android": "https://dc.lft.to/lastmile_qr_scan"}}, {"name": "034131ab389e5cb93abac7fe8329f636", "lon": -77.03341616666667, "lat": 38.89817866666667, "type": "electric_scooter", "fusion_lon": 0.0, "is_reserved": 0, "bike_id": "034131ab389e5cb93abac7fe8329f636", "fusion_lat": 0.0, "is_disabled": 0, "rental_uris": {"ios": "https://dc.lft.to/lastmile_qr_scan", "android": "https://dc.lft.to/lastmile_qr_scan"}}, {"name": "95187620414f039eeb7c43f02cb5cb7d", "lon": -77.03438633333333, "lat": 38.9080705, "type": "electric_scooter", "fusion_lon": 0.0, "is_reserved": 0, "bike_id": "95187620414f039eeb7c43f02cb5cb7d", "fusion_lat": 0.0, "is_disabled": 0, "rental_uris": {"ios": "https://dc.lft.to/lastmile_qr_scan", "android": "https://dc.lft.to/lastmile_qr_scan"}}, {"name": "c2bd73d97ff6cd3694407e96f5f013cc", "lon": -76.98235683333333, "lat": 38.864692166666664, "type": "electric_scooter", "fusion_lon": 0.0, "is_reserved": 0, "bike_id": "c2bd73d97ff6cd3694407e96f5f013cc", "fusion_lat": 0.0, "is_disabled": 0, "rental_uris": {"ios": "https://dc.lft.to/lastmile_qr_scan", "android": "https://dc.lft.to/lastmile_qr_scan"}}, {"name": "3854c0a151e83697319a3af7e33b8fb6", "lon": -77.02967533333333, "lat": 38.9168315, "type": "electric_scooter", "fusion_lon": 0.0, "is_reserved": 0, "bike_id": "3854c0a151e83697319a3af7e33b8fb6", "fusion_lat": 0.0, "is_disabled": 0, "rental_uris": {"ios": "https://dc.lft.to/lastmile_qr_scan", "android": "https://dc.lft.to/lastmile_qr_scan"}}, {"name": "9b8308c71a4ae323a219116b3f25490a", "lon": -77.034639, "lat": 38.90258683333333, "type": "electric_scooter", "fusion_lon": 0.0, "is_reserved": 0, "bike_id": "9b8308c71a4ae323a219116b3f25490a", "fusion_lat": 0.0, "is_disabled": 0, "rental_uris": {"ios": "https://dc.lft.to/lastmile_qr_scan", "android": "https://dc.lft.to/lastmile_qr_scan"}}, {"name": "4ee106d3b97f4377ba2394045a95849f", "lon": -77.015228, "lat": 38.886585333333336, "type": "electric_scooter", "fusion_lon": 0.0, "is_reserved": 0, "bike_id": "4ee106d3b97f4377ba2394045a95849f", "fusion_lat": 0.0, "is_disabled": 0, "rental_uris": {"ios": "https://dc.lft.to/lastmile_qr_scan", "android": "https://dc.lft.to/lastmile_qr_scan"}}, {"name": "4028f45cb8615ef08d72326118154d8b", "lon": -77.061163, "lat": 38.9399405, "type": "electric_scooter", "fusion_lon": 0.0, "is_reserved": 0, "bike_id": "4028f45cb8615ef08d72326118154d8b", "fusion_lat": 0.0, "is_disabled": 0, "rental_uris": {"ios": "https://dc.lft.to/lastmile_qr_scan", "android": "https://dc.lft.to/lastmile_qr_scan"}}, {"name": "86307c41a01cdf9bdf5a8411f3b1b8f4", "lon": -77.02588033333333, "lat": 38.920960666666666, "type": "electric_scooter", "fusion_lon": 0.0, "is_reserved": 0, "bike_id": "86307c41a01cdf9bdf5a8411f3b1b8f4", "fusion_lat": 0.0, "is_disabled": 0, "rental_uris": {"ios": "https://dc.lft.to/lastmile_qr_scan", "android": "https://dc.lft.to/lastmile_qr_scan"}}, {"name": "fc6d6b77abed6c5291d9b4e990d30c9f", "lon": -77.03191216666667, "lat": 38.915738833333336, "type": "electric_scooter", "fusion_lon": 0.0, "is_reserved": 0, "bike_id": "fc6d6b77abed6c5291d9b4e990d30c9f", "fusion_lat": 0.0, "is_disabled": 0, "rental_uris": {"ios": "https://dc.lft.to/lastmile_qr_scan", "android": "https://dc.lft.to/lastmile_qr_scan"}}, {"name": "0322452a04b1119cae4bdf8b317d21b4", "lon": -77.0332165, "lat": 38.89998816666667, "type": "electric_scooter", "fusion_lon": 0.0, "is_reserved": 0, "bike_id": "0322452a04b1119cae4bdf8b317d21b4", "fusion_lat": 0.0, "is_disabled": 0, "rental_uris": {"ios": "https://dc.lft.to/lastmile_qr_scan", "android": "https://dc.lft.to/lastmile_qr_scan"}}, {"name": "7c35ec9554c27c9061f96f560df97c60", "lon": -77.02529883333334, "lat": 38.942599666666666, "type": "electric_scooter", "fusion_lon": 0.0, "is_reserved": 0, "bike_id": "7c35ec9554c27c9061f96f560df97c60", "fusion_lat": 0.0, "is_disabled": 0, "rental_uris": {"ios": "https://dc.lft.to/lastmile_qr_scan", "android": "https://dc.lft.to/lastmile_qr_scan"}}, {"name": "862eac1f3d0230e00b4c5c59c563b49a", "lon": -77.05409616666667, "lat": 38.927963166666665, "type": "electric_scooter", "fusion_lon": 0.0, "is_reserved": 0, "bike_id": "862eac1f3d0230e00b4c5c59c563b49a", "fusion_lat": 0.0, "is_disabled": 0, "rental_uris": {"ios": "https://dc.lft.to/lastmile_qr_scan", "android": "https://dc.lft.to/lastmile_qr_scan"}}, {"name": "e00767742dcf2ee2b41c9e06bb24b18a", "lon": -77.0320845, "lat": 38.9179295, "type": "electric_scooter", "fusion_lon": 0.0, "is_reserved": 0, "bike_id": "e00767742dcf2ee2b41c9e06bb24b18a", "fusion_lat": 0.0, "is_disabled": 0, "rental_uris": {"ios": "https://dc.lft.to/lastmile_qr_scan", "android": "https://dc.lft.to/lastmile_qr_scan"}}, {"name": "80289ff5064fe957c1f633e635acf7ae", "lon": -77.03547633333334, "lat": 38.917149333333334, "type": "electric_scooter", "fusion_lon": 0.0, "is_reserved": 0, "bike_id": "80289ff5064fe957c1f633e635acf7ae", "fusion_lat": 0.0, "is_disabled": 0, "rental_uris": {"ios": "https://dc.lft.to/lastmile_qr_scan", "android": "https://dc.lft.to/lastmile_qr_scan"}}, {"name": "e359563fb2fd08a268fb76e88d1bee22", "lon": -77.04396333333334, "lat": 38.917255833333336, "type": "electric_scooter", "fusion_lon": 0.0, "is_reserved": 0, "bike_id": "e359563fb2fd08a268fb76e88d1bee22", "fusion_lat": 0.0, "is_disabled": 0, "rental_uris": {"ios": "https://dc.lft.to/lastmile_qr_scan", "android": "https://dc.lft.to/lastmile_qr_scan"}},