{"data": {"bikes": [{"bike_id": "c425e457e4c57eaef1cb2b21d3120348", "lat": 38.95252833333333, "is_reserved": 0, "fusion_lat": 0.0, "rental_uris": {"android": "https://dc.lft.to/lastmile_qr_scan", "ios": "https://dc.lft.to/lastmile_qr_scan"}, "fusion_lon": 0.0, "name": "c425e457e4c57eaef1cb2b21d3120348", "lon": -77.01965983333334, "is_disabled": 0, "type": "electric_scooter"}, {"bike_id": "e62ec64bcf504b63111b15484ca74bef", "lat": 38.92309233333334, "is_reserved": 0, "fusion_lat": 0.0, "rental_uris": {"android": "https://dc.lft.to/lastmile_qr_scan", "ios": "https://dc.lft.to/lastmile_qr_scan"}, "fusion_lon": 0.0, "name": "e62ec64bcf504b63111b15484ca74bef", "lon": -77.0296595, "is_disabled": 0, "type": "electric_scooter"}, {"bike_id": "d060611f77bcf96f33298709cac06d2b", "lat": 38.924447666666666, "is_reserved": 0, "fusion_lat": 0.0, "rental_uris": {"android": "https://dc.lft.to/lastmile_qr_scan", "ios": "https://dc.lft.to/lastmile_qr_scan"}, "fusion_lon": 0.0, "name": "d060611f77bcf96f33298709cac06d2b", "lon": -77.02022883333333, "is_disabled": 0, "type": "electric_scooter"}, {"bike_id": "846dca374b26110a0a07999ad9dabf8d", "lat": 38.86647816666667, "is_reserved": 0, "fusion_lat": 0.0, "rental_uris": {"android": "https://dc.lft.to/lastmile_qr_scan", "ios": "https://dc.lft.to/lastmile_qr_scan"}, "fusion_lon": 0.0, "name": "846dca374b26110a0a07999ad9dabf8d", "lon": -76.98823316666666, "is_disabled": 0, "type": "electric_scooter"}, {"bike_id": "55eb3f12aa2e031b6adfb1101f245c43", "lat": 38.919160833333336, "is_reserved": 0, "fusion_lat": 0.0, "rental_uris": {"android": "https://dc.lft.to/lastmile_qr_scan", "ios": "https://dc.lft.to/lastmile_qr_scan"}, "fusion_lon": 0.0, "name": "55eb3f12aa2e031b6adfb1101f245c43", "lon": -77.036234, "is_disabled": 0, "type": "electric_scooter"}, {"bike_id": "4dc8e34657f1c96875ec73d0116c29c6", "lat": 38.86685516666667, "is_reserved": 0, "fusion_lat": 0.0, "rental_uris": {"android": "https://dc.lft.to/lastmile_qr_scan", "ios": "https://dc.lft.to/lastmile_qr_scan"}, "fusion_lon": 0.0, "name": "4dc8e34657f1c96875ec73d0116c29c6", "lon": -76.985802, "is_disabled": 0, "type": "electric_scooter"}, {"bike_id": "e3e20adfc850fdc4a92fcc31c049987d", "lat": 38.984612, "is_reserved": 0, "fusion_lat": 0.0, "rental_uris": {"android": "https://dc.lft.to/lastmile_qr_scan", "ios": "https://dc.lft.to/lastmile_qr_scan"}, "fusion_lon": 0.0, "name": "e3e20adfc850fdc4a92fcc31c049987d", "lon": -76.9705905, "is_disabled": 0, "type": "electric_bike"}, {"bike_id": "3c94db5911e4cd1efe9ed51d56f22f0b", "lat": 38.89293683333333, "is_reserved": 0, "fusion_lat": 0.0, "rental_uris": {"android": "https://dc.lft.to/lastmile_qr_scan", "ios": "https://dc.lft.to/lastmile_qr_scan"}, "fusion_lon": 0.0, "name": "3c94db5911e4cd1efe9ed51d56f22f0b", "lon": -77.01994, "is_disabled": 0, "type": "electric_scooter"}, {"bike_id": "c6b4894ee27d5331edec4cba6b82fe78", "lat": 38.9138265, "is_reserved": 0, "fusion_lat": 0.0, "rental_uris": {"android": "https://dc.lft.to/lastmile_qr_scan", "ios": "https://dc.lft.to/lastmile_qr_scan"}, "fusion_lon": 0.0, "name": "c6b4894ee27d5331edec4cba6b82fe78", "lon": -77.017052, "is_disabled": 0, "type": "electric_scooter"}, {"bike_id": "2321152994ac5777a11320f6476ba0f6", "lat": 38.920243, "is_reserved": 0, "fusion_lat": 0.0, "rental_uris": {"android": "https://dc.lft.to/lastmile_qr_scan", "ios": "https://dc.lft.to/lastmile_qr_scan"}, "fusion_lon": 0.0, "name": "2321152994ac5777a11320f6476ba0f6", "lon": -77.0312935, "is_disabled": 0, "type": "electric_scooter"}, {"bike_id": "bca3edf211179066b8855ee945dc967a", "lat": 38.903348333333334, "is_reserved": 0, "fusion_lat": 0.0, "rental_uris": {"android": "https://dc.lft.to/lastmile_qr_scan", "ios": "https://dc.lft.to/lastmile_qr_scan"}, "fusion_lon": 0.0, "name": "bca3edf211179066b8855ee945dc967a", "lon": -77.03837383333334, "is_disabled": 0, "type": "electric_scooter"}, {"bike_id": "298efc35b3b2abed20f45881370b7713", "lat": 38.914793, "is_reserved": 0, "fusion_lat": 0.0, "rental_uris": {"android": "https://dc.lft.to/lastmile_qr_scan", "ios": "https://dc.lft.to/lastmile_qr_scan"}, "fusion_lon": 0.0, "name": "298efc35b3b2abed20f45881370b7713", "lon": -77.0456435, "is_disabled": 0, "type": "electric_scooter"}, {"bike_id": "87c96a5f2f79872644daa9317f5a80c8", "lat": 38.89223333333333, "is_reserved": 0, "fusion_lat": 0.0, "rental_uris": {"android": "https://dc.lft.to/lastmile_qr_scan", "ios": "https://dc.lft.to/lastmile_qr_scan"}, "fusion_lon": 0.0, "name": "87c96a5f2f79872644daa9317f5a80c8", "lon": -77.027845, "is_disabled": 0, "type": "electric_scooter"}, {"bike_id": "afc7f7affe160d7b42736a6c57f18f40", "lat": 38.8954415, "is_reserved": 0, "fusion_lat": 0.0, "rental_uris": {"android": "https://dc.lft.to/lastmile_qr_scan", "ios": "https://dc.lft.to/lastmile_qr_scan"}, "fusion_lon": 0.0, "name": "afc7f7affe160d7b42736a6c57f18f40", "lon": -77.0038515, "is_disabled": 0, "type": "electric_scooter"}, {"bike_id": "d8fbc7bbd49c24b1015445b701ddb825", "lat": 38.95772066666667, "is_reserved": 0, "fusion_lat": 0.0, "rental_uris": {"android": "https://dc.lft.to/lastmile_qr_scan", "ios": "https://dc.lft.to/lastmile_qr_scan"}, "fusion_lon": 0.0, "name": "d8fbc7bbd49c24b1015445b701ddb825", "lon": -77.0246335, "is_disabled": 0, "type": "electric_scooter"}, {"bike_id": "776f7fd5116860888b3bb6ea89424c1d", "lat": 38.887426166666664, "is_reserved": 0, "fusion_lat": 0.0, "rental_uris": {"android": "https://dc.lft.to/lastmile_qr_scan", "ios": "https://dc.lft.to/lastmile_qr_scan"}, "fusion_lon": 0.0, "name": "776f7fd5116860888b3bb6ea89424c1d", "lon": -77.02569116666666, "is_disabled": 0, "type": "electric_scooter"}, {"bike_id": "15863ab79092f0a324d75e9186b53548", "lat": 38.9167435, "is_reserved": 0, "fusion_lat": 0.0, "rental_uris": {"android": "https://dc.lft.to/lastmile_qr_scan", "ios": "https://dc.lft.to/lastmile_qr_scan"}, "fusion_lon": 0.0, "name": "15863ab79092f0a324d75e9186b53548", "lon": -77.0231605, "is_disabled": 0, "type": "electric_scooter"}, {"bike_id": "c92353a7f481e0a806dac958101dbe2b", "lat": 38.898680666666664, "is_reserved": 0, "fusion_lat": 0.0, "rental_uris": {"android": "https://dc.lft.to/lastmile_qr_scan", "ios": "https://dc.lft.to/lastmile_qr_scan"}, "fusion_lon": 0.0, "name": "c92353a7f481e0a806dac958101dbe2b", "lon": -76.94639, "is_disabled": 0, "type": "electric_scooter"}, {"bike_id": "6098b4c55b75463f08fd529a82ee0350", "lat": 38.908706333333335, "is_reserved": 0, "fusion_lat": 0.0, "rental_uris": {"android": "https://dc.lft.to/lastmile_qr_scan", "ios": "https://dc.lft.to/lastmile_qr_scan"}, "fusion_lon": 0.0, "name": "6098b4c55b75463f08fd529a82ee0350", "lon": -77.07647383333334, "is_disabled": 0, "type": "electric_bike"}, {"bike_id": "0bc19a5fa91dd82746d374a3aafe6679", "lat": 39.0147985, "is_reserved": 0, "fusion_lat": 0.0, "rental_uris": {"android": "https://dc.lft.to/lastmile_qr_scan", "ios": "https://dc.lft.to/lastmile_qr_scan"}, "fusion_lon": 0.0, "name": "0bc19a5fa91dd82746d374a3aafe6679", "lon": -77.05498283333333, "is_disabled": 0, "type": "electric_bike"}, {"bike_id": "8605d41e24c500c4096841249d24e57c", "lat": 38.91116533333334, "is_reserved": 0, "fusion_lat": 0.0, "rental_uris": {"android": "https://dc.lft.to/lastmile_qr_scan", "ios": "https://dc.lft.to/lastmile_qr_scan"}, "fusion_lon": 0.0, "name": "8605d41e24c500c4096841249d24e57c", "lon": -77.04467916666667, "is_disabled": 0, "type": "electric_scooter"}, {"bike_id": "b785e7c7dc9f5f29a53c14717e750a20", "lat": 38.8960735, "is_reserved": 0, "fusion_lat": 0.0, "rental_uris": {"android": "https://dc.lft.to/lastmile_qr_scan", "ios": "https://dc.lft.to/lastmile_qr_scan"}, "fusion_lon": 0.0, "name": "b785e7c7dc9f5f29a53c14717e750a20", "lon": -77.0220945, "is_disabled": 0, "type": "electric_scooter"}, {"bike_id": "e18f64dafe00517273812d645ed7c5fa", "lat": 38.928922666666665, "is_reserved": 0, "fusion_lat": 0.0, "rental_uris": {"android": "https://dc.lft.to/lastmile_qr_scan", "ios": "https://dc.lft.to/lastmile_qr_scan"}, "fusion_lon": 0.0, "name": "e18f64dafe00517273812d645ed7c5fa", "lon": -77.01642233333334, "is_disabled": 0, "type": "electric_scooter"}, {"bike_id": "bc267e5c5b41bb9af6ec01a02b4cefa7", "lat": 38.8670045, "is_reserved": 0, "fusion_lat": 0.0, "rental_uris": {"android": "https://dc.lft.to/lastmile_qr_scan", "ios": "https://dc.lft.to/lastmile_qr_scan"}, "fusion_lon": 0.0, "name": "bc267e5c5b41bb9af6ec01a02b4cefa7", "lon": -76.98714416666667, "is_disabled": 0, "type": "electric_scooter"}, {"bike_id": "25118f6934f821732c57cb34ace3b23f", "lat": 38.90996466666667, "is_reserved": 0, "fusion_lat": 0.0, "rental_uris": {"android": "https://dc.lft.to/lastmile_qr_scan", "ios": "https://dc.lft.to/lastmile_qr_scan"}, "fusion_lon": 0.0, "name": "25118f6934f821732c57cb34ace3b23f", "lon": -77.040149, "is_disabled": 0, "type": "electric_scooter"}, {"bike_id": "66df57d2a0de484f99801300623dbdbf", "lat": 38.92438966666667, "is_reserved": 0, "fusion_lat": 0.0, "rental_uris": {"android": "https://dc.lft.to/lastmile_qr_scan", "ios": "https://dc.lft.to/lastmile_qr_scan"}, "fusion_lon": 0.0, "name": "66df57d2a0de484f99801300623dbdbf", "lon": -77.01952633333333, "is_disabled": 0, "type": "electric_scooter"}, {"bike_id": "948125158853f7ba3f16c501c8de7343", "lat": 38.90560083333333, "is_reserved": 0, "fusion_lat": 0.0, "rental_uris": {"android": "https://dc.lft.to/lastmile_qr_scan", "ios": "https://dc.lft.to/lastmile_qr_scan"}, "fusion_lon": 0.0, "name": "948125158853f7ba3f16c501c8de7343", "lon": -77.043105, "is_disabled": 0, "type": "electric_scooter"}, {"bike_id": "b816e7c0749440d2bbe1f346fdc37792", "lat": 38.813326333333336, "is_reserved": 0, "fusion_lat": 0.0, "rental_uris": {"android": "https://dc.lft.to/lastmile_qr_scan", "ios": "https://dc.lft.to/lastmile_qr_scan"}, "fusion_lon": 0.0, "name": "b816e7c0749440d2bbe1f346fdc37792", "lon": -77.051216, "is_disabled": 0, "type": "electric_bike"}, {"bike_id": "cee33ea959320a8c732828499d1a83b6", "lat": 38.85756333333333, "is_reserved": 0, "fusion_lat": 0.0, "rental_uris": {"android": "https://dc.lft.to/lastmile_qr_scan", "ios": "https://dc.lft.to/lastmile_qr_scan"}, "fusion_lon": 0.0, "name": "cee33ea959320a8c732828499d1a83b6", "lon": -76.99305833333334, "is_disabled": 0, "type": "electric_scooter"}, {"bike_id": "481b5ed36057b1726c8b5a4e6dda32b1", "lat": 38.941149333333335, "is_reserved": 0, "fusion_lat": 0.0, "rental_uris": {"android": "https://dc.lft.to/lastmile_qr_scan", "ios": "https://dc.lft.to/lastmile_qr_scan"}, "fusion_lon": 0.0, "name": "481b5ed36057b1726c8b5a4e6dda32b1", "lon": -77.0006775, "is_disabled": 0, "type": "electric_bike"}, {"bike_id": "7739aaa2b7ce557d26d84895f1b9b105", "lat": 38.91844716666667, "is_reserved": 0, "fusion_lat": 0.0, "rental_uris": {"android": "https://dc.lft.to/lastmile_qr_scan", "ios": "https://dc.lft.to/lastmile_qr_scan"}, "fusion_lon": 0.0, "name": "7739aaa2b7ce557d26d84895f1b9b105", "lon": -77.03178216666667, "is_disabled": 0, "type": "electric_scooter"}, {"bike_id": "05ffe54741b6bf3033159b4940d36b72", "lat": 38.896238, "is_reserved": 0, "fusion_lat": 0.0, "rental_uris": {"android": "https://dc.lft.to/lastmile_qr_scan", "ios": "https://dc.lft.to/lastmile_qr_scan"}, "fusion_lon": 0.0, "name": "05ffe54741b6bf3033159b4940d36b72", "lon": -76.998565, "is_disabled": 0, "type": "electric_scooter"}, {"bike_id": "9ad8e8dee40269dfb5ca3335533d9521", "lat": 38.91711216666667, "is_reserved": 0, "fusion_lat": 0.0, "rental_uris": {"android": "https://dc.lft.to/lastmile_qr_scan", "ios": "https://dc.lft.to/lastmile_qr_scan"}, "fusion_lon": 0.0, "name": "9ad8e8dee40269dfb5ca3335533d9521", "lon": -77.0299385, "is_disabled": 0, "type": "electric_scooter"}, {"bike_id": "6bf374750a55209d6102dba6f8a57b6e", "lat": 38.90497533333333, "is_reserved": 0, "fusion_lat": 0.0, "rental_uris": {"android": "https://dc.lft.to/lastmile_qr_scan", "ios": "https://dc.lft.to/lastmile_qr_scan"}, "fusion_lon": 0.0, "name": "6bf374750a55209d6102dba6f8a57b6e", "lon": -77.05807466666667, "is_disabled": 0, "type": "electric_scooter"}, {"bike_id": "2f4711107fda6ea4485eb3e0bc89435a", "lat": 38.91405966666667, "is_reserved": 0, "fusion_lat": 0.0, "rental_uris": {"android": "https://dc.lft.to/lastmile_qr_scan", "ios": "https://dc.lft.to/lastmile_qr_scan"}, "fusion_lon": 0.0, "name": "2f4711107fda6ea4485eb3e0bc89435a", "lon": -77.02007933333333, "is_disabled": 0, "type": "electric_scooter"}, {"bike_id": "cc6a2081b331e9ee31488659e667a8c4", "lat": 38.9218855, "is_reserved": 0, "fusion_lat": 0.0, "rental_uris": {"android": "https://dc.lft.to/lastmile_qr_scan", "ios": "https://dc.lft.to/lastmile_qr_scan"}, "fusion_lon": 0.0, "name": "cc6a2081b331e9ee31488659e667a8c4", "lon": -77.02412833333334, "is_disabled": 0, "type": "electric_scooter"}, {"bike_id": "05075a1aea33c80ae0c10dc4b8b66e69", "lat": 38.85835516666667, "is_reserved": 0, "fusion_lat": 0.0, "rental_uris": {"android": "https://dc.lft.to/lastmile_qr_scan", "ios": "https://dc.lft.to/lastmile_qr_scan"}, "fusion_lon": 0.0, "name": "05075a1aea33c80ae0c10dc4b8b66e69", "lon": -76.987319, "is_disabled": 0, "type": "electric_scooter"}, {"bike_id": "ca969931f30c4d332daa59f3ee3b9d13", "lat": 38.9167575, "is_reserved": 0, "fusion_lat": 0.0, "rental_uris": {"android": "https://dc.lft.to/lastmile_qr_scan", "ios": "https://dc.lft.to/lastmile_qr_scan"}, "fusion_lon": 0.0, "name": "ca969931f30c4d332daa59f3ee3b9d13", "lon": -77.0239615, "is_disabled": 0, "type": "electric_scooter"}, {"bike_id": "78056dcd4269bdd0923a634d1f1110ae", "lat": 38.933458333333334, "is_reserved": 0, "fusion_lat": 0.0, "rental_uris": {"android": "https://dc.lft.to/lastmile_qr_scan", "ios": "https://dc.lft.to/lastmile_qr_scan"}, "fusion_lon": 0.0, "name": "78056dcd4269bdd0923a634d1f1110ae", "lon": -77.06201733333333, "is_disabled": 0, "type": "electric_scooter"}, {"bike_id": "fbefc7d8a973566f6316dd6718bea5e2", "lat": 38.90576866666667, "is_reserved": 0, "fusion_lat": 0.0, "rental_uris": {"android": "https://dc.lft.to/lastmile_qr_scan", "ios": "https://dc.lft.to/lastmile_qr_scan"}, "fusion_lon": 0.0, "name": "fbefc7d8a973566f6316dd6718bea5e2", "lon": -77.03981183333333, "is_disabled": 0, "type": "electric_scooter"}, {"bike_id": "d776c5b040aa6930650c188571a40753", "lat": 38.912571166666666, "is_reserved": 0, "fusion_lat": 0.0, "rental_uris": {"android": "https://dc.lft.to/lastmile_qr_scan", "ios": "https://dc.lft.to/lastmile_qr_scan"}, "fusion_lon": 0.0, "name": "d776c5b040aa6930650c188571a40753", "lon": -77.03166833333333, "is_disabled": 0, "type": "electric_scooter"}, {"bike_id": "68e0e468a36187bd5c7fddb16d7d0580", "lat": 38.94629366666667, "is_reserved": 0, "fusion_lat": 0.0, "rental_uris": {"android": "https://dc.lft.to/lastmile_qr_scan", "ios": "https://dc.lft.to/lastmile_qr_scan"}, "fusion_lon": 0.0, "name": "68e0e468a36187bd5c7fddb16d7d0580", "lon": -77.01847716666667, "is_disabled": 0, "type": "electric_scooter"}, {"bike_id": "c231e1527df3b5c8e17aa3bcc2cdf81e", "lat": 38.894851333333335, "is_reserved": 0, "fusion_lat": 0.0, "rental_uris": {"android": "https://dc.lft.to/lastmile_qr_scan", "ios": "https://dc.lft.to/lastmile_qr_scan"}, "fusion_lon": 0.0, "name": "c231e1527df3b5c8e17aa3bcc2cdf81e", "lon": -77.0227705, "is_disabled": 0, "type": "electric_scooter"}, {"bike_id": "37571c5780ca91927720ed954dd5e5ff", "lat": 38.90091733333333, "is_reserved": 0, "fusion_lat": 0.0, "rental_uris": {"android": "https://dc.lft.to/lastmile_qr_scan", "ios": "https://dc.lft.to/lastmile_qr_scan"}, "fusion_lon": 0.0, "name": "37571c5780ca91927720ed954dd5e5ff", "lon": -76.98338783333334, "is_disabled": 0, "type": "electric_scooter"}, {"bike_id": "66cc02e6ce57cf864c814b77a33060e9", "lat": 38.9164705, "is_reserved": 0, "fusion_lat": 0.0, "rental_uris": {"android": "https://dc.lft.to/lastmile_qr_scan", "ios": "https://dc.lft.to/lastmile_qr_scan"}, "fusion_lon": 0.0, "name": "66cc02e6ce57cf864c814b77a33060e9", "lon": -77.03224883333333, "is_disabled": 0, "type": "electric_scooter"}, {"bike_id": "8664c6c5f43f5347d7beb3c5fdedc465", "lat": 38.89912066666667, "is_reserved": 0, "fusion_lat": 0.0, "rental_uris": {"android": "https://dc.lft.to/lastmile_qr_scan", "ios": "https://dc.lft.to/lastmile_qr_scan"}, "fusion_lon": 0.0, "name": "8664c6c5f43f5347d7beb3c5fdedc465", "lon": -77.04008483333334, "is_disabled": 0, "type": "electric_scooter"}, {"bike_id": "9a895a06aa3adb9602f8fd6a27cf4123", "lat": 38.9154425, "is_reserved": 0, "fusion_lat": 0.0, "rental_uris": {"android": "https://dc.lft.to/lastmile_qr_scan", "ios": "https://dc.lft.to/lastmile_qr_scan"}, "fusion_lon": 0.0, "name": "9a895a06aa3adb9602f8fd6a27cf4123", "lon": -77.0445505, "is_disabled": 0, "type": "electric_scooter"}, {"bike_id": "9dd3fd6b00ea7556793d0ad57c5e017f", "lat": 38.907558, "is_reserved": 0, "fusion_lat": 0.0, "rental_uris": {"android": "https://dc.lft.to/lastmile_qr_scan", "ios": "https://dc.lft.to/lastmile_qr_scan"}, "fusion_lon": 0.0, "name": "9dd3fd6b00ea7556793d0ad57c5e017f", "lon": -77.03217833333333, "is_disabled": 0, "type": "electric_scooter"}, {"bike_id": "c439398b908c8707ca7fb16b8247af59", "lat": 38.875034, "is_reserved": 0, "fusion_lat": 0.0, "rental_uris": {"android": "https://dc.lft.to/lastmile_qr_scan", "ios": "https://dc.lft.to/lastmile_qr_scan"}, "fusion_lon": 0.0, "name": "c439398b908c8707ca7fb16b8247af59", "lon": -77.012367, "is_disabled": 0, "type": "electric_scooter"}, {"bike_id": "bf9192167089c8adef81e001debd64eb", "lat": 38.878621, "is_reserved": 0, "fusion_lat": 0.0, "rental_uris": {"android": "https://dc.lft.to/lastmile_qr_scan", "ios": "https://dc.lft.to/lastmile_qr_scan"}, "fusion_lon": 0.0, "name": "bf9192167089c8adef81e001debd64eb", "lon": -77.0176945, "is_disabled": 0, "type": "electric_scooter"}, {"bike_id": "5b43f38b571c3dfd4d446a80eaba9244", "lat": 38.933536333333336, "is_reserved": 0, "fusion_lat": 0.0, "rental_uris": {"android": "https://dc.lft.to/lastmile_qr_scan", "ios": "https://dc.lft.to/lastmile_qr_scan"}, "fusion_lon": 0.0, "name": "5b43f38b571c3dfd4d446a80eaba9244", "lon": -77.085793, "is_disabled": 0, "type": "electric_scooter"}, {"bike_id": "c837303caf97624f35e420a86176b276", "lat": 38.899551333333335, "is_reserved": 0, "fusion_lat": 0.0, "rental_uris": {"android": "https://dc.lft.to/lastmile_qr_scan", "ios": "https://dc.lft.to/lastmile_qr_scan"}, "fusion_lon": 0.0, "name": "c837303caf97624f35e420a86176b276", "lon": -77.04825866666667, "is_disabled": 0, "type": "electric_bike"}, {"bike_id": "e34906094720dc8c525523f3b55168b3", "lat": 38.892499, "is_reserved": 0, "fusion_lat": 0.0, "rental_uris": {"android": "https://dc.lft.to/lastmile_qr_scan", "ios": "https://dc.lft.to/lastmile_qr_scan"}, "fusion_lon": 0.0, "name": "e34906094720dc8c525523f3b55168b3", "lon": -77.04874616666666, "is_disabled": 0, "type": "electric_scooter"}, {"bike_id": "a402dc2b7751ebbab4daf5871b0e6cf9", "lat": 38.809066, "is_reserved": 0, "fusion_lat": 0.0, "rental_uris": {"android": "https://dc.lft.to/lastmile_qr_scan", "ios": "https://dc.lft.to/lastmile_qr_scan"}, "fusion_lon": 0.0, "name": "a402dc2b7751ebbab4daf5871b0e6cf9", "lon": -77.0865555, "is_disabled": 0, "type": "electric_bike"}, {"bike_id": "928010555f95f73ba48a2f8c6e300f09", "lat": 38.90267983333333, "is_reserved": 0, "fusion_lat": 0.0, "rental_uris": {"android": "https://dc.lft.to/lastmile_qr_scan", "ios": "https://dc.lft.to/lastmile_qr_scan"}, "fusion_lon": 0.0, "name": "928010555f95f73ba48a2f8c6e300f09", "lon": -77.03956266666667, "is_disabled": 0, "type": "electric_scooter"}, {"bike_id": "d7fbb3184e4d9e5a61ab7ce638288db6", "lat": 38.9215915, "is_reserved": 0, "fusion_lat": 0.0, "rental_uris": {"android": "https://dc.lft.to/lastmile_qr_scan", "ios": "https://dc.lft.to/lastmile_qr_scan"}, "fusion_lon": 0.0, "name": "d7fbb3184e4d9e5a61ab7ce638288db6", "lon": -77.02081633333333, "is_disabled": 0, "type": "electric_scooter"}, {"bike_id": "098c51c09f6f3b7340032b068ed91dae", "lat": 38.86517466666667, "is_reserved": 0, "fusion_lat": 0.0, "rental_uris": {"android": "https://dc.lft.to/lastmile_qr_scan", "ios": "https://dc.lft.to/lastmile_qr_scan"}, "fusion_lon": 0.0, "name": "098c51c09f6f3b7340032b068ed91dae", "lon": -76.9900915, "is_disabled": 0, "type": "electric_scooter"}, {"bike_id": "a29634aeeb926d4bf34176f9a836f106", "lat": 38.917738166666666, "is_reserved": 0, "fusion_lat": 0.0, "rental_uris": {"android": "https://dc.lft.to/lastmile_qr_scan", "ios": "https://dc.lft.to/lastmile_qr_scan"}, "fusion_lon": 0.0, "name": "a29634aeeb926d4bf34176f9a836f106", "lon": -77.02953, "is_disabled": 0, "type": "electric_scooter"}, {"bike_id": "7d9f643a86ccd584a1457399abc738c9", "lat": 38.89243, "is_reserved": 0, "fusion_lat": 0.0, "rental_uris": {"android": "https://dc.lft.to/lastmile_qr_scan", "ios": "https://dc.lft.to/lastmile_qr_scan"}, "fusion_lon": 0.0, "name": "7d9f643a86ccd584a1457399abc738c9", "lon": -76.9532955, "is_disabled": 0, "type": "electric_scooter"}, {"bike_id": "fdb0ade5ba0c366285c8a06007878405", "lat": 38.892315833333335, "is_reserved": 0, "fusion_lat": 0.0, "rental_uris": {"android": "https://dc.lft.to/lastmile_qr_scan", "ios": "https://dc.lft.to/lastmile_qr_scan"}, "fusion_lon": 0.0, "name": "fdb0ade5ba0c366285c8a06007878405", "lon": -77.04672933333333, "is_disabled": 0, "type": "electric_scooter"}, {"bike_id": "8d2093bdc359d598a12c68fcc2ecb9e2", "lat": 38.907581666666665, "is_reserved": 0, "fusion_lat": 0.0, "rental_uris": {"android": "https://dc.lft.to/lastmile_qr_scan", "ios": "https://dc.lft.to/lastmile_qr_scan"}, "fusion_lon": 0.0, "name": "8d2093bdc359d598a12c68fcc2ecb9e2", "lon": -77.03220266666666, "is_disabled": 0, "type": "electric_scooter"}, {"bike_id": "9e9b76dbf4cf478d430dd2558c2aa79c", "lat": 38.898813, "is_reserved": 0, "fusion_lat": 0.0, "rental_uris": {"android": "https://dc.lft.to/lastmile_qr_scan", "ios": "https://dc.lft.to/lastmile_qr_scan"}, "fusion_lon": 0.0, "name": "9e9b76dbf4cf478d430dd2558c2aa79c", "lon": -76.931748, "is_disabled": 0, "type": "electric_scooter"}, {"bike_id": "3873f077b93377c4a7bf75532d6da344", "lat": 38.874774333333335, "is_reserved": 0, "fusion_lat": 0.0, "rental_uris": {"android": "https://dc.lft.to/lastmile_qr_scan", "ios": "https://dc.lft.to/lastmile_qr_scan"}, "fusion_lon": 0.0, "name": "3873f077b93377c4a7bf75532d6da344", "lon": -77.01073483333333, "is_disabled": 0, "type": "electric_scooter"}, {"bike_id": "471a5947656bd96aba28ee4f8404d002", "lat": 38.91120866666667, "is_reserved": 0, "fusion_lat": 0.0, "rental_uris": {"android": "https://dc.lft.to/lastmile_qr_scan", "ios": "https://dc.lft.to/lastmile_qr_scan"}, "fusion_lon": 0.0, "name": "471a5947656bd96aba28ee4f8404d002", "lon": -77.0409965, "is_disabled": 0, "type": "electric_scooter"}, {"bike_id": "12e0742b2b1c70e09349549e2f82ee77", "lat": 38.918554, "is_reserved": 0, "fusion_lat": 0.0, "rental_uris": {"android": "https://dc.lft.to/lastmile_qr_scan", "ios": "https://dc.lft.to/lastmile_qr_scan"}, "fusion_lon": 0.0, "name": "12e0742b2b1c70e09349549e2f82ee77", "lon": -77.03187616666666, "is_disabled": 0, "type": "electric_scooter"}, {"bike_id": "83940931cb54e3fb08a6e2ce67d13946", "lat": 38.902625666666665, "is_reserved": 0, "fusion_lat": 0.0, "rental_uris": {"android": "https://dc.lft.to/lastmile_qr_scan", "ios": "https://dc.lft.to/lastmile_qr_scan"}, "fusion_lon": 0.0, "name": "83940931cb54e3fb08a6e2ce67d13946", "lon": -77.030038, "is_disabled": 0, "type": "electric_scooter"}, {"bike_id": "ed00f2e086a627d74d98d9dde9301b93", "lat": 38.933269333333335, "is_reserved": 0, "fusion_lat": 0.0, "rental_uris": {"android": "https://dc.lft.to/lastmile_qr_scan", "ios": "https://dc.lft.to/lastmile_qr_scan"}, "fusion_lon": 0.0, "name": "ed00f2e086a627d74d98d9dde9301b93", "lon": -77.0292675, "is_disabled": 0, "type": "electric_scooter"}, {"bike_id": "3c22be88eabc8b427b312a4d50dfd684", "lat": 38.938655, "is_reserved": 0, "fusion_lat": 0.0, "rental_uris": {"android": "https://dc.lft.to/lastmile_qr_scan", "ios": "https://dc.lft.to/lastmile_qr_scan"}, "fusion_lon": 0.0, "name": "3c22be88eabc8b427b312a4d50dfd684", "lon": -77.02593366666666, "is_disabled": 0, "type": "electric_scooter"}, {"bike_id": "231e055a1d1cf87c2fff6621635e8bc0", "lat": 38.903265, "is_reserved": 0, "fusion_lat": 0.0, "rental_uris": {"android": "https://dc.lft.to/lastmile_qr_scan", "ios": "https://dc.lft.to/lastmile_qr_scan"}, "fusion_lon": 0.0, "name": "231e055a1d1cf87c2fff6621635e8bc0", "lon": -77.02883133333333, "is_disabled": 0, "type": "electric_scooter"}, {"bike_id": "403d90bc903b4bd6a63e826537a445ce", "lat": 38.878828666666664, "is_reserved": 0, "fusion_lat": 0.0, "rental_uris": {"android": "https://dc.lft.to/lastmile_qr_scan", "ios": "https://dc.lft.to/lastmile_qr_scan"}, "fusion_lon": 0.0, "name": "403d90bc903b4bd6a63e826537a445ce", "lon": -77.09618033333334, "is_disabled": 0, "type": "electric_bike"}, {"bike_id": "447f8a08e8074a68cddf56f55dfbb4ce", "lat": 38.90378616666667, "is_reserved": 0, "fusion_lat": 0.0, "rental_uris": {"android": "https://dc.lft.to/lastmile_qr_scan", "ios": "https://dc.lft.to/lastmile_qr_scan"}, "fusion_lon": 0.0, "name": "447f8a08e8074a68cddf56f55dfbb4ce", "lon": -77.0484175, "is_disabled": 0, "type": "electric_scooter"}, {"bike_id": "2b9a0eabd0b39bdffdb1f7b7527b4414", "lat": 38.92089683333333, "is_reserved": 0, "fusion_lat": 0.0, "rental_uris": {"android": "https://dc.lft.to/lastmile_qr_scan", "ios": "https://dc.lft.to/lastmile_qr_scan"}, "fusion_lon": 0.0, "name": "2b9a0eabd0b39bdffdb1f7b7527b4414", "lon": -77.0204075, "is_disabled": 0, "type": "electric_scooter"}, {"bike_id": "7d28ea8b58e91617e0bb091e2222befb", "lat": 38.91568316666667, "is_reserved": 0, "fusion_lat": 0.0, "rental_uris": {"android": "https://dc.lft.to/lastmile_qr_scan", "ios": "https://dc.lft.to/lastmile_qr_scan"}, "fusion_lon": 0.0, "name": "7d28ea8b58e91617e0bb091e2222befb", "lon": -77.02006733333333, "is_disabled": 0, "type": "electric_scooter"}, {"bike_id": "1fb83140cd1db8c4b3ce77d805c8bff1", "lat": 38.922494, "is_reserved": 0, "fusion_lat": 0.0, "rental_uris": {"android": "https://dc.lft.to/lastmile_qr_scan", "ios": "https://dc.lft.to/lastmile_qr_scan"}, "fusion_lon": 0.0, "name": "1fb83140cd1db8c4b3ce77d805c8bff1", "lon": -77.01949333333333, "is_disabled": 0, "type": "electric_scooter"}, {"bike_id": "ea8f7e1be9c0e601101d9f731174c8a3", "lat": 38.92613933333333, "is_reserved": 0, "fusion_lat": 0.0, "rental_uris": {"android": "https://dc.lft.to/lastmile_qr_scan", "ios": "https://dc.lft.to/lastmile_qr_scan"}, "fusion_lon": 0.0, "name": "ea8f7e1be9c0e601101d9f731174c8a3", "lon": -77.0216425, "is_disabled": 0, "type": "electric_scooter"}, {"bike_id": "ee92ea7fa15e6a66d489b5390f778272", "lat": 38.91413333333333, "is_reserved": 0, "fusion_lat": 0.0, "rental_uris": {"android": "https://dc.lft.to/lastmile_qr_scan", "ios": "https://dc.lft.to/lastmile_qr_scan"}, "fusion_lon": 0.0, "name": "ee92ea7fa15e6a66d489b5390f778272", "lon": -77.02121333333334, "is_disabled": 0, "type": "electric_scooter"}, {"bike_id": "88f757e79884dd91d9747fa2e62cf25f", "lat": 38.871756, "is_reserved": 0, "fusion_lat": 0.0, "rental_uris": {"android": "https://dc.lft.to/lastmile_qr_scan", "ios": "https://dc.lft.to/lastmile_qr_scan"}, "fusion_lon": 0.0, "name": "88f757e79884dd91d9747fa2e62cf25f", "lon": -77.006831, "is_disabled": 0, "type": "electric_scooter"}, {"bike_id": "53d8c96f187b9c6705a1ad38f6bb032f", "lat": 38.84604066666667, "is_reserved": 0, "fusion_lat": 0.0, "rental_uris": {"android": "https://dc.lft.to/lastmile_qr_scan", "ios": "https://dc.lft.to/lastmile_qr_scan"}, "fusion_lon": 0.0, "name": "53d8c96f187b9c6705a1ad38f6bb032f", "lon": -77.10863166666667, "is_disabled": 0, "type": "electric_bike"}, {"bike_id": "3bc1f69c9a516a4c2c0f8ff20bdbcbec", "lat": 38.905546666666666, "is_reserved": 0, "fusion_lat": 0.0, "rental_uris": {"android": "https://dc.lft.to/lastmile_qr_scan", "ios": "https://dc.lft.to/lastmile_qr_scan"}, "fusion_lon": 0.0, "name": "3bc1f69c9a516a4c2c0f8ff20bdbcbec", "lon": -77.0652945, "is_disabled": 0, "type": "electric_scooter"}, {"bike_id": "0e3af17ab4e3c447dc3677bce4709afe", "lat": 38.90379516666667, "is_reserved": 0, "fusion_lat": 0.0, "rental_uris": {"android": "https://dc.lft.to/lastmile_qr_scan", "ios": "https://dc.lft.to/lastmile_qr_scan"}, "fusion_lon": 0.0, "name": "0e3af17ab4e3c447dc3677bce4709afe", "lon": -77.04503616666666, "is_disabled": 0, "type": "electric_scooter"}, {"bike_id": "ed0463185c534a8809081c7a95b9043e", "lat": 38.919034333333336, "is_reserved": 0, "fusion_lat": 0.0, "rental_uris": {"android": "https://dc.lft.to/lastmile_qr_scan", "ios": "https://dc.lft.to/lastmile_qr_scan"}, "fusion_lon": 0.0, "name": "ed0463185c534a8809081c7a95b9043e", "lon": -77.01959983333333, "is_disabled": 0, "type": "electric_scooter"}, {"bike_id": "2a62df6d3c5ca3fe96e59effa4b34aa4", "lat": 38.846434333333335, "is_reserved": 0, "fusion_lat": 0.0, "rental_uris": {"android": "https://dc.lft.to/lastmile_qr_scan", "ios": "https://dc.lft.to/lastmile_qr_scan"}, "fusion_lon": 0.0, "name": "2a62df6d3c5ca3fe96e59effa4b34aa4", "lon": -76.99127849999999, "is_disabled": 0, "type": "electric_scooter"}, {"bike_id": "dfe124939bf3879cecb280e56e060021", "lat": 38.901464, "is_reserved": 0, "fusion_lat": 0.0, "rental_uris": {"android": "https://dc.lft.to/lastmile_qr_scan", "ios": "https://dc.lft.to/lastmile_qr_scan"}, "fusion_lon": 0.0, "name": "dfe124939bf3879cecb280e56e060021", "lon": -77.029377, "is_disabled": 0, "type": "electric_scooter"}, {"bike_id": "4e51e88eb358ad7ca54c3d5aff467cb3", "lat": 38.8216625, "is_reserved": 0, "fusion_lat": 0.0, "rental_uris": {"android": "https://dc.lft.to/lastmile_qr_scan", "ios": "https://dc.lft.to/lastmile_qr_scan"}, "fusion_lon": 0.0, "name": "4e51e88eb358ad7ca54c3d5aff467cb3", "lon": -76.995054, "is_disabled": 0, "type": "electric_bike"}, {"bike_id": "0de67346f7f149c42eca65db2f753723", "lat": 38.90534266666667, "is_reserved": 0, "fusion_lat": 0.0, "rental_uris": {"android": "https://dc.lft.to/lastmile_qr_scan", "ios": "https://dc.lft.to/lastmile_qr_scan"}, "fusion_lon": 0.0, "name": "0de67346f7f149c42eca65db2f753723", "lon": -77.04155083333333, "is_disabled": 0, "type": "electric_scooter"}, {"bike_id": "d3f03832313e83ac1f8737292963e0d6", "lat": 38.89327883333333, "is_reserved": 0, "fusion_lat": 0.0, "rental_uris": {"android": "https://dc.lft.to/lastmile_qr_scan", "ios": "https://dc.lft.to/lastmile_qr_scan"}, "fusion_lon": 0.0, "name": "d3f03832313e83ac1f8737292963e0d6", "lon": -77.03199366666666, "is_disabled": 0, "type": "electric_scooter"}, {"bike_id": "50bccc00a81e6ffa2a0577038028441b", "lat": 38.91470566666667, "is_reserved": 0, "fusion_lat": 0.0, "rental_uris": {"android": "https://dc.lft.to/lastmile_qr_scan", "ios": "https://dc.lft.to/lastmile_qr_scan"}, "fusion_lon": 0.0, "name": "50bccc00a81e6ffa2a0577038028441b", "lon": -76.98113633333334, "is_disabled": 0, "type": "electric_scooter"}, {"bike_id": "8811260f64e5cba2f7bdbf7bc67f8d91", "lat": 38.900143166666666, "is_reserved": 0, "fusion_lat": 0.0, "rental_uris": {"android": "https://dc.lft.to/lastmile_qr_scan", "ios": "https://dc.lft.to/lastmile_qr_scan"}, "fusion_lon": 0.0, "name": "8811260f64e5cba2f7bdbf7bc67f8d91", "lon": -76.9870225, "is_disabled": 0, "type": "electric_scooter"}, {"bike_id": "6856218e59c225a53bfa4ba2011bb4a5", "lat": 38.918295, "is_reserved": 0, "fusion_lat": 0.0, "rental_uris": {"android": "https://dc.lft.to/lastmile_qr_scan", "ios": "https://dc.lft.to/lastmile_qr_scan"}, "fusion_lon": 0.0, "name": "6856218e59c225a53bfa4ba2011bb4a5", "lon": -77.0393515, "is_disabled": 0, "type": "electric_scooter"}, {"bike_id": "337df9d14adfd1d1f3a2d6a695595858", "lat": 38.87686, "is_reserved": 0, "fusion_lat": 0.0, "rental_uris": {"android": "https://dc.lft.to/lastmile_qr_scan", "ios": "https://dc.lft.to/lastmile_qr_scan"}, "fusion_lon": 0.0, "name": "337df9d14adfd1d1f3a2d6a695595858", "lon": -77.017558, "is_disabled": 0, "type": "electric_scooter"}, {"bike_id": "fa07896f825399251228d564790f652b", "lat": 38.874590166666664, "is_reserved": 0, "fusion_lat": 0.0, "rental_uris": {"android": "https://dc.lft.to/lastmile_qr_scan", "ios": "https://dc.lft.to/lastmile_qr_scan"}, "fusion_lon": 0.0, "name": "fa07896f825399251228d564790f652b", "lon": -77.00940266666667, "is_disabled": 0, "type": "electric_scooter"}, {"bike_id": "bbb5df6dfd05aa577f8f5dfbf48f6dc4", "lat": 38.893564166666664, "is_reserved": 0, "fusion_lat": 0.0, "rental_uris": {"android": "https://dc.lft.to/lastmile_qr_scan", "ios": "https://dc.lft.to/lastmile_qr_scan"}, "fusion_lon": 0.0, "name": "bbb5df6dfd05aa577f8f5dfbf48f6dc4", "lon": -76.9493615, "is_disabled": 0, "type": "electric_scooter"}, {"bike_id": "b514915014747013aa4dd02c8213efad", "lat": 38.92447, "is_reserved": 0, "fusion_lat": 0.0, "rental_uris": {"android": "https://dc.lft.to/lastmile_qr_scan", "ios": "https://dc.lft.to/lastmile_qr_scan"}, "fusion_lon": 0.0, "name": "b514915014747013aa4dd02c8213efad", "lon": -77.021483, "is_disabled": 0, "type": "electric_scooter"}, {"bike_id": "c7a0dd3156bcccd2c533d424f02b5181", "lat": 38.80445133333333, "is_reserved": 0, "fusion_lat": 0.0, "rental_uris": {"android": "https://dc.lft.to/lastmile_qr_scan", "ios": "https://dc.lft.to/lastmile_qr_scan"}, "fusion_lon": 0.0, "name": "c7a0dd3156bcccd2c533d424f02b5181", "lon": -77.0538885, "is_disabled": 0, "type": "electric_bike"}, {"bike_id": "188446d9212bbbe1924d650d27288a6c", "lat": 38.919838166666665, "is_reserved": 0, "fusion_lat": 0.0, "rental_uris": {"android": "https://dc.lft.to/lastmile_qr_scan", "ios": "https://dc.lft.to/lastmile_qr_scan"}, "fusion_lon": 0.0, "name": "188446d9212bbbe1924d650d27288a6c", "lon": -77.03270466666666, "is_disabled": 0, "type": "electric_scooter"}, {"bike_id": "6165834b858f7cd2dd9eeed504fac25c", "lat": 38.895066166666666, "is_reserved": 0, "fusion_lat": 0.0, "rental_uris": {"android": "https://dc.lft.to/lastmile_qr_scan", "ios": "https://dc.lft.to/lastmile_qr_scan"}, "fusion_lon": 0.0, "name": "6165834b858f7cd2dd9eeed504fac25c", "lon": -77.00337733333333, "is_disabled": 0, "type": "electric_scooter"}, {"bike_id": "968ad7d46d32be797190bdbd9472a4d2", "lat": 38.950891666666664, "is_reserved": 0, "fusion_lat": 0.0, "rental_uris": {"android": "https://dc.lft.to/lastmile_qr_scan", "ios": "https://dc.lft.to/lastmile_qr_scan"}, "fusion_lon": 0.0, "name": "968ad7d46d32be797190bdbd9472a4d2", "lon": -76.9979805, "is_disabled": 0, "type": "electric_bike"}, {"bike_id": "325979555de038a4fc509fbbc114aaa5", "lat": 38.88429683333333, "is_reserved": 0, "fusion_lat": 0.0, "rental_uris": {"android": "https://dc.lft.to/lastmile_qr_scan", "ios": "https://dc.lft.to/lastmile_qr_scan"}, "fusion_lon": 0.0, "name": "325979555de038a4fc509fbbc114aaa5", "lon": -76.95757233333333, "is_disabled": 0, "type": "electric_scooter"}, {"bike_id": "07545785ba8835b6cd9046c6555987d3", "lat": 38.90951283333333, "is_reserved": 0, "fusion_lat": 0.0, "rental_uris": {"android": "https://dc.lft.to/lastmile_qr_scan", "ios": "https://dc.lft.to/lastmile_qr_scan"}, "fusion_lon": 0.0, "name": "07545785ba8835b6cd9046c6555987d3", "lon": -77.04888033333333, "is_disabled": 0, "type": "electric_scooter"}, {"bike_id": "a3541c011ddd5684079aa74ea1e4cf87", "lat": 38.93389583333333, "is_reserved": 0, "fusion_lat": 0.0, "rental_uris": {"android": "https://dc.lft.to/lastmile_qr_scan", "ios": "https://dc.lft.to/lastmile_qr_scan"}, "fusion_lon": 0.0, "name": "a3541c011ddd5684079aa74ea1e4cf87", "lon": -77.03223483333333, "is_disabled": 0, "type": "electric_scooter"}, {"bike_id": "e0334b5a71a6283c4bd4576a8503ad99", "lat": 38.91126766666667, "is_reserved": 0, "fusion_lat": 0.0, "rental_uris": {"android": "https://dc.lft.to/lastmile_qr_scan", "ios": "https://dc.lft.to/lastmile_qr_scan"}, "fusion_lon": 0.0, "name": "e0334b5a71a6283c4bd4576a8503ad99", "lon": -77.03187633333333, "is_disabled": 0, "type": "electric_scooter"}, {"bike_id": "fe86961b3d908bfdb9a39bc689e010c3", "lat": 38.90552116666667, "is_reserved": 0, "fusion_lat": 0.0, "rental_uris": {"android": "https://dc.lft.to/lastmile_qr_scan", "ios": "https://dc.lft.to/lastmile_qr_scan"}, "fusion_lon": 0.0, "name": "fe86961b3d908bfdb9a39bc689e010c3", "lon": -76.996229, "is_disabled": 0, "type": "electric_scooter"}, {"bike_id": "4ff369c6a7a859e9771ac3b4df951faa", "lat": 38.83933483333333, "is_reserved": 0, "fusion_lat": 0.0, "rental_uris": {"android": "https://dc.lft.to/lastmile_qr_scan", "ios": "https://dc.lft.to/lastmile_qr_scan"}, "fusion_lon": 0.0, "name": "4ff369c6a7a859e9771ac3b4df951faa", "lon": -77.07909183333334, "is_disabled": 0, "type": "electric_bike"}, {"bike_id": "cc53638f708bc433076e6093f9288479", "lat": 38.89994683333333, "is_reserved": 0, "fusion_lat": 0.0, "rental_uris": {"android": "https://dc.lft.to/lastmile_qr_scan", "ios": "https://dc.lft.to/lastmile_qr_scan"}, "fusion_lon": 0.0, "name": "cc53638f708bc433076e6093f9288479", "lon": -77.02449916666667, "is_disabled": 0, "type": "electric_scooter"}, {"bike_id": "4020463a30ac8edc063b5b6a053596d1", "lat": 38.894529666666664, "is_reserved": 0, "fusion_lat": 0.0, "rental_uris": {"android": "https://dc.lft.to/lastmile_qr_scan", "ios": "https://dc.lft.to/lastmile_qr_scan"}, "fusion_lon": 0.0, "name": "4020463a30ac8edc063b5b6a053596d1", "lon": -77.04673133333333, "is_disabled": 0, "type": "electric_scooter"}, {"bike_id": "e929660932ef8764a99e0c7625130526", "lat": 38.91714066666667, "is_reserved": 0, "fusion_lat": 0.0, "rental_uris": {"android": "https://dc.lft.to/lastmile_qr_scan", "ios": "https://dc.lft.to/lastmile_qr_scan"}, "fusion_lon": 0.0, "name": "e929660932ef8764a99e0c7625130526", "lon": -77.0323735, "is_disabled": 0, "type": "electric_scooter"}, {"bike_id": "f1df404393dd586f16e04472eaf3346f", "lat": 38.905279666666665, "is_reserved": 0, "fusion_lat": 0.0, "rental_uris": {"android": "https://dc.lft.to/lastmile_qr_scan", "ios": "https://dc.lft.to/lastmile_qr_scan"}, "fusion_lon": 0.0, "name": "f1df404393dd586f16e04472eaf3346f", "lon": -77.04906, "is_disabled": 0, "type": "electric_scooter"}, {"bike_id": "c3f2ae39b2f9c9ee93cc6c25cd958ac1", "lat": 38.93020816666667, "is_reserved": 0, "fusion_lat": 0.0, "rental_uris": {"android": "https://dc.lft.to/lastmile_qr_scan", "ios": "https://dc.lft.to/lastmile_qr_scan"}, "fusion_lon": 0.0, "name": "c3f2ae39b2f9c9ee93cc6c25cd958ac1", "lon": -77.03787216666667, "is_disabled": 0, "type": "electric_scooter"}, {"bike_id": "8dedb51d928e0b3426f2f385fc14cf16", "lat": 38.9118795, "is_reserved": 0, "fusion_lat": 0.0, "rental_uris": {"android": "https://dc.lft.to/lastmile_qr_scan", "ios": "https://dc.lft.to/lastmile_qr_scan"}, "fusion_lon": 0.0, "name": "8dedb51d928e0b3426f2f385fc14cf16", "lon": -77.039691, "is_disabled": 0, "type": "electric_scooter"}, {"bike_id": "e12615ddd7be9f6f58e9c28ebb927f54", "lat": 38.91982016666667, "is_reserved": 0, "fusion_lat": 0.0, "rental_uris": {"android": "https://dc.lft.to/lastmile_qr_scan", "ios": "https://dc.lft.to/lastmile_qr_scan"}, "fusion_lon": 0.0, "name": "e12615ddd7be9f6f58e9c28ebb927f54", "lon": -77.01210233333333, "is_disabled": 0, "type": "electric_scooter"}, {"bike_id": "6b630377a0b79d0b2e1b64c551169807", "lat": 38.94023583333333, "is_reserved": 0, "fusion_lat": 0.0, "rental_uris": {"android": "https://dc.lft.to/lastmile_qr_scan", "ios": "https://dc.lft.to/lastmile_qr_scan"}, "fusion_lon": 0.0, "name": "6b630377a0b79d0b2e1b64c551169807", "lon": -76.97607833333333, "is_disabled": 0, "type": "electric_scooter"}, {"bike_id": "214d19e320903e03222a567c6a79bb90", "lat": 38.93476666666667, "is_reserved": 0, "fusion_lat": 0.0, "rental_uris": {"android": "https://dc.lft.to/lastmile_qr_scan", "ios": "https://dc.lft.to/lastmile_qr_scan"}, "fusion_lon": 0.0, "name": "214d19e320903e03222a567c6a79bb90", "lon": -77.07271083333333, "is_disabled": 0, "type": "electric_scooter"}, {"bike_id": "ff215d26201f8747f3e10c054fcecc25", "lat": 38.894286666666666, "is_reserved": 0, "fusion_lat": 0.0, "rental_uris": {"android": "https://dc.lft.to/lastmile_qr_scan", "ios": "https://dc.lft.to/lastmile_qr_scan"}, "fusion_lon": 0.0, "name": "ff215d26201f8747f3e10c054fcecc25", "lon": -77.01048983333334, "is_disabled": 0, "type": "electric_scooter"}, {"bike_id": "7eca3e586ffe63883964142c64d360de", "lat": 38.90031783333333, "is_reserved": 0, "fusion_lat": 0.0, "rental_uris": {"android": "https://dc.lft.to/lastmile_qr_scan", "ios": "https://dc.lft.to/lastmile_qr_scan"}, "fusion_lon": 0.0, "name": "7eca3e586ffe63883964142c64d360de", "lon": -76.99835816666666, "is_disabled": 0, "type": "electric_scooter"}, {"bike_id": "1c6e8f1a97eb2df0b4de055b12af3c11", "lat": 38.902005333333335, "is_reserved": 0, "fusion_lat": 0.0, "rental_uris": {"android": "https://dc.lft.to/lastmile_qr_scan", "ios": "https://dc.lft.to/lastmile_qr_scan"}, "fusion_lon": 0.0, "name": "1c6e8f1a97eb2df0b4de055b12af3c11", "lon": -77.04661716666666, "is_disabled": 0, "type": "electric_scooter"}, {"bike_id": "f9de567bd2ccdd8da8797e010f81fa02", "lat": 38.9321405, "is_reserved": 0, "fusion_lat": 0.0, "rental_uris": {"android": "https://dc.lft.to/lastmile_qr_scan", "ios": "https://dc.lft.to/lastmile_qr_scan"}, "fusion_lon": 0.0, "name": "f9de567bd2ccdd8da8797e010f81fa02", "lon": -77.03517783333334, "is_disabled": 0, "type": "electric_scooter"}, {"bike_id": "3d118531d82e7ca8253f3728c283d349", "lat": 38.897442, "is_reserved": 0, "fusion_lat": 0.0, "rental_uris": {"android": "https://dc.lft.to/lastmile_qr_scan", "ios": "https://dc.lft.to/lastmile_qr_scan"}, "fusion_lon": 0.0, "name": "3d118531d82e7ca8253f3728c283d349", "lon": -77.0276105, "is_disabled": 0, "type": "electric_scooter"}, {"bike_id": "3752fab7b4d9cc352b802f2f67086c80", "lat": 38.87716533333333, "is_reserved": 0, "fusion_lat": 0.0, "rental_uris": {"android": "https://dc.lft.to/lastmile_qr_scan", "ios": "https://dc.lft.to/lastmile_qr_scan"}, "fusion_lon": 0.0, "name": "3752fab7b4d9cc352b802f2f67086c80", "lon": -77.0054835, "is_disabled": 0, "type": "electric_scooter"}, {"bike_id": "1d1f1567572ff295c5b62bec67621f76", "lat": 38.894788166666665, "is_reserved": 0, "fusion_lat": 0.0, "rental_uris": {"android": "https://dc.lft.to/lastmile_qr_scan", "ios": "https://dc.lft.to/lastmile_qr_scan"}, "fusion_lon": 0.0, "name": "1d1f1567572ff295c5b62bec67621f76", "lon": -76.94862983333333, "is_disabled": 0, "type": "electric_scooter"}, {"bike_id": "2a543ce85b9ce9903d2aec690cee5c1e", "lat": 38.920421, "is_reserved": 0, "fusion_lat": 0.0, "rental_uris": {"android": "https://dc.lft.to/lastmile_qr_scan", "ios": "https://dc.lft.to/lastmile_qr_scan"}, "fusion_lon": 0.0, "name": "2a543ce85b9ce9903d2aec690cee5c1e", "lon": -77.02573566666666, "is_disabled": 0, "type": "electric_scooter"}, {"bike_id": "2b26b24086d0f9e6118099e51a19f1cd", "lat": 38.8992645, "is_reserved": 0, "fusion_lat": 0.0, "rental_uris": {"android": "https://dc.lft.to/lastmile_qr_scan", "ios": "https://dc.lft.to/lastmile_qr_scan"}, "fusion_lon": 0.0, "name": "2b26b24086d0f9e6118099e51a19f1cd", "lon": -77.00374716666667, "is_disabled": 0, "type": "electric_scooter"}, {"bike_id": "92a5298940a0096a0f3f489508b96b27", "lat": 38.8922135, "is_reserved": 0, "fusion_lat": 0.0, "rental_uris": {"android": "https://dc.lft.to/lastmile_qr_scan", "ios": "https://dc.lft.to/lastmile_qr_scan"}, "fusion_lon": 0.0, "name": "92a5298940a0096a0f3f489508b96b27", "lon": -77.043686, "is_disabled": 0, "type": "electric_scooter"}, {"bike_id": "18e441f8adf708b06514126a820db5bb", "lat": 38.9141195, "is_reserved": 0, "fusion_lat": 0.0, "rental_uris": {"android": "https://dc.lft.to/lastmile_qr_scan", "ios": "https://dc.lft.to/lastmile_qr_scan"}, "fusion_lon": 0.0, "name": "18e441f8adf708b06514126a820db5bb", "lon": -77.012332, "is_disabled": 0, "type": "electric_scooter"}, {"bike_id": "8de0488b0c73d58156586cd010abc563", "lat": 38.906173833333334, "is_reserved": 0, "fusion_lat": 0.0, "rental_uris": {"android": "https://dc.lft.to/lastmile_qr_scan", "ios": "https://dc.lft.to/lastmile_qr_scan"}, "fusion_lon": 0.0, "name": "8de0488b0c73d58156586cd010abc563", "lon": -77.00773333333333, "is_disabled": 0, "type": "electric_scooter"}, {"bike_id": "e2f7fded69901fafe9a37060c46556e8", "lat": 38.89685583333333, "is_reserved": 0, "fusion_lat": 0.0, "rental_uris": {"android": "https://dc.lft.to/lastmile_qr_scan", "ios": "https://dc.lft.to/lastmile_qr_scan"}, "fusion_lon": 0.0, "name": "e2f7fded69901fafe9a37060c46556e8", "lon": -77.02396183333333, "is_disabled": 0, "type": "electric_scooter"}, {"bike_id": "b7145aceba7d7fe285e02a7ed638ab16", "lat": 38.900271333333336, "is_reserved": 0, "fusion_lat": 0.0, "rental_uris": {"android": "https://dc.lft.to/lastmile_qr_scan", "ios": "https://dc.lft.to/lastmile_qr_scan"}, "fusion_lon": 0.0, "name": "b7145aceba7d7fe285e02a7ed638ab16", "lon": -77.01193583333334, "is_disabled": 0, "type": "electric_scooter"}, {"bike_id": "68094178b892369316f26100d2a3ba86", "lat": 38.887348333333335, "is_reserved": 0, "fusion_lat": 0.0, "rental_uris": {"android": "https://dc.lft.to/lastmile_qr_scan", "ios": "https://dc.lft.to/lastmile_qr_scan"}, "fusion_lon": 0.0, "name": "68094178b892369316f26100d2a3ba86", "lon": -77.02839216666666, "is_disabled": 0, "type": "electric_scooter"}, {"bike_id": "7a3fb39f65ab22d093e0aeda02a5cf0c", "lat": 38.8997375, "is_reserved": 0, "fusion_lat": 0.0, "rental_uris": {"android": "https://dc.lft.to/lastmile_qr_scan", "ios": "https://dc.lft.to/lastmile_qr_scan"}, "fusion_lon": 0.0, "name": "7a3fb39f65ab22d093e0aeda02a5cf0c", "lon": -77.0161745, "is_disabled": 0, "type": "electric_scooter"}, {"bike_id": "21184976dcb20bd2b78574d70c438156", "lat": 38.904597333333335, "is_reserved": 0, "fusion_lat": 0.0, "rental_uris": {"android": "https://dc.lft.to/lastmile_qr_scan", "ios": "https://dc.lft.to/lastmile_qr_scan"}, "fusion_lon": 0.0, "name": "21184976dcb20bd2b78574d70c438156", "lon": -77.04484366666667, "is_disabled": 0, "type": "electric_scooter"}, {"bike_id": "4ff9b9e5b08c8b11e233d09ace75f479", "lat": 38.903484, "is_reserved": 0, "fusion_lat": 0.0, "rental_uris": {"android": "https://dc.lft.to/lastmile_qr_scan", "ios": "https://dc.lft.to/lastmile_qr_scan"}, "fusion_lon": 0.0, "name": "4ff9b9e5b08c8b11e233d09ace75f479", "lon": -76.98512933333333, "is_disabled": 0, "type": "electric_scooter"}, {"bike_id": "9bbd51f4747c377f5e19cc02c1eddc01", "lat": 38.897357666666664, "is_reserved": 0, "fusion_lat": 0.0, "rental_uris": {"android": "https://dc.lft.to/lastmile_qr_scan", "ios": "https://dc.lft.to/lastmile_qr_scan"}, "fusion_lon": 0.0, "name": "9bbd51f4747c377f5e19cc02c1eddc01", "lon": -77.0269875, "is_disabled": 0, "type": "electric_scooter"}, {"bike_id": "e8e98f5c8b299a8c26cc0d2c727e7cf2", "lat": 38.835818333333336, "is_reserved": 0, "fusion_lat": 0.0, "rental_uris": {"android": "https://dc.lft.to/lastmile_qr_scan", "ios": "https://dc.lft.to/lastmile_qr_scan"}, "fusion_lon": 0.0, "name": "e8e98f5c8b299a8c26cc0d2c727e7cf2", "lon": -77.00117666666667, "is_disabled": 0, "type": "electric_scooter"}, {"bike_id": "c02a7c6c089f8204c3d618a56b3773e8", "lat": 38.92900316666667, "is_reserved": 0, "fusion_lat": 0.0, "rental_uris": {"android": "https://dc.lft.to/lastmile_qr_scan", "ios": "https://dc.lft.to/lastmile_qr_scan"}, "fusion_lon": 0.0, "name": "c02a7c6c089f8204c3d618a56b3773e8", "lon": -77.03263166666666, "is_disabled": 0, "type": "electric_scooter"}, {"bike_id": "c178eda4d3cff01b5577f34854df0af6", "lat": 38.89461816666667, "is_reserved": 0, "fusion_lat": 0.0, "rental_uris": {"android": "https://dc.lft.to/lastmile_qr_scan", "ios": "https://dc.lft.to/lastmile_qr_scan"}, "fusion_lon": 0.0, "name": "c178eda4d3cff01b5577f34854df0af6", "lon": -77.00344883333334, "is_disabled": 0, "type": "electric_scooter"}, {"bike_id": "d1f7c2e9db962b4588e2ff9dd68c04bb", "lat": 38.90868366666667, "is_reserved": 0, "fusion_lat": 0.0, "rental_uris": {"android": "https://dc.lft.to/lastmile_qr_scan", "ios": "https://dc.lft.to/lastmile_qr_scan"}, "fusion_lon": 0.0, "name": "d1f7c2e9db962b4588e2ff9dd68c04bb", "lon": -76.9978875, "is_disabled": 0, "type": "electric_scooter"}, {"bike_id": "c923ebaa47dce13648fc020500ff7234", "lat": 38.92157616666667, "is_reserved": 0, "fusion_lat": 0.0, "rental_uris": {"android": "https://dc.lft.to/lastmile_qr_scan", "ios": "https://dc.lft.to/lastmile_qr_scan"}, "fusion_lon": 0.0, "name": "c923ebaa47dce13648fc020500ff7234", "lon": -77.03319616666667, "is_disabled": 0, "type": "electric_scooter"}, {"bike_id": "1683ff833fe05a068b627f43db13f1d8", "lat": 38.892278833333336, "is_reserved": 0, "fusion_lat": 0.0, "rental_uris": {"android": "https://dc.lft.to/lastmile_qr_scan", "ios": "https://dc.lft.to/lastmile_qr_scan"}, "fusion_lon": 0.0, "name": "1683ff833fe05a068b627f43db13f1d8", "lon": -77.02240716666667, "is_disabled": 0, "type": "electric_scooter"}, {"bike_id": "530dec6fee26854d494d6e185f2c5609", "lat": 38.89751666666667, "is_reserved": 0, "fusion_lat": 0.0, "rental_uris": {"android": "https://dc.lft.to/lastmile_qr_scan", "ios": "https://dc.lft.to/lastmile_qr_scan"}, "fusion_lon": 0.0, "name": "530dec6fee26854d494d6e185f2c5609", "lon": -77.02987383333334, "is_disabled": 0, "type": "electric_scooter"}, {"bike_id": "7ac9f3c96b313773b515dc022f92538a", "lat": 38.92401183333333, "is_reserved": 0, "fusion_lat": 0.0, "rental_uris": {"android": "https://dc.lft.to/lastmile_qr_scan", "ios": "https://dc.lft.to/lastmile_qr_scan"}, "fusion_lon": 0.0, "name": "7ac9f3c96b313773b515dc022f92538a", "lon": -77.0297415, "is_disabled": 0, "type": "electric_scooter"}, {"bike_id": "ea31cee7f11e30e59a635e05277354a8", "lat": 38.8841305, "is_reserved": 0, "fusion_lat": 0.0, "rental_uris": {"android": "https://dc.lft.to/lastmile_qr_scan", "ios": "https://dc.lft.to/lastmile_qr_scan"}, "fusion_lon": 0.0, "name": "ea31cee7f11e30e59a635e05277354a8", "lon": -76.94829183333333, "is_disabled": 0, "type": "electric_scooter"}, {"bike_id": "6bb8f3be57aef9abaa47b9cb7e9c158f", "lat": 38.9181675, "is_reserved": 0, "fusion_lat": 0.0, "rental_uris": {"android": "https://dc.lft.to/lastmile_qr_scan", "ios": "https://dc.lft.to/lastmile_qr_scan"}, "fusion_lon": 0.0, "name": "6bb8f3be57aef9abaa47b9cb7e9c158f", "lon": -77.012071, "is_disabled": 0, "type": "electric_scooter"}, {"bike_id": "eefb885cc7c1f8dfb4352fe457cf28e6", "lat": 38.896315, "is_reserved": 0, "fusion_lat": 0.0, "rental_uris": {"android": "https://dc.lft.to/lastmile_qr_scan", "ios": "https://dc.lft.to/lastmile_qr_scan"}, "fusion_lon": 0.0, "name": "eefb885cc7c1f8dfb4352fe457cf28e6", "lon": -77.02627166666667, "is_disabled": 0, "type": "electric_scooter"}, {"bike_id": "854fd4aea634301c95fd7bd06e35e7bb", "lat": 38.905743666666666, "is_reserved": 0, "fusion_lat": 0.0, "rental_uris": {"android": "https://dc.lft.to/lastmile_qr_scan", "ios": "https://dc.lft.to/lastmile_qr_scan"}, "fusion_lon": 0.0, "name": "854fd4aea634301c95fd7bd06e35e7bb", "lon": -77.0417075, "is_disabled": 0, "type": "electric_scooter"}, {"bike_id": "4efbd83f9cfc251fa16c6071babedf6d", "lat": 38.83097983333333, "is_reserved": 0, "fusion_lat": 0.0, "rental_uris": {"android": "https://dc.lft.to/lastmile_qr_scan", "ios": "https://dc.lft.to/lastmile_qr_scan"}, "fusion_lon": 0.0, "name": "4efbd83f9cfc251fa16c6071babedf6d", "lon": -77.04296883333333, "is_disabled": 0, "type": "electric_bike"}, {"bike_id": "20111dc8ccdd4879752556a98f2f90a6", "lat": 38.93397616666667, "is_reserved": 0, "fusion_lat": 0.0, "rental_uris": {"android": "https://dc.lft.to/lastmile_qr_scan", "ios": "https://dc.lft.to/lastmile_qr_scan"}, "fusion_lon": 0.0, "name": "20111dc8ccdd4879752556a98f2f90a6", "lon": -77.05744216666666, "is_disabled": 0, "type": "electric_scooter"}, {"bike_id": "794412334ac738c18099d9085f420864", "lat": 38.90481166666667, "is_reserved": 0, "fusion_lat": 0.0, "rental_uris": {"android": "https://dc.lft.to/lastmile_qr_scan", "ios": "https://dc.lft.to/lastmile_qr_scan"}, "fusion_lon": 0.0, "name": "794412334ac738c18099d9085f420864", "lon": -77.00212183333333, "is_disabled": 0, "type": "electric_scooter"}, {"bike_id": "fb7eb9b0f46b7c5289435de2382a3171", "lat": 38.92792516666667, "is_reserved": 0, "fusion_lat": 0.0, "rental_uris": {"android": "https://dc.lft.to/lastmile_qr_scan", "ios": "https://dc.lft.to/lastmile_qr_scan"}, "fusion_lon": 0.0, "name": "fb7eb9b0f46b7c5289435de2382a3171", "lon": -77.05362933333333, "is_disabled": 0, "type": "electric_scooter"}, {"bike_id": "13c4f7b2ffbdc59475a60a7e0207b407", "lat": 38.9231, "is_reserved": 0, "fusion_lat": 0.0, "rental_uris": {"android": "https://dc.lft.to/lastmile_qr_scan", "ios": "https://dc.lft.to/lastmile_qr_scan"}, "fusion_lon": 0.0, "name": "13c4f7b2ffbdc59475a60a7e0207b407", "lon": -77.04466983333333, "is_disabled": 0, "type": "electric_scooter"}, {"bike_id": "6db910715f9bd9e9e381546b9ad083ff", "lat": 38.942962333333334, "is_reserved": 0, "fusion_lat": 0.0, "rental_uris": {"android": "https://dc.lft.to/lastmile_qr_scan", "ios": "https://dc.lft.to/lastmile_qr_scan"}, "fusion_lon": 0.0, "name": "6db910715f9bd9e9e381546b9ad083ff", "lon": -77.02169866666667, "is_disabled": 0, "type": "electric_scooter"}, {"bike_id": "9bb5fe36418200f2afaa70f25ad037ed", "lat": 38.8950035, "is_reserved": 0, "fusion_lat": 0.0, "rental_uris": {"android": "https://dc.lft.to/lastmile_qr_scan", "ios": "https://dc.lft.to/lastmile_qr_scan"}, "fusion_lon": 0.0, "name": "9bb5fe36418200f2afaa70f25ad037ed", "lon": -77.0109335, "is_disabled": 0, "type": "electric_scooter"}, {"bike_id": "2b654f7445b8a592dc8abae8dee20ca1", "lat": 38.88500716666667, "is_reserved": 0, "fusion_lat": 0.0, "rental_uris": {"android": "https://dc.lft.to/lastmile_qr_scan", "ios": "https://dc.lft.to/lastmile_qr_scan"}, "fusion_lon": 0.0, "name": "2b654f7445b8a592dc8abae8dee20ca1", "lon": -77.0089455, "is_disabled": 0, "type": "electric_scooter"}, {"bike_id": "d50b76031ef14c534ef8f678339cd537", "lat": 38.88719583333334, "is_reserved": 0, "fusion_lat": 0.0, "rental_uris": {"android": "https://dc.lft.to/lastmile_qr_scan", "ios": "https://dc.lft.to/lastmile_qr_scan"}, "fusion_lon": 0.0, "name": "d50b76031ef14c534ef8f678339cd537", "lon": -76.99632566666666, "is_disabled": 0, "type": "electric_scooter"}, {"bike_id": "0001f0d9b82f9f91c90957867e4d4373", "lat": 38.89834583333333, "is_reserved": 0, "fusion_lat": 0.0, "rental_uris": {"android": "https://dc.lft.to/lastmile_qr_scan", "ios": "https://dc.lft.to/lastmile_qr_scan"}, "fusion_lon": 0.0, "name": "0001f0d9b82f9f91c90957867e4d4373", "lon": -77.04438616666667, "is_disabled": 0, "type": "electric_scooter"}, {"bike_id": "55b41def5bbc751f93818b56f7c38275", "lat": 38.926276333333334, "is_reserved": 0, "fusion_lat": 0.0, "rental_uris": {"android": "https://dc.lft.to/lastmile_qr_scan", "ios": "https://dc.lft.to/lastmile_qr_scan"}, "fusion_lon": 0.0, "name": "55b41def5bbc751f93818b56f7c38275", "lon": -77.0422215, "is_disabled": 0, "type": "electric_scooter"}, {"bike_id": "68b8cd39843fda9320c3970c8abbfff9", "lat": 38.91119116666667, "is_reserved": 0, "fusion_lat": 0.0, "rental_uris": {"android": "https://dc.lft.to/lastmile_qr_scan", "ios": "https://dc.lft.to/lastmile_qr_scan"}, "fusion_lon": 0.0, "name": "68b8cd39843fda9320c3970c8abbfff9", "lon": -77.032889, "is_disabled": 0, "type": "electric_scooter"}, {"bike_id": "655141be709acc157c4a7daef5afca29", "lat": 38.907254, "is_reserved": 0, "fusion_lat": 0.0, "rental_uris": {"android": "https://dc.lft.to/lastmile_qr_scan", "ios": "https://dc.lft.to/lastmile_qr_scan"}, "fusion_lon": 0.0, "name": "655141be709acc157c4a7daef5afca29", "lon": -77.04080066666667, "is_disabled": 0, "type": "electric_scooter"}, {"bike_id": "254a224cabc6e2bf96a25d6bda26ab32", "lat": 38.8960795, "is_reserved": 0, "fusion_lat": 0.0, "rental_uris": {"android": "https://dc.lft.to/lastmile_qr_scan", "ios": "https://dc.lft.to/lastmile_qr_scan"}, "fusion_lon": 0.0, "name": "254a224cabc6e2bf96a25d6bda26ab32", "lon": -77.0264, "is_disabled": 0, "type": "electric_scooter"}, {"bike_id": "1fcc05a2873b1cc0e15b0f2206bd59bd", "lat": 38.9417355, "is_reserved": 0, "fusion_lat": 0.0, "rental_uris": {"android": "https://dc.lft.to/lastmile_qr_scan", "ios": "https://dc.lft.to/lastmile_qr_scan"}, "fusion_lon": 0.0, "name": "1fcc05a2873b1cc0e15b0f2206bd59bd", "lon": -76.992607, "is_disabled": 0, "type": "electric_bike"}, {"bike_id": "a24661eecd32c60bf7c090d44fc71396", "lat": 38.914008, "is_reserved": 0, "fusion_lat": 0.0, "rental_uris": {"android": "https://dc.lft.to/lastmile_qr_scan", "ios": "https://dc.lft.to/lastmile_qr_scan"}, "fusion_lon": 0.0, "name": "a24661eecd32c60bf7c090d44fc71396", "lon": -77.02379566666667, "is_disabled": 0, "type": "electric_scooter"}, {"bike_id": "70bf29a9cb7e99cddb000cbaf7cdfbab", "lat": 38.911097, "is_reserved": 0, "fusion_lat": 0.0, "rental_uris": {"android": "https://dc.lft.to/lastmile_qr_scan", "ios": "https://dc.lft.to/lastmile_qr_scan"}, "fusion_lon": 0.0, "name": "70bf29a9cb7e99cddb000cbaf7cdfbab", "lon": -77.043683, "is_disabled": 0, "type": "electric_scooter"}, {"bike_id": "17d15f40d7e4f09b8e8594d738451a1e", "lat": 38.874212166666666, "is_reserved": 0, "fusion_lat": 0.0, "rental_uris": {"android": "https://dc.lft.to/lastmile_qr_scan", "ios": "https://dc.lft.to/lastmile_qr_scan"}, "fusion_lon": 0.0, "name": "17d15f40d7e4f09b8e8594d738451a1e", "lon": -77.085763, "is_disabled": 0, "type": "electric_bike"}, {"bike_id": "533b100f7a3a93c5b0f1d04b934472f4", "lat": 38.92164566666667, "is_reserved": 0, "fusion_lat": 0.0, "rental_uris": {"android": "https://dc.lft.to/lastmile_qr_scan", "ios": "https://dc.lft.to/lastmile_qr_scan"}, "fusion_lon": 0.0, "name": "533b100f7a3a93c5b0f1d04b934472f4", "lon": -77.0209465, "is_disabled": 0, "type": "electric_scooter"}, {"bike_id": "567ae25be97e43e830d7c6a04800376d", "lat": 38.99228733333333, "is_reserved": 0, "fusion_lat": 0.0, "rental_uris": {"android": "https://dc.lft.to/lastmile_qr_scan", "ios": "https://dc.lft.to/lastmile_qr_scan"}, "fusion_lon": 0.0, "name": "567ae25be97e43e830d7c6a04800376d", "lon": -76.9444545, "is_disabled": 0, "type": "electric_bike"}, {"bike_id": "261a53e5b58b55ee9503a6c8e040eeec", "lat": 38.90564833333333, "is_reserved": 0, "fusion_lat": 0.0, "rental_uris": {"android": "https://dc.lft.to/lastmile_qr_scan", "ios": "https://dc.lft.to/lastmile_qr_scan"}, "fusion_lon": 0.0, "name": "261a53e5b58b55ee9503a6c8e040eeec", "lon": -77.0168365, "is_disabled": 0, "type": "electric_scooter"}, {"bike_id": "444c54d3ae02e2fead55909d55d5fc92", "lat": 38.854862833333335, "is_reserved": 0, "fusion_lat": 0.0, "rental_uris": {"android": "https://dc.lft.to/lastmile_qr_scan", "ios": "https://dc.lft.to/lastmile_qr_scan"}, "fusion_lon": 0.0, "name": "444c54d3ae02e2fead55909d55d5fc92", "lon": -77.11613583333333, "is_disabled": 0, "type": "electric_bike"}, {"bike_id": "83e2f0062c4613d15c89e4e6f1dc0c2f", "lat": 38.9052645, "is_reserved": 0, "fusion_lat": 0.0, "rental_uris": {"android": "https://dc.lft.to/lastmile_qr_scan", "ios": "https://dc.lft.to/lastmile_qr_scan"}, "fusion_lon": 0.0, "name": "83e2f0062c4613d15c89e4e6f1dc0c2f", "lon": -77.06609716666667, "is_disabled": 0, "type": "electric_scooter"}, {"bike_id": "8f38a19c61ed431abe18325bed77e2dc", "lat": 38.906912, "is_reserved": 0, "fusion_lat": 0.0, "rental_uris": {"android": "https://dc.lft.to/lastmile_qr_scan", "ios": "https://dc.lft.to/lastmile_qr_scan"}, "fusion_lon": 0.0, "name": "8f38a19c61ed431abe18325bed77e2dc", "lon": -77.02590016666667, "is_disabled": 0, "type": "electric_scooter"}, {"bike_id": "f3c9efce92588ae15968db348c08c28a", "lat": 38.85563366666667, "is_reserved": 0, "fusion_lat": 0.0, "rental_uris": {"android": "https://dc.lft.to/lastmile_qr_scan", "ios": "https://dc.lft.to/lastmile_qr_scan"}, "fusion_lon": 0.0, "name": "f3c9efce92588ae15968db348c08c28a", "lon": -77.11319483333334, "is_disabled": 0, "type": "electric_bike"}, {"bike_id": "672d8b1f748d92bde77ebeb12351702a", "lat": 38.92763216666667, "is_reserved": 0, "fusion_lat": 0.0, "rental_uris": {"android": "https://dc.lft.to/lastmile_qr_scan", "ios": "https://dc.lft.to/lastmile_qr_scan"}, "fusion_lon": 0.0, "name": "672d8b1f748d92bde77ebeb12351702a", "lon": -77.02734433333333, "is_disabled": 0, "type": "electric_scooter"}, {"bike_id": "15f6c06c0596ab4cb017ef32d4f837ae", "lat": 38.91566483333333, "is_reserved": 0, "fusion_lat": 0.0, "rental_uris": {"android": "https://dc.lft.to/lastmile_qr_scan", "ios": "https://dc.lft.to/lastmile_qr_scan"}, "fusion_lon": 0.0, "name": "15f6c06c0596ab4cb017ef32d4f837ae", "lon": -77.0383425, "is_disabled": 0, "type": "electric_scooter"}, {"bike_id": "751aae7ffb25b65d4e178c925ea8ba2e", "lat": 38.907562666666664, "is_reserved": 0, "fusion_lat": 0.0, "rental_uris": {"android": "https://dc.lft.to/lastmile_qr_scan", "ios": "https://dc.lft.to/lastmile_qr_scan"}, "fusion_lon": 0.0, "name": "751aae7ffb25b65d4e178c925ea8ba2e", "lon": -77.041572, "is_disabled": 0, "type": "electric_scooter"}, {"bike_id": "8754c2fac04e5f3f07b5e9e4e8b52787", "lat": 38.917094, "is_reserved": 0, "fusion_lat": 0.0, "rental_uris": {"android": "https://dc.lft.to/lastmile_qr_scan", "ios": "https://dc.lft.to/lastmile_qr_scan"}, "fusion_lon": 0.0, "name": "8754c2fac04e5f3f07b5e9e4e8b52787", "lon": -77.02555666666666, "is_disabled": 0, "type": "electric_scooter"}, {"bike_id": "a4023b2341acca04c87f955e026b183c", "lat": 38.914048, "is_reserved": 0, "fusion_lat": 0.0, "rental_uris": {"android": "https://dc.lft.to/lastmile_qr_scan", "ios": "https://dc.lft.to/lastmile_qr_scan"}, "fusion_lon": 0.0, "name": "a4023b2341acca04c87f955e026b183c", "lon": -77.02009, "is_disabled": 0, "type": "electric_scooter"}, {"bike_id": "e3bb13c49ad05c91d3e9d9a55c45f945", "lat": 38.88974733333333, "is_reserved": 0, "fusion_lat": 0.0, "rental_uris": {"android": "https://dc.lft.to/lastmile_qr_scan", "ios": "https://dc.lft.to/lastmile_qr_scan"}, "fusion_lon": 0.0, "name": "e3bb13c49ad05c91d3e9d9a55c45f945", "lon": -76.9993645, "is_disabled": 0, "type": "electric_scooter"}, {"bike_id": "b0fcef57fa596033afe2291ec2f20d6a", "lat": 38.929604499999996, "is_reserved": 0, "fusion_lat": 0.0, "rental_uris": {"android": "https://dc.lft.to/lastmile_qr_scan", "ios": "https://dc.lft.to/lastmile_qr_scan"}, "fusion_lon": 0.0, "name": "b0fcef57fa596033afe2291ec2f20d6a", "lon": -77.011492, "is_disabled": 0, "type": "electric_scooter"}, {"bike_id": "1528200ccec25a33666317d914a0da33", "lat": 38.905679666666664, "is_reserved": 0, "fusion_lat": 0.0, "rental_uris": {"android": "https://dc.lft.to/lastmile_qr_scan", "ios": "https://dc.lft.to/lastmile_qr_scan"}, "fusion_lon": 0.0, "name": "1528200ccec25a33666317d914a0da33", "lon": -77.02530716666666, "is_disabled": 0, "type": "electric_scooter"}, {"bike_id": "11758db5dd2c45ac437a0315aa827f09", "lat": 38.9432985, "is_reserved": 0, "fusion_lat": 0.0, "rental_uris": {"android": "https://dc.lft.to/lastmile_qr_scan", "ios": "https://dc.lft.to/lastmile_qr_scan"}, "fusion_lon": 0.0, "name": "11758db5dd2c45ac437a0315aa827f09", "lon": -77.06291283333333, "is_disabled": 0, "type": "electric_scooter"}, {"bike_id": "0c7e4bbfd5f1d2d3a5a2800058c0f98a", "lat": 38.84145783333334, "is_reserved": 0, "fusion_lat": 0.0, "rental_uris": {"android": "https://dc.lft.to/lastmile_qr_scan", "ios": "https://dc.lft.to/lastmile_qr_scan"}, "fusion_lon": 0.0, "name": "0c7e4bbfd5f1d2d3a5a2800058c0f98a", "lon": -77.11468366666666, "is_disabled": 0, "type": "electric_bike"}, {"bike_id": "86f6bb24e859e81dc25911cc3b483175", "lat": 39.052793, "is_reserved": 0, "fusion_lat": 0.0, "rental_uris": {"android": "https://dc.lft.to/lastmile_qr_scan", "ios": "https://dc.lft.to/lastmile_qr_scan"}, "fusion_lon": 0.0, "name": "86f6bb24e859e81dc25911cc3b483175", "lon": -77.08070933333333, "is_disabled": 0, "type": "electric_bike"}, {"bike_id": "bcb566a28a282ce1150a3c5f2e013541", "lat": 38.894955833333334, "is_reserved": 0, "fusion_lat": 0.0, "rental_uris": {"android": "https://dc.lft.to/lastmile_qr_scan", "ios": "https://dc.lft.to/lastmile_qr_scan"}, "fusion_lon": 0.0, "name": "bcb566a28a282ce1150a3c5f2e013541", "lon": -77.02290416666666, "is_disabled": 0, "type": "electric_scooter"}, {"bike_id": "929faf3c899fde637f4c882ece5fb85a", "lat": 38.9150745, "is_reserved": 0, "fusion_lat": 0.0, "rental_uris": {"android": "https://dc.lft.to/lastmile_qr_scan", "ios": "https://dc.lft.to/lastmile_qr_scan"}, "fusion_lon": 0.0, "name": "929faf3c899fde637f4c882ece5fb85a", "lon": -77.04490183333333, "is_disabled": 0, "type": "electric_scooter"}, {"bike_id": "fb2f59b33fce4e7381230f85d3978846", "lat": 38.90506583333333, "is_reserved": 0, "fusion_lat": 0.0, "rental_uris": {"android": "https://dc.lft.to/lastmile_qr_scan", "ios": "https://dc.lft.to/lastmile_qr_scan"}, "fusion_lon": 0.0, "name": "fb2f59b33fce4e7381230f85d3978846", "lon": -77.064672, "is_disabled": 0, "type": "electric_scooter"}, {"bike_id": "cacf100485de5160f84ed08576d3aa73", "lat": 38.899598, "is_reserved": 0, "fusion_lat": 0.0, "rental_uris": {"android": "https://dc.lft.to/lastmile_qr_scan", "ios": "https://dc.lft.to/lastmile_qr_scan"}, "fusion_lon": 0.0, "name": "cacf100485de5160f84ed08576d3aa73", "lon": -77.0477795, "is_disabled": 0, "type": "electric_scooter"}, {"bike_id": "c93ee73b34a45ad5f60687537041bb86", "lat": 38.87362266666667, "is_reserved": 0, "fusion_lat": 0.0, "rental_uris": {"android": "https://dc.lft.to/lastmile_qr_scan", "ios": "https://dc.lft.to/lastmile_qr_scan"}, "fusion_lon": 0.0, "name": "c93ee73b34a45ad5f60687537041bb86", "lon": -76.9703395, "is_disabled": 0, "type": "electric_scooter"}, {"bike_id": "ce5ef1bda1f637102da08cfa1fe02dcc", "lat": 38.907213666666664, "is_reserved": 0, "fusion_lat": 0.0, "rental_uris": {"android": "https://dc.lft.to/lastmile_qr_scan", "ios": "https://dc.lft.to/lastmile_qr_scan"}, "fusion_lon": 0.0, "name": "ce5ef1bda1f637102da08cfa1fe02dcc", "lon": -77.03266866666667, "is_disabled": 0, "type": "electric_scooter"}, {"bike_id": "dcf93e5a005fdd41ff2d0aac5a76af92", "lat": 38.881183666666665, "is_reserved": 0, "fusion_lat": 0.0, "rental_uris": {"android": "https://dc.lft.to/lastmile_qr_scan", "ios": "https://dc.lft.to/lastmile_qr_scan"}, "fusion_lon": 0.0, "name": "dcf93e5a005fdd41ff2d0aac5a76af92", "lon": -77.00172933333333, "is_disabled": 0, "type": "electric_scooter"}, {"bike_id": "fa53d6a5968ff2b18b452da7c9a4f399", "lat": 38.91823816666667, "is_reserved": 0, "fusion_lat": 0.0, "rental_uris": {"android": "https://dc.lft.to/lastmile_qr_scan", "ios": "https://dc.lft.to/lastmile_qr_scan"}, "fusion_lon": 0.0, "name": "fa53d6a5968ff2b18b452da7c9a4f399", "lon": -77.04943483333334, "is_disabled": 0, "type": "electric_scooter"}, {"bike_id": "c1c7a71049f031e62aaa67d91ecf119f", "lat": 38.93340283333333, "is_reserved": 0, "fusion_lat": 0.0, "rental_uris": {"android": "https://dc.lft.to/lastmile_qr_scan", "ios": "https://dc.lft.to/lastmile_qr_scan"}, "fusion_lon": 0.0, "name": "c1c7a71049f031e62aaa67d91ecf119f", "lon": -77.020619, "is_disabled": 0, "type": "electric_scooter"}, {"bike_id": "273e2e32e534c2f448aa6a151b94860d", "lat": 38.874620666666665, "is_reserved": 0, "fusion_lat": 0.0, "rental_uris": {"android": "https://dc.lft.to/lastmile_qr_scan", "ios": "https://dc.lft.to/lastmile_qr_scan"}, "fusion_lon": 0.0, "name": "273e2e32e534c2f448aa6a151b94860d", "lon": -77.00498733333333, "is_disabled": 0, "type": "electric_scooter"}, {"bike_id": "5115ea4e27ebae9e53b3e8c38ba40dad", "lat": 38.89629633333333, "is_reserved": 0, "fusion_lat": 0.0, "rental_uris": {"android": "https://dc.lft.to/lastmile_qr_scan", "ios": "https://dc.lft.to/lastmile_qr_scan"}, "fusion_lon": 0.0, "name": "5115ea4e27ebae9e53b3e8c38ba40dad", "lon": -77.00345866666666, "is_disabled": 0, "type": "electric_scooter"}, {"bike_id": "563ffbbe8693c63527748bc3fbddb01b", "lat": 38.867049, "is_reserved": 0, "fusion_lat": 0.0, "rental_uris": {"android": "https://dc.lft.to/lastmile_qr_scan", "ios": "https://dc.lft.to/lastmile_qr_scan"}, "fusion_lon": 0.0, "name": "563ffbbe8693c63527748bc3fbddb01b", "lon": -76.98715833333333, "is_disabled": 0, "type": "electric_scooter"}, {"bike_id": "9c18e8550590040413de197deac33028", "lat": 38.93576383333333, "is_reserved": 0, "fusion_lat": 0.0, "rental_uris": {"android": "https://dc.lft.to/lastmile_qr_scan", "ios": "https://dc.lft.to/lastmile_qr_scan"}, "fusion_lon": 0.0, "name": "9c18e8550590040413de197deac33028", "lon": -77.01979766666666, "is_disabled": 0, "type": "electric_scooter"}, {"bike_id": "3949424e643ca87bed0295f23800be80", "lat": 38.92175966666667, "is_reserved": 0, "fusion_lat": 0.0, "rental_uris": {"android": "https://dc.lft.to/lastmile_qr_scan", "ios": "https://dc.lft.to/lastmile_qr_scan"}, "fusion_lon": 0.0, "name": "3949424e643ca87bed0295f23800be80", "lon": -77.02106316666666, "is_disabled": 0, "type": "electric_scooter"}, {"bike_id": "3ccf114290b36dc4f1916034584903c7", "lat": 38.81512133333333, "is_reserved": 0, "fusion_lat": 0.0, "rental_uris": {"android": "https://dc.lft.to/lastmile_qr_scan", "ios": "https://dc.lft.to/lastmile_qr_scan"}, "fusion_lon": 0.0, "name": "3ccf114290b36dc4f1916034584903c7", "lon": -77.126567, "is_disabled": 0, "type": "electric_bike"}, {"bike_id": "107f3fa2d3ae652a9268e8d574ad5d24", "lat": 38.90406433333333, "is_reserved": 0, "fusion_lat": 0.0, "rental_uris": {"android": "https://dc.lft.to/lastmile_qr_scan", "ios": "https://dc.lft.to/lastmile_qr_scan"}, "fusion_lon": 0.0, "name": "107f3fa2d3ae652a9268e8d574ad5d24", "lon": -77.0249415, "is_disabled": 0, "type": "electric_scooter"}, {"bike_id": "62ecafdf9724cc00a40d294ecf91a63f", "lat": 38.897327, "is_reserved": 0, "fusion_lat": 0.0, "rental_uris": {"android": "https://dc.lft.to/lastmile_qr_scan", "ios": "https://dc.lft.to/lastmile_qr_scan"}, "fusion_lon": 0.0, "name": "62ecafdf9724cc00a40d294ecf91a63f", "lon": -77.0272335, "is_disabled": 0, "type": "electric_scooter"}, {"bike_id": "eccc42072e61c695fc804060e0048cfc", "lat": 38.914184, "is_reserved": 0, "fusion_lat": 0.0, "rental_uris": {"android": "https://dc.lft.to/lastmile_qr_scan", "ios": "https://dc.lft.to/lastmile_qr_scan"}, "fusion_lon": 0.0, "name": "eccc42072e61c695fc804060e0048cfc", "lon": -77.01800883333334, "is_disabled": 0, "type": "electric_scooter"}, {"bike_id": "6f189ea40b177d1f9265b697462158cd", "lat": 38.912707, "is_reserved": 0, "fusion_lat": 0.0, "rental_uris": {"android": "https://dc.lft.to/lastmile_qr_scan", "ios": "https://dc.lft.to/lastmile_qr_scan"}, "fusion_lon": 0.0, "name": "6f189ea40b177d1f9265b697462158cd", "lon": -77.04495916666667, "is_disabled": 0, "type": "electric_scooter"}, {"bike_id": "347b87b7836d494456713d76399a521d", "lat": 38.8730875, "is_reserved": 0, "fusion_lat": 0.0, "rental_uris": {"android": "https://dc.lft.to/lastmile_qr_scan", "ios": "https://dc.lft.to/lastmile_qr_scan"}, "fusion_lon": 0.0, "name": "347b87b7836d494456713d76399a521d", "lon": -77.0014995, "is_disabled": 0, "type": "electric_scooter"}, {"bike_id": "409c50722c6e9fbc8023a81c99762d51", "lat": 38.92390533333333, "is_reserved": 0, "fusion_lat": 0.0, "rental_uris": {"android": "https://dc.lft.to/lastmile_qr_scan", "ios": "https://dc.lft.to/lastmile_qr_scan"}, "fusion_lon": 0.0, "name": "409c50722c6e9fbc8023a81c99762d51", "lon": -77.04450916666667, "is_disabled": 0, "type": "electric_scooter"}, {"bike_id": "7a449ce9fe97d7a24a580cd663310d31", "lat": 38.923297, "is_reserved": 0, "fusion_lat": 0.0, "rental_uris": {"android": "https://dc.lft.to/lastmile_qr_scan", "ios": "https://dc.lft.to/lastmile_qr_scan"}, "fusion_lon": 0.0, "name": "7a449ce9fe97d7a24a580cd663310d31", "lon": -77.05417116666666, "is_disabled": 0, "type": "electric_scooter"}, {"bike_id": "b6600c37f5f673d7c942eed13cfb64b0", "lat": 38.924527166666664, "is_reserved": 0, "fusion_lat": 0.0, "rental_uris": {"android": "https://dc.lft.to/lastmile_qr_scan", "ios": "https://dc.lft.to/lastmile_qr_scan"}, "fusion_lon": 0.0, "name": "b6600c37f5f673d7c942eed13cfb64b0", "lon": -77.0334305, "is_disabled": 0, "type": "electric_scooter"}, {"bike_id": "af0bc851f001f0631bd0ebfa84678c4c", "lat": 38.796087, "is_reserved": 0, "fusion_lat": 0.0, "rental_uris": {"android": "https://dc.lft.to/lastmile_qr_scan", "ios": "https://dc.lft.to/lastmile_qr_scan"}, "fusion_lon": 0.0, "name": "af0bc851f001f0631bd0ebfa84678c4c", "lon": -76.99746316666666, "is_disabled": 0, "type": "electric_bike"}, {"bike_id": "9181f68f0ff3c56b97de86628d3f43a4", "lat": 38.9072035, "is_reserved": 0, "fusion_lat": 0.0, "rental_uris": {"android": "https://dc.lft.to/lastmile_qr_scan", "ios": "https://dc.lft.to/lastmile_qr_scan"}, "fusion_lon": 0.0, "name": "9181f68f0ff3c56b97de86628d3f43a4", "lon": -77.02171916666667, "is_disabled": 0, "type": "electric_scooter"}, {"bike_id": "ff44182ba323dec2868db71cf53fb571", "lat": 38.89865183333333, "is_reserved": 0, "fusion_lat": 0.0, "rental_uris": {"android": "https://dc.lft.to/lastmile_qr_scan", "ios": "https://dc.lft.to/lastmile_qr_scan"}, "fusion_lon": 0.0, "name": "ff44182ba323dec2868db71cf53fb571", "lon": -76.9463985, "is_disabled": 0, "type": "electric_scooter"}, {"bike_id": "d3821a1ae9b6abd31dfb4bb8cd1d977e", "lat": 38.918461666666666, "is_reserved": 0, "fusion_lat": 0.0, "rental_uris": {"android": "https://dc.lft.to/lastmile_qr_scan", "ios": "https://dc.lft.to/lastmile_qr_scan"}, "fusion_lon": 0.0, "name": "d3821a1ae9b6abd31dfb4bb8cd1d977e", "lon": -77.03187583333333, "is_disabled": 0, "type": "electric_scooter"}, {"bike_id": "4a153eef9a85b54d1bf1b5aee4394bd5", "lat": 38.887546, "is_reserved": 0, "fusion_lat": 0.0, "rental_uris": {"android": "https://dc.lft.to/lastmile_qr_scan", "ios": "https://dc.lft.to/lastmile_qr_scan"}, "fusion_lon": 0.0, "name": "4a153eef9a85b54d1bf1b5aee4394bd5", "lon": -76.90086333333333, "is_disabled": 0, "type": "electric_bike"}, {"bike_id": "5cce6ece968253634a7889ee1ed3595e", "lat": 38.91563683333333, "is_reserved": 0, "fusion_lat": 0.0, "rental_uris": {"android": "https://dc.lft.to/lastmile_qr_scan", "ios": "https://dc.lft.to/lastmile_qr_scan"}, "fusion_lon": 0.0, "name": "5cce6ece968253634a7889ee1ed3595e", "lon": -77.0333515, "is_disabled": 0, "type": "electric_scooter"}, {"bike_id": "05daca481c99208f8e59466e35c82c3d", "lat": 38.901417, "is_reserved": 0, "fusion_lat": 0.0, "rental_uris": {"android": "https://dc.lft.to/lastmile_qr_scan", "ios": "https://dc.lft.to/lastmile_qr_scan"}, "fusion_lon": 0.0, "name": "05daca481c99208f8e59466e35c82c3d", "lon": -76.99162633333333, "is_disabled": 0, "type": "electric_scooter"}, {"bike_id": "bde4709dbce8e0660cc92704f5ac6310", "lat": 38.928263666666666, "is_reserved": 0, "fusion_lat": 0.0, "rental_uris": {"android": "https://dc.lft.to/lastmile_qr_scan", "ios": "https://dc.lft.to/lastmile_qr_scan"}, "fusion_lon": 0.0, "name": "bde4709dbce8e0660cc92704f5ac6310", "lon": -77.014017, "is_disabled": 0, "type": "electric_scooter"}, {"bike_id": "7b650de152ca327e54938aa9bc170568", "lat": 38.905611, "is_reserved": 0, "fusion_lat": 0.0, "rental_uris": {"android": "https://dc.lft.to/lastmile_qr_scan", "ios": "https://dc.lft.to/lastmile_qr_scan"}, "fusion_lon": 0.0, "name": "7b650de152ca327e54938aa9bc170568", "lon": -77.02723416666667, "is_disabled": 0, "type": "electric_scooter"}, {"bike_id": "f080a6d03c1befcf8cfc6e4543a01201", "lat": 38.913850833333335, "is_reserved": 0, "fusion_lat": 0.0, "rental_uris": {"android": "https://dc.lft.to/lastmile_qr_scan", "ios": "https://dc.lft.to/lastmile_qr_scan"}, "fusion_lon": 0.0, "name": "f080a6d03c1befcf8cfc6e4543a01201", "lon": -77.01705816666667, "is_disabled": 0, "type": "electric_scooter"}, {"bike_id": "95288619117e2a6c3b052d0b0b25915c", "lat": 38.92736433333334, "is_reserved": 0, "fusion_lat": 0.0, "rental_uris": {"android": "https://dc.lft.to/lastmile_qr_scan", "ios": "https://dc.lft.to/lastmile_qr_scan"}, "fusion_lon": 0.0, "name": "95288619117e2a6c3b052d0b0b25915c", "lon": -77.03435216666666, "is_disabled": 0, "type": "electric_scooter"}, {"bike_id": "b124d71f5678ce6a9512711f09897caa", "lat": 38.87649033333334, "is_reserved": 0, "fusion_lat": 0.0, "rental_uris": {"android": "https://dc.lft.to/lastmile_qr_scan", "ios": "https://dc.lft.to/lastmile_qr_scan"}, "fusion_lon": 0.0, "name": "b124d71f5678ce6a9512711f09897caa", "lon": -76.96506616666667, "is_disabled": 0, "type": "electric_scooter"}, {"bike_id": "4569261bf238e9e404a4c87694ded991", "lat": 38.908633333333334, "is_reserved": 0, "fusion_lat": 0.0, "rental_uris": {"android": "https://dc.lft.to/lastmile_qr_scan", "ios": "https://dc.lft.to/lastmile_qr_scan"}, "fusion_lon": 0.0, "name": "4569261bf238e9e404a4c87694ded991", "lon": -76.99133133333333, "is_disabled": 0, "type": "electric_bike"}, {"bike_id": "a95cfc9a21490f05c1cc3f2285fa6d89", "lat": 38.90732766666667, "is_reserved": 0, "fusion_lat": 0.0, "rental_uris": {"android": "https://dc.lft.to/lastmile_qr_scan", "ios": "https://dc.lft.to/lastmile_qr_scan"}, "fusion_lon": 0.0, "name": "a95cfc9a21490f05c1cc3f2285fa6d89", "lon": -77.0237945, "is_disabled": 0, "type": "electric_scooter"}, {"bike_id": "75a0336859d0b37f57c8b29070c338c1", "lat": 38.907668666666666, "is_reserved": 0, "fusion_lat": 0.0, "rental_uris": {"android": "https://dc.lft.to/lastmile_qr_scan", "ios": "https://dc.lft.to/lastmile_qr_scan"}, "fusion_lon": 0.0, "name": "75a0336859d0b37f57c8b29070c338c1", "lon": -77.03468116666667, "is_disabled": 0, "type": "electric_scooter"}, {"bike_id": "3f8ac84db87d96cd36acd1131cb69838", "lat": 38.904302, "is_reserved": 0, "fusion_lat": 0.0, "rental_uris": {"android": "https://dc.lft.to/lastmile_qr_scan", "ios": "https://dc.lft.to/lastmile_qr_scan"}, "fusion_lon": 0.0, "name": "3f8ac84db87d96cd36acd1131cb69838", "lon": -77.04654916666667, "is_disabled": 0, "type": "electric_scooter"}, {"bike_id": "2e98d18cd538e580cf3fdbd1dc5b039f", "lat": 38.97202516666667, "is_reserved": 0, "fusion_lat": 0.0, "rental_uris": {"android": "https://dc.lft.to/lastmile_qr_scan", "ios": "https://dc.lft.to/lastmile_qr_scan"}, "fusion_lon": 0.0, "name": "2e98d18cd538e580cf3fdbd1dc5b039f", "lon": -77.02658183333334, "is_disabled": 0, "type": "electric_scooter"}, {"bike_id": "f2a759fbda2ceab932ac44fa6da3e217", "lat": 38.884822, "is_reserved": 0, "fusion_lat": 0.0, "rental_uris": {"android": "https://dc.lft.to/lastmile_qr_scan", "ios": "https://dc.lft.to/lastmile_qr_scan"}, "fusion_lon": 0.0, "name": "f2a759fbda2ceab932ac44fa6da3e217", "lon": -77.12774466666667, "is_disabled": 0, "type": "electric_bike"}, {"bike_id": "6212b71bb19cb6f08018b22846dd07a4", "lat": 38.897001, "is_reserved": 0, "fusion_lat": 0.0, "rental_uris": {"android": "https://dc.lft.to/lastmile_qr_scan", "ios": "https://dc.lft.to/lastmile_qr_scan"}, "fusion_lon": 0.0, "name": "6212b71bb19cb6f08018b22846dd07a4", "lon": -77.02292966666667, "is_disabled": 0, "type": "electric_scooter"}, {"bike_id": "6d0b2d5f9bd1e1cfe9783411338872b2", "lat": 38.86634033333333, "is_reserved": 0, "fusion_lat": 0.0, "rental_uris": {"android": "https://dc.lft.to/lastmile_qr_scan", "ios": "https://dc.lft.to/lastmile_qr_scan"}, "fusion_lon": 0.0, "name": "6d0b2d5f9bd1e1cfe9783411338872b2", "lon": -76.98725783333333, "is_disabled": 0, "type": "electric_scooter"}, {"bike_id": "f81882c000277a044bf65e8db899b04d", "lat": 38.9073035, "is_reserved": 0, "fusion_lat": 0.0, "rental_uris": {"android": "https://dc.lft.to/lastmile_qr_scan", "ios": "https://dc.lft.to/lastmile_qr_scan"}, "fusion_lon": 0.0, "name": "f81882c000277a044bf65e8db899b04d", "lon": -77.02518216666667, "is_disabled": 0, "type": "electric_scooter"}, {"bike_id": "2a0461768ca320d4fd011a39f72807b4", "lat": 38.933606166666664, "is_reserved": 0, "fusion_lat": 0.0, "rental_uris": {"android": "https://dc.lft.to/lastmile_qr_scan", "ios": "https://dc.lft.to/lastmile_qr_scan"}, "fusion_lon": 0.0, "name": "2a0461768ca320d4fd011a39f72807b4", "lon": -77.088585, "is_disabled": 0, "type": "electric_scooter"}, {"bike_id": "87b121f6d4e00654e953d55e12a47eb6", "lat": 38.903398, "is_reserved": 0, "fusion_lat": 0.0, "rental_uris": {"android": "https://dc.lft.to/lastmile_qr_scan", "ios": "https://dc.lft.to/lastmile_qr_scan"}, "fusion_lon": 0.0, "name": "87b121f6d4e00654e953d55e12a47eb6", "lon": -77.03829, "is_disabled": 0, "type": "electric_scooter"}, {"bike_id": "799e8b97624c7d2a9d1e9a07ef596473", "lat": 38.887266833333335, "is_reserved": 0, "fusion_lat": 0.0, "rental_uris": {"android": "https://dc.lft.to/lastmile_qr_scan", "ios": "https://dc.lft.to/lastmile_qr_scan"}, "fusion_lon": 0.0, "name": "799e8b97624c7d2a9d1e9a07ef596473", "lon": -77.02199566666667, "is_disabled": 0, "type": "electric_scooter"}, {"bike_id": "6e2b5286ef06d6cf9d3aad1cd6b5563a", "lat": 38.90795133333334, "is_reserved": 0, "fusion_lat": 0.0, "rental_uris": {"android": "https://dc.lft.to/lastmile_qr_scan", "ios": "https://dc.lft.to/lastmile_qr_scan"}, "fusion_lon": 0.0, "name": "6e2b5286ef06d6cf9d3aad1cd6b5563a", "lon": -77.0343295, "is_disabled": 0, "type": "electric_scooter"}, {"bike_id": "57c552278fe4bc5a331f5e60c018a81a", "lat": 38.913363333333336, "is_reserved": 0, "fusion_lat": 0.0, "rental_uris": {"android": "https://dc.lft.to/lastmile_qr_scan", "ios": "https://dc.lft.to/lastmile_qr_scan"}, "fusion_lon": 0.0, "name": "57c552278fe4bc5a331f5e60c018a81a", "lon": -77.0319795, "is_disabled": 0, "type": "electric_scooter"}, {"bike_id": "c9850835ae0bcdc4b4d249d6b277780d", "lat": 38.900311333333335, "is_reserved": 0, "fusion_lat": 0.0, "rental_uris": {"android": "https://dc.lft.to/lastmile_qr_scan", "ios": "https://dc.lft.to/lastmile_qr_scan"}, "fusion_lon": 0.0, "name": "c9850835ae0bcdc4b4d249d6b277780d", "lon": -77.01192533333334, "is_disabled": 0, "type": "electric_scooter"}, {"bike_id": "e7a0ef3cb9e660d13d9df63effea8f1b", "lat": 38.90830866666667, "is_reserved": 0, "fusion_lat": 0.0, "rental_uris": {"android": "https://dc.lft.to/lastmile_qr_scan", "ios": "https://dc.lft.to/lastmile_qr_scan"}, "fusion_lon": 0.0, "name": "e7a0ef3cb9e660d13d9df63effea8f1b", "lon": -76.99698283333333, "is_disabled": 0, "type": "electric_scooter"}, {"bike_id": "b9fba37a4bbeec16f7ab7b6da6e8f5e8", "lat": 38.922571833333336, "is_reserved": 0, "fusion_lat": 0.0, "rental_uris": {"android": "https://dc.lft.to/lastmile_qr_scan", "ios": "https://dc.lft.to/lastmile_qr_scan"}, "fusion_lon": 0.0, "name": "b9fba37a4bbeec16f7ab7b6da6e8f5e8", "lon": -77.01951183333334, "is_disabled": 0, "type": "electric_scooter"}, {"bike_id": "3a558bdee3936fa58f66161f05c2c31d", "lat": 38.92402383333334, "is_reserved": 0, "fusion_lat": 0.0, "rental_uris": {"android": "https://dc.lft.to/lastmile_qr_scan", "ios": "https://dc.lft.to/lastmile_qr_scan"}, "fusion_lon": 0.0, "name": "3a558bdee3936fa58f66161f05c2c31d", "lon": -77.025528, "is_disabled": 0, "type": "electric_scooter"}, {"bike_id": "1db9a24e9286a708270f85ef0ef88b13", "lat": 38.9307985, "is_reserved": 0, "fusion_lat": 0.0, "rental_uris": {"android": "https://dc.lft.to/lastmile_qr_scan", "ios": "https://dc.lft.to/lastmile_qr_scan"}, "fusion_lon": 0.0, "name": "1db9a24e9286a708270f85ef0ef88b13", "lon": -77.02799616666667, "is_disabled": 0, "type": "electric_scooter"}, {"bike_id": "5028214a5bd30c78cbfa6a1504359fe9", "lat": 38.9154985, "is_reserved": 0, "fusion_lat": 0.0, "rental_uris": {"android": "https://dc.lft.to/lastmile_qr_scan", "ios": "https://dc.lft.to/lastmile_qr_scan"}, "fusion_lon": 0.0, "name": "5028214a5bd30c78cbfa6a1504359fe9", "lon": -77.06674066666666, "is_disabled": 0, "type": "electric_bike"}, {"bike_id": "29dd9ed3535db631441a05c964a826aa", "lat": 38.902541666666664, "is_reserved": 0, "fusion_lat": 0.0, "rental_uris": {"android": "https://dc.lft.to/lastmile_qr_scan", "ios": "https://dc.lft.to/lastmile_qr_scan"}, "fusion_lon": 0.0, "name": "29dd9ed3535db631441a05c964a826aa", "lon": -77.03269683333333, "is_disabled": 0, "type": "electric_scooter"}, {"bike_id": "3ec20c9d6bb5cc96af71de9d8b357fef", "lat": 38.900085833333335, "is_reserved": 0, "fusion_lat": 0.0, "rental_uris": {"android": "https://dc.lft.to/lastmile_qr_scan", "ios": "https://dc.lft.to/lastmile_qr_scan"}, "fusion_lon": 0.0, "name": "3ec20c9d6bb5cc96af71de9d8b357fef", "lon": -77.04045666666667, "is_disabled": 0, "type": "electric_scooter"}, {"bike_id": "8102debdaf0ebb512353ad7b1e6ae2b1", "lat": 38.90259483333333, "is_reserved": 0, "fusion_lat": 0.0, "rental_uris": {"android": "https://dc.lft.to/lastmile_qr_scan", "ios": "https://dc.lft.to/lastmile_qr_scan"}, "fusion_lon": 0.0, "name": "8102debdaf0ebb512353ad7b1e6ae2b1", "lon": -77.039501, "is_disabled": 0, "type": "electric_scooter"}, {"bike_id": "7ec55b3f0f71be6429f839fca02733d3", "lat": 38.915619, "is_reserved": 0, "fusion_lat": 0.0, "rental_uris": {"android": "https://dc.lft.to/lastmile_qr_scan", "ios": "https://dc.lft.to/lastmile_qr_scan"}, "fusion_lon": 0.0, "name": "7ec55b3f0f71be6429f839fca02733d3", "lon": -77.01047883333334, "is_disabled": 0, "type": "electric_scooter"}, {"bike_id": "8e33cb99c50b9f81c45cc7d793dea6a7", "lat": 38.905635, "is_reserved": 0, "fusion_lat": 0.0, "rental_uris": {"android": "https://dc.lft.to/lastmile_qr_scan", "ios": "https://dc.lft.to/lastmile_qr_scan"}, "fusion_lon": 0.0, "name": "8e33cb99c50b9f81c45cc7d793dea6a7", "lon": -77.05016216666667, "is_disabled": 0, "type": "electric_scooter"}, {"bike_id": "036a598869ae9f0c24b61aec925ee85c", "lat": 38.91553316666667, "is_reserved": 0, "fusion_lat": 0.0, "rental_uris": {"android": "https://dc.lft.to/lastmile_qr_scan", "ios": "https://dc.lft.to/lastmile_qr_scan"}, "fusion_lon": 0.0, "name": "036a598869ae9f0c24b61aec925ee85c", "lon": -77.04454516666667, "is_disabled": 0, "type": "electric_scooter"}, {"bike_id": "758e656e57b9db779504eddba0b5e3c6", "lat": 38.894262, "is_reserved": 0, "fusion_lat": 0.0, "rental_uris": {"android": "https://dc.lft.to/lastmile_qr_scan", "ios": "https://dc.lft.to/lastmile_qr_scan"}, "fusion_lon": 0.0, "name": "758e656e57b9db779504eddba0b5e3c6", "lon": -77.0396825, "is_disabled": 0, "type": "electric_scooter"}, {"bike_id": "cf27c27bfbf480bcf7c7d64dbe649e16", "lat": 38.94918966666667, "is_reserved": 0, "fusion_lat": 0.0, "rental_uris": {"android": "https://dc.lft.to/lastmile_qr_scan", "ios": "https://dc.lft.to/lastmile_qr_scan"}, "fusion_lon": 0.0, "name": "cf27c27bfbf480bcf7c7d64dbe649e16", "lon": -77.018593, "is_disabled": 0, "type": "electric_scooter"}, {"bike_id": "1b1e8a7b40af6ca1b40c79571e68d985", "lat": 38.915421333333335, "is_reserved": 0, "fusion_lat": 0.0, "rental_uris": {"android": "https://dc.lft.to/lastmile_qr_scan", "ios": "https://dc.lft.to/lastmile_qr_scan"}, "fusion_lon": 0.0, "name": "1b1e8a7b40af6ca1b40c79571e68d985", "lon": -77.03210483333334, "is_disabled": 0, "type": "electric_scooter"}, {"bike_id": "1987ad7e20282ad63f413b403eb749f3", "lat": 38.897277333333335, "is_reserved": 0, "fusion_lat": 0.0, "rental_uris": {"android": "https://dc.lft.to/lastmile_qr_scan", "ios": "https://dc.lft.to/lastmile_qr_scan"}, "fusion_lon": 0.0, "name": "1987ad7e20282ad63f413b403eb749f3", "lon": -77.02686716666666, "is_disabled": 0, "type": "electric_scooter"}, {"bike_id": "938dc7d9cda3fa985f715158d06633da", "lat": 38.9075305, "is_reserved": 0, "fusion_lat": 0.0, "rental_uris": {"android": "https://dc.lft.to/lastmile_qr_scan", "ios": "https://dc.lft.to/lastmile_qr_scan"}, "fusion_lon": 0.0, "name": "938dc7d9cda3fa985f715158d06633da", "lon": -77.0025905, "is_disabled": 0, "type": "electric_scooter"}, {"bike_id": "555f8533a4cce980f74c0f852ae75b55", "lat": 38.897254, "is_reserved": 0, "fusion_lat": 0.0, "rental_uris": {"android": "https://dc.lft.to/lastmile_qr_scan", "ios": "https://dc.lft.to/lastmile_qr_scan"}, "fusion_lon": 0.0, "name": "555f8533a4cce980f74c0f852ae75b55", "lon": -77.0303945, "is_disabled": 0, "type": "electric_scooter"}, {"bike_id": "c4e5dc07cc1d3f78c10af061f2e944c1", "lat": 38.901665666666666, "is_reserved": 0, "fusion_lat": 0.0, "rental_uris": {"android": "https://dc.lft.to/lastmile_qr_scan", "ios": "https://dc.lft.to/lastmile_qr_scan"}, "fusion_lon": 0.0, "name": "c4e5dc07cc1d3f78c10af061f2e944c1", "lon": -77.02949116666667, "is_disabled": 0, "type": "electric_scooter"}, {"bike_id": "acf6ae5681a055b1bf7d8b6b85769e5f", "lat": 38.9204095, "is_reserved": 0, "fusion_lat": 0.0, "rental_uris": {"android": "https://dc.lft.to/lastmile_qr_scan", "ios": "https://dc.lft.to/lastmile_qr_scan"}, "fusion_lon": 0.0, "name": "acf6ae5681a055b1bf7d8b6b85769e5f", "lon": -77.071409, "is_disabled": 0, "type": "electric_scooter"}, {"bike_id": "a33cf47b9ea9013599f9b8b551465f0d", "lat": 38.91673266666667, "is_reserved": 0, "fusion_lat": 0.0, "rental_uris": {"android": "https://dc.lft.to/lastmile_qr_scan", "ios": "https://dc.lft.to/lastmile_qr_scan"}, "fusion_lon": 0.0, "name": "a33cf47b9ea9013599f9b8b551465f0d", "lon": -77.023161, "is_disabled": 0, "type": "electric_scooter"}, {"bike_id": "28c233b2c0ff1e33590a8fa767207def", "lat": 38.90028916666667, "is_reserved": 0, "fusion_lat": 0.0, "rental_uris": {"android": "https://dc.lft.to/lastmile_qr_scan", "ios": "https://dc.lft.to/lastmile_qr_scan"}, "fusion_lon": 0.0, "name": "28c233b2c0ff1e33590a8fa767207def", "lon": -76.99861833333334, "is_disabled": 0, "type": "electric_scooter"}, {"bike_id": "e5bc79785073fbf4c80457e8c3d8101e", "lat": 38.845277, "is_reserved": 0, "fusion_lat": 0.0, "rental_uris": {"android": "https://dc.lft.to/lastmile_qr_scan", "ios": "https://dc.lft.to/lastmile_qr_scan"}, "fusion_lon": 0.0, "name": "e5bc79785073fbf4c80457e8c3d8101e", "lon": -76.97397866666667, "is_disabled": 0, "type": "electric_bike"}, {"bike_id": "47bd059f833fe4b79e018e87d1ce5fbd", "lat": 38.893402333333334, "is_reserved": 0, "fusion_lat": 0.0, "rental_uris": {"android": "https://dc.lft.to/lastmile_qr_scan", "ios": "https://dc.lft.to/lastmile_qr_scan"}, "fusion_lon": 0.0, "name": "47bd059f833fe4b79e018e87d1ce5fbd", "lon": -77.03206116666667, "is_disabled": 0, "type": "electric_scooter"}, {"bike_id": "f44989b2750610c5dc726745ee5504a3", "lat": 38.916942166666665, "is_reserved": 0, "fusion_lat": 0.0, "rental_uris": {"android": "https://dc.lft.to/lastmile_qr_scan", "ios": "https://dc.lft.to/lastmile_qr_scan"}, "fusion_lon": 0.0, "name": "f44989b2750610c5dc726745ee5504a3", "lon": -77.03759283333333, "is_disabled": 0, "type": "electric_scooter"}, {"bike_id": "db9deb5c380a6e80edbec49dd5083c14", "lat": 38.92023733333333, "is_reserved": 0, "fusion_lat": 0.0, "rental_uris": {"android": "https://dc.lft.to/lastmile_qr_scan", "ios": "https://dc.lft.to/lastmile_qr_scan"}, "fusion_lon": 0.0, "name": "db9deb5c380a6e80edbec49dd5083c14", "lon": -77.031272, "is_disabled": 0, "type": "electric_scooter"}, {"bike_id": "61940e2c6f624d9c95247f23f07ff705", "lat": 38.892214333333335, "is_reserved": 0, "fusion_lat": 0.0, "rental_uris": {"android": "https://dc.lft.to/lastmile_qr_scan", "ios": "https://dc.lft.to/lastmile_qr_scan"}, "fusion_lon": 0.0, "name": "61940e2c6f624d9c95247f23f07ff705", "lon": -77.04010366666667, "is_disabled": 0, "type": "electric_scooter"}, {"bike_id": "e3b572049ce2cbab42fdc652b3a41667", "lat": 38.90346733333333, "is_reserved": 0, "fusion_lat": 0.0, "rental_uris": {"android": "https://dc.lft.to/lastmile_qr_scan", "ios": "https://dc.lft.to/lastmile_qr_scan"}, "fusion_lon": 0.0, "name": "e3b572049ce2cbab42fdc652b3a41667", "lon": -77.03856133333333, "is_disabled": 0, "type": "electric_scooter"}, {"bike_id": "90fccf8f722aa380dcf5d205fc7ce7b9", "lat": 38.94790716666667, "is_reserved": 0, "fusion_lat": 0.0, "rental_uris": {"android": "https://dc.lft.to/lastmile_qr_scan", "ios": "https://dc.lft.to/lastmile_qr_scan"}, "fusion_lon": 0.0, "name": "90fccf8f722aa380dcf5d205fc7ce7b9", "lon": -77.021417, "is_disabled": 0, "type": "electric_scooter"}, {"bike_id": "79d3517e990bce878f88f26573e8b792", "lat": 38.940028833333336, "is_reserved": 0, "fusion_lat": 0.0, "rental_uris": {"android": "https://dc.lft.to/lastmile_qr_scan", "ios": "https://dc.lft.to/lastmile_qr_scan"}, "fusion_lon": 0.0, "name": "79d3517e990bce878f88f26573e8b792", "lon": -77.038069, "is_disabled": 0, "type": "electric_scooter"}, {"bike_id": "005baeab3f360a48a8d2fa5e49b5b37b", "lat": 38.896537, "is_reserved": 0, "fusion_lat": 0.0, "rental_uris": {"android": "https://dc.lft.to/lastmile_qr_scan", "ios": "https://dc.lft.to/lastmile_qr_scan"}, "fusion_lon": 0.0, "name": "005baeab3f360a48a8d2fa5e49b5b37b", "lon": -77.05024316666666, "is_disabled": 0, "type": "electric_scooter"}, {"bike_id": "e29cb00710f4447816ad303d75318085", "lat": 38.9223285, "is_reserved": 0, "fusion_lat": 0.0, "rental_uris": {"android": "https://dc.lft.to/lastmile_qr_scan", "ios": "https://dc.lft.to/lastmile_qr_scan"}, "fusion_lon": 0.0, "name": "e29cb00710f4447816ad303d75318085", "lon": -77.04376216666667, "is_disabled": 0, "type": "electric_scooter"}, {"bike_id": "efc5756414c5c7c4c7075e2d833d6808", "lat": 38.884651, "is_reserved": 0, "fusion_lat": 0.0, "rental_uris": {"android": "https://dc.lft.to/lastmile_qr_scan", "ios": "https://dc.lft.to/lastmile_qr_scan"}, "fusion_lon": 0.0, "name": "efc5756414c5c7c4c7075e2d833d6808", "lon": -77.00058083333333, "is_disabled": 0, "type": "electric_scooter"}, {"bike_id": "9ab8ab8413fd7165047d8c31d6183093", "lat": 38.8950905, "is_reserved": 0, "fusion_lat": 0.0, "rental_uris": {"android": "https://dc.lft.to/lastmile_qr_scan", "ios": "https://dc.lft.to/lastmile_qr_scan"}, "fusion_lon": 0.0, "name": "9ab8ab8413fd7165047d8c31d6183093", "lon": -77.0033965, "is_disabled": 0, "type": "electric_scooter"}, {"bike_id": "267cf6d04fb2fbbe61941af31d1ff51b", "lat": 38.892257666666666, "is_reserved": 0, "fusion_lat": 0.0, "rental_uris": {"android": "https://dc.lft.to/lastmile_qr_scan", "ios": "https://dc.lft.to/lastmile_qr_scan"}, "fusion_lon": 0.0, "name": "267cf6d04fb2fbbe61941af31d1ff51b", "lon": -77.03222133333334, "is_disabled": 0, "type": "electric_scooter"}, {"bike_id": "ef4f9d79913ff12e0b76c2072205bd71", "lat": 38.900106, "is_reserved": 0, "fusion_lat": 0.0, "rental_uris": {"android": "https://dc.lft.to/lastmile_qr_scan", "ios": "https://dc.lft.to/lastmile_qr_scan"}, "fusion_lon": 0.0, "name": "ef4f9d79913ff12e0b76c2072205bd71", "lon": -77.0273775, "is_disabled": 0, "type": "electric_scooter"}, {"bike_id": "2da97e0bdcac994a040e7182d91e57fe", "lat": 38.89869433333333, "is_reserved": 0, "fusion_lat": 0.0, "rental_uris": {"android": "https://dc.lft.to/lastmile_qr_scan", "ios": "https://dc.lft.to/lastmile_qr_scan"}, "fusion_lon": 0.0, "name": "2da97e0bdcac994a040e7182d91e57fe", "lon": -77.012469, "is_disabled": 0, "type": "electric_scooter"}, {"bike_id": "cde96b3c395f9e41c7a55ede119d5777", "lat": 38.91806416666667, "is_reserved": 0, "fusion_lat": 0.0, "rental_uris": {"android": "https://dc.lft.to/lastmile_qr_scan", "ios": "https://dc.lft.to/lastmile_qr_scan"}, "fusion_lon": 0.0, "name": "cde96b3c395f9e41c7a55ede119d5777", "lon": -77.03082183333333, "is_disabled": 0, "type": "electric_scooter"}, {"bike_id": "5e2cd4c5b2523e51d1d1c312f25b48cf", "lat": 38.90289383333333, "is_reserved": 0, "fusion_lat": 0.0, "rental_uris": {"android": "https://dc.lft.to/lastmile_qr_scan", "ios": "https://dc.lft.to/lastmile_qr_scan"}, "fusion_lon": 0.0, "name": "5e2cd4c5b2523e51d1d1c312f25b48cf", "lon": -77.0469285, "is_disabled": 0, "type": "electric_scooter"}, {"bike_id": "2de9085c13a16e69faa250a52c75dbb2", "lat": 38.914036833333334, "is_reserved": 0, "fusion_lat": 0.0, "rental_uris": {"android": "https://dc.lft.to/lastmile_qr_scan", "ios": "https://dc.lft.to/lastmile_qr_scan"}, "fusion_lon": 0.0, "name": "2de9085c13a16e69faa250a52c75dbb2", "lon": -77.01647233333334, "is_disabled": 0, "type": "electric_scooter"}, {"bike_id": "6e25df5563a7ba843d56b3f5d487410c", "lat": 38.89670666666667, "is_reserved": 0, "fusion_lat": 0.0, "rental_uris": {"android": "https://dc.lft.to/lastmile_qr_scan", "ios": "https://dc.lft.to/lastmile_qr_scan"}, "fusion_lon": 0.0, "name": "6e25df5563a7ba843d56b3f5d487410c", "lon": -77.0272355, "is_disabled": 0, "type": "electric_scooter"}, {"bike_id": "858a7255c4ddde20d8a29a5d781a4666", "lat": 38.86634, "is_reserved": 0, "fusion_lat": 0.0, "rental_uris": {"android": "https://dc.lft.to/lastmile_qr_scan", "ios": "https://dc.lft.to/lastmile_qr_scan"}, "fusion_lon": 0.0, "name": "858a7255c4ddde20d8a29a5d781a4666", "lon": -76.98720866666666, "is_disabled": 0, "type": "electric_scooter"}, {"bike_id": "5c6eec6b5c26296e5828e55186037899", "lat": 38.88779316666667, "is_reserved": 0, "fusion_lat": 0.0, "rental_uris": {"android": "https://dc.lft.to/lastmile_qr_scan", "ios": "https://dc.lft.to/lastmile_qr_scan"}, "fusion_lon": 0.0, "name": "5c6eec6b5c26296e5828e55186037899", "lon": -76.95530633333334, "is_disabled": 0, "type": "electric_scooter"}, {"bike_id": "cc3177a9715755c7230b40834dfa2d7d", "lat": 38.89652866666667, "is_reserved": 0, "fusion_lat": 0.0, "rental_uris": {"android": "https://dc.lft.to/lastmile_qr_scan", "ios": "https://dc.lft.to/lastmile_qr_scan"}, "fusion_lon": 0.0, "name": "cc3177a9715755c7230b40834dfa2d7d", "lon": -77.07069416666667, "is_disabled": 0, "type": "electric_scooter"}, {"bike_id": "2397ed94e0926b036e417bec689c06e1", "lat": 38.914904, "is_reserved": 0, "fusion_lat": 0.0, "rental_uris": {"android": "https://dc.lft.to/lastmile_qr_scan", "ios": "https://dc.lft.to/lastmile_qr_scan"}, "fusion_lon": 0.0, "name": "2397ed94e0926b036e417bec689c06e1", "lon": -77.03570516666667, "is_disabled": 0, "type": "electric_scooter"}, {"bike_id": "488d2562818218493b0b772653eb687f", "lat": 38.92876433333333, "is_reserved": 0, "fusion_lat": 0.0, "rental_uris": {"android": "https://dc.lft.to/lastmile_qr_scan", "ios": "https://dc.lft.to/lastmile_qr_scan"}, "fusion_lon": 0.0, "name": "488d2562818218493b0b772653eb687f", "lon": -77.0392095, "is_disabled": 0, "type": "electric_scooter"}, {"bike_id": "18939fb0aea3e72d86e5fc7319ab1cce", "lat": 38.92255316666667, "is_reserved": 0, "fusion_lat": 0.0, "rental_uris": {"android": "https://dc.lft.to/lastmile_qr_scan", "ios": "https://dc.lft.to/lastmile_qr_scan"}, "fusion_lon": 0.0, "name": "18939fb0aea3e72d86e5fc7319ab1cce", "lon": -77.01949366666666, "is_disabled": 0, "type": "electric_scooter"}, {"bike_id": "d96e2502c5f0ac8aa9f0afb0c58ef74f", "lat": 38.89728916666667, "is_reserved": 0, "fusion_lat": 0.0, "rental_uris": {"android": "https://dc.lft.to/lastmile_qr_scan", "ios": "https://dc.lft.to/lastmile_qr_scan"}, "fusion_lon": 0.0, "name": "d96e2502c5f0ac8aa9f0afb0c58ef74f", "lon": -77.02726966666667, "is_disabled": 0, "type": "electric_scooter"}, {"bike_id": "d57660a7057241eb9ec1d3b0da86c23a", "lat": 38.903636666666664, "is_reserved": 0, "fusion_lat": 0.0, "rental_uris": {"android": "https://dc.lft.to/lastmile_qr_scan", "ios": "https://dc.lft.to/lastmile_qr_scan"}, "fusion_lon": 0.0, "name": "d57660a7057241eb9ec1d3b0da86c23a", "lon": -77.03160633333333, "is_disabled": 0, "type": "electric_scooter"}, {"bike_id": "760fcd9fd9669c2847fa2aa5d4b4070b", "lat": 38.920787, "is_reserved": 0, "fusion_lat": 0.0, "rental_uris": {"android": "https://dc.lft.to/lastmile_qr_scan", "ios": "https://dc.lft.to/lastmile_qr_scan"}, "fusion_lon": 0.0, "name": "760fcd9fd9669c2847fa2aa5d4b4070b", "lon": -77.023145, "is_disabled": 0, "type": "electric_scooter"}, {"bike_id": "182124f6196911bc3d09919a392ad0f1", "lat": 38.92378716666666, "is_reserved": 0, "fusion_lat": 0.0, "rental_uris": {"android": "https://dc.lft.to/lastmile_qr_scan", "ios": "https://dc.lft.to/lastmile_qr_scan"}, "fusion_lon": 0.0, "name": "182124f6196911bc3d09919a392ad0f1", "lon": -77.03130466666667, "is_disabled": 0, "type": "electric_scooter"}, {"bike_id": "08e5f5366faf940a8f07547e40d66652", "lat": 38.90733133333333, "is_reserved": 0, "fusion_lat": 0.0, "rental_uris": {"android": "https://dc.lft.to/lastmile_qr_scan", "ios": "https://dc.lft.to/lastmile_qr_scan"}, "fusion_lon": 0.0, "name": "08e5f5366faf940a8f07547e40d66652", "lon": -77.00054966666667, "is_disabled": 0, "type": "electric_scooter"}, {"bike_id": "f385735d5099083ca59883724a22f5c8", "lat": 38.9083235, "is_reserved": 0, "fusion_lat": 0.0, "rental_uris": {"android": "https://dc.lft.to/lastmile_qr_scan", "ios": "https://dc.lft.to/lastmile_qr_scan"}, "fusion_lon": 0.0, "name": "f385735d5099083ca59883724a22f5c8", "lon": -77.04331016666667, "is_disabled": 0, "type": "electric_scooter"}, {"bike_id": "628d763fc15ad94a499464d7c531f90b", "lat": 38.899656666666665, "is_reserved": 0, "fusion_lat": 0.0, "rental_uris": {"android": "https://dc.lft.to/lastmile_qr_scan", "ios": "https://dc.lft.to/lastmile_qr_scan"}, "fusion_lon": 0.0, "name": "628d763fc15ad94a499464d7c531f90b", "lon": -77.01980533333334, "is_disabled": 0, "type": "electric_scooter"}, {"bike_id": "9587f4c2edbd27ece34bd52a333459a4", "lat": 38.931683666666665, "is_reserved": 0, "fusion_lat": 0.0, "rental_uris": {"android": "https://dc.lft.to/lastmile_qr_scan", "ios": "https://dc.lft.to/lastmile_qr_scan"},