{"data": {"bikes": [{"rental_uris": {"ios": "https://dc.lft.to/lastmile_qr_scan", "android": "https://dc.lft.to/lastmile_qr_scan"}, "type": "electric_scooter", "name": "3e5d8d162ca78c3529c74803ada84a6e", "is_reserved": 0, "lon": -77.05505183333334, "is_disabled": 0, "fusion_lat": 0.0, "lat": 38.92830883333333, "bike_id": "3e5d8d162ca78c3529c74803ada84a6e", "fusion_lon": 0.0}, {"rental_uris": {"ios": "https://dc.lft.to/lastmile_qr_scan", "android": "https://dc.lft.to/lastmile_qr_scan"}, "type": "electric_scooter", "name": "477bd00ddbd9a020b4b8098931c8f225", "is_reserved": 0, "lon": -77.07334983333334, "is_disabled": 0, "fusion_lat": 0.0, "lat": 38.96091166666667, "bike_id": "477bd00ddbd9a020b4b8098931c8f225", "fusion_lon": 0.0}, {"rental_uris": {"ios": "https://dc.lft.to/lastmile_qr_scan", "android": "https://dc.lft.to/lastmile_qr_scan"}, "type": "electric_scooter", "name": "c9a74f94bdab2869334bf1170be0c3d8", "is_reserved": 0, "lon": -77.06092183333334, "is_disabled": 0, "fusion_lat": 0.0, "lat": 38.9399085, "bike_id": "c9a74f94bdab2869334bf1170be0c3d8", "fusion_lon": 0.0}, {"rental_uris": {"ios": "https://dc.lft.to/lastmile_qr_scan", "android": "https://dc.lft.to/lastmile_qr_scan"}, "type": "electric_scooter", "name": "f0f5f562ca154ab7c68c74fd6ef99a91", "is_reserved": 0, "lon": -77.04971983333333, "is_disabled": 0, "fusion_lat": 0.0, "lat": 38.905078333333336, "bike_id": "f0f5f562ca154ab7c68c74fd6ef99a91", "fusion_lon": 0.0}, {"rental_uris": {"ios": "https://dc.lft.to/lastmile_qr_scan", "android": "https://dc.lft.to/lastmile_qr_scan"}, "type": "electric_bike", "name": "845dcf429efc0dcfc5e3a079dd363fdf", "is_reserved": 0, "lon": -77.00133566666666, "is_disabled": 0, "fusion_lat": 0.0, "lat": 38.994985166666666, "bike_id": "845dcf429efc0dcfc5e3a079dd363fdf", "fusion_lon": 0.0}, {"rental_uris": {"ios": "https://dc.lft.to/lastmile_qr_scan", "android": "https://dc.lft.to/lastmile_qr_scan"}, "type": "electric_scooter", "name": "d4910887b98c203924211fc567af9059", "is_reserved": 0, "lon": -76.997927, "is_disabled": 0, "fusion_lat": 0.0, "lat": 38.8763095, "bike_id": "d4910887b98c203924211fc567af9059", "fusion_lon": 0.0}, {"rental_uris": {"ios": "https://dc.lft.to/lastmile_qr_scan", "android": "https://dc.lft.to/lastmile_qr_scan"}, "type": "electric_bike", "name": "c415f16a6da04d3d772d6d40b3efea88", "is_reserved": 0, "lon": -76.957973, "is_disabled": 0, "fusion_lat": 0.0, "lat": 38.9804485, "bike_id": "c415f16a6da04d3d772d6d40b3efea88", "fusion_lon": 0.0}, {"rental_uris": {"ios": "https://dc.lft.to/lastmile_qr_scan", "android": "https://dc.lft.to/lastmile_qr_scan"}, "type": "electric_scooter", "name": "67e07b3bf40f193a62fb22bd58ebca41", "is_reserved": 0, "lon": -76.975734, "is_disabled": 0, "fusion_lat": 0.0, "lat": 38.944206666666666, "bike_id": "67e07b3bf40f193a62fb22bd58ebca41", "fusion_lon": 0.0}, {"rental_uris": {"ios": "https://dc.lft.to/lastmile_qr_scan", "android": "https://dc.lft.to/lastmile_qr_scan"}, "type": "electric_scooter", "name": "ade26a12894ee848390ed4365a7c816d", "is_reserved": 0, "lon": -76.9493235, "is_disabled": 0, "fusion_lat": 0.0, "lat": 38.895319, "bike_id": "ade26a12894ee848390ed4365a7c816d", "fusion_lon": 0.0}, {"rental_uris": {"ios": "https://dc.lft.to/lastmile_qr_scan", "android": "https://dc.lft.to/lastmile_qr_scan"}, "type": "electric_bike", "name": "9cdf09f1fa8c484cbf0b8e437f109b3d", "is_reserved": 0, "lon": -77.06585983333333, "is_disabled": 0, "fusion_lat": 0.0, "lat": 38.911343333333335, "bike_id": "9cdf09f1fa8c484cbf0b8e437f109b3d", "fusion_lon": 0.0}, {"rental_uris": {"ios": "https://dc.lft.to/lastmile_qr_scan", "android": "https://dc.lft.to/lastmile_qr_scan"}, "type": "electric_scooter", "name": "b132871ff8914a74fb39262f6c4e90d3", "is_reserved": 0, "lon": -77.0386675, "is_disabled": 0, "fusion_lat": 0.0, "lat": 38.9155215, "bike_id": "b132871ff8914a74fb39262f6c4e90d3", "fusion_lon": 0.0}, {"rental_uris": {"ios": "https://dc.lft.to/lastmile_qr_scan", "android": "https://dc.lft.to/lastmile_qr_scan"}, "type": "electric_scooter", "name": "a74666651d27500e74870885b3c0c9b2", "is_reserved": 0, "lon": -77.031864, "is_disabled": 0, "fusion_lat": 0.0, "lat": 38.91097883333333, "bike_id": "a74666651d27500e74870885b3c0c9b2", "fusion_lon": 0.0}, {"rental_uris": {"ios": "https://dc.lft.to/lastmile_qr_scan", "android": "https://dc.lft.to/lastmile_qr_scan"}, "type": "electric_bike", "name": "a2e0099948b63a02b648ac47b2f55a91", "is_reserved": 0, "lon": -76.99179883333333, "is_disabled": 0, "fusion_lat": 0.0, "lat": 38.960824333333335, "bike_id": "a2e0099948b63a02b648ac47b2f55a91", "fusion_lon": 0.0}, {"rental_uris": {"ios": "https://dc.lft.to/lastmile_qr_scan", "android": "https://dc.lft.to/lastmile_qr_scan"}, "type": "electric_scooter", "name": "a63e2dc5060cf97728577829af301e35", "is_reserved": 0, "lon": -77.023801, "is_disabled": 0, "fusion_lat": 0.0, "lat": 38.91988666666666, "bike_id": "a63e2dc5060cf97728577829af301e35", "fusion_lon": 0.0}, {"rental_uris": {"ios": "https://dc.lft.to/lastmile_qr_scan", "android": "https://dc.lft.to/lastmile_qr_scan"}, "type": "electric_scooter", "name": "9af70a7f67f3d9db9763df200259afbe", "is_reserved": 0, "lon": -76.98362183333333, "is_disabled": 0, "fusion_lat": 0.0, "lat": 38.887452833333334, "bike_id": "9af70a7f67f3d9db9763df200259afbe", "fusion_lon": 0.0}, {"rental_uris": {"ios": "https://dc.lft.to/lastmile_qr_scan", "android": "https://dc.lft.to/lastmile_qr_scan"}, "type": "electric_scooter", "name": "bccb0afaea69b3414605f5eb8823f344", "is_reserved": 0, "lon": -77.04870516666666, "is_disabled": 0, "fusion_lat": 0.0, "lat": 38.91097366666666, "bike_id": "bccb0afaea69b3414605f5eb8823f344", "fusion_lon": 0.0}, {"rental_uris": {"ios": "https://dc.lft.to/lastmile_qr_scan", "android": "https://dc.lft.to/lastmile_qr_scan"}, "type": "electric_scooter", "name": "0128f56d5113b9dfec74cd8e7519d437", "is_reserved": 0, "lon": -77.03464233333334, "is_disabled": 0, "fusion_lat": 0.0, "lat": 38.9171975, "bike_id": "0128f56d5113b9dfec74cd8e7519d437", "fusion_lon": 0.0}, {"rental_uris": {"ios": "https://dc.lft.to/lastmile_qr_scan", "android": "https://dc.lft.to/lastmile_qr_scan"}, "type": "electric_scooter", "name": "c4888ba7d193687af94abd78d7e95648", "is_reserved": 0, "lon": -77.03265033333334, "is_disabled": 0, "fusion_lat": 0.0, "lat": 38.919828333333335, "bike_id": "c4888ba7d193687af94abd78d7e95648", "fusion_lon": 0.0}, {"rental_uris": {"ios": "https://dc.lft.to/lastmile_qr_scan", "android": "https://dc.lft.to/lastmile_qr_scan"}, "type": "electric_scooter", "name": "789bd8d2076b342f38a0ad36ba9b5bb9", "is_reserved": 0, "lon": -77.02215433333333, "is_disabled": 0, "fusion_lat": 0.0, "lat": 38.894631, "bike_id": "789bd8d2076b342f38a0ad36ba9b5bb9", "fusion_lon": 0.0}, {"rental_uris": {"ios": "https://dc.lft.to/lastmile_qr_scan", "android": "https://dc.lft.to/lastmile_qr_scan"}, "type": "electric_scooter", "name": "e983cf318d223c480a2a7080af33be6d", "is_reserved": 0, "lon": -77.0268905, "is_disabled": 0, "fusion_lat": 0.0, "lat": 38.905256666666666, "bike_id": "e983cf318d223c480a2a7080af33be6d", "fusion_lon": 0.0}, {"rental_uris": {"ios": "https://dc.lft.to/lastmile_qr_scan", "android": "https://dc.lft.to/lastmile_qr_scan"}, "type": "electric_scooter", "name": "6f6dbbf502b8476f1c042666e0b957b6", "is_reserved": 0, "lon": -77.03382883333333, "is_disabled": 0, "fusion_lat": 0.0, "lat": 38.90141116666667, "bike_id": "6f6dbbf502b8476f1c042666e0b957b6", "fusion_lon": 0.0}, {"rental_uris": {"ios": "https://dc.lft.to/lastmile_qr_scan", "android": "https://dc.lft.to/lastmile_qr_scan"}, "type": "electric_bike", "name": "a86738ebce6633dc54d6e04ebd751c59", "is_reserved": 0, "lon": -76.98689233333333, "is_disabled": 0, "fusion_lat": 0.0, "lat": 38.94475966666667, "bike_id": "a86738ebce6633dc54d6e04ebd751c59", "fusion_lon": 0.0}, {"rental_uris": {"ios": "https://dc.lft.to/lastmile_qr_scan", "android": "https://dc.lft.to/lastmile_qr_scan"}, "type": "electric_scooter", "name": "5d91428f024994c8738c90e2385c2874", "is_reserved": 0, "lon": -76.99904066666667, "is_disabled": 0, "fusion_lat": 0.0, "lat": 38.93742116666667, "bike_id": "5d91428f024994c8738c90e2385c2874", "fusion_lon": 0.0}, {"rental_uris": {"ios": "https://dc.lft.to/lastmile_qr_scan", "android": "https://dc.lft.to/lastmile_qr_scan"}, "type": "electric_scooter", "name": "2973748ac0635c7ea616ed7e08e1e8d8", "is_reserved": 0, "lon": -77.01136216666667, "is_disabled": 0, "fusion_lat": 0.0, "lat": 38.917038166666664, "bike_id": "2973748ac0635c7ea616ed7e08e1e8d8", "fusion_lon": 0.0}, {"rental_uris": {"ios": "https://dc.lft.to/lastmile_qr_scan", "android": "https://dc.lft.to/lastmile_qr_scan"}, "type": "electric_bike", "name": "98449f68136af6089368e652d5236f90", "is_reserved": 0, "lon": -76.90303866666666, "is_disabled": 0, "fusion_lat": 0.0, "lat": 39.00294866666667, "bike_id": "98449f68136af6089368e652d5236f90", "fusion_lon": 0.0}, {"rental_uris": {"ios": "https://dc.lft.to/lastmile_qr_scan", "android": "https://dc.lft.to/lastmile_qr_scan"}, "type": "electric_scooter", "name": "0949527df9c319055198d3a4307c5f22", "is_reserved": 0, "lon": -76.99845866666666, "is_disabled": 0, "fusion_lat": 0.0, "lat": 38.90298766666667, "bike_id": "0949527df9c319055198d3a4307c5f22", "fusion_lon": 0.0}, {"rental_uris": {"ios": "https://dc.lft.to/lastmile_qr_scan", "android": "https://dc.lft.to/lastmile_qr_scan"}, "type": "electric_scooter", "name": "4718388c89dbdb0f15a3048d04f7304f", "is_reserved": 0, "lon": -77.022834, "is_disabled": 0, "fusion_lat": 0.0, "lat": 38.91604066666667, "bike_id": "4718388c89dbdb0f15a3048d04f7304f", "fusion_lon": 0.0}, {"rental_uris": {"ios": "https://dc.lft.to/lastmile_qr_scan", "android": "https://dc.lft.to/lastmile_qr_scan"}, "type": "electric_scooter", "name": "aeeefcd867636ff8df54b9a593b4d60e", "is_reserved": 0, "lon": -76.99409383333334, "is_disabled": 0, "fusion_lat": 0.0, "lat": 38.87786633333333, "bike_id": "aeeefcd867636ff8df54b9a593b4d60e", "fusion_lon": 0.0}, {"rental_uris": {"ios": "https://dc.lft.to/lastmile_qr_scan", "android": "https://dc.lft.to/lastmile_qr_scan"}, "type": "electric_scooter", "name": "a14af935ed3a15685612c21e4f6ed8d4", "is_reserved": 0, "lon": -77.0363545, "is_disabled": 0, "fusion_lat": 0.0, "lat": 38.93367416666667, "bike_id": "a14af935ed3a15685612c21e4f6ed8d4", "fusion_lon": 0.0}, {"rental_uris": {"ios": "https://dc.lft.to/lastmile_qr_scan", "android": "https://dc.lft.to/lastmile_qr_scan"}, "type": "electric_scooter", "name": "c058836ef551dbb39d47453bc1688931", "is_reserved": 0, "lon": -77.04661266666666, "is_disabled": 0, "fusion_lat": 0.0, "lat": 38.897416166666666, "bike_id": "c058836ef551dbb39d47453bc1688931", "fusion_lon": 0.0}, {"rental_uris": {"ios": "https://dc.lft.to/lastmile_qr_scan", "android": "https://dc.lft.to/lastmile_qr_scan"}, "type": "electric_scooter", "name": "aedf2267e4e80bdaeadde08056f5a3e8", "is_reserved": 0, "lon": -77.00215133333333, "is_disabled": 0, "fusion_lat": 0.0, "lat": 38.9146215, "bike_id": "aedf2267e4e80bdaeadde08056f5a3e8", "fusion_lon": 0.0}, {"rental_uris": {"ios": "https://dc.lft.to/lastmile_qr_scan", "android": "https://dc.lft.to/lastmile_qr_scan"}, "type": "electric_scooter", "name": "d2e4ece320e7c954e5e4a6242b40d960", "is_reserved": 0, "lon": -76.97716716666666, "is_disabled": 0, "fusion_lat": 0.0, "lat": 38.888211166666665, "bike_id": "d2e4ece320e7c954e5e4a6242b40d960", "fusion_lon": 0.0}, {"rental_uris": {"ios": "https://dc.lft.to/lastmile_qr_scan", "android": "https://dc.lft.to/lastmile_qr_scan"}, "type": "electric_scooter", "name": "787360f66d3ddaa4de9960e731a83832", "is_reserved": 0, "lon": -77.0366745, "is_disabled": 0, "fusion_lat": 0.0, "lat": 38.92127333333333, "bike_id": "787360f66d3ddaa4de9960e731a83832", "fusion_lon": 0.0}, {"rental_uris": {"ios": "https://dc.lft.to/lastmile_qr_scan", "android": "https://dc.lft.to/lastmile_qr_scan"}, "type": "electric_scooter", "name": "c5cf5b83362aee0db657db40284c354d", "is_reserved": 0, "lon": -77.03182483333333, "is_disabled": 0, "fusion_lat": 0.0, "lat": 38.909503666666666, "bike_id": "c5cf5b83362aee0db657db40284c354d", "fusion_lon": 0.0}, {"rental_uris": {"ios": "https://dc.lft.to/lastmile_qr_scan", "android": "https://dc.lft.to/lastmile_qr_scan"}, "type": "electric_scooter", "name": "1fb2d1fc0703436404079454581d82e2", "is_reserved": 0, "lon": -77.0178495, "is_disabled": 0, "fusion_lat": 0.0, "lat": 38.920368333333336, "bike_id": "1fb2d1fc0703436404079454581d82e2", "fusion_lon": 0.0}, {"rental_uris": {"ios": "https://dc.lft.to/lastmile_qr_scan", "android": "https://dc.lft.to/lastmile_qr_scan"}, "type": "electric_scooter", "name": "a2e233cb2a88ad84c8cfe2b6cc8199e9", "is_reserved": 0, "lon": -76.98368483333333, "is_disabled": 0, "fusion_lat": 0.0, "lat": 38.89261616666667, "bike_id": "a2e233cb2a88ad84c8cfe2b6cc8199e9", "fusion_lon": 0.0}, {"rental_uris": {"ios": "https://dc.lft.to/lastmile_qr_scan", "android": "https://dc.lft.to/lastmile_qr_scan"}, "type": "electric_scooter", "name": "c70d2f96c027f3dbd2c20e746167ca4e", "is_reserved": 0, "lon": -76.95740616666667, "is_disabled": 0, "fusion_lat": 0.0, "lat": 38.88390233333333, "bike_id": "c70d2f96c027f3dbd2c20e746167ca4e", "fusion_lon": 0.0}, {"rental_uris": {"ios": "https://dc.lft.to/lastmile_qr_scan", "android": "https://dc.lft.to/lastmile_qr_scan"}, "type": "electric_scooter", "name": "2b795dc73ecaa941dda6107ecfec5773", "is_reserved": 0, "lon": -77.03837816666666, "is_disabled": 0, "fusion_lat": 0.0, "lat": 38.910158833333334, "bike_id": "2b795dc73ecaa941dda6107ecfec5773", "fusion_lon": 0.0}, {"rental_uris": {"ios": "https://dc.lft.to/lastmile_qr_scan", "android": "https://dc.lft.to/lastmile_qr_scan"}, "type": "electric_scooter", "name": "a6f01f53b28e13327d2aeb604b5cf20c", "is_reserved": 0, "lon": -77.03382683333334, "is_disabled": 0, "fusion_lat": 0.0, "lat": 38.92473566666666, "bike_id": "a6f01f53b28e13327d2aeb604b5cf20c", "fusion_lon": 0.0}, {"rental_uris": {"ios": "https://dc.lft.to/lastmile_qr_scan", "android": "https://dc.lft.to/lastmile_qr_scan"}, "type": "electric_scooter", "name": "2eb7b8837a979bb134bcf41336ce01c1", "is_reserved": 0, "lon": -77.0180135, "is_disabled": 0, "fusion_lat": 0.0, "lat": 38.91990766666667, "bike_id": "2eb7b8837a979bb134bcf41336ce01c1", "fusion_lon": 0.0}, {"rental_uris": {"ios": "https://dc.lft.to/lastmile_qr_scan", "android": "https://dc.lft.to/lastmile_qr_scan"}, "type": "electric_scooter", "name": "6526d0853d17507a25c5051efb8027da", "is_reserved": 0, "lon": -77.0424915, "is_disabled": 0, "fusion_lat": 0.0, "lat": 38.903559, "bike_id": "6526d0853d17507a25c5051efb8027da", "fusion_lon": 0.0}, {"rental_uris": {"ios": "https://dc.lft.to/lastmile_qr_scan", "android": "https://dc.lft.to/lastmile_qr_scan"}, "type": "electric_scooter", "name": "50f59562c9aa9db2442893e059aa7203", "is_reserved": 0, "lon": -77.02154783333333, "is_disabled": 0, "fusion_lat": 0.0, "lat": 38.9030195, "bike_id": "50f59562c9aa9db2442893e059aa7203", "fusion_lon": 0.0}, {"rental_uris": {"ios": "https://dc.lft.to/lastmile_qr_scan", "android": "https://dc.lft.to/lastmile_qr_scan"}, "type": "electric_scooter", "name": "a45fc396e975d61f2db30ca8c9f769cc", "is_reserved": 0, "lon": -77.0416675, "is_disabled": 0, "fusion_lat": 0.0, "lat": 38.9160235, "bike_id": "a45fc396e975d61f2db30ca8c9f769cc", "fusion_lon": 0.0}, {"rental_uris": {"ios": "https://dc.lft.to/lastmile_qr_scan", "android": "https://dc.lft.to/lastmile_qr_scan"}, "type": "electric_scooter", "name": "1e614c083f4c732f208c8c8e9e001322", "is_reserved": 0, "lon": -77.0410545, "is_disabled": 0, "fusion_lat": 0.0, "lat": 38.92710683333333, "bike_id": "1e614c083f4c732f208c8c8e9e001322", "fusion_lon": 0.0}, {"rental_uris": {"ios": "https://dc.lft.to/lastmile_qr_scan", "android": "https://dc.lft.to/lastmile_qr_scan"}, "type": "electric_scooter", "name": "05443e90752ff00ffd29bd39adf83933", "is_reserved": 0, "lon": -77.02667383333333, "is_disabled": 0, "fusion_lat": 0.0, "lat": 38.92182183333333, "bike_id": "05443e90752ff00ffd29bd39adf83933", "fusion_lon": 0.0}, {"rental_uris": {"ios": "https://dc.lft.to/lastmile_qr_scan", "android": "https://dc.lft.to/lastmile_qr_scan"}, "type": "electric_scooter", "name": "380cc19d29a35e87c65ec1d046aaa397", "is_reserved": 0, "lon": -77.06900416666667, "is_disabled": 0, "fusion_lat": 0.0, "lat": 38.9076285, "bike_id": "380cc19d29a35e87c65ec1d046aaa397", "fusion_lon": 0.0}, {"rental_uris": {"ios": "https://dc.lft.to/lastmile_qr_scan", "android": "https://dc.lft.to/lastmile_qr_scan"}, "type": "electric_scooter", "name": "27f8f48addba8290568a96c58a7aca3c", "is_reserved": 0, "lon": -77.00477166666667, "is_disabled": 0, "fusion_lat": 0.0, "lat": 38.87455666666666, "bike_id": "27f8f48addba8290568a96c58a7aca3c", "fusion_lon": 0.0}, {"rental_uris": {"ios": "https://dc.lft.to/lastmile_qr_scan", "android": "https://dc.lft.to/lastmile_qr_scan"}, "type": "electric_bike", "name": "131aa27d4450cd89ec8ac677f1160d9e", "is_reserved": 0, "lon": -77.02348266666667, "is_disabled": 0, "fusion_lat": 0.0, "lat": 38.9317255, "bike_id": "131aa27d4450cd89ec8ac677f1160d9e", "fusion_lon": 0.0}, {"rental_uris": {"ios": "https://dc.lft.to/lastmile_qr_scan", "android": "https://dc.lft.to/lastmile_qr_scan"}, "type": "electric_bike", "name": "903fb965b47ed40e9d1ad8d5615e4a11", "is_reserved": 0, "lon": -77.02420333333333, "is_disabled": 0, "fusion_lat": 0.0, "lat": 38.9490285, "bike_id": "903fb965b47ed40e9d1ad8d5615e4a11", "fusion_lon": 0.0}, {"rental_uris": {"ios": "https://dc.lft.to/lastmile_qr_scan", "android": "https://dc.lft.to/lastmile_qr_scan"}, "type": "electric_scooter", "name": "fdeb7947a37b419f738c5cdc29b27bfe", "is_reserved": 0, "lon": -77.03675116666666, "is_disabled": 0, "fusion_lat": 0.0, "lat": 38.939321166666666, "bike_id": "fdeb7947a37b419f738c5cdc29b27bfe", "fusion_lon": 0.0}, {"rental_uris": {"ios": "https://dc.lft.to/lastmile_qr_scan", "android": "https://dc.lft.to/lastmile_qr_scan"}, "type": "electric_scooter", "name": "d7195c53fa410bfccd55853247ead839", "is_reserved": 0, "lon": -77.00699616666667, "is_disabled": 0, "fusion_lat": 0.0, "lat": 38.90565316666667, "bike_id": "d7195c53fa410bfccd55853247ead839", "fusion_lon": 0.0}, {"rental_uris": {"ios": "https://dc.lft.to/lastmile_qr_scan", "android": "https://dc.lft.to/lastmile_qr_scan"}, "type": "electric_scooter", "name": "0a5db6e8adea3b7ab479f839bf55f543", "is_reserved": 0, "lon": -77.0397885, "is_disabled": 0, "fusion_lat": 0.0, "lat": 38.8921975, "bike_id": "0a5db6e8adea3b7ab479f839bf55f543", "fusion_lon": 0.0}, {"rental_uris": {"ios": "https://dc.lft.to/lastmile_qr_scan", "android": "https://dc.lft.to/lastmile_qr_scan"}, "type": "electric_scooter", "name": "2811873823ecdc0f950fbb6c56ea45fe", "is_reserved": 0, "lon": -77.0399445, "is_disabled": 0, "fusion_lat": 0.0, "lat": 38.93398366666667, "bike_id": "2811873823ecdc0f950fbb6c56ea45fe", "fusion_lon": 0.0}, {"rental_uris": {"ios": "https://dc.lft.to/lastmile_qr_scan", "android": "https://dc.lft.to/lastmile_qr_scan"}, "type": "electric_bike", "name": "4ec83cd6d05e49dd78649449bad500a3", "is_reserved": 0, "lon": -76.98059866666667, "is_disabled": 0, "fusion_lat": 0.0, "lat": 38.972515333333334, "bike_id": "4ec83cd6d05e49dd78649449bad500a3", "fusion_lon": 0.0}, {"rental_uris": {"ios": "https://dc.lft.to/lastmile_qr_scan", "android": "https://dc.lft.to/lastmile_qr_scan"}, "type": "electric_scooter", "name": "786649353a9475ac0a519966d54c0a42", "is_reserved": 0, "lon": -76.99036166666667, "is_disabled": 0, "fusion_lat": 0.0, "lat": 38.891346, "bike_id": "786649353a9475ac0a519966d54c0a42", "fusion_lon": 0.0}, {"rental_uris": {"ios": "https://dc.lft.to/lastmile_qr_scan", "android": "https://dc.lft.to/lastmile_qr_scan"}, "type": "electric_bike", "name": "bf34b3f330253730e1cc423ad47febe4", "is_reserved": 0, "lon": -76.9387275, "is_disabled": 0, "fusion_lat": 0.0, "lat": 38.97770383333334, "bike_id": "bf34b3f330253730e1cc423ad47febe4", "fusion_lon": 0.0}, {"rental_uris": {"ios": "https://dc.lft.to/lastmile_qr_scan", "android": "https://dc.lft.to/lastmile_qr_scan"}, "type": "electric_scooter", "name": "77e0d04863cf3200339c4a9d64c787b4", "is_reserved": 0, "lon": -77.044227, "is_disabled": 0, "fusion_lat": 0.0, "lat": 38.9211135, "bike_id": "77e0d04863cf3200339c4a9d64c787b4", "fusion_lon": 0.0}, {"rental_uris": {"ios": "https://dc.lft.to/lastmile_qr_scan", "android": "https://dc.lft.to/lastmile_qr_scan"}, "type": "electric_scooter", "name": "9843fc8620f242cc84d1a556b47109b4", "is_reserved": 0, "lon": -77.004767, "is_disabled": 0, "fusion_lat": 0.0, "lat": 38.874483, "bike_id": "9843fc8620f242cc84d1a556b47109b4", "fusion_lon": 0.0}, {"rental_uris": {"ios": "https://dc.lft.to/lastmile_qr_scan", "android": "https://dc.lft.to/lastmile_qr_scan"}, "type": "electric_scooter", "name": "545759a664e89be43752ea7ea38410c8", "is_reserved": 0, "lon": -77.03056833333333, "is_disabled": 0, "fusion_lat": 0.0, "lat": 38.923714833333335, "bike_id": "545759a664e89be43752ea7ea38410c8", "fusion_lon": 0.0}, {"rental_uris": {"ios": "https://dc.lft.to/lastmile_qr_scan", "android": "https://dc.lft.to/lastmile_qr_scan"}, "type": "electric_scooter", "name": "55815fcadc5fd739b75ffc6d91154b34", "is_reserved": 0, "lon": -77.02229966666667, "is_disabled": 0, "fusion_lat": 0.0, "lat": 38.92484566666667, "bike_id": "55815fcadc5fd739b75ffc6d91154b34", "fusion_lon": 0.0}, {"rental_uris": {"ios": "https://dc.lft.to/lastmile_qr_scan", "android": "https://dc.lft.to/lastmile_qr_scan"}, "type": "electric_scooter", "name": "4b6c7c26f38e745612137e536759763d", "is_reserved": 0, "lon": -77.03850066666666, "is_disabled": 0, "fusion_lat": 0.0, "lat": 38.91664933333333, "bike_id": "4b6c7c26f38e745612137e536759763d", "fusion_lon": 0.0}, {"rental_uris": {"ios": "https://dc.lft.to/lastmile_qr_scan", "android": "https://dc.lft.to/lastmile_qr_scan"}, "type": "electric_bike", "name": "2d1ea6dfbdb560e4de9e98abd6c22f13", "is_reserved": 0, "lon": -76.99379316666666, "is_disabled": 0, "fusion_lat": 0.0, "lat": 38.92057533333333, "bike_id": "2d1ea6dfbdb560e4de9e98abd6c22f13", "fusion_lon": 0.0}, {"rental_uris": {"ios": "https://dc.lft.to/lastmile_qr_scan", "android": "https://dc.lft.to/lastmile_qr_scan"}, "type": "electric_scooter", "name": "a1f465a07f4bd956ba9382e2cc1a23dc", "is_reserved": 0, "lon": -77.03724433333333, "is_disabled": 0, "fusion_lat": 0.0, "lat": 38.92026366666666, "bike_id": "a1f465a07f4bd956ba9382e2cc1a23dc", "fusion_lon": 0.0}, {"rental_uris": {"ios": "https://dc.lft.to/lastmile_qr_scan", "android": "https://dc.lft.to/lastmile_qr_scan"}, "type": "electric_scooter", "name": "45da5c8eeb3f963a2a114d3854f6c320", "is_reserved": 0, "lon": -77.00073933333333, "is_disabled": 0, "fusion_lat": 0.0, "lat": 38.894805833333336, "bike_id": "45da5c8eeb3f963a2a114d3854f6c320", "fusion_lon": 0.0}, {"rental_uris": {"ios": "https://dc.lft.to/lastmile_qr_scan", "android": "https://dc.lft.to/lastmile_qr_scan"}, "type": "electric_scooter", "name": "70d1c19319ce65fa7915b4d07bbf4bf7", "is_reserved": 0, "lon": -77.0499855, "is_disabled": 0, "fusion_lat": 0.0, "lat": 38.89731233333333, "bike_id": "70d1c19319ce65fa7915b4d07bbf4bf7", "fusion_lon": 0.0}, {"rental_uris": {"ios": "https://dc.lft.to/lastmile_qr_scan", "android": "https://dc.lft.to/lastmile_qr_scan"}, "type": "electric_scooter", "name": "222e035c0b573165075ab980fb0a2993", "is_reserved": 0, "lon": -77.017653, "is_disabled": 0, "fusion_lat": 0.0, "lat": 38.876804, "bike_id": "222e035c0b573165075ab980fb0a2993", "fusion_lon": 0.0}, {"rental_uris": {"ios": "https://dc.lft.to/lastmile_qr_scan", "android": "https://dc.lft.to/lastmile_qr_scan"}, "type": "electric_scooter", "name": "645281dbf72c07f1e6dbd063e79ff682", "is_reserved": 0, "lon": -77.0247705, "is_disabled": 0, "fusion_lat": 0.0, "lat": 38.917008333333335, "bike_id": "645281dbf72c07f1e6dbd063e79ff682", "fusion_lon": 0.0}, {"rental_uris": {"ios": "https://dc.lft.to/lastmile_qr_scan", "android": "https://dc.lft.to/lastmile_qr_scan"}, "type": "electric_scooter", "name": "34051593e84f80b4c9c82980ec6cc158", "is_reserved": 0, "lon": -77.01946833333334, "is_disabled": 0, "fusion_lat": 0.0, "lat": 38.930342333333336, "bike_id": "34051593e84f80b4c9c82980ec6cc158", "fusion_lon": 0.0}, {"rental_uris": {"ios": "https://dc.lft.to/lastmile_qr_scan", "android": "https://dc.lft.to/lastmile_qr_scan"}, "type": "electric_bike", "name": "e633e107ab16dd8d59f0313c65fce34a", "is_reserved": 0, "lon": -77.09721383333333, "is_disabled": 0, "fusion_lat": 0.0, "lat": 38.807349333333335, "bike_id": "e633e107ab16dd8d59f0313c65fce34a", "fusion_lon": 0.0}, {"rental_uris": {"ios": "https://dc.lft.to/lastmile_qr_scan", "android": "https://dc.lft.to/lastmile_qr_scan"}, "type": "electric_scooter", "name": "69ac5b78678be2dd5a40c633b10cd799", "is_reserved": 0, "lon": -77.03459216666667, "is_disabled": 0, "fusion_lat": 0.0, "lat": 38.917223666666665, "bike_id": "69ac5b78678be2dd5a40c633b10cd799", "fusion_lon": 0.0}, {"rental_uris": {"ios": "https://dc.lft.to/lastmile_qr_scan", "android": "https://dc.lft.to/lastmile_qr_scan"}, "type": "electric_bike", "name": "0d6f5afd89cb79e3e5ac46c4a26de87f", "is_reserved": 0, "lon": -77.03768866666667, "is_disabled": 0, "fusion_lat": 0.0, "lat": 38.935935, "bike_id": "0d6f5afd89cb79e3e5ac46c4a26de87f", "fusion_lon": 0.0}, {"rental_uris": {"ios": "https://dc.lft.to/lastmile_qr_scan", "android": "https://dc.lft.to/lastmile_qr_scan"}, "type": "electric_scooter", "name": "540e1edcc58bddeedb6314ad86931e1e", "is_reserved": 0, "lon": -77.01582183333333, "is_disabled": 0, "fusion_lat": 0.0, "lat": 38.87635316666667, "bike_id": "540e1edcc58bddeedb6314ad86931e1e", "fusion_lon": 0.0}, {"rental_uris": {"ios": "https://dc.lft.to/lastmile_qr_scan", "android": "https://dc.lft.to/lastmile_qr_scan"}, "type": "electric_scooter", "name": "ffca264f8b63f3d0e541c7ddca9a58b9", "is_reserved": 0, "lon": -77.04121416666666, "is_disabled": 0, "fusion_lat": 0.0, "lat": 38.933869, "bike_id": "ffca264f8b63f3d0e541c7ddca9a58b9", "fusion_lon": 0.0}, {"rental_uris": {"ios": "https://dc.lft.to/lastmile_qr_scan", "android": "https://dc.lft.to/lastmile_qr_scan"}, "type": "electric_scooter", "name": "8bd1af241705142eb0ff91bf9823d0b3", "is_reserved": 0, "lon": -77.0550035, "is_disabled": 0, "fusion_lat": 0.0, "lat": 38.9283265, "bike_id": "8bd1af241705142eb0ff91bf9823d0b3", "fusion_lon": 0.0}, {"rental_uris": {"ios": "https://dc.lft.to/lastmile_qr_scan", "android": "https://dc.lft.to/lastmile_qr_scan"}, "type": "electric_bike", "name": "742357e30d47cb5ef59eb7a09ba513e0", "is_reserved": 0, "lon": -77.065306, "is_disabled": 0, "fusion_lat": 0.0, "lat": 38.99226433333333, "bike_id": "742357e30d47cb5ef59eb7a09ba513e0", "fusion_lon": 0.0}, {"rental_uris": {"ios": "https://dc.lft.to/lastmile_qr_scan", "android": "https://dc.lft.to/lastmile_qr_scan"}, "type": "electric_scooter", "name": "ebf2a94d1d91b2345f27cdf468b9113c", "is_reserved": 0, "lon": -76.99562166666666, "is_disabled": 0, "fusion_lat": 0.0, "lat": 38.9037015, "bike_id": "ebf2a94d1d91b2345f27cdf468b9113c", "fusion_lon": 0.0}, {"rental_uris": {"ios": "https://dc.lft.to/lastmile_qr_scan", "android": "https://dc.lft.to/lastmile_qr_scan"}, "type": "electric_bike", "name": "9d303a34b6a3a94dfaefd9066496de58", "is_reserved": 0, "lon": -77.003798, "is_disabled": 0, "fusion_lat": 0.0, "lat": 38.836027666666666, "bike_id": "9d303a34b6a3a94dfaefd9066496de58", "fusion_lon": 0.0}, {"rental_uris": {"ios": "https://dc.lft.to/lastmile_qr_scan", "android": "https://dc.lft.to/lastmile_qr_scan"}, "type": "electric_scooter", "name": "c488dd1bef9073da8004df4df5b081f2", "is_reserved": 0, "lon": -77.042575, "is_disabled": 0, "fusion_lat": 0.0, "lat": 38.903585666666665, "bike_id": "c488dd1bef9073da8004df4df5b081f2", "fusion_lon": 0.0}, {"rental_uris": {"ios": "https://dc.lft.to/lastmile_qr_scan", "android": "https://dc.lft.to/lastmile_qr_scan"}, "type": "electric_scooter", "name": "59506cc162c19898a4140e82bfd5025e", "is_reserved": 0, "lon": -77.020794, "is_disabled": 0, "fusion_lat": 0.0, "lat": 38.930204, "bike_id": "59506cc162c19898a4140e82bfd5025e", "fusion_lon": 0.0}, {"rental_uris": {"ios": "https://dc.lft.to/lastmile_qr_scan", "android": "https://dc.lft.to/lastmile_qr_scan"}, "type": "electric_scooter", "name": "0b430a65e5f570b0402accad634fa474", "is_reserved": 0, "lon": -77.05901466666667, "is_disabled": 0, "fusion_lat": 0.0, "lat": 38.90154316666667, "bike_id": "0b430a65e5f570b0402accad634fa474", "fusion_lon": 0.0}, {"rental_uris": {"ios": "https://dc.lft.to/lastmile_qr_scan", "android": "https://dc.lft.to/lastmile_qr_scan"}, "type": "electric_scooter", "name": "0c4f0b6c1ec06ec4635c7498e42cae53", "is_reserved": 0, "lon": -77.00214483333333, "is_disabled": 0, "fusion_lat": 0.0, "lat": 38.907552833333334, "bike_id": "0c4f0b6c1ec06ec4635c7498e42cae53", "fusion_lon": 0.0}, {"rental_uris": {"ios": "https://dc.lft.to/lastmile_qr_scan", "android": "https://dc.lft.to/lastmile_qr_scan"}, "type": "electric_scooter", "name": "3b921e2a873ff7939ec7c2985404950b", "is_reserved": 0, "lon": -77.01841083333333, "is_disabled": 0, "fusion_lat": 0.0, "lat": 38.91504966666667, "bike_id": "3b921e2a873ff7939ec7c2985404950b", "fusion_lon": 0.0}, {"rental_uris": {"ios": "https://dc.lft.to/lastmile_qr_scan", "android": "https://dc.lft.to/lastmile_qr_scan"}, "type": "electric_scooter", "name": "f97c568684c523aac24e08d966d53f4e", "is_reserved": 0, "lon": -77.05135716666666, "is_disabled": 0, "fusion_lat": 0.0, "lat": 38.90226416666667, "bike_id": "f97c568684c523aac24e08d966d53f4e", "fusion_lon": 0.0}, {"rental_uris": {"ios": "https://dc.lft.to/lastmile_qr_scan", "android": "https://dc.lft.to/lastmile_qr_scan"}, "type": "electric_bike", "name": "6b4bf888b8dedc304173984ab9fcfa92", "is_reserved": 0, "lon": -76.96322583333334, "is_disabled": 0, "fusion_lat": 0.0, "lat": 38.9389475, "bike_id": "6b4bf888b8dedc304173984ab9fcfa92", "fusion_lon": 0.0}, {"rental_uris": {"ios": "https://dc.lft.to/lastmile_qr_scan", "android": "https://dc.lft.to/lastmile_qr_scan"}, "type": "electric_scooter", "name": "8ad5d35a318fd5be58336d9a18959da8", "is_reserved": 0, "lon": -77.03728966666667, "is_disabled": 0, "fusion_lat": 0.0, "lat": 38.92023733333333, "bike_id": "8ad5d35a318fd5be58336d9a18959da8", "fusion_lon": 0.0}, {"rental_uris": {"ios": "https://dc.lft.to/lastmile_qr_scan", "android": "https://dc.lft.to/lastmile_qr_scan"}, "type": "electric_scooter", "name": "688876465e2324d4839567bff0799386", "is_reserved": 0, "lon": -77.044222, "is_disabled": 0, "fusion_lat": 0.0, "lat": 38.91130916666667, "bike_id": "688876465e2324d4839567bff0799386", "fusion_lon": 0.0}, {"rental_uris": {"ios": "https://dc.lft.to/lastmile_qr_scan", "android": "https://dc.lft.to/lastmile_qr_scan"}, "type": "electric_scooter", "name": "6a47db91fe310a120d069d96f9b6200f", "is_reserved": 0, "lon": -76.99350333333334, "is_disabled": 0, "fusion_lat": 0.0, "lat": 38.90032883333333, "bike_id": "6a47db91fe310a120d069d96f9b6200f", "fusion_lon": 0.0}, {"rental_uris": {"ios": "https://dc.lft.to/lastmile_qr_scan", "android": "https://dc.lft.to/lastmile_qr_scan"}, "type": "electric_bike", "name": "96b085e0a16e05b8f2be2b11eca2bc89", "is_reserved": 0, "lon": -77.0738825, "is_disabled": 0, "fusion_lat": 0.0, "lat": 38.92919583333333, "bike_id": "96b085e0a16e05b8f2be2b11eca2bc89", "fusion_lon": 0.0}, {"rental_uris": {"ios": "https://dc.lft.to/lastmile_qr_scan", "android": "https://dc.lft.to/lastmile_qr_scan"}, "type": "electric_scooter", "name": "0800091b9f4cb266a08014593656df81", "is_reserved": 0, "lon": -76.990369, "is_disabled": 0, "fusion_lat": 0.0, "lat": 38.88875916666667, "bike_id": "0800091b9f4cb266a08014593656df81", "fusion_lon": 0.0}, {"rental_uris": {"ios": "https://dc.lft.to/lastmile_qr_scan", "android": "https://dc.lft.to/lastmile_qr_scan"}, "type": "electric_scooter", "name": "f96048921a0cd5cfe7cb01ef32dc7146", "is_reserved": 0, "lon": -77.01378183333334, "is_disabled": 0, "fusion_lat": 0.0, "lat": 38.8760385, "bike_id": "f96048921a0cd5cfe7cb01ef32dc7146", "fusion_lon": 0.0}, {"rental_uris": {"ios": "https://dc.lft.to/lastmile_qr_scan", "android": "https://dc.lft.to/lastmile_qr_scan"}, "type": "electric_scooter", "name": "4991d06964d9a140719e9806acf7619f", "is_reserved": 0, "lon": -77.03477083333334, "is_disabled": 0, "fusion_lat": 0.0, "lat": 38.93029666666666, "bike_id": "4991d06964d9a140719e9806acf7619f", "fusion_lon": 0.0}, {"rental_uris": {"ios": "https://dc.lft.to/lastmile_qr_scan", "android": "https://dc.lft.to/lastmile_qr_scan"}, "type": "electric_scooter", "name": "55dfcaf8c9f430e8d778e460c5f5a4a1", "is_reserved": 0, "lon": -77.02717283333334, "is_disabled": 0, "fusion_lat": 0.0, "lat": 38.881225, "bike_id": "55dfcaf8c9f430e8d778e460c5f5a4a1", "fusion_lon": 0.0}, {"rental_uris": {"ios": "https://dc.lft.to/lastmile_qr_scan", "android": "https://dc.lft.to/lastmile_qr_scan"}, "type": "electric_scooter", "name": "3e8e720d89d5e93d06f0a538ce81746b", "is_reserved": 0, "lon": -77.03220266666666, "is_disabled": 0, "fusion_lat": 0.0, "lat": 38.91398816666667, "bike_id": "3e8e720d89d5e93d06f0a538ce81746b", "fusion_lon": 0.0}, {"rental_uris": {"ios": "https://dc.lft.to/lastmile_qr_scan", "android": "https://dc.lft.to/lastmile_qr_scan"}, "type": "electric_scooter", "name": "08910b9af7aa8821cda4a56d78fa6305", "is_reserved": 0, "lon": -77.021673, "is_disabled": 0, "fusion_lat": 0.0, "lat": 38.924868333333336, "bike_id": "08910b9af7aa8821cda4a56d78fa6305", "fusion_lon": 0.0}, {"rental_uris": {"ios": "https://dc.lft.to/lastmile_qr_scan", "android": "https://dc.lft.to/lastmile_qr_scan"}, "type": "electric_scooter", "name": "452cac7b19ae5200f87a23dc6c8c2249", "is_reserved": 0, "lon": -77.03898833333334, "is_disabled": 0, "fusion_lat": 0.0, "lat": 38.92212633333333, "bike_id": "452cac7b19ae5200f87a23dc6c8c2249", "fusion_lon": 0.0}, {"rental_uris": {"ios": "https://dc.lft.to/lastmile_qr_scan", "android": "https://dc.lft.to/lastmile_qr_scan"}, "type": "electric_scooter", "name": "1f5903e4cc1c6a1ae79b428674272e5c", "is_reserved": 0, "lon": -76.98087666666666, "is_disabled": 0, "fusion_lat": 0.0, "lat": 38.90413383333333, "bike_id": "1f5903e4cc1c6a1ae79b428674272e5c", "fusion_lon": 0.0}, {"rental_uris": {"ios": "https://dc.lft.to/lastmile_qr_scan", "android": "https://dc.lft.to/lastmile_qr_scan"}, "type": "electric_scooter", "name": "90cf7b0f970368aea87ee3d131601230", "is_reserved": 0, "lon": -77.00850483333333, "is_disabled": 0, "fusion_lat": 0.0, "lat": 38.879091, "bike_id": "90cf7b0f970368aea87ee3d131601230", "fusion_lon": 0.0}, {"rental_uris": {"ios": "https://dc.lft.to/lastmile_qr_scan", "android": "https://dc.lft.to/lastmile_qr_scan"}, "type": "electric_scooter", "name": "ccf79a8d363cd1ae1befa00a530f3ba0", "is_reserved": 0, "lon": -77.03963233333333, "is_disabled": 0, "fusion_lat": 0.0, "lat": 38.93147666666667, "bike_id": "ccf79a8d363cd1ae1befa00a530f3ba0", "fusion_lon": 0.0}, {"rental_uris": {"ios": "https://dc.lft.to/lastmile_qr_scan", "android": "https://dc.lft.to/lastmile_qr_scan"}, "type": "electric_scooter", "name": "4d6329933fc2b6370e08397e0b95f175", "is_reserved": 0, "lon": -77.04153916666667, "is_disabled": 0, "fusion_lat": 0.0, "lat": 38.917515, "bike_id": "4d6329933fc2b6370e08397e0b95f175", "fusion_lon": 0.0}, {"rental_uris": {"ios": "https://dc.lft.to/lastmile_qr_scan", "android": "https://dc.lft.to/lastmile_qr_scan"}, "type": "electric_scooter", "name": "66e1d7daa6dc1cdcbdce93b04f2070bb", "is_reserved": 0, "lon": -77.0215085, "is_disabled": 0, "fusion_lat": 0.0, "lat": 38.88743783333334, "bike_id": "66e1d7daa6dc1cdcbdce93b04f2070bb", "fusion_lon": 0.0}, {"rental_uris": {"ios": "https://dc.lft.to/lastmile_qr_scan", "android": "https://dc.lft.to/lastmile_qr_scan"}, "type": "electric_scooter", "name": "2664af5951df967a77d01db0c1386411", "is_reserved": 0, "lon": -77.0211, "is_disabled": 0, "fusion_lat": 0.0, "lat": 38.90602533333333, "bike_id": "2664af5951df967a77d01db0c1386411", "fusion_lon": 0.0}, {"rental_uris": {"ios": "https://dc.lft.to/lastmile_qr_scan", "android": "https://dc.lft.to/lastmile_qr_scan"}, "type": "electric_scooter", "name": "abefefa073723fabf9598fc88fcca152", "is_reserved": 0, "lon": -77.02474, "is_disabled": 0, "fusion_lat": 0.0, "lat": 38.91816566666667, "bike_id": "abefefa073723fabf9598fc88fcca152", "fusion_lon": 0.0}, {"rental_uris": {"ios": "https://dc.lft.to/lastmile_qr_scan", "android": "https://dc.lft.to/lastmile_qr_scan"}, "type": "electric_scooter", "name": "9e494e3e9f7b832e67d01a42afa58f92", "is_reserved": 0, "lon": -76.993192, "is_disabled": 0, "fusion_lat": 0.0, "lat": 38.92013716666666, "bike_id": "9e494e3e9f7b832e67d01a42afa58f92", "fusion_lon": 0.0}, {"rental_uris": {"ios": "https://dc.lft.to/lastmile_qr_scan", "android": "https://dc.lft.to/lastmile_qr_scan"}, "type": "electric_bike", "name": "18e4cecffb452cc1c7e57f2e7e6a0ef6", "is_reserved": 0, "lon": -77.03439166666666, "is_disabled": 0, "fusion_lat": 0.0, "lat": 38.9286785, "bike_id": "18e4cecffb452cc1c7e57f2e7e6a0ef6", "fusion_lon": 0.0}, {"rental_uris": {"ios": "https://dc.lft.to/lastmile_qr_scan", "android": "https://dc.lft.to/lastmile_qr_scan"}, "type": "electric_scooter", "name": "f640691446b7ae0cce1a23a6cc3710ce", "is_reserved": 0, "lon": -77.03144133333333, "is_disabled": 0, "fusion_lat": 0.0, "lat": 38.9096875, "bike_id": "f640691446b7ae0cce1a23a6cc3710ce", "fusion_lon": 0.0}, {"rental_uris": {"ios": "https://dc.lft.to/lastmile_qr_scan", "android": "https://dc.lft.to/lastmile_qr_scan"}, "type": "electric_scooter", "name": "dfd82864d0cb0b988d490d85d791d8a0", "is_reserved": 0, "lon": -76.99629616666667, "is_disabled": 0, "fusion_lat": 0.0, "lat": 38.900556, "bike_id": "dfd82864d0cb0b988d490d85d791d8a0", "fusion_lon": 0.0}, {"rental_uris": {"ios": "https://dc.lft.to/lastmile_qr_scan", "android": "https://dc.lft.to/lastmile_qr_scan"}, "type": "electric_scooter", "name": "15ae4ea124f014fe443df4642499f0de", "is_reserved": 0, "lon": -77.03254866666667, "is_disabled": 0, "fusion_lat": 0.0, "lat": 38.90486633333333, "bike_id": "15ae4ea124f014fe443df4642499f0de", "fusion_lon": 0.0}, {"rental_uris": {"ios": "https://dc.lft.to/lastmile_qr_scan", "android": "https://dc.lft.to/lastmile_qr_scan"}, "type": "electric_scooter", "name": "de44dc97a43e7b0a428fac74eff89b9c", "is_reserved": 0, "lon": -77.02848016666667, "is_disabled": 0, "fusion_lat": 0.0, "lat": 38.935861, "bike_id": "de44dc97a43e7b0a428fac74eff89b9c", "fusion_lon": 0.0}, {"rental_uris": {"ios": "https://dc.lft.to/lastmile_qr_scan", "android": "https://dc.lft.to/lastmile_qr_scan"}, "type": "electric_scooter", "name": "cf1f2c113da13022a86ae13284428668", "is_reserved": 0, "lon": -77.03180333333333, "is_disabled": 0, "fusion_lat": 0.0, "lat": 38.913488666666666, "bike_id": "cf1f2c113da13022a86ae13284428668", "fusion_lon": 0.0}, {"rental_uris": {"ios": "https://dc.lft.to/lastmile_qr_scan", "android": "https://dc.lft.to/lastmile_qr_scan"}, "type": "electric_scooter", "name": "df032474b9fb235925bdf0327b1d1c50", "is_reserved": 0, "lon": -76.9947745, "is_disabled": 0, "fusion_lat": 0.0, "lat": 38.862122, "bike_id": "df032474b9fb235925bdf0327b1d1c50", "fusion_lon": 0.0}, {"rental_uris": {"ios": "https://dc.lft.to/lastmile_qr_scan", "android": "https://dc.lft.to/lastmile_qr_scan"}, "type": "electric_scooter", "name": "560f5863d299036b357918de9f684a2a", "is_reserved": 0, "lon": -76.99144333333334, "is_disabled": 0, "fusion_lat": 0.0, "lat": 38.843007166666666, "bike_id": "560f5863d299036b357918de9f684a2a", "fusion_lon": 0.0}, {"rental_uris": {"ios": "https://dc.lft.to/lastmile_qr_scan", "android": "https://dc.lft.to/lastmile_qr_scan"}, "type": "electric_scooter", "name": "b9c80d24ac55c8bbe98c816e8cd26689", "is_reserved": 0, "lon": -77.04667783333333, "is_disabled": 0, "fusion_lat": 0.0, "lat": 38.90938716666667, "bike_id": "b9c80d24ac55c8bbe98c816e8cd26689", "fusion_lon": 0.0}, {"rental_uris": {"ios": "https://dc.lft.to/lastmile_qr_scan", "android": "https://dc.lft.to/lastmile_qr_scan"}, "type": "electric_scooter", "name": "816253bfe4a93ab67c40749725fcbde2", "is_reserved": 0, "lon": -77.03182416666667, "is_disabled": 0, "fusion_lat": 0.0, "lat": 38.91789516666667, "bike_id": "816253bfe4a93ab67c40749725fcbde2", "fusion_lon": 0.0}, {"rental_uris": {"ios": "https://dc.lft.to/lastmile_qr_scan", "android": "https://dc.lft.to/lastmile_qr_scan"}, "type": "electric_scooter", "name": "2512e1edb5bc458958a319c7cefa31d1", "is_reserved": 0, "lon": -77.02973483333334, "is_disabled": 0, "fusion_lat": 0.0, "lat": 38.926395166666666, "bike_id": "2512e1edb5bc458958a319c7cefa31d1", "fusion_lon": 0.0}, {"rental_uris": {"ios": "https://dc.lft.to/lastmile_qr_scan", "android": "https://dc.lft.to/lastmile_qr_scan"}, "type": "electric_scooter", "name": "a89fed3bebcb9942742bb1210f04df59", "is_reserved": 0, "lon": -77.02718916666667, "is_disabled": 0, "fusion_lat": 0.0, "lat": 38.91674016666666, "bike_id": "a89fed3bebcb9942742bb1210f04df59", "fusion_lon": 0.0}, {"rental_uris": {"ios": "https://dc.lft.to/lastmile_qr_scan", "android": "https://dc.lft.to/lastmile_qr_scan"}, "type": "electric_scooter", "name": "af4b5855d8b8b79ea039088c4f693c64", "is_reserved": 0, "lon": -77.03663833333333, "is_disabled": 0, "fusion_lat": 0.0, "lat": 38.91060916666667, "bike_id": "af4b5855d8b8b79ea039088c4f693c64", "fusion_lon": 0.0}, {"rental_uris": {"ios": "https://dc.lft.to/lastmile_qr_scan", "android": "https://dc.lft.to/lastmile_qr_scan"}, "type": "electric_scooter", "name": "6d14554ff816e1963d24b7bd9a539dd1", "is_reserved": 0, "lon": -77.0381095, "is_disabled": 0, "fusion_lat": 0.0, "lat": 38.90964616666667, "bike_id": "6d14554ff816e1963d24b7bd9a539dd1", "fusion_lon": 0.0}, {"rental_uris": {"ios": "https://dc.lft.to/lastmile_qr_scan", "android": "https://dc.lft.to/lastmile_qr_scan"}, "type": "electric_scooter", "name": "79b0badb163b6e86d843ea0fafd96ab6", "is_reserved": 0, "lon": -77.002136, "is_disabled": 0, "fusion_lat": 0.0, "lat": 38.900329, "bike_id": "79b0badb163b6e86d843ea0fafd96ab6", "fusion_lon": 0.0}, {"rental_uris": {"ios": "https://dc.lft.to/lastmile_qr_scan", "android": "https://dc.lft.to/lastmile_qr_scan"}, "type": "electric_scooter", "name": "5e34b0b4854378b49ec328fa1084dccd", "is_reserved": 0, "lon": -77.03045433333334, "is_disabled": 0, "fusion_lat": 0.0, "lat": 38.990327, "bike_id": "5e34b0b4854378b49ec328fa1084dccd", "fusion_lon": 0.0}, {"rental_uris": {"ios": "https://dc.lft.to/lastmile_qr_scan", "android": "https://dc.lft.to/lastmile_qr_scan"}, "type": "electric_scooter", "name": "5e77df562068b9856fa80a922a80daf1", "is_reserved": 0, "lon": -77.02573033333333, "is_disabled": 0, "fusion_lat": 0.0, "lat": 38.912553, "bike_id": "5e77df562068b9856fa80a922a80daf1", "fusion_lon": 0.0}, {"rental_uris": {"ios": "https://dc.lft.to/lastmile_qr_scan", "android": "https://dc.lft.to/lastmile_qr_scan"}, "type": "electric_scooter", "name": "47b810afa975c910d0d7e8e90a9eb66f", "is_reserved": 0, "lon": -77.05698166666667, "is_disabled": 0, "fusion_lat": 0.0, "lat": 38.93713966666667, "bike_id": "47b810afa975c910d0d7e8e90a9eb66f", "fusion_lon": 0.0}, {"rental_uris": {"ios": "https://dc.lft.to/lastmile_qr_scan", "android": "https://dc.lft.to/lastmile_qr_scan"}, "type": "electric_scooter", "name": "e129c6058efd70d16bc626c0abf2f407", "is_reserved": 0, "lon": -77.037083, "is_disabled": 0, "fusion_lat": 0.0, "lat": 38.9148165, "bike_id": "e129c6058efd70d16bc626c0abf2f407", "fusion_lon": 0.0}, {"rental_uris": {"ios": "https://dc.lft.to/lastmile_qr_scan", "android": "https://dc.lft.to/lastmile_qr_scan"}, "type": "electric_scooter", "name": "239bc727c6d17b321f587a729cc7a77c", "is_reserved": 0, "lon": -77.03085766666666, "is_disabled": 0, "fusion_lat": 0.0, "lat": 38.89541033333333, "bike_id": "239bc727c6d17b321f587a729cc7a77c", "fusion_lon": 0.0}, {"rental_uris": {"ios": "https://dc.lft.to/lastmile_qr_scan", "android": "https://dc.lft.to/lastmile_qr_scan"}, "type": "electric_scooter", "name": "1eace839b2785eebb91077b892cc7c53", "is_reserved": 0, "lon": -77.01207383333333, "is_disabled": 0, "fusion_lat": 0.0, "lat": 38.91195033333333, "bike_id": "1eace839b2785eebb91077b892cc7c53", "fusion_lon": 0.0}, {"rental_uris": {"ios": "https://dc.lft.to/lastmile_qr_scan", "android": "https://dc.lft.to/lastmile_qr_scan"}, "type": "electric_scooter", "name": "b0b5a5066b8a035c973134866b1ba406", "is_reserved": 0, "lon": -77.0395195, "is_disabled": 0, "fusion_lat": 0.0, "lat": 38.9071515, "bike_id": "b0b5a5066b8a035c973134866b1ba406", "fusion_lon": 0.0}, {"rental_uris": {"ios": "https://dc.lft.to/lastmile_qr_scan", "android": "https://dc.lft.to/lastmile_qr_scan"}, "type": "electric_scooter", "name": "4273f4ed933f491f2e337bbdcba3ca5c", "is_reserved": 0, "lon": -77.00426866666666, "is_disabled": 0, "fusion_lat": 0.0, "lat": 38.929426666666664, "bike_id": "4273f4ed933f491f2e337bbdcba3ca5c", "fusion_lon": 0.0}, {"rental_uris": {"ios": "https://dc.lft.to/lastmile_qr_scan", "android": "https://dc.lft.to/lastmile_qr_scan"}, "type": "electric_bike", "name": "ed210a9b52350369a96a52ddf2d6712b", "is_reserved": 0, "lon": -76.91798166666666, "is_disabled": 0, "fusion_lat": 0.0, "lat": 39.0000085, "bike_id": "ed210a9b52350369a96a52ddf2d6712b", "fusion_lon": 0.0}, {"rental_uris": {"ios": "https://dc.lft.to/lastmile_qr_scan", "android": "https://dc.lft.to/lastmile_qr_scan"}, "type": "electric_scooter", "name": "84d7579ffe12094f782b42a008aba771", "is_reserved": 0, "lon": -77.02478333333333, "is_disabled": 0, "fusion_lat": 0.0, "lat": 38.91814183333334, "bike_id": "84d7579ffe12094f782b42a008aba771", "fusion_lon": 0.0}, {"rental_uris": {"ios": "https://dc.lft.to/lastmile_qr_scan", "android": "https://dc.lft.to/lastmile_qr_scan"}, "type": "electric_scooter", "name": "fe58f92cee82154cf1eaedad8b202efc", "is_reserved": 0, "lon": -76.99487166666667, "is_disabled": 0, "fusion_lat": 0.0, "lat": 38.882295, "bike_id": "fe58f92cee82154cf1eaedad8b202efc", "fusion_lon": 0.0}, {"rental_uris": {"ios": "https://dc.lft.to/lastmile_qr_scan", "android": "https://dc.lft.to/lastmile_qr_scan"}, "type": "electric_scooter", "name": "6f48f5fd0c033c90d8ce52b05b2b2b79", "is_reserved": 0, "lon": -77.03604266666666, "is_disabled": 0, "fusion_lat": 0.0, "lat": 38.9285625, "bike_id": "6f48f5fd0c033c90d8ce52b05b2b2b79", "fusion_lon": 0.0}, {"rental_uris": {"ios": "https://dc.lft.to/lastmile_qr_scan", "android": "https://dc.lft.to/lastmile_qr_scan"}, "type": "electric_scooter", "name": "bf948e670934ea6a774f9735779dac17", "is_reserved": 0, "lon": -77.0436185, "is_disabled": 0, "fusion_lat": 0.0, "lat": 38.922345, "bike_id": "bf948e670934ea6a774f9735779dac17", "fusion_lon": 0.0}, {"rental_uris": {"ios": "https://dc.lft.to/lastmile_qr_scan", "android": "https://dc.lft.to/lastmile_qr_scan"}, "type": "electric_scooter", "name": "2e4f1b83e00f417920ea3233636ba1a0", "is_reserved": 0, "lon": -77.02816866666667, "is_disabled": 0, "fusion_lat": 0.0, "lat": 38.904999, "bike_id": "2e4f1b83e00f417920ea3233636ba1a0", "fusion_lon": 0.0}, {"rental_uris": {"ios": "https://dc.lft.to/lastmile_qr_scan", "android": "https://dc.lft.to/lastmile_qr_scan"}, "type": "electric_scooter", "name": "dd0749ea0875b20cad2be7615b193b19", "is_reserved": 0, "lon": -77.06169733333333, "is_disabled": 0, "fusion_lat": 0.0, "lat": 38.941265, "bike_id": "dd0749ea0875b20cad2be7615b193b19", "fusion_lon": 0.0}, {"rental_uris": {"ios": "https://dc.lft.to/lastmile_qr_scan", "android": "https://dc.lft.to/lastmile_qr_scan"}, "type": "electric_bike", "name": "dfa1d155411e537760f585ae485da1c7", "is_reserved": 0, "lon": -76.9784855, "is_disabled": 0, "fusion_lat": 0.0, "lat": 38.888735, "bike_id": "dfa1d155411e537760f585ae485da1c7", "fusion_lon": 0.0}, {"rental_uris": {"ios": "https://dc.lft.to/lastmile_qr_scan", "android": "https://dc.lft.to/lastmile_qr_scan"}, "type": "electric_scooter", "name": "f0eca1a894b3eb5f7902e1e39c7a5125", "is_reserved": 0, "lon": -77.00660633333334, "is_disabled": 0, "fusion_lat": 0.0, "lat": 38.876592333333335, "bike_id": "f0eca1a894b3eb5f7902e1e39c7a5125", "fusion_lon": 0.0}, {"rental_uris": {"ios": "https://dc.lft.to/lastmile_qr_scan", "android": "https://dc.lft.to/lastmile_qr_scan"}, "type": "electric_bike", "name": "d5683032afb57f0bbf818a46390d9159", "is_reserved": 0, "lon": -77.12914816666667, "is_disabled": 0, "fusion_lat": 0.0, "lat": 38.79967533333333, "bike_id": "d5683032afb57f0bbf818a46390d9159", "fusion_lon": 0.0}, {"rental_uris": {"ios": "https://dc.lft.to/lastmile_qr_scan", "android": "https://dc.lft.to/lastmile_qr_scan"}, "type": "electric_scooter", "name": "0634eb6696ca0c93a867958ef521b7b2", "is_reserved": 0, "lon": -77.05240766666667, "is_disabled": 0, "fusion_lat": 0.0, "lat": 38.924604, "bike_id": "0634eb6696ca0c93a867958ef521b7b2", "fusion_lon": 0.0}, {"rental_uris": {"ios": "https://dc.lft.to/lastmile_qr_scan", "android": "https://dc.lft.to/lastmile_qr_scan"}, "type": "electric_scooter", "name": "7aff24f741ffea23f68a27031ced2bb0", "is_reserved": 0, "lon": -77.031862, "is_disabled": 0, "fusion_lat": 0.0, "lat": 38.91794516666667, "bike_id": "7aff24f741ffea23f68a27031ced2bb0", "fusion_lon": 0.0}, {"rental_uris": {"ios": "https://dc.lft.to/lastmile_qr_scan", "android": "https://dc.lft.to/lastmile_qr_scan"}, "type": "electric_bike", "name": "05f7bc0d6a6b7fbd49a0205d660e232b", "is_reserved": 0, "lon": -77.00414466666666, "is_disabled": 0, "fusion_lat": 0.0, "lat": 38.98523266666667, "bike_id": "05f7bc0d6a6b7fbd49a0205d660e232b", "fusion_lon": 0.0}, {"rental_uris": {"ios": "https://dc.lft.to/lastmile_qr_scan", "android": "https://dc.lft.to/lastmile_qr_scan"}, "type": "electric_scooter", "name": "a0e40514104d2302884986c8fb70c47e", "is_reserved": 0, "lon": -77.0038685, "is_disabled": 0, "fusion_lat": 0.0, "lat": 38.87938416666667, "bike_id": "a0e40514104d2302884986c8fb70c47e", "fusion_lon": 0.0}, {"rental_uris": {"ios": "https://dc.lft.to/lastmile_qr_scan", "android": "https://dc.lft.to/lastmile_qr_scan"}, "type": "electric_scooter", "name": "41b85c9aca4026173036112a59e36828", "is_reserved": 0, "lon": -77.03194916666666, "is_disabled": 0, "fusion_lat": 0.0, "lat": 38.93062316666666, "bike_id": "41b85c9aca4026173036112a59e36828", "fusion_lon": 0.0}, {"rental_uris": {"ios": "https://dc.lft.to/lastmile_qr_scan", "android": "https://dc.lft.to/lastmile_qr_scan"}, "type": "electric_scooter", "name": "0545e348a9d6663e6d6f83bd7388b626", "is_reserved": 0, "lon": -77.05306883333333, "is_disabled": 0, "fusion_lat": 0.0, "lat": 38.90258583333333, "bike_id": "0545e348a9d6663e6d6f83bd7388b626", "fusion_lon": 0.0}, {"rental_uris": {"ios": "https://dc.lft.to/lastmile_qr_scan", "android": "https://dc.lft.to/lastmile_qr_scan"}, "type": "electric_scooter", "name": "d6f7485252b7bdb3df2ad51d56acd1a3", "is_reserved": 0, "lon": -77.0337535, "is_disabled": 0, "fusion_lat": 0.0, "lat": 38.905593833333334, "bike_id": "d6f7485252b7bdb3df2ad51d56acd1a3", "fusion_lon": 0.0}, {"rental_uris": {"ios": "https://dc.lft.to/lastmile_qr_scan", "android": "https://dc.lft.to/lastmile_qr_scan"}, "type": "electric_scooter", "name": "6d9d5b2e555ebc53c22113fa36f3e0eb", "is_reserved": 0, "lon": -77.04913033333334, "is_disabled": 0, "fusion_lat": 0.0, "lat": 38.90077483333334, "bike_id": "6d9d5b2e555ebc53c22113fa36f3e0eb", "fusion_lon": 0.0}, {"rental_uris": {"ios": "https://dc.lft.to/lastmile_qr_scan", "android": "https://dc.lft.to/lastmile_qr_scan"}, "type": "electric_scooter", "name": "13c2880994cbee9bea27dadea8465c31", "is_reserved": 0, "lon": -77.02025616666667, "is_disabled": 0, "fusion_lat": 0.0, "lat": 38.93411183333333, "bike_id": "13c2880994cbee9bea27dadea8465c31", "fusion_lon": 0.0}, {"rental_uris": {"ios": "https://dc.lft.to/lastmile_qr_scan", "android": "https://dc.lft.to/lastmile_qr_scan"}, "type": "electric_scooter", "name": "5e70f6d21bc9832cc1ccd940d7a22066", "is_reserved": 0, "lon": -76.9339475, "is_disabled": 0, "fusion_lat": 0.0, "lat": 38.899095833333334, "bike_id": "5e70f6d21bc9832cc1ccd940d7a22066", "fusion_lon": 0.0}, {"rental_uris": {"ios": "https://dc.lft.to/lastmile_qr_scan", "android": "https://dc.lft.to/lastmile_qr_scan"}, "type": "electric_scooter", "name": "8e8781a8cf5fc809f469554abe02efc9", "is_reserved": 0, "lon": -77.04075733333333, "is_disabled": 0, "fusion_lat": 0.0, "lat": 38.917115333333335, "bike_id": "8e8781a8cf5fc809f469554abe02efc9", "fusion_lon": 0.0}, {"rental_uris": {"ios": "https://dc.lft.to/lastmile_qr_scan", "android": "https://dc.lft.to/lastmile_qr_scan"}, "type": "electric_scooter", "name": "df0fb31382f00c95aede7d842f2bf7e1", "is_reserved": 0, "lon": -77.0596545, "is_disabled": 0, "fusion_lat": 0.0, "lat": 38.928298833333336, "bike_id": "df0fb31382f00c95aede7d842f2bf7e1", "fusion_lon": 0.0}, {"rental_uris": {"ios": "https://dc.lft.to/lastmile_qr_scan", "android": "https://dc.lft.to/lastmile_qr_scan"}, "type": "electric_scooter", "name": "914978f05aa42d314a90b36e25e2c620", "is_reserved": 0, "lon": -77.04231216666666, "is_disabled": 0, "fusion_lat": 0.0, "lat": 38.91107483333333, "bike_id": "914978f05aa42d314a90b36e25e2c620", "fusion_lon": 0.0}, {"rental_uris": {"ios": "https://dc.lft.to/lastmile_qr_scan", "android": "https://dc.lft.to/lastmile_qr_scan"}, "type": "electric_bike", "name": "13ab1e13fb074db06c3587caf9cdafb7", "is_reserved": 0, "lon": -76.99916583333334, "is_disabled": 0, "fusion_lat": 0.0, "lat": 38.86451533333333, "bike_id": "13ab1e13fb074db06c3587caf9cdafb7", "fusion_lon": 0.0}, {"rental_uris": {"ios": "https://dc.lft.to/lastmile_qr_scan", "android": "https://dc.lft.to/lastmile_qr_scan"}, "type": "electric_scooter", "name": "51df169e3c6189de9f99f237983e6d67", "is_reserved": 0, "lon": -77.01870783333334, "is_disabled": 0, "fusion_lat": 0.0, "lat": 38.93049333333333, "bike_id": "51df169e3c6189de9f99f237983e6d67", "fusion_lon": 0.0}, {"rental_uris": {"ios": "https://dc.lft.to/lastmile_qr_scan", "android": "https://dc.lft.to/lastmile_qr_scan"}, "type": "electric_scooter", "name": "ae589fe87d12a000008736b3003f6e41", "is_reserved": 0, "lon": -77.03841016666667, "is_disabled": 0, "fusion_lat": 0.0, "lat": 38.907135, "bike_id": "ae589fe87d12a000008736b3003f6e41", "fusion_lon": 0.0}, {"rental_uris": {"ios": "https://dc.lft.to/lastmile_qr_scan", "android": "https://dc.lft.to/lastmile_qr_scan"}, "type": "electric_scooter", "name": "0e5d0e4f4d784addc3038162ee596bf1", "is_reserved": 0, "lon": -77.11019416666667, "is_disabled": 0, "fusion_lat": 0.0, "lat": 38.87713316666667, "bike_id": "0e5d0e4f4d784addc3038162ee596bf1", "fusion_lon": 0.0}, {"rental_uris": {"ios": "https://dc.lft.to/lastmile_qr_scan", "android": "https://dc.lft.to/lastmile_qr_scan"}, "type": "electric_scooter", "name": "37172400ec1b4b79d97b86ade952cc94", "is_reserved": 0, "lon": -77.02444516666667, "is_disabled": 0, "fusion_lat": 0.0, "lat": 38.92343666666667, "bike_id": "37172400ec1b4b79d97b86ade952cc94", "fusion_lon": 0.0}, {"rental_uris": {"ios": "https://dc.lft.to/lastmile_qr_scan", "android": "https://dc.lft.to/lastmile_qr_scan"}, "type": "electric_scooter", "name": "e9a1034495f52ab6c12783a1513bf40a", "is_reserved": 0, "lon": -77.01883666666667, "is_disabled": 0, "fusion_lat": 0.0, "lat": 38.897434, "bike_id": "e9a1034495f52ab6c12783a1513bf40a", "fusion_lon": 0.0}, {"rental_uris": {"ios": "https://dc.lft.to/lastmile_qr_scan", "android": "https://dc.lft.to/lastmile_qr_scan"}, "type": "electric_bike", "name": "be242cc8336acb2a73df849c1c633c2b", "is_reserved": 0, "lon": -77.12704966666666, "is_disabled": 0, "fusion_lat": 0.0, "lat": 38.8956545, "bike_id": "be242cc8336acb2a73df849c1c633c2b", "fusion_lon": 0.0}, {"rental_uris": {"ios": "https://dc.lft.to/lastmile_qr_scan", "android": "https://dc.lft.to/lastmile_qr_scan"}, "type": "electric_scooter", "name": "c3b5c848911be4874a5f2ffce2072c94", "is_reserved": 0, "lon": -76.957471, "is_disabled": 0, "fusion_lat": 0.0, "lat": 38.8838865, "bike_id": "c3b5c848911be4874a5f2ffce2072c94", "fusion_lon": 0.0}, {"rental_uris": {"ios": "https://dc.lft.to/lastmile_qr_scan", "android": "https://dc.lft.to/lastmile_qr_scan"}, "type": "electric_bike", "name": "9577f935e79f28b3dd5d0558b7d58597", "is_reserved": 0, "lon": -76.9569825, "is_disabled": 0, "fusion_lat": 0.0, "lat": 38.85085183333333, "bike_id": "9577f935e79f28b3dd5d0558b7d58597", "fusion_lon": 0.0}, {"rental_uris": {"ios": "https://dc.lft.to/lastmile_qr_scan", "android": "https://dc.lft.to/lastmile_qr_scan"}, "type": "electric_scooter", "name": "1559e0750f7420119515a0dd15a41d7b", "is_reserved": 0, "lon": -77.023877, "is_disabled": 0, "fusion_lat": 0.0, "lat": 38.90312733333333, "bike_id": "1559e0750f7420119515a0dd15a41d7b", "fusion_lon": 0.0}, {"rental_uris": {"ios": "https://dc.lft.to/lastmile_qr_scan", "android": "https://dc.lft.to/lastmile_qr_scan"}, "type": "electric_bike", "name": "330b80edbeebbfbb2f074986aca5fca6", "is_reserved": 0, "lon": -77.09017483333334, "is_disabled": 0, "fusion_lat": 0.0, "lat": 38.92646, "bike_id": "330b80edbeebbfbb2f074986aca5fca6", "fusion_lon": 0.0}, {"rental_uris": {"ios": "https://dc.lft.to/lastmile_qr_scan", "android": "https://dc.lft.to/lastmile_qr_scan"}, "type": "electric_scooter", "name": "a53e6da1ce016ad225dbfc497458c81e", "is_reserved": 0, "lon": -76.9885375, "is_disabled": 0, "fusion_lat": 0.0, "lat": 38.891640333333335, "bike_id": "a53e6da1ce016ad225dbfc497458c81e", "fusion_lon": 0.0}, {"rental_uris": {"ios": "https://dc.lft.to/lastmile_qr_scan", "android": "https://dc.lft.to/lastmile_qr_scan"}, "type": "electric_scooter", "name": "367b0bde94c121b65c46c94d3710b590", "is_reserved": 0, "lon": -77.03197933333334, "is_disabled": 0, "fusion_lat": 0.0, "lat": 38.91009533333333, "bike_id": "367b0bde94c121b65c46c94d3710b590", "fusion_lon": 0.0}, {"rental_uris": {"ios": "https://dc.lft.to/lastmile_qr_scan", "android": "https://dc.lft.to/lastmile_qr_scan"}, "type": "electric_scooter", "name": "85528a3f7545ba8cbf2ce7952ce94b12", "is_reserved": 0, "lon": -77.05149483333334, "is_disabled": 0, "fusion_lat": 0.0, "lat": 38.90033233333333, "bike_id": "85528a3f7545ba8cbf2ce7952ce94b12", "fusion_lon": 0.0}, {"rental_uris": {"ios": "https://dc.lft.to/lastmile_qr_scan", "android": "https://dc.lft.to/lastmile_qr_scan"}, "type": "electric_scooter", "name": "4eac5bbab16a8b89dced30ca583e24e2", "is_reserved": 0, "lon": -77.026624, "is_disabled": 0, "fusion_lat": 0.0, "lat": 38.884737, "bike_id": "4eac5bbab16a8b89dced30ca583e24e2", "fusion_lon": 0.0}, {"rental_uris": {"ios": "https://dc.lft.to/lastmile_qr_scan", "android": "https://dc.lft.to/lastmile_qr_scan"}, "type": "electric_scooter", "name": "c299800662adae9de54a494ba3acfa81", "is_reserved": 0, "lon": -77.02956916666666, "is_disabled": 0, "fusion_lat": 0.0, "lat": 38.916834, "bike_id": "c299800662adae9de54a494ba3acfa81", "fusion_lon": 0.0}, {"rental_uris": {"ios": "https://dc.lft.to/lastmile_qr_scan", "android": "https://dc.lft.to/lastmile_qr_scan"}, "type": "electric_scooter", "name": "74bd7ed5b60d9af09eeb3efec7c1372a", "is_reserved": 0, "lon": -77.04820683333334, "is_disabled": 0, "fusion_lat": 0.0, "lat": 38.905173, "bike_id": "74bd7ed5b60d9af09eeb3efec7c1372a", "fusion_lon": 0.0}, {"rental_uris": {"ios": "https://dc.lft.to/lastmile_qr_scan", "android": "https://dc.lft.to/lastmile_qr_scan"}, "type": "electric_scooter", "name": "bc64a2da81658fb78a06365a86414c28", "is_reserved": 0, "lon": -76.9730365, "is_disabled": 0, "fusion_lat": 0.0, "lat": 38.919896333333334, "bike_id": "bc64a2da81658fb78a06365a86414c28", "fusion_lon": 0.0}, {"rental_uris": {"ios": "https://dc.lft.to/lastmile_qr_scan", "android": "https://dc.lft.to/lastmile_qr_scan"}, "type": "electric_scooter", "name": "911a5207faedbd898dc142ecd4b33e2b", "is_reserved": 0, "lon": -77.033403, "is_disabled": 0, "fusion_lat": 0.0, "lat": 38.89836433333333, "bike_id": "911a5207faedbd898dc142ecd4b33e2b", "fusion_lon": 0.0}, {"rental_uris": {"ios": "https://dc.lft.to/lastmile_qr_scan", "android": "https://dc.lft.to/lastmile_qr_scan"}, "type": "electric_bike", "name": "2dbd82b2800359873fbc916eaca9bb11", "is_reserved": 0, "lon": -76.992812, "is_disabled": 0, "fusion_lat": 0.0, "lat": 38.972589666666664, "bike_id": "2dbd82b2800359873fbc916eaca9bb11", "fusion_lon": 0.0}, {"rental_uris": {"ios": "https://dc.lft.to/lastmile_qr_scan", "android": "https://dc.lft.to/lastmile_qr_scan"}, "type": "electric_bike", "name": "fcca7a2ceca7759dd61d77a689b4c5e6", "is_reserved": 0, "lon": -76.99697416666666, "is_disabled": 0, "fusion_lat": 0.0, "lat": 38.83862416666667, "bike_id": "fcca7a2ceca7759dd61d77a689b4c5e6", "fusion_lon": 0.0}, {"rental_uris": {"ios": "https://dc.lft.to/lastmile_qr_scan", "android": "https://dc.lft.to/lastmile_qr_scan"}, "type": "electric_scooter", "name": "f0c3d924e4fc1db13375c680b85394e8", "is_reserved": 0, "lon": -77.01793166666667, "is_disabled": 0, "fusion_lat": 0.0, "lat": 38.876802, "bike_id": "f0c3d924e4fc1db13375c680b85394e8", "fusion_lon": 0.0}, {"rental_uris": {"ios": "https://dc.lft.to/lastmile_qr_scan", "android": "https://dc.lft.to/lastmile_qr_scan"}, "type": "electric_scooter", "name": "06ac90afa42f8251f1e12a8c3dcd57f7", "is_reserved": 0, "lon": -76.98078416666667, "is_disabled": 0, "fusion_lat": 0.0, "lat": 38.9017915, "bike_id": "06ac90afa42f8251f1e12a8c3dcd57f7", "fusion_lon": 0.0}, {"rental_uris": {"ios": "https://dc.lft.to/lastmile_qr_scan", "android": "https://dc.lft.to/lastmile_qr_scan"}, "type": "electric_scooter", "name": "c33ab6779be87e557b805515bc436be1", "is_reserved": 0, "lon": -77.040283, "is_disabled": 0, "fusion_lat": 0.0, "lat": 38.91187033333333, "bike_id": "c33ab6779be87e557b805515bc436be1", "fusion_lon": 0.0}, {"rental_uris": {"ios": "https://dc.lft.to/lastmile_qr_scan", "android": "https://dc.lft.to/lastmile_qr_scan"}, "type": "electric_scooter", "name": "f31391ca5514e708454de83fa18d4fb6", "is_reserved": 0, "lon": -77.00240816666667, "is_disabled": 0, "fusion_lat": 0.0, "lat": 38.91176333333333, "bike_id": "f31391ca5514e708454de83fa18d4fb6", "fusion_lon": 0.0}, {"rental_uris": {"ios": "https://dc.lft.to/lastmile_qr_scan", "android": "https://dc.lft.to/lastmile_qr_scan"}, "type": "electric_bike", "name": "e38116832b554e6037a49763c3ef2c6e", "is_reserved": 0, "lon": -77.0797445, "is_disabled": 0, "fusion_lat": 0.0, "lat": 38.91945716666667, "bike_id": "e38116832b554e6037a49763c3ef2c6e", "fusion_lon": 0.0}, {"rental_uris": {"ios": "https://dc.lft.to/lastmile_qr_scan", "android": "https://dc.lft.to/lastmile_qr_scan"}, "type": "electric_scooter", "name": "0c92cce55d0752b998538c92fa5853d4", "is_reserved": 0, "lon": -77.00543333333333, "is_disabled": 0, "fusion_lat": 0.0, "lat": 38.8747405, "bike_id": "0c92cce55d0752b998538c92fa5853d4", "fusion_lon": 0.0}, {"rental_uris": {"ios": "https://dc.lft.to/lastmile_qr_scan", "android": "https://dc.lft.to/lastmile_qr_scan"}, "type": "electric_scooter", "name": "e4d9c5a94c90be39b3f1fa271f024063", "is_reserved": 0, "lon": -77.05219883333334, "is_disabled": 0, "fusion_lat": 0.0, "lat": 38.92490766666667, "bike_id": "e4d9c5a94c90be39b3f1fa271f024063", "fusion_lon": 0.0}, {"rental_uris": {"ios": "https://dc.lft.to/lastmile_qr_scan", "android": "https://dc.lft.to/lastmile_qr_scan"}, "type": "electric_scooter", "name": "a9e2f9c34c156d15f3b3c29cd8070b54", "is_reserved": 0, "lon": -77.024088, "is_disabled": 0, "fusion_lat": 0.0, "lat": 38.938166833333334, "bike_id": "a9e2f9c34c156d15f3b3c29cd8070b54", "fusion_lon": 0.0}, {"rental_uris": {"ios": "https://dc.lft.to/lastmile_qr_scan", "android": "https://dc.lft.to/lastmile_qr_scan"}, "type": "electric_scooter", "name": "75f921de0b172217b6ebfcf674d4b82a", "is_reserved": 0, "lon": -76.97936216666666, "is_disabled": 0, "fusion_lat": 0.0, "lat": 38.906595, "bike_id": "75f921de0b172217b6ebfcf674d4b82a", "fusion_lon": 0.0}, {"rental_uris": {"ios": "https://dc.lft.to/lastmile_qr_scan", "android": "https://dc.lft.to/lastmile_qr_scan"}, "type": "electric_scooter", "name": "9da8ed8fd2a91fb815db733005a0fd73", "is_reserved": 0, "lon": -77.0363665, "is_disabled": 0, "fusion_lat": 0.0, "lat": 38.9376325, "bike_id": "9da8ed8fd2a91fb815db733005a0fd73", "fusion_lon": 0.0}, {"rental_uris": {"ios": "https://dc.lft.to/lastmile_qr_scan", "android": "https://dc.lft.to/lastmile_qr_scan"}, "type": "electric_scooter", "name": "1c7ef1f911038b5b26b2e3df102d90e8", "is_reserved": 0, "lon": -77.03663466666667, "is_disabled": 0, "fusion_lat": 0.0, "lat": 38.93206583333333, "bike_id": "1c7ef1f911038b5b26b2e3df102d90e8", "fusion_lon": 0.0}, {"rental_uris": {"ios": "https://dc.lft.to/lastmile_qr_scan", "android": "https://dc.lft.to/lastmile_qr_scan"}, "type": "electric_scooter", "name": "58750649e867c161ae896e3d5c99867d", "is_reserved": 0, "lon": -76.986157, "is_disabled": 0, "fusion_lat": 0.0, "lat": 38.938269166666664, "bike_id": "58750649e867c161ae896e3d5c99867d", "fusion_lon": 0.0}, {"rental_uris": {"ios": "https://dc.lft.to/lastmile_qr_scan", "android": "https://dc.lft.to/lastmile_qr_scan"}, "type": "electric_scooter", "name": "e3a832e5b4579a7412b99a9455af4f69", "is_reserved": 0, "lon": -77.0468765, "is_disabled": 0, "fusion_lat": 0.0, "lat": 38.89744133333333, "bike_id": "e3a832e5b4579a7412b99a9455af4f69", "fusion_lon": 0.0}, {"rental_uris": {"ios": "https://dc.lft.to/lastmile_qr_scan", "android": "https://dc.lft.to/lastmile_qr_scan"}, "type": "electric_scooter", "name": "cb2051e52842e03bce26d2285520b470", "is_reserved": 0, "lon": -77.0466, "is_disabled": 0, "fusion_lat": 0.0, "lat": 38.893406, "bike_id": "cb2051e52842e03bce26d2285520b470", "fusion_lon": 0.0}, {"rental_uris": {"ios": "https://dc.lft.to/lastmile_qr_scan", "android": "https://dc.lft.to/lastmile_qr_scan"}, "type": "electric_scooter", "name": "74d4bc28babbed9a0e30ec1df22e6253", "is_reserved": 0, "lon": -76.9964125, "is_disabled": 0, "fusion_lat": 0.0, "lat": 38.887633, "bike_id": "74d4bc28babbed9a0e30ec1df22e6253", "fusion_lon": 0.0}, {"rental_uris": {"ios": "https://dc.lft.to/lastmile_qr_scan", "android": "https://dc.lft.to/lastmile_qr_scan"}, "type": "electric_scooter", "name": "bb0fac91fc31cb415f158bbb581bdb91", "is_reserved": 0, "lon": -77.00769133333333, "is_disabled": 0, "fusion_lat": 0.0, "lat": 38.90971416666667, "bike_id": "bb0fac91fc31cb415f158bbb581bdb91", "fusion_lon": 0.0}, {"rental_uris": {"ios": "https://dc.lft.to/lastmile_qr_scan", "android": "https://dc.lft.to/lastmile_qr_scan"}, "type": "electric_scooter", "name": "3b42c4d557a6b8a19bdd8da6226063e8", "is_reserved": 0, "lon": -77.02168583333334, "is_disabled": 0, "fusion_lat": 0.0, "lat": 38.92000083333333, "bike_id": "3b42c4d557a6b8a19bdd8da6226063e8", "fusion_lon": 0.0}, {"rental_uris": {"ios": "https://dc.lft.to/lastmile_qr_scan", "android": "https://dc.lft.to/lastmile_qr_scan"}, "type": "electric_scooter", "name": "8fe56adb5c8290d673f13f12297d5746", "is_reserved": 0, "lon": -76.95290083333333, "is_disabled": 0, "fusion_lat": 0.0, "lat": 38.8902085, "bike_id": "8fe56adb5c8290d673f13f12297d5746", "fusion_lon": 0.0}, {"rental_uris": {"ios": "https://dc.lft.to/lastmile_qr_scan", "android": "https://dc.lft.to/lastmile_qr_scan"}, "type": "electric_scooter", "name": "4643cb6d1e76abb664593bb70a06dada", "is_reserved": 0, "lon": -77.04700533333333, "is_disabled": 0, "fusion_lat": 0.0, "lat": 38.906045666666664, "bike_id": "4643cb6d1e76abb664593bb70a06dada", "fusion_lon": 0.0}, {"rental_uris": {"ios": "https://dc.lft.to/lastmile_qr_scan", "android": "https://dc.lft.to/lastmile_qr_scan"}, "type": "electric_bike", "name": "70748e678c6099b5c046db5f743d2d44", "is_reserved": 0, "lon": -76.980952, "is_disabled": 0, "fusion_lat": 0.0, "lat": 38.953547666666665, "bike_id": "70748e678c6099b5c046db5f743d2d44", "fusion_lon": 0.0}, {"rental_uris": {"ios": "https://dc.lft.to/lastmile_qr_scan", "android": "https://dc.lft.to/lastmile_qr_scan"}, "type": "electric_bike", "name": "d061c2f52b21f74e0b17a99227ada47d", "is_reserved": 0, "lon": -76.99544766666666, "is_disabled": 0, "fusion_lat": 0.0, "lat": 38.8315505, "bike_id": "d061c2f52b21f74e0b17a99227ada47d", "fusion_lon": 0.0}, {"rental_uris": {"ios": "https://dc.lft.to/lastmile_qr_scan", "android": "https://dc.lft.to/lastmile_qr_scan"}, "type": "electric_scooter", "name": "063703173a6c116b07fe4529a8ecac4e", "is_reserved": 0, "lon": -77.01513583333333, "is_disabled": 0, "fusion_lat": 0.0, "lat": 38.887338166666666, "bike_id": "063703173a6c116b07fe4529a8ecac4e", "fusion_lon": 0.0}, {"rental_uris": {"ios": "https://dc.lft.to/lastmile_qr_scan", "android": "https://dc.lft.to/lastmile_qr_scan"}, "type": "electric_scooter", "name": "013a674598d07099ce18d94a84e3b6f9", "is_reserved": 0, "lon": -77.00553533333333, "is_disabled": 0, "fusion_lat": 0.0, "lat": 38.875502166666664, "bike_id": "013a674598d07099ce18d94a84e3b6f9", "fusion_lon": 0.0}, {"rental_uris": {"ios": "https://dc.lft.to/lastmile_qr_scan", "android": "https://dc.lft.to/lastmile_qr_scan"}, "type": "electric_scooter", "name": "4e64be58097a0481506c958b4de7caf6", "is_reserved": 0, "lon": -77.03211316666666, "is_disabled": 0, "fusion_lat": 0.0, "lat": 38.91637016666667, "bike_id": "4e64be58097a0481506c958b4de7caf6", "fusion_lon": 0.0}, {"rental_uris": {"ios": "https://dc.lft.to/lastmile_qr_scan", "android": "https://dc.lft.to/lastmile_qr_scan"}, "type": "electric_bike", "name": "2f0d8d322be7da02a3c04375e75060c0", "is_reserved": 0, "lon": -77.012286, "is_disabled": 0, "fusion_lat": 0.0, "lat": 38.95084383333333, "bike_id": "2f0d8d322be7da02a3c04375e75060c0", "fusion_lon": 0.0}, {"rental_uris": {"ios": "https://dc.lft.to/lastmile_qr_scan", "android": "https://dc.lft.to/lastmile_qr_scan"}, "type": "electric_scooter", "name": "a494330f6862f280d2a8765d114aecaa", "is_reserved": 0, "lon": -77.02208616666667, "is_disabled": 0, "fusion_lat": 0.0, "lat": 38.892303, "bike_id": "a494330f6862f280d2a8765d114aecaa", "fusion_lon": 0.0}, {"rental_uris": {"ios": "https://dc.lft.to/lastmile_qr_scan", "android": "https://dc.lft.to/lastmile_qr_scan"}, "type": "electric_scooter", "name": "3cc8d0327dbaabb94a1255e0cba8b941", "is_reserved": 0, "lon": -77.04558016666667, "is_disabled": 0, "fusion_lat": 0.0, "lat": 38.90073833333334, "bike_id": "3cc8d0327dbaabb94a1255e0cba8b941", "fusion_lon": 0.0}, {"rental_uris": {"ios": "https://dc.lft.to/lastmile_qr_scan", "android": "https://dc.lft.to/lastmile_qr_scan"}, "type": "electric_scooter", "name": "7685bc8100de2c1e2c6895091368eada", "is_reserved": 0, "lon": -77.03741183333334, "is_disabled": 0, "fusion_lat": 0.0, "lat": 38.87991266666667, "bike_id": "7685bc8100de2c1e2c6895091368eada", "fusion_lon": 0.0}, {"rental_uris": {"ios": "https://dc.lft.to/lastmile_qr_scan", "android": "https://dc.lft.to/lastmile_qr_scan"}, "type": "electric_scooter", "name": "cd28de1aa593361dc3ff8b7775a784ed", "is_reserved": 0, "lon": -77.06618966666667, "is_disabled": 0, "fusion_lat": 0.0, "lat": 38.903925666666666, "bike_id": "cd28de1aa593361dc3ff8b7775a784ed", "fusion_lon": 0.0}, {"rental_uris": {"ios": "https://dc.lft.to/lastmile_qr_scan", "android": "https://dc.lft.to/lastmile_qr_scan"}, "type": "electric_scooter", "name": "ecd5130bf28e5d118d858337f6faf723", "is_reserved": 0, "lon": -77.04338566666667, "is_disabled": 0, "fusion_lat": 0.0, "lat": 38.913765833333336, "bike_id": "ecd5130bf28e5d118d858337f6faf723", "fusion_lon": 0.0}, {"rental_uris": {"ios": "https://dc.lft.to/lastmile_qr_scan", "android": "https://dc.lft.to/lastmile_qr_scan"}, "type": "electric_scooter", "name": "746bebf85382c63135be00eeb1e6cd80", "is_reserved": 0, "lon": -77.01582, "is_disabled": 0, "fusion_lat": 0.0, "lat": 38.876524833333335, "bike_id": "746bebf85382c63135be00eeb1e6cd80", "fusion_lon": 0.0}, {"rental_uris": {"ios": "https://dc.lft.to/lastmile_qr_scan", "android": "https://dc.lft.to/lastmile_qr_scan"}, "type": "electric_scooter", "name": "e955003d245e9dbf0d62f41d31afc719", "is_reserved": 0, "lon": -77.01822166666666, "is_disabled": 0, "fusion_lat": 0.0, "lat": 38.92215433333333, "bike_id": "e955003d245e9dbf0d62f41d31afc719", "fusion_lon": 0.0}, {"rental_uris": {"ios": "https://dc.lft.to/lastmile_qr_scan", "android": "https://dc.lft.to/lastmile_qr_scan"}, "type": "electric_scooter", "name": "8b557e9291b1cb9752d6dfc74d3cb70f", "is_reserved": 0, "lon": -77.04535183333333, "is_disabled": 0, "fusion_lat": 0.0, "lat": 38.91121916666667, "bike_id": "8b557e9291b1cb9752d6dfc74d3cb70f", "fusion_lon": 0.0}, {"rental_uris": {"ios": "https://dc.lft.to/lastmile_qr_scan", "android": "https://dc.lft.to/lastmile_qr_scan"}, "type": "electric_scooter", "name": "20a4a3af010b811e9aa6312ec2dc4e93", "is_reserved": 0, "lon": -76.987141, "is_disabled": 0, "fusion_lat": 0.0, "lat": 38.909781, "bike_id": "20a4a3af010b811e9aa6312ec2dc4e93", "fusion_lon": 0.0}, {"rental_uris": {"ios": "https://dc.lft.to/lastmile_qr_scan", "android": "https://dc.lft.to/lastmile_qr_scan"}, "type": "electric_scooter", "name": "debcb0216d0024cdf680986b272faaf8", "is_reserved": 0, "lon": -77.0306585, "is_disabled": 0, "fusion_lat": 0.0, "lat": 38.90440316666667, "bike_id": "debcb0216d0024cdf680986b272faaf8", "fusion_lon": 0.0}, {"rental_uris": {"ios": "https://dc.lft.to/lastmile_qr_scan", "android": "https://dc.lft.to/lastmile_qr_scan"}, "type": "electric_scooter", "name": "ddc26234d54f81a4379fc18e52245995", "is_reserved": 0, "lon": -76.98359783333333, "is_disabled": 0, "fusion_lat": 0.0, "lat": 38.88734683333333, "bike_id": "ddc26234d54f81a4379fc18e52245995", "fusion_lon": 0.0}, {"rental_uris": {"ios": "https://dc.lft.to/lastmile_qr_scan", "android": "https://dc.lft.to/lastmile_qr_scan"}, "type": "electric_scooter", "name": "7654ea5bc11d2713d11d5d8679aa00ab", "is_reserved": 0, "lon": -77.03232633333333, "is_disabled": 0, "fusion_lat": 0.0, "lat": 38.9170755, "bike_id": "7654ea5bc11d2713d11d5d8679aa00ab", "fusion_lon": 0.0}, {"rental_uris": {"ios": "https://dc.lft.to/lastmile_qr_scan", "android": "https://dc.lft.to/lastmile_qr_scan"}, "type": "electric_scooter", "name": "40a97a42ec65429c0662b18b16ea003e", "is_reserved": 0, "lon": -76.92306733333334, "is_disabled": 0, "fusion_lat": 0.0, "lat": 38.89388666666667, "bike_id": "40a97a42ec65429c0662b18b16ea003e", "fusion_lon": 0.0}, {"rental_uris": {"ios": "https://dc.lft.to/lastmile_qr_scan", "android": "https://dc.lft.to/lastmile_qr_scan"}, "type": "electric_bike", "name": "86976966cf9b42fe0d7ee054aa033efd", "is_reserved": 0, "lon": -77.23178733333333, "is_disabled": 0, "fusion_lat": 0.0, "lat": 38.92894016666666, "bike_id": "86976966cf9b42fe0d7ee054aa033efd", "fusion_lon": 0.0}, {"rental_uris": {"ios": "https://dc.lft.to/lastmile_qr_scan", "android": "https://dc.lft.to/lastmile_qr_scan"}, "type": "electric_scooter", "name": "99eecef66cf1be66d7305e42140b59b0", "is_reserved": 0, "lon": -77.03414866666667, "is_disabled": 0, "fusion_lat": 0.0, "lat": 38.901370666666665, "bike_id": "99eecef66cf1be66d7305e42140b59b0", "fusion_lon": 0.0}, {"rental_uris": {"ios": "https://dc.lft.to/lastmile_qr_scan", "android": "https://dc.lft.to/lastmile_qr_scan"}, "type": "electric_scooter", "name": "69d69219364df0e26a2c853cdec4fa29", "is_reserved": 0, "lon": -77.036895, "is_disabled": 0, "fusion_lat": 0.0, "lat": 38.91677716666667, "bike_id": "69d69219364df0e26a2c853cdec4fa29", "fusion_lon": 0.0}, {"rental_uris": {"ios": "https://dc.lft.to/lastmile_qr_scan", "android": "https://dc.lft.to/lastmile_qr_scan"}, "type": "electric_bike", "name": "3f29322342e39819a9efd1edd98d6e7c", "is_reserved": 0, "lon": -77.0789815, "is_disabled": 0, "fusion_lat": 0.0, "lat": 38.839376, "bike_id": "3f29322342e39819a9efd1edd98d6e7c", "fusion_lon": 0.0}, {"rental_uris": {"ios": "https://dc.lft.to/lastmile_qr_scan", "android": "https://dc.lft.to/lastmile_qr_scan"}, "type": "electric_scooter", "name": "c553f8657b3f19896e4f58100e6f6572", "is_reserved": 0, "lon": -77.06381466666667, "is_disabled": 0, "fusion_lat": 0.0, "lat": 38.9052195, "bike_id": "c553f8657b3f19896e4f58100e6f6572", "fusion_lon": 0.0}, {"rental_uris": {"ios": "https://dc.lft.to/lastmile_qr_scan", "android": "https://dc.lft.to/lastmile_qr_scan"}, "type": "electric_bike", "name": "bcc89817dfb040b2df31c607fbdf7f00", "is_reserved": 0, "lon": -77.1029135, "is_disabled": 0, "fusion_lat": 0.0, "lat": 38.85254316666666, "bike_id": "bcc89817dfb040b2df31c607fbdf7f00", "fusion_lon": 0.0}, {"rental_uris": {"ios": "https://dc.lft.to/lastmile_qr_scan", "android": "https://dc.lft.to/lastmile_qr_scan"}, "type": "electric_bike", "name": "39256de80908c443c576686bc60fb5b8", "is_reserved": 0, "lon": -76.9795675, "is_disabled": 0, "fusion_lat": 0.0, "lat": 38.920401166666664, "bike_id": "39256de80908c443c576686bc60fb5b8", "fusion_lon": 0.0}, {"rental_uris": {"ios": "https://dc.lft.to/lastmile_qr_scan", "android": "https://dc.lft.to/lastmile_qr_scan"}, "type": "electric_scooter", "name": "a6488b9025a62619b2957b5a4eceff62", "is_reserved": 0, "lon": -77.01499666666666, "is_disabled": 0, "fusion_lat": 0.0, "lat": 38.90654633333333, "bike_id": "a6488b9025a62619b2957b5a4eceff62", "fusion_lon": 0.0}, {"rental_uris": {"ios": "https://dc.lft.to/lastmile_qr_scan", "android": "https://dc.lft.to/lastmile_qr_scan"}, "type": "electric_scooter", "name": "fec654ac931f7562526f805d05b75795", "is_reserved": 0, "lon": -76.946379, "is_disabled": 0, "fusion_lat": 0.0, "lat": 38.89867916666667, "bike_id": "fec654ac931f7562526f805d05b75795", "fusion_lon": 0.0}, {"rental_uris": {"ios": "https://dc.lft.to/lastmile_qr_scan", "android": "https://dc.lft.to/lastmile_qr_scan"}, "type": "electric_scooter", "name": "e7db26007117e5946675ccd4c2a033ae", "is_reserved": 0, "lon": -77.00448733333333, "is_disabled": 0, "fusion_lat": 0.0, "lat": 38.911759, "bike_id": "e7db26007117e5946675ccd4c2a033ae", "fusion_lon": 0.0}, {"rental_uris": {"ios": "https://dc.lft.to/lastmile_qr_scan", "android": "https://dc.lft.to/lastmile_qr_scan"}, "type": "electric_scooter", "name": "96402d4d8ec2d991a8acb5d7b5050940", "is_reserved": 0, "lon": -77.00581983333333, "is_disabled": 0, "fusion_lat": 0.0, "lat": 38.876560166666664, "bike_id": "96402d4d8ec2d991a8acb5d7b5050940", "fusion_lon": 0.0}, {"rental_uris": {"ios": "https://dc.lft.to/lastmile_qr_scan", "android": "https://dc.lft.to/lastmile_qr_scan"}, "type": "electric_scooter", "name": "7cfdb0435c42c33e6fcf070d2f1737d5", "is_reserved": 0, "lon": -77.02008133333334, "is_disabled": 0, "fusion_lat": 0.0, "lat": 38.92805383333334, "bike_id": "7cfdb0435c42c33e6fcf070d2f1737d5", "fusion_lon": 0.0}, {"rental_uris": {"ios": "https://dc.lft.to/lastmile_qr_scan", "android": "https://dc.lft.to/lastmile_qr_scan"}, "type": "electric_scooter", "name": "eb59a62e32f5f1dd637953141ceabb93", "is_reserved": 0, "lon": -77.02699166666666, "is_disabled": 0, "fusion_lat": 0.0, "lat": 38.906026833333335, "bike_id": "eb59a62e32f5f1dd637953141ceabb93", "fusion_lon": 0.0}, {"rental_uris": {"ios": "https://dc.lft.to/lastmile_qr_scan", "android": "https://dc.lft.to/lastmile_qr_scan"}, "type": "electric_scooter", "name": "4f351174ce478c940b2d5b9906cfa04e", "is_reserved": 0, "lon": -77.025716, "is_disabled": 0, "fusion_lat": 0.0, "lat": 38.94846183333333, "bike_id": "4f351174ce478c940b2d5b9906cfa04e", "fusion_lon": 0.0}, {"rental_uris": {"ios": "https://dc.lft.to/lastmile_qr_scan", "android": "https://dc.lft.to/lastmile_qr_scan"}, "type": "electric_scooter", "name": "bae589092590dbeb24690db9f0bc940c", "is_reserved": 0, "lon": -77.044849, "is_disabled": 0, "fusion_lat": 0.0, "lat": 38.91355133333333, "bike_id": "bae589092590dbeb24690db9f0bc940c", "fusion_lon": 0.0}, {"rental_uris": {"ios": "https://dc.lft.to/lastmile_qr_scan", "android": "https://dc.lft.to/lastmile_qr_scan"}, "type": "electric_scooter", "name": "aed796fb4c1d202d71a2f946ddaf83ce", "is_reserved": 0, "lon": -77.03642283333333, "is_disabled": 0, "fusion_lat": 0.0, "lat": 38.91679933333333, "bike_id": "aed796fb4c1d202d71a2f946ddaf83ce", "fusion_lon": 0.0}, {"rental_uris": {"ios": "https://dc.lft.to/lastmile_qr_scan", "android": "https://dc.lft.to/lastmile_qr_scan"}, "type": "electric_bike", "name": "d8df66376960587dc6afcf2a833a1725", "is_reserved": 0, "lon": -77.11287283333333, "is_disabled": 0, "fusion_lat": 0.0, "lat": 38.83105783333333, "bike_id": "d8df66376960587dc6afcf2a833a1725", "fusion_lon": 0.0}, {"rental_uris": {"ios": "https://dc.lft.to/lastmile_qr_scan", "android": "https://dc.lft.to/lastmile_qr_scan"}, "type": "electric_scooter", "name": "6634333cdab954a4bda877c319028871", "is_reserved": 0, "lon": -77.03958483333334, "is_disabled": 0, "fusion_lat": 0.0, "lat": 38.89242933333333, "bike_id": "6634333cdab954a4bda877c319028871", "fusion_lon": 0.0}, {"rental_uris": {"ios": "https://dc.lft.to/lastmile_qr_scan", "android": "https://dc.lft.to/lastmile_qr_scan"}, "type": "electric_scooter", "name": "e5f8b34b7740a38c85a3c1c531a6a2c1", "is_reserved": 0, "lon": -77.02685833333334, "is_disabled": 0, "fusion_lat": 0.0, "lat": 38.930754, "bike_id": "e5f8b34b7740a38c85a3c1c531a6a2c1", "fusion_lon": 0.0}, {"rental_uris": {"ios": "https://dc.lft.to/lastmile_qr_scan", "android": "https://dc.lft.to/lastmile_qr_scan"}, "type": "electric_bike", "name": "1456aa9f6f1e30498a71875132076c17", "is_reserved": 0, "lon": -77.02006216666666, "is_disabled": 0, "fusion_lat": 0.0, "lat": 39.026238166666666, "bike_id": "1456aa9f6f1e30498a71875132076c17", "fusion_lon": 0.0}, {"rental_uris": {"ios": "https://dc.lft.to/lastmile_qr_scan", "android": "https://dc.lft.to/lastmile_qr_scan"}, "type": "electric_scooter", "name": "c0e1c526a526ed7be81e41634788f34d", "is_reserved": 0, "lon": -77.02941783333333, "is_disabled": 0, "fusion_lat": 0.0, "lat": 38.89818416666667, "bike_id": "c0e1c526a526ed7be81e41634788f34d", "fusion_lon": 0.0}, {"rental_uris": {"ios": "https://dc.lft.to/lastmile_qr_scan", "android": "https://dc.lft.to/lastmile_qr_scan"}, "type": "electric_scooter", "name": "a04970e00df9fd12a79bfaeae9bc37c2", "is_reserved": 0, "lon": -77.008199, "is_disabled": 0, "fusion_lat": 0.0, "lat": 38.915660333333335, "bike_id": "a04970e00df9fd12a79bfaeae9bc37c2", "fusion_lon": 0.0}, {"rental_uris": {"ios": "https://dc.lft.to/lastmile_qr_scan", "android": "https://dc.lft.to/lastmile_qr_scan"}, "type": "electric_scooter", "name": "8d8979c6b2ac28509d96dabddfc7ab64", "is_reserved": 0, "lon": -77.06321116666666, "is_disabled": 0, "fusion_lat": 0.0, "lat": 38.913369333333335, "bike_id": "8d8979c6b2ac28509d96dabddfc7ab64", "fusion_lon": 0.0}, {"rental_uris": {"ios": "https://dc.lft.to/lastmile_qr_scan", "android": "https://dc.lft.to/lastmile_qr_scan"}, "type": "electric_scooter", "name": "e76f9e32d57b50035a3e5b25632889dd", "is_reserved": 0, "lon": -77.02181283333333, "is_disabled": 0, "fusion_lat": 0.0, "lat": 38.929115833333334, "bike_id": "e76f9e32d57b50035a3e5b25632889dd", "fusion_lon": 0.0}, {"rental_uris": {"ios": "https://dc.lft.to/lastmile_qr_scan", "android": "https://dc.lft.to/lastmile_qr_scan"}, "type": "electric_scooter", "name": "da04592723f63354ae94544ebb635ac3", "is_reserved": 0, "lon": -77.04179, "is_disabled": 0, "fusion_lat": 0.0, "lat": 38.91408716666667, "bike_id": "da04592723f63354ae94544ebb635ac3", "fusion_lon": 0.0}, {"rental_uris": {"ios": "https://dc.lft.to/lastmile_qr_scan", "android": "https://dc.lft.to/lastmile_qr_scan"}, "type": "electric_scooter", "name": "0e2247cb55e85acf95024b6ee1a2b75e", "is_reserved": 0, "lon": -77.01555666666667, "is_disabled": 0, "fusion_lat": 0.0, "lat": 38.88492883333333, "bike_id": "0e2247cb55e85acf95024b6ee1a2b75e", "fusion_lon": 0.0}, {"rental_uris": {"ios": "https://dc.lft.to/lastmile_qr_scan", "android": "https://dc.lft.to/lastmile_qr_scan"}, "type": "electric_scooter", "name": "e682aa3dc0ae6a94cb85308d326e0173", "is_reserved": 0, "lon": -77.0353135, "is_disabled": 0, "fusion_lat": 0.0, "lat": 38.92209883333334, "bike_id": "e682aa3dc0ae6a94cb85308d326e0173", "fusion_lon": 0.0}, {"rental_uris": {"ios": "https://dc.lft.to/lastmile_qr_scan", "android": "https://dc.lft.to/lastmile_qr_scan"}, "type": "electric_scooter", "name": "5452f3aad6aea1f7388be3c77e1d9ae9", "is_reserved": 0, "lon": -77.02462016666666, "is_disabled": 0, "fusion_lat": 0.0, "lat": 38.93718783333333, "bike_id": "5452f3aad6aea1f7388be3c77e1d9ae9", "fusion_lon": 0.0}, {"rental_uris": {"ios": "https://dc.lft.to/lastmile_qr_scan", "android": "https://dc.lft.to/lastmile_qr_scan"}, "type": "electric_scooter", "name": "65799e43307be166d270e4778856ad64", "is_reserved": 0, "lon": -77.01745416666667, "is_disabled": 0, "fusion_lat": 0.0, "lat": 38.88734216666667, "bike_id": "65799e43307be166d270e4778856ad64", "fusion_lon": 0.0}, {"rental_uris": {"ios": "https://dc.lft.to/lastmile_qr_scan", "android": "https://dc.lft.to/lastmile_qr_scan"}, "type": "electric_scooter", "name": "2439cb4be340908abef4a9704bcc81c1", "is_reserved": 0, "lon": -77.060424, "is_disabled": 0, "fusion_lat": 0.0, "lat": 38.902225, "bike_id": "2439cb4be340908abef4a9704bcc81c1", "fusion_lon": 0.0}, {"rental_uris": {"ios": "https://dc.lft.to/lastmile_qr_scan", "android": "https://dc.lft.to/lastmile_qr_scan"}, "type": "electric_bike", "name": "43f6ff503be9b2267aedd6a9ad1f2065", "is_reserved": 0, "lon": -76.996797, "is_disabled": 0, "fusion_lat": 0.0, "lat": 38.83816783333333, "bike_id": "43f6ff503be9b2267aedd6a9ad1f2065", "fusion_lon": 0.0}, {"rental_uris": {"ios": "https://dc.lft.to/lastmile_qr_scan", "android": "https://dc.lft.to/lastmile_qr_scan"}, "type": "electric_scooter", "name": "095d5c095451045994b81aff2fe0bbf8", "is_reserved": 0, "lon": -77.0459105, "is_disabled": 0, "fusion_lat": 0.0, "lat": 38.9144415, "bike_id": "095d5c095451045994b81aff2fe0bbf8", "fusion_lon": 0.0}, {"rental_uris": {"ios": "https://dc.lft.to/lastmile_qr_scan", "android": "https://dc.lft.to/lastmile_qr_scan"}, "type": "electric_scooter", "name": "822d8c7917146b2781266c56d38563ad", "is_reserved": 0, "lon": -77.02962666666667, "is_disabled": 0, "fusion_lat": 0.0, "lat": 38.910131166666666, "bike_id": "822d8c7917146b2781266c56d38563ad", "fusion_lon": 0.0}, {"rental_uris": {"ios": "https://dc.lft.to/lastmile_qr_scan", "android": "https://dc.lft.to/lastmile_qr_scan"}, "type": "electric_scooter", "name": "dcef773cdc9163e3527140266c0b63e8", "is_reserved": 0, "lon": -77.02129916666667, "is_disabled": 0, "fusion_lat": 0.0, "lat": 38.92797433333333, "bike_id": "dcef773cdc9163e3527140266c0b63e8", "fusion_lon": 0.0}, {"rental_uris": {"ios": "https://dc.lft.to/lastmile_qr_scan", "android": "https://dc.lft.to/lastmile_qr_scan"}, "type": "electric_bike", "name": "7f30ecd76a129057787af3726322e1ee", "is_reserved": 0, "lon": -77.01834516666666, "is_disabled": 0, "fusion_lat": 0.0, "lat": 38.9024335, "bike_id": "7f30ecd76a129057787af3726322e1ee", "fusion_lon": 0.0}, {"rental_uris": {"ios": "https://dc.lft.to/lastmile_qr_scan", "android": "https://dc.lft.to/lastmile_qr_scan"}, "type": "electric_bike", "name": "8b8e155431034ed0a9c23201bff2acb0", "is_reserved": 0, "lon": -77.0122995, "is_disabled": 0, "fusion_lat": 0.0, "lat": 38.9507945, "bike_id": "8b8e155431034ed0a9c23201bff2acb0", "fusion_lon": 0.0}, {"rental_uris": {"ios": "https://dc.lft.to/lastmile_qr_scan", "android": "https://dc.lft.to/lastmile_qr_scan"}, "type": "electric_scooter", "name": "572e63881d738f59f7e8e5df71ddbaf0", "is_reserved": 0, "lon": -77.06851616666667, "is_disabled": 0, "fusion_lat": 0.0, "lat": 38.9040095, "bike_id": "572e63881d738f59f7e8e5df71ddbaf0", "fusion_lon": 0.0}, {"rental_uris": {"ios": "https://dc.lft.to/lastmile_qr_scan", "android": "https://dc.lft.to/lastmile_qr_scan"}, "type": "electric_scooter", "name": "c7235767aa9c0cc9046a8760293be3cc", "is_reserved": 0, "lon": -77.0274255, "is_disabled": 0, "fusion_lat": 0.0, "lat": 38.904778, "bike_id": "c7235767aa9c0cc9046a8760293be3cc", "fusion_lon": 0.0}, {"rental_uris": {"ios": "https://dc.lft.to/lastmile_qr_scan", "android": "https://dc.lft.to/lastmile_qr_scan"}, "type": "electric_scooter", "name": "dc2890a62fd2308f4d30b1a9a84e744a", "is_reserved": 0, "lon": -77.026405, "is_disabled": 0, "fusion_lat": 0.0, "lat": 38.903962, "bike_id": "dc2890a62fd2308f4d30b1a9a84e744a", "fusion_lon": 0.0}, {"rental_uris": {"ios": "https://dc.lft.to/lastmile_qr_scan", "android": "https://dc.lft.to/lastmile_qr_scan"}, "type": "electric_scooter", "name": "140f35d913887178d3e29c97729c401e", "is_reserved": 0, "lon": -77.00666033333333, "is_disabled": 0, "fusion_lat": 0.0, "lat": 38.9001145, "bike_id": "140f35d913887178d3e29c97729c401e", "fusion_lon": 0.0}, {"rental_uris": {"ios": "https://dc.lft.to/lastmile_qr_scan", "android": "https://dc.lft.to/lastmile_qr_scan"}, "type": "electric_scooter", "name": "95a99c9f7cd8079bed66a5699cb167c5", "is_reserved": 0, "lon": -77.01874933333333, "is_disabled": 0, "fusion_lat": 0.0, "lat": 38.91415933333333, "bike_id": "95a99c9f7cd8079bed66a5699cb167c5", "fusion_lon": 0.0}, {"rental_uris": {"ios": "https://dc.lft.to/lastmile_qr_scan", "android": "https://dc.lft.to/lastmile_qr_scan"}, "type": "electric_bike", "name": "960aea5d42f74177d9b3d5168117af04", "is_reserved": 0, "lon": -77.08983216666667, "is_disabled": 0, "fusion_lat": 0.0, "lat": 38.911774333333334, "bike_id": "960aea5d42f74177d9b3d5168117af04", "fusion_lon": 0.0}, {"rental_uris": {"ios": "https://dc.lft.to/lastmile_qr_scan", "android": "https://dc.lft.to/lastmile_qr_scan"}, "type": "electric_scooter", "name": "f2da206efe12de7f8a8ee0a11b074665", "is_reserved": 0, "lon": -77.027045, "is_disabled": 0, "fusion_lat": 0.0, "lat": 38.90053, "bike_id": "f2da206efe12de7f8a8ee0a11b074665", "fusion_lon": 0.0}, {"rental_uris": {"ios": "https://dc.lft.to/lastmile_qr_scan", "android": "https://dc.lft.to/lastmile_qr_scan"}, "type": "electric_scooter", "name": "431c0c1d81579327755ab5304ea396be", "is_reserved": 0, "lon": -77.06336733333333, "is_disabled": 0, "fusion_lat": 0.0, "lat": 38.921505833333335, "bike_id": "431c0c1d81579327755ab5304ea396be", "fusion_lon": 0.0}, {"rental_uris": {"ios": "https://dc.lft.to/lastmile_qr_scan", "android": "https://dc.lft.to/lastmile_qr_scan"}, "type": "electric_scooter", "name": "0ab60be4bc21e77dd0cacec1c92bbd50", "is_reserved": 0, "lon": -77.02814633333334, "is_disabled": 0, "fusion_lat": 0.0, "lat": 38.909323, "bike_id": "0ab60be4bc21e77dd0cacec1c92bbd50", "fusion_lon": 0.0}, {"rental_uris": {"ios": "https://dc.lft.to/lastmile_qr_scan", "android": "https://dc.lft.to/lastmile_qr_scan"}, "type": "electric_scooter", "name": "8c0e2c35c7b07ef48851de2e0df34a64", "is_reserved": 0, "lon": -77.02394066666666, "is_disabled": 0, "fusion_lat": 0.0, "lat": 38.9259995, "bike_id": "8c0e2c35c7b07ef48851de2e0df34a64", "fusion_lon": 0.0}, {"rental_uris": {"ios": "https://dc.lft.to/lastmile_qr_scan", "android": "https://dc.lft.to/lastmile_qr_scan"}, "type": "electric_scooter", "name": "9ba52918b244c609a80fa962aef210b8", "is_reserved": 0, "lon": -77.028146, "is_disabled": 0, "fusion_lat": 0.0, "lat": 38.89654616666667, "bike_id": "9ba52918b244c609a80fa962aef210b8", "fusion_lon": 0.0}, {"rental_uris": {"ios": "https://dc.lft.to/lastmile_qr_scan", "android": "https://dc.lft.to/lastmile_qr_scan"}, "type": "electric_scooter", "name": "a1a70ef678045f7c79a78318eb5fdb92", "is_reserved": 0, "lon": -77.02565083333333, "is_disabled": 0, "fusion_lat": 0.0, "lat": 38.887423166666665, "bike_id": "a1a70ef678045f7c79a78318eb5fdb92", "fusion_lon": 0.0}, {"rental_uris": {"ios": "https://dc.lft.to/lastmile_qr_scan", "android": "https://dc.lft.to/lastmile_qr_scan"}, "type": "electric_scooter", "name": "84c6664dbcb19b9f5913114cf92c9859", "is_reserved": 0, "lon": -77.03862783333334, "is_disabled": 0, "fusion_lat": 0.0, "lat": 38.91709766666666, "bike_id": "84c6664dbcb19b9f5913114cf92c9859", "fusion_lon": 0.0}, {"rental_uris": {"ios": "https://dc.lft.to/lastmile_qr_scan", "android": "https://dc.lft.to/lastmile_qr_scan"}, "type": "electric_scooter", "name": "8a56337596ede6462adfe37f376f1809", "is_reserved": 0, "lon": -77.01258866666667, "is_disabled": 0, "fusion_lat": 0.0, "lat": 38.915606, "bike_id": "8a56337596ede6462adfe37f376f1809", "fusion_lon": 0.0}, {"rental_uris": {"ios": "https://dc.lft.to/lastmile_qr_scan", "android": "https://dc.lft.to/lastmile_qr_scan"}, "type": "electric_scooter", "name": "64305e0e082b91759d1248dffe24cb13", "is_reserved": 0, "lon": -77.00659683333333, "is_disabled": 0, "fusion_lat": 0.0, "lat": 38.91193916666667, "bike_id": "64305e0e082b91759d1248dffe24cb13", "fusion_lon": 0.0}, {"rental_uris": {"ios": "https://dc.lft.to/lastmile_qr_scan", "android": "https://dc.lft.to/lastmile_qr_scan"}, "type": "electric_scooter", "name": "38a510a4f7fc765578a0f2df786de9af", "is_reserved": 0, "lon": -77.040926, "is_disabled": 0, "fusion_lat": 0.0, "lat": 38.92080766666667, "bike_id": "38a510a4f7fc765578a0f2df786de9af", "fusion_lon": 0.0}, {"rental_uris": {"ios": "https://dc.lft.to/lastmile_qr_scan", "android": "https://dc.lft.to/lastmile_qr_scan"}, "type": "electric_scooter", "name": "4a29f3c0c6b714dab12a96132e13c809", "is_reserved": 0, "lon": -77.03503616666667, "is_disabled": 0, "fusion_lat": 0.0, "lat": 38.917015, "bike_id": "4a29f3c0c6b714dab12a96132e13c809", "fusion_lon": 0.0}, {"rental_uris": {"ios": "https://dc.lft.to/lastmile_qr_scan", "android": "https://dc.lft.to/lastmile_qr_scan"}, "type": "electric_scooter", "name": "712c5303ef535f1ae7a6a619de4e0dd4", "is_reserved": 0, "lon": -77.03831666666666, "is_disabled": 0, "fusion_lat": 0.0, "lat": 38.903826333333335, "bike_id": "712c5303ef535f1ae7a6a619de4e0dd4", "fusion_lon": 0.0}, {"rental_uris": {"ios": "https://dc.lft.to/lastmile_qr_scan", "android": "https://dc.lft.to/lastmile_qr_scan"}, "type": "electric_scooter", "name": "2ff1b2cbc493b99179fbc4ce36b0255a", "is_reserved": 0, "lon": -77.01332466666666, "is_disabled": 0, "fusion_lat": 0.0, "lat": 38.8811925, "bike_id": "2ff1b2cbc493b99179fbc4ce36b0255a", "fusion_lon": 0.0}, {"rental_uris": {"ios": "https://dc.lft.to/lastmile_qr_scan", "android": "https://dc.lft.to/lastmile_qr_scan"}, "type": "electric_scooter", "name": "c160a161be965c402194a4badc182ce6", "is_reserved": 0, "lon": -77.0277135, "is_disabled": 0, "fusion_lat": 0.0, "lat": 38.965774, "bike_id": "c160a161be965c402194a4badc182ce6", "fusion_lon": 0.0}, {"rental_uris": {"ios": "https://dc.lft.to/lastmile_qr_scan", "android": "https://dc.lft.to/lastmile_qr_scan"}, "type": "electric_scooter", "name": "63ac4900ec3ed5be3198bbf4dcdd31ac", "is_reserved": 0, "lon": -77.03996683333334, "is_disabled": 0, "fusion_lat": 0.0, "lat": 38.89881783333333, "bike_id": "63ac4900ec3ed5be3198bbf4dcdd31ac", "fusion_lon": 0.0}, {"rental_uris": {"ios": "https://dc.lft.to/lastmile_qr_scan", "android": "https://dc.lft.to/lastmile_qr_scan"}, "type": "electric_scooter", "name": "ebcce31732eeb28510076251847f5623", "is_reserved": 0, "lon": -76.98368466666666, "is_disabled": 0, "fusion_lat": 0.0, "lat": 38.8926415, "bike_id": "ebcce31732eeb28510076251847f5623", "fusion_lon": 0.0}, {"rental_uris": {"ios": "https://dc.lft.to/lastmile_qr_scan", "android": "https://dc.lft.to/lastmile_qr_scan"}, "type": "electric_scooter", "name": "32dae102d8333b7f609c9cd41d31225e", "is_reserved": 0, "lon": -77.0004175, "is_disabled": 0, "fusion_lat": 0.0, "lat": 38.900119333333336, "bike_id": "32dae102d8333b7f609c9cd41d31225e", "fusion_lon": 0.0}, {"rental_uris": {"ios": "https://dc.lft.to/lastmile_qr_scan", "android": "https://dc.lft.to/lastmile_qr_scan"}, "type": "electric_scooter", "name": "9d330faf1b4a7e74fbd34c8d5ec0a71c", "is_reserved": 0, "lon": -77.0406005, "is_disabled": 0, "fusion_lat": 0.0, "lat": 38.9047785, "bike_id": "9d330faf1b4a7e74fbd34c8d5ec0a71c", "fusion_lon": 0.0}, {"rental_uris": {"ios": "https://dc.lft.to/lastmile_qr_scan", "android": "https://dc.lft.to/lastmile_qr_scan"}, "type": "electric_scooter", "name": "7a25ee80399282599c734cfc24c7d58d", "is_reserved": 0, "lon": -76.92894, "is_disabled": 0, "fusion_lat": 0.0, "lat": 38.87939, "bike_id": "7a25ee80399282599c734cfc24c7d58d", "fusion_lon": 0.0}, {"rental_uris": {"ios": "https://dc.lft.to/lastmile_qr_scan", "android": "https://dc.lft.to/lastmile_qr_scan"}, "type": "electric_scooter", "name": "0915984a474d8ff98332e863f6b00c4c", "is_reserved": 0, "lon": -76.98493616666667, "is_disabled": 0, "fusion_lat": 0.0, "lat": 38.9036305, "bike_id": "0915984a474d8ff98332e863f6b00c4c", "fusion_lon": 0.0}, {"rental_uris": {"ios": "https://dc.lft.to/lastmile_qr_scan", "android": "https://dc.lft.to/lastmile_qr_scan"}, "type": "electric_scooter", "name": "c868e5f7dffdf7e628e36ea2d1a06e83", "is_reserved": 0, "lon": -77.02390233333334, "is_disabled": 0, "fusion_lat": 0.0, "lat": 38.905842, "bike_id": "c868e5f7dffdf7e628e36ea2d1a06e83", "fusion_lon": 0.0}, {"rental_uris": {"ios": "https://dc.lft.to/lastmile_qr_scan", "android": "https://dc.lft.to/lastmile_qr_scan"}, "type": "electric_bike", "name": "b67b11a35e0eeb759a4d2a74bb8ec0c9", "is_reserved": 0, "lon": -76.96055816666667, "is_disabled": 0, "fusion_lat": 0.0, "lat": 38.884013, "bike_id": "b67b11a35e0eeb759a4d2a74bb8ec0c9", "fusion_lon": 0.0}, {"rental_uris": {"ios": "https://dc.lft.to/lastmile_qr_scan", "android": "https://dc.lft.to/lastmile_qr_scan"}, "type": "electric_scooter", "name": "02b0c322b5b10d8657f2ac2848be99df", "is_reserved": 0, "lon": -77.002724, "is_disabled": 0, "fusion_lat": 0.0, "lat": 38.896145833333335, "bike_id": "02b0c322b5b10d8657f2ac2848be99df", "fusion_lon": 0.0}, {"rental_uris": {"ios": "https://dc.lft.to/lastmile_qr_scan", "android": "https://dc.lft.to/lastmile_qr_scan"}, "type": "electric_scooter", "name": "23c6de756cb76039ab8d90d9ffc4d270", "is_reserved": 0, "lon": -77.01609183333333, "is_disabled": 0, "fusion_lat": 0.0, "lat": 38.909590333333334, "bike_id": "23c6de756cb76039ab8d90d9ffc4d270", "fusion_lon": 0.0}, {"rental_uris": {"ios": "https://dc.lft.to/lastmile_qr_scan", "android": "https://dc.lft.to/lastmile_qr_scan"}, "type": "electric_bike", "name": "c9566c3d365bb7d7bce02ca2a26fb63b", "is_reserved": 0, "lon": -77.02874816666667, "is_disabled": 0, "fusion_lat": 0.0, "lat": 38.92965683333333, "bike_id": "c9566c3d365bb7d7bce02ca2a26fb63b", "fusion_lon": 0.0}, {"rental_uris": {"ios": "https://dc.lft.to/lastmile_qr_scan", "android": "https://dc.lft.to/lastmile_qr_scan"}, "type": "electric_scooter", "name": "cd4c9a486b3d95ad0fb0ee81623f8a8d", "is_reserved": 0, "lon": -77.00605016666667, "is_disabled": 0, "fusion_lat": 0.0, "lat": 38.9067525, "bike_id": "cd4c9a486b3d95ad0fb0ee81623f8a8d", "fusion_lon": 0.0}, {"rental_uris": {"ios": "https://dc.lft.to/lastmile_qr_scan", "android": "https://dc.lft.to/lastmile_qr_scan"}, "type": "electric_scooter", "name": "5b78153a9af9098efb77fbd132ae7983", "is_reserved": 0, "lon": -77.00542016666667, "is_disabled": 0, "fusion_lat": 0.0, "lat": 38.918146666666665, "bike_id": "5b78153a9af9098efb77fbd132ae7983", "fusion_lon": 0.0}, {"rental_uris": {"ios": "https://dc.lft.to/lastmile_qr_scan", "android": "https://dc.lft.to/lastmile_qr_scan"}, "type": "electric_scooter", "name": "324ea1e353149b7928a105ce2707d629", "is_reserved": 0, "lon": -77.00074766666667, "is_disabled": 0, "fusion_lat": 0.0, "lat": 38.8737025, "bike_id": "324ea1e353149b7928a105ce2707d629", "fusion_lon": 0.0}, {"rental_uris": {"ios": "https://dc.lft.to/lastmile_qr_scan", "android": "https://dc.lft.to/lastmile_qr_scan"}, "type": "electric_scooter", "name": "773252b9b87ee54930ff385a8a8ea239", "is_reserved": 0, "lon": -77.023547, "is_disabled": 0, "fusion_lat": 0.0, "lat": 38.94193516666667, "bike_id": "773252b9b87ee54930ff385a8a8ea239", "fusion_lon": 0.0}, {"rental_uris": {"ios": "https://dc.lft.to/lastmile_qr_scan", "android": "https://dc.lft.to/lastmile_qr_scan"}, "type": "electric_bike", "name": "628ea5c31d765700126eecbb7c0a59ab", "is_reserved": 0, "lon": -76.99467366666667, "is_disabled": 0, "fusion_lat": 0.0, "lat": 38.862629, "bike_id": "628ea5c31d765700126eecbb7c0a59ab", "fusion_lon": 0.0}, {"rental_uris": {"ios": "https://dc.lft.to/lastmile_qr_scan", "android": "https://dc.lft.to/lastmile_qr_scan"}, "type": "electric_bike", "name": "b627cbcf234619865cbc66b59562cf0d", "is_reserved": 0, "lon": -76.9868925, "is_disabled": 0, "fusion_lat": 0.0, "lat": 38.944676, "bike_id": "b627cbcf234619865cbc66b59562cf0d", "fusion_lon": 0.0}, {"rental_uris": {"ios": "https://dc.lft.to/lastmile_qr_scan", "android": "https://dc.lft.to/lastmile_qr_scan"}, "type": "electric_scooter", "name": "f695ece47f22928342165ff47c186f81", "is_reserved": 0, "lon": -77.0066045, "is_disabled": 0, "fusion_lat": 0.0, "lat": 38.900034, "bike_id": "f695ece47f22928342165ff47c186f81", "fusion_lon": 0.0}, {"rental_uris": {"ios": "https://dc.lft.to/lastmile_qr_scan", "android": "https://dc.lft.to/lastmile_qr_scan"},