{"data": {"bikes": [{"fusion_lat": 0.0, "name": "8c1c23de6028cbb6976eef3c1f49932e", "is_disabled": 0, "rental_uris": {"android": "https://dc.lft.to/lastmile_qr_scan", "ios": "https://dc.lft.to/lastmile_qr_scan"}, "fusion_lon": 0.0, "lat": 38.909307166666665, "bike_id": "8c1c23de6028cbb6976eef3c1f49932e", "type": "electric_scooter", "is_reserved": 0, "lon": -77.06255666666667}, {"fusion_lat": 0.0, "name": "8907c8167804010fd3910ea47889523d", "is_disabled": 0, "rental_uris": {"android": "https://dc.lft.to/lastmile_qr_scan", "ios": "https://dc.lft.to/lastmile_qr_scan"}, "fusion_lon": 0.0, "lat": 38.883372666666666, "bike_id": "8907c8167804010fd3910ea47889523d", "type": "electric_scooter", "is_reserved": 0, "lon": -77.014698}, {"fusion_lat": 0.0, "name": "f1476410a6efc2dbece36c7c84acaa47", "is_disabled": 0, "rental_uris": {"android": "https://dc.lft.to/lastmile_qr_scan", "ios": "https://dc.lft.to/lastmile_qr_scan"}, "fusion_lon": 0.0, "lat": 38.934583833333335, "bike_id": "f1476410a6efc2dbece36c7c84acaa47", "type": "electric_scooter", "is_reserved": 0, "lon": -77.03392133333334}, {"fusion_lat": 0.0, "name": "cd250940670c723ba187db2ca31e5cde", "is_disabled": 0, "rental_uris": {"android": "https://dc.lft.to/lastmile_qr_scan", "ios": "https://dc.lft.to/lastmile_qr_scan"}, "fusion_lon": 0.0, "lat": 38.938866, "bike_id": "cd250940670c723ba187db2ca31e5cde", "type": "electric_scooter", "is_reserved": 0, "lon": -77.0246575}, {"fusion_lat": 0.0, "name": "c46b6f50c80dbc26f8b4cdb4496c4acf", "is_disabled": 0, "rental_uris": {"android": "https://dc.lft.to/lastmile_qr_scan", "ios": "https://dc.lft.to/lastmile_qr_scan"}, "fusion_lon": 0.0, "lat": 38.91694233333333, "bike_id": "c46b6f50c80dbc26f8b4cdb4496c4acf", "type": "electric_scooter", "is_reserved": 0, "lon": -77.02597966666667}, {"fusion_lat": 0.0, "name": "73e0ab125e9fa73e43b129435cd9d4c1", "is_disabled": 0, "rental_uris": {"android": "https://dc.lft.to/lastmile_qr_scan", "ios": "https://dc.lft.to/lastmile_qr_scan"}, "fusion_lon": 0.0, "lat": 38.9008875, "bike_id": "73e0ab125e9fa73e43b129435cd9d4c1", "type": "electric_scooter", "is_reserved": 0, "lon": -77.05058283333334}, {"fusion_lat": 0.0, "name": "d49373530b41816534b07b3157a73539", "is_disabled": 0, "rental_uris": {"android": "https://dc.lft.to/lastmile_qr_scan", "ios": "https://dc.lft.to/lastmile_qr_scan"}, "fusion_lon": 0.0, "lat": 38.938254666666666, "bike_id": "d49373530b41816534b07b3157a73539", "type": "electric_scooter", "is_reserved": 0, "lon": -77.02651333333333}, {"fusion_lat": 0.0, "name": "9d1cbe5367805435b2d6e1f5fe451464", "is_disabled": 0, "rental_uris": {"android": "https://dc.lft.to/lastmile_qr_scan", "ios": "https://dc.lft.to/lastmile_qr_scan"}, "fusion_lon": 0.0, "lat": 38.892238, "bike_id": "9d1cbe5367805435b2d6e1f5fe451464", "type": "electric_scooter", "is_reserved": 0, "lon": -77.03339933333334}, {"fusion_lat": 0.0, "name": "42a9e5066f1e7713c0211f961dc52d0b", "is_disabled": 0, "rental_uris": {"android": "https://dc.lft.to/lastmile_qr_scan", "ios": "https://dc.lft.to/lastmile_qr_scan"}, "fusion_lon": 0.0, "lat": 38.9736555, "bike_id": "42a9e5066f1e7713c0211f961dc52d0b", "type": "electric_scooter", "is_reserved": 0, "lon": -77.012931}, {"fusion_lat": 0.0, "name": "20f22ffa18833d21edebc4259e0568b4", "is_disabled": 0, "rental_uris": {"android": "https://dc.lft.to/lastmile_qr_scan", "ios": "https://dc.lft.to/lastmile_qr_scan"}, "fusion_lon": 0.0, "lat": 38.903537, "bike_id": "20f22ffa18833d21edebc4259e0568b4", "type": "electric_scooter", "is_reserved": 0, "lon": -76.97478083333333}, {"fusion_lat": 0.0, "name": "4e1524e37f9fa711aad1c1cd9a08e82c", "is_disabled": 0, "rental_uris": {"android": "https://dc.lft.to/lastmile_qr_scan", "ios": "https://dc.lft.to/lastmile_qr_scan"}, "fusion_lon": 0.0, "lat": 38.89814166666667, "bike_id": "4e1524e37f9fa711aad1c1cd9a08e82c", "type": "electric_scooter", "is_reserved": 0, "lon": -77.04678633333333}, {"fusion_lat": 0.0, "name": "4481dd05dbe139aa003dccd49df8b8e2", "is_disabled": 0, "rental_uris": {"android": "https://dc.lft.to/lastmile_qr_scan", "ios": "https://dc.lft.to/lastmile_qr_scan"}, "fusion_lon": 0.0, "lat": 38.9209855, "bike_id": "4481dd05dbe139aa003dccd49df8b8e2", "type": "electric_scooter", "is_reserved": 0, "lon": -77.0469185}, {"fusion_lat": 0.0, "name": "d3eebe39b4d27936f874c7a0e5059311", "is_disabled": 0, "rental_uris": {"android": "https://dc.lft.to/lastmile_qr_scan", "ios": "https://dc.lft.to/lastmile_qr_scan"}, "fusion_lon": 0.0, "lat": 38.91107433333333, "bike_id": "d3eebe39b4d27936f874c7a0e5059311", "type": "electric_scooter", "is_reserved": 0, "lon": -77.03211783333333}, {"fusion_lat": 0.0, "name": "3ae4893de66c19ce6f3cee11a24b0371", "is_disabled": 0, "rental_uris": {"android": "https://dc.lft.to/lastmile_qr_scan", "ios": "https://dc.lft.to/lastmile_qr_scan"}, "fusion_lon": 0.0, "lat": 38.888783833333335, "bike_id": "3ae4893de66c19ce6f3cee11a24b0371", "type": "electric_scooter", "is_reserved": 0, "lon": -76.98456466666667}, {"fusion_lat": 0.0, "name": "c877ab1a27db4317fd4e87a97b6bcf6b", "is_disabled": 0, "rental_uris": {"android": "https://dc.lft.to/lastmile_qr_scan", "ios": "https://dc.lft.to/lastmile_qr_scan"}, "fusion_lon": 0.0, "lat": 38.88256033333333, "bike_id": "c877ab1a27db4317fd4e87a97b6bcf6b", "type": "electric_scooter", "is_reserved": 0, "lon": -76.9903265}, {"fusion_lat": 0.0, "name": "bd608bc46f8460d8a3dff08f3f341753", "is_disabled": 0, "rental_uris": {"android": "https://dc.lft.to/lastmile_qr_scan", "ios": "https://dc.lft.to/lastmile_qr_scan"}, "fusion_lon": 0.0, "lat": 38.894868, "bike_id": "bd608bc46f8460d8a3dff08f3f341753", "type": "electric_scooter", "is_reserved": 0, "lon": -76.99739366666667}, {"fusion_lat": 0.0, "name": "459705b665580b5c5f13104314f77806", "is_disabled": 0, "rental_uris": {"android": "https://dc.lft.to/lastmile_qr_scan", "ios": "https://dc.lft.to/lastmile_qr_scan"}, "fusion_lon": 0.0, "lat": 38.905144166666666, "bike_id": "459705b665580b5c5f13104314f77806", "type": "electric_scooter", "is_reserved": 0, "lon": -77.01715116666666}, {"fusion_lat": 0.0, "name": "0a412d443599a126dcaeb807d5879d11", "is_disabled": 0, "rental_uris": {"android": "https://dc.lft.to/lastmile_qr_scan", "ios": "https://dc.lft.to/lastmile_qr_scan"}, "fusion_lon": 0.0, "lat": 38.88730283333334, "bike_id": "0a412d443599a126dcaeb807d5879d11", "type": "electric_scooter", "is_reserved": 0, "lon": -77.02403133333334}, {"fusion_lat": 0.0, "name": "8a8af86492188ee30fedd447f9e1c9d9", "is_disabled": 0, "rental_uris": {"android": "https://dc.lft.to/lastmile_qr_scan", "ios": "https://dc.lft.to/lastmile_qr_scan"}, "fusion_lon": 0.0, "lat": 38.900193, "bike_id": "8a8af86492188ee30fedd447f9e1c9d9", "type": "electric_scooter", "is_reserved": 0, "lon": -77.052216}, {"fusion_lat": 0.0, "name": "99887168e91155526d635fc2c265ba49", "is_disabled": 0, "rental_uris": {"android": "https://dc.lft.to/lastmile_qr_scan", "ios": "https://dc.lft.to/lastmile_qr_scan"}, "fusion_lon": 0.0, "lat": 38.924290666666664, "bike_id": "99887168e91155526d635fc2c265ba49", "type": "electric_scooter", "is_reserved": 0, "lon": -76.98596483333333}, {"fusion_lat": 0.0, "name": "7fdb7d30ccf943a51b35cdf95a823707", "is_disabled": 0, "rental_uris": {"android": "https://dc.lft.to/lastmile_qr_scan", "ios": "https://dc.lft.to/lastmile_qr_scan"}, "fusion_lon": 0.0, "lat": 38.8829815, "bike_id": "7fdb7d30ccf943a51b35cdf95a823707", "type": "electric_scooter", "is_reserved": 0, "lon": -77.0140245}, {"fusion_lat": 0.0, "name": "d5900999a25d407eb6a4ee01d074f9d4", "is_disabled": 0, "rental_uris": {"android": "https://dc.lft.to/lastmile_qr_scan", "ios": "https://dc.lft.to/lastmile_qr_scan"}, "fusion_lon": 0.0, "lat": 38.89721633333333, "bike_id": "d5900999a25d407eb6a4ee01d074f9d4", "type": "electric_scooter", "is_reserved": 0, "lon": -77.0078445}, {"fusion_lat": 0.0, "name": "a428ff444b0f1dd2b4e0122b3fcaac70", "is_disabled": 0, "rental_uris": {"android": "https://dc.lft.to/lastmile_qr_scan", "ios": "https://dc.lft.to/lastmile_qr_scan"}, "fusion_lon": 0.0, "lat": 38.92449216666667, "bike_id": "a428ff444b0f1dd2b4e0122b3fcaac70", "type": "electric_scooter", "is_reserved": 0, "lon": -77.00878833333333}, {"fusion_lat": 0.0, "name": "ec0c4378af767b6cfa612f5e67648f82", "is_disabled": 0, "rental_uris": {"android": "https://dc.lft.to/lastmile_qr_scan", "ios": "https://dc.lft.to/lastmile_qr_scan"}, "fusion_lon": 0.0, "lat": 38.91269466666667, "bike_id": "ec0c4378af767b6cfa612f5e67648f82", "type": "electric_scooter", "is_reserved": 0, "lon": -77.042136}, {"fusion_lat": 0.0, "name": "3c6241baea25522fcaeb4c018a49efa4", "is_disabled": 0, "rental_uris": {"android": "https://dc.lft.to/lastmile_qr_scan", "ios": "https://dc.lft.to/lastmile_qr_scan"}, "fusion_lon": 0.0, "lat": 38.896870666666665, "bike_id": "3c6241baea25522fcaeb4c018a49efa4", "type": "electric_scooter", "is_reserved": 0, "lon": -77.05155883333333}, {"fusion_lat": 0.0, "name": "ca7592b00c541f89d5d31b1a5128e59c", "is_disabled": 0, "rental_uris": {"android": "https://dc.lft.to/lastmile_qr_scan", "ios": "https://dc.lft.to/lastmile_qr_scan"}, "fusion_lon": 0.0, "lat": 38.935844333333335, "bike_id": "ca7592b00c541f89d5d31b1a5128e59c", "type": "electric_scooter", "is_reserved": 0, "lon": -77.03357816666667}, {"fusion_lat": 0.0, "name": "1ef64bed6c712184d3afd02146f98984", "is_disabled": 0, "rental_uris": {"android": "https://dc.lft.to/lastmile_qr_scan", "ios": "https://dc.lft.to/lastmile_qr_scan"}, "fusion_lon": 0.0, "lat": 38.997508333333336, "bike_id": "1ef64bed6c712184d3afd02146f98984", "type": "electric_bike", "is_reserved": 0, "lon": -77.02691116666666}, {"fusion_lat": 0.0, "name": "692f2302eb50a876b7ff99ac0858529b", "is_disabled": 0, "rental_uris": {"android": "https://dc.lft.to/lastmile_qr_scan", "ios": "https://dc.lft.to/lastmile_qr_scan"}, "fusion_lon": 0.0, "lat": 38.918347, "bike_id": "692f2302eb50a876b7ff99ac0858529b", "type": "electric_scooter", "is_reserved": 0, "lon": -77.03204783333334}, {"fusion_lat": 0.0, "name": "58cc02ec02bb1e1bea9ca0420fa8ffc0", "is_disabled": 0, "rental_uris": {"android": "https://dc.lft.to/lastmile_qr_scan", "ios": "https://dc.lft.to/lastmile_qr_scan"}, "fusion_lon": 0.0, "lat": 38.92287133333333, "bike_id": "58cc02ec02bb1e1bea9ca0420fa8ffc0", "type": "electric_scooter", "is_reserved": 0, "lon": -77.02332833333334}, {"fusion_lat": 0.0, "name": "aeb04649387973c7b6334f8376e2b625", "is_disabled": 0, "rental_uris": {"android": "https://dc.lft.to/lastmile_qr_scan", "ios": "https://dc.lft.to/lastmile_qr_scan"}, "fusion_lon": 0.0, "lat": 38.88757416666667, "bike_id": "aeb04649387973c7b6334f8376e2b625", "type": "electric_scooter", "is_reserved": 0, "lon": -76.9978765}, {"fusion_lat": 0.0, "name": "764dd4de345673a810d2b47739834221", "is_disabled": 0, "rental_uris": {"android": "https://dc.lft.to/lastmile_qr_scan", "ios": "https://dc.lft.to/lastmile_qr_scan"}, "fusion_lon": 0.0, "lat": 38.89248416666667, "bike_id": "764dd4de345673a810d2b47739834221", "type": "electric_scooter", "is_reserved": 0, "lon": -77.03350916666666}, {"fusion_lat": 0.0, "name": "b5c1664dc1d2a61da1a6e339fcc1676e", "is_disabled": 0, "rental_uris": {"android": "https://dc.lft.to/lastmile_qr_scan", "ios": "https://dc.lft.to/lastmile_qr_scan"}, "fusion_lon": 0.0, "lat": 38.91021383333333, "bike_id": "b5c1664dc1d2a61da1a6e339fcc1676e", "type": "electric_scooter", "is_reserved": 0, "lon": -77.0425305}, {"fusion_lat": 0.0, "name": "ec407ff8d5c047b8a6c1015698d2f01c", "is_disabled": 0, "rental_uris": {"android": "https://dc.lft.to/lastmile_qr_scan", "ios": "https://dc.lft.to/lastmile_qr_scan"}, "fusion_lon": 0.0, "lat": 38.917051666666666, "bike_id": "ec407ff8d5c047b8a6c1015698d2f01c", "type": "electric_scooter", "is_reserved": 0, "lon": -77.02751033333334}, {"fusion_lat": 0.0, "name": "92e18971728062a0199667351f510219", "is_disabled": 0, "rental_uris": {"android": "https://dc.lft.to/lastmile_qr_scan", "ios": "https://dc.lft.to/lastmile_qr_scan"}, "fusion_lon": 0.0, "lat": 38.89990366666667, "bike_id": "92e18971728062a0199667351f510219", "type": "electric_scooter", "is_reserved": 0, "lon": -77.03159333333333}, {"fusion_lat": 0.0, "name": "20438cfbb929faeca8e13917095fa968", "is_disabled": 0, "rental_uris": {"android": "https://dc.lft.to/lastmile_qr_scan", "ios": "https://dc.lft.to/lastmile_qr_scan"}, "fusion_lon": 0.0, "lat": 38.847567833333336, "bike_id": "20438cfbb929faeca8e13917095fa968", "type": "electric_scooter", "is_reserved": 0, "lon": -76.9950115}, {"fusion_lat": 0.0, "name": "5fc868bb4cf93090d4e4710fd6289a5b", "is_disabled": 0, "rental_uris": {"android": "https://dc.lft.to/lastmile_qr_scan", "ios": "https://dc.lft.to/lastmile_qr_scan"}, "fusion_lon": 0.0, "lat": 38.92350616666667, "bike_id": "5fc868bb4cf93090d4e4710fd6289a5b", "type": "electric_scooter", "is_reserved": 0, "lon": -76.992517}, {"fusion_lat": 0.0, "name": "a7b4bbb28b505a5e8ac04773951e8f52", "is_disabled": 0, "rental_uris": {"android": "https://dc.lft.to/lastmile_qr_scan", "ios": "https://dc.lft.to/lastmile_qr_scan"}, "fusion_lon": 0.0, "lat": 38.93711416666667, "bike_id": "a7b4bbb28b505a5e8ac04773951e8f52", "type": "electric_scooter", "is_reserved": 0, "lon": -77.06108216666667}, {"fusion_lat": 0.0, "name": "8ea6b3eda35efc428ca70c69af9f8278", "is_disabled": 0, "rental_uris": {"android": "https://dc.lft.to/lastmile_qr_scan", "ios": "https://dc.lft.to/lastmile_qr_scan"}, "fusion_lon": 0.0, "lat": 38.880602, "bike_id": "8ea6b3eda35efc428ca70c69af9f8278", "type": "electric_scooter", "is_reserved": 0, "lon": -76.98504616666666}, {"fusion_lat": 0.0, "name": "3781baee1666ab59be55289817c335e9", "is_disabled": 0, "rental_uris": {"android": "https://dc.lft.to/lastmile_qr_scan", "ios": "https://dc.lft.to/lastmile_qr_scan"}, "fusion_lon": 0.0, "lat": 38.907979, "bike_id": "3781baee1666ab59be55289817c335e9", "type": "electric_scooter", "is_reserved": 0, "lon": -77.03880316666667}, {"fusion_lat": 0.0, "name": "4216d4db12fe5c3bec50e6399e87b4a5", "is_disabled": 0, "rental_uris": {"android": "https://dc.lft.to/lastmile_qr_scan", "ios": "https://dc.lft.to/lastmile_qr_scan"}, "fusion_lon": 0.0, "lat": 38.906498666666664, "bike_id": "4216d4db12fe5c3bec50e6399e87b4a5", "type": "electric_scooter", "is_reserved": 0, "lon": -77.00676933333334}, {"fusion_lat": 0.0, "name": "7ee5e0e97a3cb8c142be19a1dcac4dea", "is_disabled": 0, "rental_uris": {"android": "https://dc.lft.to/lastmile_qr_scan", "ios": "https://dc.lft.to/lastmile_qr_scan"}, "fusion_lon": 0.0, "lat": 38.966688833333336, "bike_id": "7ee5e0e97a3cb8c142be19a1dcac4dea", "type": "electric_scooter", "is_reserved": 0, "lon": -77.02553266666666}, {"fusion_lat": 0.0, "name": "78514bf96df4795d0ac287b8bf503086", "is_disabled": 0, "rental_uris": {"android": "https://dc.lft.to/lastmile_qr_scan", "ios": "https://dc.lft.to/lastmile_qr_scan"}, "fusion_lon": 0.0, "lat": 38.89754966666667, "bike_id": "78514bf96df4795d0ac287b8bf503086", "type": "electric_scooter", "is_reserved": 0, "lon": -77.04542333333333}, {"fusion_lat": 0.0, "name": "5b8275a63b41f51eddb0f5a9c227ae91", "is_disabled": 0, "rental_uris": {"android": "https://dc.lft.to/lastmile_qr_scan", "ios": "https://dc.lft.to/lastmile_qr_scan"}, "fusion_lon": 0.0, "lat": 38.91308033333333, "bike_id": "5b8275a63b41f51eddb0f5a9c227ae91", "type": "electric_scooter", "is_reserved": 0, "lon": -77.0365445}, {"fusion_lat": 0.0, "name": "e519815d046071a04f35ad03957c5e94", "is_disabled": 0, "rental_uris": {"android": "https://dc.lft.to/lastmile_qr_scan", "ios": "https://dc.lft.to/lastmile_qr_scan"}, "fusion_lon": 0.0, "lat": 38.91264283333334, "bike_id": "e519815d046071a04f35ad03957c5e94", "type": "electric_scooter", "is_reserved": 0, "lon": -77.04469066666667}, {"fusion_lat": 0.0, "name": "8d2ea2d3cfff08bc4fb43302e1acc051", "is_disabled": 0, "rental_uris": {"android": "https://dc.lft.to/lastmile_qr_scan", "ios": "https://dc.lft.to/lastmile_qr_scan"}, "fusion_lon": 0.0, "lat": 38.8813895, "bike_id": "8d2ea2d3cfff08bc4fb43302e1acc051", "type": "electric_scooter", "is_reserved": 0, "lon": -76.9949725}, {"fusion_lat": 0.0, "name": "b077906ebfbf87f4adba4398f266b3c4", "is_disabled": 0, "rental_uris": {"android": "https://dc.lft.to/lastmile_qr_scan", "ios": "https://dc.lft.to/lastmile_qr_scan"}, "fusion_lon": 0.0, "lat": 38.896845166666665, "bike_id": "b077906ebfbf87f4adba4398f266b3c4", "type": "electric_scooter", "is_reserved": 0, "lon": -77.0055395}, {"fusion_lat": 0.0, "name": "1ad2089ef1203031f637c28e95f8930d", "is_disabled": 0, "rental_uris": {"android": "https://dc.lft.to/lastmile_qr_scan", "ios": "https://dc.lft.to/lastmile_qr_scan"}, "fusion_lon": 0.0, "lat": 38.926921666666665, "bike_id": "1ad2089ef1203031f637c28e95f8930d", "type": "electric_scooter", "is_reserved": 0, "lon": -77.0208575}, {"fusion_lat": 0.0, "name": "5c6a1d89f2401c60aee62abaf5d9e43c", "is_disabled": 0, "rental_uris": {"android": "https://dc.lft.to/lastmile_qr_scan", "ios": "https://dc.lft.to/lastmile_qr_scan"}, "fusion_lon": 0.0, "lat": 38.933557, "bike_id": "5c6a1d89f2401c60aee62abaf5d9e43c", "type": "electric_scooter", "is_reserved": 0, "lon": -77.024415}, {"fusion_lat": 0.0, "name": "bfbe4ddca4c2cb782b74871007a2d8a5", "is_disabled": 0, "rental_uris": {"android": "https://dc.lft.to/lastmile_qr_scan", "ios": "https://dc.lft.to/lastmile_qr_scan"}, "fusion_lon": 0.0, "lat": 38.91680366666667, "bike_id": "bfbe4ddca4c2cb782b74871007a2d8a5", "type": "electric_scooter", "is_reserved": 0, "lon": -77.02307716666667}, {"fusion_lat": 0.0, "name": "a759b5bc82b23bfc385c930b31cc33a6", "is_disabled": 0, "rental_uris": {"android": "https://dc.lft.to/lastmile_qr_scan", "ios": "https://dc.lft.to/lastmile_qr_scan"}, "fusion_lon": 0.0, "lat": 38.922590666666665, "bike_id": "a759b5bc82b23bfc385c930b31cc33a6", "type": "electric_scooter", "is_reserved": 0, "lon": -77.03521133333334}, {"fusion_lat": 0.0, "name": "5fbba5f588b5500ec2e412ee16ed5f3d", "is_disabled": 0, "rental_uris": {"android": "https://dc.lft.to/lastmile_qr_scan", "ios": "https://dc.lft.to/lastmile_qr_scan"}, "fusion_lon": 0.0, "lat": 38.898785333333336, "bike_id": "5fbba5f588b5500ec2e412ee16ed5f3d", "type": "electric_scooter", "is_reserved": 0, "lon": -76.93183916666666}, {"fusion_lat": 0.0, "name": "123492e079cc78dc865bb3315030c392", "is_disabled": 0, "rental_uris": {"android": "https://dc.lft.to/lastmile_qr_scan", "ios": "https://dc.lft.to/lastmile_qr_scan"}, "fusion_lon": 0.0, "lat": 38.9075025, "bike_id": "123492e079cc78dc865bb3315030c392", "type": "electric_scooter", "is_reserved": 0, "lon": -77.0295115}, {"fusion_lat": 0.0, "name": "c5b6130208e927d80587f836141801fb", "is_disabled": 0, "rental_uris": {"android": "https://dc.lft.to/lastmile_qr_scan", "ios": "https://dc.lft.to/lastmile_qr_scan"}, "fusion_lon": 0.0, "lat": 38.9329405, "bike_id": "c5b6130208e927d80587f836141801fb", "type": "electric_scooter", "is_reserved": 0, "lon": -77.02799233333333}, {"fusion_lat": 0.0, "name": "2ba5cec0ea5a6dfb7feea4432510da86", "is_disabled": 0, "rental_uris": {"android": "https://dc.lft.to/lastmile_qr_scan", "ios": "https://dc.lft.to/lastmile_qr_scan"}, "fusion_lon": 0.0, "lat": 38.96226333333333, "bike_id": "2ba5cec0ea5a6dfb7feea4432510da86", "type": "electric_bike", "is_reserved": 0, "lon": -77.02628566666667}, {"fusion_lat": 0.0, "name": "1c8d412a967742bf5337c44974542425", "is_disabled": 0, "rental_uris": {"android": "https://dc.lft.to/lastmile_qr_scan", "ios": "https://dc.lft.to/lastmile_qr_scan"}, "fusion_lon": 0.0, "lat": 38.920524666666665, "bike_id": "1c8d412a967742bf5337c44974542425", "type": "electric_scooter", "is_reserved": 0, "lon": -77.01774383333333}, {"fusion_lat": 0.0, "name": "4865a263c56a55f8d5e0fd57ac8a4a8f", "is_disabled": 0, "rental_uris": {"android": "https://dc.lft.to/lastmile_qr_scan", "ios": "https://dc.lft.to/lastmile_qr_scan"}, "fusion_lon": 0.0, "lat": 38.878136166666664, "bike_id": "4865a263c56a55f8d5e0fd57ac8a4a8f", "type": "electric_scooter", "is_reserved": 0, "lon": -77.01327283333333}, {"fusion_lat": 0.0, "name": "c9ec9e83b048efc824a692632b33a6fc", "is_disabled": 0, "rental_uris": {"android": "https://dc.lft.to/lastmile_qr_scan", "ios": "https://dc.lft.to/lastmile_qr_scan"}, "fusion_lon": 0.0, "lat": 38.92448816666667, "bike_id": "c9ec9e83b048efc824a692632b33a6fc", "type": "electric_scooter", "is_reserved": 0, "lon": -77.02706166666667}, {"fusion_lat": 0.0, "name": "ba5290f1071adcb3507fc8f7b6d235cb", "is_disabled": 0, "rental_uris": {"android": "https://dc.lft.to/lastmile_qr_scan", "ios": "https://dc.lft.to/lastmile_qr_scan"}, "fusion_lon": 0.0, "lat": 38.880482, "bike_id": "ba5290f1071adcb3507fc8f7b6d235cb", "type": "electric_scooter", "is_reserved": 0, "lon": -77.00528733333333}, {"fusion_lat": 0.0, "name": "53989fb73c1470b62a130cb20000c80d", "is_disabled": 0, "rental_uris": {"android": "https://dc.lft.to/lastmile_qr_scan", "ios": "https://dc.lft.to/lastmile_qr_scan"}, "fusion_lon": 0.0, "lat": 38.917083, "bike_id": "53989fb73c1470b62a130cb20000c80d", "type": "electric_scooter", "is_reserved": 0, "lon": -77.038651}, {"fusion_lat": 0.0, "name": "3f1d8c9b22d4deeb1ec0c5704b776224", "is_disabled": 0, "rental_uris": {"android": "https://dc.lft.to/lastmile_qr_scan", "ios": "https://dc.lft.to/lastmile_qr_scan"}, "fusion_lon": 0.0, "lat": 38.88231366666667, "bike_id": "3f1d8c9b22d4deeb1ec0c5704b776224", "type": "electric_scooter", "is_reserved": 0, "lon": -77.0261785}, {"fusion_lat": 0.0, "name": "6fd854c18cd18e3262805089f10bc8bd", "is_disabled": 0, "rental_uris": {"android": "https://dc.lft.to/lastmile_qr_scan", "ios": "https://dc.lft.to/lastmile_qr_scan"}, "fusion_lon": 0.0, "lat": 38.89997366666667, "bike_id": "6fd854c18cd18e3262805089f10bc8bd", "type": "electric_scooter", "is_reserved": 0, "lon": -76.99013566666666}, {"fusion_lat": 0.0, "name": "04f216d364887cc0605059f1b96680f7", "is_disabled": 0, "rental_uris": {"android": "https://dc.lft.to/lastmile_qr_scan", "ios": "https://dc.lft.to/lastmile_qr_scan"}, "fusion_lon": 0.0, "lat": 38.91819, "bike_id": "04f216d364887cc0605059f1b96680f7", "type": "electric_scooter", "is_reserved": 0, "lon": -77.04004666666667}, {"fusion_lat": 0.0, "name": "6d1f5dca8bdbb6459d646001dbddb74e", "is_disabled": 0, "rental_uris": {"android": "https://dc.lft.to/lastmile_qr_scan", "ios": "https://dc.lft.to/lastmile_qr_scan"}, "fusion_lon": 0.0, "lat": 38.9254005, "bike_id": "6d1f5dca8bdbb6459d646001dbddb74e", "type": "electric_scooter", "is_reserved": 0, "lon": -77.05115633333334}, {"fusion_lat": 0.0, "name": "4017a48f262bc6e25ce93bb190a2c417", "is_disabled": 0, "rental_uris": {"android": "https://dc.lft.to/lastmile_qr_scan", "ios": "https://dc.lft.to/lastmile_qr_scan"}, "fusion_lon": 0.0, "lat": 38.91652233333333, "bike_id": "4017a48f262bc6e25ce93bb190a2c417", "type": "electric_bike", "is_reserved": 0, "lon": -76.98222033333333}, {"fusion_lat": 0.0, "name": "c2c43e9ba228981814713e49ad642fcb", "is_disabled": 0, "rental_uris": {"android": "https://dc.lft.to/lastmile_qr_scan", "ios": "https://dc.lft.to/lastmile_qr_scan"}, "fusion_lon": 0.0, "lat": 38.95348116666667, "bike_id": "c2c43e9ba228981814713e49ad642fcb", "type": "electric_scooter", "is_reserved": 0, "lon": -77.079508}, {"fusion_lat": 0.0, "name": "b344a78102c7e1cb7e271c36ef710bf7", "is_disabled": 0, "rental_uris": {"android": "https://dc.lft.to/lastmile_qr_scan", "ios": "https://dc.lft.to/lastmile_qr_scan"}, "fusion_lon": 0.0, "lat": 38.895152333333336, "bike_id": "b344a78102c7e1cb7e271c36ef710bf7", "type": "electric_scooter", "is_reserved": 0, "lon": -76.98090183333333}, {"fusion_lat": 0.0, "name": "e1f1a75c0b746ee5d155b15247413afb", "is_disabled": 0, "rental_uris": {"android": "https://dc.lft.to/lastmile_qr_scan", "ios": "https://dc.lft.to/lastmile_qr_scan"}, "fusion_lon": 0.0, "lat": 38.88745883333333, "bike_id": "e1f1a75c0b746ee5d155b15247413afb", "type": "electric_scooter", "is_reserved": 0, "lon": -77.0217525}, {"fusion_lat": 0.0, "name": "41f682342d2db14156a7fb63ee42254a", "is_disabled": 0, "rental_uris": {"android": "https://dc.lft.to/lastmile_qr_scan", "ios": "https://dc.lft.to/lastmile_qr_scan"}, "fusion_lon": 0.0, "lat": 38.930599666666666, "bike_id": "41f682342d2db14156a7fb63ee42254a", "type": "electric_scooter", "is_reserved": 0, "lon": -77.039444}, {"fusion_lat": 0.0, "name": "468bfd49cf948e0d8d7566732f99a523", "is_disabled": 0, "rental_uris": {"android": "https://dc.lft.to/lastmile_qr_scan", "ios": "https://dc.lft.to/lastmile_qr_scan"}, "fusion_lon": 0.0, "lat": 38.959253833333335, "bike_id": "468bfd49cf948e0d8d7566732f99a523", "type": "electric_scooter", "is_reserved": 0, "lon": -77.08478283333334}, {"fusion_lat": 0.0, "name": "e639c8bc6940677c67eeef64de8e6070", "is_disabled": 0, "rental_uris": {"android": "https://dc.lft.to/lastmile_qr_scan", "ios": "https://dc.lft.to/lastmile_qr_scan"}, "fusion_lon": 0.0, "lat": 38.94513216666667, "bike_id": "e639c8bc6940677c67eeef64de8e6070", "type": "electric_bike", "is_reserved": 0, "lon": -77.00672033333333}, {"fusion_lat": 0.0, "name": "8a878f5e1a71f05d89b0db9eecbb12bc", "is_disabled": 0, "rental_uris": {"android": "https://dc.lft.to/lastmile_qr_scan", "ios": "https://dc.lft.to/lastmile_qr_scan"}, "fusion_lon": 0.0, "lat": 38.931311666666666, "bike_id": "8a878f5e1a71f05d89b0db9eecbb12bc", "type": "electric_scooter", "is_reserved": 0, "lon": -77.0235485}, {"fusion_lat": 0.0, "name": "9bfb7835a8050a3d62eb6494f5b26534", "is_disabled": 0, "rental_uris": {"android": "https://dc.lft.to/lastmile_qr_scan", "ios": "https://dc.lft.to/lastmile_qr_scan"}, "fusion_lon": 0.0, "lat": 38.9508615, "bike_id": "9bfb7835a8050a3d62eb6494f5b26534", "type": "electric_scooter", "is_reserved": 0, "lon": -77.027169}, {"fusion_lat": 0.0, "name": "e699ab6457a3b852f644462464c00268", "is_disabled": 0, "rental_uris": {"android": "https://dc.lft.to/lastmile_qr_scan", "ios": "https://dc.lft.to/lastmile_qr_scan"}, "fusion_lon": 0.0, "lat": 38.949805, "bike_id": "e699ab6457a3b852f644462464c00268", "type": "electric_scooter", "is_reserved": 0, "lon": -77.02698933333333}, {"fusion_lat": 0.0, "name": "ec5268db71a16f3dcf67feb64e9ae8b3", "is_disabled": 0, "rental_uris": {"android": "https://dc.lft.to/lastmile_qr_scan", "ios": "https://dc.lft.to/lastmile_qr_scan"}, "fusion_lon": 0.0, "lat": 38.94387483333333, "bike_id": "ec5268db71a16f3dcf67feb64e9ae8b3", "type": "electric_scooter", "is_reserved": 0, "lon": -77.032117}, {"fusion_lat": 0.0, "name": "9ba499e54b64dbaf3e47426e40da553a", "is_disabled": 0, "rental_uris": {"android": "https://dc.lft.to/lastmile_qr_scan", "ios": "https://dc.lft.to/lastmile_qr_scan"}, "fusion_lon": 0.0, "lat": 38.86850833333333, "bike_id": "9ba499e54b64dbaf3e47426e40da553a", "type": "electric_scooter", "is_reserved": 0, "lon": -76.98829083333334}, {"fusion_lat": 0.0, "name": "417ff435decba4d1b10f19e494d955bb", "is_disabled": 0, "rental_uris": {"android": "https://dc.lft.to/lastmile_qr_scan", "ios": "https://dc.lft.to/lastmile_qr_scan"}, "fusion_lon": 0.0, "lat": 38.8755245, "bike_id": "417ff435decba4d1b10f19e494d955bb", "type": "electric_scooter", "is_reserved": 0, "lon": -77.00729683333333}, {"fusion_lat": 0.0, "name": "ea4b13cf3c9aee3613ac3be64edc5b7d", "is_disabled": 0, "rental_uris": {"android": "https://dc.lft.to/lastmile_qr_scan", "ios": "https://dc.lft.to/lastmile_qr_scan"}, "fusion_lon": 0.0, "lat": 38.901853333333335, "bike_id": "ea4b13cf3c9aee3613ac3be64edc5b7d", "type": "electric_scooter", "is_reserved": 0, "lon": -77.059123}, {"fusion_lat": 0.0, "name": "81bda43393c8909eb6ef3ae180d9db7c", "is_disabled": 0, "rental_uris": {"android": "https://dc.lft.to/lastmile_qr_scan", "ios": "https://dc.lft.to/lastmile_qr_scan"}, "fusion_lon": 0.0, "lat": 38.92994866666667, "bike_id": "81bda43393c8909eb6ef3ae180d9db7c", "type": "electric_scooter", "is_reserved": 0, "lon": -77.03266116666667}, {"fusion_lat": 0.0, "name": "458c6cc1e0eafe3280eb978c2c056c8f", "is_disabled": 0, "rental_uris": {"android": "https://dc.lft.to/lastmile_qr_scan", "ios": "https://dc.lft.to/lastmile_qr_scan"}, "fusion_lon": 0.0, "lat": 38.902651166666665, "bike_id": "458c6cc1e0eafe3280eb978c2c056c8f", "type": "electric_scooter", "is_reserved": 0, "lon": -76.99612116666667}, {"fusion_lat": 0.0, "name": "49f59bda769c0209a805c8329bd1adfc", "is_disabled": 0, "rental_uris": {"android": "https://dc.lft.to/lastmile_qr_scan", "ios": "https://dc.lft.to/lastmile_qr_scan"}, "fusion_lon": 0.0, "lat": 38.92288633333333, "bike_id": "49f59bda769c0209a805c8329bd1adfc", "type": "electric_scooter", "is_reserved": 0, "lon": -76.99422016666666}, {"fusion_lat": 0.0, "name": "d7df805cbb8ef62b934210a19d9afd22", "is_disabled": 0, "rental_uris": {"android": "https://dc.lft.to/lastmile_qr_scan", "ios": "https://dc.lft.to/lastmile_qr_scan"}, "fusion_lon": 0.0, "lat": 38.898134166666665, "bike_id": "d7df805cbb8ef62b934210a19d9afd22", "type": "electric_scooter", "is_reserved": 0, "lon": -77.02390916666667}, {"fusion_lat": 0.0, "name": "458d6f066bed00f21ae7828b8f7c10b2", "is_disabled": 0, "rental_uris": {"android": "https://dc.lft.to/lastmile_qr_scan", "ios": "https://dc.lft.to/lastmile_qr_scan"}, "fusion_lon": 0.0, "lat": 38.923696166666666, "bike_id": "458d6f066bed00f21ae7828b8f7c10b2", "type": "electric_scooter", "is_reserved": 0, "lon": -77.08154333333333}, {"fusion_lat": 0.0, "name": "9310e31f0df7983236b859bb5405e2bb", "is_disabled": 0, "rental_uris": {"android": "https://dc.lft.to/lastmile_qr_scan", "ios": "https://dc.lft.to/lastmile_qr_scan"}, "fusion_lon": 0.0, "lat": 38.9698835, "bike_id": "9310e31f0df7983236b859bb5405e2bb", "type": "electric_scooter", "is_reserved": 0, "lon": -77.01160633333333}, {"fusion_lat": 0.0, "name": "03114caa85997d82746ec4a22dc5e4c7", "is_disabled": 0, "rental_uris": {"android": "https://dc.lft.to/lastmile_qr_scan", "ios": "https://dc.lft.to/lastmile_qr_scan"}, "fusion_lon": 0.0, "lat": 38.89740966666667, "bike_id": "03114caa85997d82746ec4a22dc5e4c7", "type": "electric_scooter", "is_reserved": 0, "lon": -76.9471975}, {"fusion_lat": 0.0, "name": "cc5974026bc2fea4c46a93389a175368", "is_disabled": 0, "rental_uris": {"android": "https://dc.lft.to/lastmile_qr_scan", "ios": "https://dc.lft.to/lastmile_qr_scan"}, "fusion_lon": 0.0, "lat": 38.9156655, "bike_id": "cc5974026bc2fea4c46a93389a175368", "type": "electric_scooter", "is_reserved": 0, "lon": -77.03245433333333}, {"fusion_lat": 0.0, "name": "fa49a3b841dd24d72288099b110429cd", "is_disabled": 0, "rental_uris": {"android": "https://dc.lft.to/lastmile_qr_scan", "ios": "https://dc.lft.to/lastmile_qr_scan"}, "fusion_lon": 0.0, "lat": 38.906810666666665, "bike_id": "fa49a3b841dd24d72288099b110429cd", "type": "electric_scooter", "is_reserved": 0, "lon": -77.03845766666667}, {"fusion_lat": 0.0, "name": "d3388fc514fb7075ad03da3ca21e51b5", "is_disabled": 0, "rental_uris": {"android": "https://dc.lft.to/lastmile_qr_scan", "ios": "https://dc.lft.to/lastmile_qr_scan"}, "fusion_lon": 0.0, "lat": 38.90026666666667, "bike_id": "d3388fc514fb7075ad03da3ca21e51b5", "type": "electric_scooter", "is_reserved": 0, "lon": -76.99136216666666}, {"fusion_lat": 0.0, "name": "a5dc060fe389b0591ce0edbe23b26a9a", "is_disabled": 0, "rental_uris": {"android": "https://dc.lft.to/lastmile_qr_scan", "ios": "https://dc.lft.to/lastmile_qr_scan"}, "fusion_lon": 0.0, "lat": 38.925843, "bike_id": "a5dc060fe389b0591ce0edbe23b26a9a", "type": "electric_scooter", "is_reserved": 0, "lon": -77.02729866666667}, {"fusion_lat": 0.0, "name": "124577683aa6254d43a35de4f3db8dfa", "is_disabled": 0, "rental_uris": {"android": "https://dc.lft.to/lastmile_qr_scan", "ios": "https://dc.lft.to/lastmile_qr_scan"}, "fusion_lon": 0.0, "lat": 38.92456983333334, "bike_id": "124577683aa6254d43a35de4f3db8dfa", "type": "electric_scooter", "is_reserved": 0, "lon": -77.02404183333333}, {"fusion_lat": 0.0, "name": "cc730c38541466678002bf3e0053dfae", "is_disabled": 0, "rental_uris": {"android": "https://dc.lft.to/lastmile_qr_scan", "ios": "https://dc.lft.to/lastmile_qr_scan"}, "fusion_lon": 0.0, "lat": 38.88964433333334, "bike_id": "cc730c38541466678002bf3e0053dfae", "type": "electric_scooter", "is_reserved": 0, "lon": -77.01505783333333}, {"fusion_lat": 0.0, "name": "65fc2f366cbfee3aab925f952db4b10a", "is_disabled": 0, "rental_uris": {"android": "https://dc.lft.to/lastmile_qr_scan", "ios": "https://dc.lft.to/lastmile_qr_scan"}, "fusion_lon": 0.0, "lat": 38.87447566666667, "bike_id": "65fc2f366cbfee3aab925f952db4b10a", "type": "electric_scooter", "is_reserved": 0, "lon": -77.0186595}, {"fusion_lat": 0.0, "name": "7ed033467c85aeeb539d7ea2b982c533", "is_disabled": 0, "rental_uris": {"android": "https://dc.lft.to/lastmile_qr_scan", "ios": "https://dc.lft.to/lastmile_qr_scan"}, "fusion_lon": 0.0, "lat": 38.918628, "bike_id": "7ed033467c85aeeb539d7ea2b982c533", "type": "electric_scooter", "is_reserved": 0, "lon": -77.03661216666667}, {"fusion_lat": 0.0, "name": "6d33a68dfaad51a56d7f991aa7710ca3", "is_disabled": 0, "rental_uris": {"android": "https://dc.lft.to/lastmile_qr_scan", "ios": "https://dc.lft.to/lastmile_qr_scan"}, "fusion_lon": 0.0, "lat": 38.81940733333333, "bike_id": "6d33a68dfaad51a56d7f991aa7710ca3", "type": "electric_bike", "is_reserved": 0, "lon": -77.0020315}, {"fusion_lat": 0.0, "name": "0d913aa9892c5de47413ae557727d389", "is_disabled": 0, "rental_uris": {"android": "https://dc.lft.to/lastmile_qr_scan", "ios": "https://dc.lft.to/lastmile_qr_scan"}, "fusion_lon": 0.0, "lat": 38.90929633333333, "bike_id": "0d913aa9892c5de47413ae557727d389", "type": "electric_scooter", "is_reserved": 0, "lon": -77.03025383333333}, {"fusion_lat": 0.0, "name": "d0cfbf0393b6fb2521477ff9799ce953", "is_disabled": 0, "rental_uris": {"android": "https://dc.lft.to/lastmile_qr_scan", "ios": "https://dc.lft.to/lastmile_qr_scan"}, "fusion_lon": 0.0, "lat": 38.89220616666667, "bike_id": "d0cfbf0393b6fb2521477ff9799ce953", "type": "electric_scooter", "is_reserved": 0, "lon": -77.02723833333333}, {"fusion_lat": 0.0, "name": "4720cdb51abf825d1eed24e2d114c77f", "is_disabled": 0, "rental_uris": {"android": "https://dc.lft.to/lastmile_qr_scan", "ios": "https://dc.lft.to/lastmile_qr_scan"}, "fusion_lon": 0.0, "lat": 38.89481716666667, "bike_id": "4720cdb51abf825d1eed24e2d114c77f", "type": "electric_scooter", "is_reserved": 0, "lon": -77.02187783333333}, {"fusion_lat": 0.0, "name": "d27f73548a87d5cc9263a7f148513873", "is_disabled": 0, "rental_uris": {"android": "https://dc.lft.to/lastmile_qr_scan", "ios": "https://dc.lft.to/lastmile_qr_scan"}, "fusion_lon": 0.0, "lat": 38.9526395, "bike_id": "d27f73548a87d5cc9263a7f148513873", "type": "electric_bike", "is_reserved": 0, "lon": -76.99955683333333}, {"fusion_lat": 0.0, "name": "bbb6d4f40793a2b0814b6f1477f5fe27", "is_disabled": 0, "rental_uris": {"android": "https://dc.lft.to/lastmile_qr_scan", "ios": "https://dc.lft.to/lastmile_qr_scan"}, "fusion_lon": 0.0, "lat": 38.90722366666667, "bike_id": "bbb6d4f40793a2b0814b6f1477f5fe27", "type": "electric_scooter", "is_reserved": 0, "lon": -77.02542066666666}, {"fusion_lat": 0.0, "name": "facf7739d7dba83631a7ea5d224111de", "is_disabled": 0, "rental_uris": {"android": "https://dc.lft.to/lastmile_qr_scan", "ios": "https://dc.lft.to/lastmile_qr_scan"}, "fusion_lon": 0.0, "lat": 38.931535833333335, "bike_id": "facf7739d7dba83631a7ea5d224111de", "type": "electric_scooter", "is_reserved": 0, "lon": -77.039711}, {"fusion_lat": 0.0, "name": "889c0d6503080ac692e8057bfafbe365", "is_disabled": 0, "rental_uris": {"android": "https://dc.lft.to/lastmile_qr_scan", "ios": "https://dc.lft.to/lastmile_qr_scan"}, "fusion_lon": 0.0, "lat": 38.88705133333333, "bike_id": "889c0d6503080ac692e8057bfafbe365", "type": "electric_scooter", "is_reserved": 0, "lon": -76.9960695}, {"fusion_lat": 0.0, "name": "a53882071128e652f8d7a2335982b85b", "is_disabled": 0, "rental_uris": {"android": "https://dc.lft.to/lastmile_qr_scan", "ios": "https://dc.lft.to/lastmile_qr_scan"}, "fusion_lon": 0.0, "lat": 38.9207975, "bike_id": "a53882071128e652f8d7a2335982b85b", "type": "electric_bike", "is_reserved": 0, "lon": -77.0718815}, {"fusion_lat": 0.0, "name": "cff76420c617a4d298329ac58e80685f", "is_disabled": 0, "rental_uris": {"android": "https://dc.lft.to/lastmile_qr_scan", "ios": "https://dc.lft.to/lastmile_qr_scan"}, "fusion_lon": 0.0, "lat": 38.892214, "bike_id": "cff76420c617a4d298329ac58e80685f", "type": "electric_scooter", "is_reserved": 0, "lon": -77.02415866666666}, {"fusion_lat": 0.0, "name": "f30d782d586a9e2d2dfe0efa7aa3720e", "is_disabled": 0, "rental_uris": {"android": "https://dc.lft.to/lastmile_qr_scan", "ios": "https://dc.lft.to/lastmile_qr_scan"}, "fusion_lon": 0.0, "lat": 38.9264965, "bike_id": "f30d782d586a9e2d2dfe0efa7aa3720e", "type": "electric_scooter", "is_reserved": 0, "lon": -77.0385645}, {"fusion_lat": 0.0, "name": "1294cf730ad124cf341de555ad6e61d5", "is_disabled": 0, "rental_uris": {"android": "https://dc.lft.to/lastmile_qr_scan", "ios": "https://dc.lft.to/lastmile_qr_scan"}, "fusion_lon": 0.0, "lat": 38.91045916666667, "bike_id": "1294cf730ad124cf341de555ad6e61d5", "type": "electric_scooter", "is_reserved": 0, "lon": -77.033399}, {"fusion_lat": 0.0, "name": "43fbc441a1f02eaaff61f19968e237ec", "is_disabled": 0, "rental_uris": {"android": "https://dc.lft.to/lastmile_qr_scan", "ios": "https://dc.lft.to/lastmile_qr_scan"}, "fusion_lon": 0.0, "lat": 38.89993966666667, "bike_id": "43fbc441a1f02eaaff61f19968e237ec", "type": "electric_scooter", "is_reserved": 0, "lon": -77.05501616666666}, {"fusion_lat": 0.0, "name": "e72adc64aa6b57f7fbfafd5d1651c62f", "is_disabled": 0, "rental_uris": {"android": "https://dc.lft.to/lastmile_qr_scan", "ios": "https://dc.lft.to/lastmile_qr_scan"}, "fusion_lon": 0.0, "lat": 38.916472666666664, "bike_id": "e72adc64aa6b57f7fbfafd5d1651c62f", "type": "electric_scooter", "is_reserved": 0, "lon": -77.04800433333334}, {"fusion_lat": 0.0, "name": "264ef3a7dd1e6a95b446ff4e6cf62a6c", "is_disabled": 0, "rental_uris": {"android": "https://dc.lft.to/lastmile_qr_scan", "ios": "https://dc.lft.to/lastmile_qr_scan"}, "fusion_lon": 0.0, "lat": 38.928806, "bike_id": "264ef3a7dd1e6a95b446ff4e6cf62a6c", "type": "electric_scooter", "is_reserved": 0, "lon": -77.03230566666667}, {"fusion_lat": 0.0, "name": "491ffa1f48b8784d2904d8a5f6599d80", "is_disabled": 0, "rental_uris": {"android": "https://dc.lft.to/lastmile_qr_scan", "ios": "https://dc.lft.to/lastmile_qr_scan"}, "fusion_lon": 0.0, "lat": 39.036106, "bike_id": "491ffa1f48b8784d2904d8a5f6599d80", "type": "electric_bike", "is_reserved": 0, "lon": -77.0554565}, {"fusion_lat": 0.0, "name": "99cded6c564c2d6a4da135514566d188", "is_disabled": 0, "rental_uris": {"android": "https://dc.lft.to/lastmile_qr_scan", "ios": "https://dc.lft.to/lastmile_qr_scan"}, "fusion_lon": 0.0, "lat": 38.914785, "bike_id": "99cded6c564c2d6a4da135514566d188", "type": "electric_scooter", "is_reserved": 0, "lon": -77.04282316666666}, {"fusion_lat": 0.0, "name": "c985d93822cd49fb59e08f0681f3722c", "is_disabled": 0, "rental_uris": {"android": "https://dc.lft.to/lastmile_qr_scan", "ios": "https://dc.lft.to/lastmile_qr_scan"}, "fusion_lon": 0.0, "lat": 38.879545666666665, "bike_id": "c985d93822cd49fb59e08f0681f3722c", "type": "electric_scooter", "is_reserved": 0, "lon": -77.00838866666666}, {"fusion_lat": 0.0, "name": "1fb618d07feabf27badd42394b441d18", "is_disabled": 0, "rental_uris": {"android": "https://dc.lft.to/lastmile_qr_scan", "ios": "https://dc.lft.to/lastmile_qr_scan"}, "fusion_lon": 0.0, "lat": 38.909582, "bike_id": "1fb618d07feabf27badd42394b441d18", "type": "electric_scooter", "is_reserved": 0, "lon": -77.0174225}, {"fusion_lat": 0.0, "name": "fa6993eed8d06520e05844269b8d060f", "is_disabled": 0, "rental_uris": {"android": "https://dc.lft.to/lastmile_qr_scan", "ios": "https://dc.lft.to/lastmile_qr_scan"}, "fusion_lon": 0.0, "lat": 38.92693366666666, "bike_id": "fa6993eed8d06520e05844269b8d060f", "type": "electric_scooter", "is_reserved": 0, "lon": -77.036395}, {"fusion_lat": 0.0, "name": "c21cc2ebd7e1d0b8a67a992391b45aec", "is_disabled": 0, "rental_uris": {"android": "https://dc.lft.to/lastmile_qr_scan", "ios": "https://dc.lft.to/lastmile_qr_scan"}, "fusion_lon": 0.0, "lat": 38.92868166666667, "bike_id": "c21cc2ebd7e1d0b8a67a992391b45aec", "type": "electric_scooter", "is_reserved": 0, "lon": -77.03291066666667}, {"fusion_lat": 0.0, "name": "880b4c9309d9a2f0f6901b9432c2f5aa", "is_disabled": 0, "rental_uris": {"android": "https://dc.lft.to/lastmile_qr_scan", "ios": "https://dc.lft.to/lastmile_qr_scan"}, "fusion_lon": 0.0, "lat": 38.866802166666666, "bike_id": "880b4c9309d9a2f0f6901b9432c2f5aa", "type": "electric_bike", "is_reserved": 0, "lon": -76.98237016666667}, {"fusion_lat": 0.0, "name": "2caed9bcfb1bbf254392b350fddf0725", "is_disabled": 0, "rental_uris": {"android": "https://dc.lft.to/lastmile_qr_scan", "ios": "https://dc.lft.to/lastmile_qr_scan"}, "fusion_lon": 0.0, "lat": 38.90971483333333, "bike_id": "2caed9bcfb1bbf254392b350fddf0725", "type": "electric_scooter", "is_reserved": 0, "lon": -77.04518216666666}, {"fusion_lat": 0.0, "name": "a2d16d49b40ef9e14ff87b7e1e8db768", "is_disabled": 0, "rental_uris": {"android": "https://dc.lft.to/lastmile_qr_scan", "ios": "https://dc.lft.to/lastmile_qr_scan"}, "fusion_lon": 0.0, "lat": 38.956943333333335, "bike_id": "a2d16d49b40ef9e14ff87b7e1e8db768", "type": "electric_scooter", "is_reserved": 0, "lon": -77.0325305}, {"fusion_lat": 0.0, "name": "7b2e95470f3d645934a475767031a1b1", "is_disabled": 0, "rental_uris": {"android": "https://dc.lft.to/lastmile_qr_scan", "ios": "https://dc.lft.to/lastmile_qr_scan"}, "fusion_lon": 0.0, "lat": 38.917091666666664, "bike_id": "7b2e95470f3d645934a475767031a1b1", "type": "electric_scooter", "is_reserved": 0, "lon": -77.034724}, {"fusion_lat": 0.0, "name": "d547a58ce1a42dcf6c98542a7f6030f7", "is_disabled": 0, "rental_uris": {"android": "https://dc.lft.to/lastmile_qr_scan", "ios": "https://dc.lft.to/lastmile_qr_scan"}, "fusion_lon": 0.0, "lat": 38.911182, "bike_id": "d547a58ce1a42dcf6c98542a7f6030f7", "type": "electric_scooter", "is_reserved": 0, "lon": -77.04468533333333}, {"fusion_lat": 0.0, "name": "ef7b9dbfccf4b4f75bee4322a4d540ef", "is_disabled": 0, "rental_uris": {"android": "https://dc.lft.to/lastmile_qr_scan", "ios": "https://dc.lft.to/lastmile_qr_scan"}, "fusion_lon": 0.0, "lat": 38.907231, "bike_id": "ef7b9dbfccf4b4f75bee4322a4d540ef", "type": "electric_scooter", "is_reserved": 0, "lon": -77.03779616666667}, {"fusion_lat": 0.0, "name": "9f88d1fff5ec37dfea92e094163a265e", "is_disabled": 0, "rental_uris": {"android": "https://dc.lft.to/lastmile_qr_scan", "ios": "https://dc.lft.to/lastmile_qr_scan"}, "fusion_lon": 0.0, "lat": 38.962387, "bike_id": "9f88d1fff5ec37dfea92e094163a265e", "type": "electric_bike", "is_reserved": 0, "lon": -76.92781466666666}, {"fusion_lat": 0.0, "name": "6b21ba4e6e9ae579d810103adb97714a", "is_disabled": 0, "rental_uris": {"android": "https://dc.lft.to/lastmile_qr_scan", "ios": "https://dc.lft.to/lastmile_qr_scan"}, "fusion_lon": 0.0, "lat": 38.90282933333334, "bike_id": "6b21ba4e6e9ae579d810103adb97714a", "type": "electric_scooter", "is_reserved": 0, "lon": -77.02276516666667}, {"fusion_lat": 0.0, "name": "9fb5faa5d8b09d50038e11f225d9d218", "is_disabled": 0, "rental_uris": {"android": "https://dc.lft.to/lastmile_qr_scan", "ios": "https://dc.lft.to/lastmile_qr_scan"}, "fusion_lon": 0.0, "lat": 38.95668666666667, "bike_id": "9fb5faa5d8b09d50038e11f225d9d218", "type": "electric_bike", "is_reserved": 0, "lon": -77.01129666666667}, {"fusion_lat": 0.0, "name": "9c71d4fbdf6e4fcdd98324d2147522b5", "is_disabled": 0, "rental_uris": {"android": "https://dc.lft.to/lastmile_qr_scan", "ios": "https://dc.lft.to/lastmile_qr_scan"}, "fusion_lon": 0.0, "lat": 38.90735166666666, "bike_id": "9c71d4fbdf6e4fcdd98324d2147522b5", "type": "electric_scooter", "is_reserved": 0, "lon": -77.00517}, {"fusion_lat": 0.0, "name": "803382935ee064fbd58d2f2e5a3f3ee2", "is_disabled": 0, "rental_uris": {"android": "https://dc.lft.to/lastmile_qr_scan", "ios": "https://dc.lft.to/lastmile_qr_scan"}, "fusion_lon": 0.0, "lat": 38.93509783333333, "bike_id": "803382935ee064fbd58d2f2e5a3f3ee2", "type": "electric_scooter", "is_reserved": 0, "lon": -77.0240735}, {"fusion_lat": 0.0, "name": "b69282aa93eaa39126e5fe2874ee74d1", "is_disabled": 0, "rental_uris": {"android": "https://dc.lft.to/lastmile_qr_scan", "ios": "https://dc.lft.to/lastmile_qr_scan"}, "fusion_lon": 0.0, "lat": 38.9241595, "bike_id": "b69282aa93eaa39126e5fe2874ee74d1", "type": "electric_scooter", "is_reserved": 0, "lon": -77.02270316666667}, {"fusion_lat": 0.0, "name": "c4fcefc43f47a51f338aa2c98b184ca6", "is_disabled": 0, "rental_uris": {"android": "https://dc.lft.to/lastmile_qr_scan", "ios": "https://dc.lft.to/lastmile_qr_scan"}, "fusion_lon": 0.0, "lat": 38.915417833333336, "bike_id": "c4fcefc43f47a51f338aa2c98b184ca6", "type": "electric_scooter", "is_reserved": 0, "lon": -77.03201883333334}, {"fusion_lat": 0.0, "name": "6cc18c6380e29f3e37250060ad61a021", "is_disabled": 0, "rental_uris": {"android": "https://dc.lft.to/lastmile_qr_scan", "ios": "https://dc.lft.to/lastmile_qr_scan"}, "fusion_lon": 0.0, "lat": 38.89752766666667, "bike_id": "6cc18c6380e29f3e37250060ad61a021", "type": "electric_scooter", "is_reserved": 0, "lon": -77.04860583333334}, {"fusion_lat": 0.0, "name": "0a143dca8eaa0f87ff5e90bd60c48663", "is_disabled": 0, "rental_uris": {"android": "https://dc.lft.to/lastmile_qr_scan", "ios": "https://dc.lft.to/lastmile_qr_scan"}, "fusion_lon": 0.0, "lat": 38.9595295, "bike_id": "0a143dca8eaa0f87ff5e90bd60c48663", "type": "electric_scooter", "is_reserved": 0, "lon": -77.00896133333333}, {"fusion_lat": 0.0, "name": "f109a65e52dce7e8a279724d2ceed746", "is_disabled": 0, "rental_uris": {"android": "https://dc.lft.to/lastmile_qr_scan", "ios": "https://dc.lft.to/lastmile_qr_scan"}, "fusion_lon": 0.0, "lat": 38.94207883333333, "bike_id": "f109a65e52dce7e8a279724d2ceed746", "type": "electric_scooter", "is_reserved": 0, "lon": -77.02593383333334}, {"fusion_lat": 0.0, "name": "24a5a65d65ea2f861770a62265d9bc88", "is_disabled": 0, "rental_uris": {"android": "https://dc.lft.to/lastmile_qr_scan", "ios": "https://dc.lft.to/lastmile_qr_scan"}, "fusion_lon": 0.0, "lat": 38.9155295, "bike_id": "24a5a65d65ea2f861770a62265d9bc88", "type": "electric_scooter", "is_reserved": 0, "lon": -77.03226766666667}, {"fusion_lat": 0.0, "name": "61af40a5ce5e8703557bee8fcf7f28bd", "is_disabled": 0, "rental_uris": {"android": "https://dc.lft.to/lastmile_qr_scan", "ios": "https://dc.lft.to/lastmile_qr_scan"}, "fusion_lon": 0.0, "lat": 38.920419, "bike_id": "61af40a5ce5e8703557bee8fcf7f28bd", "type": "electric_scooter", "is_reserved": 0, "lon": -77.041835}, {"fusion_lat": 0.0, "name": "0e445da949304898aa14df000f9114b8", "is_disabled": 0, "rental_uris": {"android": "https://dc.lft.to/lastmile_qr_scan", "ios": "https://dc.lft.to/lastmile_qr_scan"}, "fusion_lon": 0.0, "lat": 38.90015316666667, "bike_id": "0e445da949304898aa14df000f9114b8", "type": "electric_scooter", "is_reserved": 0, "lon": -77.016233}, {"fusion_lat": 0.0, "name": "2a3c8faa4d4e1d330d64f516d8fa8106", "is_disabled": 0, "rental_uris": {"android": "https://dc.lft.to/lastmile_qr_scan", "ios": "https://dc.lft.to/lastmile_qr_scan"}, "fusion_lon": 0.0, "lat": 38.9077295, "bike_id": "2a3c8faa4d4e1d330d64f516d8fa8106", "type": "electric_scooter", "is_reserved": 0, "lon": -77.055962}, {"fusion_lat": 0.0, "name": "1319c4c84d09c259b443f209d24e2095", "is_disabled": 0, "rental_uris": {"android": "https://dc.lft.to/lastmile_qr_scan", "ios": "https://dc.lft.to/lastmile_qr_scan"}, "fusion_lon": 0.0, "lat": 38.887290666666665, "bike_id": "1319c4c84d09c259b443f209d24e2095", "type": "electric_scooter", "is_reserved": 0, "lon": -77.031845}, {"fusion_lat": 0.0, "name": "ce06eb4458c2a7911c04d2a40a8f8b6a", "is_disabled": 0, "rental_uris": {"android": "https://dc.lft.to/lastmile_qr_scan", "ios": "https://dc.lft.to/lastmile_qr_scan"}, "fusion_lon": 0.0, "lat": 38.90062983333333, "bike_id": "ce06eb4458c2a7911c04d2a40a8f8b6a", "type": "electric_scooter", "is_reserved": 0, "lon": -76.93385683333334}, {"fusion_lat": 0.0, "name": "421c3e8004f4f8979cc5e9eacec69e2b", "is_disabled": 0, "rental_uris": {"android": "https://dc.lft.to/lastmile_qr_scan", "ios": "https://dc.lft.to/lastmile_qr_scan"}, "fusion_lon": 0.0, "lat": 38.886777333333335, "bike_id": "421c3e8004f4f8979cc5e9eacec69e2b", "type": "electric_scooter", "is_reserved": 0, "lon": -77.01375916666667}, {"fusion_lat": 0.0, "name": "44df74dc180309889088d293cfebee93", "is_disabled": 0, "rental_uris": {"android": "https://dc.lft.to/lastmile_qr_scan", "ios": "https://dc.lft.to/lastmile_qr_scan"}, "fusion_lon": 0.0, "lat": 38.9485535, "bike_id": "44df74dc180309889088d293cfebee93", "type": "electric_scooter", "is_reserved": 0, "lon": -77.025684}, {"fusion_lat": 0.0, "name": "540eea48c50ab415105362b3810595bf", "is_disabled": 0, "rental_uris": {"android": "https://dc.lft.to/lastmile_qr_scan", "ios": "https://dc.lft.to/lastmile_qr_scan"}, "fusion_lon": 0.0, "lat": 38.94272216666667, "bike_id": "540eea48c50ab415105362b3810595bf", "type": "electric_scooter", "is_reserved": 0, "lon": -77.03257533333333}, {"fusion_lat": 0.0, "name": "7b861a4c7c0ef5cb9c5f53f5dfa6a27e", "is_disabled": 0, "rental_uris": {"android": "https://dc.lft.to/lastmile_qr_scan", "ios": "https://dc.lft.to/lastmile_qr_scan"}, "fusion_lon": 0.0, "lat": 38.915595833333334, "bike_id": "7b861a4c7c0ef5cb9c5f53f5dfa6a27e", "type": "electric_scooter", "is_reserved": 0, "lon": -77.01133483333334}, {"fusion_lat": 0.0, "name": "064c0f281805617c67e5aa9e0874c8c9", "is_disabled": 0, "rental_uris": {"android": "https://dc.lft.to/lastmile_qr_scan", "ios": "https://dc.lft.to/lastmile_qr_scan"}, "fusion_lon": 0.0, "lat": 38.89727383333334, "bike_id": "064c0f281805617c67e5aa9e0874c8c9", "type": "electric_scooter", "is_reserved": 0, "lon": -77.02162783333333}, {"fusion_lat": 0.0, "name": "f7546ccb7e9abdb9863bebcf47870c97", "is_disabled": 0, "rental_uris": {"android": "https://dc.lft.to/lastmile_qr_scan", "ios": "https://dc.lft.to/lastmile_qr_scan"}, "fusion_lon": 0.0, "lat": 38.90282633333333, "bike_id": "f7546ccb7e9abdb9863bebcf47870c97", "type": "electric_scooter", "is_reserved": 0, "lon": -77.01770416666666}, {"fusion_lat": 0.0, "name": "2021834ecd4446e9448d55582182b586", "is_disabled": 0, "rental_uris": {"android": "https://dc.lft.to/lastmile_qr_scan", "ios": "https://dc.lft.to/lastmile_qr_scan"}, "fusion_lon": 0.0, "lat": 38.940091333333335, "bike_id": "2021834ecd4446e9448d55582182b586", "type": "electric_scooter", "is_reserved": 0, "lon": -77.084179}, {"fusion_lat": 0.0, "name": "384e31dccb02722f465772243589ddde", "is_disabled": 0, "rental_uris": {"android": "https://dc.lft.to/lastmile_qr_scan", "ios": "https://dc.lft.to/lastmile_qr_scan"}, "fusion_lon": 0.0, "lat": 38.8351745, "bike_id": "384e31dccb02722f465772243589ddde", "type": "electric_bike", "is_reserved": 0, "lon": -76.98674616666666}, {"fusion_lat": 0.0, "name": "0b1677fd05ee6eee40e1d766069834c8", "is_disabled": 0, "rental_uris": {"android": "https://dc.lft.to/lastmile_qr_scan", "ios": "https://dc.lft.to/lastmile_qr_scan"}, "fusion_lon": 0.0, "lat": 38.884007, "bike_id": "0b1677fd05ee6eee40e1d766069834c8", "type": "electric_scooter", "is_reserved": 0, "lon": -76.98589083333333}, {"fusion_lat": 0.0, "name": "d77bc2bedd7abb1bc7da19147acd0a8c", "is_disabled": 0, "rental_uris": {"android": "https://dc.lft.to/lastmile_qr_scan", "ios": "https://dc.lft.to/lastmile_qr_scan"}, "fusion_lon": 0.0, "lat": 38.901818666666664, "bike_id": "d77bc2bedd7abb1bc7da19147acd0a8c", "type": "electric_scooter", "is_reserved": 0, "lon": -77.01315133333334}, {"fusion_lat": 0.0, "name": "5943873a9bb51f12c41b985f71cd49fd", "is_disabled": 0, "rental_uris": {"android": "https://dc.lft.to/lastmile_qr_scan", "ios": "https://dc.lft.to/lastmile_qr_scan"}, "fusion_lon": 0.0, "lat": 38.9588305, "bike_id": "5943873a9bb51f12c41b985f71cd49fd", "type": "electric_scooter", "is_reserved": 0, "lon": -77.01168983333334}, {"fusion_lat": 0.0, "name": "6fd1080ff808dd0b49edf5788aa14f54", "is_disabled": 0, "rental_uris": {"android": "https://dc.lft.to/lastmile_qr_scan", "ios": "https://dc.lft.to/lastmile_qr_scan"}, "fusion_lon": 0.0, "lat": 38.89227116666667, "bike_id": "6fd1080ff808dd0b49edf5788aa14f54", "type": "electric_scooter", "is_reserved": 0, "lon": -77.02584483333334}, {"fusion_lat": 0.0, "name": "645b3a639f52bdd3747bc0c8d5da8749", "is_disabled": 0, "rental_uris": {"android": "https://dc.lft.to/lastmile_qr_scan", "ios": "https://dc.lft.to/lastmile_qr_scan"}, "fusion_lon": 0.0, "lat": 38.915678166666666, "bike_id": "645b3a639f52bdd3747bc0c8d5da8749", "type": "electric_scooter", "is_reserved": 0, "lon": -77.03185716666667}, {"fusion_lat": 0.0, "name": "97c8864e26c4fe7d2e310aed8de98c52", "is_disabled": 0, "rental_uris": {"android": "https://dc.lft.to/lastmile_qr_scan", "ios": "https://dc.lft.to/lastmile_qr_scan"}, "fusion_lon": 0.0, "lat": 38.87659383333333, "bike_id": "97c8864e26c4fe7d2e310aed8de98c52", "type": "electric_scooter", "is_reserved": 0, "lon": -77.00909283333333}, {"fusion_lat": 0.0, "name": "d6567cf47437b588853835350099de25", "is_disabled": 0, "rental_uris": {"android": "https://dc.lft.to/lastmile_qr_scan", "ios": "https://dc.lft.to/lastmile_qr_scan"}, "fusion_lon": 0.0, "lat": 38.898626166666666, "bike_id": "d6567cf47437b588853835350099de25", "type": "electric_scooter", "is_reserved": 0, "lon": -77.02335183333334}, {"fusion_lat": 0.0, "name": "2cbc134651601e679ec16e04fff2fbd8", "is_disabled": 0, "rental_uris": {"android": "https://dc.lft.to/lastmile_qr_scan", "ios": "https://dc.lft.to/lastmile_qr_scan"}, "fusion_lon": 0.0, "lat": 38.9053545, "bike_id": "2cbc134651601e679ec16e04fff2fbd8", "type": "electric_scooter", "is_reserved": 0, "lon": -77.06523216666666}, {"fusion_lat": 0.0, "name": "f3aaa958c3bd59694efb695fcb77c503", "is_disabled": 0, "rental_uris": {"android": "https://dc.lft.to/lastmile_qr_scan", "ios": "https://dc.lft.to/lastmile_qr_scan"}, "fusion_lon": 0.0, "lat": 38.91337816666667, "bike_id": "f3aaa958c3bd59694efb695fcb77c503", "type": "electric_scooter", "is_reserved": 0, "lon": -77.04289566666667}, {"fusion_lat": 0.0, "name": "585730b432d358a405b33a8f4b50ef78", "is_disabled": 0, "rental_uris": {"android": "https://dc.lft.to/lastmile_qr_scan", "ios": "https://dc.lft.to/lastmile_qr_scan"}, "fusion_lon": 0.0, "lat": 38.892237, "bike_id": "585730b432d358a405b33a8f4b50ef78", "type": "electric_scooter", "is_reserved": 0, "lon": -77.02711133333334}, {"fusion_lat": 0.0, "name": "0becdcbb871c490ff3434a76815975cc", "is_disabled": 0, "rental_uris": {"android": "https://dc.lft.to/lastmile_qr_scan", "ios": "https://dc.lft.to/lastmile_qr_scan"}, "fusion_lon": 0.0, "lat": 38.90396533333333, "bike_id": "0becdcbb871c490ff3434a76815975cc", "type": "electric_scooter", "is_reserved": 0, "lon": -77.06139616666667}, {"fusion_lat": 0.0, "name": "3ff2b464b3aef78ee60f3e219d0c20c3", "is_disabled": 0, "rental_uris": {"android": "https://dc.lft.to/lastmile_qr_scan", "ios": "https://dc.lft.to/lastmile_qr_scan"}, "fusion_lon": 0.0, "lat": 38.9426725, "bike_id": "3ff2b464b3aef78ee60f3e219d0c20c3", "type": "electric_bike", "is_reserved": 0, "lon": -76.98517866666667}, {"fusion_lat": 0.0, "name": "df751ac5a7a867e97c6645018e6cd0bd", "is_disabled": 0, "rental_uris": {"android": "https://dc.lft.to/lastmile_qr_scan", "ios": "https://dc.lft.to/lastmile_qr_scan"}, "fusion_lon": 0.0, "lat": 38.914114833333336, "bike_id": "df751ac5a7a867e97c6645018e6cd0bd", "type": "electric_scooter", "is_reserved": 0, "lon": -77.02455633333334}, {"fusion_lat": 0.0, "name": "264158dd5f4f0de99f8c8d90ee8e712e", "is_disabled": 0, "rental_uris": {"android": "https://dc.lft.to/lastmile_qr_scan", "ios": "https://dc.lft.to/lastmile_qr_scan"}, "fusion_lon": 0.0, "lat": 38.937506666666664, "bike_id": "264158dd5f4f0de99f8c8d90ee8e712e", "type": "electric_scooter", "is_reserved": 0, "lon": -77.02528166666667}, {"fusion_lat": 0.0, "name": "c3e565fa5f1c830dcbebb470829c6623", "is_disabled": 0, "rental_uris": {"android": "https://dc.lft.to/lastmile_qr_scan", "ios": "https://dc.lft.to/lastmile_qr_scan"}, "fusion_lon": 0.0, "lat": 38.89605066666667, "bike_id": "c3e565fa5f1c830dcbebb470829c6623", "type": "electric_scooter", "is_reserved": 0, "lon": -77.04978983333334}, {"fusion_lat": 0.0, "name": "ce23f739d3a653a93c9bcba05b5e1c70", "is_disabled": 0, "rental_uris": {"android": "https://dc.lft.to/lastmile_qr_scan", "ios": "https://dc.lft.to/lastmile_qr_scan"}, "fusion_lon": 0.0, "lat": 38.93750283333333, "bike_id": "ce23f739d3a653a93c9bcba05b5e1c70", "type": "electric_scooter", "is_reserved": 0, "lon": -77.02448066666666}, {"fusion_lat": 0.0, "name": "0773188308dfe4056a67c13df9c0940d", "is_disabled": 0, "rental_uris": {"android": "https://dc.lft.to/lastmile_qr_scan", "ios": "https://dc.lft.to/lastmile_qr_scan"}, "fusion_lon": 0.0, "lat": 38.89567066666667, "bike_id": "0773188308dfe4056a67c13df9c0940d", "type": "electric_bike", "is_reserved": 0, "lon": -77.127391}, {"fusion_lat": 0.0, "name": "bd659499cb81bc4fe03f503da1e79cc3", "is_disabled": 0, "rental_uris": {"android": "https://dc.lft.to/lastmile_qr_scan", "ios": "https://dc.lft.to/lastmile_qr_scan"}, "fusion_lon": 0.0, "lat": 38.89835566666667, "bike_id": "bd659499cb81bc4fe03f503da1e79cc3", "type": "electric_scooter", "is_reserved": 0, "lon": -77.02432733333333}, {"fusion_lat": 0.0, "name": "5817dbfc90970707031e3d8b8f5f8615", "is_disabled": 0, "rental_uris": {"android": "https://dc.lft.to/lastmile_qr_scan", "ios": "https://dc.lft.to/lastmile_qr_scan"}, "fusion_lon": 0.0, "lat": 38.84054366666667, "bike_id": "5817dbfc90970707031e3d8b8f5f8615", "type": "electric_scooter", "is_reserved": 0, "lon": -76.976674}, {"fusion_lat": 0.0, "name": "0d50081f0f39e31269737c667f84ad20", "is_disabled": 0, "rental_uris": {"android": "https://dc.lft.to/lastmile_qr_scan", "ios": "https://dc.lft.to/lastmile_qr_scan"}, "fusion_lon": 0.0, "lat": 38.92208883333333, "bike_id": "0d50081f0f39e31269737c667f84ad20", "type": "electric_scooter", "is_reserved": 0, "lon": -77.01823266666666}, {"fusion_lat": 0.0, "name": "8c01703b8494226decc69aa681d465ba", "is_disabled": 0, "rental_uris": {"android": "https://dc.lft.to/lastmile_qr_scan", "ios": "https://dc.lft.to/lastmile_qr_scan"}, "fusion_lon": 0.0, "lat": 38.9418505, "bike_id": "8c01703b8494226decc69aa681d465ba", "type": "electric_scooter", "is_reserved": 0, "lon": -77.02495933333333}, {"fusion_lat": 0.0, "name": "6cbcddf021d438837f4e785f544cf28f", "is_disabled": 0, "rental_uris": {"android": "https://dc.lft.to/lastmile_qr_scan", "ios": "https://dc.lft.to/lastmile_qr_scan"}, "fusion_lon": 0.0, "lat": 38.90063516666667, "bike_id": "6cbcddf021d438837f4e785f544cf28f", "type": "electric_scooter", "is_reserved": 0, "lon": -76.93386733333334}, {"fusion_lat": 0.0, "name": "3beedb6fe0bab96035bd8083ff216b5a", "is_disabled": 0, "rental_uris": {"android": "https://dc.lft.to/lastmile_qr_scan", "ios": "https://dc.lft.to/lastmile_qr_scan"}, "fusion_lon": 0.0, "lat": 38.91030816666667, "bike_id": "3beedb6fe0bab96035bd8083ff216b5a", "type": "electric_scooter", "is_reserved": 0, "lon": -77.00762233333333}, {"fusion_lat": 0.0, "name": "55ad4eb474a2c98fc2dca50bbc30f925", "is_disabled": 0, "rental_uris": {"android": "https://dc.lft.to/lastmile_qr_scan", "ios": "https://dc.lft.to/lastmile_qr_scan"}, "fusion_lon": 0.0, "lat": 38.90032733333334, "bike_id": "55ad4eb474a2c98fc2dca50bbc30f925", "type": "electric_scooter", "is_reserved": 0, "lon": -76.99137733333333}, {"fusion_lat": 0.0, "name": "46c35dc29c7ec89b9d67e70109e00918", "is_disabled": 0, "rental_uris": {"android": "https://dc.lft.to/lastmile_qr_scan", "ios": "https://dc.lft.to/lastmile_qr_scan"}, "fusion_lon": 0.0, "lat": 38.89917883333333, "bike_id": "46c35dc29c7ec89b9d67e70109e00918", "type": "electric_scooter", "is_reserved": 0, "lon": -77.00364933333333}, {"fusion_lat": 0.0, "name": "62b15c6fb7bd79b5b54ba9a09ecdb1c3", "is_disabled": 0, "rental_uris": {"android": "https://dc.lft.to/lastmile_qr_scan", "ios": "https://dc.lft.to/lastmile_qr_scan"}, "fusion_lon": 0.0, "lat": 38.892378666666666, "bike_id": "62b15c6fb7bd79b5b54ba9a09ecdb1c3", "type": "electric_scooter", "is_reserved": 0, "lon": -77.02414166666667}, {"fusion_lat": 0.0, "name": "3725044512337c15a9c4f3e51999f141", "is_disabled": 0, "rental_uris": {"android": "https://dc.lft.to/lastmile_qr_scan", "ios": "https://dc.lft.to/lastmile_qr_scan"}, "fusion_lon": 0.0, "lat": 38.883967, "bike_id": "3725044512337c15a9c4f3e51999f141", "type": "electric_scooter", "is_reserved": 0, "lon": -77.01956283333334}, {"fusion_lat": 0.0, "name": "1710ecdb6887b1929e289304a6dbe280", "is_disabled": 0, "rental_uris": {"android": "https://dc.lft.to/lastmile_qr_scan", "ios": "https://dc.lft.to/lastmile_qr_scan"}, "fusion_lon": 0.0, "lat": 38.906401833333334, "bike_id": "1710ecdb6887b1929e289304a6dbe280", "type": "electric_scooter", "is_reserved": 0, "lon": -77.022001}, {"fusion_lat": 0.0, "name": "cf0801d6fd77a6b9a23f7de83853c117", "is_disabled": 0, "rental_uris": {"android": "https://dc.lft.to/lastmile_qr_scan", "ios": "https://dc.lft.to/lastmile_qr_scan"}, "fusion_lon": 0.0, "lat": 38.95641233333333, "bike_id": "cf0801d6fd77a6b9a23f7de83853c117", "type": "electric_bike", "is_reserved": 0, "lon": -76.938722}, {"fusion_lat": 0.0, "name": "1f9b5c46c0618679af1c5c675c4962ea", "is_disabled": 0, "rental_uris": {"android": "https://dc.lft.to/lastmile_qr_scan", "ios": "https://dc.lft.to/lastmile_qr_scan"}, "fusion_lon": 0.0, "lat": 39.010761, "bike_id": "1f9b5c46c0618679af1c5c675c4962ea", "type": "electric_bike", "is_reserved": 0, "lon": -76.9106555}, {"fusion_lat": 0.0, "name": "9511cb004f17c4ace02b458fadc23d87", "is_disabled": 0, "rental_uris": {"android": "https://dc.lft.to/lastmile_qr_scan", "ios": "https://dc.lft.to/lastmile_qr_scan"}, "fusion_lon": 0.0, "lat": 38.956522166666666, "bike_id": "9511cb004f17c4ace02b458fadc23d87", "type": "electric_scooter", "is_reserved": 0, "lon": -77.03333016666667}, {"fusion_lat": 0.0, "name": "71cfe88911c4a7fbc77b703c02cb30e2", "is_disabled": 0, "rental_uris": {"android": "https://dc.lft.to/lastmile_qr_scan", "ios": "https://dc.lft.to/lastmile_qr_scan"}, "fusion_lon": 0.0, "lat": 38.91679666666667, "bike_id": "71cfe88911c4a7fbc77b703c02cb30e2", "type": "electric_scooter", "is_reserved": 0, "lon": -77.02967766666667}, {"fusion_lat": 0.0, "name": "752c0a184a87912ba0eb8c2f3eee4889", "is_disabled": 0, "rental_uris": {"android": "https://dc.lft.to/lastmile_qr_scan", "ios": "https://dc.lft.to/lastmile_qr_scan"}, "fusion_lon": 0.0, "lat": 38.897624666666665, "bike_id": "752c0a184a87912ba0eb8c2f3eee4889", "type": "electric_scooter", "is_reserved": 0, "lon": -77.02785133333333}, {"fusion_lat": 0.0, "name": "06d49fcfe5524ca15b35660b9f819685", "is_disabled": 0, "rental_uris": {"android": "https://dc.lft.to/lastmile_qr_scan", "ios": "https://dc.lft.to/lastmile_qr_scan"}, "fusion_lon": 0.0, "lat": 38.9096005, "bike_id": "06d49fcfe5524ca15b35660b9f819685", "type": "electric_scooter", "is_reserved": 0, "lon": -77.04859116666667}, {"fusion_lat": 0.0, "name": "2b9ec4040f0e7f7c4f12ed5aee0613eb", "is_disabled": 0, "rental_uris": {"android": "https://dc.lft.to/lastmile_qr_scan", "ios": "https://dc.lft.to/lastmile_qr_scan"}, "fusion_lon": 0.0, "lat": 38.906764, "bike_id": "2b9ec4040f0e7f7c4f12ed5aee0613eb", "type": "electric_scooter", "is_reserved": 0, "lon": -77.03856816666666}, {"fusion_lat": 0.0, "name": "2abd549e12745580314cb671be2a820d", "is_disabled": 0, "rental_uris": {"android": "https://dc.lft.to/lastmile_qr_scan", "ios": "https://dc.lft.to/lastmile_qr_scan"}, "fusion_lon": 0.0, "lat": 38.92218166666667, "bike_id": "2abd549e12745580314cb671be2a820d", "type": "electric_scooter", "is_reserved": 0, "lon": -77.042471}, {"fusion_lat": 0.0, "name": "1e183da225fd86fee3cfec25a1643057", "is_disabled": 0, "rental_uris": {"android": "https://dc.lft.to/lastmile_qr_scan", "ios": "https://dc.lft.to/lastmile_qr_scan"}, "fusion_lon": 0.0, "lat": 38.8947605, "bike_id": "1e183da225fd86fee3cfec25a1643057", "type": "electric_scooter", "is_reserved": 0, "lon": -77.01071666666667}, {"fusion_lat": 0.0, "name": "2da1c26577c88298c72338ba5bc1dd80", "is_disabled": 0, "rental_uris": {"android": "https://dc.lft.to/lastmile_qr_scan", "ios": "https://dc.lft.to/lastmile_qr_scan"}, "fusion_lon": 0.0, "lat": 38.94527516666667, "bike_id": "2da1c26577c88298c72338ba5bc1dd80", "type": "electric_scooter", "is_reserved": 0, "lon": -77.02085433333333}, {"fusion_lat": 0.0, "name": "ea478a26d8b3d5c3abe1d6e65c3eb568", "is_disabled": 0, "rental_uris": {"android": "https://dc.lft.to/lastmile_qr_scan", "ios": "https://dc.lft.to/lastmile_qr_scan"}, "fusion_lon": 0.0, "lat": 38.930522333333336, "bike_id": "ea478a26d8b3d5c3abe1d6e65c3eb568", "type": "electric_scooter", "is_reserved": 0, "lon": -77.04065633333333}, {"fusion_lat": 0.0, "name": "6171225e465291dc6c3da282f65f48e7", "is_disabled": 0, "rental_uris": {"android": "https://dc.lft.to/lastmile_qr_scan", "ios": "https://dc.lft.to/lastmile_qr_scan"}, "fusion_lon": 0.0, "lat": 38.914899, "bike_id": "6171225e465291dc6c3da282f65f48e7", "type": "electric_scooter", "is_reserved": 0, "lon": -77.0326315}, {"fusion_lat": 0.0, "name": "da31cc49fc88230c3f4e65a884dc2a75", "is_disabled": 0, "rental_uris": {"android": "https://dc.lft.to/lastmile_qr_scan", "ios": "https://dc.lft.to/lastmile_qr_scan"}, "fusion_lon": 0.0, "lat": 38.89489666666667, "bike_id": "da31cc49fc88230c3f4e65a884dc2a75", "type": "electric_scooter", "is_reserved": 0, "lon": -77.01949183333333}, {"fusion_lat": 0.0, "name": "bc405e08dd7ecc82ed2cd4de9eec76c7", "is_disabled": 0, "rental_uris": {"android": "https://dc.lft.to/lastmile_qr_scan", "ios": "https://dc.lft.to/lastmile_qr_scan"}, "fusion_lon": 0.0, "lat": 38.916037833333334, "bike_id": "bc405e08dd7ecc82ed2cd4de9eec76c7", "type": "electric_scooter", "is_reserved": 0, "lon": -77.0434755}, {"fusion_lat": 0.0, "name": "9087abf843a6b52bf1974d3502d07039", "is_disabled": 0, "rental_uris": {"android": "https://dc.lft.to/lastmile_qr_scan", "ios": "https://dc.lft.to/lastmile_qr_scan"}, "fusion_lon": 0.0, "lat": 38.91041633333333, "bike_id": "9087abf843a6b52bf1974d3502d07039", "type": "electric_scooter", "is_reserved": 0, "lon": -77.0128915}, {"fusion_lat": 0.0, "name": "76c50b7c39155556f911e0e36a397f71", "is_disabled": 0, "rental_uris": {"android": "https://dc.lft.to/lastmile_qr_scan", "ios": "https://dc.lft.to/lastmile_qr_scan"}, "fusion_lon": 0.0, "lat": 38.900121666666664, "bike_id": "76c50b7c39155556f911e0e36a397f71", "type": "electric_scooter", "is_reserved": 0, "lon": -77.02930233333333}, {"fusion_lat": 0.0, "name": "a89c159806aaf177780d7ac0eb762576", "is_disabled": 0, "rental_uris": {"android": "https://dc.lft.to/lastmile_qr_scan", "ios": "https://dc.lft.to/lastmile_qr_scan"}, "fusion_lon": 0.0, "lat": 38.91135833333333, "bike_id": "a89c159806aaf177780d7ac0eb762576", "type": "electric_scooter", "is_reserved": 0, "lon": -77.02199583333334}, {"fusion_lat": 0.0, "name": "7bb56a94ed196e413b7a6b56a72a87f4", "is_disabled": 0, "rental_uris": {"android": "https://dc.lft.to/lastmile_qr_scan", "ios": "https://dc.lft.to/lastmile_qr_scan"}, "fusion_lon": 0.0, "lat": 38.81331183333333, "bike_id": "7bb56a94ed196e413b7a6b56a72a87f4", "type": "electric_bike", "is_reserved": 0, "lon": -77.05087733333333}, {"fusion_lat": 0.0, "name": "5eb5821ecc548d6c6a589e01970b00ad", "is_disabled": 0, "rental_uris": {"android": "https://dc.lft.to/lastmile_qr_scan", "ios": "https://dc.lft.to/lastmile_qr_scan"}, "fusion_lon": 0.0, "lat": 38.906479, "bike_id": "5eb5821ecc548d6c6a589e01970b00ad", "type": "electric_scooter", "is_reserved": 0, "lon": -77.00956}, {"fusion_lat": 0.0, "name": "ba186fdb282d806c9d2667f6e5e13315", "is_disabled": 0, "rental_uris": {"android": "https://dc.lft.to/lastmile_qr_scan", "ios": "https://dc.lft.to/lastmile_qr_scan"}, "fusion_lon": 0.0, "lat": 38.911129833333334, "bike_id": "ba186fdb282d806c9d2667f6e5e13315", "type": "electric_scooter", "is_reserved": 0, "lon": -77.04252816666667}, {"fusion_lat": 0.0, "name": "caabb0a190efa032b7443a64581953b3", "is_disabled": 0, "rental_uris": {"android": "https://dc.lft.to/lastmile_qr_scan", "ios": "https://dc.lft.to/lastmile_qr_scan"}, "fusion_lon": 0.0, "lat": 38.91716366666667, "bike_id": "caabb0a190efa032b7443a64581953b3", "type": "electric_scooter", "is_reserved": 0, "lon": -77.02884183333333}, {"fusion_lat": 0.0, "name": "06125d70a30ba9bb45dfe082e9c71d48", "is_disabled": 0, "rental_uris": {"android": "https://dc.lft.to/lastmile_qr_scan", "ios": "https://dc.lft.to/lastmile_qr_scan"}, "fusion_lon": 0.0, "lat": 38.91557316666667, "bike_id": "06125d70a30ba9bb45dfe082e9c71d48", "type": "electric_scooter", "is_reserved": 0, "lon": -77.0325545}, {"fusion_lat": 0.0, "name": "544784ca7db89ef0a01850564df42472", "is_disabled": 0, "rental_uris": {"android": "https://dc.lft.to/lastmile_qr_scan", "ios": "https://dc.lft.to/lastmile_qr_scan"}, "fusion_lon": 0.0, "lat": 38.89668, "bike_id": "544784ca7db89ef0a01850564df42472", "type": "electric_scooter", "is_reserved": 0, "lon": -76.932103}, {"fusion_lat": 0.0, "name": "67bd3a786465c6eec0236cb08150feac", "is_disabled": 0, "rental_uris": {"android": "https://dc.lft.to/lastmile_qr_scan", "ios": "https://dc.lft.to/lastmile_qr_scan"}, "fusion_lon": 0.0, "lat": 38.936523333333334, "bike_id": "67bd3a786465c6eec0236cb08150feac", "type": "electric_scooter", "is_reserved": 0, "lon": -77.03656316666667}, {"fusion_lat": 0.0, "name": "e865ec1dd254981b835001eff9ad8eba", "is_disabled": 0, "rental_uris": {"android": "https://dc.lft.to/lastmile_qr_scan", "ios": "https://dc.lft.to/lastmile_qr_scan"}, "fusion_lon": 0.0, "lat": 38.924812, "bike_id": "e865ec1dd254981b835001eff9ad8eba", "type": "electric_bike", "is_reserved": 0, "lon": -77.233396}, {"fusion_lat": 0.0, "name": "8800316816bb29b324e2a0bb1f6a6c47", "is_disabled": 0, "rental_uris": {"android": "https://dc.lft.to/lastmile_qr_scan", "ios": "https://dc.lft.to/lastmile_qr_scan"}, "fusion_lon": 0.0, "lat": 38.9050185, "bike_id": "8800316816bb29b324e2a0bb1f6a6c47", "type": "electric_scooter", "is_reserved": 0, "lon": -77.067058}, {"fusion_lat": 0.0, "name": "212638648793381a92c1750f01a1033a", "is_disabled": 0, "rental_uris": {"android": "https://dc.lft.to/lastmile_qr_scan", "ios": "https://dc.lft.to/lastmile_qr_scan"}, "fusion_lon": 0.0, "lat": 38.93965083333333, "bike_id": "212638648793381a92c1750f01a1033a", "type": "electric_scooter", "is_reserved": 0, "lon": -77.03288}, {"fusion_lat": 0.0, "name": "967182374bf3a6e665826f2dc9097523", "is_disabled": 0, "rental_uris": {"android": "https://dc.lft.to/lastmile_qr_scan", "ios": "https://dc.lft.to/lastmile_qr_scan"}, "fusion_lon": 0.0, "lat": 38.93261866666667, "bike_id": "967182374bf3a6e665826f2dc9097523", "type": "electric_scooter", "is_reserved": 0, "lon": -77.01918683333334}, {"fusion_lat": 0.0, "name": "d264890ff7692c67c642747ef01c6852", "is_disabled": 0, "rental_uris": {"android": "https://dc.lft.to/lastmile_qr_scan", "ios": "https://dc.lft.to/lastmile_qr_scan"}, "fusion_lon": 0.0, "lat": 38.92726283333333, "bike_id": "d264890ff7692c67c642747ef01c6852", "type": "electric_scooter", "is_reserved": 0, "lon": -77.020912}, {"fusion_lat": 0.0, "name": "bdf6d3d3c5723ae3cb16427932e7811a", "is_disabled": 0, "rental_uris": {"android": "https://dc.lft.to/lastmile_qr_scan", "ios": "https://dc.lft.to/lastmile_qr_scan"}, "fusion_lon": 0.0, "lat": 38.93123966666667, "bike_id": "bdf6d3d3c5723ae3cb16427932e7811a", "type": "electric_scooter", "is_reserved": 0, "lon": -77.020873}, {"fusion_lat": 0.0, "name": "4b2172ed9fb05ef29ad1191763119422", "is_disabled": 0, "rental_uris": {"android": "https://dc.lft.to/lastmile_qr_scan", "ios": "https://dc.lft.to/lastmile_qr_scan"}, "fusion_lon": 0.0, "lat": 38.91522166666667, "bike_id": "4b2172ed9fb05ef29ad1191763119422", "type": "electric_scooter", "is_reserved": 0, "lon": -77.07272883333333}, {"fusion_lat": 0.0, "name": "523b7089c53525f885f52e1251a6a579", "is_disabled": 0, "rental_uris": {"android": "https://dc.lft.to/lastmile_qr_scan", "ios": "https://dc.lft.to/lastmile_qr_scan"}, "fusion_lon": 0.0, "lat": 38.9093575, "bike_id": "523b7089c53525f885f52e1251a6a579", "type": "electric_scooter", "is_reserved": 0, "lon": -77.06268083333333}, {"fusion_lat": 0.0, "name": "4448f0256cffdebd5cc2485a6dfefbc1", "is_disabled": 0, "rental_uris": {"android": "https://dc.lft.to/lastmile_qr_scan", "ios": "https://dc.lft.to/lastmile_qr_scan"}, "fusion_lon": 0.0, "lat": 38.914539, "bike_id": "4448f0256cffdebd5cc2485a6dfefbc1", "type": "electric_scooter", "is_reserved": 0, "lon": -77.0128025}, {"fusion_lat": 0.0, "name": "f359af333b4b17ec722c8035e2f593d5", "is_disabled": 0, "rental_uris": {"android": "https://dc.lft.to/lastmile_qr_scan", "ios": "https://dc.lft.to/lastmile_qr_scan"}, "fusion_lon": 0.0, "lat": 38.922718333333336, "bike_id": "f359af333b4b17ec722c8035e2f593d5", "type": "electric_scooter", "is_reserved": 0, "lon": -77.04235683333333}, {"fusion_lat": 0.0, "name": "d4b9c3ea9e44cc8d081f5817106c0313", "is_disabled": 0, "rental_uris": {"android": "https://dc.lft.to/lastmile_qr_scan", "ios": "https://dc.lft.to/lastmile_qr_scan"}, "fusion_lon": 0.0, "lat": 38.9077445, "bike_id": "d4b9c3ea9e44cc8d081f5817106c0313", "type": "electric_scooter", "is_reserved": 0, "lon": -77.03471066666667}, {"fusion_lat": 0.0, "name": "0c7a19fcd2faea51c58d10b2746cacff", "is_disabled": 0, "rental_uris": {"android": "https://dc.lft.to/lastmile_qr_scan", "ios": "https://dc.lft.to/lastmile_qr_scan"}, "fusion_lon": 0.0, "lat": 38.914161, "bike_id": "0c7a19fcd2faea51c58d10b2746cacff", "type": "electric_scooter", "is_reserved": 0, "lon": -77.03437233333334}, {"fusion_lat": 0.0, "name": "9987839a612b8fa0cb0f86d7661e7b9a", "is_disabled": 0, "rental_uris": {"android": "https://dc.lft.to/lastmile_qr_scan", "ios": "https://dc.lft.to/lastmile_qr_scan"}, "fusion_lon": 0.0, "lat": 38.97979483333334, "bike_id": "9987839a612b8fa0cb0f86d7661e7b9a", "type": "electric_scooter", "is_reserved": 0, "lon": -77.02634833333333}, {"fusion_lat": 0.0, "name": "8eb9c8a1a887b842870119e4b19c7913", "is_disabled": 0, "rental_uris": {"android": "https://dc.lft.to/lastmile_qr_scan", "ios": "https://dc.lft.to/lastmile_qr_scan"}, "fusion_lon": 0.0, "lat": 38.894826333333334, "bike_id": "8eb9c8a1a887b842870119e4b19c7913", "type": "electric_scooter", "is_reserved": 0, "lon": -77.01040116666667}, {"fusion_lat": 0.0, "name": "94b731ec36a0f46505420d65eab1d099", "is_disabled": 0, "rental_uris": {"android": "https://dc.lft.to/lastmile_qr_scan", "ios": "https://dc.lft.to/lastmile_qr_scan"}, "fusion_lon": 0.0, "lat": 38.91696816666666, "bike_id": "94b731ec36a0f46505420d65eab1d099", "type": "electric_scooter", "is_reserved": 0, "lon": -77.04043716666666}, {"fusion_lat": 0.0, "name": "22bcf455a9ef430c455165f2876ed1c4", "is_disabled": 0, "rental_uris": {"android": "https://dc.lft.to/lastmile_qr_scan", "ios": "https://dc.lft.to/lastmile_qr_scan"}, "fusion_lon": 0.0, "lat": 38.89299716666667, "bike_id": "22bcf455a9ef430c455165f2876ed1c4", "type": "electric_scooter", "is_reserved": 0, "lon": -77.04654783333334}, {"fusion_lat": 0.0, "name": "485b0c11fb043d25fef16957cd2f4bd4", "is_disabled": 0, "rental_uris": {"android": "https://dc.lft.to/lastmile_qr_scan", "ios": "https://dc.lft.to/lastmile_qr_scan"}, "fusion_lon": 0.0, "lat": 38.928984666666665, "bike_id": "485b0c11fb043d25fef16957cd2f4bd4", "type": "electric_scooter", "is_reserved": 0, "lon": -77.03735133333333}, {"fusion_lat": 0.0, "name": "a89145ed8bbbb0fba581c55e20682abd", "is_disabled": 0, "rental_uris": {"android": "https://dc.lft.to/lastmile_qr_scan", "ios": "https://dc.lft.to/lastmile_qr_scan"}, "fusion_lon": 0.0, "lat": 38.935204, "bike_id": "a89145ed8bbbb0fba581c55e20682abd", "type": "electric_scooter", "is_reserved": 0, "lon": -77.03083933333333}, {"fusion_lat": 0.0, "name": "c879ebbe17f699c3f3d2f0c2083f5405", "is_disabled": 0, "rental_uris": {"android": "https://dc.lft.to/lastmile_qr_scan", "ios": "https://dc.lft.to/lastmile_qr_scan"}, "fusion_lon": 0.0, "lat": 38.935140833333335, "bike_id": "c879ebbe17f699c3f3d2f0c2083f5405", "type": "electric_scooter", "is_reserved": 0, "lon": -77.07356683333333}, {"fusion_lat": 0.0, "name": "1e8c0092291873406b18f8b4500faf0e", "is_disabled": 0, "rental_uris": {"android": "https://dc.lft.to/lastmile_qr_scan", "ios": "https://dc.lft.to/lastmile_qr_scan"}, "fusion_lon": 0.0, "lat": 38.9230845, "bike_id": "1e8c0092291873406b18f8b4500faf0e", "type": "electric_scooter", "is_reserved": 0, "lon": -77.03664}, {"fusion_lat": 0.0, "name": "4f342df0420d38243ac848485d5b5e9c", "is_disabled": 0, "rental_uris": {"android": "https://dc.lft.to/lastmile_qr_scan", "ios": "https://dc.lft.to/lastmile_qr_scan"}, "fusion_lon": 0.0, "lat": 38.9265415, "bike_id": "4f342df0420d38243ac848485d5b5e9c", "type": "electric_scooter", "is_reserved": 0, "lon": -77.03712133333333}, {"fusion_lat": 0.0, "name": "09d87ed5b95aef85c789625e08b60495", "is_disabled": 0, "rental_uris": {"android": "https://dc.lft.to/lastmile_qr_scan", "ios": "https://dc.lft.to/lastmile_qr_scan"}, "fusion_lon": 0.0, "lat": 38.89578683333333, "bike_id": "09d87ed5b95aef85c789625e08b60495", "type": "electric_scooter", "is_reserved": 0, "lon": -76.94897366666666}, {"fusion_lat": 0.0, "name": "6891ab13e09167d7e36d7d7a803ed2e7", "is_disabled": 0, "rental_uris": {"android": "https://dc.lft.to/lastmile_qr_scan", "ios": "https://dc.lft.to/lastmile_qr_scan"}, "fusion_lon": 0.0, "lat": 38.98392116666667, "bike_id": "6891ab13e09167d7e36d7d7a803ed2e7", "type": "electric_scooter", "is_reserved": 0, "lon": -77.02632183333333}, {"fusion_lat": 0.0, "name": "f3fff78b8b116008fe017bb8d44c718d", "is_disabled": 0, "rental_uris": {"android": "https://dc.lft.to/lastmile_qr_scan", "ios": "https://dc.lft.to/lastmile_qr_scan"}, "fusion_lon": 0.0, "lat": 38.90375683333333, "bike_id": "f3fff78b8b116008fe017bb8d44c718d", "type": "electric_scooter", "is_reserved": 0, "lon": -77.02559833333333}, {"fusion_lat": 0.0, "name": "308e5c8db8682cbb5ac299abaf612f9e", "is_disabled": 0, "rental_uris": {"android": "https://dc.lft.to/lastmile_qr_scan", "ios": "https://dc.lft.to/lastmile_qr_scan"}, "fusion_lon": 0.0, "lat": 38.917773833333335, "bike_id": "308e5c8db8682cbb5ac299abaf612f9e", "type": "electric_scooter", "is_reserved": 0, "lon": -77.04100016666666}, {"fusion_lat": 0.0, "name": "af733b8d406fb866b55a8d0a36d34e86", "is_disabled": 0, "rental_uris": {"android": "https://dc.lft.to/lastmile_qr_scan", "ios": "https://dc.lft.to/lastmile_qr_scan"}, "fusion_lon": 0.0, "lat": 38.91516383333333, "bike_id": "af733b8d406fb866b55a8d0a36d34e86", "type": "electric_scooter", "is_reserved": 0, "lon": -77.02696533333334}, {"fusion_lat": 0.0, "name": "4c1766badb01636b072477bea9486056", "is_disabled": 0, "rental_uris": {"android": "https://dc.lft.to/lastmile_qr_scan", "ios": "https://dc.lft.to/lastmile_qr_scan"}, "fusion_lon": 0.0, "lat": 38.9452245, "bike_id": "4c1766badb01636b072477bea9486056", "type": "electric_scooter", "is_reserved": 0, "lon": -77.02271933333333}, {"fusion_lat": 0.0, "name": "81ae2bd602549267320b6224975edfd8", "is_disabled": 0, "rental_uris": {"android": "https://dc.lft.to/lastmile_qr_scan", "ios": "https://dc.lft.to/lastmile_qr_scan"}, "fusion_lon": 0.0, "lat": 38.87708683333334, "bike_id": "81ae2bd602549267320b6224975edfd8", "type": "electric_scooter", "is_reserved": 0, "lon": -76.993847}, {"fusion_lat": 0.0, "name": "e298662eacb16f0916525c70232b3576", "is_disabled": 0, "rental_uris": {"android": "https://dc.lft.to/lastmile_qr_scan", "ios": "https://dc.lft.to/lastmile_qr_scan"}, "fusion_lon": 0.0, "lat": 38.898840166666666, "bike_id": "e298662eacb16f0916525c70232b3576", "type": "electric_scooter", "is_reserved": 0, "lon": -77.04010933333333}, {"fusion_lat": 0.0, "name": "584f7d2da34d7871ea82016043d74a02", "is_disabled": 0, "rental_uris": {"android": "https://dc.lft.to/lastmile_qr_scan", "ios": "https://dc.lft.to/lastmile_qr_scan"}, "fusion_lon": 0.0, "lat": 38.89642333333333, "bike_id": "584f7d2da34d7871ea82016043d74a02", "type": "electric_scooter", "is_reserved": 0, "lon": -77.02679233333333}, {"fusion_lat": 0.0, "name": "669a501cffec6db08e36b00e94b2c73c", "is_disabled": 0, "rental_uris": {"android": "https://dc.lft.to/lastmile_qr_scan", "ios": "https://dc.lft.to/lastmile_qr_scan"}, "fusion_lon": 0.0, "lat": 38.923997666666665, "bike_id": "669a501cffec6db08e36b00e94b2c73c", "type": "electric_scooter", "is_reserved": 0, "lon": -77.025481}, {"fusion_lat": 0.0, "name": "ede042964de6efc614a1d2bc21fcbf87", "is_disabled": 0, "rental_uris": {"android": "https://dc.lft.to/lastmile_qr_scan", "ios": "https://dc.lft.to/lastmile_qr_scan"}, "fusion_lon": 0.0, "lat": 38.911545, "bike_id": "ede042964de6efc614a1d2bc21fcbf87", "type": "electric_scooter", "is_reserved": 0, "lon": -76.98722516666666}, {"fusion_lat": 0.0, "name": "bf3e62ef39139b015ffec6261d7553ce", "is_disabled": 0, "rental_uris": {"android": "https://dc.lft.to/lastmile_qr_scan", "ios": "https://dc.lft.to/lastmile_qr_scan"}, "fusion_lon": 0.0, "lat": 38.923418166666664, "bike_id": "bf3e62ef39139b015ffec6261d7553ce", "type": "electric_scooter", "is_reserved": 0, "lon": -77.03493516666667}, {"fusion_lat": 0.0, "name": "bafea6a75561bcf6b5b11fa8f057fa2f", "is_disabled": 0, "rental_uris": {"android": "https://dc.lft.to/lastmile_qr_scan", "ios": "https://dc.lft.to/lastmile_qr_scan"}, "fusion_lon": 0.0, "lat": 38.914899166666665, "bike_id": "bafea6a75561bcf6b5b11fa8f057fa2f", "type": "electric_scooter", "is_reserved": 0, "lon": -77.01416916666666}, {"fusion_lat": 0.0, "name": "5bda3ac6c2fbb05001f7dc1022456683", "is_disabled": 0, "rental_uris": {"android": "https://dc.lft.to/lastmile_qr_scan", "ios": "https://dc.lft.to/lastmile_qr_scan"}, "fusion_lon": 0.0, "lat": 38.8799925, "bike_id": "5bda3ac6c2fbb05001f7dc1022456683", "type": "electric_scooter", "is_reserved": 0, "lon": -76.98541116666667}, {"fusion_lat": 0.0, "name": "e9ffba75c1e7b51682cfb340c70f71e0", "is_disabled": 0, "rental_uris": {"android": "https://dc.lft.to/lastmile_qr_scan", "ios": "https://dc.lft.to/lastmile_qr_scan"}, "fusion_lon": 0.0, "lat": 38.90725883333333, "bike_id": "e9ffba75c1e7b51682cfb340c70f71e0", "type": "electric_scooter", "is_reserved": 0, "lon": -77.02942083333333}, {"fusion_lat": 0.0, "name": "518eb1c6ac75f3b13b7dc9692fac3000", "is_disabled": 0, "rental_uris": {"android": "https://dc.lft.to/lastmile_qr_scan", "ios": "https://dc.lft.to/lastmile_qr_scan"}, "fusion_lon": 0.0, "lat": 38.926577333333334, "bike_id": "518eb1c6ac75f3b13b7dc9692fac3000", "type": "electric_scooter", "is_reserved": 0, "lon": -77.05149066666667}, {"fusion_lat": 0.0, "name": "a537222443702ca041f11ed4ad76cab3", "is_disabled": 0, "rental_uris": {"android": "https://dc.lft.to/lastmile_qr_scan", "ios": "https://dc.lft.to/lastmile_qr_scan"}, "fusion_lon": 0.0, "lat": 38.90038166666667, "bike_id": "a537222443702ca041f11ed4ad76cab3", "type": "electric_scooter", "is_reserved": 0, "lon": -76.98556833333333}, {"fusion_lat": 0.0, "name": "6edad20dba9d0674d9e687d45918c335", "is_disabled": 0, "rental_uris": {"android": "https://dc.lft.to/lastmile_qr_scan", "ios": "https://dc.lft.to/lastmile_qr_scan"}, "fusion_lon": 0.0, "lat": 38.917903333333335, "bike_id": "6edad20dba9d0674d9e687d45918c335", "type": "electric_scooter", "is_reserved": 0, "lon": -77.04026366666666}, {"fusion_lat": 0.0, "name": "1004ef9bd8eefb14299b67b9e3f227de", "is_disabled": 0, "rental_uris": {"android": "https://dc.lft.to/lastmile_qr_scan", "ios": "https://dc.lft.to/lastmile_qr_scan"}, "fusion_lon": 0.0, "lat": 38.897172833333336, "bike_id": "1004ef9bd8eefb14299b67b9e3f227de", "type": "electric_scooter", "is_reserved": 0, "lon": -77.0215845}, {"fusion_lat": 0.0, "name": "f05d9a9d147d1cb044aba8156acf509e", "is_disabled": 0, "rental_uris": {"android": "https://dc.lft.to/lastmile_qr_scan", "ios": "https://dc.lft.to/lastmile_qr_scan"}, "fusion_lon": 0.0, "lat": 38.924228, "bike_id": "f05d9a9d147d1cb044aba8156acf509e", "type": "electric_scooter", "is_reserved": 0, "lon": -77.01957133333333}, {"fusion_lat": 0.0, "name": "8b0d0d7f29692d9ff9186f4b92b77d49", "is_disabled": 0, "rental_uris": {"android": "https://dc.lft.to/lastmile_qr_scan", "ios": "https://dc.lft.to/lastmile_qr_scan"}, "fusion_lon": 0.0, "lat": 38.9150135, "bike_id": "8b0d0d7f29692d9ff9186f4b92b77d49", "type": "electric_scooter", "is_reserved": 0, "lon": -77.03211216666666}, {"fusion_lat": 0.0, "name": "e87575f003ae8050cdd8f29b61dfc55a", "is_disabled": 0, "rental_uris": {"android": "https://dc.lft.to/lastmile_qr_scan", "ios": "https://dc.lft.to/lastmile_qr_scan"}, "fusion_lon": 0.0, "lat": 38.91254683333333, "bike_id": "e87575f003ae8050cdd8f29b61dfc55a", "type": "electric_scooter", "is_reserved": 0, "lon": -77.03829883333333}, {"fusion_lat": 0.0, "name": "c7f6f2f4539e03833d1b9f544e65b00b", "is_disabled": 0, "rental_uris": {"android": "https://dc.lft.to/lastmile_qr_scan", "ios": "https://dc.lft.to/lastmile_qr_scan"}, "fusion_lon": 0.0, "lat": 38.93889033333333, "bike_id": "c7f6f2f4539e03833d1b9f544e65b00b", "type": "electric_scooter", "is_reserved": 0, "lon": -77.02464966666666}, {"fusion_lat": 0.0, "name": "eaef1faac8eca233cc26ff1f2a7b3a22", "is_disabled": 0, "rental_uris": {"android": "https://dc.lft.to/lastmile_qr_scan", "ios": "https://dc.lft.to/lastmile_qr_scan"}, "fusion_lon": 0.0, "lat": 38.92534233333333, "bike_id": "eaef1faac8eca233cc26ff1f2a7b3a22", "type": "electric_scooter", "is_reserved": 0, "lon": -77.03827616666666}, {"fusion_lat": 0.0, "name": "2737dadcc681e3a8457ab3a7f58331c2", "is_disabled": 0, "rental_uris": {"android": "https://dc.lft.to/lastmile_qr_scan", "ios": "https://dc.lft.to/lastmile_qr_scan"}, "fusion_lon": 0.0, "lat": 38.91312283333333, "bike_id": "2737dadcc681e3a8457ab3a7f58331c2", "type": "electric_scooter", "is_reserved": 0, "lon": -77.021342}, {"fusion_lat": 0.0, "name": "12eb382a5bd18b2c1c978027df72aae4", "is_disabled": 0, "rental_uris": {"android": "https://dc.lft.to/lastmile_qr_scan", "ios": "https://dc.lft.to/lastmile_qr_scan"}, "fusion_lon": 0.0, "lat": 38.879682, "bike_id": "12eb382a5bd18b2c1c978027df72aae4", "type": "electric_bike", "is_reserved": 0, "lon": -76.91616966666666}, {"fusion_lat": 0.0, "name": "4b2104b9ffd56c798a01bee6b7ce6812", "is_disabled": 0, "rental_uris": {"android": "https://dc.lft.to/lastmile_qr_scan", "ios": "https://dc.lft.to/lastmile_qr_scan"}, "fusion_lon": 0.0, "lat": 38.887573, "bike_id": "4b2104b9ffd56c798a01bee6b7ce6812", "type": "electric_scooter", "is_reserved": 0, "lon": -77.001673}, {"fusion_lat": 0.0, "name": "b493bd3bbe2351eb0b280b63e9b257e6", "is_disabled": 0, "rental_uris": {"android": "https://dc.lft.to/lastmile_qr_scan", "ios": "https://dc.lft.to/lastmile_qr_scan"}, "fusion_lon": 0.0, "lat": 38.90531266666667, "bike_id": "b493bd3bbe2351eb0b280b63e9b257e6", "type": "electric_scooter", "is_reserved": 0, "lon": -77.06141683333334}, {"fusion_lat": 0.0, "name": "c791d1851ed838c5edfca69744dea5c4", "is_disabled": 0, "rental_uris": {"android": "https://dc.lft.to/lastmile_qr_scan", "ios": "https://dc.lft.to/lastmile_qr_scan"}, "fusion_lon": 0.0, "lat": 38.91029266666666, "bike_id": "c791d1851ed838c5edfca69744dea5c4", "type": "electric_scooter", "is_reserved": 0, "lon": -77.00757716666666}, {"fusion_lat": 0.0, "name": "4c4d4226a79e67bd16ce0551ddaa7d7f", "is_disabled": 0, "rental_uris": {"android": "https://dc.lft.to/lastmile_qr_scan", "ios": "https://dc.lft.to/lastmile_qr_scan"}, "fusion_lon": 0.0, "lat": 38.917946666666666, "bike_id": "4c4d4226a79e67bd16ce0551ddaa7d7f", "type": "electric_scooter", "is_reserved": 0, "lon": -77.0455525}, {"fusion_lat": 0.0, "name": "2d1e5b00519d2bfef80b9264f7c1ef4e", "is_disabled": 0, "rental_uris": {"android": "https://dc.lft.to/lastmile_qr_scan", "ios": "https://dc.lft.to/lastmile_qr_scan"}, "fusion_lon": 0.0, "lat": 38.914804, "bike_id": "2d1e5b00519d2bfef80b9264f7c1ef4e", "type": "electric_scooter", "is_reserved": 0, "lon": -77.0321805}, {"fusion_lat": 0.0, "name": "9164855a4c32ea3e6fbafa9c1ed62d42", "is_disabled": 0, "rental_uris": {"android": "https://dc.lft.to/lastmile_qr_scan", "ios": "https://dc.lft.to/lastmile_qr_scan"}, "fusion_lon": 0.0, "lat": 38.91716683333333, "bike_id": "9164855a4c32ea3e6fbafa9c1ed62d42", "type": "electric_scooter", "is_reserved": 0, "lon": -76.96871316666666}, {"fusion_lat": 0.0, "name": "67e7dc6b98d13daaa2dadfddce4348aa", "is_disabled": 0, "rental_uris": {"android": "https://dc.lft.to/lastmile_qr_scan", "ios": "https://dc.lft.to/lastmile_qr_scan"}, "fusion_lon": 0.0, "lat": 38.94016466666667, "bike_id": "67e7dc6b98d13daaa2dadfddce4348aa", "type": "electric_scooter", "is_reserved": 0, "lon": -77.02769183333334}, {"fusion_lat": 0.0, "name": "eeea6e63388ce40a10dab0f04e2afc20", "is_disabled": 0, "rental_uris": {"android": "https://dc.lft.to/lastmile_qr_scan", "ios": "https://dc.lft.to/lastmile_qr_scan"}, "fusion_lon": 0.0, "lat": 38.92878133333333, "bike_id": "eeea6e63388ce40a10dab0f04e2afc20", "type": "electric_scooter", "is_reserved": 0, "lon": -77.03273483333334}, {"fusion_lat": 0.0, "name": "8dff3972d421146907dc51abeed964c5", "is_disabled": 0, "rental_uris": {"android": "https://dc.lft.to/lastmile_qr_scan", "ios": "https://dc.lft.to/lastmile_qr_scan"}, "fusion_lon": 0.0, "lat": 38.9261045, "bike_id": "8dff3972d421146907dc51abeed964c5", "type": "electric_scooter", "is_reserved": 0, "lon": -77.02221683333333}, {"fusion_lat": 0.0, "name": "a4de738e539fdc5caee880a553c97816", "is_disabled": 0, "rental_uris": {"android": "https://dc.lft.to/lastmile_qr_scan", "ios": "https://dc.lft.to/lastmile_qr_scan"}, "fusion_lon": 0.0, "lat": 38.899998833333335, "bike_id": "a4de738e539fdc5caee880a553c97816", "type": "electric_scooter", "is_reserved": 0, "lon": -77.02582466666667}, {"fusion_lat": 0.0, "name": "b405a5c9c562fda4db01b5d8041a5519", "is_disabled": 0, "rental_uris": {"android": "https://dc.lft.to/lastmile_qr_scan", "ios": "https://dc.lft.to/lastmile_qr_scan"}, "fusion_lon": 0.0, "lat": 38.9132125, "bike_id": "b405a5c9c562fda4db01b5d8041a5519", "type": "electric_scooter", "is_reserved": 0, "lon": -77.04703966666666}, {"fusion_lat": 0.0, "name": "9dd78d43de3b06fa7e92f8af93aed368", "is_disabled": 0, "rental_uris": {"android": "https://dc.lft.to/lastmile_qr_scan", "ios": "https://dc.lft.to/lastmile_qr_scan"}, "fusion_lon": 0.0, "lat": 38.924497, "bike_id": "9dd78d43de3b06fa7e92f8af93aed368", "type": "electric_scooter", "is_reserved": 0, "lon": -77.039709}, {"fusion_lat": 0.0, "name": "4021f04b62febad27e7695f85e12f2ed", "is_disabled": 0, "rental_uris": {"android": "https://dc.lft.to/lastmile_qr_scan", "ios": "https://dc.lft.to/lastmile_qr_scan"}, "fusion_lon": 0.0, "lat": 38.917207833333336, "bike_id": "4021f04b62febad27e7695f85e12f2ed", "type": "electric_scooter", "is_reserved": 0, "lon": -77.02971466666666}, {"fusion_lat": 0.0, "name": "690747c75a16c7ad82ee572eeb5e4cf9", "is_disabled": 0, "rental_uris": {"android": "https://dc.lft.to/lastmile_qr_scan", "ios": "https://dc.lft.to/lastmile_qr_scan"}, "fusion_lon": 0.0, "lat": 38.892641166666664, "bike_id": "690747c75a16c7ad82ee572eeb5e4cf9", "type": "electric_scooter", "is_reserved": 0, "lon": -77.05028633333333}, {"fusion_lat": 0.0, "name": "5b528310f8689873325be4c8e34672d3", "is_disabled": 0, "rental_uris": {"android": "https://dc.lft.to/lastmile_qr_scan", "ios": "https://dc.lft.to/lastmile_qr_scan"}, "fusion_lon": 0.0, "lat": 38.909682833333335, "bike_id": "5b528310f8689873325be4c8e34672d3", "type": "electric_scooter", "is_reserved": 0, "lon": -77.032513}, {"fusion_lat": 0.0, "name": "e1b04baa4e4eec05cfcfbaf19d56998a", "is_disabled": 0, "rental_uris": {"android": "https://dc.lft.to/lastmile_qr_scan", "ios": "https://dc.lft.to/lastmile_qr_scan"}, "fusion_lon": 0.0, "lat": 38.9063555, "bike_id": "e1b04baa4e4eec05cfcfbaf19d56998a", "type": "electric_scooter", "is_reserved": 0, "lon": -77.03150566666666}, {"fusion_lat": 0.0, "name": "884f2bf56e8a53066e4a886446c1017b", "is_disabled": 0, "rental_uris": {"android": "https://dc.lft.to/lastmile_qr_scan", "ios": "https://dc.lft.to/lastmile_qr_scan"}, "fusion_lon": 0.0, "lat": 38.907490833333334, "bike_id": "884f2bf56e8a53066e4a886446c1017b", "type": "electric_scooter", "is_reserved": 0, "lon": -77.02952866666666}, {"fusion_lat": 0.0, "name": "eb71ffc6dfdad6f4c6b0ef6932df438e", "is_disabled": 0, "rental_uris": {"android": "https://dc.lft.to/lastmile_qr_scan", "ios": "https://dc.lft.to/lastmile_qr_scan"}, "fusion_lon": 0.0, "lat": 38.887078833333334, "bike_id": "eb71ffc6dfdad6f4c6b0ef6932df438e", "type": "electric_scooter", "is_reserved": 0, "lon": -76.99678333333334}, {"fusion_lat": 0.0, "name": "5fc1c67428a892664c719b989b9673f1", "is_disabled": 0, "rental_uris": {"android": "https://dc.lft.to/lastmile_qr_scan", "ios": "https://dc.lft.to/lastmile_qr_scan"}, "fusion_lon": 0.0, "lat": 38.9157475, "bike_id": "5fc1c67428a892664c719b989b9673f1", "type": "electric_scooter", "is_reserved": 0, "lon": -77.0229115}, {"fusion_lat": 0.0, "name": "ea0f4d7163c848fec035f79f879ddbf0", "is_disabled": 0, "rental_uris": {"android": "https://dc.lft.to/lastmile_qr_scan", "ios": "https://dc.lft.to/lastmile_qr_scan"}, "fusion_lon": 0.0, "lat": 38.916947, "bike_id": "ea0f4d7163c848fec035f79f879ddbf0", "type": "electric_scooter", "is_reserved": 0, "lon": -77.0349845}, {"fusion_lat": 0.0, "name": "49250aa71fa07ec11e134980e2c0fd0c", "is_disabled": 0, "rental_uris": {"android": "https://dc.lft.to/lastmile_qr_scan", "ios": "https://dc.lft.to/lastmile_qr_scan"}, "fusion_lon": 0.0, "lat": 38.92207766666667, "bike_id": "49250aa71fa07ec11e134980e2c0fd0c", "type": "electric_scooter", "is_reserved": 0, "lon": -77.0424095}, {"fusion_lat": 0.0, "name": "5aad124c235bcb799d7296570611c8f2", "is_disabled": 0, "rental_uris": {"android": "https://dc.lft.to/lastmile_qr_scan", "ios": "https://dc.lft.to/lastmile_qr_scan"}, "fusion_lon": 0.0, "lat": 38.91068533333333, "bike_id": "5aad124c235bcb799d7296570611c8f2", "type": "electric_scooter", "is_reserved": 0, "lon": -77.02711666666667}, {"fusion_lat": 0.0, "name": "2e0a62af23627442fcd8d7a17cf0b0f7", "is_disabled": 0, "rental_uris": {"android": "https://dc.lft.to/lastmile_qr_scan", "ios": "https://dc.lft.to/lastmile_qr_scan"}, "fusion_lon": 0.0, "lat": 38.91622816666667, "bike_id": "2e0a62af23627442fcd8d7a17cf0b0f7", "type": "electric_scooter", "is_reserved": 0, "lon": -77.00333966666666}, {"fusion_lat": 0.0, "name": "653e3019138b10bbb65db1231eef2c5e", "is_disabled": 0, "rental_uris": {"android": "https://dc.lft.to/lastmile_qr_scan", "ios": "https://dc.lft.to/lastmile_qr_scan"}, "fusion_lon": 0.0, "lat": 38.9156595, "bike_id": "653e3019138b10bbb65db1231eef2c5e", "type": "electric_scooter", "is_reserved": 0, "lon": -77.04006166666667}, {"fusion_lat": 0.0, "name": "06dcb51d111b8070654e24912592c4e0", "is_disabled": 0, "rental_uris": {"android": "https://dc.lft.to/lastmile_qr_scan", "ios": "https://dc.lft.to/lastmile_qr_scan"}, "fusion_lon": 0.0, "lat": 38.928375833333334, "bike_id": "06dcb51d111b8070654e24912592c4e0", "type": "electric_scooter", "is_reserved": 0, "lon": -77.01585166666666}, {"fusion_lat": 0.0, "name": "7b93dacd7ee5c65a5fcb75b570148524", "is_disabled": 0, "rental_uris": {"android": "https://dc.lft.to/lastmile_qr_scan", "ios": "https://dc.lft.to/lastmile_qr_scan"}, "fusion_lon": 0.0, "lat": 38.93530583333333, "bike_id": "7b93dacd7ee5c65a5fcb75b570148524", "type": "electric_scooter", "is_reserved": 0, "lon": -77.0236295}, {"fusion_lat": 0.0, "name": "8cf261e12d590f2de85d2c244598052f", "is_disabled": 0, "rental_uris": {"android": "https://dc.lft.to/lastmile_qr_scan", "ios": "https://dc.lft.to/lastmile_qr_scan"}, "fusion_lon": 0.0, "lat": 38.899071666666664, "bike_id": "8cf261e12d590f2de85d2c244598052f", "type": "electric_scooter", "is_reserved": 0, "lon": -76.933542}, {"fusion_lat": 0.0, "name": "12353e1a4cf6a8700659f00f1f2b047f", "is_disabled": 0, "rental_uris": {"android": "https://dc.lft.to/lastmile_qr_scan", "ios": "https://dc.lft.to/lastmile_qr_scan"}, "fusion_lon": 0.0, "lat": 38.963190166666664, "bike_id": "12353e1a4cf6a8700659f00f1f2b047f", "type": "electric_scooter", "is_reserved": 0, "lon": -77.074954}, {"fusion_lat": 0.0, "name": "8c0b59806413c012111597cbbca0e61b", "is_disabled": 0, "rental_uris": {"android": "https://dc.lft.to/lastmile_qr_scan", "ios": "https://dc.lft.to/lastmile_qr_scan"}, "fusion_lon": 0.0, "lat": 38.89910033333334, "bike_id": "8c0b59806413c012111597cbbca0e61b", "type": "electric_scooter", "is_reserved": 0, "lon": -76.94590466666666}, {"fusion_lat": 0.0, "name": "03919e7f42a1cab3d6fad3ee36d05cd9", "is_disabled": 0, "rental_uris": {"android": "https://dc.lft.to/lastmile_qr_scan", "ios": "https://dc.lft.to/lastmile_qr_scan"}, "fusion_lon": 0.0, "lat": 38.932858833333334, "bike_id": "03919e7f42a1cab3d6fad3ee36d05cd9", "type": "electric_scooter", "is_reserved": 0, "lon": -77.0282585}, {"fusion_lat": 0.0, "name": "cdcddeb72f85c54d31887b61e0ba23a2", "is_disabled": 0, "rental_uris": {"android": "https://dc.lft.to/lastmile_qr_scan", "ios": "https://dc.lft.to/lastmile_qr_scan"}, "fusion_lon": 0.0, "lat": 38.88523466666667, "bike_id": "cdcddeb72f85c54d31887b61e0ba23a2", "type": "electric_scooter", "is_reserved": 0, "lon": -76.929237}, {"fusion_lat": 0.0, "name": "0c0ada498340bbf3962bf4749d66f28a", "is_disabled": 0, "rental_uris": {"android": "https://dc.lft.to/lastmile_qr_scan", "ios": "https://dc.lft.to/lastmile_qr_scan"}, "fusion_lon": 0.0, "lat": 38.93521233333333, "bike_id": "0c0ada498340bbf3962bf4749d66f28a", "type": "electric_scooter", "is_reserved": 0, "lon": -77.032598}, {"fusion_lat": 0.0, "name": "4f2ba1083e4452eeae677382e6c73086", "is_disabled": 0, "rental_uris": {"android": "https://dc.lft.to/lastmile_qr_scan", "ios": "https://dc.lft.to/lastmile_qr_scan"}, "fusion_lon": 0.0, "lat": 38.9026075, "bike_id": "4f2ba1083e4452eeae677382e6c73086", "type": "electric_scooter", "is_reserved": 0, "lon": -76.974537}, {"fusion_lat": 0.0, "name": "dc2e7e1264380baa9bbe1d502d19a423", "is_disabled": 0, "rental_uris": {"android": "https://dc.lft.to/lastmile_qr_scan", "ios": "https://dc.lft.to/lastmile_qr_scan"}, "fusion_lon": 0.0, "lat": 38.90148933333333, "bike_id": "dc2e7e1264380baa9bbe1d502d19a423", "type": "electric_scooter", "is_reserved": 0, "lon": -77.02272033333334}, {"fusion_lat": 0.0, "name": "2a2ab79e51d71d2e8c01abdec5093665", "is_disabled": 0, "rental_uris": {"android": "https://dc.lft.to/lastmile_qr_scan", "ios": "https://dc.lft.to/lastmile_qr_scan"}, "fusion_lon": 0.0, "lat": 38.904099333333335, "bike_id": "2a2ab79e51d71d2e8c01abdec5093665", "type": "electric_scooter", "is_reserved": 0, "lon": -76.97331966666667}, {"fusion_lat": 0.0, "name": "555f83039ea553fb9fa50c84f8d3ba7e", "is_disabled": 0, "rental_uris": {"android": "https://dc.lft.to/lastmile_qr_scan", "ios": "https://dc.lft.to/lastmile_qr_scan"}, "fusion_lon": 0.0, "lat": 38.92320266666667, "bike_id": "555f83039ea553fb9fa50c84f8d3ba7e", "type": "electric_scooter", "is_reserved": 0, "lon": -77.020445}, {"fusion_lat": 0.0, "name": "bfe1e69cfee123ededdc24bab95ab140", "is_disabled": 0, "rental_uris": {"android": "https://dc.lft.to/lastmile_qr_scan", "ios": "https://dc.lft.to/lastmile_qr_scan"}, "fusion_lon": 0.0, "lat": 38.929325166666665, "bike_id": "bfe1e69cfee123ededdc24bab95ab140", "type": "electric_scooter", "is_reserved": 0, "lon": -77.02339}, {"fusion_lat": 0.0, "name": "54572ad1bdfe8d5eef3fb0d5c1a40c10", "is_disabled": 0, "rental_uris": {"android": "https://dc.lft.to/lastmile_qr_scan", "ios": "https://dc.lft.to/lastmile_qr_scan"}, "fusion_lon": 0.0, "lat": 38.9071855, "bike_id": "54572ad1bdfe8d5eef3fb0d5c1a40c10", "type": "electric_scooter", "is_reserved": 0, "lon": -77.02894116666667}, {"fusion_lat": 0.0, "name": "8abfdd3611a29f21edb23e211db9810f", "is_disabled": 0, "rental_uris": {"android": "https://dc.lft.to/lastmile_qr_scan", "ios": "https://dc.lft.to/lastmile_qr_scan"}, "fusion_lon": 0.0, "lat": 38.93076083333333, "bike_id": "8abfdd3611a29f21edb23e211db9810f", "type": "electric_scooter", "is_reserved": 0, "lon": -77.07765466666666}, {"fusion_lat": 0.0, "name": "1feae3be19bdc473356dfa0d4636281f", "is_disabled": 0, "rental_uris": {"android": "https://dc.lft.to/lastmile_qr_scan", "ios": "https://dc.lft.to/lastmile_qr_scan"}, "fusion_lon": 0.0, "lat": 38.919137166666665, "bike_id": "1feae3be19bdc473356dfa0d4636281f", "type": "electric_scooter", "is_reserved": 0, "lon": -77.041591},