{"data": {"bikes": [{"is_reserved": 0, "type": "electric_scooter", "bike_id": "83fd79439ee5fca7fa6f3f43f95d22ed", "lat": 38.91183566666667, "lon": -77.044917, "rental_uris": {"android": "https://dc.lft.to/lastmile_qr_scan", "ios": "https://dc.lft.to/lastmile_qr_scan"}, "is_disabled": 0, "fusion_lat": 0.0, "name": "83fd79439ee5fca7fa6f3f43f95d22ed", "fusion_lon": 0.0}, {"is_reserved": 0, "type": "electric_scooter", "bike_id": "a569de529f40924ce6bba1cbb477d928", "lat": 38.918111833333334, "lon": -77.04008433333334, "rental_uris": {"android": "https://dc.lft.to/lastmile_qr_scan", "ios": "https://dc.lft.to/lastmile_qr_scan"}, "is_disabled": 0, "fusion_lat": 0.0, "name": "a569de529f40924ce6bba1cbb477d928", "fusion_lon": 0.0}, {"is_reserved": 0, "type": "electric_scooter", "bike_id": "208a0b6def810b8d6920a5b5396aa937", "lat": 38.900164333333336, "lon": -76.98876516666667, "rental_uris": {"android": "https://dc.lft.to/lastmile_qr_scan", "ios": "https://dc.lft.to/lastmile_qr_scan"}, "is_disabled": 0, "fusion_lat": 0.0, "name": "208a0b6def810b8d6920a5b5396aa937", "fusion_lon": 0.0}, {"is_reserved": 0, "type": "electric_scooter", "bike_id": "6dcf8f16c05035971e3c77388065b5b5", "lat": 38.930728333333334, "lon": -77.0375225, "rental_uris": {"android": "https://dc.lft.to/lastmile_qr_scan", "ios": "https://dc.lft.to/lastmile_qr_scan"}, "is_disabled": 0, "fusion_lat": 0.0, "name": "6dcf8f16c05035971e3c77388065b5b5", "fusion_lon": 0.0}, {"is_reserved": 0, "type": "electric_scooter", "bike_id": "0792d6da35879bfed128b75509a6fcff", "lat": 38.88784783333333, "lon": -76.97711783333334, "rental_uris": {"android": "https://dc.lft.to/lastmile_qr_scan", "ios": "https://dc.lft.to/lastmile_qr_scan"}, "is_disabled": 0, "fusion_lat": 0.0, "name": "0792d6da35879bfed128b75509a6fcff", "fusion_lon": 0.0}, {"is_reserved": 0, "type": "electric_scooter", "bike_id": "1b2bc7162b08f3cc16dcb70bf7e337a6", "lat": 38.872943666666664, "lon": -77.01554466666667, "rental_uris": {"android": "https://dc.lft.to/lastmile_qr_scan", "ios": "https://dc.lft.to/lastmile_qr_scan"}, "is_disabled": 0, "fusion_lat": 0.0, "name": "1b2bc7162b08f3cc16dcb70bf7e337a6", "fusion_lon": 0.0}, {"is_reserved": 0, "type": "electric_scooter", "bike_id": "293f9bd58656bb2d39de0404d1dd9773", "lat": 38.9285405, "lon": -77.03733583333333, "rental_uris": {"android": "https://dc.lft.to/lastmile_qr_scan", "ios": "https://dc.lft.to/lastmile_qr_scan"}, "is_disabled": 0, "fusion_lat": 0.0, "name": "293f9bd58656bb2d39de0404d1dd9773", "fusion_lon": 0.0}, {"is_reserved": 0, "type": "electric_scooter", "bike_id": "36b31de36ac7729513ff060ad4622654", "lat": 38.9246135, "lon": -77.039559, "rental_uris": {"android": "https://dc.lft.to/lastmile_qr_scan", "ios": "https://dc.lft.to/lastmile_qr_scan"}, "is_disabled": 0, "fusion_lat": 0.0, "name": "36b31de36ac7729513ff060ad4622654", "fusion_lon": 0.0}, {"is_reserved": 0, "type": "electric_scooter", "bike_id": "05ab5b5bc1259a300e75a0c52d6786f3", "lat": 38.89988433333333, "lon": -77.027158, "rental_uris": {"android": "https://dc.lft.to/lastmile_qr_scan", "ios": "https://dc.lft.to/lastmile_qr_scan"}, "is_disabled": 0, "fusion_lat": 0.0, "name": "05ab5b5bc1259a300e75a0c52d6786f3", "fusion_lon": 0.0}, {"is_reserved": 0, "type": "electric_scooter", "bike_id": "89181ddf2336f7c4ad990f40d0db6c1a", "lat": 38.887276, "lon": -77.022079, "rental_uris": {"android": "https://dc.lft.to/lastmile_qr_scan", "ios": "https://dc.lft.to/lastmile_qr_scan"}, "is_disabled": 0, "fusion_lat": 0.0, "name": "89181ddf2336f7c4ad990f40d0db6c1a", "fusion_lon": 0.0}, {"is_reserved": 0, "type": "electric_scooter", "bike_id": "852806f2d9bc6d9309a37034bdcdc4d4", "lat": 38.919350666666666, "lon": -77.041727, "rental_uris": {"android": "https://dc.lft.to/lastmile_qr_scan", "ios": "https://dc.lft.to/lastmile_qr_scan"}, "is_disabled": 0, "fusion_lat": 0.0, "name": "852806f2d9bc6d9309a37034bdcdc4d4", "fusion_lon": 0.0}, {"is_reserved": 0, "type": "electric_scooter", "bike_id": "f8b4ebfbc1596efc42623cb3f27e9c76", "lat": 38.92641666666667, "lon": -77.036916, "rental_uris": {"android": "https://dc.lft.to/lastmile_qr_scan", "ios": "https://dc.lft.to/lastmile_qr_scan"}, "is_disabled": 0, "fusion_lat": 0.0, "name": "f8b4ebfbc1596efc42623cb3f27e9c76", "fusion_lon": 0.0}, {"is_reserved": 0, "type": "electric_scooter", "bike_id": "060799884858e93192530a4ad6719cb4", "lat": 38.91521616666667, "lon": -77.019821, "rental_uris": {"android": "https://dc.lft.to/lastmile_qr_scan", "ios": "https://dc.lft.to/lastmile_qr_scan"}, "is_disabled": 0, "fusion_lat": 0.0, "name": "060799884858e93192530a4ad6719cb4", "fusion_lon": 0.0}, {"is_reserved": 0, "type": "electric_scooter", "bike_id": "52260425210cf078762966d146e1bc5e", "lat": 38.89729883333333, "lon": -77.02064916666667, "rental_uris": {"android": "https://dc.lft.to/lastmile_qr_scan", "ios": "https://dc.lft.to/lastmile_qr_scan"}, "is_disabled": 0, "fusion_lat": 0.0, "name": "52260425210cf078762966d146e1bc5e", "fusion_lon": 0.0}, {"is_reserved": 0, "type": "electric_scooter", "bike_id": "922dbc9f18f6f250c6ca014cf17fa39a", "lat": 38.86486816666667, "lon": -76.97745383333333, "rental_uris": {"android": "https://dc.lft.to/lastmile_qr_scan", "ios": "https://dc.lft.to/lastmile_qr_scan"}, "is_disabled": 0, "fusion_lat": 0.0, "name": "922dbc9f18f6f250c6ca014cf17fa39a", "fusion_lon": 0.0}, {"is_reserved": 0, "type": "electric_scooter", "bike_id": "5ce2db4a666aad73ab04e24818166126", "lat": 38.900189833333336, "lon": -77.01218783333333, "rental_uris": {"android": "https://dc.lft.to/lastmile_qr_scan", "ios": "https://dc.lft.to/lastmile_qr_scan"}, "is_disabled": 0, "fusion_lat": 0.0, "name": "5ce2db4a666aad73ab04e24818166126", "fusion_lon": 0.0}, {"is_reserved": 0, "type": "electric_bike", "bike_id": "2a5cdd0f86c2a0273873931febdc873f", "lat": 38.8893255, "lon": -76.91324116666667, "rental_uris": {"android": "https://dc.lft.to/lastmile_qr_scan", "ios": "https://dc.lft.to/lastmile_qr_scan"}, "is_disabled": 0, "fusion_lat": 0.0, "name": "2a5cdd0f86c2a0273873931febdc873f", "fusion_lon": 0.0}, {"is_reserved": 0, "type": "electric_scooter", "bike_id": "4b00d5c6f8e0406c9503cae8f5ece8db", "lat": 38.92482666666667, "lon": -77.02269333333334, "rental_uris": {"android": "https://dc.lft.to/lastmile_qr_scan", "ios": "https://dc.lft.to/lastmile_qr_scan"}, "is_disabled": 0, "fusion_lat": 0.0, "name": "4b00d5c6f8e0406c9503cae8f5ece8db", "fusion_lon": 0.0}, {"is_reserved": 0, "type": "electric_scooter", "bike_id": "c2ed38ae462394c492d034a873c24491", "lat": 38.8970235, "lon": -77.02264233333334, "rental_uris": {"android": "https://dc.lft.to/lastmile_qr_scan", "ios": "https://dc.lft.to/lastmile_qr_scan"}, "is_disabled": 0, "fusion_lat": 0.0, "name": "c2ed38ae462394c492d034a873c24491", "fusion_lon": 0.0}, {"is_reserved": 0, "type": "electric_scooter", "bike_id": "eb9310227f476509e56e5e90881891f3", "lat": 38.9062645, "lon": -77.0314295, "rental_uris": {"android": "https://dc.lft.to/lastmile_qr_scan", "ios": "https://dc.lft.to/lastmile_qr_scan"}, "is_disabled": 0, "fusion_lat": 0.0, "name": "eb9310227f476509e56e5e90881891f3", "fusion_lon": 0.0}, {"is_reserved": 0, "type": "electric_scooter", "bike_id": "85a321d907c09a965d759a6bd878ae78", "lat": 38.90469683333333, "lon": -77.04861266666667, "rental_uris": {"android": "https://dc.lft.to/lastmile_qr_scan", "ios": "https://dc.lft.to/lastmile_qr_scan"}, "is_disabled": 0, "fusion_lat": 0.0, "name": "85a321d907c09a965d759a6bd878ae78", "fusion_lon": 0.0}, {"is_reserved": 0, "type": "electric_bike", "bike_id": "c1668d4723d74adc1bc3e6dedc6f0550", "lat": 39.084342, "lon": -76.95143916666666, "rental_uris": {"android": "https://dc.lft.to/lastmile_qr_scan", "ios": "https://dc.lft.to/lastmile_qr_scan"}, "is_disabled": 0, "fusion_lat": 0.0, "name": "c1668d4723d74adc1bc3e6dedc6f0550", "fusion_lon": 0.0}, {"is_reserved": 0, "type": "electric_scooter", "bike_id": "fc08c09772733521a8458ae18ac869e1", "lat": 38.8865555, "lon": -76.93675533333334, "rental_uris": {"android": "https://dc.lft.to/lastmile_qr_scan", "ios": "https://dc.lft.to/lastmile_qr_scan"}, "is_disabled": 0, "fusion_lat": 0.0, "name": "fc08c09772733521a8458ae18ac869e1", "fusion_lon": 0.0}, {"is_reserved": 0, "type": "electric_scooter", "bike_id": "fd4879510823266f7f3b97718a5d2b8c", "lat": 38.900284, "lon": -76.98877983333334, "rental_uris": {"android": "https://dc.lft.to/lastmile_qr_scan", "ios": "https://dc.lft.to/lastmile_qr_scan"}, "is_disabled": 0, "fusion_lat": 0.0, "name": "fd4879510823266f7f3b97718a5d2b8c", "fusion_lon": 0.0}, {"is_reserved": 0, "type": "electric_bike", "bike_id": "2dcd220b2edc25eed39cb9f055f0ff8c", "lat": 38.819422, "lon": -77.00200166666667, "rental_uris": {"android": "https://dc.lft.to/lastmile_qr_scan", "ios": "https://dc.lft.to/lastmile_qr_scan"}, "is_disabled": 0, "fusion_lat": 0.0, "name": "2dcd220b2edc25eed39cb9f055f0ff8c", "fusion_lon": 0.0}, {"is_reserved": 0, "type": "electric_scooter", "bike_id": "7c88c590f5fbd28e7ffc231549edfb92", "lat": 38.92412383333333, "lon": -77.022273, "rental_uris": {"android": "https://dc.lft.to/lastmile_qr_scan", "ios": "https://dc.lft.to/lastmile_qr_scan"}, "is_disabled": 0, "fusion_lat": 0.0, "name": "7c88c590f5fbd28e7ffc231549edfb92", "fusion_lon": 0.0}, {"is_reserved": 0, "type": "electric_scooter", "bike_id": "86db08085baccffef987653b60fa7e23", "lat": 38.91700516666667, "lon": -77.02305, "rental_uris": {"android": "https://dc.lft.to/lastmile_qr_scan", "ios": "https://dc.lft.to/lastmile_qr_scan"}, "is_disabled": 0, "fusion_lat": 0.0, "name": "86db08085baccffef987653b60fa7e23", "fusion_lon": 0.0}, {"is_reserved": 0, "type": "electric_scooter", "bike_id": "09a8f464493d01f8fac5d5833d450e0d", "lat": 38.9053735, "lon": -77.04002333333334, "rental_uris": {"android": "https://dc.lft.to/lastmile_qr_scan", "ios": "https://dc.lft.to/lastmile_qr_scan"}, "is_disabled": 0, "fusion_lat": 0.0, "name": "09a8f464493d01f8fac5d5833d450e0d", "fusion_lon": 0.0}, {"is_reserved": 0, "type": "electric_scooter", "bike_id": "1797577a34c8ca8bc30a7afd95091470", "lat": 38.930116166666664, "lon": -77.02776566666667, "rental_uris": {"android": "https://dc.lft.to/lastmile_qr_scan", "ios": "https://dc.lft.to/lastmile_qr_scan"}, "is_disabled": 0, "fusion_lat": 0.0, "name": "1797577a34c8ca8bc30a7afd95091470", "fusion_lon": 0.0}, {"is_reserved": 0, "type": "electric_scooter", "bike_id": "eae8bed30cb3d591c95145abaf117eb0", "lat": 38.86117483333334, "lon": -76.9837635, "rental_uris": {"android": "https://dc.lft.to/lastmile_qr_scan", "ios": "https://dc.lft.to/lastmile_qr_scan"}, "is_disabled": 0, "fusion_lat": 0.0, "name": "eae8bed30cb3d591c95145abaf117eb0", "fusion_lon": 0.0}, {"is_reserved": 0, "type": "electric_scooter", "bike_id": "7cae32b75e38e45dc95a796fe2d779da", "lat": 38.899967833333335, "lon": -76.990123, "rental_uris": {"android": "https://dc.lft.to/lastmile_qr_scan", "ios": "https://dc.lft.to/lastmile_qr_scan"}, "is_disabled": 0, "fusion_lat": 0.0, "name": "7cae32b75e38e45dc95a796fe2d779da", "fusion_lon": 0.0}, {"is_reserved": 0, "type": "electric_scooter", "bike_id": "999d37ef303cfbf17654ab22ccd6e7ce", "lat": 38.874692333333336, "lon": -77.005584, "rental_uris": {"android": "https://dc.lft.to/lastmile_qr_scan", "ios": "https://dc.lft.to/lastmile_qr_scan"}, "is_disabled": 0, "fusion_lat": 0.0, "name": "999d37ef303cfbf17654ab22ccd6e7ce", "fusion_lon": 0.0}, {"is_reserved": 0, "type": "electric_scooter", "bike_id": "2bee3b4dcda73ed36efcc40bd64e3dac", "lat": 38.92449516666667, "lon": -77.02157666666666, "rental_uris": {"android": "https://dc.lft.to/lastmile_qr_scan", "ios": "https://dc.lft.to/lastmile_qr_scan"}, "is_disabled": 0, "fusion_lat": 0.0, "name": "2bee3b4dcda73ed36efcc40bd64e3dac", "fusion_lon": 0.0}, {"is_reserved": 0, "type": "electric_scooter", "bike_id": "9d93feeeb08a419489e074c2e8743ab6", "lat": 38.91964566666667, "lon": -77.04358516666667, "rental_uris": {"android": "https://dc.lft.to/lastmile_qr_scan", "ios": "https://dc.lft.to/lastmile_qr_scan"}, "is_disabled": 0, "fusion_lat": 0.0, "name": "9d93feeeb08a419489e074c2e8743ab6", "fusion_lon": 0.0}, {"is_reserved": 0, "type": "electric_bike", "bike_id": "a7cb5a579ff21b0a42c5f4611af5aaa2", "lat": 38.956447, "lon": -77.0329385, "rental_uris": {"android": "https://dc.lft.to/lastmile_qr_scan", "ios": "https://dc.lft.to/lastmile_qr_scan"}, "is_disabled": 0, "fusion_lat": 0.0, "name": "a7cb5a579ff21b0a42c5f4611af5aaa2", "fusion_lon": 0.0}, {"is_reserved": 0, "type": "electric_scooter", "bike_id": "7acc47fb707b862cb43ab95ae14cc589", "lat": 38.901928833333336, "lon": -76.981974, "rental_uris": {"android": "https://dc.lft.to/lastmile_qr_scan", "ios": "https://dc.lft.to/lastmile_qr_scan"}, "is_disabled": 0, "fusion_lat": 0.0, "name": "7acc47fb707b862cb43ab95ae14cc589", "fusion_lon": 0.0}, {"is_reserved": 0, "type": "electric_scooter", "bike_id": "ebe2528defc1006fba890161670c63f7", "lat": 38.92556716666667, "lon": -77.02277766666667, "rental_uris": {"android": "https://dc.lft.to/lastmile_qr_scan", "ios": "https://dc.lft.to/lastmile_qr_scan"}, "is_disabled": 0, "fusion_lat": 0.0, "name": "ebe2528defc1006fba890161670c63f7", "fusion_lon": 0.0}, {"is_reserved": 0, "type": "electric_scooter", "bike_id": "0638377519cb22970d74e061dbb1cd07", "lat": 38.930547, "lon": -77.03630533333333, "rental_uris": {"android": "https://dc.lft.to/lastmile_qr_scan", "ios": "https://dc.lft.to/lastmile_qr_scan"}, "is_disabled": 0, "fusion_lat": 0.0, "name": "0638377519cb22970d74e061dbb1cd07", "fusion_lon": 0.0}, {"is_reserved": 0, "type": "electric_scooter", "bike_id": "2ad9efd741d85f18ffc2ef73d647d325", "lat": 38.867171166666665, "lon": -76.98073866666667, "rental_uris": {"android": "https://dc.lft.to/lastmile_qr_scan", "ios": "https://dc.lft.to/lastmile_qr_scan"}, "is_disabled": 0, "fusion_lat": 0.0, "name": "2ad9efd741d85f18ffc2ef73d647d325", "fusion_lon": 0.0}, {"is_reserved": 0, "type": "electric_scooter", "bike_id": "dad0911d1c8866f818b5f753c0f64aa4", "lat": 38.91214166666666, "lon": -77.0318285, "rental_uris": {"android": "https://dc.lft.to/lastmile_qr_scan", "ios": "https://dc.lft.to/lastmile_qr_scan"}, "is_disabled": 0, "fusion_lat": 0.0, "name": "dad0911d1c8866f818b5f753c0f64aa4", "fusion_lon": 0.0}, {"is_reserved": 0, "type": "electric_scooter", "bike_id": "f44b94f4c78a1d461d3d2be5296e0701", "lat": 38.88108666666667, "lon": -76.994986, "rental_uris": {"android": "https://dc.lft.to/lastmile_qr_scan", "ios": "https://dc.lft.to/lastmile_qr_scan"}, "is_disabled": 0, "fusion_lat": 0.0, "name": "f44b94f4c78a1d461d3d2be5296e0701", "fusion_lon": 0.0}, {"is_reserved": 0, "type": "electric_scooter", "bike_id": "8fb98cff981abab39f42b6b37118edff", "lat": 38.89224433333333, "lon": -77.04994933333333, "rental_uris": {"android": "https://dc.lft.to/lastmile_qr_scan", "ios": "https://dc.lft.to/lastmile_qr_scan"}, "is_disabled": 0, "fusion_lat": 0.0, "name": "8fb98cff981abab39f42b6b37118edff", "fusion_lon": 0.0}, {"is_reserved": 0, "type": "electric_scooter", "bike_id": "bf4ce214a3d5b281d8beb54fa8e28ccd", "lat": 38.8999045, "lon": -77.021972, "rental_uris": {"android": "https://dc.lft.to/lastmile_qr_scan", "ios": "https://dc.lft.to/lastmile_qr_scan"}, "is_disabled": 0, "fusion_lat": 0.0, "name": "bf4ce214a3d5b281d8beb54fa8e28ccd", "fusion_lon": 0.0}, {"is_reserved": 0, "type": "electric_scooter", "bike_id": "dcc44bcdee9b940fd24e200c4eb199cc", "lat": 38.880892833333334, "lon": -76.99495183333333, "rental_uris": {"android": "https://dc.lft.to/lastmile_qr_scan", "ios": "https://dc.lft.to/lastmile_qr_scan"}, "is_disabled": 0, "fusion_lat": 0.0, "name": "dcc44bcdee9b940fd24e200c4eb199cc", "fusion_lon": 0.0}, {"is_reserved": 0, "type": "electric_scooter", "bike_id": "202bcc7f80a24ae0d64ea051fddea8ce", "lat": 38.91134983333333, "lon": -77.036646, "rental_uris": {"android": "https://dc.lft.to/lastmile_qr_scan", "ios": "https://dc.lft.to/lastmile_qr_scan"}, "is_disabled": 0, "fusion_lat": 0.0, "name": "202bcc7f80a24ae0d64ea051fddea8ce", "fusion_lon": 0.0}, {"is_reserved": 0, "type": "electric_scooter", "bike_id": "a634c6097a786445e69643a52b48d614", "lat": 38.897565, "lon": -77.02697933333333, "rental_uris": {"android": "https://dc.lft.to/lastmile_qr_scan", "ios": "https://dc.lft.to/lastmile_qr_scan"}, "is_disabled": 0, "fusion_lat": 0.0, "name": "a634c6097a786445e69643a52b48d614", "fusion_lon": 0.0}, {"is_reserved": 0, "type": "electric_scooter", "bike_id": "60f014232f5c473a50bee48b8365e425", "lat": 38.9155155, "lon": -77.03253733333334, "rental_uris": {"android": "https://dc.lft.to/lastmile_qr_scan", "ios": "https://dc.lft.to/lastmile_qr_scan"}, "is_disabled": 0, "fusion_lat": 0.0, "name": "60f014232f5c473a50bee48b8365e425", "fusion_lon": 0.0}, {"is_reserved": 0, "type": "electric_scooter", "bike_id": "d0d3d59b2850545abe00bed5ebf86b22", "lat": 38.91655316666667, "lon": -77.0247395, "rental_uris": {"android": "https://dc.lft.to/lastmile_qr_scan", "ios": "https://dc.lft.to/lastmile_qr_scan"}, "is_disabled": 0, "fusion_lat": 0.0, "name": "d0d3d59b2850545abe00bed5ebf86b22", "fusion_lon": 0.0}, {"is_reserved": 0, "type": "electric_scooter", "bike_id": "4828db0ab1a89def27241b24b8695da8", "lat": 38.86587383333333, "lon": -76.97455833333333, "rental_uris": {"android": "https://dc.lft.to/lastmile_qr_scan", "ios": "https://dc.lft.to/lastmile_qr_scan"}, "is_disabled": 0, "fusion_lat": 0.0, "name": "4828db0ab1a89def27241b24b8695da8", "fusion_lon": 0.0}, {"is_reserved": 0, "type": "electric_scooter", "bike_id": "6dbeb2dcf78e6db78bb011b7014a8e30", "lat": 38.92456416666667, "lon": -77.05225583333333, "rental_uris": {"android": "https://dc.lft.to/lastmile_qr_scan", "ios": "https://dc.lft.to/lastmile_qr_scan"}, "is_disabled": 0, "fusion_lat": 0.0, "name": "6dbeb2dcf78e6db78bb011b7014a8e30", "fusion_lon": 0.0}, {"is_reserved": 0, "type": "electric_scooter", "bike_id": "3a927d6e7f57b1549c1ffdab02360c08", "lat": 38.8867315, "lon": -77.00192433333333, "rental_uris": {"android": "https://dc.lft.to/lastmile_qr_scan", "ios": "https://dc.lft.to/lastmile_qr_scan"}, "is_disabled": 0, "fusion_lat": 0.0, "name": "3a927d6e7f57b1549c1ffdab02360c08", "fusion_lon": 0.0}, {"is_reserved": 0, "type": "electric_scooter", "bike_id": "5a00598815042abfbb307bcf43423b63", "lat": 38.92269366666667, "lon": -77.01980233333333, "rental_uris": {"android": "https://dc.lft.to/lastmile_qr_scan", "ios": "https://dc.lft.to/lastmile_qr_scan"}, "is_disabled": 0, "fusion_lat": 0.0, "name": "5a00598815042abfbb307bcf43423b63", "fusion_lon": 0.0}, {"is_reserved": 0, "type": "electric_scooter", "bike_id": "0007a7ce4f538e8793c59ce40ff3175a", "lat": 38.90958833333333, "lon": -77.031585, "rental_uris": {"android": "https://dc.lft.to/lastmile_qr_scan", "ios": "https://dc.lft.to/lastmile_qr_scan"}, "is_disabled": 0, "fusion_lat": 0.0, "name": "0007a7ce4f538e8793c59ce40ff3175a", "fusion_lon": 0.0}, {"is_reserved": 0, "type": "electric_scooter", "bike_id": "b6d60d1019192ffdfa23a7b7240a2b46", "lat": 38.926900333333336, "lon": -77.025795, "rental_uris": {"android": "https://dc.lft.to/lastmile_qr_scan", "ios": "https://dc.lft.to/lastmile_qr_scan"}, "is_disabled": 0, "fusion_lat": 0.0, "name": "b6d60d1019192ffdfa23a7b7240a2b46", "fusion_lon": 0.0}, {"is_reserved": 0, "type": "electric_bike", "bike_id": "5b82b831bfe2e070d8d74767f64adc25", "lat": 38.941529833333334, "lon": -77.00194866666666, "rental_uris": {"android": "https://dc.lft.to/lastmile_qr_scan", "ios": "https://dc.lft.to/lastmile_qr_scan"}, "is_disabled": 0, "fusion_lat": 0.0, "name": "5b82b831bfe2e070d8d74767f64adc25", "fusion_lon": 0.0}, {"is_reserved": 0, "type": "electric_scooter", "bike_id": "ec3bbe23cc0d90ee77f5551db522d9ad", "lat": 38.897046833333334, "lon": -77.00493533333334, "rental_uris": {"android": "https://dc.lft.to/lastmile_qr_scan", "ios": "https://dc.lft.to/lastmile_qr_scan"}, "is_disabled": 0, "fusion_lat": 0.0, "name": "ec3bbe23cc0d90ee77f5551db522d9ad", "fusion_lon": 0.0}, {"is_reserved": 0, "type": "electric_scooter", "bike_id": "b0ec41715c0b5f4c202b00fc6cb44303", "lat": 38.90064866666667, "lon": -77.04878283333333, "rental_uris": {"android": "https://dc.lft.to/lastmile_qr_scan", "ios": "https://dc.lft.to/lastmile_qr_scan"}, "is_disabled": 0, "fusion_lat": 0.0, "name": "b0ec41715c0b5f4c202b00fc6cb44303", "fusion_lon": 0.0}, {"is_reserved": 0, "type": "electric_bike", "bike_id": "5e5b330af5bcaca8e08769732547ce29", "lat": 38.84532933333333, "lon": -77.07634183333333, "rental_uris": {"android": "https://dc.lft.to/lastmile_qr_scan", "ios": "https://dc.lft.to/lastmile_qr_scan"}, "is_disabled": 0, "fusion_lat": 0.0, "name": "5e5b330af5bcaca8e08769732547ce29", "fusion_lon": 0.0}, {"is_reserved": 0, "type": "electric_scooter", "bike_id": "48b965350ab6f77a659e63c85289faf3", "lat": 38.92602883333333, "lon": -77.024936, "rental_uris": {"android": "https://dc.lft.to/lastmile_qr_scan", "ios": "https://dc.lft.to/lastmile_qr_scan"}, "is_disabled": 0, "fusion_lat": 0.0, "name": "48b965350ab6f77a659e63c85289faf3", "fusion_lon": 0.0}, {"is_reserved": 0, "type": "electric_bike", "bike_id": "f536c513f399af0304b7b5225c0b0de8", "lat": 38.882465333333336, "lon": -76.9625845, "rental_uris": {"android": "https://dc.lft.to/lastmile_qr_scan", "ios": "https://dc.lft.to/lastmile_qr_scan"}, "is_disabled": 0, "fusion_lat": 0.0, "name": "f536c513f399af0304b7b5225c0b0de8", "fusion_lon": 0.0}, {"is_reserved": 0, "type": "electric_scooter", "bike_id": "b4facc106b294326be2e58a577744c02", "lat": 38.9181265, "lon": -77.02475733333333, "rental_uris": {"android": "https://dc.lft.to/lastmile_qr_scan", "ios": "https://dc.lft.to/lastmile_qr_scan"}, "is_disabled": 0, "fusion_lat": 0.0, "name": "b4facc106b294326be2e58a577744c02", "fusion_lon": 0.0}, {"is_reserved": 0, "type": "electric_scooter", "bike_id": "f996f43b4a1c5bef552c1b08489c439e", "lat": 38.896758166666665, "lon": -77.05038566666667, "rental_uris": {"android": "https://dc.lft.to/lastmile_qr_scan", "ios": "https://dc.lft.to/lastmile_qr_scan"}, "is_disabled": 0, "fusion_lat": 0.0, "name": "f996f43b4a1c5bef552c1b08489c439e", "fusion_lon": 0.0}, {"is_reserved": 0, "type": "electric_scooter", "bike_id": "b74a4f2b2b4c0270ace0afa9a2123203", "lat": 38.906142, "lon": -77.0200135, "rental_uris": {"android": "https://dc.lft.to/lastmile_qr_scan", "ios": "https://dc.lft.to/lastmile_qr_scan"}, "is_disabled": 0, "fusion_lat": 0.0, "name": "b74a4f2b2b4c0270ace0afa9a2123203", "fusion_lon": 0.0}, {"is_reserved": 0, "type": "electric_scooter", "bike_id": "3ed1d3f1c3ca225be046ef83e6e1e8b0", "lat": 38.926107, "lon": -77.02161766666667, "rental_uris": {"android": "https://dc.lft.to/lastmile_qr_scan", "ios": "https://dc.lft.to/lastmile_qr_scan"}, "is_disabled": 0, "fusion_lat": 0.0, "name": "3ed1d3f1c3ca225be046ef83e6e1e8b0", "fusion_lon": 0.0}, {"is_reserved": 0, "type": "electric_scooter", "bike_id": "6f1d17c2e8a3c9f7243d7b79d3e118a6", "lat": 38.907661, "lon": -77.03206183333333, "rental_uris": {"android": "https://dc.lft.to/lastmile_qr_scan", "ios": "https://dc.lft.to/lastmile_qr_scan"}, "is_disabled": 0, "fusion_lat": 0.0, "name": "6f1d17c2e8a3c9f7243d7b79d3e118a6", "fusion_lon": 0.0}, {"is_reserved": 0, "type": "electric_scooter", "bike_id": "c3f3984dc5ecd5a4d36bac47db6ea35f", "lat": 38.92503716666667, "lon": -77.0387665, "rental_uris": {"android": "https://dc.lft.to/lastmile_qr_scan", "ios": "https://dc.lft.to/lastmile_qr_scan"}, "is_disabled": 0, "fusion_lat": 0.0, "name": "c3f3984dc5ecd5a4d36bac47db6ea35f", "fusion_lon": 0.0}, {"is_reserved": 0, "type": "electric_scooter", "bike_id": "5a388bc97b7551045f39bfcaa6cd7be4", "lat": 38.92367083333333, "lon": -77.01916083333333, "rental_uris": {"android": "https://dc.lft.to/lastmile_qr_scan", "ios": "https://dc.lft.to/lastmile_qr_scan"}, "is_disabled": 0, "fusion_lat": 0.0, "name": "5a388bc97b7551045f39bfcaa6cd7be4", "fusion_lon": 0.0}, {"is_reserved": 0, "type": "electric_scooter", "bike_id": "2c437adba5fcdf1bfd864ba041c6fe97", "lat": 38.915576, "lon": -77.03113516666667, "rental_uris": {"android": "https://dc.lft.to/lastmile_qr_scan", "ios": "https://dc.lft.to/lastmile_qr_scan"}, "is_disabled": 0, "fusion_lat": 0.0, "name": "2c437adba5fcdf1bfd864ba041c6fe97", "fusion_lon": 0.0}, {"is_reserved": 0, "type": "electric_scooter", "bike_id": "6d02568bd63ec781a2ed825a6ac2f6b3", "lat": 38.89610616666667, "lon": -77.04409466666667, "rental_uris": {"android": "https://dc.lft.to/lastmile_qr_scan", "ios": "https://dc.lft.to/lastmile_qr_scan"}, "is_disabled": 0, "fusion_lat": 0.0, "name": "6d02568bd63ec781a2ed825a6ac2f6b3", "fusion_lon": 0.0}, {"is_reserved": 0, "type": "electric_scooter", "bike_id": "418a28665cc7a3c27182200b3f64c8df", "lat": 38.8942345, "lon": -77.0559665, "rental_uris": {"android": "https://dc.lft.to/lastmile_qr_scan", "ios": "https://dc.lft.to/lastmile_qr_scan"}, "is_disabled": 0, "fusion_lat": 0.0, "name": "418a28665cc7a3c27182200b3f64c8df", "fusion_lon": 0.0}, {"is_reserved": 0, "type": "electric_scooter", "bike_id": "c0914b005134fa632f9abce0bc96ce63", "lat": 38.89397133333333, "lon": -77.029647, "rental_uris": {"android": "https://dc.lft.to/lastmile_qr_scan", "ios": "https://dc.lft.to/lastmile_qr_scan"}, "is_disabled": 0, "fusion_lat": 0.0, "name": "c0914b005134fa632f9abce0bc96ce63", "fusion_lon": 0.0}, {"is_reserved": 0, "type": "electric_scooter", "bike_id": "b0d01938d32be95d38e71d81d51c173d", "lat": 38.972393333333336, "lon": -77.02712933333333, "rental_uris": {"android": "https://dc.lft.to/lastmile_qr_scan", "ios": "https://dc.lft.to/lastmile_qr_scan"}, "is_disabled": 0, "fusion_lat": 0.0, "name": "b0d01938d32be95d38e71d81d51c173d", "fusion_lon": 0.0}, {"is_reserved": 0, "type": "electric_scooter", "bike_id": "a430396aaf62fccd0cf15a2f2d8013eb", "lat": 38.918783, "lon": -77.04718733333333, "rental_uris": {"android": "https://dc.lft.to/lastmile_qr_scan", "ios": "https://dc.lft.to/lastmile_qr_scan"}, "is_disabled": 0, "fusion_lat": 0.0, "name": "a430396aaf62fccd0cf15a2f2d8013eb", "fusion_lon": 0.0}, {"is_reserved": 0, "type": "electric_scooter", "bike_id": "26612789924929a58a79cae83582a9b4", "lat": 38.865226666666665, "lon": -76.96902616666667, "rental_uris": {"android": "https://dc.lft.to/lastmile_qr_scan", "ios": "https://dc.lft.to/lastmile_qr_scan"}, "is_disabled": 0, "fusion_lat": 0.0, "name": "26612789924929a58a79cae83582a9b4", "fusion_lon": 0.0}, {"is_reserved": 0, "type": "electric_scooter", "bike_id": "f79c39e47998380128368db28c15aab3", "lat": 38.9276325, "lon": -77.027733, "rental_uris": {"android": "https://dc.lft.to/lastmile_qr_scan", "ios": "https://dc.lft.to/lastmile_qr_scan"}, "is_disabled": 0, "fusion_lat": 0.0, "name": "f79c39e47998380128368db28c15aab3", "fusion_lon": 0.0}, {"is_reserved": 0, "type": "electric_bike", "bike_id": "a4c787d756d2bd4d0106144c43853997", "lat": 38.80248533333334, "lon": -77.11433866666667, "rental_uris": {"android": "https://dc.lft.to/lastmile_qr_scan", "ios": "https://dc.lft.to/lastmile_qr_scan"}, "is_disabled": 0, "fusion_lat": 0.0, "name": "a4c787d756d2bd4d0106144c43853997", "fusion_lon": 0.0}, {"is_reserved": 0, "type": "electric_scooter", "bike_id": "890f66334ffa83e85ae74319369c6230", "lat": 38.9176745, "lon": -77.0405815, "rental_uris": {"android": "https://dc.lft.to/lastmile_qr_scan", "ios": "https://dc.lft.to/lastmile_qr_scan"}, "is_disabled": 0, "fusion_lat": 0.0, "name": "890f66334ffa83e85ae74319369c6230", "fusion_lon": 0.0}, {"is_reserved": 0, "type": "electric_scooter", "bike_id": "cc8788e9cac96a29fa024df804e03edd", "lat": 38.90478783333333, "lon": -77.04852283333334, "rental_uris": {"android": "https://dc.lft.to/lastmile_qr_scan", "ios": "https://dc.lft.to/lastmile_qr_scan"}, "is_disabled": 0, "fusion_lat": 0.0, "name": "cc8788e9cac96a29fa024df804e03edd", "fusion_lon": 0.0}, {"is_reserved": 0, "type": "electric_scooter", "bike_id": "f04bf5d9b4bcc8614564531be7f0c2f2", "lat": 38.886899666666665, "lon": -77.0200735, "rental_uris": {"android": "https://dc.lft.to/lastmile_qr_scan", "ios": "https://dc.lft.to/lastmile_qr_scan"}, "is_disabled": 0, "fusion_lat": 0.0, "name": "f04bf5d9b4bcc8614564531be7f0c2f2", "fusion_lon": 0.0}, {"is_reserved": 0, "type": "electric_scooter", "bike_id": "8dea3033bd27866184afb921756be237", "lat": 38.911893166666665, "lon": -77.0073415, "rental_uris": {"android": "https://dc.lft.to/lastmile_qr_scan", "ios": "https://dc.lft.to/lastmile_qr_scan"}, "is_disabled": 0, "fusion_lat": 0.0, "name": "8dea3033bd27866184afb921756be237", "fusion_lon": 0.0}, {"is_reserved": 0, "type": "electric_scooter", "bike_id": "480d3cb0a4e8771dfd69d7b813a14e9b", "lat": 38.95952233333333, "lon": -77.07262316666667, "rental_uris": {"android": "https://dc.lft.to/lastmile_qr_scan", "ios": "https://dc.lft.to/lastmile_qr_scan"}, "is_disabled": 0, "fusion_lat": 0.0, "name": "480d3cb0a4e8771dfd69d7b813a14e9b", "fusion_lon": 0.0}, {"is_reserved": 0, "type": "electric_scooter", "bike_id": "5106a7d327bd3f9fe949f83d1e212898", "lat": 38.9248845, "lon": -77.02712616666666, "rental_uris": {"android": "https://dc.lft.to/lastmile_qr_scan", "ios": "https://dc.lft.to/lastmile_qr_scan"}, "is_disabled": 0, "fusion_lat": 0.0, "name": "5106a7d327bd3f9fe949f83d1e212898", "fusion_lon": 0.0}, {"is_reserved": 0, "type": "electric_scooter", "bike_id": "d9d2379744451328f63270c871c59844", "lat": 38.89993483333333, "lon": -77.02195383333333, "rental_uris": {"android": "https://dc.lft.to/lastmile_qr_scan", "ios": "https://dc.lft.to/lastmile_qr_scan"}, "is_disabled": 0, "fusion_lat": 0.0, "name": "d9d2379744451328f63270c871c59844", "fusion_lon": 0.0}, {"is_reserved": 0, "type": "electric_scooter", "bike_id": "9c978fdb7db278784464fae54ad4480e", "lat": 38.895421666666664, "lon": -76.98497166666667, "rental_uris": {"android": "https://dc.lft.to/lastmile_qr_scan", "ios": "https://dc.lft.to/lastmile_qr_scan"}, "is_disabled": 0, "fusion_lat": 0.0, "name": "9c978fdb7db278784464fae54ad4480e", "fusion_lon": 0.0}, {"is_reserved": 0, "type": "electric_scooter", "bike_id": "d080a14d98b50251aea4bad93bfc95f1", "lat": 38.93416716666667, "lon": -77.0284375, "rental_uris": {"android": "https://dc.lft.to/lastmile_qr_scan", "ios": "https://dc.lft.to/lastmile_qr_scan"}, "is_disabled": 0, "fusion_lat": 0.0, "name": "d080a14d98b50251aea4bad93bfc95f1", "fusion_lon": 0.0}, {"is_reserved": 0, "type": "electric_scooter", "bike_id": "46ba8b2a36942e5845bfff8402bb785f", "lat": 38.895901, "lon": -77.0262355, "rental_uris": {"android": "https://dc.lft.to/lastmile_qr_scan", "ios": "https://dc.lft.to/lastmile_qr_scan"}, "is_disabled": 0, "fusion_lat": 0.0, "name": "46ba8b2a36942e5845bfff8402bb785f", "fusion_lon": 0.0}, {"is_reserved": 0, "type": "electric_scooter", "bike_id": "9c70ac8d0a96506706ac4c370e9b0bd0", "lat": 38.919298, "lon": -77.01977283333333, "rental_uris": {"android": "https://dc.lft.to/lastmile_qr_scan", "ios": "https://dc.lft.to/lastmile_qr_scan"}, "is_disabled": 0, "fusion_lat": 0.0, "name": "9c70ac8d0a96506706ac4c370e9b0bd0", "fusion_lon": 0.0}, {"is_reserved": 0, "type": "electric_scooter", "bike_id": "63b669108035882cdabd1a92f7cbca4f", "lat": 38.936369166666665, "lon": -77.06004633333333, "rental_uris": {"android": "https://dc.lft.to/lastmile_qr_scan", "ios": "https://dc.lft.to/lastmile_qr_scan"}, "is_disabled": 0, "fusion_lat": 0.0, "name": "63b669108035882cdabd1a92f7cbca4f", "fusion_lon": 0.0}, {"is_reserved": 0, "type": "electric_scooter", "bike_id": "fbe9aec472c39d3b8e6850c6f3ccd1d9", "lat": 38.914946666666665, "lon": -77.0199575, "rental_uris": {"android": "https://dc.lft.to/lastmile_qr_scan", "ios": "https://dc.lft.to/lastmile_qr_scan"}, "is_disabled": 0, "fusion_lat": 0.0, "name": "fbe9aec472c39d3b8e6850c6f3ccd1d9", "fusion_lon": 0.0}, {"is_reserved": 0, "type": "electric_scooter", "bike_id": "adcc02b3927f6503bcdecb76f236fd02", "lat": 38.897101166666666, "lon": -76.99116683333334, "rental_uris": {"android": "https://dc.lft.to/lastmile_qr_scan", "ios": "https://dc.lft.to/lastmile_qr_scan"}, "is_disabled": 0, "fusion_lat": 0.0, "name": "adcc02b3927f6503bcdecb76f236fd02", "fusion_lon": 0.0}, {"is_reserved": 0, "type": "electric_scooter", "bike_id": "09e525c46aa82d0cefeb0dff0dfbd9c2", "lat": 38.927964833333334, "lon": -77.0360015, "rental_uris": {"android": "https://dc.lft.to/lastmile_qr_scan", "ios": "https://dc.lft.to/lastmile_qr_scan"}, "is_disabled": 0, "fusion_lat": 0.0, "name": "09e525c46aa82d0cefeb0dff0dfbd9c2", "fusion_lon": 0.0}, {"is_reserved": 0, "type": "electric_scooter", "bike_id": "226286d929f7d93d653572adf29ab49a", "lat": 38.86447533333333, "lon": -76.99111983333333, "rental_uris": {"android": "https://dc.lft.to/lastmile_qr_scan", "ios": "https://dc.lft.to/lastmile_qr_scan"}, "is_disabled": 0, "fusion_lat": 0.0, "name": "226286d929f7d93d653572adf29ab49a", "fusion_lon": 0.0}, {"is_reserved": 0, "type": "electric_scooter", "bike_id": "7f2b0e0ac97b018b8b221dc35efc4add", "lat": 38.92374216666666, "lon": -77.08051583333334, "rental_uris": {"android": "https://dc.lft.to/lastmile_qr_scan", "ios": "https://dc.lft.to/lastmile_qr_scan"}, "is_disabled": 0, "fusion_lat": 0.0, "name": "7f2b0e0ac97b018b8b221dc35efc4add", "fusion_lon": 0.0}, {"is_reserved": 0, "type": "electric_scooter", "bike_id": "4f1fe552bbac5cc624dea7eeba78153a", "lat": 38.972941, "lon": -77.03625233333334, "rental_uris": {"android": "https://dc.lft.to/lastmile_qr_scan", "ios": "https://dc.lft.to/lastmile_qr_scan"}, "is_disabled": 0, "fusion_lat": 0.0, "name": "4f1fe552bbac5cc624dea7eeba78153a", "fusion_lon": 0.0}, {"is_reserved": 0, "type": "electric_scooter", "bike_id": "5a6e4e7654c7f19dfc93d953124c8a98", "lat": 38.92493983333333, "lon": -77.05223783333334, "rental_uris": {"android": "https://dc.lft.to/lastmile_qr_scan", "ios": "https://dc.lft.to/lastmile_qr_scan"}, "is_disabled": 0, "fusion_lat": 0.0, "name": "5a6e4e7654c7f19dfc93d953124c8a98", "fusion_lon": 0.0}, {"is_reserved": 0, "type": "electric_scooter", "bike_id": "e65ca162868feb525922bd1b3a46b9b4", "lat": 38.900209833333335, "lon": -76.9984095, "rental_uris": {"android": "https://dc.lft.to/lastmile_qr_scan", "ios": "https://dc.lft.to/lastmile_qr_scan"}, "is_disabled": 0, "fusion_lat": 0.0, "name": "e65ca162868feb525922bd1b3a46b9b4", "fusion_lon": 0.0}, {"is_reserved": 0, "type": "electric_scooter", "bike_id": "42e54e671ae47bfe844302f81541449c", "lat": 38.887403666666664, "lon": -77.03147016666667, "rental_uris": {"android": "https://dc.lft.to/lastmile_qr_scan", "ios": "https://dc.lft.to/lastmile_qr_scan"}, "is_disabled": 0, "fusion_lat": 0.0, "name": "42e54e671ae47bfe844302f81541449c", "fusion_lon": 0.0}, {"is_reserved": 0, "type": "electric_scooter", "bike_id": "50dce573fcfc7b74eaa59ec4d7ca3c1e", "lat": 38.9171635, "lon": -77.0385615, "rental_uris": {"android": "https://dc.lft.to/lastmile_qr_scan", "ios": "https://dc.lft.to/lastmile_qr_scan"}, "is_disabled": 0, "fusion_lat": 0.0, "name": "50dce573fcfc7b74eaa59ec4d7ca3c1e", "fusion_lon": 0.0}, {"is_reserved": 0, "type": "electric_scooter", "bike_id": "6d0d9d663d644e1b37f830a959942ccb", "lat": 38.9248135, "lon": -77.02819566666666, "rental_uris": {"android": "https://dc.lft.to/lastmile_qr_scan", "ios": "https://dc.lft.to/lastmile_qr_scan"}, "is_disabled": 0, "fusion_lat": 0.0, "name": "6d0d9d663d644e1b37f830a959942ccb", "fusion_lon": 0.0}, {"is_reserved": 0, "type": "electric_scooter", "bike_id": "360e03aaaa96b4e37c56ffd6d30365c3", "lat": 38.90571816666667, "lon": -77.03473516666666, "rental_uris": {"android": "https://dc.lft.to/lastmile_qr_scan", "ios": "https://dc.lft.to/lastmile_qr_scan"}, "is_disabled": 0, "fusion_lat": 0.0, "name": "360e03aaaa96b4e37c56ffd6d30365c3", "fusion_lon": 0.0}, {"is_reserved": 0, "type": "electric_bike", "bike_id": "3541e87819f8ff50858885afa496ab9b", "lat": 39.09445566666667, "lon": -77.13458483333334, "rental_uris": {"android": "https://dc.lft.to/lastmile_qr_scan", "ios": "https://dc.lft.to/lastmile_qr_scan"}, "is_disabled": 0, "fusion_lat": 0.0, "name": "3541e87819f8ff50858885afa496ab9b", "fusion_lon": 0.0}, {"is_reserved": 0, "type": "electric_scooter", "bike_id": "79ed336099105982abde4b75d074412b", "lat": 38.930233, "lon": -77.03786716666667, "rental_uris": {"android": "https://dc.lft.to/lastmile_qr_scan", "ios": "https://dc.lft.to/lastmile_qr_scan"}, "is_disabled": 0, "fusion_lat": 0.0, "name": "79ed336099105982abde4b75d074412b", "fusion_lon": 0.0}, {"is_reserved": 0, "type": "electric_scooter", "bike_id": "c19573dd3666aa81afdf139a8ce42f1b", "lat": 38.915614833333336, "lon": -77.03329633333334, "rental_uris": {"android": "https://dc.lft.to/lastmile_qr_scan", "ios": "https://dc.lft.to/lastmile_qr_scan"}, "is_disabled": 0, "fusion_lat": 0.0, "name": "c19573dd3666aa81afdf139a8ce42f1b", "fusion_lon": 0.0}, {"is_reserved": 0, "type": "electric_scooter", "bike_id": "98a4c509014d50117aed18e0019270c4", "lat": 38.9279265, "lon": -77.02536566666667, "rental_uris": {"android": "https://dc.lft.to/lastmile_qr_scan", "ios": "https://dc.lft.to/lastmile_qr_scan"}, "is_disabled": 0, "fusion_lat": 0.0, "name": "98a4c509014d50117aed18e0019270c4", "fusion_lon": 0.0}, {"is_reserved": 0, "type": "electric_scooter", "bike_id": "83d63f6733cfc6f97c5c8ca89dedf9a2", "lat": 38.92042683333333, "lon": -77.04200066666667, "rental_uris": {"android": "https://dc.lft.to/lastmile_qr_scan", "ios": "https://dc.lft.to/lastmile_qr_scan"}, "is_disabled": 0, "fusion_lat": 0.0, "name": "83d63f6733cfc6f97c5c8ca89dedf9a2", "fusion_lon": 0.0}, {"is_reserved": 0, "type": "electric_scooter", "bike_id": "012e891e03bee4c33f7efa7b2fb34fcd", "lat": 38.919722666666665, "lon": -77.04139916666666, "rental_uris": {"android": "https://dc.lft.to/lastmile_qr_scan", "ios": "https://dc.lft.to/lastmile_qr_scan"}, "is_disabled": 0, "fusion_lat": 0.0, "name": "012e891e03bee4c33f7efa7b2fb34fcd", "fusion_lon": 0.0}, {"is_reserved": 0, "type": "electric_scooter", "bike_id": "a1002667ae3401cbf60c525800bd70aa", "lat": 38.87291366666667, "lon": -77.002284, "rental_uris": {"android": "https://dc.lft.to/lastmile_qr_scan", "ios": "https://dc.lft.to/lastmile_qr_scan"}, "is_disabled": 0, "fusion_lat": 0.0, "name": "a1002667ae3401cbf60c525800bd70aa", "fusion_lon": 0.0}, {"is_reserved": 0, "type": "electric_scooter", "bike_id": "fbb79061ce25595588135ddc33c82386", "lat": 38.8913745, "lon": -76.99946583333333, "rental_uris": {"android": "https://dc.lft.to/lastmile_qr_scan", "ios": "https://dc.lft.to/lastmile_qr_scan"}, "is_disabled": 0, "fusion_lat": 0.0, "name": "fbb79061ce25595588135ddc33c82386", "fusion_lon": 0.0}, {"is_reserved": 0, "type": "electric_scooter", "bike_id": "1f9e40d1ebda2e3cd62d2dad4c8ef9ee", "lat": 38.92285866666667, "lon": -77.03400016666667, "rental_uris": {"android": "https://dc.lft.to/lastmile_qr_scan", "ios": "https://dc.lft.to/lastmile_qr_scan"}, "is_disabled": 0, "fusion_lat": 0.0, "name": "1f9e40d1ebda2e3cd62d2dad4c8ef9ee", "fusion_lon": 0.0}, {"is_reserved": 0, "type": "electric_scooter", "bike_id": "192b21da0494fc5e209e6ff2e185bb69", "lat": 38.9238015, "lon": -77.030614, "rental_uris": {"android": "https://dc.lft.to/lastmile_qr_scan", "ios": "https://dc.lft.to/lastmile_qr_scan"}, "is_disabled": 0, "fusion_lat": 0.0, "name": "192b21da0494fc5e209e6ff2e185bb69", "fusion_lon": 0.0}, {"is_reserved": 0, "type": "electric_scooter", "bike_id": "91c294d4e0f26c88db03af4a80bbb959", "lat": 38.91107316666667, "lon": -77.03254666666666, "rental_uris": {"android": "https://dc.lft.to/lastmile_qr_scan", "ios": "https://dc.lft.to/lastmile_qr_scan"}, "is_disabled": 0, "fusion_lat": 0.0, "name": "91c294d4e0f26c88db03af4a80bbb959", "fusion_lon": 0.0}, {"is_reserved": 0, "type": "electric_scooter", "bike_id": "db34b6775b3ea3d59573496dc1c5431e", "lat": 38.920291166666665, "lon": -76.98542583333334, "rental_uris": {"android": "https://dc.lft.to/lastmile_qr_scan", "ios": "https://dc.lft.to/lastmile_qr_scan"}, "is_disabled": 0, "fusion_lat": 0.0, "name": "db34b6775b3ea3d59573496dc1c5431e", "fusion_lon": 0.0}, {"is_reserved": 0, "type": "electric_scooter", "bike_id": "b340f0758f99224f638f00bda852d209", "lat": 38.88770516666666, "lon": -76.93259916666666, "rental_uris": {"android": "https://dc.lft.to/lastmile_qr_scan", "ios": "https://dc.lft.to/lastmile_qr_scan"}, "is_disabled": 0, "fusion_lat": 0.0, "name": "b340f0758f99224f638f00bda852d209", "fusion_lon": 0.0}, {"is_reserved": 0, "type": "electric_scooter", "bike_id": "e4138ed8b495d7517305865fa7e56453", "lat": 38.872910166666664, "lon": -76.97151233333334, "rental_uris": {"android": "https://dc.lft.to/lastmile_qr_scan", "ios": "https://dc.lft.to/lastmile_qr_scan"}, "is_disabled": 0, "fusion_lat": 0.0, "name": "e4138ed8b495d7517305865fa7e56453", "fusion_lon": 0.0}, {"is_reserved": 0, "type": "electric_bike", "bike_id": "e0215bc0882a3d788914efbcc0bceb41", "lat": 38.86755466666666, "lon": -76.94528933333333, "rental_uris": {"android": "https://dc.lft.to/lastmile_qr_scan", "ios": "https://dc.lft.to/lastmile_qr_scan"}, "is_disabled": 0, "fusion_lat": 0.0, "name": "e0215bc0882a3d788914efbcc0bceb41", "fusion_lon": 0.0}, {"is_reserved": 0, "type": "electric_bike", "bike_id": "212fd1bd03d620bccdc565d7163960a5", "lat": 38.90375516666667, "lon": -77.06267116666666, "rental_uris": {"android": "https://dc.lft.to/lastmile_qr_scan", "ios": "https://dc.lft.to/lastmile_qr_scan"}, "is_disabled": 0, "fusion_lat": 0.0, "name": "212fd1bd03d620bccdc565d7163960a5", "fusion_lon": 0.0}, {"is_reserved": 0, "type": "electric_scooter", "bike_id": "e6560e02e7dfd3bda5b7931bb2903ff9", "lat": 38.89532916666667, "lon": -77.04474866666666, "rental_uris": {"android": "https://dc.lft.to/lastmile_qr_scan", "ios": "https://dc.lft.to/lastmile_qr_scan"}, "is_disabled": 0, "fusion_lat": 0.0, "name": "e6560e02e7dfd3bda5b7931bb2903ff9", "fusion_lon": 0.0}, {"is_reserved": 0, "type": "electric_scooter", "bike_id": "fbf276dfd5e4b838e430a68855aea6f4", "lat": 38.909499333333336, "lon": -77.02384516666666, "rental_uris": {"android": "https://dc.lft.to/lastmile_qr_scan", "ios": "https://dc.lft.to/lastmile_qr_scan"}, "is_disabled": 0, "fusion_lat": 0.0, "name": "fbf276dfd5e4b838e430a68855aea6f4", "fusion_lon": 0.0}, {"is_reserved": 0, "type": "electric_scooter", "bike_id": "772aef1f8a6e90a0e4138948be442a2f", "lat": 38.919809, "lon": -77.04176716666667, "rental_uris": {"android": "https://dc.lft.to/lastmile_qr_scan", "ios": "https://dc.lft.to/lastmile_qr_scan"}, "is_disabled": 0, "fusion_lat": 0.0, "name": "772aef1f8a6e90a0e4138948be442a2f", "fusion_lon": 0.0}, {"is_reserved": 0, "type": "electric_scooter", "bike_id": "ff84d04d6b97b69c7e56e086d19dac91", "lat": 38.914763, "lon": -77.032314, "rental_uris": {"android": "https://dc.lft.to/lastmile_qr_scan", "ios": "https://dc.lft.to/lastmile_qr_scan"}, "is_disabled": 0, "fusion_lat": 0.0, "name": "ff84d04d6b97b69c7e56e086d19dac91", "fusion_lon": 0.0}, {"is_reserved": 0, "type": "electric_scooter", "bike_id": "28e2babc0d1b6242bb48402982ddf2e7", "lat": 38.9573845, "lon": -77.03018633333333, "rental_uris": {"android": "https://dc.lft.to/lastmile_qr_scan", "ios": "https://dc.lft.to/lastmile_qr_scan"}, "is_disabled": 0, "fusion_lat": 0.0, "name": "28e2babc0d1b6242bb48402982ddf2e7", "fusion_lon": 0.0}, {"is_reserved": 0, "type": "electric_bike", "bike_id": "2ba83156a8e147837d3eaa41d2e29bce", "lat": 39.08491383333333, "lon": -76.95058383333334, "rental_uris": {"android": "https://dc.lft.to/lastmile_qr_scan", "ios": "https://dc.lft.to/lastmile_qr_scan"}, "is_disabled": 0, "fusion_lat": 0.0, "name": "2ba83156a8e147837d3eaa41d2e29bce", "fusion_lon": 0.0}, {"is_reserved": 0, "type": "electric_scooter", "bike_id": "b123c84e0e616c980b7182b01e7015cd", "lat": 38.918336333333336, "lon": -77.02451233333333, "rental_uris": {"android": "https://dc.lft.to/lastmile_qr_scan", "ios": "https://dc.lft.to/lastmile_qr_scan"}, "is_disabled": 0, "fusion_lat": 0.0, "name": "b123c84e0e616c980b7182b01e7015cd", "fusion_lon": 0.0}, {"is_reserved": 0, "type": "electric_scooter", "bike_id": "3e342ba79775e32526b86406bc937378", "lat": 38.89489733333333, "lon": -77.026937, "rental_uris": {"android": "https://dc.lft.to/lastmile_qr_scan", "ios": "https://dc.lft.to/lastmile_qr_scan"}, "is_disabled": 0, "fusion_lat": 0.0, "name": "3e342ba79775e32526b86406bc937378", "fusion_lon": 0.0}, {"is_reserved": 0, "type": "electric_scooter", "bike_id": "12f9e3aa5f353dd4489b3cfd99e0abe5", "lat": 38.930451, "lon": -77.03616933333333, "rental_uris": {"android": "https://dc.lft.to/lastmile_qr_scan", "ios": "https://dc.lft.to/lastmile_qr_scan"}, "is_disabled": 0, "fusion_lat": 0.0, "name": "12f9e3aa5f353dd4489b3cfd99e0abe5", "fusion_lon": 0.0}, {"is_reserved": 0, "type": "electric_scooter", "bike_id": "62e69e1a5984cc704672d77341eeb909", "lat": 38.94434916666667, "lon": -76.9796095, "rental_uris": {"android": "https://dc.lft.to/lastmile_qr_scan", "ios": "https://dc.lft.to/lastmile_qr_scan"}, "is_disabled": 0, "fusion_lat": 0.0, "name": "62e69e1a5984cc704672d77341eeb909", "fusion_lon": 0.0}, {"is_reserved": 0, "type": "electric_scooter", "bike_id": "66b2fde570133ad78ec2fd3e22bbc1ab", "lat": 38.93993616666667, "lon": -77.01958166666667, "rental_uris": {"android": "https://dc.lft.to/lastmile_qr_scan", "ios": "https://dc.lft.to/lastmile_qr_scan"}, "is_disabled": 0, "fusion_lat": 0.0, "name": "66b2fde570133ad78ec2fd3e22bbc1ab", "fusion_lon": 0.0}, {"is_reserved": 0, "type": "electric_scooter", "bike_id": "74b3fc94a41d293d688c4891644c22c0", "lat": 38.926234666666666, "lon": -77.0432355, "rental_uris": {"android": "https://dc.lft.to/lastmile_qr_scan", "ios": "https://dc.lft.to/lastmile_qr_scan"}, "is_disabled": 0, "fusion_lat": 0.0, "name": "74b3fc94a41d293d688c4891644c22c0", "fusion_lon": 0.0}, {"is_reserved": 0, "type": "electric_scooter", "bike_id": "a44ef98925801acfade0899ebb6c6012", "lat": 38.91934233333333, "lon": -77.04165833333333, "rental_uris": {"android": "https://dc.lft.to/lastmile_qr_scan", "ios": "https://dc.lft.to/lastmile_qr_scan"}, "is_disabled": 0, "fusion_lat": 0.0, "name": "a44ef98925801acfade0899ebb6c6012", "fusion_lon": 0.0}, {"is_reserved": 0, "type": "electric_scooter", "bike_id": "1c0bc5d9870b08c1e531a256f5c8b9ec", "lat": 38.94605, "lon": -77.03055016666667, "rental_uris": {"android": "https://dc.lft.to/lastmile_qr_scan", "ios": "https://dc.lft.to/lastmile_qr_scan"}, "is_disabled": 0, "fusion_lat": 0.0, "name": "1c0bc5d9870b08c1e531a256f5c8b9ec", "fusion_lon": 0.0}, {"is_reserved": 0, "type": "electric_scooter", "bike_id": "329c14cd3502e3d1fe9b447ddeb85dbc", "lat": 38.914030333333336, "lon": -77.02833716666666, "rental_uris": {"android": "https://dc.lft.to/lastmile_qr_scan", "ios": "https://dc.lft.to/lastmile_qr_scan"}, "is_disabled": 0, "fusion_lat": 0.0, "name": "329c14cd3502e3d1fe9b447ddeb85dbc", "fusion_lon": 0.0}, {"is_reserved": 0, "type": "electric_scooter", "bike_id": "f2729017d854ef7e5b8bb604d039794d", "lat": 38.91295216666666, "lon": -76.98475733333333, "rental_uris": {"android": "https://dc.lft.to/lastmile_qr_scan", "ios": "https://dc.lft.to/lastmile_qr_scan"}, "is_disabled": 0, "fusion_lat": 0.0, "name": "f2729017d854ef7e5b8bb604d039794d", "fusion_lon": 0.0}, {"is_reserved": 0, "type": "electric_scooter", "bike_id": "da9714bf58d4ac9f3b28f0348d108f58", "lat": 38.90831816666667, "lon": -76.987197, "rental_uris": {"android": "https://dc.lft.to/lastmile_qr_scan", "ios": "https://dc.lft.to/lastmile_qr_scan"}, "is_disabled": 0, "fusion_lat": 0.0, "name": "da9714bf58d4ac9f3b28f0348d108f58", "fusion_lon": 0.0}, {"is_reserved": 0, "type": "electric_scooter", "bike_id": "ab64eca4fd0ea6ef59e1fef40820ff07", "lat": 38.9269035, "lon": -77.029803, "rental_uris": {"android": "https://dc.lft.to/lastmile_qr_scan", "ios": "https://dc.lft.to/lastmile_qr_scan"}, "is_disabled": 0, "fusion_lat": 0.0, "name": "ab64eca4fd0ea6ef59e1fef40820ff07", "fusion_lon": 0.0}, {"is_reserved": 0, "type": "electric_scooter", "bike_id": "022d16f64c11237500a2db56c098e966", "lat": 38.9010245, "lon": -77.02221583333333, "rental_uris": {"android": "https://dc.lft.to/lastmile_qr_scan", "ios": "https://dc.lft.to/lastmile_qr_scan"}, "is_disabled": 0, "fusion_lat": 0.0, "name": "022d16f64c11237500a2db56c098e966", "fusion_lon": 0.0}, {"is_reserved": 0, "type": "electric_scooter", "bike_id": "aa92a7b54388040d4967115a9d26d6b1", "lat": 38.90795416666667, "lon": -77.03655, "rental_uris": {"android": "https://dc.lft.to/lastmile_qr_scan", "ios": "https://dc.lft.to/lastmile_qr_scan"}, "is_disabled": 0, "fusion_lat": 0.0, "name": "aa92a7b54388040d4967115a9d26d6b1", "fusion_lon": 0.0}, {"is_reserved": 0, "type": "electric_scooter", "bike_id": "df3dfe352b2ba6f3cc919a0c0c61a0a2", "lat": 38.89743266666667, "lon": -77.002211, "rental_uris": {"android": "https://dc.lft.to/lastmile_qr_scan", "ios": "https://dc.lft.to/lastmile_qr_scan"}, "is_disabled": 0, "fusion_lat": 0.0, "name": "df3dfe352b2ba6f3cc919a0c0c61a0a2", "fusion_lon": 0.0}, {"is_reserved": 0, "type": "electric_scooter", "bike_id": "11a217af5faeadd9bc18416d5deb65a9", "lat": 38.917016833333335, "lon": -77.03718066666667, "rental_uris": {"android": "https://dc.lft.to/lastmile_qr_scan", "ios": "https://dc.lft.to/lastmile_qr_scan"}, "is_disabled": 0, "fusion_lat": 0.0, "name": "11a217af5faeadd9bc18416d5deb65a9", "fusion_lon": 0.0}, {"is_reserved": 0, "type": "electric_scooter", "bike_id": "28e0d519f999a15bf259f66eb3a2db03", "lat": 38.88617, "lon": -77.00401066666667, "rental_uris": {"android": "https://dc.lft.to/lastmile_qr_scan", "ios": "https://dc.lft.to/lastmile_qr_scan"}, "is_disabled": 0, "fusion_lat": 0.0, "name": "28e0d519f999a15bf259f66eb3a2db03", "fusion_lon": 0.0}, {"is_reserved": 0, "type": "electric_scooter", "bike_id": "5a6b27ea22b3ea4638973aaf5b537e00", "lat": 38.92704416666667, "lon": -77.02414066666667, "rental_uris": {"android": "https://dc.lft.to/lastmile_qr_scan", "ios": "https://dc.lft.to/lastmile_qr_scan"}, "is_disabled": 0, "fusion_lat": 0.0, "name": "5a6b27ea22b3ea4638973aaf5b537e00", "fusion_lon": 0.0}, {"is_reserved": 0, "type": "electric_bike", "bike_id": "1f4105a793b4599d622d8d68fd1effa3", "lat": 39.010767666666666, "lon": -76.9106025, "rental_uris": {"android": "https://dc.lft.to/lastmile_qr_scan", "ios": "https://dc.lft.to/lastmile_qr_scan"}, "is_disabled": 0, "fusion_lat": 0.0, "name": "1f4105a793b4599d622d8d68fd1effa3", "fusion_lon": 0.0}, {"is_reserved": 0, "type": "electric_scooter", "bike_id": "a665b2223caad7fb1d6ef774161ac49b", "lat": 38.904954000000004, "lon": -77.02972083333333, "rental_uris": {"android": "https://dc.lft.to/lastmile_qr_scan", "ios": "https://dc.lft.to/lastmile_qr_scan"}, "is_disabled": 0, "fusion_lat": 0.0, "name": "a665b2223caad7fb1d6ef774161ac49b", "fusion_lon": 0.0}, {"is_reserved": 0, "type": "electric_scooter", "bike_id": "88b2fa684ef8dcdc04f99a3fa0099c2f", "lat": 38.91946333333333, "lon": -77.01824233333333, "rental_uris": {"android": "https://dc.lft.to/lastmile_qr_scan", "ios": "https://dc.lft.to/lastmile_qr_scan"}, "is_disabled": 0, "fusion_lat": 0.0, "name": "88b2fa684ef8dcdc04f99a3fa0099c2f", "fusion_lon": 0.0}, {"is_reserved": 0, "type": "electric_scooter", "bike_id": "4a2234e6974ca023253f86ef0a8c992c", "lat": 38.918426333333336, "lon": -76.96539583333333, "rental_uris": {"android": "https://dc.lft.to/lastmile_qr_scan", "ios": "https://dc.lft.to/lastmile_qr_scan"}, "is_disabled": 0, "fusion_lat": 0.0, "name": "4a2234e6974ca023253f86ef0a8c992c", "fusion_lon": 0.0}, {"is_reserved": 0, "type": "electric_scooter", "bike_id": "bcc246b13696b27ad47c38df5d1fa636", "lat": 38.93501216666667, "lon": -77.02006166666666, "rental_uris": {"android": "https://dc.lft.to/lastmile_qr_scan", "ios": "https://dc.lft.to/lastmile_qr_scan"}, "is_disabled": 0, "fusion_lat": 0.0, "name": "bcc246b13696b27ad47c38df5d1fa636", "fusion_lon": 0.0}, {"is_reserved": 0, "type": "electric_scooter", "bike_id": "bd5a9b36123e2ea03985de5e0d6f6639", "lat": 38.93655916666667, "lon": -77.054999, "rental_uris": {"android": "https://dc.lft.to/lastmile_qr_scan", "ios": "https://dc.lft.to/lastmile_qr_scan"}, "is_disabled": 0, "fusion_lat": 0.0, "name": "bd5a9b36123e2ea03985de5e0d6f6639", "fusion_lon": 0.0}, {"is_reserved": 0, "type": "electric_scooter", "bike_id": "88832ed4a3f68c4a1637e4c9301d425a", "lat": 38.91814516666667, "lon": -77.04005383333333, "rental_uris": {"android": "https://dc.lft.to/lastmile_qr_scan", "ios": "https://dc.lft.to/lastmile_qr_scan"}, "is_disabled": 0, "fusion_lat": 0.0, "name": "88832ed4a3f68c4a1637e4c9301d425a", "fusion_lon": 0.0}, {"is_reserved": 0, "type": "electric_scooter", "bike_id": "15c2e4ad3aeadad8edeec13b1ac39530", "lat": 38.917057166666666, "lon": -77.03904216666666, "rental_uris": {"android": "https://dc.lft.to/lastmile_qr_scan", "ios": "https://dc.lft.to/lastmile_qr_scan"}, "is_disabled": 0, "fusion_lat": 0.0, "name": "15c2e4ad3aeadad8edeec13b1ac39530", "fusion_lon": 0.0}, {"is_reserved": 0, "type": "electric_scooter", "bike_id": "fdbdaa2bd5fefaad9cd6de5fa479a1fc", "lat": 38.9013975, "lon": -77.03208916666667, "rental_uris": {"android": "https://dc.lft.to/lastmile_qr_scan", "ios": "https://dc.lft.to/lastmile_qr_scan"}, "is_disabled": 0, "fusion_lat": 0.0, "name": "fdbdaa2bd5fefaad9cd6de5fa479a1fc", "fusion_lon": 0.0}, {"is_reserved": 0, "type": "electric_scooter", "bike_id": "ec132d1d9cb05a2572cb91361fd89f3c", "lat": 38.91479483333333, "lon": -77.0097395, "rental_uris": {"android": "https://dc.lft.to/lastmile_qr_scan", "ios": "https://dc.lft.to/lastmile_qr_scan"}, "is_disabled": 0, "fusion_lat": 0.0, "name": "ec132d1d9cb05a2572cb91361fd89f3c", "fusion_lon": 0.0}, {"is_reserved": 0, "type": "electric_scooter", "bike_id": "f00f5fb87a187143396d95af3ac5b6da", "lat": 38.89217633333333, "lon": -77.026255, "rental_uris": {"android": "https://dc.lft.to/lastmile_qr_scan", "ios": "https://dc.lft.to/lastmile_qr_scan"}, "is_disabled": 0, "fusion_lat": 0.0, "name": "f00f5fb87a187143396d95af3ac5b6da", "fusion_lon": 0.0}, {"is_reserved": 0, "type": "electric_scooter", "bike_id": "cd7ce77a697742ee84004c0f304575a3", "lat": 38.9113735, "lon": -77.0366685, "rental_uris": {"android": "https://dc.lft.to/lastmile_qr_scan", "ios": "https://dc.lft.to/lastmile_qr_scan"}, "is_disabled": 0, "fusion_lat": 0.0, "name": "cd7ce77a697742ee84004c0f304575a3", "fusion_lon": 0.0}, {"is_reserved": 0, "type": "electric_scooter", "bike_id": "9352e64a32799452fb321b9dfa2d1ceb", "lat": 38.919380833333335, "lon": -77.04166, "rental_uris": {"android": "https://dc.lft.to/lastmile_qr_scan", "ios": "https://dc.lft.to/lastmile_qr_scan"}, "is_disabled": 0, "fusion_lat": 0.0, "name": "9352e64a32799452fb321b9dfa2d1ceb", "fusion_lon": 0.0}, {"is_reserved": 0, "type": "electric_scooter", "bike_id": "a99e7f1d278eabd2b407650fca59eefb", "lat": 38.9319845, "lon": -76.9961435, "rental_uris": {"android": "https://dc.lft.to/lastmile_qr_scan", "ios": "https://dc.lft.to/lastmile_qr_scan"}, "is_disabled": 0, "fusion_lat": 0.0, "name": "a99e7f1d278eabd2b407650fca59eefb", "fusion_lon": 0.0}, {"is_reserved": 0, "type": "electric_bike", "bike_id": "2f79550cd449d3d8df7b17ffaa05cdfa", "lat": 38.84031133333333, "lon": -76.97612783333334, "rental_uris": {"android": "https://dc.lft.to/lastmile_qr_scan", "ios": "https://dc.lft.to/lastmile_qr_scan"}, "is_disabled": 0, "fusion_lat": 0.0, "name": "2f79550cd449d3d8df7b17ffaa05cdfa", "fusion_lon": 0.0}, {"is_reserved": 0, "type": "electric_bike", "bike_id": "38f8669ac92105aae1a944835fa27b4b", "lat": 38.838096166666666, "lon": -77.095202, "rental_uris": {"android": "https://dc.lft.to/lastmile_qr_scan", "ios": "https://dc.lft.to/lastmile_qr_scan"}, "is_disabled": 0, "fusion_lat": 0.0, "name": "38f8669ac92105aae1a944835fa27b4b", "fusion_lon": 0.0}, {"is_reserved": 0, "type": "electric_scooter", "bike_id": "4660dcd098f1d196ed420d01f78007d5", "lat": 38.89326783333333, "lon": -77.02946216666666, "rental_uris": {"android": "https://dc.lft.to/lastmile_qr_scan", "ios": "https://dc.lft.to/lastmile_qr_scan"}, "is_disabled": 0, "fusion_lat": 0.0, "name": "4660dcd098f1d196ed420d01f78007d5", "fusion_lon": 0.0}, {"is_reserved": 0, "type": "electric_scooter", "bike_id": "0b028d8cf3099faa935488d73595aef3", "lat": 38.938005833333335, "lon": -77.02423366666666, "rental_uris": {"android": "https://dc.lft.to/lastmile_qr_scan", "ios": "https://dc.lft.to/lastmile_qr_scan"}, "is_disabled": 0, "fusion_lat": 0.0, "name": "0b028d8cf3099faa935488d73595aef3", "fusion_lon": 0.0}, {"is_reserved": 0, "type": "electric_scooter", "bike_id": "c45d039f6fc69966c77d1bd030756c9c", "lat": 38.89564433333334, "lon": -77.02980433333333, "rental_uris": {"android": "https://dc.lft.to/lastmile_qr_scan", "ios": "https://dc.lft.to/lastmile_qr_scan"}, "is_disabled": 0, "fusion_lat": 0.0, "name": "c45d039f6fc69966c77d1bd030756c9c", "fusion_lon": 0.0}, {"is_reserved": 0, "type": "electric_scooter", "bike_id": "0d1ac8a0b2480e3d4c1ccbdc8534c9f7", "lat": 38.901720166666664, "lon": -77.00123683333334, "rental_uris": {"android": "https://dc.lft.to/lastmile_qr_scan", "ios": "https://dc.lft.to/lastmile_qr_scan"}, "is_disabled": 0, "fusion_lat": 0.0, "name": "0d1ac8a0b2480e3d4c1ccbdc8534c9f7", "fusion_lon": 0.0}, {"is_reserved": 0, "type": "electric_scooter", "bike_id": "4075b664a5cd2a1f09ab6d71cc7c7a12", "lat": 38.904016, "lon": -77.02004266666667, "rental_uris": {"android": "https://dc.lft.to/lastmile_qr_scan", "ios": "https://dc.lft.to/lastmile_qr_scan"}, "is_disabled": 0, "fusion_lat": 0.0, "name": "4075b664a5cd2a1f09ab6d71cc7c7a12", "fusion_lon": 0.0}, {"is_reserved": 0, "type": "electric_scooter", "bike_id": "0eaa3dcbd9794db6b02e4ab937f7a4e6", "lat": 38.91733933333333, "lon": -77.01603166666666, "rental_uris": {"android": "https://dc.lft.to/lastmile_qr_scan", "ios": "https://dc.lft.to/lastmile_qr_scan"}, "is_disabled": 0, "fusion_lat": 0.0, "name": "0eaa3dcbd9794db6b02e4ab937f7a4e6", "fusion_lon": 0.0}, {"is_reserved": 0, "type": "electric_scooter", "bike_id": "fcfd1be69e5ab944f136632708cab7f1", "lat": 38.91819783333333, "lon": -77.02419133333333, "rental_uris": {"android": "https://dc.lft.to/lastmile_qr_scan", "ios": "https://dc.lft.to/lastmile_qr_scan"}, "is_disabled": 0, "fusion_lat": 0.0, "name": "fcfd1be69e5ab944f136632708cab7f1", "fusion_lon": 0.0}, {"is_reserved": 0, "type": "electric_scooter", "bike_id": "492f1c3ecbb80425ab73056d27766a37", "lat": 38.92612533333333, "lon": -77.02160433333333, "rental_uris": {"android": "https://dc.lft.to/lastmile_qr_scan", "ios": "https://dc.lft.to/lastmile_qr_scan"}, "is_disabled": 0, "fusion_lat": 0.0, "name": "492f1c3ecbb80425ab73056d27766a37", "fusion_lon": 0.0}, {"is_reserved": 0, "type": "electric_scooter", "bike_id": "192d1a8a1c1ff3927c6b518de90aa4e9", "lat": 38.90446266666667, "lon": -76.996212, "rental_uris": {"android": "https://dc.lft.to/lastmile_qr_scan", "ios": "https://dc.lft.to/lastmile_qr_scan"}, "is_disabled": 0, "fusion_lat": 0.0, "name": "192d1a8a1c1ff3927c6b518de90aa4e9", "fusion_lon": 0.0}, {"is_reserved": 0, "type": "electric_scooter", "bike_id": "98153887429011b1680a8bb6ec044072", "lat": 38.915913, "lon": -77.0208175, "rental_uris": {"android": "https://dc.lft.to/lastmile_qr_scan", "ios": "https://dc.lft.to/lastmile_qr_scan"}, "is_disabled": 0, "fusion_lat": 0.0, "name": "98153887429011b1680a8bb6ec044072", "fusion_lon": 0.0}, {"is_reserved": 0, "type": "electric_scooter", "bike_id": "e7e4f4ccf498fc8c71ea5d8eb529a369", "lat": 38.92450133333333, "lon": -77.0203315, "rental_uris": {"android": "https://dc.lft.to/lastmile_qr_scan", "ios": "https://dc.lft.to/lastmile_qr_scan"}, "is_disabled": 0, "fusion_lat": 0.0, "name": "e7e4f4ccf498fc8c71ea5d8eb529a369", "fusion_lon": 0.0}, {"is_reserved": 0, "type": "electric_scooter", "bike_id": "88b798b0756091f25848ce69dc317f74", "lat": 38.91280666666667, "lon": -77.07279483333333, "rental_uris": {"android": "https://dc.lft.to/lastmile_qr_scan", "ios": "https://dc.lft.to/lastmile_qr_scan"}, "is_disabled": 0, "fusion_lat": 0.0, "name": "88b798b0756091f25848ce69dc317f74", "fusion_lon": 0.0}, {"is_reserved": 0, "type": "electric_scooter", "bike_id": "be9ad642bf3482d7156b4333543d7aaa", "lat": 38.923899666666664, "lon": -77.05052666666667, "rental_uris": {"android": "https://dc.lft.to/lastmile_qr_scan", "ios": "https://dc.lft.to/lastmile_qr_scan"}, "is_disabled": 0, "fusion_lat": 0.0, "name": "be9ad642bf3482d7156b4333543d7aaa", "fusion_lon": 0.0}, {"is_reserved": 0, "type": "electric_scooter", "bike_id": "af4ba73d443b834ee3016f52be7633af", "lat": 38.856481, "lon": -76.99674383333334, "rental_uris": {"android": "https://dc.lft.to/lastmile_qr_scan", "ios": "https://dc.lft.to/lastmile_qr_scan"}, "is_disabled": 0, "fusion_lat": 0.0, "name": "af4ba73d443b834ee3016f52be7633af", "fusion_lon": 0.0}, {"is_reserved": 0, "type": "electric_bike", "bike_id": "9739706b0123479a1b9f3e20bdf266e0", "lat": 38.894587333333334, "lon": -77.1034725, "rental_uris": {"android": "https://dc.lft.to/lastmile_qr_scan", "ios": "https://dc.lft.to/lastmile_qr_scan"}, "is_disabled": 0, "fusion_lat": 0.0, "name": "9739706b0123479a1b9f3e20bdf266e0", "fusion_lon": 0.0}, {"is_reserved": 0, "type": "electric_scooter", "bike_id": "601a71bcda67fc3fea8482f85f2e56b6", "lat": 38.9002105, "lon": -76.9882085, "rental_uris": {"android": "https://dc.lft.to/lastmile_qr_scan", "ios": "https://dc.lft.to/lastmile_qr_scan"}, "is_disabled": 0, "fusion_lat": 0.0, "name": "601a71bcda67fc3fea8482f85f2e56b6", "fusion_lon": 0.0}, {"is_reserved": 0, "type": "electric_scooter", "bike_id": "761a6213a33885c2f168c1bf37fb62a9", "lat": 38.923886333333336, "lon": -77.050533, "rental_uris": {"android": "https://dc.lft.to/lastmile_qr_scan", "ios": "https://dc.lft.to/lastmile_qr_scan"}, "is_disabled": 0, "fusion_lat": 0.0, "name": "761a6213a33885c2f168c1bf37fb62a9", "fusion_lon": 0.0}, {"is_reserved": 0, "type": "electric_scooter", "bike_id": "fdca2f4116ffbb693020484eeec5405b", "lat": 38.935021166666665, "lon": -77.04280983333334, "rental_uris": {"android": "https://dc.lft.to/lastmile_qr_scan", "ios": "https://dc.lft.to/lastmile_qr_scan"}, "is_disabled": 0, "fusion_lat": 0.0, "name": "fdca2f4116ffbb693020484eeec5405b", "fusion_lon": 0.0}, {"is_reserved": 0, "type": "electric_bike", "bike_id": "65892148a757f9d63a12896985b13fa6", "lat": 38.9387695, "lon": -76.9930295, "rental_uris": {"android": "https://dc.lft.to/lastmile_qr_scan", "ios": "https://dc.lft.to/lastmile_qr_scan"}, "is_disabled": 0, "fusion_lat": 0.0, "name": "65892148a757f9d63a12896985b13fa6", "fusion_lon": 0.0}, {"is_reserved": 0, "type": "electric_scooter", "bike_id": "5dbedbcf5f03b673065c63cbd960b721", "lat": 38.86634883333333, "lon": -76.98284666666666, "rental_uris": {"android": "https://dc.lft.to/lastmile_qr_scan", "ios": "https://dc.lft.to/lastmile_qr_scan"}, "is_disabled": 0, "fusion_lat": 0.0, "name": "5dbedbcf5f03b673065c63cbd960b721", "fusion_lon": 0.0}, {"is_reserved": 0, "type": "electric_bike", "bike_id": "b3e720ca60949753d3956d364769efcd", "lat": 38.86994633333333, "lon": -77.2297685, "rental_uris": {"android": "https://dc.lft.to/lastmile_qr_scan", "ios": "https://dc.lft.to/lastmile_qr_scan"}, "is_disabled": 0, "fusion_lat": 0.0, "name": "b3e720ca60949753d3956d364769efcd", "fusion_lon": 0.0}, {"is_reserved": 0, "type": "electric_scooter", "bike_id": "73ca50acba4b8ce3789d2fe39434e4bb", "lat": 38.91565166666667, "lon": -77.0385385, "rental_uris": {"android": "https://dc.lft.to/lastmile_qr_scan", "ios": "https://dc.lft.to/lastmile_qr_scan"}, "is_disabled": 0, "fusion_lat": 0.0, "name": "73ca50acba4b8ce3789d2fe39434e4bb", "fusion_lon": 0.0}, {"is_reserved": 0, "type": "electric_scooter", "bike_id": "3c31127d9ca23b154916e9f6a009ae9c", "lat": 38.8991255, "lon": -77.0337885, "rental_uris": {"android": "https://dc.lft.to/lastmile_qr_scan", "ios": "https://dc.lft.to/lastmile_qr_scan"}, "is_disabled": 0, "fusion_lat": 0.0, "name": "3c31127d9ca23b154916e9f6a009ae9c", "fusion_lon": 0.0}, {"is_reserved": 0, "type": "electric_bike", "bike_id": "c67c45478c4e33ad5faa65b071215c6d", "lat": 38.85418116666666, "lon": -77.0836455, "rental_uris": {"android": "https://dc.lft.to/lastmile_qr_scan", "ios": "https://dc.lft.to/lastmile_qr_scan"}, "is_disabled": 0, "fusion_lat": 0.0, "name": "c67c45478c4e33ad5faa65b071215c6d", "fusion_lon": 0.0}, {"is_reserved": 0, "type": "electric_scooter", "bike_id": "b344797daad2fa3389f35f4aeab87970", "lat": 38.886261166666664, "lon": -77.02224366666667, "rental_uris": {"android": "https://dc.lft.to/lastmile_qr_scan", "ios": "https://dc.lft.to/lastmile_qr_scan"}, "is_disabled": 0, "fusion_lat": 0.0, "name": "b344797daad2fa3389f35f4aeab87970", "fusion_lon": 0.0}, {"is_reserved": 0, "type": "electric_scooter", "bike_id": "524ae3f1123de6dedf83f950d9249227", "lat": 38.89354933333333, "lon": -77.00330133333334, "rental_uris": {"android": "https://dc.lft.to/lastmile_qr_scan", "ios": "https://dc.lft.to/lastmile_qr_scan"}, "is_disabled": 0, "fusion_lat": 0.0, "name": "524ae3f1123de6dedf83f950d9249227", "fusion_lon": 0.0}, {"is_reserved": 0, "type": "electric_scooter", "bike_id": "1872da59f1b83aff985a6c7d2254408f", "lat": 38.90022833333333, "lon": -77.01216516666666, "rental_uris": {"android": "https://dc.lft.to/lastmile_qr_scan", "ios": "https://dc.lft.to/lastmile_qr_scan"}, "is_disabled": 0, "fusion_lat": 0.0, "name": "1872da59f1b83aff985a6c7d2254408f", "fusion_lon": 0.0}, {"is_reserved": 0, "type": "electric_scooter", "bike_id": "a0ffe3a53ddc537884c3616db8dc55a7", "lat": 38.908902499999996, "lon": -77.00307766666667, "rental_uris": {"android": "https://dc.lft.to/lastmile_qr_scan", "ios": "https://dc.lft.to/lastmile_qr_scan"}, "is_disabled": 0, "fusion_lat": 0.0, "name": "a0ffe3a53ddc537884c3616db8dc55a7", "fusion_lon": 0.0}, {"is_reserved": 0, "type": "electric_scooter", "bike_id": "5b48f233aaf27bf14904620ce4d4a019", "lat": 38.925206333333335, "lon": -77.05060033333334, "rental_uris": {"android": "https://dc.lft.to/lastmile_qr_scan", "ios": "https://dc.lft.to/lastmile_qr_scan"}, "is_disabled": 0, "fusion_lat": 0.0, "name": "5b48f233aaf27bf14904620ce4d4a019", "fusion_lon": 0.0}, {"is_reserved": 0, "type": "electric_scooter", "bike_id": "6293fcf11a633ec95b8908a47f62029d", "lat": 38.895218666666665, "lon": -77.02826583333334, "rental_uris": {"android": "https://dc.lft.to/lastmile_qr_scan", "ios": "https://dc.lft.to/lastmile_qr_scan"}, "is_disabled": 0, "fusion_lat": 0.0, "name": "6293fcf11a633ec95b8908a47f62029d", "fusion_lon": 0.0}, {"is_reserved": 0, "type": "electric_scooter", "bike_id": "7e7c464b3f3ac027ee636a5cc60bd36b", "lat": 38.885257, "lon": -76.980853, "rental_uris": {"android": "https://dc.lft.to/lastmile_qr_scan", "ios": "https://dc.lft.to/lastmile_qr_scan"}, "is_disabled": 0, "fusion_lat": 0.0, "name": "7e7c464b3f3ac027ee636a5cc60bd36b", "fusion_lon": 0.0}, {"is_reserved": 0, "type": "electric_scooter", "bike_id": "69048441b8b355cdcf1abfa53b1cc631", "lat": 38.902619, "lon": -77.003295, "rental_uris": {"android": "https://dc.lft.to/lastmile_qr_scan", "ios": "https://dc.lft.to/lastmile_qr_scan"}, "is_disabled": 0, "fusion_lat": 0.0, "name": "69048441b8b355cdcf1abfa53b1cc631", "fusion_lon": 0.0}, {"is_reserved": 0, "type": "electric_scooter", "bike_id": "30e42d2f681ba05b846b261f83c65609", "lat": 38.902643833333336, "lon": -77.01860916666666, "rental_uris": {"android": "https://dc.lft.to/lastmile_qr_scan", "ios": "https://dc.lft.to/lastmile_qr_scan"}, "is_disabled": 0, "fusion_lat": 0.0, "name": "30e42d2f681ba05b846b261f83c65609", "fusion_lon": 0.0}, {"is_reserved": 0, "type": "electric_scooter", "bike_id": "7bbbfbd85d89ba75fc2603d23a70223f", "lat": 38.93091316666667, "lon": -77.03812616666667, "rental_uris": {"android": "https://dc.lft.to/lastmile_qr_scan", "ios": "https://dc.lft.to/lastmile_qr_scan"}, "is_disabled": 0, "fusion_lat": 0.0, "name": "7bbbfbd85d89ba75fc2603d23a70223f", "fusion_lon": 0.0}, {"is_reserved": 0, "type": "electric_scooter", "bike_id": "b20abc57af76d812836a573a2c116891", "lat": 38.92037766666667, "lon": -77.048209, "rental_uris": {"android": "https://dc.lft.to/lastmile_qr_scan", "ios": "https://dc.lft.to/lastmile_qr_scan"}, "is_disabled": 0, "fusion_lat": 0.0, "name": "b20abc57af76d812836a573a2c116891", "fusion_lon": 0.0}, {"is_reserved": 0, "type": "electric_scooter", "bike_id": "585ccd8271d96722d8fc5d21709333d3", "lat": 38.91714283333334, "lon": -77.03854016666666, "rental_uris": {"android": "https://dc.lft.to/lastmile_qr_scan", "ios": "https://dc.lft.to/lastmile_qr_scan"}, "is_disabled": 0, "fusion_lat": 0.0, "name": "585ccd8271d96722d8fc5d21709333d3", "fusion_lon": 0.0}, {"is_reserved": 0, "type": "electric_scooter", "bike_id": "feaf1c5b1dcd21ef4c1bf8749d75051f", "lat": 38.92039716666667, "lon": -77.041937, "rental_uris": {"android": "https://dc.lft.to/lastmile_qr_scan", "ios": "https://dc.lft.to/lastmile_qr_scan"}, "is_disabled": 0, "fusion_lat": 0.0, "name": "feaf1c5b1dcd21ef4c1bf8749d75051f", "fusion_lon": 0.0}, {"is_reserved": 0, "type": "electric_scooter", "bike_id": "c5af5b49eee436ccbcafe5445fcab55b", "lat": 38.916895333333336, "lon": -77.02395416666667, "rental_uris": {"android": "https://dc.lft.to/lastmile_qr_scan", "ios": "https://dc.lft.to/lastmile_qr_scan"}, "is_disabled": 0, "fusion_lat": 0.0, "name": "c5af5b49eee436ccbcafe5445fcab55b", "fusion_lon": 0.0}, {"is_reserved": 0, "type": "electric_scooter", "bike_id": "da7f0180ce72ac2ee47fbba02353c652", "lat": 38.919143, "lon": -77.04793366666667, "rental_uris": {"android": "https://dc.lft.to/lastmile_qr_scan", "ios": "https://dc.lft.to/lastmile_qr_scan"}, "is_disabled": 0, "fusion_lat": 0.0, "name": "da7f0180ce72ac2ee47fbba02353c652", "fusion_lon": 0.0}, {"is_reserved": 0, "type": "electric_scooter", "bike_id": "5814c67fa6cbb1ca876b965b26919ac1", "lat": 38.937172333333336, "lon": -77.03269733333333, "rental_uris": {"android": "https://dc.lft.to/lastmile_qr_scan", "ios": "https://dc.lft.to/lastmile_qr_scan"}, "is_disabled": 0, "fusion_lat": 0.0, "name": "5814c67fa6cbb1ca876b965b26919ac1", "fusion_lon": 0.0}, {"is_reserved": 0, "type": "electric_scooter", "bike_id": "a2103a3653e2e652c90021d8ea9bfbcc", "lat": 38.918033, "lon": -77.03298883333333, "rental_uris": {"android": "https://dc.lft.to/lastmile_qr_scan", "ios": "https://dc.lft.to/lastmile_qr_scan"}, "is_disabled": 0, "fusion_lat": 0.0, "name": "a2103a3653e2e652c90021d8ea9bfbcc", "fusion_lon": 0.0}, {"is_reserved": 0, "type": "electric_bike", "bike_id": "8cc47309431fd689182a1295e38892a2", "lat": 38.8914315, "lon": -77.18294183333333, "rental_uris": {"android": "https://dc.lft.to/lastmile_qr_scan", "ios": "https://dc.lft.to/lastmile_qr_scan"}, "is_disabled": 0, "fusion_lat": 0.0, "name": "8cc47309431fd689182a1295e38892a2", "fusion_lon": 0.0}, {"is_reserved": 0, "type": "electric_scooter", "bike_id": "4e73d65e69eb6cc9c95308cadd941d86", "lat": 38.853266166666664, "lon": -76.980076, "rental_uris": {"android": "https://dc.lft.to/lastmile_qr_scan", "ios": "https://dc.lft.to/lastmile_qr_scan"}, "is_disabled": 0, "fusion_lat": 0.0, "name": "4e73d65e69eb6cc9c95308cadd941d86", "fusion_lon": 0.0}, {"is_reserved": 0, "type": "electric_scooter", "bike_id": "1b70e91573d63e4f02e40bed1245ebeb", "lat": 38.905705833333336, "lon": -77.02962666666667, "rental_uris": {"android": "https://dc.lft.to/lastmile_qr_scan", "ios": "https://dc.lft.to/lastmile_qr_scan"}, "is_disabled": 0, "fusion_lat": 0.0, "name": "1b70e91573d63e4f02e40bed1245ebeb", "fusion_lon": 0.0}, {"is_reserved": 0, "type": "electric_scooter", "bike_id": "ada07c0c8c6c34f6375f06e311054b02", "lat": 38.92450566666667, "lon": -77.020333, "rental_uris": {"android": "https://dc.lft.to/lastmile_qr_scan", "ios": "https://dc.lft.to/lastmile_qr_scan"}, "is_disabled": 0, "fusion_lat": 0.0, "name": "ada07c0c8c6c34f6375f06e311054b02", "fusion_lon": 0.0}, {"is_reserved": 0, "type": "electric_scooter", "bike_id": "3a172c7cfe4b8b28ebce1d19ab05cfcc", "lat": 38.916624666666664, "lon": -77.0386135, "rental_uris": {"android": "https://dc.lft.to/lastmile_qr_scan", "ios": "https://dc.lft.to/lastmile_qr_scan"}, "is_disabled": 0, "fusion_lat": 0.0, "name": "3a172c7cfe4b8b28ebce1d19ab05cfcc", "fusion_lon": 0.0}, {"is_reserved": 0, "type": "electric_scooter", "bike_id": "1766b37c77cecbd7f4435b3112d4129b", "lat": 38.9179865, "lon": -77.0344115, "rental_uris": {"android": "https://dc.lft.to/lastmile_qr_scan", "ios": "https://dc.lft.to/lastmile_qr_scan"}, "is_disabled": 0, "fusion_lat": 0.0, "name": "1766b37c77cecbd7f4435b3112d4129b", "fusion_lon": 0.0}, {"is_reserved": 0, "type": "electric_scooter", "bike_id": "fffc8ddb61b0676066e0589d324d6648", "lat": 38.88487633333333, "lon": -77.00713333333333, "rental_uris": {"android": "https://dc.lft.to/lastmile_qr_scan", "ios": "https://dc.lft.to/lastmile_qr_scan"}, "is_disabled": 0, "fusion_lat": 0.0, "name": "fffc8ddb61b0676066e0589d324d6648", "fusion_lon": 0.0}, {"is_reserved": 0, "type": "electric_scooter", "bike_id": "59f03c6396d40b1cae1d663875708c18", "lat": 38.897987666666666, "lon": -77.0333655, "rental_uris": {"android": "https://dc.lft.to/lastmile_qr_scan", "ios": "https://dc.lft.to/lastmile_qr_scan"}, "is_disabled": 0, "fusion_lat": 0.0, "name": "59f03c6396d40b1cae1d663875708c18", "fusion_lon": 0.0}, {"is_reserved": 0, "type": "electric_scooter", "bike_id": "abbdb58bc56e8917428a3e33327093a7", "lat": 38.88369516666667, "lon": -76.99500666666667, "rental_uris": {"android": "https://dc.lft.to/lastmile_qr_scan", "ios": "https://dc.lft.to/lastmile_qr_scan"}, "is_disabled": 0, "fusion_lat": 0.0, "name": "abbdb58bc56e8917428a3e33327093a7", "fusion_lon": 0.0}, {"is_reserved": 0, "type": "electric_scooter", "bike_id": "f06359b0a2d212bb07c45b135014e975", "lat": 38.89219583333333, "lon": -77.0280235, "rental_uris": {"android": "https://dc.lft.to/lastmile_qr_scan", "ios": "https://dc.lft.to/lastmile_qr_scan"}, "is_disabled": 0, "fusion_lat": 0.0, "name": "f06359b0a2d212bb07c45b135014e975", "fusion_lon": 0.0}, {"is_reserved": 0, "type": "electric_scooter", "bike_id": "7524d9f9085b63eab0875835ad7d9e00", "lat": 38.9095495, "lon": -76.98537933333333, "rental_uris": {"android": "https://dc.lft.to/lastmile_qr_scan", "ios": "https://dc.lft.to/lastmile_qr_scan"}, "is_disabled": 0, "fusion_lat": 0.0, "name": "7524d9f9085b63eab0875835ad7d9e00", "fusion_lon": 0.0}, {"is_reserved": 0, "type": "electric_scooter", "bike_id": "c5fad798f6b47e379b01f64376abb2ff", "lat": 38.91352716666667, "lon": -77.0318145, "rental_uris": {"android": "https://dc.lft.to/lastmile_qr_scan", "ios": "https://dc.lft.to/lastmile_qr_scan"}, "is_disabled": 0, "fusion_lat": 0.0, "name": "c5fad798f6b47e379b01f64376abb2ff", "fusion_lon": 0.0}, {"is_reserved": 0, "type": "electric_scooter", "bike_id": "4d257d4b7de2a12ab0957b744b037e3a", "lat": 38.90285633333333, "lon": -77.02271916666666, "rental_uris": {"android": "https://dc.lft.to/lastmile_qr_scan", "ios": "https://dc.lft.to/lastmile_qr_scan"}, "is_disabled": 0, "fusion_lat": 0.0, "name": "4d257d4b7de2a12ab0957b744b037e3a", "fusion_lon": 0.0}, {"is_reserved": 0, "type": "electric_scooter", "bike_id": "f176a97832bd9cc904e161f312cdd3f9", "lat": 38.924437833333336, "lon": -77.03397333333334, "rental_uris": {"android": "https://dc.lft.to/lastmile_qr_scan", "ios": "https://dc.lft.to/lastmile_qr_scan"}, "is_disabled": 0, "fusion_lat": 0.0, "name": "f176a97832bd9cc904e161f312cdd3f9", "fusion_lon": 0.0}, {"is_reserved": 0, "type": "electric_scooter", "bike_id": "f68f7fa01a6651294acbc6b99aa95c00", "lat": 38.90684666666667, "lon": -77.06267683333333, "rental_uris": {"android": "https://dc.lft.to/lastmile_qr_scan", "ios": "https://dc.lft.to/lastmile_qr_scan"}, "is_disabled": 0, "fusion_lat": 0.0, "name": "f68f7fa01a6651294acbc6b99aa95c00", "fusion_lon": 0.0}, {"is_reserved": 0, "type": "electric_scooter", "bike_id": "be2bd91c3677aaf72c23c0aa97ebd74b", "lat": 38.905341166666666, "lon": -77.0628385, "rental_uris": {"android": "https://dc.lft.to/lastmile_qr_scan", "ios": "https://dc.lft.to/lastmile_qr_scan"}, "is_disabled": 0, "fusion_lat": 0.0, "name": "be2bd91c3677aaf72c23c0aa97ebd74b", "fusion_lon": 0.0}, {"is_reserved": 0, "type": "electric_bike", "bike_id": "ff65ccaaac11e63bf047ba09bb8f5a7a", "lat": 39.038158, "lon": -77.042252, "rental_uris": {"android": "https://dc.lft.to/lastmile_qr_scan", "ios": "https://dc.lft.to/lastmile_qr_scan"}, "is_disabled": 0, "fusion_lat": 0.0, "name": "ff65ccaaac11e63bf047ba09bb8f5a7a", "fusion_lon": 0.0}, {"is_reserved": 0, "type": "electric_scooter", "bike_id": "706b9b091ca3721ba8847c06150c05ac", "lat": 38.90771083333333, "lon": -77.0425075, "rental_uris": {"android": "https://dc.lft.to/lastmile_qr_scan", "ios": "https://dc.lft.to/lastmile_qr_scan"}, "is_disabled": 0, "fusion_lat": 0.0, "name": "706b9b091ca3721ba8847c06150c05ac", "fusion_lon": 0.0}, {"is_reserved": 0, "type": "electric_scooter", "bike_id": "8435b1e15bc7648723a6fe8683b8d8d2", "lat": 38.91684216666667, "lon": -77.02953216666667, "rental_uris": {"android": "https://dc.lft.to/lastmile_qr_scan", "ios": "https://dc.lft.to/lastmile_qr_scan"}, "is_disabled": 0, "fusion_lat": 0.0, "name": "8435b1e15bc7648723a6fe8683b8d8d2", "fusion_lon": 0.0}, {"is_reserved": 0, "type": "electric_scooter", "bike_id": "b976e91689e507ebff69cb87f1e36cd9", "lat": 38.91809333333333, "lon": -77.03302716666667, "rental_uris": {"android": "https://dc.lft.to/lastmile_qr_scan", "ios": "https://dc.lft.to/lastmile_qr_scan"}, "is_disabled": 0, "fusion_lat": 0.0, "name": "b976e91689e507ebff69cb87f1e36cd9", "fusion_lon": 0.0}, {"is_reserved": 0, "type": "electric_scooter", "bike_id": "b2ae560e994a32d14a91efdc9b6ad663", "lat": 38.894932833333336, "lon": -77.00207866666666, "rental_uris": {"android": "https://dc.lft.to/lastmile_qr_scan", "ios": "https://dc.lft.to/lastmile_qr_scan"}, "is_disabled": 0, "fusion_lat": 0.0, "name": "b2ae560e994a32d14a91efdc9b6ad663", "fusion_lon": 0.0}, {"is_reserved": 0, "type": "electric_scooter", "bike_id": "b21a7afa2c979341d7c5b66175cc093a", "lat": 38.91692416666667, "lon": -77.028881, "rental_uris": {"android": "https://dc.lft.to/lastmile_qr_scan", "ios": "https://dc.lft.to/lastmile_qr_scan"}, "is_disabled": 0, "fusion_lat": 0.0, "name": "b21a7afa2c979341d7c5b66175cc093a", "fusion_lon": 0.0}, {"is_reserved": 0, "type": "electric_scooter", "bike_id": "ec9762fbfc42440460f8df9c403c9ade", "lat": 38.90871533333333, "lon": -77.02354233333334, "rental_uris": {"android": "https://dc.lft.to/lastmile_qr_scan", "ios": "https://dc.lft.to/lastmile_qr_scan"}, "is_disabled": 0, "fusion_lat": 0.0, "name": "ec9762fbfc42440460f8df9c403c9ade", "fusion_lon": 0.0}, {"is_reserved": 0, "type": "electric_scooter", "bike_id": "fbc8312c604e5b33423a3b15d83e6a21", "lat": 38.9057825, "lon": -77.00592183333333, "rental_uris": {"android": "https://dc.lft.to/lastmile_qr_scan", "ios": "https://dc.lft.to/lastmile_qr_scan"}, "is_disabled": 0, "fusion_lat": 0.0, "name": "fbc8312c604e5b33423a3b15d83e6a21", "fusion_lon": 0.0}, {"is_reserved": 0, "type": "electric_scooter", "bike_id": "754a356426409252b1ed25fab1a4afda", "lat": 38.924421833333334, "lon": -77.0439315, "rental_uris": {"android": "https://dc.lft.to/lastmile_qr_scan", "ios": "https://dc.lft.to/lastmile_qr_scan"}, "is_disabled": 0, "fusion_lat": 0.0, "name": "754a356426409252b1ed25fab1a4afda", "fusion_lon": 0.0}, {"is_reserved": 0, "type": "electric_scooter", "bike_id": "8a04fbe7333222f78e22b8a2f2b9d7b1", "lat": 38.956282, "lon": -77.02781816666666, "rental_uris": {"android": "https://dc.lft.to/lastmile_qr_scan", "ios": "https://dc.lft.to/lastmile_qr_scan"}, "is_disabled": 0, "fusion_lat": 0.0, "name": "8a04fbe7333222f78e22b8a2f2b9d7b1", "fusion_lon": 0.0}, {"is_reserved": 0, "type": "electric_scooter", "bike_id": "3b9e0e92300e0e8db560cf59e5e8c035", "lat": 38.935518, "lon": -77.02218633333334, "rental_uris": {"android": "https://dc.lft.to/lastmile_qr_scan", "ios": "https://dc.lft.to/lastmile_qr_scan"}, "is_disabled": 0, "fusion_lat": 0.0, "name": "3b9e0e92300e0e8db560cf59e5e8c035", "fusion_lon": 0.0}, {"is_reserved": 0, "type": "electric_scooter", "bike_id": "84cd07d63820aed694903bcefd5a8eaf", "lat": 38.945227333333335, "lon": -77.02974833333333, "rental_uris": {"android": "https://dc.lft.to/lastmile_qr_scan", "ios": "https://dc.lft.to/lastmile_qr_scan"}, "is_disabled": 0, "fusion_lat": 0.0, "name": "84cd07d63820aed694903bcefd5a8eaf", "fusion_lon": 0.0}, {"is_reserved": 0, "type": "electric_scooter", "bike_id": "79c3b1e2577863f977e2b3664a01d5e3", "lat": 38.9297235, "lon": -77.0550995, "rental_uris": {"android": "https://dc.lft.to/lastmile_qr_scan", "ios": "https://dc.lft.to/lastmile_qr_scan"}, "is_disabled": 0, "fusion_lat": 0.0, "name": "79c3b1e2577863f977e2b3664a01d5e3", "fusion_lon": 0.0}, {"is_reserved": 0, "type": "electric_scooter", "bike_id": "93a04e64be6513839aaf74f1244e66ef", "lat": 38.923595666666664, "lon": -77.01925, "rental_uris": {"android": "https://dc.lft.to/lastmile_qr_scan", "ios": "https://dc.lft.to/lastmile_qr_scan"}, "is_disabled": 0, "fusion_lat": 0.0, "name": "93a04e64be6513839aaf74f1244e66ef", "fusion_lon": 0.0}, {"is_reserved": 0, "type": "electric_scooter", "bike_id": "0570937b04c3accfc1c84ce2ee02139c", "lat": 38.930597666666664, "lon": -77.02962883333333, "rental_uris": {"android": "https://dc.lft.to/lastmile_qr_scan", "ios": "https://dc.lft.to/lastmile_qr_scan"}, "is_disabled": 0, "fusion_lat": 0.0, "name": "0570937b04c3accfc1c84ce2ee02139c", "fusion_lon": 0.0}, {"is_reserved": 0, "type": "electric_scooter", "bike_id": "645e880fd10b11d1079171dc671da475", "lat": 38.9039815, "lon": -77.00196233333334, "rental_uris": {"android": "https://dc.lft.to/lastmile_qr_scan", "ios": "https://dc.lft.to/lastmile_qr_scan"}, "is_disabled": 0, "fusion_lat": 0.0, "name": "645e880fd10b11d1079171dc671da475", "fusion_lon": 0.0}, {"is_reserved": 0, "type": "electric_scooter", "bike_id": "a7e9d9fb7900f46f69f6827daddae8c0", "lat": 38.9113885, "lon": -77.03665183333334, "rental_uris": {"android": "https://dc.lft.to/lastmile_qr_scan", "ios": "https://dc.lft.to/lastmile_qr_scan"}, "is_disabled": 0, "fusion_lat": 0.0, "name": "a7e9d9fb7900f46f69f6827daddae8c0", "fusion_lon": 0.0}, {"is_reserved": 0, "type": "electric_scooter", "bike_id": "ff68157729c98484134096ecbf2279dd", "lat": 38.905228, "lon": -76.984026, "rental_uris": {"android": "https://dc.lft.to/lastmile_qr_scan", "ios": "https://dc.lft.to/lastmile_qr_scan"}, "is_disabled": 0, "fusion_lat": 0.0, "name": "ff68157729c98484134096ecbf2279dd", "fusion_lon": 0.0}, {"is_reserved": 0, "type": "electric_scooter", "bike_id": "a1fdbbfd2044a1921073b9e4b544a452", "lat": 38.90971116666667, "lon": -77.03260916666666, "rental_uris": {"android": "https://dc.lft.to/lastmile_qr_scan", "ios": "https://dc.lft.to/lastmile_qr_scan"}, "is_disabled": 0, "fusion_lat": 0.0, "name": "a1fdbbfd2044a1921073b9e4b544a452", "fusion_lon": 0.0}, {"is_reserved": 0, "type": "electric_scooter", "bike_id": "ae35eadcd2dcfe5072c51a3484fb64bb", "lat": 38.91224733333333, "lon": -76.9870465, "rental_uris": {"android": "https://dc.lft.to/lastmile_qr_scan", "ios": "https://dc.lft.to/lastmile_qr_scan"}, "is_disabled": 0, "fusion_lat": 0.0, "name": "ae35eadcd2dcfe5072c51a3484fb64bb", "fusion_lon": 0.0}, {"is_reserved": 0, "type": "electric_scooter", "bike_id": "e397ab279b61b915b0eacc7cace3b720", "lat": 38.903226833333335, "lon": -77.05142966666666, "rental_uris": {"android": "https://dc.lft.to/lastmile_qr_scan", "ios": "https://dc.lft.to/lastmile_qr_scan"}, "is_disabled": 0, "fusion_lat": 0.0, "name": "e397ab279b61b915b0eacc7cace3b720", "fusion_lon": 0.0}, {"is_reserved": 0, "type": "electric_scooter", "bike_id": "688c0328621f0a67998c9378e0f14835", "lat": 38.927432333333336, "lon": -77.05365766666667, "rental_uris": {"android": "https://dc.lft.to/lastmile_qr_scan", "ios": "https://dc.lft.to/lastmile_qr_scan"}, "is_disabled": 0, "fusion_lat": 0.0, "name": "688c0328621f0a67998c9378e0f14835", "fusion_lon": 0.0}, {"is_reserved": 0, "type": "electric_scooter", "bike_id": "7e3bbcbb1811e34bdb2992936c44eb6c", "lat": 38.9060995, "lon": -77.04490366666667, "rental_uris": {"android": "https://dc.lft.to/lastmile_qr_scan", "ios": "https://dc.lft.to/lastmile_qr_scan"}, "is_disabled": 0, "fusion_lat": 0.0, "name": "7e3bbcbb1811e34bdb2992936c44eb6c", "fusion_lon": 0.0}, {"is_reserved": 0, "type": "electric_scooter", "bike_id": "178966895666b6081f5c444743e7cd7f", "lat": 38.887264333333334, "lon": -77.0220475, "rental_uris": {"android": "https://dc.lft.to/lastmile_qr_scan", "ios": "https://dc.lft.to/lastmile_qr_scan"}, "is_disabled": 0, "fusion_lat": 0.0, "name": "178966895666b6081f5c444743e7cd7f", "fusion_lon": 0.0}, {"is_reserved": 0, "type": "electric_scooter", "bike_id": "30524abd5f928c1f1d0ef6df1b3d25de", "lat": 38.8843145, "lon": -77.0248405, "rental_uris": {"android": "https://dc.lft.to/lastmile_qr_scan", "ios": "https://dc.lft.to/lastmile_qr_scan"}, "is_disabled": 0, "fusion_lat": 0.0, "name": "30524abd5f928c1f1d0ef6df1b3d25de", "fusion_lon": 0.0}, {"is_reserved": 0, "type": "electric_scooter", "bike_id": "c17492f3c5ca0dc636bfc34c96366805", "lat": 38.913391, "lon": -77.03208016666666, "rental_uris": {"android": "https://dc.lft.to/lastmile_qr_scan", "ios": "https://dc.lft.to/lastmile_qr_scan"}, "is_disabled": 0, "fusion_lat": 0.0, "name": "c17492f3c5ca0dc636bfc34c96366805", "fusion_lon": 0.0}, {"is_reserved": 0, "type": "electric_scooter", "bike_id": "60d4fc5c2d3dfe91753c2d490e18d06b", "lat": 38.91740466666667, "lon": -77.01713516666666, "rental_uris": {"android": "https://dc.lft.to/lastmile_qr_scan", "ios": "https://dc.lft.to/lastmile_qr_scan"}, "is_disabled": 0, "fusion_lat": 0.0, "name": "60d4fc5c2d3dfe91753c2d490e18d06b", "fusion_lon": 0.0}, {"is_reserved": 0, "type": "electric_scooter", "bike_id": "955632a5c33c19861b9905e3699906fe", "lat": 38.901364666666666, "lon": -76.99126516666666, "rental_uris": {"android": "https://dc.lft.to/lastmile_qr_scan", "ios": "https://dc.lft.to/lastmile_qr_scan"}, "is_disabled": 0, "fusion_lat": 0.0, "name": "955632a5c33c19861b9905e3699906fe", "fusion_lon": 0.0}, {"is_reserved": 0, "type": "electric_scooter", "bike_id": "a5425a16ed05c48967583cb1f9360914", "lat": 38.86015116666667, "lon": -76.9699875, "rental_uris": {"android": "https://dc.lft.to/lastmile_qr_scan", "ios": "https://dc.lft.to/lastmile_qr_scan"}, "is_disabled": 0, "fusion_lat": 0.0, "name": "a5425a16ed05c48967583cb1f9360914", "fusion_lon": 0.0}, {"is_reserved": 0, "type": "electric_scooter", "bike_id": "d399ba58bdcadba472c162b6b7e74f18", "lat": 38.90968183333333, "lon": -77.01107433333334, "rental_uris": {"android": "https://dc.lft.to/lastmile_qr_scan", "ios": "https://dc.lft.to/lastmile_qr_scan"}, "is_disabled": 0, "fusion_lat": 0.0, "name": "d399ba58bdcadba472c162b6b7e74f18", "fusion_lon": 0.0}, {"is_reserved": 0, "type": "electric_scooter", "bike_id": "cceb792ec8af0affa7f25d7c0257e356", "lat": 38.91584266666667, "lon": -77.03182266666667, "rental_uris": {"android": "https://dc.lft.to/lastmile_qr_scan", "ios": "https://dc.lft.to/lastmile_qr_scan"}, "is_disabled": 0, "fusion_lat": 0.0, "name": "cceb792ec8af0affa7f25d7c0257e356", "fusion_lon": 0.0}, {"is_reserved": 0, "type": "electric_scooter", "bike_id": "867d84bc567b9b20c011e2e603f949a7", "lat": 38.93341266666667, "lon": -77.03661666666666, "rental_uris": {"android": "https://dc.lft.to/lastmile_qr_scan", "ios": "https://dc.lft.to/lastmile_qr_scan"}, "is_disabled": 0, "fusion_lat": 0.0, "name": "867d84bc567b9b20c011e2e603f949a7", "fusion_lon": 0.0}, {"is_reserved": 0, "type": "electric_scooter", "bike_id": "bd91d942b279790978603046ffd7a999", "lat": 38.910895, "lon": -77.02395433333334, "rental_uris": {"android": "https://dc.lft.to/lastmile_qr_scan", "ios": "https://dc.lft.to/lastmile_qr_scan"}, "is_disabled": 0, "fusion_lat": 0.0, "name": "bd91d942b279790978603046ffd7a999", "fusion_lon": 0.0}, {"is_reserved": 0, "type": "electric_scooter", "bike_id": "f71e115fcb42e46aaa1fa0068f58b300", "lat": 38.93141383333333, "lon": -77.03823866666667, "rental_uris": {"android": "https://dc.lft.to/lastmile_qr_scan", "ios": "https://dc.lft.to/lastmile_qr_scan"}, "is_disabled": 0, "fusion_lat": 0.0, "name": "f71e115fcb42e46aaa1fa0068f58b300", "fusion_lon": 0.0}, {"is_reserved": 0, "type": "electric_scooter", "bike_id": "deb21b209de18ab68a79e7620849babf", "lat": 38.9170115, "lon": -77.036862, "rental_uris": {"android": "https://dc.lft.to/lastmile_qr_scan", "ios": "https://dc.lft.to/lastmile_qr_scan"}, "is_disabled": 0, "fusion_lat": 0.0, "name": "deb21b209de18ab68a79e7620849babf", "fusion_lon": 0.0}, {"is_reserved": 0, "type": "electric_scooter", "bike_id": "d8eab95c8b1b6e3189827d79bcd2aee2", "lat": 38.9614465, "lon": -77.02807233333333, "rental_uris": {"android": "https://dc.lft.to/lastmile_qr_scan", "ios": "https://dc.lft.to/lastmile_qr_scan"}, "is_disabled": 0, "fusion_lat": 0.0, "name": "d8eab95c8b1b6e3189827d79bcd2aee2", "fusion_lon": 0.0}, {"is_reserved": 0, "type": "electric_scooter", "bike_id": "47df82eabc33b84da19c2f5f87cfb5f0", "lat": 38.900934666666664, "lon": -77.03340583333333, "rental_uris": {"android": "https://dc.lft.to/lastmile_qr_scan", "ios": "https://dc.lft.to/lastmile_qr_scan"}, "is_disabled": 0, "fusion_lat": 0.0, "name": "47df82eabc33b84da19c2f5f87cfb5f0", "fusion_lon": 0.0}, {"is_reserved": 0, "type": "electric_scooter", "bike_id": "6cd5ef5587dd851a2ba6ad8fa6d4173b", "lat": 38.924209, "lon": -77.02016483333334, "rental_uris": {"android": "https://dc.lft.to/lastmile_qr_scan", "ios": "https://dc.lft.to/lastmile_qr_scan"}, "is_disabled": 0, "fusion_lat": 0.0, "name": "6cd5ef5587dd851a2ba6ad8fa6d4173b", "fusion_lon": 0.0}, {"is_reserved": 0, "type": "electric_scooter", "bike_id": "5c58995c18cfb2886d4926f7bbb28dcd", "lat": 38.8954535, "lon": -76.98333133333334, "rental_uris": {"android": "https://dc.lft.to/lastmile_qr_scan", "ios": "https://dc.lft.to/lastmile_qr_scan"}, "is_disabled": 0, "fusion_lat": 0.0, "name": "5c58995c18cfb2886d4926f7bbb28dcd", "fusion_lon": 0.0}, {"is_reserved": 0, "type": "electric_scooter", "bike_id": "ed82e5f2fa0a158f8ba98df4cca32b78", "lat": 38.91715683333334, "lon": -77.03863, "rental_uris": {"android": "https://dc.lft.to/lastmile_qr_scan", "ios": "https://dc.lft.to/lastmile_qr_scan"}, "is_disabled": 0, "fusion_lat": 0.0, "name": "ed82e5f2fa0a158f8ba98df4cca32b78", "fusion_lon": 0.0}, {"is_reserved": 0, "type": "electric_scooter", "bike_id": "3a6fbe2fe98ca4bf6e3ee6f8d0e7c579", "lat": 38.92427983333333, "lon": -77.02032783333334, "rental_uris": {"android": "https://dc.lft.to/lastmile_qr_scan", "ios": "https://dc.lft.to/lastmile_qr_scan"}, "is_disabled": 0, "fusion_lat": 0.0, "name": "3a6fbe2fe98ca4bf6e3ee6f8d0e7c579", "fusion_lon": 0.0}, {"is_reserved": 0, "type": "electric_bike", "bike_id": "88104286af12e1ffd9e3ffa83a32542f", "lat": 38.95841866666667, "lon": -76.9857975, "rental_uris": {"android": "https://dc.lft.to/lastmile_qr_scan", "ios": "https://dc.lft.to/lastmile_qr_scan"}, "is_disabled": 0, "fusion_lat": 0.0, "name": "88104286af12e1ffd9e3ffa83a32542f", "fusion_lon": 0.0}, {"is_reserved": 0, "type": "electric_scooter", "bike_id": "d91a8bed771cbf58595d9770c24d3d60", "lat": 38.90058166666667, "lon": -77.00763916666666, "rental_uris": {"android": "https://dc.lft.to/lastmile_qr_scan", "ios": "https://dc.lft.to/lastmile_qr_scan"}, "is_disabled": 0, "fusion_lat": 0.0, "name": "d91a8bed771cbf58595d9770c24d3d60", "fusion_lon": 0.0}, {"is_reserved": 0, "type": "electric_scooter", "bike_id": "55005eb0cfd8a8b701e05c5e3f418950", "lat": 38.941829166666665, "lon": -77.02564616666666, "rental_uris": {"android": "https://dc.lft.to/lastmile_qr_scan", "ios": "https://dc.lft.to/lastmile_qr_scan"}, "is_disabled": 0, "fusion_lat": 0.0, "name": "55005eb0cfd8a8b701e05c5e3f418950", "fusion_lon": 0.0}, {"is_reserved": 0, "type": "electric_scooter", "bike_id": "2529e1d182285cc14a5ef798d9113367", "lat": 38.88754316666667, "lon": -76.9961465, "rental_uris": {"android": "https://dc.lft.to/lastmile_qr_scan", "ios": "https://dc.lft.to/lastmile_qr_scan"}, "is_disabled": 0, "fusion_lat": 0.0, "name": "2529e1d182285cc14a5ef798d9113367", "fusion_lon": 0.0}, {"is_reserved": 0, "type": "electric_scooter", "bike_id": "22e58d73453e6db24c8064c395bddf7b", "lat": 38.92430816666667, "lon": -77.01937083333333, "rental_uris": {"android": "https://dc.lft.to/lastmile_qr_scan", "ios": "https://dc.lft.to/lastmile_qr_scan"}, "is_disabled": 0, "fusion_lat": 0.0, "name": "22e58d73453e6db24c8064c395bddf7b", "fusion_lon": 0.0}, {"is_reserved": 0, "type": "electric_scooter", "bike_id": "0b79ab941eb16a37afcd3e37b1b359f2", "lat": 38.917022833333334, "lon": -77.02387666666667, "rental_uris": {"android": "https://dc.lft.to/lastmile_qr_scan", "ios": "https://dc.lft.to/lastmile_qr_scan"}, "is_disabled": 0, "fusion_lat": 0.0, "name": "0b79ab941eb16a37afcd3e37b1b359f2", "fusion_lon": 0.0}, {"is_reserved": 0, "type": "electric_scooter", "bike_id": "9e263efde0a2337facfcec1550b07a9c", "lat": 38.917081833333334, "lon": -77.03227216666667, "rental_uris": {"android": "https://dc.lft.to/lastmile_qr_scan", "ios": "https://dc.lft.to/lastmile_qr_scan"}, "is_disabled": 0, "fusion_lat": 0.0, "name": "9e263efde0a2337facfcec1550b07a9c", "fusion_lon": 0.0}, {"is_reserved": 0, "type": "electric_scooter", "bike_id": "8da7886f91e6ae37ec0a62392981a34e", "lat": 38.87866533333333, "lon": -76.96260483333333, "rental_uris": {"android": "https://dc.lft.to/lastmile_qr_scan", "ios": "https://dc.lft.to/lastmile_qr_scan"}, "is_disabled": 0, "fusion_lat": 0.0, "name": "8da7886f91e6ae37ec0a62392981a34e", "fusion_lon": 0.0}, {"is_reserved": 0, "type": "electric_scooter", "bike_id": "61960b76ec7e8d690ca2fc1591ba27b8", "lat": 38.960292833333334, "lon": -77.02425833333334, "rental_uris": {"android": "https://dc.lft.to/lastmile_qr_scan", "ios": "https://dc.lft.to/lastmile_qr_scan"}, "is_disabled": 0, "fusion_lat": 0.0, "name": "61960b76ec7e8d690ca2fc1591ba27b8", "fusion_lon": 0.0}, {"is_reserved": 0, "type": "electric_scooter", "bike_id": "2ac03b48ee51d306ce2c763be6e1664b", "lat": 38.89272033333334, "lon": -77.025789, "rental_uris": {"android": "https://dc.lft.to/lastmile_qr_scan", "ios": "https://dc.lft.to/lastmile_qr_scan"}, "is_disabled": 0, "fusion_lat": 0.0, "name": "2ac03b48ee51d306ce2c763be6e1664b", "fusion_lon": 0.0}, {"is_reserved": 0, "type": "electric_scooter", "bike_id": "b77124ec0f20738c2b77b75668dff77b", "lat": 38.93635066666667, "lon": -77.0730115, "rental_uris": {"android": "https://dc.lft.to/lastmile_qr_scan", "ios": "https://dc.lft.to/lastmile_qr_scan"}, "is_disabled": 0, "fusion_lat": 0.0, "name": "b77124ec0f20738c2b77b75668dff77b", "fusion_lon": 0.0}, {"is_reserved": 0, "type": "electric_scooter", "bike_id": "beeea383bb188569cea3c9d9ab0a4fee", "lat": 38.91252133333333, "lon": -77.02851366666667, "rental_uris": {"android": "https://dc.lft.to/lastmile_qr_scan", "ios": "https://dc.lft.to/lastmile_qr_scan"}, "is_disabled": 0, "fusion_lat": 0.0, "name": "beeea383bb188569cea3c9d9ab0a4fee", "fusion_lon": 0.0}, {"is_reserved": 0, "type": "electric_bike", "bike_id": "092ce9bd8b19eeb7a41289ae0c343eef", "lat": 38.90340233333333, "lon": -77.04530316666667, "rental_uris": {"android": "https://dc.lft.to/lastmile_qr_scan", "ios": "https://dc.lft.to/lastmile_qr_scan"}, "is_disabled": 0, "fusion_lat": 0.0, "name": "092ce9bd8b19eeb7a41289ae0c343eef", "fusion_lon": 0.0}, {"is_reserved": 0, "type": "electric_scooter", "bike_id": "58e17e0c1ef26b6d5d48c0c088623ec1", "lat": 38.8972615, "lon": -76.94698366666667, "rental_uris": {"android": "https://dc.lft.to/lastmile_qr_scan", "ios": "https://dc.lft.to/lastmile_qr_scan"}, "is_disabled": 0, "fusion_lat": 0.0, "name": "58e17e0c1ef26b6d5d48c0c088623ec1", "fusion_lon": 0.0}, {"is_reserved": 0, "type": "electric_scooter", "bike_id": "5ca8ccfc06ad5ce02f7d2302baa36605", "lat": 38.8949475, "lon": -77.02150466666667, "rental_uris": {"android": "https://dc.lft.to/lastmile_qr_scan", "ios": "https://dc.lft.to/lastmile_qr_scan"}, "is_disabled": 0, "fusion_lat": 0.0, "name": "5ca8ccfc06ad5ce02f7d2302baa36605", "fusion_lon": 0.0}, {"is_reserved": 0, "type": "electric_scooter", "bike_id": "d2ea855b21b654c2f977abed4b2327f0", "lat": 38.9375615, "lon": -77.028378, "rental_uris": {"android": "https://dc.lft.to/lastmile_qr_scan", "ios": "https://dc.lft.to/lastmile_qr_scan"}, "is_disabled": 0, "fusion_lat": 0.0, "name": "d2ea855b21b654c2f977abed4b2327f0", "fusion_lon": 0.0}, {"is_reserved": 0, "type": "electric_bike", "bike_id": "626c408b7d438d55e8a80d45627c1b17", "lat": 38.9035935, "lon": -77.06266183333334, "rental_uris": {"android": "https://dc.lft.to/lastmile_qr_scan", "ios": "https://dc.lft.to/lastmile_qr_scan"}, "is_disabled": 0, "fusion_lat": 0.0, "name": "626c408b7d438d55e8a80d45627c1b17", "fusion_lon": 0.0}, {"is_reserved": 0, "type": "electric_scooter", "bike_id": "35b9d25248892b6fdbe5bfa512258893", "lat": 38.8775565, "lon": -77.019209, "rental_uris": {"android": "https://dc.lft.to/lastmile_qr_scan", "ios": "https://dc.lft.to/lastmile_qr_scan"}, "is_disabled": 0, "fusion_lat": 0.0, "name": "35b9d25248892b6fdbe5bfa512258893", "fusion_lon": 0.0}, {"is_reserved": 0, "type": "electric_scooter", "bike_id": "80ecdd7aaa83bcc7ea0d572e0844e072", "lat": 38.91864183333333, "lon": -77.04163983333333, "rental_uris": {"android": "https://dc.lft.to/lastmile_qr_scan", "ios": "https://dc.lft.to/lastmile_qr_scan"}, "is_disabled": 0, "fusion_lat": 0.0, "name": "80ecdd7aaa83bcc7ea0d572e0844e072", "fusion_lon": 0.0}, {"is_reserved": 0, "type": "electric_scooter", "bike_id": "3b2a18282c12206dc31bc9a3ed2bd263", "lat": 38.90566466666667, "lon": -77.00787916666667, "rental_uris": {"android": "https://dc.lft.to/lastmile_qr_scan", "ios": "https://dc.lft.to/lastmile_qr_scan"}, "is_disabled": 0, "fusion_lat": 0.0, "name": "3b2a18282c12206dc31bc9a3ed2bd263", "fusion_lon": 0.0}, {"is_reserved": 0, "type": "electric_scooter", "bike_id": "5ba96ad7d05314940283ef50693e8e32", "lat": 38.920861, "lon": -77.02494583333333, "rental_uris": {"android": "https://dc.lft.to/lastmile_qr_scan", "ios": "https://dc.lft.to/lastmile_qr_scan"}, "is_disabled": 0, "fusion_lat": 0.0, "name": "5ba96ad7d05314940283ef50693e8e32", "fusion_lon": 0.0}, {"is_reserved": 0, "type": "electric_scooter", "bike_id": "d8139798da3ef39efb28a18e3b82ee1d", "lat": 38.88971266666667, "lon": -76.9993635, "rental_uris": {"android": "https://dc.lft.to/lastmile_qr_scan", "ios": "https://dc.lft.to/lastmile_qr_scan"}, "is_disabled": 0, "fusion_lat": 0.0, "name": "d8139798da3ef39efb28a18e3b82ee1d", "fusion_lon": 0.0}, {"is_reserved": 0, "type": "electric_scooter", "bike_id": "c4f14b83ccdae2b07c1f9f31aeb2f8d2", "lat": 38.9153865, "lon": -77.032066, "rental_uris": {"android": "https://dc.lft.to/lastmile_qr_scan", "ios": "https://dc.lft.to/lastmile_qr_scan"}, "is_disabled": 0, "fusion_lat": 0.0, "name": "c4f14b83ccdae2b07c1f9f31aeb2f8d2", "fusion_lon": 0.0}, {"is_reserved": 0, "type": "electric_scooter", "bike_id": "ea5e0c2ee1502752677c26ff0a66c43f", "lat": 38.892219833333336, "lon": -77.046834, "rental_uris": {"android": "https://dc.lft.to/lastmile_qr_scan", "ios": "https://dc.lft.to/lastmile_qr_scan"}, "is_disabled": 0, "fusion_lat": 0.0, "name": "ea5e0c2ee1502752677c26ff0a66c43f", "fusion_lon": 0.0}, {"is_reserved": 0, "type": "electric_scooter", "bike_id": "f475deff7a761f38061ea9f2c6fc8f07", "lat": 38.9036585, "lon": -76.98492966666667, "rental_uris": {"android": "https://dc.lft.to/lastmile_qr_scan", "ios": "https://dc.lft.to/lastmile_qr_scan"}, "is_disabled": 0, "fusion_lat": 0.0, "name": "f475deff7a761f38061ea9f2c6fc8f07", "fusion_lon": 0.0}, {"is_reserved": 0, "type": "electric_scooter", "bike_id": "9ee48cacf7efedc69612c1ae6e22c9ec", "lat": 38.92652733333333, "lon": -77.03712766666666, "rental_uris": {"android": "https://dc.lft.to/lastmile_qr_scan", "ios": "https://dc.lft.to/lastmile_qr_scan"}, "is_disabled": 0, "fusion_lat": 0.0, "name": "9ee48cacf7efedc69612c1ae6e22c9ec", "fusion_lon": 0.0}, {"is_reserved": 0, "type": "electric_scooter", "bike_id": "1afedb4e1d3ba926cbc20bed7a3420cc", "lat": 38.9146095, "lon": -76.9843365, "rental_uris": {"android": "https://dc.lft.to/lastmile_qr_scan", "ios": "https://dc.lft.to/lastmile_qr_scan"}, "is_disabled": 0, "fusion_lat": 0.0, "name": "1afedb4e1d3ba926cbc20bed7a3420cc", "fusion_lon": 0.0}, {"is_reserved": 0, "type": "electric_scooter", "bike_id": "f418fb36623fabf3172a908e87a55f1d", "lat": 38.921695, "lon": -77.03213566666666, "rental_uris": {"android": "https://dc.lft.to/lastmile_qr_scan", "ios": "https://dc.lft.to/lastmile_qr_scan"}, "is_disabled": 0, "fusion_lat": 0.0, "name": "f418fb36623fabf3172a908e87a55f1d", "fusion_lon": 0.0},