{"data": {"bikes": [{"rental_uris": {"ios": "https://dc.lft.to/lastmile_qr_scan", "android": "https://dc.lft.to/lastmile_qr_scan"}, "fusion_lon": 0.0, "type": "electric_scooter", "is_reserved": 0, "lon": -77.029453, "is_disabled": 0, "fusion_lat": 0.0, "bike_id": "b5a946ef3bb09f8076ce271c23e10465", "name": "b5a946ef3bb09f8076ce271c23e10465", "lat": 38.9397485}, {"rental_uris": {"ios": "https://dc.lft.to/lastmile_qr_scan", "android": "https://dc.lft.to/lastmile_qr_scan"}, "fusion_lon": 0.0, "type": "electric_scooter", "is_reserved": 0, "lon": -77.06017916666667, "is_disabled": 0, "fusion_lat": 0.0, "bike_id": "4ae8db6a529f9a9ca46c373a3adcfb9c", "name": "4ae8db6a529f9a9ca46c373a3adcfb9c", "lat": 38.904803333333334}, {"rental_uris": {"ios": "https://dc.lft.to/lastmile_qr_scan", "android": "https://dc.lft.to/lastmile_qr_scan"}, "fusion_lon": 0.0, "type": "electric_scooter", "is_reserved": 0, "lon": -77.0467165, "is_disabled": 0, "fusion_lat": 0.0, "bike_id": "d749d17c6b6f27d72c4c34858b07b75c", "name": "d749d17c6b6f27d72c4c34858b07b75c", "lat": 38.89845616666667}, {"rental_uris": {"ios": "https://dc.lft.to/lastmile_qr_scan", "android": "https://dc.lft.to/lastmile_qr_scan"}, "fusion_lon": 0.0, "type": "electric_scooter", "is_reserved": 0, "lon": -76.92301283333333, "is_disabled": 0, "fusion_lat": 0.0, "bike_id": "23027d26b8a161751b105c54f43fdaaa", "name": "23027d26b8a161751b105c54f43fdaaa", "lat": 38.893785666666666}, {"rental_uris": {"ios": "https://dc.lft.to/lastmile_qr_scan", "android": "https://dc.lft.to/lastmile_qr_scan"}, "fusion_lon": 0.0, "type": "electric_scooter", "is_reserved": 0, "lon": -77.03495216666667, "is_disabled": 0, "fusion_lat": 0.0, "bike_id": "bd778bc77baf8b32ed1440b5eebaf86f", "name": "bd778bc77baf8b32ed1440b5eebaf86f", "lat": 38.92475683333333}, {"rental_uris": {"ios": "https://dc.lft.to/lastmile_qr_scan", "android": "https://dc.lft.to/lastmile_qr_scan"}, "fusion_lon": 0.0, "type": "electric_scooter", "is_reserved": 0, "lon": -77.0259975, "is_disabled": 0, "fusion_lat": 0.0, "bike_id": "738cc496a02568a4da85e50c74f4b6aa", "name": "738cc496a02568a4da85e50c74f4b6aa", "lat": 38.89874183333333}, {"rental_uris": {"ios": "https://dc.lft.to/lastmile_qr_scan", "android": "https://dc.lft.to/lastmile_qr_scan"}, "fusion_lon": 0.0, "type": "electric_scooter", "is_reserved": 0, "lon": -77.02936216666667, "is_disabled": 0, "fusion_lat": 0.0, "bike_id": "d3a6e6e6251905434ce3e9e858ea1461", "name": "d3a6e6e6251905434ce3e9e858ea1461", "lat": 38.89525166666667}, {"rental_uris": {"ios": "https://dc.lft.to/lastmile_qr_scan", "android": "https://dc.lft.to/lastmile_qr_scan"}, "fusion_lon": 0.0, "type": "electric_scooter", "is_reserved": 0, "lon": -77.02154733333333, "is_disabled": 0, "fusion_lat": 0.0, "bike_id": "9a98c36517ffd6f175288ec5e2c58222", "name": "9a98c36517ffd6f175288ec5e2c58222", "lat": 38.92826016666667}, {"rental_uris": {"ios": "https://dc.lft.to/lastmile_qr_scan", "android": "https://dc.lft.to/lastmile_qr_scan"}, "fusion_lon": 0.0, "type": "electric_scooter", "is_reserved": 0, "lon": -77.07100266666667, "is_disabled": 0, "fusion_lat": 0.0, "bike_id": "7c6ea12f0a993b135f5e00f48d7fb5e0", "name": "7c6ea12f0a993b135f5e00f48d7fb5e0", "lat": 38.9197855}, {"rental_uris": {"ios": "https://dc.lft.to/lastmile_qr_scan", "android": "https://dc.lft.to/lastmile_qr_scan"}, "fusion_lon": 0.0, "type": "electric_bike", "is_reserved": 0, "lon": -76.98602516666666, "is_disabled": 0, "fusion_lat": 0.0, "bike_id": "41160505a9a7578e6f168ab6a3d6f18b", "name": "41160505a9a7578e6f168ab6a3d6f18b", "lat": 38.929792166666665}, {"rental_uris": {"ios": "https://dc.lft.to/lastmile_qr_scan", "android": "https://dc.lft.to/lastmile_qr_scan"}, "fusion_lon": 0.0, "type": "electric_scooter", "is_reserved": 0, "lon": -77.03846516666667, "is_disabled": 0, "fusion_lat": 0.0, "bike_id": "bef424ef6882b797026f43f4d9c723d3", "name": "bef424ef6882b797026f43f4d9c723d3", "lat": 38.92655333333333}, {"rental_uris": {"ios": "https://dc.lft.to/lastmile_qr_scan", "android": "https://dc.lft.to/lastmile_qr_scan"}, "fusion_lon": 0.0, "type": "electric_scooter", "is_reserved": 0, "lon": -77.01263633333333, "is_disabled": 0, "fusion_lat": 0.0, "bike_id": "7b54014d1f8ed38bc190c3750f2e1ec7", "name": "7b54014d1f8ed38bc190c3750f2e1ec7", "lat": 38.898175}, {"rental_uris": {"ios": "https://dc.lft.to/lastmile_qr_scan", "android": "https://dc.lft.to/lastmile_qr_scan"}, "fusion_lon": 0.0, "type": "electric_scooter", "is_reserved": 0, "lon": -76.99151816666667, "is_disabled": 0, "fusion_lat": 0.0, "bike_id": "0f13f0c52f85fbc8469ced4c92b01766", "name": "0f13f0c52f85fbc8469ced4c92b01766", "lat": 38.900338833333336}, {"rental_uris": {"ios": "https://dc.lft.to/lastmile_qr_scan", "android": "https://dc.lft.to/lastmile_qr_scan"}, "fusion_lon": 0.0, "type": "electric_scooter", "is_reserved": 0, "lon": -77.03197816666666, "is_disabled": 0, "fusion_lat": 0.0, "bike_id": "26861a276d3d19f0a1da295d166d7417", "name": "26861a276d3d19f0a1da295d166d7417", "lat": 38.920506333333336}, {"rental_uris": {"ios": "https://dc.lft.to/lastmile_qr_scan", "android": "https://dc.lft.to/lastmile_qr_scan"}, "fusion_lon": 0.0, "type": "electric_bike", "is_reserved": 0, "lon": -77.07659783333334, "is_disabled": 0, "fusion_lat": 0.0, "bike_id": "61063b040288d8be1109b4c30b6c42f5", "name": "61063b040288d8be1109b4c30b6c42f5", "lat": 38.80980316666667}, {"rental_uris": {"ios": "https://dc.lft.to/lastmile_qr_scan", "android": "https://dc.lft.to/lastmile_qr_scan"}, "fusion_lon": 0.0, "type": "electric_scooter", "is_reserved": 0, "lon": -77.06010766666667, "is_disabled": 0, "fusion_lat": 0.0, "bike_id": "e047973b8a1f62276c9b46e0aeac1988", "name": "e047973b8a1f62276c9b46e0aeac1988", "lat": 38.903654333333336}, {"rental_uris": {"ios": "https://dc.lft.to/lastmile_qr_scan", "android": "https://dc.lft.to/lastmile_qr_scan"}, "fusion_lon": 0.0, "type": "electric_scooter", "is_reserved": 0, "lon": -77.03335333333334, "is_disabled": 0, "fusion_lat": 0.0, "bike_id": "91b12aaebab30058b839cce570046d67", "name": "91b12aaebab30058b839cce570046d67", "lat": 38.91914216666667}, {"rental_uris": {"ios": "https://dc.lft.to/lastmile_qr_scan", "android": "https://dc.lft.to/lastmile_qr_scan"}, "fusion_lon": 0.0, "type": "electric_scooter", "is_reserved": 0, "lon": -77.02138733333334, "is_disabled": 0, "fusion_lat": 0.0, "bike_id": "3c4742ec85c518c2dd75c42365cac08c", "name": "3c4742ec85c518c2dd75c42365cac08c", "lat": 38.92418266666667}, {"rental_uris": {"ios": "https://dc.lft.to/lastmile_qr_scan", "android": "https://dc.lft.to/lastmile_qr_scan"}, "fusion_lon": 0.0, "type": "electric_scooter", "is_reserved": 0, "lon": -77.0241075, "is_disabled": 0, "fusion_lat": 0.0, "bike_id": "a2699bd678be55d1317ec4d12ad9657f", "name": "a2699bd678be55d1317ec4d12ad9657f", "lat": 38.9170845}, {"rental_uris": {"ios": "https://dc.lft.to/lastmile_qr_scan", "android": "https://dc.lft.to/lastmile_qr_scan"}, "fusion_lon": 0.0, "type": "electric_scooter", "is_reserved": 0, "lon": -76.97820216666666, "is_disabled": 0, "fusion_lat": 0.0, "bike_id": "3e95d68a27f22d31be57bab65a6d4c2f", "name": "3e95d68a27f22d31be57bab65a6d4c2f", "lat": 38.894008166666666}, {"rental_uris": {"ios": "https://dc.lft.to/lastmile_qr_scan", "android": "https://dc.lft.to/lastmile_qr_scan"}, "fusion_lon": 0.0, "type": "electric_scooter", "is_reserved": 0, "lon": -77.016057, "is_disabled": 0, "fusion_lat": 0.0, "bike_id": "468a1a75c3d3ff92c8ff3d35f1e1aae9", "name": "468a1a75c3d3ff92c8ff3d35f1e1aae9", "lat": 38.899635}, {"rental_uris": {"ios": "https://dc.lft.to/lastmile_qr_scan", "android": "https://dc.lft.to/lastmile_qr_scan"}, "fusion_lon": 0.0, "type": "electric_scooter", "is_reserved": 0, "lon": -76.98704283333333, "is_disabled": 0, "fusion_lat": 0.0, "bike_id": "a7756db9e7a20cc1679287270b5b2355", "name": "a7756db9e7a20cc1679287270b5b2355", "lat": 38.900553333333335}, {"rental_uris": {"ios": "https://dc.lft.to/lastmile_qr_scan", "android": "https://dc.lft.to/lastmile_qr_scan"}, "fusion_lon": 0.0, "type": "electric_scooter", "is_reserved": 0, "lon": -77.09501766666666, "is_disabled": 0, "fusion_lat": 0.0, "bike_id": "7effe88941c34462b3fa5cae5a8a8c9d", "name": "7effe88941c34462b3fa5cae5a8a8c9d", "lat": 38.9448345}, {"rental_uris": {"ios": "https://dc.lft.to/lastmile_qr_scan", "android": "https://dc.lft.to/lastmile_qr_scan"}, "fusion_lon": 0.0, "type": "electric_scooter", "is_reserved": 0, "lon": -77.02848216666666, "is_disabled": 0, "fusion_lat": 0.0, "bike_id": "c3fe69ef6843cd0bd1f577f02e4337f5", "name": "c3fe69ef6843cd0bd1f577f02e4337f5", "lat": 38.8964225}, {"rental_uris": {"ios": "https://dc.lft.to/lastmile_qr_scan", "android": "https://dc.lft.to/lastmile_qr_scan"}, "fusion_lon": 0.0, "type": "electric_scooter", "is_reserved": 0, "lon": -77.01912033333333, "is_disabled": 0, "fusion_lat": 0.0, "bike_id": "2104cb300ddae76a5b6195c3631e6f6a", "name": "2104cb300ddae76a5b6195c3631e6f6a", "lat": 38.89728383333333}, {"rental_uris": {"ios": "https://dc.lft.to/lastmile_qr_scan", "android": "https://dc.lft.to/lastmile_qr_scan"}, "fusion_lon": 0.0, "type": "electric_scooter", "is_reserved": 0, "lon": -77.02241316666667, "is_disabled": 0, "fusion_lat": 0.0, "bike_id": "d88fd595c5285213ca6df194fd3f9874", "name": "d88fd595c5285213ca6df194fd3f9874", "lat": 38.92464866666667}, {"rental_uris": {"ios": "https://dc.lft.to/lastmile_qr_scan", "android": "https://dc.lft.to/lastmile_qr_scan"}, "fusion_lon": 0.0, "type": "electric_scooter", "is_reserved": 0, "lon": -77.02951366666667, "is_disabled": 0, "fusion_lat": 0.0, "bike_id": "056394ebe1c31d43da833bc14528e31b", "name": "056394ebe1c31d43da833bc14528e31b", "lat": 38.901763333333335}, {"rental_uris": {"ios": "https://dc.lft.to/lastmile_qr_scan", "android": "https://dc.lft.to/lastmile_qr_scan"}, "fusion_lon": 0.0, "type": "electric_scooter", "is_reserved": 0, "lon": -77.01671633333333, "is_disabled": 0, "fusion_lat": 0.0, "bike_id": "2b31bcc81febef072cf90139d906d9aa", "name": "2b31bcc81febef072cf90139d906d9aa", "lat": 38.877066}, {"rental_uris": {"ios": "https://dc.lft.to/lastmile_qr_scan", "android": "https://dc.lft.to/lastmile_qr_scan"}, "fusion_lon": 0.0, "type": "electric_scooter", "is_reserved": 0, "lon": -77.03711766666666, "is_disabled": 0, "fusion_lat": 0.0, "bike_id": "136a64d5fa3ffe698a4236681e78c9db", "name": "136a64d5fa3ffe698a4236681e78c9db", "lat": 38.906199}, {"rental_uris": {"ios": "https://dc.lft.to/lastmile_qr_scan", "android": "https://dc.lft.to/lastmile_qr_scan"}, "fusion_lon": 0.0, "type": "electric_scooter", "is_reserved": 0, "lon": -76.98688483333333, "is_disabled": 0, "fusion_lat": 0.0, "bike_id": "696a4b38475e2e3c3ef9d14609dbfba4", "name": "696a4b38475e2e3c3ef9d14609dbfba4", "lat": 38.91299166666667}, {"rental_uris": {"ios": "https://dc.lft.to/lastmile_qr_scan", "android": "https://dc.lft.to/lastmile_qr_scan"}, "fusion_lon": 0.0, "type": "electric_scooter", "is_reserved": 0, "lon": -77.03842666666667, "is_disabled": 0, "fusion_lat": 0.0, "bike_id": "15075869e864ca655dbce32ffd58ab38", "name": "15075869e864ca655dbce32ffd58ab38", "lat": 38.90136283333333}, {"rental_uris": {"ios": "https://dc.lft.to/lastmile_qr_scan", "android": "https://dc.lft.to/lastmile_qr_scan"}, "fusion_lon": 0.0, "type": "electric_scooter", "is_reserved": 0, "lon": -76.99838066666666, "is_disabled": 0, "fusion_lat": 0.0, "bike_id": "5ce7b528515c70901da41bb48638b460", "name": "5ce7b528515c70901da41bb48638b460", "lat": 38.92517733333333}, {"rental_uris": {"ios": "https://dc.lft.to/lastmile_qr_scan", "android": "https://dc.lft.to/lastmile_qr_scan"}, "fusion_lon": 0.0, "type": "electric_scooter", "is_reserved": 0, "lon": -77.07185616666666, "is_disabled": 0, "fusion_lat": 0.0, "bike_id": "2ef855f65eeaea6d6ec867ec5fea9888", "name": "2ef855f65eeaea6d6ec867ec5fea9888", "lat": 38.90676116666667}, {"rental_uris": {"ios": "https://dc.lft.to/lastmile_qr_scan", "android": "https://dc.lft.to/lastmile_qr_scan"}, "fusion_lon": 0.0, "type": "electric_scooter", "is_reserved": 0, "lon": -77.02661233333333, "is_disabled": 0, "fusion_lat": 0.0, "bike_id": "55384bdaa9b918d1349411e744740f2b", "name": "55384bdaa9b918d1349411e744740f2b", "lat": 38.9150315}, {"rental_uris": {"ios": "https://dc.lft.to/lastmile_qr_scan", "android": "https://dc.lft.to/lastmile_qr_scan"}, "fusion_lon": 0.0, "type": "electric_scooter", "is_reserved": 0, "lon": -77.0320995, "is_disabled": 0, "fusion_lat": 0.0, "bike_id": "3895524cca6e2cf4fdecb37047be87bc", "name": "3895524cca6e2cf4fdecb37047be87bc", "lat": 38.892368166666664}, {"rental_uris": {"ios": "https://dc.lft.to/lastmile_qr_scan", "android": "https://dc.lft.to/lastmile_qr_scan"}, "fusion_lon": 0.0, "type": "electric_scooter", "is_reserved": 0, "lon": -77.03265283333333, "is_disabled": 0, "fusion_lat": 0.0, "bike_id": "06f1f8de7555d472a5b9e5ef0a9f58ab", "name": "06f1f8de7555d472a5b9e5ef0a9f58ab", "lat": 38.9282605}, {"rental_uris": {"ios": "https://dc.lft.to/lastmile_qr_scan", "android": "https://dc.lft.to/lastmile_qr_scan"}, "fusion_lon": 0.0, "type": "electric_scooter", "is_reserved": 0, "lon": -77.0106795, "is_disabled": 0, "fusion_lat": 0.0, "bike_id": "d5941bed19ed9423c461ff717b7c85f9", "name": "d5941bed19ed9423c461ff717b7c85f9", "lat": 38.91406516666667}, {"rental_uris": {"ios": "https://dc.lft.to/lastmile_qr_scan", "android": "https://dc.lft.to/lastmile_qr_scan"}, "fusion_lon": 0.0, "type": "electric_bike", "is_reserved": 0, "lon": -76.98839016666666, "is_disabled": 0, "fusion_lat": 0.0, "bike_id": "4812ddf7f74078398eb00d0bec4107fd", "name": "4812ddf7f74078398eb00d0bec4107fd", "lat": 38.842755333333336}, {"rental_uris": {"ios": "https://dc.lft.to/lastmile_qr_scan", "android": "https://dc.lft.to/lastmile_qr_scan"}, "fusion_lon": 0.0, "type": "electric_scooter", "is_reserved": 0, "lon": -77.0475055, "is_disabled": 0, "fusion_lat": 0.0, "bike_id": "51cd0b397eb2c1557c5325f3e0f82fc7", "name": "51cd0b397eb2c1557c5325f3e0f82fc7", "lat": 38.9014645}, {"rental_uris": {"ios": "https://dc.lft.to/lastmile_qr_scan", "android": "https://dc.lft.to/lastmile_qr_scan"}, "fusion_lon": 0.0, "type": "electric_scooter", "is_reserved": 0, "lon": -77.0212425, "is_disabled": 0, "fusion_lat": 0.0, "bike_id": "7fdc506c9a6b64ae9dd8c31d2b881bad", "name": "7fdc506c9a6b64ae9dd8c31d2b881bad", "lat": 38.92415116666667}, {"rental_uris": {"ios": "https://dc.lft.to/lastmile_qr_scan", "android": "https://dc.lft.to/lastmile_qr_scan"}, "fusion_lon": 0.0, "type": "electric_scooter", "is_reserved": 0, "lon": -77.03208916666667, "is_disabled": 0, "fusion_lat": 0.0, "bike_id": "5679c6f29b5f390b20665e89681b6eab", "name": "5679c6f29b5f390b20665e89681b6eab", "lat": 38.90364}, {"rental_uris": {"ios": "https://dc.lft.to/lastmile_qr_scan", "android": "https://dc.lft.to/lastmile_qr_scan"}, "fusion_lon": 0.0, "type": "electric_scooter", "is_reserved": 0, "lon": -77.04612383333334, "is_disabled": 0, "fusion_lat": 0.0, "bike_id": "bba8038b830c14d03dcf16a568d89413", "name": "bba8038b830c14d03dcf16a568d89413", "lat": 38.905949666666665}, {"rental_uris": {"ios": "https://dc.lft.to/lastmile_qr_scan", "android": "https://dc.lft.to/lastmile_qr_scan"}, "fusion_lon": 0.0, "type": "electric_scooter", "is_reserved": 0, "lon": -77.03528383333334, "is_disabled": 0, "fusion_lat": 0.0, "bike_id": "fa90d8cf607267731ea5d66c72b5b267", "name": "fa90d8cf607267731ea5d66c72b5b267", "lat": 38.9077565}, {"rental_uris": {"ios": "https://dc.lft.to/lastmile_qr_scan", "android": "https://dc.lft.to/lastmile_qr_scan"}, "fusion_lon": 0.0, "type": "electric_scooter", "is_reserved": 0, "lon": -77.01497283333333, "is_disabled": 0, "fusion_lat": 0.0, "bike_id": "49b62856e8c58141a87ae081a234b1c0", "name": "49b62856e8c58141a87ae081a234b1c0", "lat": 38.8926335}, {"rental_uris": {"ios": "https://dc.lft.to/lastmile_qr_scan", "android": "https://dc.lft.to/lastmile_qr_scan"}, "fusion_lon": 0.0, "type": "electric_scooter", "is_reserved": 0, "lon": -77.03436366666666, "is_disabled": 0, "fusion_lat": 0.0, "bike_id": "9ed45b6b0bc885f1986795cba79244ec", "name": "9ed45b6b0bc885f1986795cba79244ec", "lat": 38.910358333333335}, {"rental_uris": {"ios": "https://dc.lft.to/lastmile_qr_scan", "android": "https://dc.lft.to/lastmile_qr_scan"}, "fusion_lon": 0.0, "type": "electric_scooter", "is_reserved": 0, "lon": -77.0232165, "is_disabled": 0, "fusion_lat": 0.0, "bike_id": "5a06685e60dd3b75b02fd5f848ae6d3a", "name": "5a06685e60dd3b75b02fd5f848ae6d3a", "lat": 38.89940683333333}, {"rental_uris": {"ios": "https://dc.lft.to/lastmile_qr_scan", "android": "https://dc.lft.to/lastmile_qr_scan"}, "fusion_lon": 0.0, "type": "electric_scooter", "is_reserved": 0, "lon": -77.02742516666666, "is_disabled": 0, "fusion_lat": 0.0, "bike_id": "093ef2f2eedbaf22475e6659aca7dae9", "name": "093ef2f2eedbaf22475e6659aca7dae9", "lat": 38.92406416666667}, {"rental_uris": {"ios": "https://dc.lft.to/lastmile_qr_scan", "android": "https://dc.lft.to/lastmile_qr_scan"}, "fusion_lon": 0.0, "type": "electric_scooter", "is_reserved": 0, "lon": -77.02837583333333, "is_disabled": 0, "fusion_lat": 0.0, "bike_id": "abb4f93768be514e0ea265e6a95a7fd3", "name": "abb4f93768be514e0ea265e6a95a7fd3", "lat": 38.90211766666667}, {"rental_uris": {"ios": "https://dc.lft.to/lastmile_qr_scan", "android": "https://dc.lft.to/lastmile_qr_scan"}, "fusion_lon": 0.0, "type": "electric_scooter", "is_reserved": 0, "lon": -77.041229, "is_disabled": 0, "fusion_lat": 0.0, "bike_id": "207ea80100f48ce3167a81b311134629", "name": "207ea80100f48ce3167a81b311134629", "lat": 38.919674666666666}, {"rental_uris": {"ios": "https://dc.lft.to/lastmile_qr_scan", "android": "https://dc.lft.to/lastmile_qr_scan"}, "fusion_lon": 0.0, "type": "electric_scooter", "is_reserved": 0, "lon": -77.02163333333333, "is_disabled": 0, "fusion_lat": 0.0, "bike_id": "16a1c07f31c75d0c70b5839553668429", "name": "16a1c07f31c75d0c70b5839553668429", "lat": 38.930692}, {"rental_uris": {"ios": "https://dc.lft.to/lastmile_qr_scan", "android": "https://dc.lft.to/lastmile_qr_scan"}, "fusion_lon": 0.0, "type": "electric_scooter", "is_reserved": 0, "lon": -77.0281215, "is_disabled": 0, "fusion_lat": 0.0, "bike_id": "d2e30dcd2bff437d89d0e99b3109ee74", "name": "d2e30dcd2bff437d89d0e99b3109ee74", "lat": 38.922357166666664}, {"rental_uris": {"ios": "https://dc.lft.to/lastmile_qr_scan", "android": "https://dc.lft.to/lastmile_qr_scan"}, "fusion_lon": 0.0, "type": "electric_scooter", "is_reserved": 0, "lon": -77.0819175, "is_disabled": 0, "fusion_lat": 0.0, "bike_id": "5bd690b5bfb1f74d4270b7dba0077956", "name": "5bd690b5bfb1f74d4270b7dba0077956", "lat": 38.920977666666666}, {"rental_uris": {"ios": "https://dc.lft.to/lastmile_qr_scan", "android": "https://dc.lft.to/lastmile_qr_scan"}, "fusion_lon": 0.0, "type": "electric_scooter", "is_reserved": 0, "lon": -77.01856866666667, "is_disabled": 0, "fusion_lat": 0.0, "bike_id": "0288e342c0f4fb48efa351cd744f8f3e", "name": "0288e342c0f4fb48efa351cd744f8f3e", "lat": 38.905665}, {"rental_uris": {"ios": "https://dc.lft.to/lastmile_qr_scan", "android": "https://dc.lft.to/lastmile_qr_scan"}, "fusion_lon": 0.0, "type": "electric_scooter", "is_reserved": 0, "lon": -77.02224033333333, "is_disabled": 0, "fusion_lat": 0.0, "bike_id": "5e065bd27f50f02039b32dc11714d592", "name": "5e065bd27f50f02039b32dc11714d592", "lat": 38.920900333333336}, {"rental_uris": {"ios": "https://dc.lft.to/lastmile_qr_scan", "android": "https://dc.lft.to/lastmile_qr_scan"}, "fusion_lon": 0.0, "type": "electric_scooter", "is_reserved": 0, "lon": -77.01749733333334, "is_disabled": 0, "fusion_lat": 0.0, "bike_id": "16457407941a2ae355a972d27b22296a", "name": "16457407941a2ae355a972d27b22296a", "lat": 38.91691016666667}, {"rental_uris": {"ios": "https://dc.lft.to/lastmile_qr_scan", "android": "https://dc.lft.to/lastmile_qr_scan"}, "fusion_lon": 0.0, "type": "electric_scooter", "is_reserved": 0, "lon": -77.02207233333333, "is_disabled": 0, "fusion_lat": 0.0, "bike_id": "b728b918b0c541092c9830a228f0da5c", "name": "b728b918b0c541092c9830a228f0da5c", "lat": 38.89900266666667}, {"rental_uris": {"ios": "https://dc.lft.to/lastmile_qr_scan", "android": "https://dc.lft.to/lastmile_qr_scan"}, "fusion_lon": 0.0, "type": "electric_scooter", "is_reserved": 0, "lon": -77.01483033333334, "is_disabled": 0, "fusion_lat": 0.0, "bike_id": "ff0857f78c9537d3c9a6284520d59de0", "name": "ff0857f78c9537d3c9a6284520d59de0", "lat": 38.91324433333333}, {"rental_uris": {"ios": "https://dc.lft.to/lastmile_qr_scan", "android": "https://dc.lft.to/lastmile_qr_scan"}, "fusion_lon": 0.0, "type": "electric_scooter", "is_reserved": 0, "lon": -77.00338716666667, "is_disabled": 0, "fusion_lat": 0.0, "bike_id": "a63ee054beef4740741089306e2ea012", "name": "a63ee054beef4740741089306e2ea012", "lat": 38.893572}, {"rental_uris": {"ios": "https://dc.lft.to/lastmile_qr_scan", "android": "https://dc.lft.to/lastmile_qr_scan"}, "fusion_lon": 0.0, "type": "electric_scooter", "is_reserved": 0, "lon": -77.048414, "is_disabled": 0, "fusion_lat": 0.0, "bike_id": "f328929ebf18d7a47f7fae1f15ab6ce6", "name": "f328929ebf18d7a47f7fae1f15ab6ce6", "lat": 38.89957966666667}, {"rental_uris": {"ios": "https://dc.lft.to/lastmile_qr_scan", "android": "https://dc.lft.to/lastmile_qr_scan"}, "fusion_lon": 0.0, "type": "electric_scooter", "is_reserved": 0, "lon": -77.03152116666666, "is_disabled": 0, "fusion_lat": 0.0, "bike_id": "a6af23ccbb53fd990c6d0d175ed6b13a", "name": "a6af23ccbb53fd990c6d0d175ed6b13a", "lat": 38.92031333333333}, {"rental_uris": {"ios": "https://dc.lft.to/lastmile_qr_scan", "android": "https://dc.lft.to/lastmile_qr_scan"}, "fusion_lon": 0.0, "type": "electric_scooter", "is_reserved": 0, "lon": -77.01971133333333, "is_disabled": 0, "fusion_lat": 0.0, "bike_id": "f1530c2846e79be0f0d098a542c8a7d2", "name": "f1530c2846e79be0f0d098a542c8a7d2", "lat": 38.89327133333333}, {"rental_uris": {"ios": "https://dc.lft.to/lastmile_qr_scan", "android": "https://dc.lft.to/lastmile_qr_scan"}, "fusion_lon": 0.0, "type": "electric_scooter", "is_reserved": 0, "lon": -77.04193283333333, "is_disabled": 0, "fusion_lat": 0.0, "bike_id": "1278c1f5f4dfe51a387a8fa8ae3e24b5", "name": "1278c1f5f4dfe51a387a8fa8ae3e24b5", "lat": 38.899782}, {"rental_uris": {"ios": "https://dc.lft.to/lastmile_qr_scan", "android": "https://dc.lft.to/lastmile_qr_scan"}, "fusion_lon": 0.0, "type": "electric_scooter", "is_reserved": 0, "lon": -76.96896816666667, "is_disabled": 0, "fusion_lat": 0.0, "bike_id": "72fe81677c63d7baf508e9d522e8bc88", "name": "72fe81677c63d7baf508e9d522e8bc88", "lat": 38.91893916666667}, {"rental_uris": {"ios": "https://dc.lft.to/lastmile_qr_scan", "android": "https://dc.lft.to/lastmile_qr_scan"}, "fusion_lon": 0.0, "type": "electric_scooter", "is_reserved": 0, "lon": -77.0405055, "is_disabled": 0, "fusion_lat": 0.0, "bike_id": "0e78d4e73799e31a898d308537933d60", "name": "0e78d4e73799e31a898d308537933d60", "lat": 38.9240385}, {"rental_uris": {"ios": "https://dc.lft.to/lastmile_qr_scan", "android": "https://dc.lft.to/lastmile_qr_scan"}, "fusion_lon": 0.0, "type": "electric_scooter", "is_reserved": 0, "lon": -76.9772835, "is_disabled": 0, "fusion_lat": 0.0, "bike_id": "4ccdd9f53b3ec5b5cd857c83ef5d752c", "name": "4ccdd9f53b3ec5b5cd857c83ef5d752c", "lat": 38.88849283333333}, {"rental_uris": {"ios": "https://dc.lft.to/lastmile_qr_scan", "android": "https://dc.lft.to/lastmile_qr_scan"}, "fusion_lon": 0.0, "type": "electric_scooter", "is_reserved": 0, "lon": -77.04430066666667, "is_disabled": 0, "fusion_lat": 0.0, "bike_id": "87c6184e31fc7a112186ec0332a0e6ae", "name": "87c6184e31fc7a112186ec0332a0e6ae", "lat": 38.91526733333333}, {"rental_uris": {"ios": "https://dc.lft.to/lastmile_qr_scan", "android": "https://dc.lft.to/lastmile_qr_scan"}, "fusion_lon": 0.0, "type": "electric_scooter", "is_reserved": 0, "lon": -76.99607833333333, "is_disabled": 0, "fusion_lat": 0.0, "bike_id": "ace90a46f69b4466fb4968090202a1ce", "name": "ace90a46f69b4466fb4968090202a1ce", "lat": 38.87790533333333}, {"rental_uris": {"ios": "https://dc.lft.to/lastmile_qr_scan", "android": "https://dc.lft.to/lastmile_qr_scan"}, "fusion_lon": 0.0, "type": "electric_scooter", "is_reserved": 0, "lon": -76.99512483333334, "is_disabled": 0, "fusion_lat": 0.0, "bike_id": "4451c0b7e502269df8dcc0511fb3eaf0", "name": "4451c0b7e502269df8dcc0511fb3eaf0", "lat": 38.8948245}, {"rental_uris": {"ios": "https://dc.lft.to/lastmile_qr_scan", "android": "https://dc.lft.to/lastmile_qr_scan"}, "fusion_lon": 0.0, "type": "electric_scooter", "is_reserved": 0, "lon": -77.04187366666666, "is_disabled": 0, "fusion_lat": 0.0, "bike_id": "940a5d5f2be8e906905514377ae292d5", "name": "940a5d5f2be8e906905514377ae292d5", "lat": 38.919856833333334}, {"rental_uris": {"ios": "https://dc.lft.to/lastmile_qr_scan", "android": "https://dc.lft.to/lastmile_qr_scan"}, "fusion_lon": 0.0, "type": "electric_scooter", "is_reserved": 0, "lon": -77.03423583333333, "is_disabled": 0, "fusion_lat": 0.0, "bike_id": "0417dc991323145dc711143c50320f78", "name": "0417dc991323145dc711143c50320f78", "lat": 38.90961166666666}, {"rental_uris": {"ios": "https://dc.lft.to/lastmile_qr_scan", "android": "https://dc.lft.to/lastmile_qr_scan"}, "fusion_lon": 0.0, "type": "electric_scooter", "is_reserved": 0, "lon": -77.02800383333333, "is_disabled": 0, "fusion_lat": 0.0, "bike_id": "808e09c2266335c1e349ebee3be7e622", "name": "808e09c2266335c1e349ebee3be7e622", "lat": 38.9161745}, {"rental_uris": {"ios": "https://dc.lft.to/lastmile_qr_scan", "android": "https://dc.lft.to/lastmile_qr_scan"}, "fusion_lon": 0.0, "type": "electric_scooter", "is_reserved": 0, "lon": -76.95429916666667, "is_disabled": 0, "fusion_lat": 0.0, "bike_id": "85cd52bf531bf8f801ab649803a4367e", "name": "85cd52bf531bf8f801ab649803a4367e", "lat": 38.885729833333336}, {"rental_uris": {"ios": "https://dc.lft.to/lastmile_qr_scan", "android": "https://dc.lft.to/lastmile_qr_scan"}, "fusion_lon": 0.0, "type": "electric_scooter", "is_reserved": 0, "lon": -77.02239716666666, "is_disabled": 0, "fusion_lat": 0.0, "bike_id": "c67c7a6fd9addff5f0ea16394dd6545b", "name": "c67c7a6fd9addff5f0ea16394dd6545b", "lat": 38.92464016666667}, {"rental_uris": {"ios": "https://dc.lft.to/lastmile_qr_scan", "android": "https://dc.lft.to/lastmile_qr_scan"}, "fusion_lon": 0.0, "type": "electric_scooter", "is_reserved": 0, "lon": -77.03254083333333, "is_disabled": 0, "fusion_lat": 0.0, "bike_id": "426af4ec48c06d2429f8709e2b5d4fa3", "name": "426af4ec48c06d2429f8709e2b5d4fa3", "lat": 38.92155916666667}, {"rental_uris": {"ios": "https://dc.lft.to/lastmile_qr_scan", "android": "https://dc.lft.to/lastmile_qr_scan"}, "fusion_lon": 0.0, "type": "electric_scooter", "is_reserved": 0, "lon": -77.0342115, "is_disabled": 0, "fusion_lat": 0.0, "bike_id": "d05ac887a9c7b9ff068a6f53c336832b", "name": "d05ac887a9c7b9ff068a6f53c336832b", "lat": 38.91923116666667}, {"rental_uris": {"ios": "https://dc.lft.to/lastmile_qr_scan", "android": "https://dc.lft.to/lastmile_qr_scan"}, "fusion_lon": 0.0, "type": "electric_scooter", "is_reserved": 0, "lon": -77.03631633333333, "is_disabled": 0, "fusion_lat": 0.0, "bike_id": "843889249005c8c05fdbd68929e2943b", "name": "843889249005c8c05fdbd68929e2943b", "lat": 38.9348355}, {"rental_uris": {"ios": "https://dc.lft.to/lastmile_qr_scan", "android": "https://dc.lft.to/lastmile_qr_scan"}, "fusion_lon": 0.0, "type": "electric_bike", "is_reserved": 0, "lon": -77.0961235, "is_disabled": 0, "fusion_lat": 0.0, "bike_id": "617f9fbf6e1665359b6b241a2c08e474", "name": "617f9fbf6e1665359b6b241a2c08e474", "lat": 38.97440233333333}, {"rental_uris": {"ios": "https://dc.lft.to/lastmile_qr_scan", "android": "https://dc.lft.to/lastmile_qr_scan"}, "fusion_lon": 0.0, "type": "electric_scooter", "is_reserved": 0, "lon": -76.98606266666667, "is_disabled": 0, "fusion_lat": 0.0, "bike_id": "29fc904a92435032370b6749b9aa01e5", "name": "29fc904a92435032370b6749b9aa01e5", "lat": 38.854587333333335}, {"rental_uris": {"ios": "https://dc.lft.to/lastmile_qr_scan", "android": "https://dc.lft.to/lastmile_qr_scan"}, "fusion_lon": 0.0, "type": "electric_scooter", "is_reserved": 0, "lon": -76.986443, "is_disabled": 0, "fusion_lat": 0.0, "bike_id": "0f3fa3edf41ac5fef4c5875579781a65", "name": "0f3fa3edf41ac5fef4c5875579781a65", "lat": 38.93287183333333}, {"rental_uris": {"ios": "https://dc.lft.to/lastmile_qr_scan", "android": "https://dc.lft.to/lastmile_qr_scan"}, "fusion_lon": 0.0, "type": "electric_scooter", "is_reserved": 0, "lon": -77.02362583333333, "is_disabled": 0, "fusion_lat": 0.0, "bike_id": "bdb1ffb90a1623e926d6c200b04a5a4c", "name": "bdb1ffb90a1623e926d6c200b04a5a4c", "lat": 38.90226083333334}, {"rental_uris": {"ios": "https://dc.lft.to/lastmile_qr_scan", "android": "https://dc.lft.to/lastmile_qr_scan"}, "fusion_lon": 0.0, "type": "electric_scooter", "is_reserved": 0, "lon": -77.04326083333333, "is_disabled": 0, "fusion_lat": 0.0, "bike_id": "d3f50c58f3ab8cb4dc0a817e36d7566d", "name": "d3f50c58f3ab8cb4dc0a817e36d7566d", "lat": 38.905546333333334}, {"rental_uris": {"ios": "https://dc.lft.to/lastmile_qr_scan", "android": "https://dc.lft.to/lastmile_qr_scan"}, "fusion_lon": 0.0, "type": "electric_scooter", "is_reserved": 0, "lon": -76.9332745, "is_disabled": 0, "fusion_lat": 0.0, "bike_id": "6ed382a727846bc02b1f5e6fb72c7de6", "name": "6ed382a727846bc02b1f5e6fb72c7de6", "lat": 38.88241933333333}, {"rental_uris": {"ios": "https://dc.lft.to/lastmile_qr_scan", "android": "https://dc.lft.to/lastmile_qr_scan"}, "fusion_lon": 0.0, "type": "electric_scooter", "is_reserved": 0, "lon": -77.02070933333333, "is_disabled": 0, "fusion_lat": 0.0, "bike_id": "8954ee3fc95f427d0ec8b8b89d652d2e", "name": "8954ee3fc95f427d0ec8b8b89d652d2e", "lat": 38.893825}, {"rental_uris": {"ios": "https://dc.lft.to/lastmile_qr_scan", "android": "https://dc.lft.to/lastmile_qr_scan"}, "fusion_lon": 0.0, "type": "electric_scooter", "is_reserved": 0, "lon": -76.93206783333333, "is_disabled": 0, "fusion_lat": 0.0, "bike_id": "484ac413d1513b34a275ef3264518fa1", "name": "484ac413d1513b34a275ef3264518fa1", "lat": 38.898558333333334}, {"rental_uris": {"ios": "https://dc.lft.to/lastmile_qr_scan", "android": "https://dc.lft.to/lastmile_qr_scan"}, "fusion_lon": 0.0, "type": "electric_scooter", "is_reserved": 0, "lon": -77.022729, "is_disabled": 0, "fusion_lat": 0.0, "bike_id": "5f280fef15e655a517c7c9983bc4d513", "name": "5f280fef15e655a517c7c9983bc4d513", "lat": 38.89840233333334}, {"rental_uris": {"ios": "https://dc.lft.to/lastmile_qr_scan", "android": "https://dc.lft.to/lastmile_qr_scan"}, "fusion_lon": 0.0, "type": "electric_scooter", "is_reserved": 0, "lon": -77.04156933333333, "is_disabled": 0, "fusion_lat": 0.0, "bike_id": "23d366b9e641acdfbf6924a07a8a7ea2", "name": "23d366b9e641acdfbf6924a07a8a7ea2", "lat": 38.918657333333336}, {"rental_uris": {"ios": "https://dc.lft.to/lastmile_qr_scan", "android": "https://dc.lft.to/lastmile_qr_scan"}, "fusion_lon": 0.0, "type": "electric_scooter", "is_reserved": 0, "lon": -76.99076333333333, "is_disabled": 0, "fusion_lat": 0.0, "bike_id": "f60395cbb7eea4063097ae798f5bcb3f", "name": "f60395cbb7eea4063097ae798f5bcb3f", "lat": 38.855623333333334}, {"rental_uris": {"ios": "https://dc.lft.to/lastmile_qr_scan", "android": "https://dc.lft.to/lastmile_qr_scan"}, "fusion_lon": 0.0, "type": "electric_scooter", "is_reserved": 0, "lon": -77.015326, "is_disabled": 0, "fusion_lat": 0.0, "bike_id": "1a2413bdeb3ac961e19fb6f2b1546e86", "name": "1a2413bdeb3ac961e19fb6f2b1546e86", "lat": 38.9268195}, {"rental_uris": {"ios": "https://dc.lft.to/lastmile_qr_scan", "android": "https://dc.lft.to/lastmile_qr_scan"}, "fusion_lon": 0.0, "type": "electric_scooter", "is_reserved": 0, "lon": -77.02826116666667, "is_disabled": 0, "fusion_lat": 0.0, "bike_id": "b5d6ef0b6dfbc67191e92da6756d0aec", "name": "b5d6ef0b6dfbc67191e92da6756d0aec", "lat": 38.92225083333334}, {"rental_uris": {"ios": "https://dc.lft.to/lastmile_qr_scan", "android": "https://dc.lft.to/lastmile_qr_scan"}, "fusion_lon": 0.0, "type": "electric_scooter", "is_reserved": 0, "lon": -77.02110433333333, "is_disabled": 0, "fusion_lat": 0.0, "bike_id": "3ef8f3ce7b77af24aabfe8092cd9ba23", "name": "3ef8f3ce7b77af24aabfe8092cd9ba23", "lat": 38.9222545}, {"rental_uris": {"ios": "https://dc.lft.to/lastmile_qr_scan", "android": "https://dc.lft.to/lastmile_qr_scan"}, "fusion_lon": 0.0, "type": "electric_scooter", "is_reserved": 0, "lon": -77.01958016666667, "is_disabled": 0, "fusion_lat": 0.0, "bike_id": "b97ee21feb880c190c755252becb3527", "name": "b97ee21feb880c190c755252becb3527", "lat": 38.923236333333335}, {"rental_uris": {"ios": "https://dc.lft.to/lastmile_qr_scan", "android": "https://dc.lft.to/lastmile_qr_scan"}, "fusion_lon": 0.0, "type": "electric_scooter", "is_reserved": 0, "lon": -77.02708316666667, "is_disabled": 0, "fusion_lat": 0.0, "bike_id": "1f90a844cbdc56a7d9a0de484acc4aff", "name": "1f90a844cbdc56a7d9a0de484acc4aff", "lat": 38.881296}, {"rental_uris": {"ios": "https://dc.lft.to/lastmile_qr_scan", "android": "https://dc.lft.to/lastmile_qr_scan"}, "fusion_lon": 0.0, "type": "electric_scooter", "is_reserved": 0, "lon": -77.028191, "is_disabled": 0, "fusion_lat": 0.0, "bike_id": "593b0dcfb3812d972a8069ec55cf8a2b", "name": "593b0dcfb3812d972a8069ec55cf8a2b", "lat": 38.91612516666667}, {"rental_uris": {"ios": "https://dc.lft.to/lastmile_qr_scan", "android": "https://dc.lft.to/lastmile_qr_scan"}, "fusion_lon": 0.0, "type": "electric_scooter", "is_reserved": 0, "lon": -77.02593583333334, "is_disabled": 0, "fusion_lat": 0.0, "bike_id": "0442ac77530f6dff9a0b7afebf8af9ef", "name": "0442ac77530f6dff9a0b7afebf8af9ef", "lat": 38.91693033333333}, {"rental_uris": {"ios": "https://dc.lft.to/lastmile_qr_scan", "android": "https://dc.lft.to/lastmile_qr_scan"}, "fusion_lon": 0.0, "type": "electric_scooter", "is_reserved": 0, "lon": -77.029443, "is_disabled": 0, "fusion_lat": 0.0, "bike_id": "8a9366a1a79f5732684c4414ae688ccc", "name": "8a9366a1a79f5732684c4414ae688ccc", "lat": 38.942698}, {"rental_uris": {"ios": "https://dc.lft.to/lastmile_qr_scan", "android": "https://dc.lft.to/lastmile_qr_scan"}, "fusion_lon": 0.0, "type": "electric_scooter", "is_reserved": 0, "lon": -77.022438, "is_disabled": 0, "fusion_lat": 0.0, "bike_id": "091b572855c6136e6e48d9ab1ede2327", "name": "091b572855c6136e6e48d9ab1ede2327", "lat": 38.924639666666664}, {"rental_uris": {"ios": "https://dc.lft.to/lastmile_qr_scan", "android": "https://dc.lft.to/lastmile_qr_scan"}, "fusion_lon": 0.0, "type": "electric_scooter", "is_reserved": 0, "lon": -77.0258885, "is_disabled": 0, "fusion_lat": 0.0, "bike_id": "8814ba3adbfb7212feee4a52f5d5b60f", "name": "8814ba3adbfb7212feee4a52f5d5b60f", "lat": 38.943486166666666}, {"rental_uris": {"ios": "https://dc.lft.to/lastmile_qr_scan", "android": "https://dc.lft.to/lastmile_qr_scan"}, "fusion_lon": 0.0, "type": "electric_scooter", "is_reserved": 0, "lon": -77.02003416666666, "is_disabled": 0, "fusion_lat": 0.0, "bike_id": "4c139c84845cd4003f0a4377f02ee357", "name": "4c139c84845cd4003f0a4377f02ee357", "lat": 38.88557633333333}, {"rental_uris": {"ios": "https://dc.lft.to/lastmile_qr_scan", "android": "https://dc.lft.to/lastmile_qr_scan"}, "fusion_lon": 0.0, "type": "electric_scooter", "is_reserved": 0, "lon": -77.01059083333334, "is_disabled": 0, "fusion_lat": 0.0, "bike_id": "a494c5e874863fe4ba578253ff66e933", "name": "a494c5e874863fe4ba578253ff66e933", "lat": 38.877341333333334}, {"rental_uris": {"ios": "https://dc.lft.to/lastmile_qr_scan", "android": "https://dc.lft.to/lastmile_qr_scan"}, "fusion_lon": 0.0, "type": "electric_scooter", "is_reserved": 0, "lon": -77.02138916666667, "is_disabled": 0, "fusion_lat": 0.0, "bike_id": "64f29426f15bce225532c925b9543f58", "name": "64f29426f15bce225532c925b9543f58", "lat": 38.91916466666667}, {"rental_uris": {"ios": "https://dc.lft.to/lastmile_qr_scan", "android": "https://dc.lft.to/lastmile_qr_scan"}, "fusion_lon": 0.0, "type": "electric_scooter", "is_reserved": 0, "lon": -76.97637283333333, "is_disabled": 0, "fusion_lat": 0.0, "bike_id": "760a1d31c845bef1ce190bcf06c16c77", "name": "760a1d31c845bef1ce190bcf06c16c77", "lat": 38.88688166666667}, {"rental_uris": {"ios": "https://dc.lft.to/lastmile_qr_scan", "android": "https://dc.lft.to/lastmile_qr_scan"}, "fusion_lon": 0.0, "type": "electric_scooter", "is_reserved": 0, "lon": -77.03823383333334, "is_disabled": 0, "fusion_lat": 0.0, "bike_id": "ed34e2a47026e3c52e57c9ea42da0c66", "name": "ed34e2a47026e3c52e57c9ea42da0c66", "lat": 38.903874333333334}, {"rental_uris": {"ios": "https://dc.lft.to/lastmile_qr_scan", "android": "https://dc.lft.to/lastmile_qr_scan"}, "fusion_lon": 0.0, "type": "electric_scooter", "is_reserved": 0, "lon": -77.02573766666667, "is_disabled": 0, "fusion_lat": 0.0, "bike_id": "ec1496144cfe5c35e23b74b5bc2fd589", "name": "ec1496144cfe5c35e23b74b5bc2fd589", "lat": 38.9205875}, {"rental_uris": {"ios": "https://dc.lft.to/lastmile_qr_scan", "android": "https://dc.lft.to/lastmile_qr_scan"}, "fusion_lon": 0.0, "type": "electric_scooter", "is_reserved": 0, "lon": -76.92948783333334, "is_disabled": 0, "fusion_lat": 0.0, "bike_id": "c32db1912a13fdaa3d07f4d303aa3607", "name": "c32db1912a13fdaa3d07f4d303aa3607", "lat": 38.90174966666667}, {"rental_uris": {"ios": "https://dc.lft.to/lastmile_qr_scan", "android": "https://dc.lft.to/lastmile_qr_scan"}, "fusion_lon": 0.0, "type": "electric_scooter", "is_reserved": 0, "lon": -77.00334966666667, "is_disabled": 0, "fusion_lat": 0.0, "bike_id": "9659d9d487ad936fe8bde84034ba369b", "name": "9659d9d487ad936fe8bde84034ba369b", "lat": 38.89356333333333}, {"rental_uris": {"ios": "https://dc.lft.to/lastmile_qr_scan", "android": "https://dc.lft.to/lastmile_qr_scan"}, "fusion_lon": 0.0, "type": "electric_scooter", "is_reserved": 0, "lon": -77.04372066666667, "is_disabled": 0, "fusion_lat": 0.0, "bike_id": "2a42ad3f53ac48b6bcd94fa0f05524df", "name": "2a42ad3f53ac48b6bcd94fa0f05524df", "lat": 38.92120166666667}, {"rental_uris": {"ios": "https://dc.lft.to/lastmile_qr_scan", "android": "https://dc.lft.to/lastmile_qr_scan"}, "fusion_lon": 0.0, "type": "electric_scooter", "is_reserved": 0, "lon": -77.03387666666667, "is_disabled": 0, "fusion_lat": 0.0, "bike_id": "c5f3a68e5d5e3f57c1c6290939d14a9e", "name": "c5f3a68e5d5e3f57c1c6290939d14a9e", "lat": 38.9215705}, {"rental_uris": {"ios": "https://dc.lft.to/lastmile_qr_scan", "android": "https://dc.lft.to/lastmile_qr_scan"}, "fusion_lon": 0.0, "type": "electric_scooter", "is_reserved": 0, "lon": -77.0575495, "is_disabled": 0, "fusion_lat": 0.0, "bike_id": "9b63c9aa9a8659e682db296c5604c396", "name": "9b63c9aa9a8659e682db296c5604c396", "lat": 38.924835333333334}, {"rental_uris": {"ios": "https://dc.lft.to/lastmile_qr_scan", "android": "https://dc.lft.to/lastmile_qr_scan"}, "fusion_lon": 0.0, "type": "electric_scooter", "is_reserved": 0, "lon": -77.0443255, "is_disabled": 0, "fusion_lat": 0.0, "bike_id": "1ac9c410b9bab006acf8d3c1ae0a6e00", "name": "1ac9c410b9bab006acf8d3c1ae0a6e00", "lat": 38.91141666666667}, {"rental_uris": {"ios": "https://dc.lft.to/lastmile_qr_scan", "android": "https://dc.lft.to/lastmile_qr_scan"}, "fusion_lon": 0.0, "type": "electric_scooter", "is_reserved": 0, "lon": -77.03859, "is_disabled": 0, "fusion_lat": 0.0, "bike_id": "c536b49ce70411c9f4849b71a786aceb", "name": "c536b49ce70411c9f4849b71a786aceb", "lat": 38.93232616666667}, {"rental_uris": {"ios": "https://dc.lft.to/lastmile_qr_scan", "android": "https://dc.lft.to/lastmile_qr_scan"}, "fusion_lon": 0.0, "type": "electric_scooter", "is_reserved": 0, "lon": -77.04058916666666, "is_disabled": 0, "fusion_lat": 0.0, "bike_id": "f01684e81f6e98faa6d506c4e1125455", "name": "f01684e81f6e98faa6d506c4e1125455", "lat": 38.9176605}, {"rental_uris": {"ios": "https://dc.lft.to/lastmile_qr_scan", "android": "https://dc.lft.to/lastmile_qr_scan"}, "fusion_lon": 0.0, "type": "electric_scooter", "is_reserved": 0, "lon": -77.045321, "is_disabled": 0, "fusion_lat": 0.0, "bike_id": "28b52e3af6072868a9eea893530479cd", "name": "28b52e3af6072868a9eea893530479cd", "lat": 38.9006195}, {"rental_uris": {"ios": "https://dc.lft.to/lastmile_qr_scan", "android": "https://dc.lft.to/lastmile_qr_scan"}, "fusion_lon": 0.0, "type": "electric_scooter", "is_reserved": 0, "lon": -77.0386385, "is_disabled": 0, "fusion_lat": 0.0, "bike_id": "20aac5782472c5c7296a9940f9696279", "name": "20aac5782472c5c7296a9940f9696279", "lat": 38.912580166666665}, {"rental_uris": {"ios": "https://dc.lft.to/lastmile_qr_scan", "android": "https://dc.lft.to/lastmile_qr_scan"}, "fusion_lon": 0.0, "type": "electric_scooter", "is_reserved": 0, "lon": -77.029729, "is_disabled": 0, "fusion_lat": 0.0, "bike_id": "4fbc7232b89ab372b5d50a3b05d517c1", "name": "4fbc7232b89ab372b5d50a3b05d517c1", "lat": 38.92682716666667}, {"rental_uris": {"ios": "https://dc.lft.to/lastmile_qr_scan", "android": "https://dc.lft.to/lastmile_qr_scan"}, "fusion_lon": 0.0, "type": "electric_scooter", "is_reserved": 0, "lon": -76.96545533333334, "is_disabled": 0, "fusion_lat": 0.0, "bike_id": "4e3c7f30a184b63653f11ebe383f7d92", "name": "4e3c7f30a184b63653f11ebe383f7d92", "lat": 38.918553833333334}, {"rental_uris": {"ios": "https://dc.lft.to/lastmile_qr_scan", "android": "https://dc.lft.to/lastmile_qr_scan"}, "fusion_lon": 0.0, "type": "electric_scooter", "is_reserved": 0, "lon": -77.02050033333333, "is_disabled": 0, "fusion_lat": 0.0, "bike_id": "9cb4921c84dd079d166d9f93d8638a2a", "name": "9cb4921c84dd079d166d9f93d8638a2a", "lat": 38.91905833333333}, {"rental_uris": {"ios": "https://dc.lft.to/lastmile_qr_scan", "android": "https://dc.lft.to/lastmile_qr_scan"}, "fusion_lon": 0.0, "type": "electric_scooter", "is_reserved": 0, "lon": -77.01863683333333, "is_disabled": 0, "fusion_lat": 0.0, "bike_id": "64a0dcb53b822828fe3b943d5a4e6e04", "name": "64a0dcb53b822828fe3b943d5a4e6e04", "lat": 38.95150066666667}, {"rental_uris": {"ios": "https://dc.lft.to/lastmile_qr_scan", "android": "https://dc.lft.to/lastmile_qr_scan"}, "fusion_lon": 0.0, "type": "electric_scooter", "is_reserved": 0, "lon": -77.03923183333333, "is_disabled": 0, "fusion_lat": 0.0, "bike_id": "b0229628bc04e518ea7ae6d99f50d16b", "name": "b0229628bc04e518ea7ae6d99f50d16b", "lat": 38.90035116666667}, {"rental_uris": {"ios": "https://dc.lft.to/lastmile_qr_scan", "android": "https://dc.lft.to/lastmile_qr_scan"}, "fusion_lon": 0.0, "type": "electric_scooter", "is_reserved": 0, "lon": -77.0570885, "is_disabled": 0, "fusion_lat": 0.0, "bike_id": "4a8802c3a74bf0ecaad305a22ae527a9", "name": "4a8802c3a74bf0ecaad305a22ae527a9", "lat": 38.9260475}, {"rental_uris": {"ios": "https://dc.lft.to/lastmile_qr_scan", "android": "https://dc.lft.to/lastmile_qr_scan"}, "fusion_lon": 0.0, "type": "electric_scooter", "is_reserved": 0, "lon": -77.026325, "is_disabled": 0, "fusion_lat": 0.0, "bike_id": "02327bf69dfb4491323d84dd62f0f3a3", "name": "02327bf69dfb4491323d84dd62f0f3a3", "lat": 38.89818316666667}, {"rental_uris": {"ios": "https://dc.lft.to/lastmile_qr_scan", "android": "https://dc.lft.to/lastmile_qr_scan"}, "fusion_lon": 0.0, "type": "electric_scooter", "is_reserved": 0, "lon": -77.03801833333333, "is_disabled": 0, "fusion_lat": 0.0, "bike_id": "3224006b34add954e5079186be34429c", "name": "3224006b34add954e5079186be34429c", "lat": 38.91227383333333}, {"rental_uris": {"ios": "https://dc.lft.to/lastmile_qr_scan", "android": "https://dc.lft.to/lastmile_qr_scan"}, "fusion_lon": 0.0, "type": "electric_scooter", "is_reserved": 0, "lon": -77.04762416666667, "is_disabled": 0, "fusion_lat": 0.0, "bike_id": "9d6fde96aa832b960225416b7bb85b88", "name": "9d6fde96aa832b960225416b7bb85b88", "lat": 38.9175285}, {"rental_uris": {"ios": "https://dc.lft.to/lastmile_qr_scan", "android": "https://dc.lft.to/lastmile_qr_scan"}, "fusion_lon": 0.0, "type": "electric_scooter", "is_reserved": 0, "lon": -76.99851016666666, "is_disabled": 0, "fusion_lat": 0.0, "bike_id": "3011c869b79ad8517c9edb768c382889", "name": "3011c869b79ad8517c9edb768c382889", "lat": 38.90030466666666}, {"rental_uris": {"ios": "https://dc.lft.to/lastmile_qr_scan", "android": "https://dc.lft.to/lastmile_qr_scan"}, "fusion_lon": 0.0, "type": "electric_scooter", "is_reserved": 0, "lon": -77.03481266666667, "is_disabled": 0, "fusion_lat": 0.0, "bike_id": "e0958fb7cadaf65b2e86db7e295cc0f2", "name": "e0958fb7cadaf65b2e86db7e295cc0f2", "lat": 38.90579816666666}, {"rental_uris": {"ios": "https://dc.lft.to/lastmile_qr_scan", "android": "https://dc.lft.to/lastmile_qr_scan"}, "fusion_lon": 0.0, "type": "electric_scooter", "is_reserved": 0, "lon": -77.01797883333333, "is_disabled": 0, "fusion_lat": 0.0, "bike_id": "1b8f6554d62d8f8115f4fb46c62f8026", "name": "1b8f6554d62d8f8115f4fb46c62f8026", "lat": 38.91944383333333}, {"rental_uris": {"ios": "https://dc.lft.to/lastmile_qr_scan", "android": "https://dc.lft.to/lastmile_qr_scan"}, "fusion_lon": 0.0, "type": "electric_scooter", "is_reserved": 0, "lon": -77.0364435, "is_disabled": 0, "fusion_lat": 0.0, "bike_id": "f81ec52a5526c0eb9421ffdef83ea4d0", "name": "f81ec52a5526c0eb9421ffdef83ea4d0", "lat": 38.92806133333333}, {"rental_uris": {"ios": "https://dc.lft.to/lastmile_qr_scan", "android": "https://dc.lft.to/lastmile_qr_scan"}, "fusion_lon": 0.0, "type": "electric_scooter", "is_reserved": 0, "lon": -77.044823, "is_disabled": 0, "fusion_lat": 0.0, "bike_id": "c1141cb4b0f2563f9447fcdb764ea059", "name": "c1141cb4b0f2563f9447fcdb764ea059", "lat": 38.913568166666664}, {"rental_uris": {"ios": "https://dc.lft.to/lastmile_qr_scan", "android": "https://dc.lft.to/lastmile_qr_scan"}, "fusion_lon": 0.0, "type": "electric_scooter", "is_reserved": 0, "lon": -77.03218333333334, "is_disabled": 0, "fusion_lat": 0.0, "bike_id": "f9a9992d625499bc969e37cebf1b768e", "name": "f9a9992d625499bc969e37cebf1b768e", "lat": 38.919267}, {"rental_uris": {"ios": "https://dc.lft.to/lastmile_qr_scan", "android": "https://dc.lft.to/lastmile_qr_scan"}, "fusion_lon": 0.0, "type": "electric_scooter", "is_reserved": 0, "lon": -76.99789683333333, "is_disabled": 0, "fusion_lat": 0.0, "bike_id": "18bfbbd8673698b6b5f988ad7fb48ec3", "name": "18bfbbd8673698b6b5f988ad7fb48ec3", "lat": 38.905593833333334}, {"rental_uris": {"ios": "https://dc.lft.to/lastmile_qr_scan", "android": "https://dc.lft.to/lastmile_qr_scan"}, "fusion_lon": 0.0, "type": "electric_scooter", "is_reserved": 0, "lon": -76.98830716666667, "is_disabled": 0, "fusion_lat": 0.0, "bike_id": "9f36ce74e4d0aadd776e81f5054fb6f5", "name": "9f36ce74e4d0aadd776e81f5054fb6f5", "lat": 38.9004205}, {"rental_uris": {"ios": "https://dc.lft.to/lastmile_qr_scan", "android": "https://dc.lft.to/lastmile_qr_scan"}, "fusion_lon": 0.0, "type": "electric_scooter", "is_reserved": 0, "lon": -77.06002283333333, "is_disabled": 0, "fusion_lat": 0.0, "bike_id": "126eb7be638c6a1b19ccaca6554412ed", "name": "126eb7be638c6a1b19ccaca6554412ed", "lat": 38.92707133333333}, {"rental_uris": {"ios": "https://dc.lft.to/lastmile_qr_scan", "android": "https://dc.lft.to/lastmile_qr_scan"}, "fusion_lon": 0.0, "type": "electric_scooter", "is_reserved": 0, "lon": -77.04446533333333, "is_disabled": 0, "fusion_lat": 0.0, "bike_id": "7c40c6a6ad254c7c8c57d6db46216e72", "name": "7c40c6a6ad254c7c8c57d6db46216e72", "lat": 38.91551533333333}, {"rental_uris": {"ios": "https://dc.lft.to/lastmile_qr_scan", "android": "https://dc.lft.to/lastmile_qr_scan"}, "fusion_lon": 0.0, "type": "electric_scooter", "is_reserved": 0, "lon": -77.01332416666666, "is_disabled": 0, "fusion_lat": 0.0, "bike_id": "8f35117be5ff554dabed8d1c4b84050d", "name": "8f35117be5ff554dabed8d1c4b84050d", "lat": 38.942017}, {"rental_uris": {"ios": "https://dc.lft.to/lastmile_qr_scan", "android": "https://dc.lft.to/lastmile_qr_scan"}, "fusion_lon": 0.0, "type": "electric_scooter", "is_reserved": 0, "lon": -76.98829433333333, "is_disabled": 0, "fusion_lat": 0.0, "bike_id": "45837e765a3f3703943f2862b15e8f62", "name": "45837e765a3f3703943f2862b15e8f62", "lat": 38.900383}, {"rental_uris": {"ios": "https://dc.lft.to/lastmile_qr_scan", "android": "https://dc.lft.to/lastmile_qr_scan"}, "fusion_lon": 0.0, "type": "electric_scooter", "is_reserved": 0, "lon": -77.01780716666667, "is_disabled": 0, "fusion_lat": 0.0, "bike_id": "d335eb225428f4a709910a9c7dce30fd", "name": "d335eb225428f4a709910a9c7dce30fd", "lat": 38.955876333333336}, {"rental_uris": {"ios": "https://dc.lft.to/lastmile_qr_scan", "android": "https://dc.lft.to/lastmile_qr_scan"}, "fusion_lon": 0.0, "type": "electric_scooter", "is_reserved": 0, "lon": -77.04331416666666, "is_disabled": 0, "fusion_lat": 0.0, "bike_id": "7bf61be7f7d454d98c018c7852d4c51e", "name": "7bf61be7f7d454d98c018c7852d4c51e", "lat": 38.928023833333334}, {"rental_uris": {"ios": "https://dc.lft.to/lastmile_qr_scan", "android": "https://dc.lft.to/lastmile_qr_scan"}, "fusion_lon": 0.0, "type": "electric_scooter", "is_reserved": 0, "lon": -77.07867966666667, "is_disabled": 0, "fusion_lat": 0.0, "bike_id": "6a9a71c4e9632e769f16c0f6a3fd14d4", "name": "6a9a71c4e9632e769f16c0f6a3fd14d4", "lat": 38.91956483333333}, {"rental_uris": {"ios": "https://dc.lft.to/lastmile_qr_scan", "android": "https://dc.lft.to/lastmile_qr_scan"}, "fusion_lon": 0.0, "type": "electric_bike", "is_reserved": 0, "lon": -77.03689866666667, "is_disabled": 0, "fusion_lat": 0.0, "bike_id": "e910856d2308592c16db801bf30274dd", "name": "e910856d2308592c16db801bf30274dd", "lat": 39.026458833333336}, {"rental_uris": {"ios": "https://dc.lft.to/lastmile_qr_scan", "android": "https://dc.lft.to/lastmile_qr_scan"}, "fusion_lon": 0.0, "type": "electric_scooter", "is_reserved": 0, "lon": -77.0349565, "is_disabled": 0, "fusion_lat": 0.0, "bike_id": "9f77d0ffa575141ebfa78456d024b4d5", "name": "9f77d0ffa575141ebfa78456d024b4d5", "lat": 38.91693166666667}, {"rental_uris": {"ios": "https://dc.lft.to/lastmile_qr_scan", "android": "https://dc.lft.to/lastmile_qr_scan"}, "fusion_lon": 0.0, "type": "electric_scooter", "is_reserved": 0, "lon": -77.0355105, "is_disabled": 0, "fusion_lat": 0.0, "bike_id": "f83816a6d3216691562797e72370d1cc", "name": "f83816a6d3216691562797e72370d1cc", "lat": 38.92494833333333}, {"rental_uris": {"ios": "https://dc.lft.to/lastmile_qr_scan", "android": "https://dc.lft.to/lastmile_qr_scan"}, "fusion_lon": 0.0, "type": "electric_scooter", "is_reserved": 0, "lon": -77.034578, "is_disabled": 0, "fusion_lat": 0.0, "bike_id": "c86d61665dc5fb5e9d953bc600a53440", "name": "c86d61665dc5fb5e9d953bc600a53440", "lat": 38.90447483333333}, {"rental_uris": {"ios": "https://dc.lft.to/lastmile_qr_scan", "android": "https://dc.lft.to/lastmile_qr_scan"}, "fusion_lon": 0.0, "type": "electric_scooter", "is_reserved": 0, "lon": -76.99847483333333, "is_disabled": 0, "fusion_lat": 0.0, "bike_id": "c7e8423fbc012f36c6ceae27b38c7c61", "name": "c7e8423fbc012f36c6ceae27b38c7c61", "lat": 38.901235166666666}, {"rental_uris": {"ios": "https://dc.lft.to/lastmile_qr_scan", "android": "https://dc.lft.to/lastmile_qr_scan"}, "fusion_lon": 0.0, "type": "electric_scooter", "is_reserved": 0, "lon": -76.99491583333334, "is_disabled": 0, "fusion_lat": 0.0, "bike_id": "1839151fdf7f64aa5c39ea5547618c5b", "name": "1839151fdf7f64aa5c39ea5547618c5b", "lat": 38.925774833333335}, {"rental_uris": {"ios": "https://dc.lft.to/lastmile_qr_scan", "android": "https://dc.lft.to/lastmile_qr_scan"}, "fusion_lon": 0.0, "type": "electric_scooter", "is_reserved": 0, "lon": -77.02494766666666, "is_disabled": 0, "fusion_lat": 0.0, "bike_id": "deffba50d685d9c64bb8caeefc6ffb36", "name": "deffba50d685d9c64bb8caeefc6ffb36", "lat": 38.93347166666667}, {"rental_uris": {"ios": "https://dc.lft.to/lastmile_qr_scan", "android": "https://dc.lft.to/lastmile_qr_scan"}, "fusion_lon": 0.0, "type": "electric_scooter", "is_reserved": 0, "lon": -76.92635433333334, "is_disabled": 0, "fusion_lat": 0.0, "bike_id": "068abf66df93e11642063e6e2bfa6f9e", "name": "068abf66df93e11642063e6e2bfa6f9e", "lat": 38.886221666666664}, {"rental_uris": {"ios": "https://dc.lft.to/lastmile_qr_scan", "android": "https://dc.lft.to/lastmile_qr_scan"}, "fusion_lon": 0.0, "type": "electric_scooter", "is_reserved": 0, "lon": -77.021029, "is_disabled": 0, "fusion_lat": 0.0, "bike_id": "37a20a1ba170e110b517ca0add43e9df", "name": "37a20a1ba170e110b517ca0add43e9df", "lat": 38.885145}, {"rental_uris": {"ios": "https://dc.lft.to/lastmile_qr_scan", "android": "https://dc.lft.to/lastmile_qr_scan"}, "fusion_lon": 0.0, "type": "electric_scooter", "is_reserved": 0, "lon": -77.038706, "is_disabled": 0, "fusion_lat": 0.0, "bike_id": "c8d9994bafc86d550727e38170e2837d", "name": "c8d9994bafc86d550727e38170e2837d", "lat": 38.9312635}, {"rental_uris": {"ios": "https://dc.lft.to/lastmile_qr_scan", "android": "https://dc.lft.to/lastmile_qr_scan"}, "fusion_lon": 0.0, "type": "electric_scooter", "is_reserved": 0, "lon": -77.023103, "is_disabled": 0, "fusion_lat": 0.0, "bike_id": "02024f26d34cfbd72958b8e91f05415b", "name": "02024f26d34cfbd72958b8e91f05415b", "lat": 38.91775916666667}, {"rental_uris": {"ios": "https://dc.lft.to/lastmile_qr_scan", "android": "https://dc.lft.to/lastmile_qr_scan"}, "fusion_lon": 0.0, "type": "electric_scooter", "is_reserved": 0, "lon": -77.0746535, "is_disabled": 0, "fusion_lat": 0.0, "bike_id": "ffd62d1daef4fa498cb3456ccd977773", "name": "ffd62d1daef4fa498cb3456ccd977773", "lat": 38.906498}, {"rental_uris": {"ios": "https://dc.lft.to/lastmile_qr_scan", "android": "https://dc.lft.to/lastmile_qr_scan"}, "fusion_lon": 0.0, "type": "electric_scooter", "is_reserved": 0, "lon": -77.02685733333334, "is_disabled": 0, "fusion_lat": 0.0, "bike_id": "996e3f71a69691417a2cf7a6c59c4509", "name": "996e3f71a69691417a2cf7a6c59c4509", "lat": 38.9023595}, {"rental_uris": {"ios": "https://dc.lft.to/lastmile_qr_scan", "android": "https://dc.lft.to/lastmile_qr_scan"}, "fusion_lon": 0.0, "type": "electric_scooter", "is_reserved": 0, "lon": -77.015728, "is_disabled": 0, "fusion_lat": 0.0, "bike_id": "bc65b9eddf067c7b737a538a1e5d0068", "name": "bc65b9eddf067c7b737a538a1e5d0068", "lat": 38.874657}, {"rental_uris": {"ios": "https://dc.lft.to/lastmile_qr_scan", "android": "https://dc.lft.to/lastmile_qr_scan"}, "fusion_lon": 0.0, "type": "electric_scooter", "is_reserved": 0, "lon": -77.04022883333333, "is_disabled": 0, "fusion_lat": 0.0, "bike_id": "a56a8f907039c3d906f3c6b2442f1c80", "name": "a56a8f907039c3d906f3c6b2442f1c80", "lat": 38.90378366666667}, {"rental_uris": {"ios": "https://dc.lft.to/lastmile_qr_scan", "android": "https://dc.lft.to/lastmile_qr_scan"}, "fusion_lon": 0.0, "type": "electric_scooter", "is_reserved": 0, "lon": -77.0199575, "is_disabled": 0, "fusion_lat": 0.0, "bike_id": "40c52d4adf868f0b8f5cbb7dc7ad0efe", "name": "40c52d4adf868f0b8f5cbb7dc7ad0efe", "lat": 38.936382}, {"rental_uris": {"ios": "https://dc.lft.to/lastmile_qr_scan", "android": "https://dc.lft.to/lastmile_qr_scan"}, "fusion_lon": 0.0, "type": "electric_scooter", "is_reserved": 0, "lon": -77.0382715, "is_disabled": 0, "fusion_lat": 0.0, "bike_id": "3ca2291d4cba888111b28b7874c7bc21", "name": "3ca2291d4cba888111b28b7874c7bc21", "lat": 38.903945666666665}, {"rental_uris": {"ios": "https://dc.lft.to/lastmile_qr_scan", "android": "https://dc.lft.to/lastmile_qr_scan"}, "fusion_lon": 0.0, "type": "electric_scooter", "is_reserved": 0, "lon": -77.03625883333333, "is_disabled": 0, "fusion_lat": 0.0, "bike_id": "2546e49653dfdeeec3011704b9639ebb", "name": "2546e49653dfdeeec3011704b9639ebb", "lat": 38.929468166666666}, {"rental_uris": {"ios": "https://dc.lft.to/lastmile_qr_scan", "android": "https://dc.lft.to/lastmile_qr_scan"}, "fusion_lon": 0.0, "type": "electric_scooter", "is_reserved": 0, "lon": -77.05233233333334, "is_disabled": 0, "fusion_lat": 0.0, "bike_id": "7d8216d5ea9ebbcf72f4c5e59c31f30b", "name": "7d8216d5ea9ebbcf72f4c5e59c31f30b", "lat": 38.9246445}, {"rental_uris": {"ios": "https://dc.lft.to/lastmile_qr_scan", "android": "https://dc.lft.to/lastmile_qr_scan"}, "fusion_lon": 0.0, "type": "electric_scooter", "is_reserved": 0, "lon": -77.03238, "is_disabled": 0, "fusion_lat": 0.0, "bike_id": "0f0a1551ad6022a56af1b97123d27c90", "name": "0f0a1551ad6022a56af1b97123d27c90", "lat": 38.92861166666667}, {"rental_uris": {"ios": "https://dc.lft.to/lastmile_qr_scan", "android": "https://dc.lft.to/lastmile_qr_scan"}, "fusion_lon": 0.0, "type": "electric_scooter", "is_reserved": 0, "lon": -77.00709833333333, "is_disabled": 0, "fusion_lat": 0.0, "bike_id": "e87431ff811b7b2932b0452f48dfe2c4", "name": "e87431ff811b7b2932b0452f48dfe2c4", "lat": 38.8849135}, {"rental_uris": {"ios": "https://dc.lft.to/lastmile_qr_scan", "android": "https://dc.lft.to/lastmile_qr_scan"}, "fusion_lon": 0.0, "type": "electric_scooter", "is_reserved": 0, "lon": -77.01606666666666, "is_disabled": 0, "fusion_lat": 0.0, "bike_id": "f09199d981a2c6cc981d7124a971bf70", "name": "f09199d981a2c6cc981d7124a971bf70", "lat": 38.90590733333333}, {"rental_uris": {"ios": "https://dc.lft.to/lastmile_qr_scan", "android": "https://dc.lft.to/lastmile_qr_scan"}, "fusion_lon": 0.0, "type": "electric_scooter", "is_reserved": 0, "lon": -77.00137133333334, "is_disabled": 0, "fusion_lat": 0.0, "bike_id": "24c2e438c2472dead633b069bbfc5608", "name": "24c2e438c2472dead633b069bbfc5608", "lat": 38.90002416666667}, {"rental_uris": {"ios": "https://dc.lft.to/lastmile_qr_scan", "android": "https://dc.lft.to/lastmile_qr_scan"}, "fusion_lon": 0.0, "type": "electric_scooter", "is_reserved": 0, "lon": -77.039018, "is_disabled": 0, "fusion_lat": 0.0, "bike_id": "131a5bffb2f800b448c3ccce545a9e42", "name": "131a5bffb2f800b448c3ccce545a9e42", "lat": 38.90249283333333}, {"rental_uris": {"ios": "https://dc.lft.to/lastmile_qr_scan", "android": "https://dc.lft.to/lastmile_qr_scan"}, "fusion_lon": 0.0, "type": "electric_scooter", "is_reserved": 0, "lon": -77.03331966666667, "is_disabled": 0, "fusion_lat": 0.0, "bike_id": "b839bff680ef1e24db73bdb18cb82d7a", "name": "b839bff680ef1e24db73bdb18cb82d7a", "lat": 38.901095833333336}, {"rental_uris": {"ios": "https://dc.lft.to/lastmile_qr_scan", "android": "https://dc.lft.to/lastmile_qr_scan"}, "fusion_lon": 0.0, "type": "electric_scooter", "is_reserved": 0, "lon": -77.04182733333333, "is_disabled": 0, "fusion_lat": 0.0, "bike_id": "d496125eb4644f64c35e7e37486f3641", "name": "d496125eb4644f64c35e7e37486f3641", "lat": 38.903625}, {"rental_uris": {"ios": "https://dc.lft.to/lastmile_qr_scan", "android": "https://dc.lft.to/lastmile_qr_scan"}, "fusion_lon": 0.0, "type": "electric_scooter", "is_reserved": 0, "lon": -77.02938133333333, "is_disabled": 0, "fusion_lat": 0.0, "bike_id": "50f5509eef929559c4de064db8d88323", "name": "50f5509eef929559c4de064db8d88323", "lat": 38.91024316666667}, {"rental_uris": {"ios": "https://dc.lft.to/lastmile_qr_scan", "android": "https://dc.lft.to/lastmile_qr_scan"}, "fusion_lon": 0.0, "type": "electric_scooter", "is_reserved": 0, "lon": -77.03997116666666, "is_disabled": 0, "fusion_lat": 0.0, "bike_id": "8e4e820c0834269ba35eefb59232fedb", "name": "8e4e820c0834269ba35eefb59232fedb", "lat": 38.9176005}, {"rental_uris": {"ios": "https://dc.lft.to/lastmile_qr_scan", "android": "https://dc.lft.to/lastmile_qr_scan"}, "fusion_lon": 0.0, "type": "electric_scooter", "is_reserved": 0, "lon": -77.04438666666667, "is_disabled": 0, "fusion_lat": 0.0, "bike_id": "37e028ac372ccf7cc5c970acbd527acc", "name": "37e028ac372ccf7cc5c970acbd527acc", "lat": 38.91549783333333}, {"rental_uris": {"ios": "https://dc.lft.to/lastmile_qr_scan", "android": "https://dc.lft.to/lastmile_qr_scan"}, "fusion_lon": 0.0, "type": "electric_scooter", "is_reserved": 0, "lon": -77.0118855, "is_disabled": 0, "fusion_lat": 0.0, "bike_id": "71be0c43f8d039aaae1d0cb19c054a76", "name": "71be0c43f8d039aaae1d0cb19c054a76", "lat": 38.8966865}, {"rental_uris": {"ios": "https://dc.lft.to/lastmile_qr_scan", "android": "https://dc.lft.to/lastmile_qr_scan"}, "fusion_lon": 0.0, "type": "electric_scooter", "is_reserved": 0, "lon": -77.04046, "is_disabled": 0, "fusion_lat": 0.0, "bike_id": "97d07a8c678c982d39e58ced6a770050", "name": "97d07a8c678c982d39e58ced6a770050", "lat": 38.92427466666667}, {"rental_uris": {"ios": "https://dc.lft.to/lastmile_qr_scan", "android": "https://dc.lft.to/lastmile_qr_scan"}, "fusion_lon": 0.0, "type": "electric_scooter", "is_reserved": 0, "lon": -77.02130983333333, "is_disabled": 0, "fusion_lat": 0.0, "bike_id": "fe95e062e650791938f7f0cfe4961982", "name": "fe95e062e650791938f7f0cfe4961982", "lat": 38.921118166666666}, {"rental_uris": {"ios": "https://dc.lft.to/lastmile_qr_scan", "android": "https://dc.lft.to/lastmile_qr_scan"}, "fusion_lon": 0.0, "type": "electric_scooter", "is_reserved": 0, "lon": -77.00438166666666, "is_disabled": 0, "fusion_lat": 0.0, "bike_id": "7afe1d9dc12f7396e1de368c00223d2d", "name": "7afe1d9dc12f7396e1de368c00223d2d", "lat": 38.8765605}, {"rental_uris": {"ios": "https://dc.lft.to/lastmile_qr_scan", "android": "https://dc.lft.to/lastmile_qr_scan"}, "fusion_lon": 0.0, "type": "electric_scooter", "is_reserved": 0, "lon": -77.0272375, "is_disabled": 0, "fusion_lat": 0.0, "bike_id": "d9de0713ca901db830b7b112d9d8635a", "name": "d9de0713ca901db830b7b112d9d8635a", "lat": 38.927788666666665}, {"rental_uris": {"ios": "https://dc.lft.to/lastmile_qr_scan", "android": "https://dc.lft.to/lastmile_qr_scan"}, "fusion_lon": 0.0, "type": "electric_scooter", "is_reserved": 0, "lon": -77.00389366666667, "is_disabled": 0, "fusion_lat": 0.0, "bike_id": "8ebd345c8f80af602ae6218dcc99f429", "name": "8ebd345c8f80af602ae6218dcc99f429", "lat": 38.907832}, {"rental_uris": {"ios": "https://dc.lft.to/lastmile_qr_scan", "android": "https://dc.lft.to/lastmile_qr_scan"}, "fusion_lon": 0.0, "type": "electric_scooter", "is_reserved": 0, "lon": -77.0650315, "is_disabled": 0, "fusion_lat": 0.0, "bike_id": "5d64f2940aa578f8821c3d99fe0545f9", "name": "5d64f2940aa578f8821c3d99fe0545f9", "lat": 38.905211333333334}, {"rental_uris": {"ios": "https://dc.lft.to/lastmile_qr_scan", "android": "https://dc.lft.to/lastmile_qr_scan"}, "fusion_lon": 0.0, "type": "electric_bike", "is_reserved": 0, "lon": -77.0962385, "is_disabled": 0, "fusion_lat": 0.0, "bike_id": "3e9da6b63d92d2d19f80268894c0157d", "name": "3e9da6b63d92d2d19f80268894c0157d", "lat": 38.95249916666667}, {"rental_uris": {"ios": "https://dc.lft.to/lastmile_qr_scan", "android": "https://dc.lft.to/lastmile_qr_scan"}, "fusion_lon": 0.0, "type": "electric_scooter", "is_reserved": 0, "lon": -77.071628, "is_disabled": 0, "fusion_lat": 0.0, "bike_id": "c9102ea026f516b01a5392a2c15906e2", "name": "c9102ea026f516b01a5392a2c15906e2", "lat": 38.90777633333333}, {"rental_uris": {"ios": "https://dc.lft.to/lastmile_qr_scan", "android": "https://dc.lft.to/lastmile_qr_scan"}, "fusion_lon": 0.0, "type": "electric_scooter", "is_reserved": 0, "lon": -77.02476183333333, "is_disabled": 0, "fusion_lat": 0.0, "bike_id": "dca44bbdff9e569b7fa62f507e4c9769", "name": "dca44bbdff9e569b7fa62f507e4c9769", "lat": 38.918153333333336}, {"rental_uris": {"ios": "https://dc.lft.to/lastmile_qr_scan", "android": "https://dc.lft.to/lastmile_qr_scan"}, "fusion_lon": 0.0, "type": "electric_scooter", "is_reserved": 0, "lon": -77.0533425, "is_disabled": 0, "fusion_lat": 0.0, "bike_id": "b11f55b98ecc13c2d83977669019be23", "name": "b11f55b98ecc13c2d83977669019be23", "lat": 38.90460566666667}, {"rental_uris": {"ios": "https://dc.lft.to/lastmile_qr_scan", "android": "https://dc.lft.to/lastmile_qr_scan"}, "fusion_lon": 0.0, "type": "electric_scooter", "is_reserved": 0, "lon": -77.03192433333334, "is_disabled": 0, "fusion_lat": 0.0, "bike_id": "d1d91a159cc2288648f430a968be8272", "name": "d1d91a159cc2288648f430a968be8272", "lat": 38.917432166666664}, {"rental_uris": {"ios": "https://dc.lft.to/lastmile_qr_scan", "android": "https://dc.lft.to/lastmile_qr_scan"}, "fusion_lon": 0.0, "type": "electric_scooter", "is_reserved": 0, "lon": -77.02183733333334, "is_disabled": 0, "fusion_lat": 0.0, "bike_id": "937b3e4f13454e59a6b97434a6273a72", "name": "937b3e4f13454e59a6b97434a6273a72", "lat": 38.913761666666666}, {"rental_uris": {"ios": "https://dc.lft.to/lastmile_qr_scan", "android": "https://dc.lft.to/lastmile_qr_scan"}, "fusion_lon": 0.0, "type": "electric_bike", "is_reserved": 0, "lon": -77.063809, "is_disabled": 0, "fusion_lat": 0.0, "bike_id": "15e76a4cf5dd46e4f41a63b3fa699553", "name": "15e76a4cf5dd46e4f41a63b3fa699553", "lat": 38.8429245}, {"rental_uris": {"ios": "https://dc.lft.to/lastmile_qr_scan", "android": "https://dc.lft.to/lastmile_qr_scan"}, "fusion_lon": 0.0, "type": "electric_bike", "is_reserved": 0, "lon": -76.99872883333333, "is_disabled": 0, "fusion_lat": 0.0, "bike_id": "2b8e4739aaded9a4dc73f79287325243", "name": "2b8e4739aaded9a4dc73f79287325243", "lat": 38.9322385}, {"rental_uris": {"ios": "https://dc.lft.to/lastmile_qr_scan", "android": "https://dc.lft.to/lastmile_qr_scan"}, "fusion_lon": 0.0, "type": "electric_scooter", "is_reserved": 0, "lon": -77.04209866666666, "is_disabled": 0, "fusion_lat": 0.0, "bike_id": "f334adc35e7192547e091dafdced8c3b", "name": "f334adc35e7192547e091dafdced8c3b", "lat": 38.921105}, {"rental_uris": {"ios": "https://dc.lft.to/lastmile_qr_scan", "android": "https://dc.lft.to/lastmile_qr_scan"}, "fusion_lon": 0.0, "type": "electric_bike", "is_reserved": 0, "lon": -76.97948633333333, "is_disabled": 0, "fusion_lat": 0.0, "bike_id": "fa7677bcd3c5bcc9a0ea3bb004b20474", "name": "fa7677bcd3c5bcc9a0ea3bb004b20474", "lat": 38.920345166666664}, {"rental_uris": {"ios": "https://dc.lft.to/lastmile_qr_scan", "android": "https://dc.lft.to/lastmile_qr_scan"}, "fusion_lon": 0.0, "type": "electric_scooter", "is_reserved": 0, "lon": -77.0386125, "is_disabled": 0, "fusion_lat": 0.0, "bike_id": "2c9f5296e6a14bf3a445f0726e343771", "name": "2c9f5296e6a14bf3a445f0726e343771", "lat": 38.9180675}, {"rental_uris": {"ios": "https://dc.lft.to/lastmile_qr_scan", "android": "https://dc.lft.to/lastmile_qr_scan"}, "fusion_lon": 0.0, "type": "electric_scooter", "is_reserved": 0, "lon": -77.02078933333334, "is_disabled": 0, "fusion_lat": 0.0, "bike_id": "1a7a6da8e370229eb64d644ff09caa67", "name": "1a7a6da8e370229eb64d644ff09caa67", "lat": 38.924698}, {"rental_uris": {"ios": "https://dc.lft.to/lastmile_qr_scan", "android": "https://dc.lft.to/lastmile_qr_scan"}, "fusion_lon": 0.0, "type": "electric_scooter", "is_reserved": 0, "lon": -77.02130016666666, "is_disabled": 0, "fusion_lat": 0.0, "bike_id": "fc4d63aef4ab21202517ac9aa7f573c3", "name": "fc4d63aef4ab21202517ac9aa7f573c3", "lat": 38.923384166666665}, {"rental_uris": {"ios": "https://dc.lft.to/lastmile_qr_scan", "android": "https://dc.lft.to/lastmile_qr_scan"}, "fusion_lon": 0.0, "type": "electric_scooter", "is_reserved": 0, "lon": -77.02115, "is_disabled": 0, "fusion_lat": 0.0, "bike_id": "93a0a1f17945ee442fa908f6baaed787", "name": "93a0a1f17945ee442fa908f6baaed787", "lat": 38.91740433333333}, {"rental_uris": {"ios": "https://dc.lft.to/lastmile_qr_scan", "android": "https://dc.lft.to/lastmile_qr_scan"}, "fusion_lon": 0.0, "type": "electric_scooter", "is_reserved": 0, "lon": -77.04744966666667, "is_disabled": 0, "fusion_lat": 0.0, "bike_id": "a9c4ab81d548179d57952533c04fcc8c", "name": "a9c4ab81d548179d57952533c04fcc8c", "lat": 38.91783133333333}, {"rental_uris": {"ios": "https://dc.lft.to/lastmile_qr_scan", "android": "https://dc.lft.to/lastmile_qr_scan"}, "fusion_lon": 0.0, "type": "electric_scooter", "is_reserved": 0, "lon": -77.04173916666667, "is_disabled": 0, "fusion_lat": 0.0, "bike_id": "f69b46fbfda322f14972615294687d7e", "name": "f69b46fbfda322f14972615294687d7e", "lat": 38.920036833333334}, {"rental_uris": {"ios": "https://dc.lft.to/lastmile_qr_scan", "android": "https://dc.lft.to/lastmile_qr_scan"}, "fusion_lon": 0.0, "type": "electric_scooter", "is_reserved": 0, "lon": -77.02058933333333, "is_disabled": 0, "fusion_lat": 0.0, "bike_id": "66028a14ea56b2cb521ff6f0ea1c3ba3", "name": "66028a14ea56b2cb521ff6f0ea1c3ba3", "lat": 38.913637666666666}, {"rental_uris": {"ios": "https://dc.lft.to/lastmile_qr_scan", "android": "https://dc.lft.to/lastmile_qr_scan"}, "fusion_lon": 0.0, "type": "electric_scooter", "is_reserved": 0, "lon": -77.045024, "is_disabled": 0, "fusion_lat": 0.0, "bike_id": "b37834d7b3fe6382e5975d6af172b538", "name": "b37834d7b3fe6382e5975d6af172b538", "lat": 38.8925485}, {"rental_uris": {"ios": "https://dc.lft.to/lastmile_qr_scan", "android": "https://dc.lft.to/lastmile_qr_scan"}, "fusion_lon": 0.0, "type": "electric_bike", "is_reserved": 0, "lon": -77.06081266666666, "is_disabled": 0, "fusion_lat": 0.0, "bike_id": "a1343037b926053ee2137985a1a09461", "name": "a1343037b926053ee2137985a1a09461", "lat": 38.804516166666666}, {"rental_uris": {"ios": "https://dc.lft.to/lastmile_qr_scan", "android": "https://dc.lft.to/lastmile_qr_scan"}, "fusion_lon": 0.0, "type": "electric_scooter", "is_reserved": 0, "lon": -77.01954283333333, "is_disabled": 0, "fusion_lat": 0.0, "bike_id": "a7a9afbaada26f8e7efe62ec6764c1e7", "name": "a7a9afbaada26f8e7efe62ec6764c1e7", "lat": 38.92367266666667}, {"rental_uris": {"ios": "https://dc.lft.to/lastmile_qr_scan", "android": "https://dc.lft.to/lastmile_qr_scan"}, "fusion_lon": 0.0, "type": "electric_scooter", "is_reserved": 0, "lon": -77.00199033333334, "is_disabled": 0, "fusion_lat": 0.0, "bike_id": "355deffb149d9922601c3881962320fc", "name": "355deffb149d9922601c3881962320fc", "lat": 38.902393833333335}, {"rental_uris": {"ios": "https://dc.lft.to/lastmile_qr_scan", "android": "https://dc.lft.to/lastmile_qr_scan"}, "fusion_lon": 0.0, "type": "electric_bike", "is_reserved": 0, "lon": -77.05081116666666, "is_disabled": 0, "fusion_lat": 0.0, "bike_id": "0f80a6acc6fa0934be61f32b049ac0a8", "name": "0f80a6acc6fa0934be61f32b049ac0a8", "lat": 38.813325}, {"rental_uris": {"ios": "https://dc.lft.to/lastmile_qr_scan", "android": "https://dc.lft.to/lastmile_qr_scan"}, "fusion_lon": 0.0, "type": "electric_scooter", "is_reserved": 0, "lon": -77.0321375, "is_disabled": 0, "fusion_lat": 0.0, "bike_id": "e6d9b1c50ffa6608836af2afba57960c", "name": "e6d9b1c50ffa6608836af2afba57960c", "lat": 38.916452}, {"rental_uris": {"ios": "https://dc.lft.to/lastmile_qr_scan", "android": "https://dc.lft.to/lastmile_qr_scan"}, "fusion_lon": 0.0, "type": "electric_scooter", "is_reserved": 0, "lon": -77.00579866666666, "is_disabled": 0, "fusion_lat": 0.0, "bike_id": "2ae8672b94678ee36be5b13169b64176", "name": "2ae8672b94678ee36be5b13169b64176", "lat": 38.8762355}, {"rental_uris": {"ios": "https://dc.lft.to/lastmile_qr_scan", "android": "https://dc.lft.to/lastmile_qr_scan"}, "fusion_lon": 0.0, "type": "electric_scooter", "is_reserved": 0, "lon": -77.0114695, "is_disabled": 0, "fusion_lat": 0.0, "bike_id": "ebed5a18233852ad145c53796485ba7b", "name": "ebed5a18233852ad145c53796485ba7b", "lat": 38.929600666666666}, {"rental_uris": {"ios": "https://dc.lft.to/lastmile_qr_scan", "android": "https://dc.lft.to/lastmile_qr_scan"}, "fusion_lon": 0.0, "type": "electric_bike", "is_reserved": 0, "lon": -77.04727633333333, "is_disabled": 0, "fusion_lat": 0.0, "bike_id": "8705f111703f282ba35b0fb59e61e133", "name": "8705f111703f282ba35b0fb59e61e133", "lat": 38.92012533333333}, {"rental_uris": {"ios": "https://dc.lft.to/lastmile_qr_scan", "android": "https://dc.lft.to/lastmile_qr_scan"}, "fusion_lon": 0.0, "type": "electric_scooter", "is_reserved": 0, "lon": -77.01813666666666, "is_disabled": 0, "fusion_lat": 0.0, "bike_id": "dedb991cd18f9154afba47170eaf385c", "name": "dedb991cd18f9154afba47170eaf385c", "lat": 38.920751}, {"rental_uris": {"ios": "https://dc.lft.to/lastmile_qr_scan", "android": "https://dc.lft.to/lastmile_qr_scan"}, "fusion_lon": 0.0, "type": "electric_scooter", "is_reserved": 0, "lon": -77.015353, "is_disabled": 0, "fusion_lat": 0.0, "bike_id": "75893d9777b5478a760485b1c611a50b", "name": "75893d9777b5478a760485b1c611a50b", "lat": 38.891962}, {"rental_uris": {"ios": "https://dc.lft.to/lastmile_qr_scan", "android": "https://dc.lft.to/lastmile_qr_scan"}, "fusion_lon": 0.0, "type": "electric_scooter", "is_reserved": 0, "lon": -77.0221455, "is_disabled": 0, "fusion_lat": 0.0, "bike_id": "ea54034e160bbc3e5528df9e8d69d3f2", "name": "ea54034e160bbc3e5528df9e8d69d3f2", "lat": 38.92470683333333}, {"rental_uris": {"ios": "https://dc.lft.to/lastmile_qr_scan", "android": "https://dc.lft.to/lastmile_qr_scan"}, "fusion_lon": 0.0, "type": "electric_bike", "is_reserved": 0, "lon": -76.99359483333333, "is_disabled": 0, "fusion_lat": 0.0, "bike_id": "fd9f5ee6354c133d6e9b4228b115b232", "name": "fd9f5ee6354c133d6e9b4228b115b232", "lat": 38.92737183333333}, {"rental_uris": {"ios": "https://dc.lft.to/lastmile_qr_scan", "android": "https://dc.lft.to/lastmile_qr_scan"}, "fusion_lon": 0.0, "type": "electric_scooter", "is_reserved": 0, "lon": -77.01757933333333, "is_disabled": 0, "fusion_lat": 0.0, "bike_id": "99e017d5a1aa4cfaa0e36ee3b544fd63", "name": "99e017d5a1aa4cfaa0e36ee3b544fd63", "lat": 38.90244883333333}, {"rental_uris": {"ios": "https://dc.lft.to/lastmile_qr_scan", "android": "https://dc.lft.to/lastmile_qr_scan"}, "fusion_lon": 0.0, "type": "electric_scooter", "is_reserved": 0, "lon": -77.0203415, "is_disabled": 0, "fusion_lat": 0.0, "bike_id": "ff4ac14482f4e79f5f9222be35847599", "name": "ff4ac14482f4e79f5f9222be35847599", "lat": 38.9240455}, {"rental_uris": {"ios": "https://dc.lft.to/lastmile_qr_scan", "android": "https://dc.lft.to/lastmile_qr_scan"}, "fusion_lon": 0.0, "type": "electric_scooter", "is_reserved": 0, "lon": -77.07854716666667, "is_disabled": 0, "fusion_lat": 0.0, "bike_id": "1bf7cc037d0ea3d7461494b0ceb3d23c", "name": "1bf7cc037d0ea3d7461494b0ceb3d23c", "lat": 38.931370333333334}, {"rental_uris": {"ios": "https://dc.lft.to/lastmile_qr_scan", "android": "https://dc.lft.to/lastmile_qr_scan"}, "fusion_lon": 0.0, "type": "electric_scooter", "is_reserved": 0, "lon": -77.045227, "is_disabled": 0, "fusion_lat": 0.0, "bike_id": "3c2cb8b23c874b24f1cd80291b4e6012", "name": "3c2cb8b23c874b24f1cd80291b4e6012", "lat": 38.907606333333334}, {"rental_uris": {"ios": "https://dc.lft.to/lastmile_qr_scan", "android": "https://dc.lft.to/lastmile_qr_scan"}, "fusion_lon": 0.0, "type": "electric_scooter", "is_reserved": 0, "lon": -76.95051583333333, "is_disabled": 0, "fusion_lat": 0.0, "bike_id": "1b99d98a0889d63542a02e530805e15b", "name": "1b99d98a0889d63542a02e530805e15b", "lat": 38.893366666666665}, {"rental_uris": {"ios": "https://dc.lft.to/lastmile_qr_scan", "android": "https://dc.lft.to/lastmile_qr_scan"}, "fusion_lon": 0.0, "type": "electric_scooter", "is_reserved": 0, "lon": -77.07355016666666, "is_disabled": 0, "fusion_lat": 0.0, "bike_id": "297796aa7407d87cf23aa7f93d1fd0ea", "name": "297796aa7407d87cf23aa7f93d1fd0ea", "lat": 38.93737866666667}, {"rental_uris": {"ios": "https://dc.lft.to/lastmile_qr_scan", "android": "https://dc.lft.to/lastmile_qr_scan"}, "fusion_lon": 0.0, "type": "electric_scooter", "is_reserved": 0, "lon": -77.0272805, "is_disabled": 0, "fusion_lat": 0.0, "bike_id": "ee1d159a6cfe9d264a33ac994bae66e4", "name": "ee1d159a6cfe9d264a33ac994bae66e4", "lat": 38.904207}, {"rental_uris": {"ios": "https://dc.lft.to/lastmile_qr_scan", "android": "https://dc.lft.to/lastmile_qr_scan"}, "fusion_lon": 0.0, "type": "electric_scooter", "is_reserved": 0, "lon": -77.03857316666667, "is_disabled": 0, "fusion_lat": 0.0, "bike_id": "5458ab93b102d300703f15ed9228ecdb", "name": "5458ab93b102d300703f15ed9228ecdb", "lat": 38.91658483333333}, {"rental_uris": {"ios": "https://dc.lft.to/lastmile_qr_scan", "android": "https://dc.lft.to/lastmile_qr_scan"}, "fusion_lon": 0.0, "type": "electric_scooter", "is_reserved": 0, "lon": -76.99486166666667, "is_disabled": 0, "fusion_lat": 0.0, "bike_id": "48b37e19acc70bd12d4fd7d910e1bcce", "name": "48b37e19acc70bd12d4fd7d910e1bcce", "lat": 38.90631033333333}, {"rental_uris": {"ios": "https://dc.lft.to/lastmile_qr_scan", "android": "https://dc.lft.to/lastmile_qr_scan"}, "fusion_lon": 0.0, "type": "electric_scooter", "is_reserved": 0, "lon": -77.00294383333333, "is_disabled": 0, "fusion_lat": 0.0, "bike_id": "25b5d9b16230170a1f9f75afe7a7afd0", "name": "25b5d9b16230170a1f9f75afe7a7afd0", "lat": 38.891968}, {"rental_uris": {"ios": "https://dc.lft.to/lastmile_qr_scan", "android": "https://dc.lft.to/lastmile_qr_scan"}, "fusion_lon": 0.0, "type": "electric_scooter", "is_reserved": 0, "lon": -77.001808, "is_disabled": 0, "fusion_lat": 0.0, "bike_id": "9f6cdaa7eb16a63eef4ad6b976505111", "name": "9f6cdaa7eb16a63eef4ad6b976505111", "lat": 38.88867716666667}, {"rental_uris": {"ios": "https://dc.lft.to/lastmile_qr_scan", "android": "https://dc.lft.to/lastmile_qr_scan"}, "fusion_lon": 0.0, "type": "electric_scooter", "is_reserved": 0, "lon": -77.06607566666666, "is_disabled": 0, "fusion_lat": 0.0, "bike_id": "ee086fdd8521e64dd8277c31baba2dcb", "name": "ee086fdd8521e64dd8277c31baba2dcb", "lat": 38.90588}, {"rental_uris": {"ios": "https://dc.lft.to/lastmile_qr_scan", "android": "https://dc.lft.to/lastmile_qr_scan"}, "fusion_lon": 0.0, "type": "electric_scooter", "is_reserved": 0, "lon": -77.022027, "is_disabled": 0, "fusion_lat": 0.0, "bike_id": "28403789516a8f56c5df9ab9706a3a39", "name": "28403789516a8f56c5df9ab9706a3a39", "lat": 38.905465666666665}, {"rental_uris": {"ios": "https://dc.lft.to/lastmile_qr_scan", "android": "https://dc.lft.to/lastmile_qr_scan"}, "fusion_lon": 0.0, "type": "electric_scooter", "is_reserved": 0, "lon": -77.02176316666667, "is_disabled": 0, "fusion_lat": 0.0, "bike_id": "d648848c9385dd86889821ed6f929928", "name": "d648848c9385dd86889821ed6f929928", "lat": 38.91561216666667}, {"rental_uris": {"ios": "https://dc.lft.to/lastmile_qr_scan", "android": "https://dc.lft.to/lastmile_qr_scan"}, "fusion_lon": 0.0, "type": "electric_scooter", "is_reserved": 0, "lon": -77.023635, "is_disabled": 0, "fusion_lat": 0.0, "bike_id": "f93602e069306110c3870f4ee31002f2", "name": "f93602e069306110c3870f4ee31002f2", "lat": 38.9197965}, {"rental_uris": {"ios": "https://dc.lft.to/lastmile_qr_scan", "android": "https://dc.lft.to/lastmile_qr_scan"}, "fusion_lon": 0.0, "type": "electric_scooter", "is_reserved": 0, "lon": -77.04567666666667, "is_disabled": 0, "fusion_lat": 0.0, "bike_id": "64af775412718e17b7fa52a7f372d04e", "name": "64af775412718e17b7fa52a7f372d04e", "lat": 38.907387666666665}, {"rental_uris": {"ios": "https://dc.lft.to/lastmile_qr_scan", "android": "https://dc.lft.to/lastmile_qr_scan"}, "fusion_lon": 0.0, "type": "electric_scooter", "is_reserved": 0, "lon": -77.03832266666667, "is_disabled": 0, "fusion_lat": 0.0, "bike_id": "eea321312b5ed3c060f4db9d2db18a6e", "name": "eea321312b5ed3c060f4db9d2db18a6e", "lat": 38.91117633333333}, {"rental_uris": {"ios": "https://dc.lft.to/lastmile_qr_scan", "android": "https://dc.lft.to/lastmile_qr_scan"}, "fusion_lon": 0.0, "type": "electric_scooter", "is_reserved": 0, "lon": -77.02211666666666, "is_disabled": 0, "fusion_lat": 0.0, "bike_id": "3147066d53ed5ce4b018f15fd29dea6e", "name": "3147066d53ed5ce4b018f15fd29dea6e", "lat": 38.896119166666665}, {"rental_uris": {"ios": "https://dc.lft.to/lastmile_qr_scan", "android": "https://dc.lft.to/lastmile_qr_scan"}, "fusion_lon": 0.0, "type": "electric_scooter", "is_reserved": 0, "lon": -77.04785816666667, "is_disabled": 0, "fusion_lat": 0.0, "bike_id": "788bcf3f738b232be134bda787b6fae9", "name": "788bcf3f738b232be134bda787b6fae9", "lat": 38.91943966666667}, {"rental_uris": {"ios": "https://dc.lft.to/lastmile_qr_scan", "android": "https://dc.lft.to/lastmile_qr_scan"}, "fusion_lon": 0.0, "type": "electric_scooter", "is_reserved": 0, "lon": -77.040437, "is_disabled": 0, "fusion_lat": 0.0, "bike_id": "5604842633421ec753bb451da5c55990", "name": "5604842633421ec753bb451da5c55990", "lat": 38.92425816666667}, {"rental_uris": {"ios": "https://dc.lft.to/lastmile_qr_scan", "android": "https://dc.lft.to/lastmile_qr_scan"}, "fusion_lon": 0.0, "type": "electric_scooter", "is_reserved": 0, "lon": -77.049487, "is_disabled": 0, "fusion_lat": 0.0, "bike_id": "df05a0f169b16eb80eb010ef3ed8dbae", "name": "df05a0f169b16eb80eb010ef3ed8dbae", "lat": 38.8974025}, {"rental_uris": {"ios": "https://dc.lft.to/lastmile_qr_scan", "android": "https://dc.lft.to/lastmile_qr_scan"}, "fusion_lon": 0.0, "type": "electric_scooter", "is_reserved": 0, "lon": -77.00107683333333, "is_disabled": 0, "fusion_lat": 0.0, "bike_id": "d20a1d0286a5688034972a926b246a0b", "name": "d20a1d0286a5688034972a926b246a0b", "lat": 38.90774033333334}, {"rental_uris": {"ios": "https://dc.lft.to/lastmile_qr_scan", "android": "https://dc.lft.to/lastmile_qr_scan"}, "fusion_lon": 0.0, "type": "electric_scooter", "is_reserved": 0, "lon": -77.02518083333334, "is_disabled": 0, "fusion_lat": 0.0, "bike_id": "573c8a48d8aaa8072c71cc43f1b774aa", "name": "573c8a48d8aaa8072c71cc43f1b774aa", "lat": 38.91947783333333}, {"rental_uris": {"ios": "https://dc.lft.to/lastmile_qr_scan", "android": "https://dc.lft.to/lastmile_qr_scan"}, "fusion_lon": 0.0, "type": "electric_scooter", "is_reserved": 0, "lon": -77.01273716666667, "is_disabled": 0, "fusion_lat": 0.0, "bike_id": "7c0292902b712db04af62a5c7190ee06", "name": "7c0292902b712db04af62a5c7190ee06", "lat": 38.909538833333336}, {"rental_uris": {"ios": "https://dc.lft.to/lastmile_qr_scan", "android": "https://dc.lft.to/lastmile_qr_scan"}, "fusion_lon": 0.0, "type": "electric_scooter", "is_reserved": 0, "lon": -77.025973, "is_disabled": 0, "fusion_lat": 0.0, "bike_id": "ce373dbf947b20fe4314e025da067253", "name": "ce373dbf947b20fe4314e025da067253", "lat": 38.90598083333333}, {"rental_uris": {"ios": "https://dc.lft.to/lastmile_qr_scan", "android": "https://dc.lft.to/lastmile_qr_scan"}, "fusion_lon": 0.0, "type": "electric_scooter", "is_reserved": 0, "lon": -76.93749183333334, "is_disabled": 0, "fusion_lat": 0.0, "bike_id": "423bc08975a64ef16e5e40847cc5d799", "name": "423bc08975a64ef16e5e40847cc5d799", "lat": 38.8900815}, {"rental_uris": {"ios": "https://dc.lft.to/lastmile_qr_scan", "android": "https://dc.lft.to/lastmile_qr_scan"}, "fusion_lon": 0.0, "type": "electric_scooter", "is_reserved": 0, "lon": -77.03360083333334, "is_disabled": 0, "fusion_lat": 0.0, "bike_id": "71c007683165f4a24e6b62e9bb915800", "name": "71c007683165f4a24e6b62e9bb915800", "lat": 38.90269816666667}, {"rental_uris": {"ios": "https://dc.lft.to/lastmile_qr_scan", "android": "https://dc.lft.to/lastmile_qr_scan"}, "fusion_lon": 0.0, "type": "electric_scooter", "is_reserved": 0, "lon": -77.01889, "is_disabled": 0, "fusion_lat": 0.0, "bike_id": "d6077b53ede0f5a97ec970e550d8a8b0", "name": "d6077b53ede0f5a97ec970e550d8a8b0", "lat": 38.90293166666667}, {"rental_uris": {"ios": "https://dc.lft.to/lastmile_qr_scan", "android": "https://dc.lft.to/lastmile_qr_scan"}, "fusion_lon": 0.0, "type": "electric_scooter", "is_reserved": 0, "lon": -76.93594683333333, "is_disabled": 0, "fusion_lat": 0.0, "bike_id": "86b85c50d6a73d13b325ea45251a88d6", "name": "86b85c50d6a73d13b325ea45251a88d6", "lat": 38.90944433333333}, {"rental_uris": {"ios": "https://dc.lft.to/lastmile_qr_scan", "android": "https://dc.lft.to/lastmile_qr_scan"}, "fusion_lon": 0.0, "type": "electric_bike", "is_reserved": 0, "lon": -76.95136116666667, "is_disabled": 0, "fusion_lat": 0.0, "bike_id": "646063567358f2406426319a21555c3d", "name": "646063567358f2406426319a21555c3d", "lat": 39.08434783333333}, {"rental_uris": {"ios": "https://dc.lft.to/lastmile_qr_scan", "android": "https://dc.lft.to/lastmile_qr_scan"}, "fusion_lon": 0.0, "type": "electric_scooter", "is_reserved": 0, "lon": -77.06364783333333, "is_disabled": 0, "fusion_lat": 0.0, "bike_id": "79d0a34befdae5409fd28ba857e8fcaf", "name": "79d0a34befdae5409fd28ba857e8fcaf", "lat": 38.908085666666665}, {"rental_uris": {"ios": "https://dc.lft.to/lastmile_qr_scan", "android": "https://dc.lft.to/lastmile_qr_scan"}, "fusion_lon": 0.0, "type": "electric_scooter", "is_reserved": 0, "lon": -77.0194145, "is_disabled": 0, "fusion_lat": 0.0, "bike_id": "f13367ee2bb10d901484224b4b4fa674", "name": "f13367ee2bb10d901484224b4b4fa674", "lat": 38.924187}, {"rental_uris": {"ios": "https://dc.lft.to/lastmile_qr_scan", "android": "https://dc.lft.to/lastmile_qr_scan"}, "fusion_lon": 0.0, "type": "electric_scooter", "is_reserved": 0, "lon": -77.0671145, "is_disabled": 0, "fusion_lat": 0.0, "bike_id": "ece47cf3acf7018c5829a82927e84d80", "name": "ece47cf3acf7018c5829a82927e84d80", "lat": 38.91366166666667}, {"rental_uris": {"ios": "https://dc.lft.to/lastmile_qr_scan", "android": "https://dc.lft.to/lastmile_qr_scan"}, "fusion_lon": 0.0, "type": "electric_scooter", "is_reserved": 0, "lon": -77.01784233333333, "is_disabled": 0, "fusion_lat": 0.0, "bike_id": "7b93afc979002312caa64242ea25d1d1", "name": "7b93afc979002312caa64242ea25d1d1", "lat": 38.91998933333333}, {"rental_uris": {"ios": "https://dc.lft.to/lastmile_qr_scan", "android": "https://dc.lft.to/lastmile_qr_scan"}, "fusion_lon": 0.0, "type": "electric_scooter", "is_reserved": 0, "lon": -77.0390155, "is_disabled": 0, "fusion_lat": 0.0, "bike_id": "420fce6b26e5f17beab583297c49e30b", "name": "420fce6b26e5f17beab583297c49e30b", "lat": 38.9170855}, {"rental_uris": {"ios": "https://dc.lft.to/lastmile_qr_scan", "android": "https://dc.lft.to/lastmile_qr_scan"}, "fusion_lon": 0.0, "type": "electric_scooter", "is_reserved": 0, "lon": -77.049867, "is_disabled": 0, "fusion_lat": 0.0, "bike_id": "4c12e9eb945f054a13d9dc565cc7db50", "name": "4c12e9eb945f054a13d9dc565cc7db50", "lat": 38.89729533333333}, {"rental_uris": {"ios": "https://dc.lft.to/lastmile_qr_scan", "android": "https://dc.lft.to/lastmile_qr_scan"}, "fusion_lon": 0.0, "type": "electric_scooter", "is_reserved": 0, "lon": -77.03891183333333, "is_disabled": 0, "fusion_lat": 0.0, "bike_id": "8ade85e16af6516f0b9a698ac6dc9edc", "name": "8ade85e16af6516f0b9a698ac6dc9edc", "lat": 38.924935833333336}, {"rental_uris": {"ios": "https://dc.lft.to/lastmile_qr_scan", "android": "https://dc.lft.to/lastmile_qr_scan"}, "fusion_lon": 0.0, "type": "electric_scooter", "is_reserved": 0, "lon": -77.03008683333333, "is_disabled": 0, "fusion_lat": 0.0, "bike_id": "db2c545c2dd4f6ec9d23d69b8b37332c", "name": "db2c545c2dd4f6ec9d23d69b8b37332c", "lat": 38.931114}, {"rental_uris": {"ios": "https://dc.lft.to/lastmile_qr_scan", "android": "https://dc.lft.to/lastmile_qr_scan"}, "fusion_lon": 0.0, "type": "electric_scooter", "is_reserved": 0, "lon": -77.021564, "is_disabled": 0, "fusion_lat": 0.0, "bike_id": "37272c46fb8a5845e85ab102b1c89cef", "name": "37272c46fb8a5845e85ab102b1c89cef", "lat": 38.9260995}, {"rental_uris": {"ios": "https://dc.lft.to/lastmile_qr_scan", "android": "https://dc.lft.to/lastmile_qr_scan"}, "fusion_lon": 0.0, "type": "electric_scooter", "is_reserved": 0, "lon": -77.05607466666666, "is_disabled": 0, "fusion_lat": 0.0, "bike_id": "1f4806de87cc071b2c1bdb8c28992727", "name": "1f4806de87cc071b2c1bdb8c28992727", "lat": 38.93160266666667}, {"rental_uris": {"ios": "https://dc.lft.to/lastmile_qr_scan", "android": "https://dc.lft.to/lastmile_qr_scan"}, "fusion_lon": 0.0, "type": "electric_scooter", "is_reserved": 0, "lon": -77.02718733333333, "is_disabled": 0, "fusion_lat": 0.0, "bike_id": "d765b62d2f18a64b5103a45062a5b844", "name": "d765b62d2f18a64b5103a45062a5b844", "lat": 38.904232666666665}, {"rental_uris": {"ios": "https://dc.lft.to/lastmile_qr_scan", "android": "https://dc.lft.to/lastmile_qr_scan"}, "fusion_lon": 0.0, "type": "electric_bike", "is_reserved": 0, "lon": -77.0306025, "is_disabled": 0, "fusion_lat": 0.0, "bike_id": "ff3fe9e31ca1de357428d2ae6ce88049", "name": "ff3fe9e31ca1de357428d2ae6ce88049", "lat": 38.92241033333333}, {"rental_uris": {"ios": "https://dc.lft.to/lastmile_qr_scan", "android": "https://dc.lft.to/lastmile_qr_scan"}, "fusion_lon": 0.0, "type": "electric_scooter", "is_reserved": 0, "lon": -77.03851633333333, "is_disabled": 0, "fusion_lat": 0.0, "bike_id": "5307a8981d0a8aba3c0198ff53684697", "name": "5307a8981d0a8aba3c0198ff53684697", "lat": 38.931279833333335}, {"rental_uris": {"ios": "https://dc.lft.to/lastmile_qr_scan", "android": "https://dc.lft.to/lastmile_qr_scan"}, "fusion_lon": 0.0, "type": "electric_scooter", "is_reserved": 0, "lon": -77.0195295, "is_disabled": 0, "fusion_lat": 0.0, "bike_id": "75f93e9b12cbfff4ee4504d61e2ca7fc", "name": "75f93e9b12cbfff4ee4504d61e2ca7fc", "lat": 38.923154833333335}, {"rental_uris": {"ios": "https://dc.lft.to/lastmile_qr_scan", "android": "https://dc.lft.to/lastmile_qr_scan"}, "fusion_lon": 0.0, "type": "electric_scooter", "is_reserved": 0, "lon": -77.05026883333333, "is_disabled": 0, "fusion_lat": 0.0, "bike_id": "30348e6a2678f5ba91ff33e78f144f79", "name": "30348e6a2678f5ba91ff33e78f144f79", "lat": 38.89259066666666}, {"rental_uris": {"ios": "https://dc.lft.to/lastmile_qr_scan", "android": "https://dc.lft.to/lastmile_qr_scan"}, "fusion_lon": 0.0, "type": "electric_scooter", "is_reserved": 0, "lon": -77.0326985, "is_disabled": 0, "fusion_lat": 0.0, "bike_id": "b0ec3c583660bfd4b5b2cfa03b755550", "name": "b0ec3c583660bfd4b5b2cfa03b755550", "lat": 38.89877416666667}, {"rental_uris": {"ios": "https://dc.lft.to/lastmile_qr_scan", "android": "https://dc.lft.to/lastmile_qr_scan"}, "fusion_lon": 0.0, "type": "electric_scooter", "is_reserved": 0, "lon": -77.03250833333334, "is_disabled": 0, "fusion_lat": 0.0, "bike_id": "39aa296340b6aeba890204f6d08606ab", "name": "39aa296340b6aeba890204f6d08606ab", "lat": 38.90147016666667}, {"rental_uris": {"ios": "https://dc.lft.to/lastmile_qr_scan", "android": "https://dc.lft.to/lastmile_qr_scan"}, "fusion_lon": 0.0, "type": "electric_scooter", "is_reserved": 0, "lon": -77.02133516666666, "is_disabled": 0, "fusion_lat": 0.0, "bike_id": "c9fbf5be823f3c0153227a1e970e575f", "name": "c9fbf5be823f3c0153227a1e970e575f", "lat": 38.93653833333333}, {"rental_uris": {"ios": "https://dc.lft.to/lastmile_qr_scan", "android": "https://dc.lft.to/lastmile_qr_scan"}, "fusion_lon": 0.0, "type": "electric_scooter", "is_reserved": 0, "lon": -77.01799083333333, "is_disabled": 0, "fusion_lat": 0.0, "bike_id": "cf03864b7d4631279bd375c030ae2d5d", "name": "cf03864b7d4631279bd375c030ae2d5d", "lat": 38.914215666666664}, {"rental_uris": {"ios": "https://dc.lft.to/lastmile_qr_scan", "android": "https://dc.lft.to/lastmile_qr_scan"}, "fusion_lon": 0.0, "type": "electric_scooter", "is_reserved": 0, "lon": -77.02528733333334, "is_disabled": 0, "fusion_lat": 0.0, "bike_id": "e6b3cc640001c7da8c842c6404ee1aee", "name": "e6b3cc640001c7da8c842c6404ee1aee", "lat": 38.9181555}, {"rental_uris": {"ios": "https://dc.lft.to/lastmile_qr_scan", "android": "https://dc.lft.to/lastmile_qr_scan"}, "fusion_lon": 0.0, "type": "electric_scooter", "is_reserved": 0, "lon": -77.03252783333333, "is_disabled": 0, "fusion_lat": 0.0, "bike_id": "96768ade633c7403c41a0f111e035d0f", "name": "96768ade633c7403c41a0f111e035d0f", "lat": 38.9020515}, {"rental_uris": {"ios": "https://dc.lft.to/lastmile_qr_scan", "android": "https://dc.lft.to/lastmile_qr_scan"}, "fusion_lon": 0.0, "type": "electric_scooter", "is_reserved": 0, "lon": -76.925923, "is_disabled": 0, "fusion_lat": 0.0, "bike_id": "311098f798285641c5c158f53360a91c", "name": "311098f798285641c5c158f53360a91c", "lat": 38.897298666666664}, {"rental_uris": {"ios": "https://dc.lft.to/lastmile_qr_scan", "android": "https://dc.lft.to/lastmile_qr_scan"}, "fusion_lon": 0.0, "type": "electric_scooter", "is_reserved": 0, "lon": -77.03419616666666, "is_disabled": 0, "fusion_lat": 0.0, "bike_id": "426431ddbd881cdcde10c743d73772d3", "name": "426431ddbd881cdcde10c743d73772d3", "lat": 38.909611166666664}, {"rental_uris": {"ios": "https://dc.lft.to/lastmile_qr_scan", "android": "https://dc.lft.to/lastmile_qr_scan"}, "fusion_lon": 0.0, "type": "electric_scooter", "is_reserved": 0, "lon": -77.03553183333334, "is_disabled": 0, "fusion_lat": 0.0, "bike_id": "f3a83ece73cceac31127e8e754861f24", "name": "f3a83ece73cceac31127e8e754861f24", "lat": 38.92740366666666}, {"rental_uris": {"ios": "https://dc.lft.to/lastmile_qr_scan", "android": "https://dc.lft.to/lastmile_qr_scan"}, "fusion_lon": 0.0, "type": "electric_scooter", "is_reserved": 0, "lon": -77.00337033333334, "is_disabled": 0, "fusion_lat": 0.0, "bike_id": "1babe621ca684abfb45df8393bfa6537", "name": "1babe621ca684abfb45df8393bfa6537", "lat": 38.8935395}, {"rental_uris": {"ios": "https://dc.lft.to/lastmile_qr_scan", "android": "https://dc.lft.to/lastmile_qr_scan"}, "fusion_lon": 0.0, "type": "electric_scooter", "is_reserved": 0, "lon": -77.00458116666667, "is_disabled": 0, "fusion_lat": 0.0, "bike_id": "57fecb957251cb6b1ec5d3183573784d", "name": "57fecb957251cb6b1ec5d3183573784d", "lat": 38.91442833333333}, {"rental_uris": {"ios": "https://dc.lft.to/lastmile_qr_scan", "android": "https://dc.lft.to/lastmile_qr_scan"}, "fusion_lon": 0.0, "type": "electric_scooter", "is_reserved": 0, "lon": -77.02443616666666, "is_disabled": 0, "fusion_lat": 0.0, "bike_id": "bc7f6d04ac21b4d2d55c0fda51049fe0", "name": "bc7f6d04ac21b4d2d55c0fda51049fe0", "lat": 38.949771166666665}, {"rental_uris": {"ios": "https://dc.lft.to/lastmile_qr_scan", "android": "https://dc.lft.to/lastmile_qr_scan"}, "fusion_lon": 0.0, "type": "electric_scooter", "is_reserved": 0, "lon": -77.00920283333333, "is_disabled": 0, "fusion_lat": 0.0, "bike_id": "a764a80f2044155d4b217b7a992cc54c", "name": "a764a80f2044155d4b217b7a992cc54c", "lat": 38.914756833333335}, {"rental_uris": {"ios": "https://dc.lft.to/lastmile_qr_scan", "android": "https://dc.lft.to/lastmile_qr_scan"}, "fusion_lon": 0.0, "type": "electric_scooter", "is_reserved": 0, "lon": -77.0480925, "is_disabled": 0, "fusion_lat": 0.0, "bike_id": "ef1705d43c1ea03936d3fab3bf4e3453", "name": "ef1705d43c1ea03936d3fab3bf4e3453", "lat": 38.91634666666667}, {"rental_uris": {"ios": "https://dc.lft.to/lastmile_qr_scan", "android": "https://dc.lft.to/lastmile_qr_scan"}, "fusion_lon": 0.0, "type": "electric_scooter", "is_reserved": 0, "lon": -77.02845283333333, "is_disabled": 0, "fusion_lat": 0.0, "bike_id": "d98253085bf3d8739c83a7d96f3664f1", "name": "d98253085bf3d8739c83a7d96f3664f1", "lat": 38.9328045}, {"rental_uris": {"ios": "https://dc.lft.to/lastmile_qr_scan", "android": "https://dc.lft.to/lastmile_qr_scan"}, "fusion_lon": 0.0, "type": "electric_scooter", "is_reserved": 0, "lon": -77.0233925, "is_disabled": 0, "fusion_lat": 0.0, "bike_id": "bf81a8cbbc295bbbe718081ee06c6379", "name": "bf81a8cbbc295bbbe718081ee06c6379", "lat": 38.916910666666666}, {"rental_uris": {"ios": "https://dc.lft.to/lastmile_qr_scan", "android": "https://dc.lft.to/lastmile_qr_scan"}, "fusion_lon": 0.0, "type": "electric_scooter", "is_reserved": 0, "lon": -77.02493, "is_disabled": 0, "fusion_lat": 0.0, "bike_id": "aa08ba8d252f769eee85744dd50ae239", "name": "aa08ba8d252f769eee85744dd50ae239", "lat": 38.88469683333334}, {"rental_uris": {"ios": "https://dc.lft.to/lastmile_qr_scan", "android": "https://dc.lft.to/lastmile_qr_scan"}, "fusion_lon": 0.0, "type": "electric_scooter", "is_reserved": 0, "lon": -77.001996, "is_disabled": 0, "fusion_lat": 0.0, "bike_id": "e353f55d32b9de4586a65d184107f254", "name": "e353f55d32b9de4586a65d184107f254", "lat": 38.930842166666665}, {"rental_uris": {"ios": "https://dc.lft.to/lastmile_qr_scan", "android": "https://dc.lft.to/lastmile_qr_scan"}, "fusion_lon": 0.0, "type": "electric_scooter", "is_reserved": 0, "lon": -77.0348485, "is_disabled": 0, "fusion_lat": 0.0, "bike_id": "5a90e2202fa3adc5033e43b78f904c02", "name": "5a90e2202fa3adc5033e43b78f904c02", "lat": 38.918569833333336}, {"rental_uris": {"ios": "https://dc.lft.to/lastmile_qr_scan", "android": "https://dc.lft.to/lastmile_qr_scan"}, "fusion_lon": 0.0, "type": "electric_scooter", "is_reserved": 0, "lon": -77.01723616666666, "is_disabled": 0, "fusion_lat": 0.0, "bike_id": "2f0ac9bc33b3b9566809100b732c7507", "name": "2f0ac9bc33b3b9566809100b732c7507", "lat": 38.920505}, {"rental_uris": {"ios": "https://dc.lft.to/lastmile_qr_scan", "android": "https://dc.lft.to/lastmile_qr_scan"}, "fusion_lon": 0.0, "type": "electric_scooter", "is_reserved": 0, "lon": -77.0465855, "is_disabled": 0, "fusion_lat": 0.0, "bike_id": "fd5b87793ee5de210eebddbe0eef1ced", "name": "fd5b87793ee5de210eebddbe0eef1ced", "lat": 38.9164285}, {"rental_uris": {"ios": "https://dc.lft.to/lastmile_qr_scan", "android": "https://dc.lft.to/lastmile_qr_scan"}, "fusion_lon": 0.0, "type": "electric_scooter", "is_reserved": 0, "lon": -77.038413, "is_disabled": 0, "fusion_lat": 0.0, "bike_id": "b41533eddec751ae0eefb36a1bd3fe8e", "name": "b41533eddec751ae0eefb36a1bd3fe8e", "lat": 38.904116}, {"rental_uris": {"ios": "https://dc.lft.to/lastmile_qr_scan", "android": "https://dc.lft.to/lastmile_qr_scan"}, "fusion_lon": 0.0, "type": "electric_scooter", "is_reserved": 0, "lon": -77.02698816666667, "is_disabled": 0, "fusion_lat": 0.0, "bike_id": "37d0c9a19b3d7f4aac7b99db1e301de4", "name": "37d0c9a19b3d7f4aac7b99db1e301de4", "lat": 38.90670216666667}, {"rental_uris": {"ios": "https://dc.lft.to/lastmile_qr_scan", "android": "https://dc.lft.to/lastmile_qr_scan"}, "fusion_lon": 0.0, "type": "electric_scooter", "is_reserved": 0, "lon": -77.04181966666667, "is_disabled": 0, "fusion_lat": 0.0, "bike_id": "4e0748a4ca5897c1358df6c9cabcb0c5", "name": "4e0748a4ca5897c1358df6c9cabcb0c5", "lat": 38.920483}, {"rental_uris": {"ios": "https://dc.lft.to/lastmile_qr_scan", "android": "https://dc.lft.to/lastmile_qr_scan"}, "fusion_lon": 0.0, "type": "electric_scooter", "is_reserved": 0, "lon": -77.01938333333334, "is_disabled": 0, "fusion_lat": 0.0, "bike_id": "6ad8bf0242169a54ae4db4ad72e3284e", "name": "6ad8bf0242169a54ae4db4ad72e3284e", "lat": 38.876427166666666}, {"rental_uris": {"ios": "https://dc.lft.to/lastmile_qr_scan", "android": "https://dc.lft.to/lastmile_qr_scan"}, "fusion_lon": 0.0, "type": "electric_bike", "is_reserved": 0, "lon": -77.07162766666667, "is_disabled": 0, "fusion_lat": 0.0, "bike_id": "06ee24343614c6f614244df8badc09de", "name": "06ee24343614c6f614244df8badc09de", "lat": 38.907807166666665}, {"rental_uris": {"ios": "https://dc.lft.to/lastmile_qr_scan", "android": "https://dc.lft.to/lastmile_qr_scan"}, "fusion_lon": 0.0, "type": "electric_scooter", "is_reserved": 0, "lon": -76.99456983333333, "is_disabled": 0, "fusion_lat": 0.0, "bike_id": "6017ef36fd4ded40568ddd308ae4c9d2", "name": "6017ef36fd4ded40568ddd308ae4c9d2", "lat": 38.897249333333335}, {"rental_uris": {"ios": "https://dc.lft.to/lastmile_qr_scan", "android": "https://dc.lft.to/lastmile_qr_scan"}, "fusion_lon": 0.0, "type": "electric_scooter", "is_reserved": 0, "lon": -76.96549166666667, "is_disabled": 0, "fusion_lat": 0.0, "bike_id": "6bd915a48853ee6b3f8e4cf447896e58", "name": "6bd915a48853ee6b3f8e4cf447896e58", "lat": 38.91855016666667}, {"rental_uris": {"ios": "https://dc.lft.to/lastmile_qr_scan", "android": "https://dc.lft.to/lastmile_qr_scan"}, "fusion_lon": 0.0, "type": "electric_scooter", "is_reserved": 0, "lon": -77.02491466666666, "is_disabled": 0, "fusion_lat": 0.0, "bike_id": "b45582797bceb563dc263156389deffb", "name": "b45582797bceb563dc263156389deffb", "lat": 38.918066333333336}, {"rental_uris": {"ios": "https://dc.lft.to/lastmile_qr_scan", "android": "https://dc.lft.to/lastmile_qr_scan"}, "fusion_lon": 0.0, "type": "electric_bike", "is_reserved": 0, "lon": -76.91718116666667, "is_disabled": 0, "fusion_lat": 0.0, "bike_id": "9d38fb99501a2434cd2493892de7fe32", "name": "9d38fb99501a2434cd2493892de7fe32", "lat": 38.880270833333334}, {"rental_uris": {"ios": "https://dc.lft.to/lastmile_qr_scan", "android": "https://dc.lft.to/lastmile_qr_scan"}, "fusion_lon": 0.0, "type": "electric_scooter", "is_reserved": 0, "lon": -77.04533416666666, "is_disabled": 0, "fusion_lat": 0.0, "bike_id": "8c25637cf4c3ff6b0ae61c06cfdf938b", "name": "8c25637cf4c3ff6b0ae61c06cfdf938b", "lat": 38.90748216666667}, {"rental_uris": {"ios": "https://dc.lft.to/lastmile_qr_scan", "android": "https://dc.lft.to/lastmile_qr_scan"}, "fusion_lon": 0.0, "type": "electric_scooter", "is_reserved": 0, "lon": -76.94967833333334, "is_disabled": 0, "fusion_lat": 0.0, "bike_id": "aad0afe77ddc27e8037b5460fb9883cb", "name": "aad0afe77ddc27e8037b5460fb9883cb", "lat": 38.904844833333335}, {"rental_uris": {"ios": "https://dc.lft.to/lastmile_qr_scan", "android": "https://dc.lft.to/lastmile_qr_scan"}, "fusion_lon": 0.0, "type": "electric_scooter", "is_reserved": 0, "lon": -77.0241545, "is_disabled": 0, "fusion_lat": 0.0, "bike_id": "9449c8b6eca5bb8aa481d699983dda42", "name": "9449c8b6eca5bb8aa481d699983dda42", "lat": 38.909621333333334}, {"rental_uris": {"ios": "https://dc.lft.to/lastmile_qr_scan", "android": "https://dc.lft.to/lastmile_qr_scan"}, "fusion_lon": 0.0, "type": "electric_bike", "is_reserved": 0, "lon": -77.003836, "is_disabled": 0, "fusion_lat": 0.0, "bike_id": "233bab54d579b3a6aff41360fc202f65", "name": "233bab54d579b3a6aff41360fc202f65", "lat": 38.99864866666667},