{"data": {"bikes": [{"lon": -77.02956116666667, "bike_id": "3bf96fc14f0e0fba777b93ee22105bc5", "lat": 38.896459166666666, "fusion_lon": 0.0, "fusion_lat": 0.0, "type": "electric_scooter", "name": "3bf96fc14f0e0fba777b93ee22105bc5", "is_disabled": 0, "rental_uris": {"ios": "https://dc.lft.to/lastmile_qr_scan", "android": "https://dc.lft.to/lastmile_qr_scan"}, "is_reserved": 0}, {"lon": -76.93277166666667, "bike_id": "0d5c1440e36069885f32522d8bdeaa8c", "lat": 38.954246166666664, "fusion_lon": 0.0, "fusion_lat": 0.0, "type": "electric_bike", "name": "0d5c1440e36069885f32522d8bdeaa8c", "is_disabled": 0, "rental_uris": {"ios": "https://dc.lft.to/lastmile_qr_scan", "android": "https://dc.lft.to/lastmile_qr_scan"}, "is_reserved": 0}, {"lon": -77.01759533333333, "bike_id": "89f1a1a50ee63d67e3b229b31f8e7c3f", "lat": 38.8766815, "fusion_lon": 0.0, "fusion_lat": 0.0, "type": "electric_scooter", "name": "89f1a1a50ee63d67e3b229b31f8e7c3f", "is_disabled": 0, "rental_uris": {"ios": "https://dc.lft.to/lastmile_qr_scan", "android": "https://dc.lft.to/lastmile_qr_scan"}, "is_reserved": 0}, {"lon": -77.06120816666666, "bike_id": "44c16de39895f1f2f6194f174f45fd34", "lat": 38.905228666666666, "fusion_lon": 0.0, "fusion_lat": 0.0, "type": "electric_scooter", "name": "44c16de39895f1f2f6194f174f45fd34", "is_disabled": 0, "rental_uris": {"ios": "https://dc.lft.to/lastmile_qr_scan", "android": "https://dc.lft.to/lastmile_qr_scan"}, "is_reserved": 0}, {"lon": -77.0363355, "bike_id": "06386f903142022300bf746b34705a24", "lat": 38.91554633333333, "fusion_lon": 0.0, "fusion_lat": 0.0, "type": "electric_scooter", "name": "06386f903142022300bf746b34705a24", "is_disabled": 0, "rental_uris": {"ios": "https://dc.lft.to/lastmile_qr_scan", "android": "https://dc.lft.to/lastmile_qr_scan"}, "is_reserved": 0}, {"lon": -77.0190035, "bike_id": "85492b0d7436135096e0c5f7313447a3", "lat": 38.92339916666667, "fusion_lon": 0.0, "fusion_lat": 0.0, "type": "electric_scooter", "name": "85492b0d7436135096e0c5f7313447a3", "is_disabled": 0, "rental_uris": {"ios": "https://dc.lft.to/lastmile_qr_scan", "android": "https://dc.lft.to/lastmile_qr_scan"}, "is_reserved": 0}, {"lon": -77.03499066666667, "bike_id": "c05ae92f7bea66edb10c55293cb81a4d", "lat": 38.9117805, "fusion_lon": 0.0, "fusion_lat": 0.0, "type": "electric_scooter", "name": "c05ae92f7bea66edb10c55293cb81a4d", "is_disabled": 0, "rental_uris": {"ios": "https://dc.lft.to/lastmile_qr_scan", "android": "https://dc.lft.to/lastmile_qr_scan"}, "is_reserved": 0}, {"lon": -77.02957183333334, "bike_id": "09e9c761f8696f3c20b6f567870a2b06", "lat": 38.904953666666664, "fusion_lon": 0.0, "fusion_lat": 0.0, "type": "electric_scooter", "name": "09e9c761f8696f3c20b6f567870a2b06", "is_disabled": 0, "rental_uris": {"ios": "https://dc.lft.to/lastmile_qr_scan", "android": "https://dc.lft.to/lastmile_qr_scan"}, "is_reserved": 0}, {"lon": -76.94622150000001, "bike_id": "a498e463148235c23c920577deed9ff9", "lat": 38.832311833333335, "fusion_lon": 0.0, "fusion_lat": 0.0, "type": "electric_bike", "name": "a498e463148235c23c920577deed9ff9", "is_disabled": 0, "rental_uris": {"ios": "https://dc.lft.to/lastmile_qr_scan", "android": "https://dc.lft.to/lastmile_qr_scan"}, "is_reserved": 0}, {"lon": -77.017886, "bike_id": "724490b4d9d7f9d4c9b29be3a7b2741d", "lat": 38.920516166666665, "fusion_lon": 0.0, "fusion_lat": 0.0, "type": "electric_scooter", "name": "724490b4d9d7f9d4c9b29be3a7b2741d", "is_disabled": 0, "rental_uris": {"ios": "https://dc.lft.to/lastmile_qr_scan", "android": "https://dc.lft.to/lastmile_qr_scan"}, "is_reserved": 0}, {"lon": -77.01995416666666, "bike_id": "94e8e2d078d469ebcad97d6360120d4e", "lat": 38.9115735, "fusion_lon": 0.0, "fusion_lat": 0.0, "type": "electric_scooter", "name": "94e8e2d078d469ebcad97d6360120d4e", "is_disabled": 0, "rental_uris": {"ios": "https://dc.lft.to/lastmile_qr_scan", "android": "https://dc.lft.to/lastmile_qr_scan"}, "is_reserved": 0}, {"lon": -77.03440333333333, "bike_id": "7440e714dc4ff83db7ffded0f08a47c4", "lat": 38.907299, "fusion_lon": 0.0, "fusion_lat": 0.0, "type": "electric_scooter", "name": "7440e714dc4ff83db7ffded0f08a47c4", "is_disabled": 0, "rental_uris": {"ios": "https://dc.lft.to/lastmile_qr_scan", "android": "https://dc.lft.to/lastmile_qr_scan"}, "is_reserved": 0}, {"lon": -77.00127683333334, "bike_id": "11002f9bc28fc4b9783460a145d44fb0", "lat": 38.8781925, "fusion_lon": 0.0, "fusion_lat": 0.0, "type": "electric_scooter", "name": "11002f9bc28fc4b9783460a145d44fb0", "is_disabled": 0, "rental_uris": {"ios": "https://dc.lft.to/lastmile_qr_scan", "android": "https://dc.lft.to/lastmile_qr_scan"}, "is_reserved": 0}, {"lon": -77.032032, "bike_id": "11a0dfe5a90397c9ff0e4f609019694b", "lat": 38.892186, "fusion_lon": 0.0, "fusion_lat": 0.0, "type": "electric_scooter", "name": "11a0dfe5a90397c9ff0e4f609019694b", "is_disabled": 0, "rental_uris": {"ios": "https://dc.lft.to/lastmile_qr_scan", "android": "https://dc.lft.to/lastmile_qr_scan"}, "is_reserved": 0}, {"lon": -77.03198316666666, "bike_id": "8a7cf8ca5ce544fb8b0b045d05138a11", "lat": 38.91566533333334, "fusion_lon": 0.0, "fusion_lat": 0.0, "type": "electric_scooter", "name": "8a7cf8ca5ce544fb8b0b045d05138a11", "is_disabled": 0, "rental_uris": {"ios": "https://dc.lft.to/lastmile_qr_scan", "android": "https://dc.lft.to/lastmile_qr_scan"}, "is_reserved": 0}, {"lon": -77.02391016666667, "bike_id": "02ab91e787accf44a2748adc8d3f5d79", "lat": 38.916827833333336, "fusion_lon": 0.0, "fusion_lat": 0.0, "type": "electric_scooter", "name": "02ab91e787accf44a2748adc8d3f5d79", "is_disabled": 0, "rental_uris": {"ios": "https://dc.lft.to/lastmile_qr_scan", "android": "https://dc.lft.to/lastmile_qr_scan"}, "is_reserved": 0}, {"lon": -77.055983, "bike_id": "55db52028f6d2be6a69d5c4b1b74d06f", "lat": 38.936965666666666, "fusion_lon": 0.0, "fusion_lat": 0.0, "type": "electric_scooter", "name": "55db52028f6d2be6a69d5c4b1b74d06f", "is_disabled": 0, "rental_uris": {"ios": "https://dc.lft.to/lastmile_qr_scan", "android": "https://dc.lft.to/lastmile_qr_scan"}, "is_reserved": 0}, {"lon": -77.00097816666667, "bike_id": "afd48a9cf7c717486f25e4c5d8488de5", "lat": 38.91233616666667, "fusion_lon": 0.0, "fusion_lat": 0.0, "type": "electric_scooter", "name": "afd48a9cf7c717486f25e4c5d8488de5", "is_disabled": 0, "rental_uris": {"ios": "https://dc.lft.to/lastmile_qr_scan", "android": "https://dc.lft.to/lastmile_qr_scan"}, "is_reserved": 0}, {"lon": -77.02295466666666, "bike_id": "41cffe0ff6ad8074106481dd01c4602a", "lat": 38.91833616666667, "fusion_lon": 0.0, "fusion_lat": 0.0, "type": "electric_scooter", "name": "41cffe0ff6ad8074106481dd01c4602a", "is_disabled": 0, "rental_uris": {"ios": "https://dc.lft.to/lastmile_qr_scan", "android": "https://dc.lft.to/lastmile_qr_scan"}, "is_reserved": 0}, {"lon": -77.03857016666667, "bike_id": "733394c92dd5186bd4901f909cb022f7", "lat": 38.915476166666664, "fusion_lon": 0.0, "fusion_lat": 0.0, "type": "electric_scooter", "name": "733394c92dd5186bd4901f909cb022f7", "is_disabled": 0, "rental_uris": {"ios": "https://dc.lft.to/lastmile_qr_scan", "android": "https://dc.lft.to/lastmile_qr_scan"}, "is_reserved": 0}, {"lon": -77.02219916666667, "bike_id": "dcb15fe686902180278f1360e79f0401", "lat": 38.8921935, "fusion_lon": 0.0, "fusion_lat": 0.0, "type": "electric_scooter", "name": "dcb15fe686902180278f1360e79f0401", "is_disabled": 0, "rental_uris": {"ios": "https://dc.lft.to/lastmile_qr_scan", "android": "https://dc.lft.to/lastmile_qr_scan"}, "is_reserved": 0}, {"lon": -76.94102866666667, "bike_id": "cc96c33ec6e6eefc4694d5c12ad66e84", "lat": 38.88459816666666, "fusion_lon": 0.0, "fusion_lat": 0.0, "type": "electric_scooter", "name": "cc96c33ec6e6eefc4694d5c12ad66e84", "is_disabled": 0, "rental_uris": {"ios": "https://dc.lft.to/lastmile_qr_scan", "android": "https://dc.lft.to/lastmile_qr_scan"}, "is_reserved": 0}, {"lon": -77.06769483333333, "bike_id": "9a7ee17acaa048b972b0bffacd2a43ac", "lat": 38.905009, "fusion_lon": 0.0, "fusion_lat": 0.0, "type": "electric_scooter", "name": "9a7ee17acaa048b972b0bffacd2a43ac", "is_disabled": 0, "rental_uris": {"ios": "https://dc.lft.to/lastmile_qr_scan", "android": "https://dc.lft.to/lastmile_qr_scan"}, "is_reserved": 0}, {"lon": -77.0029835, "bike_id": "fdc3ea8f30fffa6158a182a3c2d376d0", "lat": 38.901307, "fusion_lon": 0.0, "fusion_lat": 0.0, "type": "electric_scooter", "name": "fdc3ea8f30fffa6158a182a3c2d376d0", "is_disabled": 0, "rental_uris": {"ios": "https://dc.lft.to/lastmile_qr_scan", "android": "https://dc.lft.to/lastmile_qr_scan"}, "is_reserved": 0}, {"lon": -77.0316465, "bike_id": "adc4eb04535ac1b93ecaf3691a5311f2", "lat": 38.899672, "fusion_lon": 0.0, "fusion_lat": 0.0, "type": "electric_scooter", "name": "adc4eb04535ac1b93ecaf3691a5311f2", "is_disabled": 0, "rental_uris": {"ios": "https://dc.lft.to/lastmile_qr_scan", "android": "https://dc.lft.to/lastmile_qr_scan"}, "is_reserved": 0}, {"lon": -77.03977633333334, "bike_id": "ca1f7e8a5a4c45b626b2e148fe7b3168", "lat": 38.92801466666667, "fusion_lon": 0.0, "fusion_lat": 0.0, "type": "electric_scooter", "name": "ca1f7e8a5a4c45b626b2e148fe7b3168", "is_disabled": 0, "rental_uris": {"ios": "https://dc.lft.to/lastmile_qr_scan", "android": "https://dc.lft.to/lastmile_qr_scan"}, "is_reserved": 0}, {"lon": -77.03438566666667, "bike_id": "ff22b52a2f821dba67b46ed81e341654", "lat": 38.904269666666664, "fusion_lon": 0.0, "fusion_lat": 0.0, "type": "electric_scooter", "name": "ff22b52a2f821dba67b46ed81e341654", "is_disabled": 0, "rental_uris": {"ios": "https://dc.lft.to/lastmile_qr_scan", "android": "https://dc.lft.to/lastmile_qr_scan"}, "is_reserved": 0}, {"lon": -76.985297, "bike_id": "c385d9de9fa58c00f356fbca517c59bf", "lat": 38.86688733333333, "fusion_lon": 0.0, "fusion_lat": 0.0, "type": "electric_scooter", "name": "c385d9de9fa58c00f356fbca517c59bf", "is_disabled": 0, "rental_uris": {"ios": "https://dc.lft.to/lastmile_qr_scan", "android": "https://dc.lft.to/lastmile_qr_scan"}, "is_reserved": 0}, {"lon": -77.03281883333334, "bike_id": "5b19331f1b5f8c8008682f0b9cb120ad", "lat": 38.912125333333336, "fusion_lon": 0.0, "fusion_lat": 0.0, "type": "electric_scooter", "name": "5b19331f1b5f8c8008682f0b9cb120ad", "is_disabled": 0, "rental_uris": {"ios": "https://dc.lft.to/lastmile_qr_scan", "android": "https://dc.lft.to/lastmile_qr_scan"}, "is_reserved": 0}, {"lon": -76.96536883333333, "bike_id": "f89fcb4d1fb9eb58944394e19accca21", "lat": 38.91839083333333, "fusion_lon": 0.0, "fusion_lat": 0.0, "type": "electric_scooter", "name": "f89fcb4d1fb9eb58944394e19accca21", "is_disabled": 0, "rental_uris": {"ios": "https://dc.lft.to/lastmile_qr_scan", "android": "https://dc.lft.to/lastmile_qr_scan"}, "is_reserved": 0}, {"lon": -77.233319, "bike_id": "e26bd32e3e0b6c597e7f75ef8e993257", "lat": 38.87277016666667, "fusion_lon": 0.0, "fusion_lat": 0.0, "type": "electric_bike", "name": "e26bd32e3e0b6c597e7f75ef8e993257", "is_disabled": 0, "rental_uris": {"ios": "https://dc.lft.to/lastmile_qr_scan", "android": "https://dc.lft.to/lastmile_qr_scan"}, "is_reserved": 0}, {"lon": -76.98880116666666, "bike_id": "86b2adb97c7ea59313832c0c885735de", "lat": 38.866535, "fusion_lon": 0.0, "fusion_lat": 0.0, "type": "electric_scooter", "name": "86b2adb97c7ea59313832c0c885735de", "is_disabled": 0, "rental_uris": {"ios": "https://dc.lft.to/lastmile_qr_scan", "android": "https://dc.lft.to/lastmile_qr_scan"}, "is_reserved": 0}, {"lon": -77.04471183333334, "bike_id": "0117fb71a3e12814eb1ac2cb2b67ce5a", "lat": 38.8921955, "fusion_lon": 0.0, "fusion_lat": 0.0, "type": "electric_scooter", "name": "0117fb71a3e12814eb1ac2cb2b67ce5a", "is_disabled": 0, "rental_uris": {"ios": "https://dc.lft.to/lastmile_qr_scan", "android": "https://dc.lft.to/lastmile_qr_scan"}, "is_reserved": 0}, {"lon": -77.05000233333334, "bike_id": "a01531dc51e2b237b90b7114f6e0d9af", "lat": 38.892333, "fusion_lon": 0.0, "fusion_lat": 0.0, "type": "electric_scooter", "name": "a01531dc51e2b237b90b7114f6e0d9af", "is_disabled": 0, "rental_uris": {"ios": "https://dc.lft.to/lastmile_qr_scan", "android": "https://dc.lft.to/lastmile_qr_scan"}, "is_reserved": 0}, {"lon": -77.01142816666666, "bike_id": "f32abbcef79aa372271ed5cf0ce24e02", "lat": 38.906416166666666, "fusion_lon": 0.0, "fusion_lat": 0.0, "type": "electric_scooter", "name": "f32abbcef79aa372271ed5cf0ce24e02", "is_disabled": 0, "rental_uris": {"ios": "https://dc.lft.to/lastmile_qr_scan", "android": "https://dc.lft.to/lastmile_qr_scan"}, "is_reserved": 0}, {"lon": -77.04369483333333, "bike_id": "3257e0021dc21ffaf5a76fca5e2a21d5", "lat": 38.92095, "fusion_lon": 0.0, "fusion_lat": 0.0, "type": "electric_scooter", "name": "3257e0021dc21ffaf5a76fca5e2a21d5", "is_disabled": 0, "rental_uris": {"ios": "https://dc.lft.to/lastmile_qr_scan", "android": "https://dc.lft.to/lastmile_qr_scan"}, "is_reserved": 0}, {"lon": -77.0259145, "bike_id": "db29dd7805de6b4084c94d1b9292c2b1", "lat": 38.94199033333334, "fusion_lon": 0.0, "fusion_lat": 0.0, "type": "electric_scooter", "name": "db29dd7805de6b4084c94d1b9292c2b1", "is_disabled": 0, "rental_uris": {"ios": "https://dc.lft.to/lastmile_qr_scan", "android": "https://dc.lft.to/lastmile_qr_scan"}, "is_reserved": 0}, {"lon": -77.017583, "bike_id": "0f3b1805d8f8e766cc3978b4f8b86a1e", "lat": 38.88595083333333, "fusion_lon": 0.0, "fusion_lat": 0.0, "type": "electric_scooter", "name": "0f3b1805d8f8e766cc3978b4f8b86a1e", "is_disabled": 0, "rental_uris": {"ios": "https://dc.lft.to/lastmile_qr_scan", "android": "https://dc.lft.to/lastmile_qr_scan"}, "is_reserved": 0}, {"lon": -77.03193883333333, "bike_id": "a605a78e00da12c67fc4b87a11b245b2", "lat": 38.898565, "fusion_lon": 0.0, "fusion_lat": 0.0, "type": "electric_scooter", "name": "a605a78e00da12c67fc4b87a11b245b2", "is_disabled": 0, "rental_uris": {"ios": "https://dc.lft.to/lastmile_qr_scan", "android": "https://dc.lft.to/lastmile_qr_scan"}, "is_reserved": 0}, {"lon": -77.03808416666666, "bike_id": "fd56a3446f29322773e9fe5610ef88c3", "lat": 38.9206515, "fusion_lon": 0.0, "fusion_lat": 0.0, "type": "electric_scooter", "name": "fd56a3446f29322773e9fe5610ef88c3", "is_disabled": 0, "rental_uris": {"ios": "https://dc.lft.to/lastmile_qr_scan", "android": "https://dc.lft.to/lastmile_qr_scan"}, "is_reserved": 0}, {"lon": -77.02475233333334, "bike_id": "8204e0552bfb172374925e399170be24", "lat": 38.938537333333336, "fusion_lon": 0.0, "fusion_lat": 0.0, "type": "electric_scooter", "name": "8204e0552bfb172374925e399170be24", "is_disabled": 0, "rental_uris": {"ios": "https://dc.lft.to/lastmile_qr_scan", "android": "https://dc.lft.to/lastmile_qr_scan"}, "is_reserved": 0}, {"lon": -76.97768183333334, "bike_id": "d1d43c53b2a8e58a1bfafe6cb66d9aec", "lat": 38.951527666666664, "fusion_lon": 0.0, "fusion_lat": 0.0, "type": "electric_bike", "name": "d1d43c53b2a8e58a1bfafe6cb66d9aec", "is_disabled": 0, "rental_uris": {"ios": "https://dc.lft.to/lastmile_qr_scan", "android": "https://dc.lft.to/lastmile_qr_scan"}, "is_reserved": 0}, {"lon": -77.0401815, "bike_id": "b954d99da838dfcdb2c0826de04da3c9", "lat": 38.903550333333335, "fusion_lon": 0.0, "fusion_lat": 0.0, "type": "electric_scooter", "name": "b954d99da838dfcdb2c0826de04da3c9", "is_disabled": 0, "rental_uris": {"ios": "https://dc.lft.to/lastmile_qr_scan", "android": "https://dc.lft.to/lastmile_qr_scan"}, "is_reserved": 0}, {"lon": -77.02397283333333, "bike_id": "2867464ed852e49d725bd1b30407d89b", "lat": 38.891872, "fusion_lon": 0.0, "fusion_lat": 0.0, "type": "electric_scooter", "name": "2867464ed852e49d725bd1b30407d89b", "is_disabled": 0, "rental_uris": {"ios": "https://dc.lft.to/lastmile_qr_scan", "android": "https://dc.lft.to/lastmile_qr_scan"}, "is_reserved": 0}, {"lon": -77.03184033333334, "bike_id": "6693af1dd6e388af6377a256f724a73b", "lat": 38.90517533333333, "fusion_lon": 0.0, "fusion_lat": 0.0, "type": "electric_scooter", "name": "6693af1dd6e388af6377a256f724a73b", "is_disabled": 0, "rental_uris": {"ios": "https://dc.lft.to/lastmile_qr_scan", "android": "https://dc.lft.to/lastmile_qr_scan"}, "is_reserved": 0}, {"lon": -77.07860916666667, "bike_id": "cafa12b5f6013c8a95abf8e35e7a0ec1", "lat": 38.919633833333336, "fusion_lon": 0.0, "fusion_lat": 0.0, "type": "electric_bike", "name": "cafa12b5f6013c8a95abf8e35e7a0ec1", "is_disabled": 0, "rental_uris": {"ios": "https://dc.lft.to/lastmile_qr_scan", "android": "https://dc.lft.to/lastmile_qr_scan"}, "is_reserved": 0}, {"lon": -77.03571866666667, "bike_id": "140cb43f827d6b0c951ff0327984ab67", "lat": 38.9177705, "fusion_lon": 0.0, "fusion_lat": 0.0, "type": "electric_scooter", "name": "140cb43f827d6b0c951ff0327984ab67", "is_disabled": 0, "rental_uris": {"ios": "https://dc.lft.to/lastmile_qr_scan", "android": "https://dc.lft.to/lastmile_qr_scan"}, "is_reserved": 0}, {"lon": -77.028412, "bike_id": "746914c4b8f1463f88de2830f88b229e", "lat": 38.9296295, "fusion_lon": 0.0, "fusion_lat": 0.0, "type": "electric_scooter", "name": "746914c4b8f1463f88de2830f88b229e", "is_disabled": 0, "rental_uris": {"ios": "https://dc.lft.to/lastmile_qr_scan", "android": "https://dc.lft.to/lastmile_qr_scan"}, "is_reserved": 0}, {"lon": -77.10359266666667, "bike_id": "1d4683263b31f6189a5ac9ca52cb4341", "lat": 38.885571666666664, "fusion_lon": 0.0, "fusion_lat": 0.0, "type": "electric_bike", "name": "1d4683263b31f6189a5ac9ca52cb4341", "is_disabled": 0, "rental_uris": {"ios": "https://dc.lft.to/lastmile_qr_scan", "android": "https://dc.lft.to/lastmile_qr_scan"}, "is_reserved": 0}, {"lon": -77.0020505, "bike_id": "8fd0d223be4acf653f332c2f1e1df374", "lat": 38.900324166666664, "fusion_lon": 0.0, "fusion_lat": 0.0, "type": "electric_scooter", "name": "8fd0d223be4acf653f332c2f1e1df374", "is_disabled": 0, "rental_uris": {"ios": "https://dc.lft.to/lastmile_qr_scan", "android": "https://dc.lft.to/lastmile_qr_scan"}, "is_reserved": 0}, {"lon": -77.03983933333333, "bike_id": "5e911003674ba880ed33e8fa685d2719", "lat": 38.91619266666667, "fusion_lon": 0.0, "fusion_lat": 0.0, "type": "electric_scooter", "name": "5e911003674ba880ed33e8fa685d2719", "is_disabled": 0, "rental_uris": {"ios": "https://dc.lft.to/lastmile_qr_scan", "android": "https://dc.lft.to/lastmile_qr_scan"}, "is_reserved": 0}, {"lon": -77.010541, "bike_id": "fd83257d092d085d22ef234f5a50bda2", "lat": 38.963452333333336, "fusion_lon": 0.0, "fusion_lat": 0.0, "type": "electric_scooter", "name": "fd83257d092d085d22ef234f5a50bda2", "is_disabled": 0, "rental_uris": {"ios": "https://dc.lft.to/lastmile_qr_scan", "android": "https://dc.lft.to/lastmile_qr_scan"}, "is_reserved": 0}, {"lon": -77.00977716666667, "bike_id": "1a121e0bec9f7375d7daff8965dec3af", "lat": 38.903644, "fusion_lon": 0.0, "fusion_lat": 0.0, "type": "electric_scooter", "name": "1a121e0bec9f7375d7daff8965dec3af", "is_disabled": 0, "rental_uris": {"ios": "https://dc.lft.to/lastmile_qr_scan", "android": "https://dc.lft.to/lastmile_qr_scan"}, "is_reserved": 0}, {"lon": -77.06985016666667, "bike_id": "c79cc962771a5af93b92f72bfbfc908a", "lat": 38.9183945, "fusion_lon": 0.0, "fusion_lat": 0.0, "type": "electric_bike", "name": "c79cc962771a5af93b92f72bfbfc908a", "is_disabled": 0, "rental_uris": {"ios": "https://dc.lft.to/lastmile_qr_scan", "android": "https://dc.lft.to/lastmile_qr_scan"}, "is_reserved": 0}, {"lon": -77.04246816666667, "bike_id": "bab6aee319f9ece60e02356a72505faf", "lat": 38.924272, "fusion_lon": 0.0, "fusion_lat": 0.0, "type": "electric_scooter", "name": "bab6aee319f9ece60e02356a72505faf", "is_disabled": 0, "rental_uris": {"ios": "https://dc.lft.to/lastmile_qr_scan", "android": "https://dc.lft.to/lastmile_qr_scan"}, "is_reserved": 0}, {"lon": -77.018398, "bike_id": "136ecb2947f4990e4f7064380a6ebada", "lat": 38.9095815, "fusion_lon": 0.0, "fusion_lat": 0.0, "type": "electric_scooter", "name": "136ecb2947f4990e4f7064380a6ebada", "is_disabled": 0, "rental_uris": {"ios": "https://dc.lft.to/lastmile_qr_scan", "android": "https://dc.lft.to/lastmile_qr_scan"}, "is_reserved": 0}, {"lon": -77.03405166666667, "bike_id": "5c750c4cf7904cdbd47bb7e40fec8746", "lat": 38.92742116666667, "fusion_lon": 0.0, "fusion_lat": 0.0, "type": "electric_scooter", "name": "5c750c4cf7904cdbd47bb7e40fec8746", "is_disabled": 0, "rental_uris": {"ios": "https://dc.lft.to/lastmile_qr_scan", "android": "https://dc.lft.to/lastmile_qr_scan"}, "is_reserved": 0}, {"lon": -77.00591233333333, "bike_id": "855509c66d2a6d1398326e074077dc06", "lat": 38.9057575, "fusion_lon": 0.0, "fusion_lat": 0.0, "type": "electric_scooter", "name": "855509c66d2a6d1398326e074077dc06", "is_disabled": 0, "rental_uris": {"ios": "https://dc.lft.to/lastmile_qr_scan", "android": "https://dc.lft.to/lastmile_qr_scan"}, "is_reserved": 0}, {"lon": -76.99069483333334, "bike_id": "19c9e7b4e766ee48c984a4457886c597", "lat": 38.89816533333333, "fusion_lon": 0.0, "fusion_lat": 0.0, "type": "electric_bike", "name": "19c9e7b4e766ee48c984a4457886c597", "is_disabled": 0, "rental_uris": {"ios": "https://dc.lft.to/lastmile_qr_scan", "android": "https://dc.lft.to/lastmile_qr_scan"}, "is_reserved": 0}, {"lon": -77.034485, "bike_id": "a92ab0b50ded634400998c6bd8288416", "lat": 38.907257, "fusion_lon": 0.0, "fusion_lat": 0.0, "type": "electric_scooter", "name": "a92ab0b50ded634400998c6bd8288416", "is_disabled": 0, "rental_uris": {"ios": "https://dc.lft.to/lastmile_qr_scan", "android": "https://dc.lft.to/lastmile_qr_scan"}, "is_reserved": 0}, {"lon": -77.018385, "bike_id": "d770a9c565267886c84a6ac511bcded4", "lat": 38.9093375, "fusion_lon": 0.0, "fusion_lat": 0.0, "type": "electric_scooter", "name": "d770a9c565267886c84a6ac511bcded4", "is_disabled": 0, "rental_uris": {"ios": "https://dc.lft.to/lastmile_qr_scan", "android": "https://dc.lft.to/lastmile_qr_scan"}, "is_reserved": 0}, {"lon": -77.01692916666667, "bike_id": "aae45827c668816ff57899ffcd2934ac", "lat": 38.90449866666667, "fusion_lon": 0.0, "fusion_lat": 0.0, "type": "electric_scooter", "name": "aae45827c668816ff57899ffcd2934ac", "is_disabled": 0, "rental_uris": {"ios": "https://dc.lft.to/lastmile_qr_scan", "android": "https://dc.lft.to/lastmile_qr_scan"}, "is_reserved": 0}, {"lon": -77.03208866666667, "bike_id": "9d49836d84769bd8c538a71d720a2722", "lat": 38.9136685, "fusion_lon": 0.0, "fusion_lat": 0.0, "type": "electric_scooter", "name": "9d49836d84769bd8c538a71d720a2722", "is_disabled": 0, "rental_uris": {"ios": "https://dc.lft.to/lastmile_qr_scan", "android": "https://dc.lft.to/lastmile_qr_scan"}, "is_reserved": 0}, {"lon": -77.01415766666666, "bike_id": "27b4be4266e13d683dfc25409d1857d8", "lat": 38.92809, "fusion_lon": 0.0, "fusion_lat": 0.0, "type": "electric_scooter", "name": "27b4be4266e13d683dfc25409d1857d8", "is_disabled": 0, "rental_uris": {"ios": "https://dc.lft.to/lastmile_qr_scan", "android": "https://dc.lft.to/lastmile_qr_scan"}, "is_reserved": 0}, {"lon": -77.03261733333333, "bike_id": "50d57f4801b1fb94c387966991733e88", "lat": 38.931026333333335, "fusion_lon": 0.0, "fusion_lat": 0.0, "type": "electric_scooter", "name": "50d57f4801b1fb94c387966991733e88", "is_disabled": 0, "rental_uris": {"ios": "https://dc.lft.to/lastmile_qr_scan", "android": "https://dc.lft.to/lastmile_qr_scan"}, "is_reserved": 0}, {"lon": -77.0326155, "bike_id": "191efb7cf456e6e62be172810ac87d8a", "lat": 38.9320995, "fusion_lon": 0.0, "fusion_lat": 0.0, "type": "electric_scooter", "name": "191efb7cf456e6e62be172810ac87d8a", "is_disabled": 0, "rental_uris": {"ios": "https://dc.lft.to/lastmile_qr_scan", "android": "https://dc.lft.to/lastmile_qr_scan"}, "is_reserved": 0}, {"lon": -77.0259065, "bike_id": "32cceee06757dfe045fed6466217317e", "lat": 38.94202666666666, "fusion_lon": 0.0, "fusion_lat": 0.0, "type": "electric_scooter", "name": "32cceee06757dfe045fed6466217317e", "is_disabled": 0, "rental_uris": {"ios": "https://dc.lft.to/lastmile_qr_scan", "android": "https://dc.lft.to/lastmile_qr_scan"}, "is_reserved": 0}, {"lon": -76.933026, "bike_id": "ead11ff4331cc1b5cc9b485e85660fa0", "lat": 38.90092816666667, "fusion_lon": 0.0, "fusion_lat": 0.0, "type": "electric_scooter", "name": "ead11ff4331cc1b5cc9b485e85660fa0", "is_disabled": 0, "rental_uris": {"ios": "https://dc.lft.to/lastmile_qr_scan", "android": "https://dc.lft.to/lastmile_qr_scan"}, "is_reserved": 0}, {"lon": -76.993853, "bike_id": "c3db44bb1682749c5c7871adc6583506", "lat": 38.892080166666666, "fusion_lon": 0.0, "fusion_lat": 0.0, "type": "electric_scooter", "name": "c3db44bb1682749c5c7871adc6583506", "is_disabled": 0, "rental_uris": {"ios": "https://dc.lft.to/lastmile_qr_scan", "android": "https://dc.lft.to/lastmile_qr_scan"}, "is_reserved": 0}, {"lon": -77.03263216666667, "bike_id": "07fe817a33f9cc9f46b18eb05fe4eadf", "lat": 38.901333666666666, "fusion_lon": 0.0, "fusion_lat": 0.0, "type": "electric_scooter", "name": "07fe817a33f9cc9f46b18eb05fe4eadf", "is_disabled": 0, "rental_uris": {"ios": "https://dc.lft.to/lastmile_qr_scan", "android": "https://dc.lft.to/lastmile_qr_scan"}, "is_reserved": 0}, {"lon": -76.9739905, "bike_id": "fe3aa4ceed9d9edc59d199d4ce86327e", "lat": 38.90297983333333, "fusion_lon": 0.0, "fusion_lat": 0.0, "type": "electric_scooter", "name": "fe3aa4ceed9d9edc59d199d4ce86327e", "is_disabled": 0, "rental_uris": {"ios": "https://dc.lft.to/lastmile_qr_scan", "android": "https://dc.lft.to/lastmile_qr_scan"}, "is_reserved": 0}, {"lon": -77.02209833333333, "bike_id": "53b153ea3afd801b55e49e39889ae61b", "lat": 38.91268816666667, "fusion_lon": 0.0, "fusion_lat": 0.0, "type": "electric_scooter", "name": "53b153ea3afd801b55e49e39889ae61b", "is_disabled": 0, "rental_uris": {"ios": "https://dc.lft.to/lastmile_qr_scan", "android": "https://dc.lft.to/lastmile_qr_scan"}, "is_reserved": 0}, {"lon": -77.04716, "bike_id": "29e23f9e9789fb1de5a49e3346dc5292", "lat": 38.90310266666667, "fusion_lon": 0.0, "fusion_lat": 0.0, "type": "electric_scooter", "name": "29e23f9e9789fb1de5a49e3346dc5292", "is_disabled": 0, "rental_uris": {"ios": "https://dc.lft.to/lastmile_qr_scan", "android": "https://dc.lft.to/lastmile_qr_scan"}, "is_reserved": 0}, {"lon": -77.03412533333334, "bike_id": "430173dc47a3a298774ae190671be8ef", "lat": 38.93424183333333, "fusion_lon": 0.0, "fusion_lat": 0.0, "type": "electric_scooter", "name": "430173dc47a3a298774ae190671be8ef", "is_disabled": 0, "rental_uris": {"ios": "https://dc.lft.to/lastmile_qr_scan", "android": "https://dc.lft.to/lastmile_qr_scan"}, "is_reserved": 0}, {"lon": -77.02185116666666, "bike_id": "3724677aa19f244130388df51d5e0c1a", "lat": 38.91537183333333, "fusion_lon": 0.0, "fusion_lat": 0.0, "type": "electric_scooter", "name": "3724677aa19f244130388df51d5e0c1a", "is_disabled": 0, "rental_uris": {"ios": "https://dc.lft.to/lastmile_qr_scan", "android": "https://dc.lft.to/lastmile_qr_scan"}, "is_reserved": 0}, {"lon": -76.94596016666667, "bike_id": "c33b3435e0d1bd9aee53b9ab40d7b07d", "lat": 38.90153133333333, "fusion_lon": 0.0, "fusion_lat": 0.0, "type": "electric_scooter", "name": "c33b3435e0d1bd9aee53b9ab40d7b07d", "is_disabled": 0, "rental_uris": {"ios": "https://dc.lft.to/lastmile_qr_scan", "android": "https://dc.lft.to/lastmile_qr_scan"}, "is_reserved": 0}, {"lon": -77.02834866666667, "bike_id": "ec3a7734b8daac19f4a140088d461306", "lat": 38.8873065, "fusion_lon": 0.0, "fusion_lat": 0.0, "type": "electric_scooter", "name": "ec3a7734b8daac19f4a140088d461306", "is_disabled": 0, "rental_uris": {"ios": "https://dc.lft.to/lastmile_qr_scan", "android": "https://dc.lft.to/lastmile_qr_scan"}, "is_reserved": 0}, {"lon": -77.02169616666667, "bike_id": "85dafeab4646bcd6ccf2f3136af38583", "lat": 38.8948965, "fusion_lon": 0.0, "fusion_lat": 0.0, "type": "electric_scooter", "name": "85dafeab4646bcd6ccf2f3136af38583", "is_disabled": 0, "rental_uris": {"ios": "https://dc.lft.to/lastmile_qr_scan", "android": "https://dc.lft.to/lastmile_qr_scan"}, "is_reserved": 0}, {"lon": -77.02663116666666, "bike_id": "84271f9f45a6652700b38ecb916e7f9f", "lat": 38.916898, "fusion_lon": 0.0, "fusion_lat": 0.0, "type": "electric_scooter", "name": "84271f9f45a6652700b38ecb916e7f9f", "is_disabled": 0, "rental_uris": {"ios": "https://dc.lft.to/lastmile_qr_scan", "android": "https://dc.lft.to/lastmile_qr_scan"}, "is_reserved": 0}, {"lon": -77.0321075, "bike_id": "06970f284cd03bed26f6fd392d40e160", "lat": 38.92870083333333, "fusion_lon": 0.0, "fusion_lat": 0.0, "type": "electric_scooter", "name": "06970f284cd03bed26f6fd392d40e160", "is_disabled": 0, "rental_uris": {"ios": "https://dc.lft.to/lastmile_qr_scan", "android": "https://dc.lft.to/lastmile_qr_scan"}, "is_reserved": 0}, {"lon": -77.02965966666666, "bike_id": "c236296393cdb72fd17e8dcdb52113d6", "lat": 38.922928, "fusion_lon": 0.0, "fusion_lat": 0.0, "type": "electric_scooter", "name": "c236296393cdb72fd17e8dcdb52113d6", "is_disabled": 0, "rental_uris": {"ios": "https://dc.lft.to/lastmile_qr_scan", "android": "https://dc.lft.to/lastmile_qr_scan"}, "is_reserved": 0}, {"lon": -77.0106635, "bike_id": "e6ab5f71c5ae267c8a29b4be222ee961", "lat": 38.907168, "fusion_lon": 0.0, "fusion_lat": 0.0, "type": "electric_bike", "name": "e6ab5f71c5ae267c8a29b4be222ee961", "is_disabled": 0, "rental_uris": {"ios": "https://dc.lft.to/lastmile_qr_scan", "android": "https://dc.lft.to/lastmile_qr_scan"}, "is_reserved": 0}, {"lon": -77.02592083333333, "bike_id": "77c7618aa763a934769c84a514a2f13c", "lat": 38.906616166666666, "fusion_lon": 0.0, "fusion_lat": 0.0, "type": "electric_scooter", "name": "77c7618aa763a934769c84a514a2f13c", "is_disabled": 0, "rental_uris": {"ios": "https://dc.lft.to/lastmile_qr_scan", "android": "https://dc.lft.to/lastmile_qr_scan"}, "is_reserved": 0}, {"lon": -77.03212316666666, "bike_id": "277639df4312c74cc366eae9451f412a", "lat": 38.9148085, "fusion_lon": 0.0, "fusion_lat": 0.0, "type": "electric_scooter", "name": "277639df4312c74cc366eae9451f412a", "is_disabled": 0, "rental_uris": {"ios": "https://dc.lft.to/lastmile_qr_scan", "android": "https://dc.lft.to/lastmile_qr_scan"}, "is_reserved": 0}, {"lon": -77.02583116666666, "bike_id": "39f601c65a9e4df8adefd0c3dc94217c", "lat": 38.887331, "fusion_lon": 0.0, "fusion_lat": 0.0, "type": "electric_scooter", "name": "39f601c65a9e4df8adefd0c3dc94217c", "is_disabled": 0, "rental_uris": {"ios": "https://dc.lft.to/lastmile_qr_scan", "android": "https://dc.lft.to/lastmile_qr_scan"}, "is_reserved": 0}, {"lon": -77.00892383333333, "bike_id": "8daf10551cd8213ad9897ba7b0b8e4b1", "lat": 38.96119266666667, "fusion_lon": 0.0, "fusion_lat": 0.0, "type": "electric_scooter", "name": "8daf10551cd8213ad9897ba7b0b8e4b1", "is_disabled": 0, "rental_uris": {"ios": "https://dc.lft.to/lastmile_qr_scan", "android": "https://dc.lft.to/lastmile_qr_scan"}, "is_reserved": 0}, {"lon": -76.98914466666666, "bike_id": "63e192c39bdeefc1378ab63c686b57db", "lat": 38.864889833333336, "fusion_lon": 0.0, "fusion_lat": 0.0, "type": "electric_scooter", "name": "63e192c39bdeefc1378ab63c686b57db", "is_disabled": 0, "rental_uris": {"ios": "https://dc.lft.to/lastmile_qr_scan", "android": "https://dc.lft.to/lastmile_qr_scan"}, "is_reserved": 0}, {"lon": -77.03245416666667, "bike_id": "572cf67d3ee99f7c9ae07d5fa69c4914", "lat": 38.919888666666665, "fusion_lon": 0.0, "fusion_lat": 0.0, "type": "electric_scooter", "name": "572cf67d3ee99f7c9ae07d5fa69c4914", "is_disabled": 0, "rental_uris": {"ios": "https://dc.lft.to/lastmile_qr_scan", "android": "https://dc.lft.to/lastmile_qr_scan"}, "is_reserved": 0}, {"lon": -76.98556783333333, "bike_id": "3666412348a065417a569000d36493a8", "lat": 38.899537333333335, "fusion_lon": 0.0, "fusion_lat": 0.0, "type": "electric_scooter", "name": "3666412348a065417a569000d36493a8", "is_disabled": 0, "rental_uris": {"ios": "https://dc.lft.to/lastmile_qr_scan", "android": "https://dc.lft.to/lastmile_qr_scan"}, "is_reserved": 0}, {"lon": -77.0230205, "bike_id": "5566819d13dbb87b8e69f62ffca8ba1f", "lat": 38.9128625, "fusion_lon": 0.0, "fusion_lat": 0.0, "type": "electric_scooter", "name": "5566819d13dbb87b8e69f62ffca8ba1f", "is_disabled": 0, "rental_uris": {"ios": "https://dc.lft.to/lastmile_qr_scan", "android": "https://dc.lft.to/lastmile_qr_scan"}, "is_reserved": 0}, {"lon": -77.02709216666666, "bike_id": "9211fd58526bb77bfeb552977fa356bb", "lat": 38.934702333333334, "fusion_lon": 0.0, "fusion_lat": 0.0, "type": "electric_scooter", "name": "9211fd58526bb77bfeb552977fa356bb", "is_disabled": 0, "rental_uris": {"ios": "https://dc.lft.to/lastmile_qr_scan", "android": "https://dc.lft.to/lastmile_qr_scan"}, "is_reserved": 0}, {"lon": -77.04826116666666, "bike_id": "77371918af658602821662f86aa04862", "lat": 38.9095655, "fusion_lon": 0.0, "fusion_lat": 0.0, "type": "electric_scooter", "name": "77371918af658602821662f86aa04862", "is_disabled": 0, "rental_uris": {"ios": "https://dc.lft.to/lastmile_qr_scan", "android": "https://dc.lft.to/lastmile_qr_scan"}, "is_reserved": 0}, {"lon": -77.10646583333333, "bike_id": "3a74bfe57bb2ee4b6a917e2204f19d7e", "lat": 38.936105166666664, "fusion_lon": 0.0, "fusion_lat": 0.0, "type": "electric_bike", "name": "3a74bfe57bb2ee4b6a917e2204f19d7e", "is_disabled": 0, "rental_uris": {"ios": "https://dc.lft.to/lastmile_qr_scan", "android": "https://dc.lft.to/lastmile_qr_scan"}, "is_reserved": 0}, {"lon": -77.02976433333333, "bike_id": "bde8ac4ee20656fec630c2cec70a73ac", "lat": 38.93061566666667, "fusion_lon": 0.0, "fusion_lat": 0.0, "type": "electric_scooter", "name": "bde8ac4ee20656fec630c2cec70a73ac", "is_disabled": 0, "rental_uris": {"ios": "https://dc.lft.to/lastmile_qr_scan", "android": "https://dc.lft.to/lastmile_qr_scan"}, "is_reserved": 0}, {"lon": -77.0056595, "bike_id": "96dd092b9f1328c943c99797cb537dd3", "lat": 38.9019995, "fusion_lon": 0.0, "fusion_lat": 0.0, "type": "electric_scooter", "name": "96dd092b9f1328c943c99797cb537dd3", "is_disabled": 0, "rental_uris": {"ios": "https://dc.lft.to/lastmile_qr_scan", "android": "https://dc.lft.to/lastmile_qr_scan"}, "is_reserved": 0}, {"lon": -77.03298416666667, "bike_id": "4f8f85313b1ec677d7145fe162367670", "lat": 38.89800566666667, "fusion_lon": 0.0, "fusion_lat": 0.0, "type": "electric_scooter", "name": "4f8f85313b1ec677d7145fe162367670", "is_disabled": 0, "rental_uris": {"ios": "https://dc.lft.to/lastmile_qr_scan", "android": "https://dc.lft.to/lastmile_qr_scan"}, "is_reserved": 0}, {"lon": -77.07593466666667, "bike_id": "98c8f930957737eb91d6008a5e0d061e", "lat": 38.912162333333335, "fusion_lon": 0.0, "fusion_lat": 0.0, "type": "electric_scooter", "name": "98c8f930957737eb91d6008a5e0d061e", "is_disabled": 0, "rental_uris": {"ios": "https://dc.lft.to/lastmile_qr_scan", "android": "https://dc.lft.to/lastmile_qr_scan"}, "is_reserved": 0}, {"lon": -77.0390765, "bike_id": "179b4fcdef50cb7b48eaf29c7207b466", "lat": 38.914212, "fusion_lon": 0.0, "fusion_lat": 0.0, "type": "electric_scooter", "name": "179b4fcdef50cb7b48eaf29c7207b466", "is_disabled": 0, "rental_uris": {"ios": "https://dc.lft.to/lastmile_qr_scan", "android": "https://dc.lft.to/lastmile_qr_scan"}, "is_reserved": 0}, {"lon": -77.01977966666666, "bike_id": "3b6c4397469ef5d431022ff3b6d952c3", "lat": 38.90121, "fusion_lon": 0.0, "fusion_lat": 0.0, "type": "electric_scooter", "name": "3b6c4397469ef5d431022ff3b6d952c3", "is_disabled": 0, "rental_uris": {"ios": "https://dc.lft.to/lastmile_qr_scan", "android": "https://dc.lft.to/lastmile_qr_scan"}, "is_reserved": 0}, {"lon": -77.12489266666667, "bike_id": "4ff14c36084e2b37c5c6a2bdfa81fc0b", "lat": 38.8277775, "fusion_lon": 0.0, "fusion_lat": 0.0, "type": "electric_bike", "name": "4ff14c36084e2b37c5c6a2bdfa81fc0b", "is_disabled": 0, "rental_uris": {"ios": "https://dc.lft.to/lastmile_qr_scan", "android": "https://dc.lft.to/lastmile_qr_scan"}, "is_reserved": 0}, {"lon": -77.002838, "bike_id": "fe18f3ad97070eec0f978f81b883f8bd", "lat": 38.957097166666664, "fusion_lon": 0.0, "fusion_lat": 0.0, "type": "electric_bike", "name": "fe18f3ad97070eec0f978f81b883f8bd", "is_disabled": 0, "rental_uris": {"ios": "https://dc.lft.to/lastmile_qr_scan", "android": "https://dc.lft.to/lastmile_qr_scan"}, "is_reserved": 0}, {"lon": -77.04364566666666, "bike_id": "bee118e0030629dca24493adc3290e6b", "lat": 38.92143, "fusion_lon": 0.0, "fusion_lat": 0.0, "type": "electric_scooter", "name": "bee118e0030629dca24493adc3290e6b", "is_disabled": 0, "rental_uris": {"ios": "https://dc.lft.to/lastmile_qr_scan", "android": "https://dc.lft.to/lastmile_qr_scan"}, "is_reserved": 0}, {"lon": -76.99855083333334, "bike_id": "6326d9fcfbb0f11a57e4d37f4dee1efe", "lat": 38.8415555, "fusion_lon": 0.0, "fusion_lat": 0.0, "type": "electric_scooter", "name": "6326d9fcfbb0f11a57e4d37f4dee1efe", "is_disabled": 0, "rental_uris": {"ios": "https://dc.lft.to/lastmile_qr_scan", "android": "https://dc.lft.to/lastmile_qr_scan"}, "is_reserved": 0}, {"lon": -77.03204, "bike_id": "ccf0ea546038365f57c80bc884c2804c", "lat": 38.9037205, "fusion_lon": 0.0, "fusion_lat": 0.0, "type": "electric_scooter", "name": "ccf0ea546038365f57c80bc884c2804c", "is_disabled": 0, "rental_uris": {"ios": "https://dc.lft.to/lastmile_qr_scan", "android": "https://dc.lft.to/lastmile_qr_scan"}, "is_reserved": 0}, {"lon": -77.03246, "bike_id": "96e2606aac853c467f4d28c3038c8649", "lat": 38.930022666666666, "fusion_lon": 0.0, "fusion_lat": 0.0, "type": "electric_scooter", "name": "96e2606aac853c467f4d28c3038c8649", "is_disabled": 0, "rental_uris": {"ios": "https://dc.lft.to/lastmile_qr_scan", "android": "https://dc.lft.to/lastmile_qr_scan"}, "is_reserved": 0}, {"lon": -77.04843433333333, "bike_id": "9028b5a1f849e43035d1510fd43cd891", "lat": 38.88966166666667, "fusion_lon": 0.0, "fusion_lat": 0.0, "type": "electric_scooter", "name": "9028b5a1f849e43035d1510fd43cd891", "is_disabled": 0, "rental_uris": {"ios": "https://dc.lft.to/lastmile_qr_scan", "android": "https://dc.lft.to/lastmile_qr_scan"}, "is_reserved": 0}, {"lon": -77.0311385, "bike_id": "b8504f7a601f82fbee1cc98d217d4a59", "lat": 38.89708433333333, "fusion_lon": 0.0, "fusion_lat": 0.0, "type": "electric_scooter", "name": "b8504f7a601f82fbee1cc98d217d4a59", "is_disabled": 0, "rental_uris": {"ios": "https://dc.lft.to/lastmile_qr_scan", "android": "https://dc.lft.to/lastmile_qr_scan"}, "is_reserved": 0}, {"lon": -77.0228725, "bike_id": "782061f3f804131cd40a6e6f447c5611", "lat": 38.91834883333333, "fusion_lon": 0.0, "fusion_lat": 0.0, "type": "electric_scooter", "name": "782061f3f804131cd40a6e6f447c5611", "is_disabled": 0, "rental_uris": {"ios": "https://dc.lft.to/lastmile_qr_scan", "android": "https://dc.lft.to/lastmile_qr_scan"}, "is_reserved": 0}, {"lon": -77.0332335, "bike_id": "e21b696bc3d40629c0617a3e2209a1a1", "lat": 38.926525, "fusion_lon": 0.0, "fusion_lat": 0.0, "type": "electric_scooter", "name": "e21b696bc3d40629c0617a3e2209a1a1", "is_disabled": 0, "rental_uris": {"ios": "https://dc.lft.to/lastmile_qr_scan", "android": "https://dc.lft.to/lastmile_qr_scan"}, "is_reserved": 0}, {"lon": -77.03290933333334, "bike_id": "892c9d02e9675f974c6573060f0891fb", "lat": 38.930352, "fusion_lon": 0.0, "fusion_lat": 0.0, "type": "electric_scooter", "name": "892c9d02e9675f974c6573060f0891fb", "is_disabled": 0, "rental_uris": {"ios": "https://dc.lft.to/lastmile_qr_scan", "android": "https://dc.lft.to/lastmile_qr_scan"}, "is_reserved": 0}, {"lon": -77.00061533333333, "bike_id": "ccadc49d9f82243a38d60a18561d1ed3", "lat": 38.88668166666667, "fusion_lon": 0.0, "fusion_lat": 0.0, "type": "electric_scooter", "name": "ccadc49d9f82243a38d60a18561d1ed3", "is_disabled": 0, "rental_uris": {"ios": "https://dc.lft.to/lastmile_qr_scan", "android": "https://dc.lft.to/lastmile_qr_scan"}, "is_reserved": 0}, {"lon": -76.981097, "bike_id": "b11eb3e39eb05e321b04e975053bef4d", "lat": 38.8772565, "fusion_lon": 0.0, "fusion_lat": 0.0, "type": "electric_bike", "name": "b11eb3e39eb05e321b04e975053bef4d", "is_disabled": 0, "rental_uris": {"ios": "https://dc.lft.to/lastmile_qr_scan", "android": "https://dc.lft.to/lastmile_qr_scan"}, "is_reserved": 0}, {"lon": -77.05007566666667, "bike_id": "428e3ece564e5cd24f5989366935f347", "lat": 38.8919795, "fusion_lon": 0.0, "fusion_lat": 0.0, "type": "electric_scooter", "name": "428e3ece564e5cd24f5989366935f347", "is_disabled": 0, "rental_uris": {"ios": "https://dc.lft.to/lastmile_qr_scan", "android": "https://dc.lft.to/lastmile_qr_scan"}, "is_reserved": 0}, {"lon": -77.01506283333333, "bike_id": "c4b998356078f9e8eb0925ab000bfe7e", "lat": 38.905756333333336, "fusion_lon": 0.0, "fusion_lat": 0.0, "type": "electric_scooter", "name": "c4b998356078f9e8eb0925ab000bfe7e", "is_disabled": 0, "rental_uris": {"ios": "https://dc.lft.to/lastmile_qr_scan", "android": "https://dc.lft.to/lastmile_qr_scan"}, "is_reserved": 0}, {"lon": -77.03663216666666, "bike_id": "84eefa7f11a795e526e2afe488355dd4", "lat": 38.9334035, "fusion_lon": 0.0, "fusion_lat": 0.0, "type": "electric_scooter", "name": "84eefa7f11a795e526e2afe488355dd4", "is_disabled": 0, "rental_uris": {"ios": "https://dc.lft.to/lastmile_qr_scan", "android": "https://dc.lft.to/lastmile_qr_scan"}, "is_reserved": 0}, {"lon": -77.05007783333333, "bike_id": "65f8ed8aecd5786b167089e541d86ba6", "lat": 38.89196466666667, "fusion_lon": 0.0, "fusion_lat": 0.0, "type": "electric_scooter", "name": "65f8ed8aecd5786b167089e541d86ba6", "is_disabled": 0, "rental_uris": {"ios": "https://dc.lft.to/lastmile_qr_scan", "android": "https://dc.lft.to/lastmile_qr_scan"}, "is_reserved": 0}, {"lon": -77.02088083333334, "bike_id": "29d3842f017b30e5104bdbfdd16f4364", "lat": 38.9112685, "fusion_lon": 0.0, "fusion_lat": 0.0, "type": "electric_scooter", "name": "29d3842f017b30e5104bdbfdd16f4364", "is_disabled": 0, "rental_uris": {"ios": "https://dc.lft.to/lastmile_qr_scan", "android": "https://dc.lft.to/lastmile_qr_scan"}, "is_reserved": 0}, {"lon": -77.009587, "bike_id": "eff3ae7a8dc6ce3f182af7449f02d666", "lat": 38.92135233333333, "fusion_lon": 0.0, "fusion_lat": 0.0, "type": "electric_scooter", "name": "eff3ae7a8dc6ce3f182af7449f02d666", "is_disabled": 0, "rental_uris": {"ios": "https://dc.lft.to/lastmile_qr_scan", "android": "https://dc.lft.to/lastmile_qr_scan"}, "is_reserved": 0}, {"lon": -76.9992345, "bike_id": "9e7a6cf1da06cceff8747f1b077f7256", "lat": 38.88973983333333, "fusion_lon": 0.0, "fusion_lat": 0.0, "type": "electric_scooter", "name": "9e7a6cf1da06cceff8747f1b077f7256", "is_disabled": 0, "rental_uris": {"ios": "https://dc.lft.to/lastmile_qr_scan", "android": "https://dc.lft.to/lastmile_qr_scan"}, "is_reserved": 0}, {"lon": -77.041851, "bike_id": "88d05a2bf848abf2d5d0071803d5d930", "lat": 38.91117783333333, "fusion_lon": 0.0, "fusion_lat": 0.0, "type": "electric_scooter", "name": "88d05a2bf848abf2d5d0071803d5d930", "is_disabled": 0, "rental_uris": {"ios": "https://dc.lft.to/lastmile_qr_scan", "android": "https://dc.lft.to/lastmile_qr_scan"}, "is_reserved": 0}, {"lon": -77.02291533333333, "bike_id": "023b4aa5524131583fb1b4d2d6b9ea49", "lat": 38.9166075, "fusion_lon": 0.0, "fusion_lat": 0.0, "type": "electric_scooter", "name": "023b4aa5524131583fb1b4d2d6b9ea49", "is_disabled": 0, "rental_uris": {"ios": "https://dc.lft.to/lastmile_qr_scan", "android": "https://dc.lft.to/lastmile_qr_scan"}, "is_reserved": 0}, {"lon": -77.03659366666666, "bike_id": "a44b4b695b7f8cbde3c344c799bf6cd6", "lat": 38.917107, "fusion_lon": 0.0, "fusion_lat": 0.0, "type": "electric_scooter", "name": "a44b4b695b7f8cbde3c344c799bf6cd6", "is_disabled": 0, "rental_uris": {"ios": "https://dc.lft.to/lastmile_qr_scan", "android": "https://dc.lft.to/lastmile_qr_scan"}, "is_reserved": 0}, {"lon": -77.03811983333334, "bike_id": "66e0222cf0f8152d0acb4a5d56c361e2", "lat": 38.9141535, "fusion_lon": 0.0, "fusion_lat": 0.0, "type": "electric_scooter", "name": "66e0222cf0f8152d0acb4a5d56c361e2", "is_disabled": 0, "rental_uris": {"ios": "https://dc.lft.to/lastmile_qr_scan", "android": "https://dc.lft.to/lastmile_qr_scan"}, "is_reserved": 0}, {"lon": -76.97325933333333, "bike_id": "43fdd2f3da0141c167a4bf284fcdbb7b", "lat": 38.904794833333334, "fusion_lon": 0.0, "fusion_lat": 0.0, "type": "electric_bike", "name": "43fdd2f3da0141c167a4bf284fcdbb7b", "is_disabled": 0, "rental_uris": {"ios": "https://dc.lft.to/lastmile_qr_scan", "android": "https://dc.lft.to/lastmile_qr_scan"}, "is_reserved": 0}, {"lon": -77.04423516666667, "bike_id": "d8a69ef43d3377f15f19c9a5bcefa054", "lat": 38.911278333333335, "fusion_lon": 0.0, "fusion_lat": 0.0, "type": "electric_scooter", "name": "d8a69ef43d3377f15f19c9a5bcefa054", "is_disabled": 0, "rental_uris": {"ios": "https://dc.lft.to/lastmile_qr_scan", "android": "https://dc.lft.to/lastmile_qr_scan"}, "is_reserved": 0}, {"lon": -77.02821883333333, "bike_id": "af8b9a24e83a2c140116a3adb950855f", "lat": 38.931717166666665, "fusion_lon": 0.0, "fusion_lat": 0.0, "type": "electric_scooter", "name": "af8b9a24e83a2c140116a3adb950855f", "is_disabled": 0, "rental_uris": {"ios": "https://dc.lft.to/lastmile_qr_scan", "android": "https://dc.lft.to/lastmile_qr_scan"}, "is_reserved": 0}, {"lon": -77.04472, "bike_id": "eb9d119353384a33e0c602d1d2699354", "lat": 38.9054055, "fusion_lon": 0.0, "fusion_lat": 0.0, "type": "electric_scooter", "name": "eb9d119353384a33e0c602d1d2699354", "is_disabled": 0, "rental_uris": {"ios": "https://dc.lft.to/lastmile_qr_scan", "android": "https://dc.lft.to/lastmile_qr_scan"}, "is_reserved": 0}, {"lon": -76.91600733333334, "bike_id": "3e63c9a147b0289f3cc7cf9f60de23af", "lat": 38.879818, "fusion_lon": 0.0, "fusion_lat": 0.0, "type": "electric_bike", "name": "3e63c9a147b0289f3cc7cf9f60de23af", "is_disabled": 0, "rental_uris": {"ios": "https://dc.lft.to/lastmile_qr_scan", "android": "https://dc.lft.to/lastmile_qr_scan"}, "is_reserved": 0}, {"lon": -77.02226766666666, "bike_id": "529dcb57f0e171600b6a635af9f7dcd6", "lat": 38.8932555, "fusion_lon": 0.0, "fusion_lat": 0.0, "type": "electric_scooter", "name": "529dcb57f0e171600b6a635af9f7dcd6", "is_disabled": 0, "rental_uris": {"ios": "https://dc.lft.to/lastmile_qr_scan", "android": "https://dc.lft.to/lastmile_qr_scan"}, "is_reserved": 0}, {"lon": -77.03286216666666, "bike_id": "a53bd31c2eabf7fd87fd603ce48c9b84", "lat": 38.93488516666667, "fusion_lon": 0.0, "fusion_lat": 0.0, "type": "electric_scooter", "name": "a53bd31c2eabf7fd87fd603ce48c9b84", "is_disabled": 0, "rental_uris": {"ios": "https://dc.lft.to/lastmile_qr_scan", "android": "https://dc.lft.to/lastmile_qr_scan"}, "is_reserved": 0}, {"lon": -77.0230745, "bike_id": "e3c36bc892bd92a36a9ba3fe1f0e5e5d", "lat": 38.9328375, "fusion_lon": 0.0, "fusion_lat": 0.0, "type": "electric_scooter", "name": "e3c36bc892bd92a36a9ba3fe1f0e5e5d", "is_disabled": 0, "rental_uris": {"ios": "https://dc.lft.to/lastmile_qr_scan", "android": "https://dc.lft.to/lastmile_qr_scan"}, "is_reserved": 0}, {"lon": -76.93027316666667, "bike_id": "ac806a8fa759a84380ffdf0dd1c1f0f9", "lat": 38.900123666666666, "fusion_lon": 0.0, "fusion_lat": 0.0, "type": "electric_scooter", "name": "ac806a8fa759a84380ffdf0dd1c1f0f9", "is_disabled": 0, "rental_uris": {"ios": "https://dc.lft.to/lastmile_qr_scan", "android": "https://dc.lft.to/lastmile_qr_scan"}, "is_reserved": 0}, {"lon": -77.02599783333334, "bike_id": "d8c0c127b065947307cc8786d6dbf9b8", "lat": 38.903672, "fusion_lon": 0.0, "fusion_lat": 0.0, "type": "electric_scooter", "name": "d8c0c127b065947307cc8786d6dbf9b8", "is_disabled": 0, "rental_uris": {"ios": "https://dc.lft.to/lastmile_qr_scan", "android": "https://dc.lft.to/lastmile_qr_scan"}, "is_reserved": 0}, {"lon": -77.02776933333334, "bike_id": "6f2d960ee25150a0e074b6b9043e09c6", "lat": 38.892169833333334, "fusion_lon": 0.0, "fusion_lat": 0.0, "type": "electric_scooter", "name": "6f2d960ee25150a0e074b6b9043e09c6", "is_disabled": 0, "rental_uris": {"ios": "https://dc.lft.to/lastmile_qr_scan", "android": "https://dc.lft.to/lastmile_qr_scan"}, "is_reserved": 0}, {"lon": -77.05314816666667, "bike_id": "f6ed7dbaa36c608fbc0d59024eddaade", "lat": 38.941026, "fusion_lon": 0.0, "fusion_lat": 0.0, "type": "electric_bike", "name": "f6ed7dbaa36c608fbc0d59024eddaade", "is_disabled": 0, "rental_uris": {"ios": "https://dc.lft.to/lastmile_qr_scan", "android": "https://dc.lft.to/lastmile_qr_scan"}, "is_reserved": 0}, {"lon": -77.03178333333334, "bike_id": "cd494f8d7b8fd6b71756c77aca0204c9", "lat": 38.88734616666667, "fusion_lon": 0.0, "fusion_lat": 0.0, "type": "electric_scooter", "name": "cd494f8d7b8fd6b71756c77aca0204c9", "is_disabled": 0, "rental_uris": {"ios": "https://dc.lft.to/lastmile_qr_scan", "android": "https://dc.lft.to/lastmile_qr_scan"}, "is_reserved": 0}, {"lon": -77.03123766666667, "bike_id": "ab9ddcf7a3c51fcf0fdd0a265892f135", "lat": 38.98827416666666, "fusion_lon": 0.0, "fusion_lat": 0.0, "type": "electric_scooter", "name": "ab9ddcf7a3c51fcf0fdd0a265892f135", "is_disabled": 0, "rental_uris": {"ios": "https://dc.lft.to/lastmile_qr_scan", "android": "https://dc.lft.to/lastmile_qr_scan"}, "is_reserved": 0}, {"lon": -76.96386016666666, "bike_id": "b4db4d4a6616ef6f1642c87de74a2362", "lat": 38.95178333333333, "fusion_lon": 0.0, "fusion_lat": 0.0, "type": "electric_bike", "name": "b4db4d4a6616ef6f1642c87de74a2362", "is_disabled": 0, "rental_uris": {"ios": "https://dc.lft.to/lastmile_qr_scan", "android": "https://dc.lft.to/lastmile_qr_scan"}, "is_reserved": 0}, {"lon": -77.02798933333334, "bike_id": "a81ed3809e95b8f7dd0a6b718109db74", "lat": 38.95397833333333, "fusion_lon": 0.0, "fusion_lat": 0.0, "type": "electric_scooter", "name": "a81ed3809e95b8f7dd0a6b718109db74", "is_disabled": 0, "rental_uris": {"ios": "https://dc.lft.to/lastmile_qr_scan", "android": "https://dc.lft.to/lastmile_qr_scan"}, "is_reserved": 0}, {"lon": -77.031991, "bike_id": "02ae7569bebc7d69f9747d36c4c00938", "lat": 38.910001333333334, "fusion_lon": 0.0, "fusion_lat": 0.0, "type": "electric_scooter", "name": "02ae7569bebc7d69f9747d36c4c00938", "is_disabled": 0, "rental_uris": {"ios": "https://dc.lft.to/lastmile_qr_scan", "android": "https://dc.lft.to/lastmile_qr_scan"}, "is_reserved": 0}, {"lon": -77.031608, "bike_id": "dbd0fdbfae9da8dd9c018bc3ea842d18", "lat": 38.9236995, "fusion_lon": 0.0, "fusion_lat": 0.0, "type": "electric_scooter", "name": "dbd0fdbfae9da8dd9c018bc3ea842d18", "is_disabled": 0, "rental_uris": {"ios": "https://dc.lft.to/lastmile_qr_scan", "android": "https://dc.lft.to/lastmile_qr_scan"}, "is_reserved": 0}, {"lon": -77.22799166666667, "bike_id": "bca752b0f065ea4272cc2c8554111a1a", "lat": 38.91013366666667, "fusion_lon": 0.0, "fusion_lat": 0.0, "type": "electric_bike", "name": "bca752b0f065ea4272cc2c8554111a1a", "is_disabled": 0, "rental_uris": {"ios": "https://dc.lft.to/lastmile_qr_scan", "android": "https://dc.lft.to/lastmile_qr_scan"}, "is_reserved": 0}, {"lon": -77.02087833333333, "bike_id": "8e5a0b6826257376a7f50c36550cafe8", "lat": 38.929124333333334, "fusion_lon": 0.0, "fusion_lat": 0.0, "type": "electric_scooter", "name": "8e5a0b6826257376a7f50c36550cafe8", "is_disabled": 0, "rental_uris": {"ios": "https://dc.lft.to/lastmile_qr_scan", "android": "https://dc.lft.to/lastmile_qr_scan"}, "is_reserved": 0}, {"lon": -77.00431033333334, "bike_id": "6b0143d2f87d5f055b7980e1b1892ace", "lat": 38.9119525, "fusion_lon": 0.0, "fusion_lat": 0.0, "type": "electric_scooter", "name": "6b0143d2f87d5f055b7980e1b1892ace", "is_disabled": 0, "rental_uris": {"ios": "https://dc.lft.to/lastmile_qr_scan", "android": "https://dc.lft.to/lastmile_qr_scan"}, "is_reserved": 0}, {"lon": -77.00744683333333, "bike_id": "cae248b50b07457829de4bb04507b29d", "lat": 38.92528083333333, "fusion_lon": 0.0, "fusion_lat": 0.0, "type": "electric_scooter", "name": "cae248b50b07457829de4bb04507b29d", "is_disabled": 0, "rental_uris": {"ios": "https://dc.lft.to/lastmile_qr_scan", "android": "https://dc.lft.to/lastmile_qr_scan"}, "is_reserved": 0}, {"lon": -77.04141833333334, "bike_id": "1a20a7f0e54bfb12c290a161edada0cc", "lat": 38.922937166666664, "fusion_lon": 0.0, "fusion_lat": 0.0, "type": "electric_scooter", "name": "1a20a7f0e54bfb12c290a161edada0cc", "is_disabled": 0, "rental_uris": {"ios": "https://dc.lft.to/lastmile_qr_scan", "android": "https://dc.lft.to/lastmile_qr_scan"}, "is_reserved": 0}, {"lon": -77.02707183333334, "bike_id": "d7aa33765bb4f938c8e0481c4f2ade8f", "lat": 38.90662616666667, "fusion_lon": 0.0, "fusion_lat": 0.0, "type": "electric_scooter", "name": "d7aa33765bb4f938c8e0481c4f2ade8f", "is_disabled": 0, "rental_uris": {"ios": "https://dc.lft.to/lastmile_qr_scan", "android": "https://dc.lft.to/lastmile_qr_scan"}, "is_reserved": 0}, {"lon": -77.02796083333334, "bike_id": "2e0d3fb2706dd038eb6d711ce56c7f27", "lat": 38.9121605, "fusion_lon": 0.0, "fusion_lat": 0.0, "type": "electric_scooter", "name": "2e0d3fb2706dd038eb6d711ce56c7f27", "is_disabled": 0, "rental_uris": {"ios": "https://dc.lft.to/lastmile_qr_scan", "android": "https://dc.lft.to/lastmile_qr_scan"}, "is_reserved": 0}, {"lon": -77.02722433333334, "bike_id": "6a114a64ff07b6d08fc49927cf2cf9b7", "lat": 38.897222, "fusion_lon": 0.0, "fusion_lat": 0.0, "type": "electric_scooter", "name": "6a114a64ff07b6d08fc49927cf2cf9b7", "is_disabled": 0, "rental_uris": {"ios": "https://dc.lft.to/lastmile_qr_scan", "android": "https://dc.lft.to/lastmile_qr_scan"}, "is_reserved": 0}, {"lon": -77.049124, "bike_id": "bde0c97faf902bc922d597b886e186d8", "lat": 38.905470666666666, "fusion_lon": 0.0, "fusion_lat": 0.0, "type": "electric_scooter", "name": "bde0c97faf902bc922d597b886e186d8", "is_disabled": 0, "rental_uris": {"ios": "https://dc.lft.to/lastmile_qr_scan", "android": "https://dc.lft.to/lastmile_qr_scan"}, "is_reserved": 0}, {"lon": -76.9463425, "bike_id": "e92f300463609b88c302431a767e4c08", "lat": 38.898340166666664, "fusion_lon": 0.0, "fusion_lat": 0.0, "type": "electric_scooter", "name": "e92f300463609b88c302431a767e4c08", "is_disabled": 0, "rental_uris": {"ios": "https://dc.lft.to/lastmile_qr_scan", "android": "https://dc.lft.to/lastmile_qr_scan"}, "is_reserved": 0}, {"lon": -77.02922116666667, "bike_id": "200d6f33c8b51e38f46cc522b8e0adda", "lat": 38.91688216666667, "fusion_lon": 0.0, "fusion_lat": 0.0, "type": "electric_scooter", "name": "200d6f33c8b51e38f46cc522b8e0adda", "is_disabled": 0, "rental_uris": {"ios": "https://dc.lft.to/lastmile_qr_scan", "android": "https://dc.lft.to/lastmile_qr_scan"}, "is_reserved": 0}, {"lon": -77.023805, "bike_id": "51ad06b146a2108eb6c70b1bc0fa5362", "lat": 38.917018166666665, "fusion_lon": 0.0, "fusion_lat": 0.0, "type": "electric_scooter", "name": "51ad06b146a2108eb6c70b1bc0fa5362", "is_disabled": 0, "rental_uris": {"ios": "https://dc.lft.to/lastmile_qr_scan", "android": "https://dc.lft.to/lastmile_qr_scan"}, "is_reserved": 0}, {"lon": -77.02357433333333, "bike_id": "d7b1e672302aa6b154e387e458177b9a", "lat": 38.9197495, "fusion_lon": 0.0, "fusion_lat": 0.0, "type": "electric_scooter", "name": "d7b1e672302aa6b154e387e458177b9a", "is_disabled": 0, "rental_uris": {"ios": "https://dc.lft.to/lastmile_qr_scan", "android": "https://dc.lft.to/lastmile_qr_scan"}, "is_reserved": 0}, {"lon": -76.96524233333334, "bike_id": "18f693b82e7e1e1058595e9143853cba", "lat": 38.87480133333333, "fusion_lon": 0.0, "fusion_lat": 0.0, "type": "electric_scooter", "name": "18f693b82e7e1e1058595e9143853cba", "is_disabled": 0, "rental_uris": {"ios": "https://dc.lft.to/lastmile_qr_scan", "android": "https://dc.lft.to/lastmile_qr_scan"}, "is_reserved": 0}, {"lon": -76.99543783333333, "bike_id": "acb3d78b0ec49a217cc0c07704208ddf", "lat": 38.883732, "fusion_lon": 0.0, "fusion_lat": 0.0, "type": "electric_scooter", "name": "acb3d78b0ec49a217cc0c07704208ddf", "is_disabled": 0, "rental_uris": {"ios": "https://dc.lft.to/lastmile_qr_scan", "android": "https://dc.lft.to/lastmile_qr_scan"}, "is_reserved": 0}, {"lon": -77.03923616666667, "bike_id": "3a7ea0912cfb662a55ce673bd0ce35fe", "lat": 38.8996685, "fusion_lon": 0.0, "fusion_lat": 0.0, "type": "electric_scooter", "name": "3a7ea0912cfb662a55ce673bd0ce35fe", "is_disabled": 0, "rental_uris": {"ios": "https://dc.lft.to/lastmile_qr_scan", "android": "https://dc.lft.to/lastmile_qr_scan"}, "is_reserved": 0}, {"lon": -77.0256355, "bike_id": "c2d836430af1312d0e97fc58bd950dac", "lat": 38.933538666666664, "fusion_lon": 0.0, "fusion_lat": 0.0, "type": "electric_scooter", "name": "c2d836430af1312d0e97fc58bd950dac", "is_disabled": 0, "rental_uris": {"ios": "https://dc.lft.to/lastmile_qr_scan", "android": "https://dc.lft.to/lastmile_qr_scan"}, "is_reserved": 0}, {"lon": -77.04847516666666, "bike_id": "973005d4de0eb189611e5a558a96d025", "lat": 38.900794166666664, "fusion_lon": 0.0, "fusion_lat": 0.0, "type": "electric_scooter", "name": "973005d4de0eb189611e5a558a96d025", "is_disabled": 0, "rental_uris": {"ios": "https://dc.lft.to/lastmile_qr_scan", "android": "https://dc.lft.to/lastmile_qr_scan"}, "is_reserved": 0}, {"lon": -77.03524833333333, "bike_id": "8bb90b06b81e14a6c7b81186917e1980", "lat": 38.922565, "fusion_lon": 0.0, "fusion_lat": 0.0, "type": "electric_scooter", "name": "8bb90b06b81e14a6c7b81186917e1980", "is_disabled": 0, "rental_uris": {"ios": "https://dc.lft.to/lastmile_qr_scan", "android": "https://dc.lft.to/lastmile_qr_scan"}, "is_reserved": 0}, {"lon": -77.00347266666667, "bike_id": "ce6004b7ff6770a679fc0f13ecdb9a19", "lat": 38.886999333333335, "fusion_lon": 0.0, "fusion_lat": 0.0, "type": "electric_bike", "name": "ce6004b7ff6770a679fc0f13ecdb9a19", "is_disabled": 0, "rental_uris": {"ios": "https://dc.lft.to/lastmile_qr_scan", "android": "https://dc.lft.to/lastmile_qr_scan"}, "is_reserved": 0}, {"lon": -77.02149166666666, "bike_id": "1da93a5e29bd81235e1bbfc8938b3f9b", "lat": 38.8948745, "fusion_lon": 0.0, "fusion_lat": 0.0, "type": "electric_scooter", "name": "1da93a5e29bd81235e1bbfc8938b3f9b", "is_disabled": 0, "rental_uris": {"ios": "https://dc.lft.to/lastmile_qr_scan", "android": "https://dc.lft.to/lastmile_qr_scan"}, "is_reserved": 0}, {"lon": -77.01301966666666, "bike_id": "aaf62d1421e53db4dc59d85711cb3fea", "lat": 38.943266, "fusion_lon": 0.0, "fusion_lat": 0.0, "type": "electric_scooter", "name": "aaf62d1421e53db4dc59d85711cb3fea", "is_disabled": 0, "rental_uris": {"ios": "https://dc.lft.to/lastmile_qr_scan", "android": "https://dc.lft.to/lastmile_qr_scan"}, "is_reserved": 0}, {"lon": -77.04872816666666, "bike_id": "1f602405cb746bd6a2aaea7649c00655", "lat": 38.89229983333333, "fusion_lon": 0.0, "fusion_lat": 0.0, "type": "electric_scooter", "name": "1f602405cb746bd6a2aaea7649c00655", "is_disabled": 0, "rental_uris": {"ios": "https://dc.lft.to/lastmile_qr_scan", "android": "https://dc.lft.to/lastmile_qr_scan"}, "is_reserved": 0}, {"lon": -76.99379333333333, "bike_id": "3262262c3a5fa2c152a837490affd9f1", "lat": 38.971807166666665, "fusion_lon": 0.0, "fusion_lat": 0.0, "type": "electric_bike", "name": "3262262c3a5fa2c152a837490affd9f1", "is_disabled": 0, "rental_uris": {"ios": "https://dc.lft.to/lastmile_qr_scan", "android": "https://dc.lft.to/lastmile_qr_scan"}, "is_reserved": 0}, {"lon": -77.03614533333334, "bike_id": "a2087f7509e4d5c8033cf0a3da49824f", "lat": 38.936806833333335, "fusion_lon": 0.0, "fusion_lat": 0.0, "type": "electric_scooter", "name": "a2087f7509e4d5c8033cf0a3da49824f", "is_disabled": 0, "rental_uris": {"ios": "https://dc.lft.to/lastmile_qr_scan", "android": "https://dc.lft.to/lastmile_qr_scan"}, "is_reserved": 0}, {"lon": -77.04571983333334, "bike_id": "3e162bc87e02f6b92b512116e8f18bb0", "lat": 38.92121816666667, "fusion_lon": 0.0, "fusion_lat": 0.0, "type": "electric_scooter", "name": "3e162bc87e02f6b92b512116e8f18bb0", "is_disabled": 0, "rental_uris": {"ios": "https://dc.lft.to/lastmile_qr_scan", "android": "https://dc.lft.to/lastmile_qr_scan"}, "is_reserved": 0}, {"lon": -77.07232816666667, "bike_id": "48e7f9716367ec2513b0d9a5c1487deb", "lat": 38.968121833333335, "fusion_lon": 0.0, "fusion_lat": 0.0, "type": "electric_bike", "name": "48e7f9716367ec2513b0d9a5c1487deb", "is_disabled": 0, "rental_uris": {"ios": "https://dc.lft.to/lastmile_qr_scan", "android": "https://dc.lft.to/lastmile_qr_scan"}, "is_reserved": 0}, {"lon": -77.035075, "bike_id": "3b46f3b0272195d890e03a0ffb018a00", "lat": 38.907403333333335, "fusion_lon": 0.0, "fusion_lat": 0.0, "type": "electric_scooter", "name": "3b46f3b0272195d890e03a0ffb018a00", "is_disabled": 0, "rental_uris": {"ios": "https://dc.lft.to/lastmile_qr_scan", "android": "https://dc.lft.to/lastmile_qr_scan"}, "is_reserved": 0}, {"lon": -77.01767533333333, "bike_id": "6ed9235df35472fda789465cf62780b7", "lat": 38.8872595, "fusion_lon": 0.0, "fusion_lat": 0.0, "type": "electric_scooter", "name": "6ed9235df35472fda789465cf62780b7", "is_disabled": 0, "rental_uris": {"ios": "https://dc.lft.to/lastmile_qr_scan", "android": "https://dc.lft.to/lastmile_qr_scan"}, "is_reserved": 0}, {"lon": -77.01094483333334, "bike_id": "be6522003fc6f3939810048d67669790", "lat": 38.8979315, "fusion_lon": 0.0, "fusion_lat": 0.0, "type": "electric_scooter", "name": "be6522003fc6f3939810048d67669790", "is_disabled": 0, "rental_uris": {"ios": "https://dc.lft.to/lastmile_qr_scan", "android": "https://dc.lft.to/lastmile_qr_scan"}, "is_reserved": 0}, {"lon": -77.00577633333333, "bike_id": "a9f131821ddb3b10de4d8524c7335946", "lat": 38.83589, "fusion_lon": 0.0, "fusion_lat": 0.0, "type": "electric_scooter", "name": "a9f131821ddb3b10de4d8524c7335946", "is_disabled": 0, "rental_uris": {"ios": "https://dc.lft.to/lastmile_qr_scan", "android": "https://dc.lft.to/lastmile_qr_scan"}, "is_reserved": 0}, {"lon": -77.01813433333334, "bike_id": "2fb8dea0c73a665ab84c1041d570e561", "lat": 38.922232666666666, "fusion_lon": 0.0, "fusion_lat": 0.0, "type": "electric_scooter", "name": "2fb8dea0c73a665ab84c1041d570e561", "is_disabled": 0, "rental_uris": {"ios": "https://dc.lft.to/lastmile_qr_scan", "android": "https://dc.lft.to/lastmile_qr_scan"}, "is_reserved": 0}, {"lon": -77.03378216666667, "bike_id": "cc6fc4053038335be81a35953ba9cd68", "lat": 38.92143683333333, "fusion_lon": 0.0, "fusion_lat": 0.0, "type": "electric_scooter", "name": "cc6fc4053038335be81a35953ba9cd68", "is_disabled": 0, "rental_uris": {"ios": "https://dc.lft.to/lastmile_qr_scan", "android": "https://dc.lft.to/lastmile_qr_scan"}, "is_reserved": 0}, {"lon": -77.03444883333333, "bike_id": "bba00a0f7233001455eac94576305bbc", "lat": 38.9094875, "fusion_lon": 0.0, "fusion_lat": 0.0, "type": "electric_scooter", "name": "bba00a0f7233001455eac94576305bbc", "is_disabled": 0, "rental_uris": {"ios": "https://dc.lft.to/lastmile_qr_scan", "android": "https://dc.lft.to/lastmile_qr_scan"}, "is_reserved": 0}, {"lon": -76.96092633333333, "bike_id": "c48fd05762869f9bb3a271fd641fda36", "lat": 38.918536, "fusion_lon": 0.0, "fusion_lat": 0.0, "type": "electric_bike", "name": "c48fd05762869f9bb3a271fd641fda36", "is_disabled": 0, "rental_uris": {"ios": "https://dc.lft.to/lastmile_qr_scan", "android": "https://dc.lft.to/lastmile_qr_scan"}, "is_reserved": 0}, {"lon": -77.01848816666667, "bike_id": "f8e4a5494a87da46651f6ea07b82b522", "lat": 38.91494333333333, "fusion_lon": 0.0, "fusion_lat": 0.0, "type": "electric_scooter", "name": "f8e4a5494a87da46651f6ea07b82b522", "is_disabled": 0, "rental_uris": {"ios": "https://dc.lft.to/lastmile_qr_scan", "android": "https://dc.lft.to/lastmile_qr_scan"}, "is_reserved": 0}, {"lon": -77.02757633333333, "bike_id": "ead481e0e39a0e110ac1caa9ad48b03d", "lat": 38.94407183333333, "fusion_lon": 0.0, "fusion_lat": 0.0, "type": "electric_scooter", "name": "ead481e0e39a0e110ac1caa9ad48b03d", "is_disabled": 0, "rental_uris": {"ios": "https://dc.lft.to/lastmile_qr_scan", "android": "https://dc.lft.to/lastmile_qr_scan"}, "is_reserved": 0}, {"lon": -77.03440233333333, "bike_id": "e6edb4d843955f6af6c02709cf56d318", "lat": 38.909832333333334, "fusion_lon": 0.0, "fusion_lat": 0.0, "type": "electric_scooter", "name": "e6edb4d843955f6af6c02709cf56d318", "is_disabled": 0, "rental_uris": {"ios": "https://dc.lft.to/lastmile_qr_scan", "android": "https://dc.lft.to/lastmile_qr_scan"}, "is_reserved": 0}, {"lon": -77.03829183333333, "bike_id": "e325058c2c9bbeb3774977316999c144", "lat": 38.90676766666667, "fusion_lon": 0.0, "fusion_lat": 0.0, "type": "electric_scooter", "name": "e325058c2c9bbeb3774977316999c144", "is_disabled": 0, "rental_uris": {"ios": "https://dc.lft.to/lastmile_qr_scan", "android": "https://dc.lft.to/lastmile_qr_scan"}, "is_reserved": 0}, {"lon": -77.00499933333333, "bike_id": "e66745bb2c46cc14ef4583fa127c04df", "lat": 38.9124735, "fusion_lon": 0.0, "fusion_lat": 0.0, "type": "electric_scooter", "name": "e66745bb2c46cc14ef4583fa127c04df", "is_disabled": 0, "rental_uris": {"ios": "https://dc.lft.to/lastmile_qr_scan", "android": "https://dc.lft.to/lastmile_qr_scan"}, "is_reserved": 0}, {"lon": -77.046482, "bike_id": "808dffe3a77a335511c8de4bcb762b04", "lat": 38.91593783333333, "fusion_lon": 0.0, "fusion_lat": 0.0, "type": "electric_scooter", "name": "808dffe3a77a335511c8de4bcb762b04", "is_disabled": 0, "rental_uris": {"ios": "https://dc.lft.to/lastmile_qr_scan", "android": "https://dc.lft.to/lastmile_qr_scan"}, "is_reserved": 0}, {"lon": -77.02055516666667, "bike_id": "9ae60205711219f4772663da03804750", "lat": 38.9096495, "fusion_lon": 0.0, "fusion_lat": 0.0, "type": "electric_scooter", "name": "9ae60205711219f4772663da03804750", "is_disabled": 0, "rental_uris": {"ios": "https://dc.lft.to/lastmile_qr_scan", "android": "https://dc.lft.to/lastmile_qr_scan"}, "is_reserved": 0}, {"lon": -77.02364466666667, "bike_id": "8a276e21ff7ffa2d3c47e57e872d686f", "lat": 38.892170666666665, "fusion_lon": 0.0, "fusion_lat": 0.0, "type": "electric_scooter", "name": "8a276e21ff7ffa2d3c47e57e872d686f", "is_disabled": 0, "rental_uris": {"ios": "https://dc.lft.to/lastmile_qr_scan", "android": "https://dc.lft.to/lastmile_qr_scan"}, "is_reserved": 0}, {"lon": -77.03662366666667, "bike_id": "f4088ed7468ed27d3e0ed484cc35b0d4", "lat": 38.922835, "fusion_lon": 0.0, "fusion_lat": 0.0, "type": "electric_scooter", "name": "f4088ed7468ed27d3e0ed484cc35b0d4", "is_disabled": 0, "rental_uris": {"ios": "https://dc.lft.to/lastmile_qr_scan", "android": "https://dc.lft.to/lastmile_qr_scan"}, "is_reserved": 0}, {"lon": -77.0239605, "bike_id": "b57f046146faf93effa16872b01dc8ff", "lat": 38.916880666666664, "fusion_lon": 0.0, "fusion_lat": 0.0, "type": "electric_scooter", "name": "b57f046146faf93effa16872b01dc8ff", "is_disabled": 0, "rental_uris": {"ios": "https://dc.lft.to/lastmile_qr_scan", "android": "https://dc.lft.to/lastmile_qr_scan"}, "is_reserved": 0}, {"lon": -77.043305, "bike_id": "724d982dd923806cb9356bc3d2e5c778", "lat": 38.902387166666664, "fusion_lon": 0.0, "fusion_lat": 0.0, "type": "electric_scooter", "name": "724d982dd923806cb9356bc3d2e5c778", "is_disabled": 0, "rental_uris": {"ios": "https://dc.lft.to/lastmile_qr_scan", "android": "https://dc.lft.to/lastmile_qr_scan"}, "is_reserved": 0}, {"lon": -77.05862716666667, "bike_id": "5f849e5a615b10c7db5111380ef1ede3", "lat": 38.93603816666667, "fusion_lon": 0.0, "fusion_lat": 0.0, "type": "electric_scooter", "name": "5f849e5a615b10c7db5111380ef1ede3", "is_disabled": 0, "rental_uris": {"ios": "https://dc.lft.to/lastmile_qr_scan", "android": "https://dc.lft.to/lastmile_qr_scan"}, "is_reserved": 0}, {"lon": -77.034049, "bike_id": "2912f668d409a80a6310bb137476f565", "lat": 38.92313716666666, "fusion_lon": 0.0, "fusion_lat": 0.0, "type": "electric_scooter", "name": "2912f668d409a80a6310bb137476f565", "is_disabled": 0, "rental_uris": {"ios": "https://dc.lft.to/lastmile_qr_scan", "android": "https://dc.lft.to/lastmile_qr_scan"}, "is_reserved": 0}, {"lon": -77.0244075, "bike_id": "7e293c43b6dca79b362427e9f4681b7c", "lat": 38.900688, "fusion_lon": 0.0, "fusion_lat": 0.0, "type": "electric_scooter", "name": "7e293c43b6dca79b362427e9f4681b7c", "is_disabled": 0, "rental_uris": {"ios": "https://dc.lft.to/lastmile_qr_scan", "android": "https://dc.lft.to/lastmile_qr_scan"}, "is_reserved": 0}, {"lon": -77.0526325, "bike_id": "6cd43d8da4965bf77fbf27f4ab9b6f59", "lat": 38.92774683333333, "fusion_lon": 0.0, "fusion_lat": 0.0, "type": "electric_scooter", "name": "6cd43d8da4965bf77fbf27f4ab9b6f59", "is_disabled": 0, "rental_uris": {"ios": "https://dc.lft.to/lastmile_qr_scan", "android": "https://dc.lft.to/lastmile_qr_scan"}, "is_reserved": 0}, {"lon": -77.043461, "bike_id": "6cf07aa4513643706fe092a2c34cad72", "lat": 38.91325533333333, "fusion_lon": 0.0, "fusion_lat": 0.0, "type": "electric_scooter", "name": "6cf07aa4513643706fe092a2c34cad72", "is_disabled": 0, "rental_uris": {"ios": "https://dc.lft.to/lastmile_qr_scan", "android": "https://dc.lft.to/lastmile_qr_scan"}, "is_reserved": 0}, {"lon": -77.040922, "bike_id": "40e93566c79c7989cfcfd7c3a35ed23f", "lat": 38.915646833333334, "fusion_lon": 0.0, "fusion_lat": 0.0, "type": "electric_scooter", "name": "40e93566c79c7989cfcfd7c3a35ed23f", "is_disabled": 0, "rental_uris": {"ios": "https://dc.lft.to/lastmile_qr_scan", "android": "https://dc.lft.to/lastmile_qr_scan"}, "is_reserved": 0}, {"lon": -77.01192516666667, "bike_id": "2b675adc2238b0f3f4f49fa24abcf109", "lat": 38.90013866666666, "fusion_lon": 0.0, "fusion_lat": 0.0, "type": "electric_scooter", "name": "2b675adc2238b0f3f4f49fa24abcf109", "is_disabled": 0, "rental_uris": {"ios": "https://dc.lft.to/lastmile_qr_scan", "android": "https://dc.lft.to/lastmile_qr_scan"}, "is_reserved": 0}, {"lon": -77.0382935, "bike_id": "c407d53ed8c54e70481bf5854c33282f", "lat": 38.906785166666666, "fusion_lon": 0.0, "fusion_lat": 0.0, "type": "electric_scooter", "name": "c407d53ed8c54e70481bf5854c33282f", "is_disabled": 0, "rental_uris": {"ios": "https://dc.lft.to/lastmile_qr_scan", "android": "https://dc.lft.to/lastmile_qr_scan"}, "is_reserved": 0}, {"lon": -77.02173816666667, "bike_id": "1ea7f707ee1669f3af56933011a1c179", "lat": 38.94294283333333, "fusion_lon": 0.0, "fusion_lat": 0.0, "type": "electric_scooter", "name": "1ea7f707ee1669f3af56933011a1c179", "is_disabled": 0, "rental_uris": {"ios": "https://dc.lft.to/lastmile_qr_scan", "android": "https://dc.lft.to/lastmile_qr_scan"}, "is_reserved": 0}, {"lon": -77.03672766666666, "bike_id": "2ffee681130775d28efe1180e717cbb9", "lat": 38.93609716666667, "fusion_lon": 0.0, "fusion_lat": 0.0, "type": "electric_scooter", "name": "2ffee681130775d28efe1180e717cbb9", "is_disabled": 0, "rental_uris": {"ios": "https://dc.lft.to/lastmile_qr_scan", "android": "https://dc.lft.to/lastmile_qr_scan"}, "is_reserved": 0}, {"lon": -77.03176816666667, "bike_id": "51ae8b8d9add3b89ba2ddb6df4f09ec3", "lat": 38.89197083333333, "fusion_lon": 0.0, "fusion_lat": 0.0, "type": "electric_scooter", "name": "51ae8b8d9add3b89ba2ddb6df4f09ec3", "is_disabled": 0, "rental_uris": {"ios": "https://dc.lft.to/lastmile_qr_scan", "android": "https://dc.lft.to/lastmile_qr_scan"}, "is_reserved": 0}, {"lon": -76.98898483333333, "bike_id": "42a7c15e8e71ca6a943da6b9457ef1a3", "lat": 38.913439833333335, "fusion_lon": 0.0, "fusion_lat": 0.0, "type": "electric_scooter", "name": "42a7c15e8e71ca6a943da6b9457ef1a3", "is_disabled": 0, "rental_uris": {"ios": "https://dc.lft.to/lastmile_qr_scan", "android": "https://dc.lft.to/lastmile_qr_scan"}, "is_reserved": 0}, {"lon": -77.0259105, "bike_id": "0cf3630cad07f343dfe8138f29e36498", "lat": 38.91496516666667, "fusion_lon": 0.0, "fusion_lat": 0.0, "type": "electric_scooter", "name": "0cf3630cad07f343dfe8138f29e36498", "is_disabled": 0, "rental_uris": {"ios": "https://dc.lft.to/lastmile_qr_scan", "android": "https://dc.lft.to/lastmile_qr_scan"}, "is_reserved": 0}, {"lon": -77.0035725, "bike_id": "0d63caae148dba6c54374c3eefa7b547", "lat": 38.899312333333334, "fusion_lon": 0.0, "fusion_lat": 0.0, "type": "electric_scooter", "name": "0d63caae148dba6c54374c3eefa7b547", "is_disabled": 0, "rental_uris": {"ios": "https://dc.lft.to/lastmile_qr_scan", "android": "https://dc.lft.to/lastmile_qr_scan"}, "is_reserved": 0}, {"lon": -77.031796, "bike_id": "23400a9fd5bbb3552db850f90c73673b", "lat": 38.918228, "fusion_lon": 0.0, "fusion_lat": 0.0, "type": "electric_scooter", "name": "23400a9fd5bbb3552db850f90c73673b", "is_disabled": 0, "rental_uris": {"ios": "https://dc.lft.to/lastmile_qr_scan", "android": "https://dc.lft.to/lastmile_qr_scan"}, "is_reserved": 0}, {"lon": -77.013502, "bike_id": "b7cd16110ea6e31e6d00e6743f5bfad6", "lat": 38.91279866666667, "fusion_lon": 0.0, "fusion_lat": 0.0, "type": "electric_scooter", "name": "b7cd16110ea6e31e6d00e6743f5bfad6", "is_disabled": 0, "rental_uris": {"ios": "https://dc.lft.to/lastmile_qr_scan", "android": "https://dc.lft.to/lastmile_qr_scan"}, "is_reserved": 0}, {"lon": -77.0426725, "bike_id": "4ff521f1a75c6a4c36ba415ff91e7328", "lat": 38.922344833333334, "fusion_lon": 0.0, "fusion_lat": 0.0, "type": "electric_scooter", "name": "4ff521f1a75c6a4c36ba415ff91e7328", "is_disabled": 0, "rental_uris": {"ios": "https://dc.lft.to/lastmile_qr_scan", "android": "https://dc.lft.to/lastmile_qr_scan"}, "is_reserved": 0}, {"lon": -77.03382116666667, "bike_id": "9fef402f7d671af7df7ca3fbeb7dc559", "lat": 38.90264533333333, "fusion_lon": 0.0, "fusion_lat": 0.0, "type": "electric_scooter", "name": "9fef402f7d671af7df7ca3fbeb7dc559", "is_disabled": 0, "rental_uris": {"ios": "https://dc.lft.to/lastmile_qr_scan", "android": "https://dc.lft.to/lastmile_qr_scan"}, "is_reserved": 0}, {"lon": -77.02831016666667, "bike_id": "313896a4e789e4ca0b831997a55b48d2", "lat": 38.902264833333334, "fusion_lon": 0.0, "fusion_lat": 0.0, "type": "electric_scooter", "name": "313896a4e789e4ca0b831997a55b48d2", "is_disabled": 0, "rental_uris": {"ios": "https://dc.lft.to/lastmile_qr_scan", "android": "https://dc.lft.to/lastmile_qr_scan"}, "is_reserved": 0}, {"lon": -77.01890733333333, "bike_id": "3a59d4fe3014ae0b3668db3366ebfa3d", "lat": 38.90896883333333, "fusion_lon": 0.0, "fusion_lat": 0.0, "type": "electric_scooter", "name": "3a59d4fe3014ae0b3668db3366ebfa3d", "is_disabled": 0, "rental_uris": {"ios": "https://dc.lft.to/lastmile_qr_scan", "android": "https://dc.lft.to/lastmile_qr_scan"}, "is_reserved": 0}, {"lon": -77.04485516666666, "bike_id": "45b3d0ad5198a1a35a5c1140b0d4c7f1", "lat": 38.91354616666667, "fusion_lon": 0.0, "fusion_lat": 0.0, "type": "electric_scooter", "name": "45b3d0ad5198a1a35a5c1140b0d4c7f1", "is_disabled": 0, "rental_uris": {"ios": "https://dc.lft.to/lastmile_qr_scan", "android": "https://dc.lft.to/lastmile_qr_scan"}, "is_reserved": 0}, {"lon": -76.9849665, "bike_id": "f6cac82542207081c711ea7b01650908", "lat": 38.8783285, "fusion_lon": 0.0, "fusion_lat": 0.0, "type": "electric_scooter", "name": "f6cac82542207081c711ea7b01650908", "is_disabled": 0, "rental_uris": {"ios": "https://dc.lft.to/lastmile_qr_scan", "android": "https://dc.lft.to/lastmile_qr_scan"}, "is_reserved": 0}, {"lon": -77.04985133333334, "bike_id": "8f537f0c01a0cf6664f1367dbea75145", "lat": 38.90111616666667, "fusion_lon": 0.0, "fusion_lat": 0.0, "type": "electric_scooter", "name": "8f537f0c01a0cf6664f1367dbea75145", "is_disabled": 0, "rental_uris": {"ios": "https://dc.lft.to/lastmile_qr_scan", "android": "https://dc.lft.to/lastmile_qr_scan"}, "is_reserved": 0}, {"lon": -77.00598033333333, "bike_id": "32fe1696967e44c65cfe94ff4a5374c9", "lat": 38.8718545, "fusion_lon": 0.0, "fusion_lat": 0.0, "type": "electric_scooter", "name": "32fe1696967e44c65cfe94ff4a5374c9", "is_disabled": 0, "rental_uris": {"ios": "https://dc.lft.to/lastmile_qr_scan", "android": "https://dc.lft.to/lastmile_qr_scan"}, "is_reserved": 0}, {"lon": -77.02181533333334, "bike_id": "ec0a16e8f525b51aa34b67c18302baa1", "lat": 38.8871895, "fusion_lon": 0.0, "fusion_lat": 0.0, "type": "electric_scooter", "name": "ec0a16e8f525b51aa34b67c18302baa1", "is_disabled": 0, "rental_uris": {"ios": "https://dc.lft.to/lastmile_qr_scan", "android": "https://dc.lft.to/lastmile_qr_scan"}, "is_reserved": 0}, {"lon": -77.02360816666666, "bike_id": "0d903bcb9d55bce23d16909d7cc3ac60", "lat": 38.8921965, "fusion_lon": 0.0, "fusion_lat": 0.0, "type": "electric_scooter", "name": "0d903bcb9d55bce23d16909d7cc3ac60", "is_disabled": 0, "rental_uris": {"ios": "https://dc.lft.to/lastmile_qr_scan", "android": "https://dc.lft.to/lastmile_qr_scan"}, "is_reserved": 0}, {"lon": -76.96532866666666, "bike_id": "7c4e1c30c0bf5d6f2a269e889a9ac027", "lat": 38.8762225, "fusion_lon": 0.0, "fusion_lat": 0.0, "type": "electric_scooter", "name": "7c4e1c30c0bf5d6f2a269e889a9ac027", "is_disabled": 0, "rental_uris": {"ios": "https://dc.lft.to/lastmile_qr_scan", "android": "https://dc.lft.to/lastmile_qr_scan"}, "is_reserved": 0}, {"lon": -77.03473433333333, "bike_id": "b0f9fb7cb538f38f9d2176cab3d97437", "lat": 38.908754, "fusion_lon": 0.0, "fusion_lat": 0.0, "type": "electric_scooter", "name": "b0f9fb7cb538f38f9d2176cab3d97437", "is_disabled": 0, "rental_uris": {"ios": "https://dc.lft.to/lastmile_qr_scan", "android": "https://dc.lft.to/lastmile_qr_scan"}, "is_reserved": 0}, {"lon": -77.00788416666667, "bike_id": "7baa56177746388ab56c83cfd76b89d5", "lat": 38.90574816666667, "fusion_lon": 0.0, "fusion_lat": 0.0, "type": "electric_scooter", "name": "7baa56177746388ab56c83cfd76b89d5", "is_disabled": 0, "rental_uris": {"ios": "https://dc.lft.to/lastmile_qr_scan", "android": "https://dc.lft.to/lastmile_qr_scan"}, "is_reserved": 0}, {"lon": -77.06010566666667, "bike_id": "496c25bdcec50a809bedd43f48a26baa", "lat": 38.901128666666665, "fusion_lon": 0.0, "fusion_lat": 0.0, "type": "electric_scooter", "name": "496c25bdcec50a809bedd43f48a26baa", "is_disabled": 0, "rental_uris": {"ios": "https://dc.lft.to/lastmile_qr_scan", "android": "https://dc.lft.to/lastmile_qr_scan"}, "is_reserved": 0}, {"lon": -77.02191916666666, "bike_id": "9a819cc57830a9cac09bccb770b5a1e8", "lat": 38.9290505, "fusion_lon": 0.0, "fusion_lat": 0.0, "type": "electric_scooter", "name": "9a819cc57830a9cac09bccb770b5a1e8", "is_disabled": 0, "rental_uris": {"ios": "https://dc.lft.to/lastmile_qr_scan", "android": "https://dc.lft.to/lastmile_qr_scan"}, "is_reserved": 0}, {"lon": -77.03261, "bike_id": "9842c50e20b85d1ad6784eb983ca6a14", "lat": 38.937735833333335, "fusion_lon": 0.0, "fusion_lat": 0.0, "type": "electric_scooter", "name": "9842c50e20b85d1ad6784eb983ca6a14", "is_disabled": 0, "rental_uris": {"ios": "https://dc.lft.to/lastmile_qr_scan", "android": "https://dc.lft.to/lastmile_qr_scan"}, "is_reserved": 0}, {"lon": -77.0318215, "bike_id": "b8ac54c1746b91bd87c065baa71f5a4b", "lat": 38.916242833333335, "fusion_lon": 0.0, "fusion_lat": 0.0, "type": "electric_scooter", "name": "b8ac54c1746b91bd87c065baa71f5a4b", "is_disabled": 0, "rental_uris": {"ios": "https://dc.lft.to/lastmile_qr_scan", "android": "https://dc.lft.to/lastmile_qr_scan"}, "is_reserved": 0}, {"lon": -77.05947316666666, "bike_id": "18bd659fe9cda486eca40395d9b54642", "lat": 38.9037325, "fusion_lon": 0.0, "fusion_lat": 0.0, "type": "electric_bike", "name": "18bd659fe9cda486eca40395d9b54642", "is_disabled": 0, "rental_uris": {"ios": "https://dc.lft.to/lastmile_qr_scan", "android": "https://dc.lft.to/lastmile_qr_scan"}, "is_reserved": 0}, {"lon": -76.98896033333334, "bike_id": "8fd6b8e6caa63687910efca71050758c", "lat": 38.866624333333334, "fusion_lon": 0.0, "fusion_lat": 0.0, "type": "electric_scooter", "name": "8fd6b8e6caa63687910efca71050758c", "is_disabled": 0, "rental_uris": {"ios": "https://dc.lft.to/lastmile_qr_scan", "android": "https://dc.lft.to/lastmile_qr_scan"}, "is_reserved": 0}, {"lon": -77.03208016666666, "bike_id": "6e94da895064239742fc6445707d1f6a", "lat": 38.904387166666666, "fusion_lon": 0.0, "fusion_lat": 0.0, "type": "electric_scooter", "name": "6e94da895064239742fc6445707d1f6a", "is_disabled": 0, "rental_uris": {"ios": "https://dc.lft.to/lastmile_qr_scan", "android": "https://dc.lft.to/lastmile_qr_scan"}, "is_reserved": 0}, {"lon": -77.03910683333334, "bike_id": "0a4601aeee8e7415ec4b250d440284b5", "lat": 38.925819833333335, "fusion_lon": 0.0, "fusion_lat": 0.0, "type": "electric_scooter", "name": "0a4601aeee8e7415ec4b250d440284b5", "is_disabled": 0, "rental_uris": {"ios": "https://dc.lft.to/lastmile_qr_scan", "android": "https://dc.lft.to/lastmile_qr_scan"}, "is_reserved": 0}, {"lon": -77.02719733333333, "bike_id": "d48c40839e36b7968fbb32f00abf6150", "lat": 38.924781833333334, "fusion_lon": 0.0, "fusion_lat": 0.0, "type": "electric_scooter", "name": "d48c40839e36b7968fbb32f00abf6150", "is_disabled": 0, "rental_uris": {"ios": "https://dc.lft.to/lastmile_qr_scan", "android": "https://dc.lft.to/lastmile_qr_scan"}, "is_reserved": 0}, {"lon": -77.03545866666667, "bike_id": "d90b7d6c952bf6f6dfbf00d2a30368d5", "lat": 38.908333999999996, "fusion_lon": 0.0, "fusion_lat": 0.0, "type": "electric_scooter", "name": "d90b7d6c952bf6f6dfbf00d2a30368d5", "is_disabled": 0, "rental_uris": {"ios": "https://dc.lft.to/lastmile_qr_scan", "android": "https://dc.lft.to/lastmile_qr_scan"}, "is_reserved": 0}, {"lon": -77.03521633333334, "bike_id": "1f40da5e3390d9a56a01d6b014f2e83e", "lat": 38.921956333333334, "fusion_lon": 0.0, "fusion_lat": 0.0, "type": "electric_scooter", "name": "1f40da5e3390d9a56a01d6b014f2e83e", "is_disabled": 0, "rental_uris": {"ios": "https://dc.lft.to/lastmile_qr_scan", "android": "https://dc.lft.to/lastmile_qr_scan"}, "is_reserved": 0}, {"lon": -77.03227133333333, "bike_id": "30f4246189ece4e0abadcc31919a0de0", "lat": 38.928563833333335, "fusion_lon": 0.0, "fusion_lat": 0.0, "type": "electric_scooter", "name": "30f4246189ece4e0abadcc31919a0de0", "is_disabled": 0, "rental_uris": {"ios": "https://dc.lft.to/lastmile_qr_scan", "android": "https://dc.lft.to/lastmile_qr_scan"}, "is_reserved": 0}, {"lon": -77.09959283333333, "bike_id": "4207faed277a0e909f6ade906d0de307", "lat": 38.857867166666665, "fusion_lon": 0.0, "fusion_lat": 0.0, "type": "electric_bike", "name": "4207faed277a0e909f6ade906d0de307", "is_disabled": 0, "rental_uris": {"ios": "https://dc.lft.to/lastmile_qr_scan", "android": "https://dc.lft.to/lastmile_qr_scan"}, "is_reserved": 0}, {"lon": -77.035423, "bike_id": "278e3517202b523bf76e34b69ff0b355", "lat": 38.924680333333335, "fusion_lon": 0.0, "fusion_lat": 0.0, "type": "electric_scooter", "name": "278e3517202b523bf76e34b69ff0b355", "is_disabled": 0, "rental_uris": {"ios": "https://dc.lft.to/lastmile_qr_scan", "android": "https://dc.lft.to/lastmile_qr_scan"}, "is_reserved": 0}, {"lon": -77.027692, "bike_id": "163d4fb98e93f4f69e397a58f0d4847f", "lat": 38.93466433333333, "fusion_lon": 0.0, "fusion_lat": 0.0, "type": "electric_scooter", "name": "163d4fb98e93f4f69e397a58f0d4847f", "is_disabled": 0, "rental_uris": {"ios": "https://dc.lft.to/lastmile_qr_scan", "android": "https://dc.lft.to/lastmile_qr_scan"}, "is_reserved": 0}, {"lon": -77.04464083333333, "bike_id": "3774758c6fa10f9e40e443671b140f31", "lat": 38.908526, "fusion_lon": 0.0, "fusion_lat": 0.0, "type": "electric_scooter", "name": "3774758c6fa10f9e40e443671b140f31", "is_disabled": 0, "rental_uris": {"ios": "https://dc.lft.to/lastmile_qr_scan", "android": "https://dc.lft.to/lastmile_qr_scan"}, "is_reserved": 0}, {"lon": -77.03201833333334, "bike_id": "f39b18f41a6735990aa85c10f38649c7", "lat": 38.92979783333333, "fusion_lon": 0.0, "fusion_lat": 0.0, "type": "electric_scooter", "name": "f39b18f41a6735990aa85c10f38649c7", "is_disabled": 0, "rental_uris": {"ios": "https://dc.lft.to/lastmile_qr_scan", "android": "https://dc.lft.to/lastmile_qr_scan"}, "is_reserved": 0}, {"lon": -76.9782765, "bike_id": "569a1c6b38d916e1a92cd21fbf33e7b5", "lat": 38.8436955, "fusion_lon": 0.0, "fusion_lat": 0.0, "type": "electric_bike", "name": "569a1c6b38d916e1a92cd21fbf33e7b5", "is_disabled": 0, "rental_uris": {"ios": "https://dc.lft.to/lastmile_qr_scan", "android": "https://dc.lft.to/lastmile_qr_scan"}, "is_reserved": 0}, {"lon": -77.023634, "bike_id": "43b29b5998e0b234ee8f50a9f686e84e", "lat": 38.907288, "fusion_lon": 0.0, "fusion_lat": 0.0, "type": "electric_scooter", "name": "43b29b5998e0b234ee8f50a9f686e84e", "is_disabled": 0, "rental_uris": {"ios": "https://dc.lft.to/lastmile_qr_scan", "android": "https://dc.lft.to/lastmile_qr_scan"}, "is_reserved": 0}, {"lon": -77.02503683333333, "bike_id": "f5077d24938fc2c98ab2379d8a87a9ff", "lat": 38.90410266666667, "fusion_lon": 0.0, "fusion_lat": 0.0, "type": "electric_scooter", "name": "f5077d24938fc2c98ab2379d8a87a9ff", "is_disabled": 0, "rental_uris": {"ios": "https://dc.lft.to/lastmile_qr_scan", "android": "https://dc.lft.to/lastmile_qr_scan"}, "is_reserved": 0}, {"lon": -77.08336566666667, "bike_id": "0f4036b604c997d0654db83b1f2567c3", "lat": 38.854408166666666, "fusion_lon": 0.0, "fusion_lat": 0.0, "type": "electric_bike", "name": "0f4036b604c997d0654db83b1f2567c3", "is_disabled": 0, "rental_uris": {"ios": "https://dc.lft.to/lastmile_qr_scan", "android": "https://dc.lft.to/lastmile_qr_scan"}, "is_reserved": 0}, {"lon": -77.0320035, "bike_id": "2e87213fd9e0a5ef16d35a915000d44f", "lat": 38.918147, "fusion_lon": 0.0, "fusion_lat": 0.0, "type": "electric_scooter", "name": "2e87213fd9e0a5ef16d35a915000d44f", "is_disabled": 0, "rental_uris": {"ios": "https://dc.lft.to/lastmile_qr_scan", "android": "https://dc.lft.to/lastmile_qr_scan"}, "is_reserved": 0}, {"lon": -77.03922833333333, "bike_id": "a6c93a5418517c7a483b42945c58b380", "lat": 38.9027255, "fusion_lon": 0.0, "fusion_lat": 0.0, "type": "electric_scooter", "name": "a6c93a5418517c7a483b42945c58b380", "is_disabled": 0, "rental_uris": {"ios": "https://dc.lft.to/lastmile_qr_scan", "android": "https://dc.lft.to/lastmile_qr_scan"}, "is_reserved": 0}, {"lon": -77.0220075, "bike_id": "1f7ad897373ac587b3c0ec280e27fed4", "lat": 38.911189, "fusion_lon": 0.0, "fusion_lat": 0.0, "type": "electric_scooter", "name": "1f7ad897373ac587b3c0ec280e27fed4", "is_disabled": 0, "rental_uris": {"ios": "https://dc.lft.to/lastmile_qr_scan", "android": "https://dc.lft.to/lastmile_qr_scan"}, "is_reserved": 0}, {"lon": -77.039147, "bike_id": "4156c0a1fce849236b0a08ecc059a3d2", "lat": 38.91424, "fusion_lon": 0.0, "fusion_lat": 0.0, "type": "electric_scooter", "name": "4156c0a1fce849236b0a08ecc059a3d2", "is_disabled": 0, "rental_uris": {"ios": "https://dc.lft.to/lastmile_qr_scan", "android": "https://dc.lft.to/lastmile_qr_scan"}, "is_reserved": 0}, {"lon": -77.032385, "bike_id": "b967eb60f1f8ce873bc20756dc466409", "lat": 38.91986416666667, "fusion_lon": 0.0, "fusion_lat": 0.0, "type": "electric_scooter", "name": "b967eb60f1f8ce873bc20756dc466409", "is_disabled": 0, "rental_uris": {"ios": "https://dc.lft.to/lastmile_qr_scan", "android": "https://dc.lft.to/lastmile_qr_scan"}, "is_reserved": 0}, {"lon": -77.03194516666667, "bike_id": "66b65dc7917b57b019d9ad6c79c9e5c6", "lat": 38.9173675, "fusion_lon": 0.0, "fusion_lat": 0.0, "type": "electric_scooter", "name": "66b65dc7917b57b019d9ad6c79c9e5c6", "is_disabled": 0, "rental_uris": {"ios": "https://dc.lft.to/lastmile_qr_scan", "android": "https://dc.lft.to/lastmile_qr_scan"}, "is_reserved": 0}, {"lon": -77.024285, "bike_id": "1e4b21dd24b1385316ab6bd224c82c14", "lat": 38.911680833333335, "fusion_lon": 0.0, "fusion_lat": 0.0, "type": "electric_scooter", "name": "1e4b21dd24b1385316ab6bd224c82c14", "is_disabled": 0, "rental_uris": {"ios": "https://dc.lft.to/lastmile_qr_scan", "android": "https://dc.lft.to/lastmile_qr_scan"}, "is_reserved": 0}, {"lon": -77.03586483333333, "bike_id": "123defa2399cc185fbd3b6b7f2e11ced", "lat": 38.9922575, "fusion_lon": 0.0, "fusion_lat": 0.0, "type": "electric_scooter", "name": "123defa2399cc185fbd3b6b7f2e11ced", "is_disabled": 0, "rental_uris": {"ios": "https://dc.lft.to/lastmile_qr_scan", "android": "https://dc.lft.to/lastmile_qr_scan"}, "is_reserved": 0}, {"lon": -77.01296083333334, "bike_id": "fc6235c50153f4793375be38e785ecac", "lat": 38.91269233333333, "fusion_lon": 0.0, "fusion_lat": 0.0, "type": "electric_scooter", "name": "fc6235c50153f4793375be38e785ecac", "is_disabled": 0, "rental_uris": {"ios": "https://dc.lft.to/lastmile_qr_scan", "android": "https://dc.lft.to/lastmile_qr_scan"}, "is_reserved": 0}, {"lon": -77.03829283333333, "bike_id": "3078b807f08c385508d76e71a955269b", "lat": 38.90404916666667, "fusion_lon": 0.0, "fusion_lat": 0.0, "type": "electric_scooter", "name": "3078b807f08c385508d76e71a955269b", "is_disabled": 0, "rental_uris": {"ios": "https://dc.lft.to/lastmile_qr_scan", "android": "https://dc.lft.to/lastmile_qr_scan"}, "is_reserved": 0}, {"lon": -77.01741616666666, "bike_id": "255dfc0aa3cc52e3a46a13bf6e977ac8", "lat": 38.88745883333333, "fusion_lon": 0.0, "fusion_lat": 0.0, "type": "electric_scooter", "name": "255dfc0aa3cc52e3a46a13bf6e977ac8", "is_disabled": 0, "rental_uris": {"ios": "https://dc.lft.to/lastmile_qr_scan", "android": "https://dc.lft.to/lastmile_qr_scan"}, "is_reserved": 0}, {"lon": -77.03740416666666, "bike_id": "943dbf0967f9e7aa152fb7917772b88c", "lat": 38.91803266666667, "fusion_lon": 0.0, "fusion_lat": 0.0, "type": "electric_scooter", "name": "943dbf0967f9e7aa152fb7917772b88c", "is_disabled": 0, "rental_uris": {"ios": "https://dc.lft.to/lastmile_qr_scan", "android": "https://dc.lft.to/lastmile_qr_scan"}, "is_reserved": 0}, {"lon": -77.005476, "bike_id": "02cd79a1dc57490ef5180bda14e2acca", "lat": 38.90548583333333, "fusion_lon": 0.0, "fusion_lat": 0.0, "type": "electric_scooter", "name": "02cd79a1dc57490ef5180bda14e2acca", "is_disabled": 0, "rental_uris": {"ios": "https://dc.lft.to/lastmile_qr_scan", "android": "https://dc.lft.to/lastmile_qr_scan"}, "is_reserved": 0}, {"lon": -77.043349, "bike_id": "05681d1a22237ce5b69bf61e703059cb", "lat": 38.892193, "fusion_lon": 0.0, "fusion_lat": 0.0, "type": "electric_scooter", "name": "05681d1a22237ce5b69bf61e703059cb", "is_disabled": 0, "rental_uris": {"ios": "https://dc.lft.to/lastmile_qr_scan", "android": "https://dc.lft.to/lastmile_qr_scan"}, "is_reserved": 0}, {"lon": -77.03313766666666, "bike_id": "1b097e239d2360ea681f4e7fc0de5ccb", "lat": 38.898233, "fusion_lon": 0.0, "fusion_lat": 0.0, "type": "electric_scooter", "name": "1b097e239d2360ea681f4e7fc0de5ccb", "is_disabled": 0, "rental_uris": {"ios": "https://dc.lft.to/lastmile_qr_scan", "android": "https://dc.lft.to/lastmile_qr_scan"}, "is_reserved": 0}, {"lon": -77.01964133333334, "bike_id": "f6b182445771a693d6e9a5f7648f16e0", "lat": 38.883718333333334, "fusion_lon": 0.0, "fusion_lat": 0.0, "type": "electric_scooter", "name": "f6b182445771a693d6e9a5f7648f16e0", "is_disabled": 0, "rental_uris": {"ios": "https://dc.lft.to/lastmile_qr_scan", "android": "https://dc.lft.to/lastmile_qr_scan"}, "is_reserved": 0}, {"lon": -76.990096, "bike_id": "9a72ad02d49c738520e2ec1eb741a69a", "lat": 38.86503483333333, "fusion_lon": 0.0, "fusion_lat": 0.0, "type": "electric_scooter", "name": "9a72ad02d49c738520e2ec1eb741a69a", "is_disabled": 0, "rental_uris": {"ios": "https://dc.lft.to/lastmile_qr_scan", "android": "https://dc.lft.to/lastmile_qr_scan"}, "is_reserved": 0}, {"lon": -76.99363533333333, "bike_id": "e4856ed739fa361a149cd5c7e1992381", "lat": 38.8797205, "fusion_lon": 0.0, "fusion_lat": 0.0, "type": "electric_scooter", "name": "e4856ed739fa361a149cd5c7e1992381", "is_disabled": 0, "rental_uris": {"ios": "https://dc.lft.to/lastmile_qr_scan", "android": "https://dc.lft.to/lastmile_qr_scan"}, "is_reserved": 0}, {"lon": -77.03702033333333, "bike_id": "ed9efbd6a56455a3913f46f231b775a9", "lat": 38.935291, "fusion_lon": 0.0, "fusion_lat": 0.0, "type": "electric_scooter", "name": "ed9efbd6a56455a3913f46f231b775a9", "is_disabled": 0, "rental_uris": {"ios": "https://dc.lft.to/lastmile_qr_scan", "android": "https://dc.lft.to/lastmile_qr_scan"}, "is_reserved": 0}, {"lon": -76.98899816666666, "bike_id": "ba6716533ccc78bd13f2a363306f45b3", "lat": 38.866640833333335, "fusion_lon": 0.0, "fusion_lat": 0.0, "type": "electric_scooter", "name": "ba6716533ccc78bd13f2a363306f45b3", "is_disabled": 0, "rental_uris": {"ios": "https://dc.lft.to/lastmile_qr_scan", "android": "https://dc.lft.to/lastmile_qr_scan"}, "is_reserved": 0}, {"lon": -77.03113316666666, "bike_id": "07805fb626b8b205f6851b98a54bae8b", "lat": 38.923779, "fusion_lon": 0.0, "fusion_lat": 0.0, "type": "electric_scooter", "name": "07805fb626b8b205f6851b98a54bae8b", "is_disabled": 0, "rental_uris": {"ios": "https://dc.lft.to/lastmile_qr_scan", "android": "https://dc.lft.to/lastmile_qr_scan"}, "is_reserved": 0}, {"lon": -76.99816216666666, "bike_id": "0d40d8b8396727bab03324b21badc788", "lat": 38.900181, "fusion_lon": 0.0, "fusion_lat": 0.0, "type": "electric_scooter", "name": "0d40d8b8396727bab03324b21badc788", "is_disabled": 0, "rental_uris": {"ios": "https://dc.lft.to/lastmile_qr_scan", "android": "https://dc.lft.to/lastmile_qr_scan"}, "is_reserved": 0}, {"lon": -77.0271245, "bike_id": "e9107d56b873e7e342d05df80439ab74", "lat": 38.89715016666667, "fusion_lon": 0.0, "fusion_lat": 0.0, "type": "electric_scooter", "name": "e9107d56b873e7e342d05df80439ab74", "is_disabled": 0, "rental_uris": {"ios": "https://dc.lft.to/lastmile_qr_scan", "android": "https://dc.lft.to/lastmile_qr_scan"}, "is_reserved": 0}, {"lon": -77.02925633333334, "bike_id": "5a51cd7ca30b81fd598316ce1d72767b", "lat": 38.9168555, "fusion_lon": 0.0, "fusion_lat": 0.0, "type": "electric_bike", "name": "5a51cd7ca30b81fd598316ce1d72767b", "is_disabled": 0, "rental_uris": {"ios": "https://dc.lft.to/lastmile_qr_scan", "android": "https://dc.lft.to/lastmile_qr_scan"}, "is_reserved": 0}, {"lon": -77.02106566666667, "bike_id": "f91f0c738bda16d44cc522cf1d3dd12c", "lat": 38.899468666666664, "fusion_lon": 0.0, "fusion_lat": 0.0, "type": "electric_scooter", "name": "f91f0c738bda16d44cc522cf1d3dd12c", "is_disabled": 0, "rental_uris": {"ios": "https://dc.lft.to/lastmile_qr_scan", "android": "https://dc.lft.to/lastmile_qr_scan"}, "is_reserved": 0}, {"lon": -77.0220325, "bike_id": "86e222dc285d556999d6c0d2db874e19", "lat": 38.87893583333334, "fusion_lon": 0.0, "fusion_lat": 0.0, "type": "electric_scooter", "name": "86e222dc285d556999d6c0d2db874e19", "is_disabled": 0, "rental_uris": {"ios": "https://dc.lft.to/lastmile_qr_scan", "android": "https://dc.lft.to/lastmile_qr_scan"}, "is_reserved": 0}, {"lon": -77.01871166666666, "bike_id": "77495caca2518c91e9a6719d40ba034f", "lat": 38.90317866666667, "fusion_lon": 0.0, "fusion_lat": 0.0, "type": "electric_scooter", "name": "77495caca2518c91e9a6719d40ba034f", "is_disabled": 0, "rental_uris": {"ios": "https://dc.lft.to/lastmile_qr_scan", "android": "https://dc.lft.to/lastmile_qr_scan"}, "is_reserved": 0}, {"lon": -77.03965866666667, "bike_id": "ab4bb15fb0c8666b344bf58bbcb39570", "lat": 38.8922325, "fusion_lon": 0.0, "fusion_lat": 0.0, "type": "electric_scooter", "name": "ab4bb15fb0c8666b344bf58bbcb39570", "is_disabled": 0, "rental_uris": {"ios": "https://dc.lft.to/lastmile_qr_scan", "android": "https://dc.lft.to/lastmile_qr_scan"}, "is_reserved": 0}, {"lon": -77.04155866666666, "bike_id": "b509e4eea02b9d5fc2878a51d205ab6d", "lat": 38.918122, "fusion_lon": 0.0, "fusion_lat": 0.0, "type": "electric_scooter", "name": "b509e4eea02b9d5fc2878a51d205ab6d", "is_disabled": 0, "rental_uris": {"ios": "https://dc.lft.to/lastmile_qr_scan", "android": "https://dc.lft.to/lastmile_qr_scan"}, "is_reserved": 0}, {"lon": -77.033727, "bike_id": "667a1750c83e771ac611550ebe03ad61", "lat": 38.921375166666664, "fusion_lon": 0.0, "fusion_lat": 0.0, "type": "electric_scooter", "name": "667a1750c83e771ac611550ebe03ad61", "is_disabled": 0, "rental_uris": {"ios": "https://dc.lft.to/lastmile_qr_scan", "android": "https://dc.lft.to/lastmile_qr_scan"}, "is_reserved": 0}, {"lon": -77.0347615, "bike_id": "afc436410c48379ed5e676e32ec0ca36", "lat": 38.90721816666667, "fusion_lon": 0.0, "fusion_lat": 0.0, "type": "electric_scooter", "name": "afc436410c48379ed5e676e32ec0ca36", "is_disabled": 0, "rental_uris": {"ios": "https://dc.lft.to/lastmile_qr_scan", "android": "https://dc.lft.to/lastmile_qr_scan"}, "is_reserved": 0}, {"lon": -77.01912733333333, "bike_id": "5b8fa58f9327678e5b073bba8732bbfc", "lat": 38.90238383333333, "fusion_lon": 0.0, "fusion_lat": 0.0, "type": "electric_scooter", "name": "5b8fa58f9327678e5b073bba8732bbfc", "is_disabled": 0, "rental_uris": {"ios": "https://dc.lft.to/lastmile_qr_scan", "android": "https://dc.lft.to/lastmile_qr_scan"}, "is_reserved": 0}, {"lon": -77.0215895, "bike_id": "176781e1e8b76f3d33ccb865e5617173", "lat": 38.92609566666667, "fusion_lon": 0.0, "fusion_lat": 0.0, "type": "electric_scooter", "name": "176781e1e8b76f3d33ccb865e5617173", "is_disabled": 0, "rental_uris": {"ios": "https://dc.lft.to/lastmile_qr_scan", "android": "https://dc.lft.to/lastmile_qr_scan"}, "is_reserved": 0}, {"lon": -77.031742, "bike_id": "e6f8cdfe5d772c66c73b68220eddf13e", "lat": 38.912719, "fusion_lon": 0.0, "fusion_lat": 0.0, "type": "electric_scooter", "name": "e6f8cdfe5d772c66c73b68220eddf13e", "is_disabled": 0, "rental_uris": {"ios": "https://dc.lft.to/lastmile_qr_scan", "android": "https://dc.lft.to/lastmile_qr_scan"}, "is_reserved": 0}, {"lon": -77.0340825, "bike_id": "4ce9c18a3739abf22555d215363fe9ee", "lat": 38.9341905, "fusion_lon": 0.0, "fusion_lat": 0.0, "type": "electric_scooter", "name": "4ce9c18a3739abf22555d215363fe9ee", "is_disabled": 0, "rental_uris": {"ios": "https://dc.lft.to/lastmile_qr_scan", "android": "https://dc.lft.to/lastmile_qr_scan"}, "is_reserved": 0}, {"lon": -77.044926, "bike_id": "098569bbd95a1678ab3986de4a33058c", "lat": 38.90081766666667, "fusion_lon": 0.0, "fusion_lat": 0.0, "type": "electric_scooter", "name": "098569bbd95a1678ab3986de4a33058c", "is_disabled": 0, "rental_uris": {"ios": "https://dc.lft.to/lastmile_qr_scan", "android": "https://dc.lft.to/lastmile_qr_scan"}, "is_reserved": 0}, {"lon": -77.0363495, "bike_id": "e642392d432f2e52bb1f03b5aa2bc6d0", "lat": 38.904607166666665, "fusion_lon": 0.0, "fusion_lat": 0.0, "type": "electric_scooter", "name": "e642392d432f2e52bb1f03b5aa2bc6d0", "is_disabled": 0, "rental_uris": {"ios": "https://dc.lft.to/lastmile_qr_scan", "android": "https://dc.lft.to/lastmile_qr_scan"}, "is_reserved": 0}, {"lon": -77.04257066666666, "bike_id": "6b7aa7345ba0d784e42640b37f2bbd57", "lat": 38.908716166666665, "fusion_lon": 0.0, "fusion_lat": 0.0, "type": "electric_scooter", "name": "6b7aa7345ba0d784e42640b37f2bbd57", "is_disabled": 0, "rental_uris": {"ios": "https://dc.lft.to/lastmile_qr_scan", "android": "https://dc.lft.to/lastmile_qr_scan"}, "is_reserved": 0}, {"lon": -77.04655266666667, "bike_id": "5d490604dc158feef8f7f843c6c42e63", "lat": 38.9212215, "fusion_lon": 0.0, "fusion_lat": 0.0, "type": "electric_scooter", "name": "5d490604dc158feef8f7f843c6c42e63", "is_disabled": 0, "rental_uris": {"ios": "https://dc.lft.to/lastmile_qr_scan", "android": "https://dc.lft.to/lastmile_qr_scan"}, "is_reserved": 0}, {"lon": -77.03272183333333, "bike_id": "963e959633603dddc1f618c78e5167ce", "lat": 38.94090033333333, "fusion_lon": 0.0, "fusion_lat": 0.0, "type": "electric_bike", "name": "963e959633603dddc1f618c78e5167ce", "is_disabled": 0, "rental_uris": {"ios": "https://dc.lft.to/lastmile_qr_scan", "android": "https://dc.lft.to/lastmile_qr_scan"}, "is_reserved": 0}, {"lon": -77.06102566666667, "bike_id": "8a254d2636071930c0b8cfb805cf3c4e", "lat": 38.937033166666666, "fusion_lon": 0.0, "fusion_lat": 0.0, "type": "electric_scooter", "name": "8a254d2636071930c0b8cfb805cf3c4e", "is_disabled": 0, "rental_uris": {"ios": "https://dc.lft.to/lastmile_qr_scan", "android": "https://dc.lft.to/lastmile_qr_scan"}, "is_reserved": 0}, {"lon": -77.07765916666666, "bike_id": "1cbe273df6a83e8b6cef8d8ca3b77079", "lat": 38.9304775, "fusion_lon": 0.0, "fusion_lat": 0.0, "type": "electric_scooter", "name": "1cbe273df6a83e8b6cef8d8ca3b77079", "is_disabled": 0, "rental_uris": {"ios": "https://dc.lft.to/lastmile_qr_scan", "android": "https://dc.lft.to/lastmile_qr_scan"}, "is_reserved": 0}, {"lon": -77.0403135, "bike_id": "0803e055555824e804c916d4d0098c6d", "lat": 38.9256755, "fusion_lon": 0.0, "fusion_lat": 0.0, "type": "electric_scooter", "name": "0803e055555824e804c916d4d0098c6d", "is_disabled": 0, "rental_uris": {"ios": "https://dc.lft.to/lastmile_qr_scan", "android": "https://dc.lft.to/lastmile_qr_scan"}, "is_reserved": 0}, {"lon": -76.948842, "bike_id": "6328e240b9c357cd9eeca7a9a21dd3b7", "lat": 38.89512333333333, "fusion_lon": 0.0, "fusion_lat": 0.0, "type": "electric_scooter", "name": "6328e240b9c357cd9eeca7a9a21dd3b7", "is_disabled": 0, "rental_uris": {"ios": "https://dc.lft.to/lastmile_qr_scan", "android": "https://dc.lft.to/lastmile_qr_scan"}, "is_reserved": 0}, {"lon": -77.02721516666666, "bike_id": "8f3db599c66228e9ff16f2bccef481dd", "lat": 38.911413833333334, "fusion_lon": 0.0, "fusion_lat": 0.0, "type": "electric_scooter", "name": "8f3db599c66228e9ff16f2bccef481dd", "is_disabled": 0, "rental_uris": {"ios": "https://dc.lft.to/lastmile_qr_scan", "android": "https://dc.lft.to/lastmile_qr_scan"}, "is_reserved": 0},