{"data": {"bikes": [{"fusion_lat": 0.0, "bike_id": "c0d54af02146d7a2a3537f3993cf5787", "fusion_lon": 0.0, "lon": -77.0075225, "lat": 38.89830216666667, "is_reserved": 0, "is_disabled": 0, "rental_uris": {"android": "https://dc.lft.to/lastmile_qr_scan", "ios": "https://dc.lft.to/lastmile_qr_scan"}, "name": "c0d54af02146d7a2a3537f3993cf5787", "type": "electric_scooter"}, {"fusion_lat": 0.0, "bike_id": "45548cde88f18bac4f9f6f8a9c229b53", "fusion_lon": 0.0, "lon": -77.02978, "lat": 38.91710633333334, "is_reserved": 0, "is_disabled": 0, "rental_uris": {"android": "https://dc.lft.to/lastmile_qr_scan", "ios": "https://dc.lft.to/lastmile_qr_scan"}, "name": "45548cde88f18bac4f9f6f8a9c229b53", "type": "electric_scooter"}, {"fusion_lat": 0.0, "bike_id": "408322e60a928dbe4536fe6b9d866702", "fusion_lon": 0.0, "lon": -77.02246216666667, "lat": 38.92422166666667, "is_reserved": 0, "is_disabled": 0, "rental_uris": {"android": "https://dc.lft.to/lastmile_qr_scan", "ios": "https://dc.lft.to/lastmile_qr_scan"}, "name": "408322e60a928dbe4536fe6b9d866702", "type": "electric_scooter"}, {"fusion_lat": 0.0, "bike_id": "b270f8d906b3314b2c905a36ad627b3c", "fusion_lon": 0.0, "lon": -76.97302766666667, "lat": 38.963255, "is_reserved": 0, "is_disabled": 0, "rental_uris": {"android": "https://dc.lft.to/lastmile_qr_scan", "ios": "https://dc.lft.to/lastmile_qr_scan"}, "name": "b270f8d906b3314b2c905a36ad627b3c", "type": "electric_bike"}, {"fusion_lat": 0.0, "bike_id": "4f6e237f049bbb786302372369e6d083", "fusion_lon": 0.0, "lon": -76.9457295, "lat": 38.866150166666664, "is_reserved": 0, "is_disabled": 0, "rental_uris": {"android": "https://dc.lft.to/lastmile_qr_scan", "ios": "https://dc.lft.to/lastmile_qr_scan"}, "name": "4f6e237f049bbb786302372369e6d083", "type": "electric_bike"}, {"fusion_lat": 0.0, "bike_id": "4fd700be7516ca726ed63115d99bdd17", "fusion_lon": 0.0, "lon": -77.0232215, "lat": 38.92795266666667, "is_reserved": 0, "is_disabled": 0, "rental_uris": {"android": "https://dc.lft.to/lastmile_qr_scan", "ios": "https://dc.lft.to/lastmile_qr_scan"}, "name": "4fd700be7516ca726ed63115d99bdd17", "type": "electric_scooter"}, {"fusion_lat": 0.0, "bike_id": "e8fa4995e7e9e6905b345d568c7246a9", "fusion_lon": 0.0, "lon": -77.02770183333334, "lat": 38.928621666666665, "is_reserved": 0, "is_disabled": 0, "rental_uris": {"android": "https://dc.lft.to/lastmile_qr_scan", "ios": "https://dc.lft.to/lastmile_qr_scan"}, "name": "e8fa4995e7e9e6905b345d568c7246a9", "type": "electric_scooter"}, {"fusion_lat": 0.0, "bike_id": "a47e920de8173869063911e87ef29254", "fusion_lon": 0.0, "lon": -77.03983233333334, "lat": 38.925922666666665, "is_reserved": 0, "is_disabled": 0, "rental_uris": {"android": "https://dc.lft.to/lastmile_qr_scan", "ios": "https://dc.lft.to/lastmile_qr_scan"}, "name": "a47e920de8173869063911e87ef29254", "type": "electric_scooter"}, {"fusion_lat": 0.0, "bike_id": "151974edc0d2a44ed8a93d5413aaa483", "fusion_lon": 0.0, "lon": -77.041013, "lat": 38.8984975, "is_reserved": 0, "is_disabled": 0, "rental_uris": {"android": "https://dc.lft.to/lastmile_qr_scan", "ios": "https://dc.lft.to/lastmile_qr_scan"}, "name": "151974edc0d2a44ed8a93d5413aaa483", "type": "electric_scooter"}, {"fusion_lat": 0.0, "bike_id": "8170ae5a58dd29addd1afd3c282274df", "fusion_lon": 0.0, "lon": -77.03192133333333, "lat": 38.907662333333334, "is_reserved": 0, "is_disabled": 0, "rental_uris": {"android": "https://dc.lft.to/lastmile_qr_scan", "ios": "https://dc.lft.to/lastmile_qr_scan"}, "name": "8170ae5a58dd29addd1afd3c282274df", "type": "electric_scooter"}, {"fusion_lat": 0.0, "bike_id": "a4c38a7c7f8e41d088b9fd43973a9772", "fusion_lon": 0.0, "lon": -77.05579333333333, "lat": 38.91593733333333, "is_reserved": 0, "is_disabled": 0, "rental_uris": {"android": "https://dc.lft.to/lastmile_qr_scan", "ios": "https://dc.lft.to/lastmile_qr_scan"}, "name": "a4c38a7c7f8e41d088b9fd43973a9772", "type": "electric_scooter"}, {"fusion_lat": 0.0, "bike_id": "cfd1793d9f59e7a63ae9b7ad32961949", "fusion_lon": 0.0, "lon": -77.02235883333333, "lat": 38.8921835, "is_reserved": 0, "is_disabled": 0, "rental_uris": {"android": "https://dc.lft.to/lastmile_qr_scan", "ios": "https://dc.lft.to/lastmile_qr_scan"}, "name": "cfd1793d9f59e7a63ae9b7ad32961949", "type": "electric_scooter"}, {"fusion_lat": 0.0, "bike_id": "7d41f5c2ee3b6f83cb8f01108f98d1c0", "fusion_lon": 0.0, "lon": -77.027245, "lat": 38.89225066666667, "is_reserved": 0, "is_disabled": 0, "rental_uris": {"android": "https://dc.lft.to/lastmile_qr_scan", "ios": "https://dc.lft.to/lastmile_qr_scan"}, "name": "7d41f5c2ee3b6f83cb8f01108f98d1c0", "type": "electric_scooter"}, {"fusion_lat": 0.0, "bike_id": "09c7186e78c864051b78f7ff4c15d7b7", "fusion_lon": 0.0, "lon": -76.9669085, "lat": 38.945601333333336, "is_reserved": 0, "is_disabled": 0, "rental_uris": {"android": "https://dc.lft.to/lastmile_qr_scan", "ios": "https://dc.lft.to/lastmile_qr_scan"}, "name": "09c7186e78c864051b78f7ff4c15d7b7", "type": "electric_bike"}, {"fusion_lat": 0.0, "bike_id": "b7addf7241fe411d52783614ed001473", "fusion_lon": 0.0, "lon": -77.0090745, "lat": 38.8990425, "is_reserved": 0, "is_disabled": 0, "rental_uris": {"android": "https://dc.lft.to/lastmile_qr_scan", "ios": "https://dc.lft.to/lastmile_qr_scan"}, "name": "b7addf7241fe411d52783614ed001473", "type": "electric_scooter"}, {"fusion_lat": 0.0, "bike_id": "372cb41d2730e1fbb9ee750a64918fc1", "fusion_lon": 0.0, "lon": -76.99941183333334, "lat": 38.906189833333336, "is_reserved": 0, "is_disabled": 0, "rental_uris": {"android": "https://dc.lft.to/lastmile_qr_scan", "ios": "https://dc.lft.to/lastmile_qr_scan"}, "name": "372cb41d2730e1fbb9ee750a64918fc1", "type": "electric_scooter"}, {"fusion_lat": 0.0, "bike_id": "e86bed3ac364a0dbe1a1bd480dd454b4", "fusion_lon": 0.0, "lon": -77.00451716666667, "lat": 38.876477333333334, "is_reserved": 0, "is_disabled": 0, "rental_uris": {"android": "https://dc.lft.to/lastmile_qr_scan", "ios": "https://dc.lft.to/lastmile_qr_scan"}, "name": "e86bed3ac364a0dbe1a1bd480dd454b4", "type": "electric_scooter"}, {"fusion_lat": 0.0, "bike_id": "d97437d875cc685413f9b79976f40682", "fusion_lon": 0.0, "lon": -77.00877466666667, "lat": 38.87646816666667, "is_reserved": 0, "is_disabled": 0, "rental_uris": {"android": "https://dc.lft.to/lastmile_qr_scan", "ios": "https://dc.lft.to/lastmile_qr_scan"}, "name": "d97437d875cc685413f9b79976f40682", "type": "electric_scooter"}, {"fusion_lat": 0.0, "bike_id": "c562d86820afd7ed6ce169406d6c5f82", "fusion_lon": 0.0, "lon": -77.0464815, "lat": 38.90644983333333, "is_reserved": 0, "is_disabled": 0, "rental_uris": {"android": "https://dc.lft.to/lastmile_qr_scan", "ios": "https://dc.lft.to/lastmile_qr_scan"}, "name": "c562d86820afd7ed6ce169406d6c5f82", "type": "electric_scooter"}, {"fusion_lat": 0.0, "bike_id": "fafa86f97ca139cb83a95a320efcbed6", "fusion_lon": 0.0, "lon": -77.03437433333333, "lat": 38.9041535, "is_reserved": 0, "is_disabled": 0, "rental_uris": {"android": "https://dc.lft.to/lastmile_qr_scan", "ios": "https://dc.lft.to/lastmile_qr_scan"}, "name": "fafa86f97ca139cb83a95a320efcbed6", "type": "electric_scooter"}, {"fusion_lat": 0.0, "bike_id": "309bbe508756c9c6cbe712ccf24a850a", "fusion_lon": 0.0, "lon": -76.99389383333333, "lat": 38.8919535, "is_reserved": 0, "is_disabled": 0, "rental_uris": {"android": "https://dc.lft.to/lastmile_qr_scan", "ios": "https://dc.lft.to/lastmile_qr_scan"}, "name": "309bbe508756c9c6cbe712ccf24a850a", "type": "electric_scooter"}, {"fusion_lat": 0.0, "bike_id": "b0248eefa159366a6fdc0c11c89b55c4", "fusion_lon": 0.0, "lon": -77.04048416666667, "lat": 38.9060985, "is_reserved": 0, "is_disabled": 0, "rental_uris": {"android": "https://dc.lft.to/lastmile_qr_scan", "ios": "https://dc.lft.to/lastmile_qr_scan"}, "name": "b0248eefa159366a6fdc0c11c89b55c4", "type": "electric_scooter"}, {"fusion_lat": 0.0, "bike_id": "053e90dcf05be4997d26ecbbb1d8f416", "fusion_lon": 0.0, "lon": -76.94886316666667, "lat": 38.895045833333334, "is_reserved": 0, "is_disabled": 0, "rental_uris": {"android": "https://dc.lft.to/lastmile_qr_scan", "ios": "https://dc.lft.to/lastmile_qr_scan"}, "name": "053e90dcf05be4997d26ecbbb1d8f416", "type": "electric_scooter"}, {"fusion_lat": 0.0, "bike_id": "c6d3efcd0b9dd7e7d3fd1d7cad06ce58", "fusion_lon": 0.0, "lon": -77.0344255, "lat": 38.91021716666667, "is_reserved": 0, "is_disabled": 0, "rental_uris": {"android": "https://dc.lft.to/lastmile_qr_scan", "ios": "https://dc.lft.to/lastmile_qr_scan"}, "name": "c6d3efcd0b9dd7e7d3fd1d7cad06ce58", "type": "electric_scooter"}, {"fusion_lat": 0.0, "bike_id": "e2563c66d7c9db84245dd881681817df", "fusion_lon": 0.0, "lon": -77.0266965, "lat": 38.92820366666667, "is_reserved": 0, "is_disabled": 0, "rental_uris": {"android": "https://dc.lft.to/lastmile_qr_scan", "ios": "https://dc.lft.to/lastmile_qr_scan"}, "name": "e2563c66d7c9db84245dd881681817df", "type": "electric_scooter"}, {"fusion_lat": 0.0, "bike_id": "2d55bf42bc4cbc5db99d8ccb59d5440b", "fusion_lon": 0.0, "lon": -77.03438316666667, "lat": 38.90671, "is_reserved": 0, "is_disabled": 0, "rental_uris": {"android": "https://dc.lft.to/lastmile_qr_scan", "ios": "https://dc.lft.to/lastmile_qr_scan"}, "name": "2d55bf42bc4cbc5db99d8ccb59d5440b", "type": "electric_scooter"}, {"fusion_lat": 0.0, "bike_id": "1d60ae8d13876a9fb677de8a6bdec4eb", "fusion_lon": 0.0, "lon": -77.0265045, "lat": 38.9386345, "is_reserved": 0, "is_disabled": 0, "rental_uris": {"android": "https://dc.lft.to/lastmile_qr_scan", "ios": "https://dc.lft.to/lastmile_qr_scan"}, "name": "1d60ae8d13876a9fb677de8a6bdec4eb", "type": "electric_scooter"}, {"fusion_lat": 0.0, "bike_id": "8a2a44600969697aec99e116a9b5aa81", "fusion_lon": 0.0, "lon": -77.08176683333333, "lat": 38.85558983333333, "is_reserved": 0, "is_disabled": 0, "rental_uris": {"android": "https://dc.lft.to/lastmile_qr_scan", "ios": "https://dc.lft.to/lastmile_qr_scan"}, "name": "8a2a44600969697aec99e116a9b5aa81", "type": "electric_bike"}, {"fusion_lat": 0.0, "bike_id": "18002593abcc6fedc2facb06ecde4243", "fusion_lon": 0.0, "lon": -76.99290366666666, "lat": 38.92102283333333, "is_reserved": 0, "is_disabled": 0, "rental_uris": {"android": "https://dc.lft.to/lastmile_qr_scan", "ios": "https://dc.lft.to/lastmile_qr_scan"}, "name": "18002593abcc6fedc2facb06ecde4243", "type": "electric_scooter"}, {"fusion_lat": 0.0, "bike_id": "fef4b41754e5e941811e847c1cc6994a", "fusion_lon": 0.0, "lon": -77.00136666666667, "lat": 38.873683166666666, "is_reserved": 0, "is_disabled": 0, "rental_uris": {"android": "https://dc.lft.to/lastmile_qr_scan", "ios": "https://dc.lft.to/lastmile_qr_scan"}, "name": "fef4b41754e5e941811e847c1cc6994a", "type": "electric_scooter"}, {"fusion_lat": 0.0, "bike_id": "4173e8ce2908d7413760bf1e4e39e98d", "fusion_lon": 0.0, "lon": -76.99351916666667, "lat": 38.845026833333336, "is_reserved": 0, "is_disabled": 0, "rental_uris": {"android": "https://dc.lft.to/lastmile_qr_scan", "ios": "https://dc.lft.to/lastmile_qr_scan"}, "name": "4173e8ce2908d7413760bf1e4e39e98d", "type": "electric_bike"}, {"fusion_lat": 0.0, "bike_id": "a1578eed871f6ffe7c414023bae65538", "fusion_lon": 0.0, "lon": -77.04012283333333, "lat": 38.90780733333333, "is_reserved": 0, "is_disabled": 0, "rental_uris": {"android": "https://dc.lft.to/lastmile_qr_scan", "ios": "https://dc.lft.to/lastmile_qr_scan"}, "name": "a1578eed871f6ffe7c414023bae65538", "type": "electric_scooter"}, {"fusion_lat": 0.0, "bike_id": "a2a89d07171a0fc5f81d0df6db6c5e23", "fusion_lon": 0.0, "lon": -77.02706933333333, "lat": 38.949873833333335, "is_reserved": 0, "is_disabled": 0, "rental_uris": {"android": "https://dc.lft.to/lastmile_qr_scan", "ios": "https://dc.lft.to/lastmile_qr_scan"}, "name": "a2a89d07171a0fc5f81d0df6db6c5e23", "type": "electric_scooter"}, {"fusion_lat": 0.0, "bike_id": "6c5b3aba2650479adf15e111cf2c1e1c", "fusion_lon": 0.0, "lon": -76.99873733333334, "lat": 38.886383, "is_reserved": 0, "is_disabled": 0, "rental_uris": {"android": "https://dc.lft.to/lastmile_qr_scan", "ios": "https://dc.lft.to/lastmile_qr_scan"}, "name": "6c5b3aba2650479adf15e111cf2c1e1c", "type": "electric_scooter"}, {"fusion_lat": 0.0, "bike_id": "ecbe8db8c9f6b7add3d5f1fc1af56764", "fusion_lon": 0.0, "lon": -77.04262866666667, "lat": 38.909800833333335, "is_reserved": 0, "is_disabled": 0, "rental_uris": {"android": "https://dc.lft.to/lastmile_qr_scan", "ios": "https://dc.lft.to/lastmile_qr_scan"}, "name": "ecbe8db8c9f6b7add3d5f1fc1af56764", "type": "electric_scooter"}, {"fusion_lat": 0.0, "bike_id": "49c4a7bfd458945e06ae1960e6e4b54d", "fusion_lon": 0.0, "lon": -77.037608, "lat": 38.90781366666667, "is_reserved": 0, "is_disabled": 0, "rental_uris": {"android": "https://dc.lft.to/lastmile_qr_scan", "ios": "https://dc.lft.to/lastmile_qr_scan"}, "name": "49c4a7bfd458945e06ae1960e6e4b54d", "type": "electric_scooter"}, {"fusion_lat": 0.0, "bike_id": "3c483aace946fe38e49485a8b846110d", "fusion_lon": 0.0, "lon": -77.0505065, "lat": 38.905156, "is_reserved": 0, "is_disabled": 0, "rental_uris": {"android": "https://dc.lft.to/lastmile_qr_scan", "ios": "https://dc.lft.to/lastmile_qr_scan"}, "name": "3c483aace946fe38e49485a8b846110d", "type": "electric_scooter"}, {"fusion_lat": 0.0, "bike_id": "6fe46d74f19a5acb3751ffb7494a5ed4", "fusion_lon": 0.0, "lon": -76.99569433333333, "lat": 38.851781833333334, "is_reserved": 0, "is_disabled": 0, "rental_uris": {"android": "https://dc.lft.to/lastmile_qr_scan", "ios": "https://dc.lft.to/lastmile_qr_scan"}, "name": "6fe46d74f19a5acb3751ffb7494a5ed4", "type": "electric_bike"}, {"fusion_lat": 0.0, "bike_id": "ac7a9705a98512f29910153521c71004", "fusion_lon": 0.0, "lon": -76.93369416666667, "lat": 38.89913816666667, "is_reserved": 0, "is_disabled": 0, "rental_uris": {"android": "https://dc.lft.to/lastmile_qr_scan", "ios": "https://dc.lft.to/lastmile_qr_scan"}, "name": "ac7a9705a98512f29910153521c71004", "type": "electric_scooter"}, {"fusion_lat": 0.0, "bike_id": "81431f226798e89a8feb4479d82a0eff", "fusion_lon": 0.0, "lon": -76.97482216666667, "lat": 38.903453666666664, "is_reserved": 0, "is_disabled": 0, "rental_uris": {"android": "https://dc.lft.to/lastmile_qr_scan", "ios": "https://dc.lft.to/lastmile_qr_scan"}, "name": "81431f226798e89a8feb4479d82a0eff", "type": "electric_scooter"}, {"fusion_lat": 0.0, "bike_id": "891f75a4f03957c2b168cda9f2104cd7", "fusion_lon": 0.0, "lon": -77.053142, "lat": 38.9154625, "is_reserved": 0, "is_disabled": 0, "rental_uris": {"android": "https://dc.lft.to/lastmile_qr_scan", "ios": "https://dc.lft.to/lastmile_qr_scan"}, "name": "891f75a4f03957c2b168cda9f2104cd7", "type": "electric_scooter"}, {"fusion_lat": 0.0, "bike_id": "93cc9996a1b6d9ed33b42faabe3da6c4", "fusion_lon": 0.0, "lon": -77.0198905, "lat": 38.9156545, "is_reserved": 0, "is_disabled": 0, "rental_uris": {"android": "https://dc.lft.to/lastmile_qr_scan", "ios": "https://dc.lft.to/lastmile_qr_scan"}, "name": "93cc9996a1b6d9ed33b42faabe3da6c4", "type": "electric_scooter"}, {"fusion_lat": 0.0, "bike_id": "bae19a9336e99def44f4296266d9b50c", "fusion_lon": 0.0, "lon": -76.948855, "lat": 38.8942405, "is_reserved": 0, "is_disabled": 0, "rental_uris": {"android": "https://dc.lft.to/lastmile_qr_scan", "ios": "https://dc.lft.to/lastmile_qr_scan"}, "name": "bae19a9336e99def44f4296266d9b50c", "type": "electric_scooter"}, {"fusion_lat": 0.0, "bike_id": "000aaf5bac498367b7fdb6e2685fb315", "fusion_lon": 0.0, "lon": -77.0288875, "lat": 38.93278433333333, "is_reserved": 0, "is_disabled": 0, "rental_uris": {"android": "https://dc.lft.to/lastmile_qr_scan", "ios": "https://dc.lft.to/lastmile_qr_scan"}, "name": "000aaf5bac498367b7fdb6e2685fb315", "type": "electric_scooter"}, {"fusion_lat": 0.0, "bike_id": "dfcbba9e23381199fe82500730ca0ae6", "fusion_lon": 0.0, "lon": -77.005395, "lat": 38.874587, "is_reserved": 0, "is_disabled": 0, "rental_uris": {"android": "https://dc.lft.to/lastmile_qr_scan", "ios": "https://dc.lft.to/lastmile_qr_scan"}, "name": "dfcbba9e23381199fe82500730ca0ae6", "type": "electric_scooter"}, {"fusion_lat": 0.0, "bike_id": "b3bf4b43e6446e71253d673ca3077a4c", "fusion_lon": 0.0, "lon": -77.05333666666667, "lat": 38.906446333333335, "is_reserved": 0, "is_disabled": 0, "rental_uris": {"android": "https://dc.lft.to/lastmile_qr_scan", "ios": "https://dc.lft.to/lastmile_qr_scan"}, "name": "b3bf4b43e6446e71253d673ca3077a4c", "type": "electric_scooter"}, {"fusion_lat": 0.0, "bike_id": "8c98290a3b871d96d979d9500e698ce5", "fusion_lon": 0.0, "lon": -77.0276335, "lat": 38.89710933333333, "is_reserved": 0, "is_disabled": 0, "rental_uris": {"android": "https://dc.lft.to/lastmile_qr_scan", "ios": "https://dc.lft.to/lastmile_qr_scan"}, "name": "8c98290a3b871d96d979d9500e698ce5", "type": "electric_scooter"}, {"fusion_lat": 0.0, "bike_id": "cdfaec6827cf4c8dba4ce3703bcdb405", "fusion_lon": 0.0, "lon": -77.024912, "lat": 38.919512833333336, "is_reserved": 0, "is_disabled": 0, "rental_uris": {"android": "https://dc.lft.to/lastmile_qr_scan", "ios": "https://dc.lft.to/lastmile_qr_scan"}, "name": "cdfaec6827cf4c8dba4ce3703bcdb405", "type": "electric_scooter"}, {"fusion_lat": 0.0, "bike_id": "4a37c1f8815a9f95ea4d8fafb47c4dd6", "fusion_lon": 0.0, "lon": -77.00605666666667, "lat": 38.871794666666666, "is_reserved": 0, "is_disabled": 0, "rental_uris": {"android": "https://dc.lft.to/lastmile_qr_scan", "ios": "https://dc.lft.to/lastmile_qr_scan"}, "name": "4a37c1f8815a9f95ea4d8fafb47c4dd6", "type": "electric_scooter"}, {"fusion_lat": 0.0, "bike_id": "92cbf2791c730b80f8f61a3b6f08511a", "fusion_lon": 0.0, "lon": -77.04169116666667, "lat": 38.90510066666667, "is_reserved": 0, "is_disabled": 0, "rental_uris": {"android": "https://dc.lft.to/lastmile_qr_scan", "ios": "https://dc.lft.to/lastmile_qr_scan"}, "name": "92cbf2791c730b80f8f61a3b6f08511a", "type": "electric_scooter"}, {"fusion_lat": 0.0, "bike_id": "34bf539efdaf90ccd765a291f66697da", "fusion_lon": 0.0, "lon": -77.02097083333334, "lat": 38.931129166666665, "is_reserved": 0, "is_disabled": 0, "rental_uris": {"android": "https://dc.lft.to/lastmile_qr_scan", "ios": "https://dc.lft.to/lastmile_qr_scan"}, "name": "34bf539efdaf90ccd765a291f66697da", "type": "electric_scooter"}, {"fusion_lat": 0.0, "bike_id": "3f5c54d4dcd00cd3723db6fa678ed9db", "fusion_lon": 0.0, "lon": -77.0469625, "lat": 38.921745333333334, "is_reserved": 0, "is_disabled": 0, "rental_uris": {"android": "https://dc.lft.to/lastmile_qr_scan", "ios": "https://dc.lft.to/lastmile_qr_scan"}, "name": "3f5c54d4dcd00cd3723db6fa678ed9db", "type": "electric_scooter"}, {"fusion_lat": 0.0, "bike_id": "8508889daa6fafa007611346af7aeea6", "fusion_lon": 0.0, "lon": -77.03662366666667, "lat": 38.9233605, "is_reserved": 0, "is_disabled": 0, "rental_uris": {"android": "https://dc.lft.to/lastmile_qr_scan", "ios": "https://dc.lft.to/lastmile_qr_scan"}, "name": "8508889daa6fafa007611346af7aeea6", "type": "electric_scooter"}, {"fusion_lat": 0.0, "bike_id": "57edc869abf909732726b33d0c79d019", "fusion_lon": 0.0, "lon": -77.04516583333333, "lat": 38.92318233333334, "is_reserved": 0, "is_disabled": 0, "rental_uris": {"android": "https://dc.lft.to/lastmile_qr_scan", "ios": "https://dc.lft.to/lastmile_qr_scan"}, "name": "57edc869abf909732726b33d0c79d019", "type": "electric_scooter"}, {"fusion_lat": 0.0, "bike_id": "ec236e78031f1317cc839ccdc642737c", "fusion_lon": 0.0, "lon": -77.02657816666667, "lat": 38.9169565, "is_reserved": 0, "is_disabled": 0, "rental_uris": {"android": "https://dc.lft.to/lastmile_qr_scan", "ios": "https://dc.lft.to/lastmile_qr_scan"}, "name": "ec236e78031f1317cc839ccdc642737c", "type": "electric_scooter"}, {"fusion_lat": 0.0, "bike_id": "6486acea68d3d9a1be7499457f298f39", "fusion_lon": 0.0, "lon": -76.99291883333333, "lat": 38.898836333333335, "is_reserved": 0, "is_disabled": 0, "rental_uris": {"android": "https://dc.lft.to/lastmile_qr_scan", "ios": "https://dc.lft.to/lastmile_qr_scan"}, "name": "6486acea68d3d9a1be7499457f298f39", "type": "electric_scooter"}, {"fusion_lat": 0.0, "bike_id": "d18c431d07ec74fce34f5bc2200a0a81", "fusion_lon": 0.0, "lon": -77.032771, "lat": 38.932005333333336, "is_reserved": 0, "is_disabled": 0, "rental_uris": {"android": "https://dc.lft.to/lastmile_qr_scan", "ios": "https://dc.lft.to/lastmile_qr_scan"}, "name": "d18c431d07ec74fce34f5bc2200a0a81", "type": "electric_scooter"}, {"fusion_lat": 0.0, "bike_id": "17310b8d1147d12f21e45c485b175cb7", "fusion_lon": 0.0, "lon": -77.07984266666666, "lat": 38.919479333333335, "is_reserved": 0, "is_disabled": 0, "rental_uris": {"android": "https://dc.lft.to/lastmile_qr_scan", "ios": "https://dc.lft.to/lastmile_qr_scan"}, "name": "17310b8d1147d12f21e45c485b175cb7", "type": "electric_scooter"}, {"fusion_lat": 0.0, "bike_id": "978dad2f486bbc9146013cc9b224e733", "fusion_lon": 0.0, "lon": -77.0347955, "lat": 38.934379666666665, "is_reserved": 0, "is_disabled": 0, "rental_uris": {"android": "https://dc.lft.to/lastmile_qr_scan", "ios": "https://dc.lft.to/lastmile_qr_scan"}, "name": "978dad2f486bbc9146013cc9b224e733", "type": "electric_scooter"}, {"fusion_lat": 0.0, "bike_id": "7ac6e7836ea3825a8c279db89ef0b0c7", "fusion_lon": 0.0, "lon": -77.05909116666666, "lat": 38.90316766666667, "is_reserved": 0, "is_disabled": 0, "rental_uris": {"android": "https://dc.lft.to/lastmile_qr_scan", "ios": "https://dc.lft.to/lastmile_qr_scan"}, "name": "7ac6e7836ea3825a8c279db89ef0b0c7", "type": "electric_scooter"}, {"fusion_lat": 0.0, "bike_id": "7283c3337299d0772308506eec7db5d6", "fusion_lon": 0.0, "lon": -77.03737266666667, "lat": 38.9027615, "is_reserved": 0, "is_disabled": 0, "rental_uris": {"android": "https://dc.lft.to/lastmile_qr_scan", "ios": "https://dc.lft.to/lastmile_qr_scan"}, "name": "7283c3337299d0772308506eec7db5d6", "type": "electric_scooter"}, {"fusion_lat": 0.0, "bike_id": "81a224614024064acff761da9ad203d1", "fusion_lon": 0.0, "lon": -77.03304466666667, "lat": 38.920526833333334, "is_reserved": 0, "is_disabled": 0, "rental_uris": {"android": "https://dc.lft.to/lastmile_qr_scan", "ios": "https://dc.lft.to/lastmile_qr_scan"}, "name": "81a224614024064acff761da9ad203d1", "type": "electric_scooter"}, {"fusion_lat": 0.0, "bike_id": "bd1f85eb455caf30d65b2c360ee27aaf", "fusion_lon": 0.0, "lon": -77.011946, "lat": 38.91195316666666, "is_reserved": 0, "is_disabled": 0, "rental_uris": {"android": "https://dc.lft.to/lastmile_qr_scan", "ios": "https://dc.lft.to/lastmile_qr_scan"}, "name": "bd1f85eb455caf30d65b2c360ee27aaf", "type": "electric_scooter"}, {"fusion_lat": 0.0, "bike_id": "a61b73c30986296f465b08d3fa044c1a", "fusion_lon": 0.0, "lon": -77.022192, "lat": 38.9246905, "is_reserved": 0, "is_disabled": 0, "rental_uris": {"android": "https://dc.lft.to/lastmile_qr_scan", "ios": "https://dc.lft.to/lastmile_qr_scan"}, "name": "a61b73c30986296f465b08d3fa044c1a", "type": "electric_scooter"}, {"fusion_lat": 0.0, "bike_id": "a03f65fcba1550cd8c520c0287d78215", "fusion_lon": 0.0, "lon": -77.04200583333333, "lat": 38.918672, "is_reserved": 0, "is_disabled": 0, "rental_uris": {"android": "https://dc.lft.to/lastmile_qr_scan", "ios": "https://dc.lft.to/lastmile_qr_scan"}, "name": "a03f65fcba1550cd8c520c0287d78215", "type": "electric_scooter"}, {"fusion_lat": 0.0, "bike_id": "c4699e154a678676e8d3bd6a53528f8b", "fusion_lon": 0.0, "lon": -77.031606, "lat": 38.93076283333333, "is_reserved": 0, "is_disabled": 0, "rental_uris": {"android": "https://dc.lft.to/lastmile_qr_scan", "ios": "https://dc.lft.to/lastmile_qr_scan"}, "name": "c4699e154a678676e8d3bd6a53528f8b", "type": "electric_scooter"}, {"fusion_lat": 0.0, "bike_id": "c7ee99e5754b14bc875f61fb7007426b", "fusion_lon": 0.0, "lon": -77.01919666666667, "lat": 38.92361666666667, "is_reserved": 0, "is_disabled": 0, "rental_uris": {"android": "https://dc.lft.to/lastmile_qr_scan", "ios": "https://dc.lft.to/lastmile_qr_scan"}, "name": "c7ee99e5754b14bc875f61fb7007426b", "type": "electric_scooter"}, {"fusion_lat": 0.0, "bike_id": "5ea49a53af442ebc861768de37702d77", "fusion_lon": 0.0, "lon": -77.0344555, "lat": 38.91329283333334, "is_reserved": 0, "is_disabled": 0, "rental_uris": {"android": "https://dc.lft.to/lastmile_qr_scan", "ios": "https://dc.lft.to/lastmile_qr_scan"}, "name": "5ea49a53af442ebc861768de37702d77", "type": "electric_scooter"}, {"fusion_lat": 0.0, "bike_id": "35d4a8e0fa1d3dc458c5b7a78e36ec94", "fusion_lon": 0.0, "lon": -77.06781833333334, "lat": 38.9048975, "is_reserved": 0, "is_disabled": 0, "rental_uris": {"android": "https://dc.lft.to/lastmile_qr_scan", "ios": "https://dc.lft.to/lastmile_qr_scan"}, "name": "35d4a8e0fa1d3dc458c5b7a78e36ec94", "type": "electric_scooter"}, {"fusion_lat": 0.0, "bike_id": "883936c81a9c4ab3fbe0e045e971d6ee", "fusion_lon": 0.0, "lon": -77.02844533333334, "lat": 38.887257166666664, "is_reserved": 0, "is_disabled": 0, "rental_uris": {"android": "https://dc.lft.to/lastmile_qr_scan", "ios": "https://dc.lft.to/lastmile_qr_scan"}, "name": "883936c81a9c4ab3fbe0e045e971d6ee", "type": "electric_scooter"}, {"fusion_lat": 0.0, "bike_id": "f43e928c2856882fa8ccbaa241e24e0b", "fusion_lon": 0.0, "lon": -77.131016, "lat": 39.024285166666665, "is_reserved": 0, "is_disabled": 0, "rental_uris": {"android": "https://dc.lft.to/lastmile_qr_scan", "ios": "https://dc.lft.to/lastmile_qr_scan"}, "name": "f43e928c2856882fa8ccbaa241e24e0b", "type": "electric_bike"}, {"fusion_lat": 0.0, "bike_id": "bac4f8ddd88bbff855794176914ab59a", "fusion_lon": 0.0, "lon": -77.03627266666666, "lat": 38.936734666666666, "is_reserved": 0, "is_disabled": 0, "rental_uris": {"android": "https://dc.lft.to/lastmile_qr_scan", "ios": "https://dc.lft.to/lastmile_qr_scan"}, "name": "bac4f8ddd88bbff855794176914ab59a", "type": "electric_scooter"}, {"fusion_lat": 0.0, "bike_id": "b4feb5a2c3f99e0535bbcbbc29fb0009", "fusion_lon": 0.0, "lon": -76.99145116666666, "lat": 38.8859465, "is_reserved": 0, "is_disabled": 0, "rental_uris": {"android": "https://dc.lft.to/lastmile_qr_scan", "ios": "https://dc.lft.to/lastmile_qr_scan"}, "name": "b4feb5a2c3f99e0535bbcbbc29fb0009", "type": "electric_scooter"}, {"fusion_lat": 0.0, "bike_id": "c6826e349f80286b037b6af41edace29", "fusion_lon": 0.0, "lon": -77.0162685, "lat": 38.90682866666667, "is_reserved": 0, "is_disabled": 0, "rental_uris": {"android": "https://dc.lft.to/lastmile_qr_scan", "ios": "https://dc.lft.to/lastmile_qr_scan"}, "name": "c6826e349f80286b037b6af41edace29", "type": "electric_scooter"}, {"fusion_lat": 0.0, "bike_id": "f86840ff8081b4db1d9b40658f2b3066", "fusion_lon": 0.0, "lon": -77.050457, "lat": 38.92512983333334, "is_reserved": 0, "is_disabled": 0, "rental_uris": {"android": "https://dc.lft.to/lastmile_qr_scan", "ios": "https://dc.lft.to/lastmile_qr_scan"}, "name": "f86840ff8081b4db1d9b40658f2b3066", "type": "electric_scooter"}, {"fusion_lat": 0.0, "bike_id": "3be62d7a6d4162dc9a6b841302d783b8", "fusion_lon": 0.0, "lon": -77.03966466666667, "lat": 38.91626083333333, "is_reserved": 0, "is_disabled": 0, "rental_uris": {"android": "https://dc.lft.to/lastmile_qr_scan", "ios": "https://dc.lft.to/lastmile_qr_scan"}, "name": "3be62d7a6d4162dc9a6b841302d783b8", "type": "electric_scooter"}, {"fusion_lat": 0.0, "bike_id": "75224b86bc4b0fec4fd3b0438135e7fc", "fusion_lon": 0.0, "lon": -76.99890616666667, "lat": 38.95261416666666, "is_reserved": 0, "is_disabled": 0, "rental_uris": {"android": "https://dc.lft.to/lastmile_qr_scan", "ios": "https://dc.lft.to/lastmile_qr_scan"}, "name": "75224b86bc4b0fec4fd3b0438135e7fc", "type": "electric_scooter"}, {"fusion_lat": 0.0, "bike_id": "ade48cc7c13fcd52072850bfbcae5bc7", "fusion_lon": 0.0, "lon": -77.03220116666667, "lat": 38.928936666666665, "is_reserved": 0, "is_disabled": 0, "rental_uris": {"android": "https://dc.lft.to/lastmile_qr_scan", "ios": "https://dc.lft.to/lastmile_qr_scan"}, "name": "ade48cc7c13fcd52072850bfbcae5bc7", "type": "electric_scooter"}, {"fusion_lat": 0.0, "bike_id": "dac9dc88191bb13b4b4c6f77a0df2b73", "fusion_lon": 0.0, "lon": -77.02611266666666, "lat": 38.919113, "is_reserved": 0, "is_disabled": 0, "rental_uris": {"android": "https://dc.lft.to/lastmile_qr_scan", "ios": "https://dc.lft.to/lastmile_qr_scan"}, "name": "dac9dc88191bb13b4b4c6f77a0df2b73", "type": "electric_scooter"}, {"fusion_lat": 0.0, "bike_id": "69cd8faf07a27091fe7ae600b921ae5a", "fusion_lon": 0.0, "lon": -76.99031216666667, "lat": 38.897999, "is_reserved": 0, "is_disabled": 0, "rental_uris": {"android": "https://dc.lft.to/lastmile_qr_scan", "ios": "https://dc.lft.to/lastmile_qr_scan"}, "name": "69cd8faf07a27091fe7ae600b921ae5a", "type": "electric_scooter"}, {"fusion_lat": 0.0, "bike_id": "823147b864cdfb70241bf69f1c2cc5de", "fusion_lon": 0.0, "lon": -77.02798633333333, "lat": 38.942879166666664, "is_reserved": 0, "is_disabled": 0, "rental_uris": {"android": "https://dc.lft.to/lastmile_qr_scan", "ios": "https://dc.lft.to/lastmile_qr_scan"}, "name": "823147b864cdfb70241bf69f1c2cc5de", "type": "electric_scooter"}, {"fusion_lat": 0.0, "bike_id": "2f91d0564a2a806650b68d635195c3cf", "fusion_lon": 0.0, "lon": -77.04258816666666, "lat": 38.921988166666665, "is_reserved": 0, "is_disabled": 0, "rental_uris": {"android": "https://dc.lft.to/lastmile_qr_scan", "ios": "https://dc.lft.to/lastmile_qr_scan"}, "name": "2f91d0564a2a806650b68d635195c3cf", "type": "electric_scooter"}, {"fusion_lat": 0.0, "bike_id": "19dce44ce1a6da393af8e20283c64757", "fusion_lon": 0.0, "lon": -77.04214, "lat": 38.920523833333334, "is_reserved": 0, "is_disabled": 0, "rental_uris": {"android": "https://dc.lft.to/lastmile_qr_scan", "ios": "https://dc.lft.to/lastmile_qr_scan"}, "name": "19dce44ce1a6da393af8e20283c64757", "type": "electric_scooter"}, {"fusion_lat": 0.0, "bike_id": "05f12ac2d3a35b3377e79f2749b2f828", "fusion_lon": 0.0, "lon": -77.03189683333333, "lat": 38.91815966666667, "is_reserved": 0, "is_disabled": 0, "rental_uris": {"android": "https://dc.lft.to/lastmile_qr_scan", "ios": "https://dc.lft.to/lastmile_qr_scan"}, "name": "05f12ac2d3a35b3377e79f2749b2f828", "type": "electric_scooter"}, {"fusion_lat": 0.0, "bike_id": "49949f44ae5ae49ae81f76cb408aabb9", "fusion_lon": 0.0, "lon": -77.032543, "lat": 38.928462, "is_reserved": 0, "is_disabled": 0, "rental_uris": {"android": "https://dc.lft.to/lastmile_qr_scan", "ios": "https://dc.lft.to/lastmile_qr_scan"}, "name": "49949f44ae5ae49ae81f76cb408aabb9", "type": "electric_scooter"}, {"fusion_lat": 0.0, "bike_id": "9eb57fa1804d1da83197aa72d020ed46", "fusion_lon": 0.0, "lon": -77.00921266666667, "lat": 38.922445333333336, "is_reserved": 0, "is_disabled": 0, "rental_uris": {"android": "https://dc.lft.to/lastmile_qr_scan", "ios": "https://dc.lft.to/lastmile_qr_scan"}, "name": "9eb57fa1804d1da83197aa72d020ed46", "type": "electric_scooter"}, {"fusion_lat": 0.0, "bike_id": "0c02fc0531592b7dd90ca9cae8106f57", "fusion_lon": 0.0, "lon": -76.98815016666667, "lat": 38.87930566666667, "is_reserved": 0, "is_disabled": 0, "rental_uris": {"android": "https://dc.lft.to/lastmile_qr_scan", "ios": "https://dc.lft.to/lastmile_qr_scan"}, "name": "0c02fc0531592b7dd90ca9cae8106f57", "type": "electric_scooter"}, {"fusion_lat": 0.0, "bike_id": "431f0fb932a4a35fd33bab87fa90c126", "fusion_lon": 0.0, "lon": -77.00609916666667, "lat": 38.87299083333333, "is_reserved": 0, "is_disabled": 0, "rental_uris": {"android": "https://dc.lft.to/lastmile_qr_scan", "ios": "https://dc.lft.to/lastmile_qr_scan"}, "name": "431f0fb932a4a35fd33bab87fa90c126", "type": "electric_scooter"}, {"fusion_lat": 0.0, "bike_id": "7b24b793590fe083165d4a13500fc9b2", "fusion_lon": 0.0, "lon": -77.0209715, "lat": 38.9271275, "is_reserved": 0, "is_disabled": 0, "rental_uris": {"android": "https://dc.lft.to/lastmile_qr_scan", "ios": "https://dc.lft.to/lastmile_qr_scan"}, "name": "7b24b793590fe083165d4a13500fc9b2", "type": "electric_scooter"}, {"fusion_lat": 0.0, "bike_id": "ced54c0959ccd66c57dfe850d236452f", "fusion_lon": 0.0, "lon": -77.067694, "lat": 38.906868, "is_reserved": 0, "is_disabled": 0, "rental_uris": {"android": "https://dc.lft.to/lastmile_qr_scan", "ios": "https://dc.lft.to/lastmile_qr_scan"}, "name": "ced54c0959ccd66c57dfe850d236452f", "type": "electric_scooter"}, {"fusion_lat": 0.0, "bike_id": "33a09ffb19ad9ac1bdebde65a81120f0", "fusion_lon": 0.0, "lon": -77.04158983333333, "lat": 38.914142166666664, "is_reserved": 0, "is_disabled": 0, "rental_uris": {"android": "https://dc.lft.to/lastmile_qr_scan", "ios": "https://dc.lft.to/lastmile_qr_scan"}, "name": "33a09ffb19ad9ac1bdebde65a81120f0", "type": "electric_scooter"}, {"fusion_lat": 0.0, "bike_id": "ec99fd3f505978afb3ee950dd2886b60", "fusion_lon": 0.0, "lon": -77.0515115, "lat": 38.905736833333336, "is_reserved": 0, "is_disabled": 0, "rental_uris": {"android": "https://dc.lft.to/lastmile_qr_scan", "ios": "https://dc.lft.to/lastmile_qr_scan"}, "name": "ec99fd3f505978afb3ee950dd2886b60", "type": "electric_scooter"}, {"fusion_lat": 0.0, "bike_id": "82c4d08ec8f7835a786d43fc7c568668", "fusion_lon": 0.0, "lon": -77.094953, "lat": 38.80758633333333, "is_reserved": 0, "is_disabled": 0, "rental_uris": {"android": "https://dc.lft.to/lastmile_qr_scan", "ios": "https://dc.lft.to/lastmile_qr_scan"}, "name": "82c4d08ec8f7835a786d43fc7c568668", "type": "electric_bike"}, {"fusion_lat": 0.0, "bike_id": "4858e1a99136aaa00edce4131b0e6d05", "fusion_lon": 0.0, "lon": -77.03209983333333, "lat": 38.908283833333336, "is_reserved": 0, "is_disabled": 0, "rental_uris": {"android": "https://dc.lft.to/lastmile_qr_scan", "ios": "https://dc.lft.to/lastmile_qr_scan"}, "name": "4858e1a99136aaa00edce4131b0e6d05", "type": "electric_scooter"}, {"fusion_lat": 0.0, "bike_id": "c35f4c028ac1ddfb337c47dc685ba36a", "fusion_lon": 0.0, "lon": -77.034398, "lat": 38.918047333333334, "is_reserved": 0, "is_disabled": 0, "rental_uris": {"android": "https://dc.lft.to/lastmile_qr_scan", "ios": "https://dc.lft.to/lastmile_qr_scan"}, "name": "c35f4c028ac1ddfb337c47dc685ba36a", "type": "electric_scooter"}, {"fusion_lat": 0.0, "bike_id": "9d87e42be79f32a618ce45e1b37bd7f6", "fusion_lon": 0.0, "lon": -77.046747, "lat": 38.8955425, "is_reserved": 0, "is_disabled": 0, "rental_uris": {"android": "https://dc.lft.to/lastmile_qr_scan", "ios": "https://dc.lft.to/lastmile_qr_scan"}, "name": "9d87e42be79f32a618ce45e1b37bd7f6", "type": "electric_scooter"}, {"fusion_lat": 0.0, "bike_id": "21c4c34bcd9036b1f2cbbd9b788f34b9", "fusion_lon": 0.0, "lon": -77.072912, "lat": 38.93095066666667, "is_reserved": 0, "is_disabled": 0, "rental_uris": {"android": "https://dc.lft.to/lastmile_qr_scan", "ios": "https://dc.lft.to/lastmile_qr_scan"}, "name": "21c4c34bcd9036b1f2cbbd9b788f34b9", "type": "electric_scooter"}, {"fusion_lat": 0.0, "bike_id": "a50a5f12d55d64fc900c99c158e37517", "fusion_lon": 0.0, "lon": -77.03106633333333, "lat": 38.93238933333333, "is_reserved": 0, "is_disabled": 0, "rental_uris": {"android": "https://dc.lft.to/lastmile_qr_scan", "ios": "https://dc.lft.to/lastmile_qr_scan"}, "name": "a50a5f12d55d64fc900c99c158e37517", "type": "electric_scooter"}, {"fusion_lat": 0.0, "bike_id": "1a49acc5043b0b4364f7742ab5ed1a8c", "fusion_lon": 0.0, "lon": -77.0500145, "lat": 38.892307333333335, "is_reserved": 0, "is_disabled": 0, "rental_uris": {"android": "https://dc.lft.to/lastmile_qr_scan", "ios": "https://dc.lft.to/lastmile_qr_scan"}, "name": "1a49acc5043b0b4364f7742ab5ed1a8c", "type": "electric_scooter"}, {"fusion_lat": 0.0, "bike_id": "c09f8d0086dfba7a7fbc583b6c796403", "fusion_lon": 0.0, "lon": -77.0318825, "lat": 38.894284, "is_reserved": 0, "is_disabled": 0, "rental_uris": {"android": "https://dc.lft.to/lastmile_qr_scan", "ios": "https://dc.lft.to/lastmile_qr_scan"}, "name": "c09f8d0086dfba7a7fbc583b6c796403", "type": "electric_scooter"}, {"fusion_lat": 0.0, "bike_id": "0a498636bcc8437b010998f71a5406a8", "fusion_lon": 0.0, "lon": -77.0336825, "lat": 38.92803383333333, "is_reserved": 0, "is_disabled": 0, "rental_uris": {"android": "https://dc.lft.to/lastmile_qr_scan", "ios": "https://dc.lft.to/lastmile_qr_scan"}, "name": "0a498636bcc8437b010998f71a5406a8", "type": "electric_scooter"}, {"fusion_lat": 0.0, "bike_id": "7c7799a21fb98a32b391186c7b30369d", "fusion_lon": 0.0, "lon": -77.07861783333334, "lat": 38.92462183333333, "is_reserved": 0, "is_disabled": 0, "rental_uris": {"android": "https://dc.lft.to/lastmile_qr_scan", "ios": "https://dc.lft.to/lastmile_qr_scan"}, "name": "7c7799a21fb98a32b391186c7b30369d", "type": "electric_scooter"}, {"fusion_lat": 0.0, "bike_id": "77446751976562e684d4c6c27aeebdb4", "fusion_lon": 0.0, "lon": -77.044256, "lat": 38.921258333333334, "is_reserved": 0, "is_disabled": 0, "rental_uris": {"android": "https://dc.lft.to/lastmile_qr_scan", "ios": "https://dc.lft.to/lastmile_qr_scan"}, "name": "77446751976562e684d4c6c27aeebdb4", "type": "electric_scooter"}, {"fusion_lat": 0.0, "bike_id": "c94fff2dec90108ca6b889dd5d32da3a", "fusion_lon": 0.0, "lon": -77.0459455, "lat": 38.9094685, "is_reserved": 0, "is_disabled": 0, "rental_uris": {"android": "https://dc.lft.to/lastmile_qr_scan", "ios": "https://dc.lft.to/lastmile_qr_scan"}, "name": "c94fff2dec90108ca6b889dd5d32da3a", "type": "electric_scooter"}, {"fusion_lat": 0.0, "bike_id": "cc7aea1167947f866860f6aa3a409dc9", "fusion_lon": 0.0, "lon": -76.93149016666666, "lat": 38.878397, "is_reserved": 0, "is_disabled": 0, "rental_uris": {"android": "https://dc.lft.to/lastmile_qr_scan", "ios": "https://dc.lft.to/lastmile_qr_scan"}, "name": "cc7aea1167947f866860f6aa3a409dc9", "type": "electric_scooter"}, {"fusion_lat": 0.0, "bike_id": "ad55d5cfa602f366e5ddd333c2cf9936", "fusion_lon": 0.0, "lon": -77.01630733333333, "lat": 38.9289815, "is_reserved": 0, "is_disabled": 0, "rental_uris": {"android": "https://dc.lft.to/lastmile_qr_scan", "ios": "https://dc.lft.to/lastmile_qr_scan"}, "name": "ad55d5cfa602f366e5ddd333c2cf9936", "type": "electric_scooter"}, {"fusion_lat": 0.0, "bike_id": "ec5a9f8605d867d3de724929535e4cad", "fusion_lon": 0.0, "lon": -77.003437, "lat": 38.903601333333334, "is_reserved": 0, "is_disabled": 0, "rental_uris": {"android": "https://dc.lft.to/lastmile_qr_scan", "ios": "https://dc.lft.to/lastmile_qr_scan"}, "name": "ec5a9f8605d867d3de724929535e4cad", "type": "electric_scooter"}, {"fusion_lat": 0.0, "bike_id": "504828e0833d93f441cfc48c6c457a93", "fusion_lon": 0.0, "lon": -77.030747, "lat": 38.91706283333333, "is_reserved": 0, "is_disabled": 0, "rental_uris": {"android": "https://dc.lft.to/lastmile_qr_scan", "ios": "https://dc.lft.to/lastmile_qr_scan"}, "name": "504828e0833d93f441cfc48c6c457a93", "type": "electric_scooter"}, {"fusion_lat": 0.0, "bike_id": "093ddd7e9188a2d5511988c8619cee36", "fusion_lon": 0.0, "lon": -77.00780183333333, "lat": 38.9148375, "is_reserved": 0, "is_disabled": 0, "rental_uris": {"android": "https://dc.lft.to/lastmile_qr_scan", "ios": "https://dc.lft.to/lastmile_qr_scan"}, "name": "093ddd7e9188a2d5511988c8619cee36", "type": "electric_scooter"}, {"fusion_lat": 0.0, "bike_id": "06383c2a2dabec26edd22b252dd6f6ed", "fusion_lon": 0.0, "lon": -76.985031, "lat": 38.866659166666665, "is_reserved": 0, "is_disabled": 0, "rental_uris": {"android": "https://dc.lft.to/lastmile_qr_scan", "ios": "https://dc.lft.to/lastmile_qr_scan"}, "name": "06383c2a2dabec26edd22b252dd6f6ed", "type": "electric_scooter"}, {"fusion_lat": 0.0, "bike_id": "1607fb6bde4a3440992b6529cdfd056c", "fusion_lon": 0.0, "lon": -77.031907, "lat": 38.916252, "is_reserved": 0, "is_disabled": 0, "rental_uris": {"android": "https://dc.lft.to/lastmile_qr_scan", "ios": "https://dc.lft.to/lastmile_qr_scan"}, "name": "1607fb6bde4a3440992b6529cdfd056c", "type": "electric_scooter"}, {"fusion_lat": 0.0, "bike_id": "560c1e4ebc9020c94e5db7791d9f5200", "fusion_lon": 0.0, "lon": -77.034049, "lat": 38.93458783333333, "is_reserved": 0, "is_disabled": 0, "rental_uris": {"android": "https://dc.lft.to/lastmile_qr_scan", "ios": "https://dc.lft.to/lastmile_qr_scan"}, "name": "560c1e4ebc9020c94e5db7791d9f5200", "type": "electric_scooter"}, {"fusion_lat": 0.0, "bike_id": "5e7e98ab82af3c22f08958c0a9631665", "fusion_lon": 0.0, "lon": -77.03227033333333, "lat": 38.89231816666667, "is_reserved": 0, "is_disabled": 0, "rental_uris": {"android": "https://dc.lft.to/lastmile_qr_scan", "ios": "https://dc.lft.to/lastmile_qr_scan"}, "name": "5e7e98ab82af3c22f08958c0a9631665", "type": "electric_scooter"}, {"fusion_lat": 0.0, "bike_id": "aa4118c2252800a93ea39195e1ffb9f3", "fusion_lon": 0.0, "lon": -76.985591, "lat": 38.90909833333333, "is_reserved": 0, "is_disabled": 0, "rental_uris": {"android": "https://dc.lft.to/lastmile_qr_scan", "ios": "https://dc.lft.to/lastmile_qr_scan"}, "name": "aa4118c2252800a93ea39195e1ffb9f3", "type": "electric_scooter"}, {"fusion_lat": 0.0, "bike_id": "56ab177d0bcff1c6bbb71e1f0a3cd27b", "fusion_lon": 0.0, "lon": -77.057652, "lat": 38.9337935, "is_reserved": 0, "is_disabled": 0, "rental_uris": {"android": "https://dc.lft.to/lastmile_qr_scan", "ios": "https://dc.lft.to/lastmile_qr_scan"}, "name": "56ab177d0bcff1c6bbb71e1f0a3cd27b", "type": "electric_bike"}, {"fusion_lat": 0.0, "bike_id": "c97feb07ca8e18f415b4a1455dde6f66", "fusion_lon": 0.0, "lon": -76.99505833333333, "lat": 38.882807666666665, "is_reserved": 0, "is_disabled": 0, "rental_uris": {"android": "https://dc.lft.to/lastmile_qr_scan", "ios": "https://dc.lft.to/lastmile_qr_scan"}, "name": "c97feb07ca8e18f415b4a1455dde6f66", "type": "electric_scooter"}, {"fusion_lat": 0.0, "bike_id": "6fafd5410354b91fc3535fc0dce2b630", "fusion_lon": 0.0, "lon": -76.97339433333333, "lat": 38.86516733333333, "is_reserved": 0, "is_disabled": 0, "rental_uris": {"android": "https://dc.lft.to/lastmile_qr_scan", "ios": "https://dc.lft.to/lastmile_qr_scan"}, "name": "6fafd5410354b91fc3535fc0dce2b630", "type": "electric_bike"}, {"fusion_lat": 0.0, "bike_id": "8d0981dbb4bac5cee33d006c60c139a7", "fusion_lon": 0.0, "lon": -76.986711, "lat": 38.899653666666666, "is_reserved": 0, "is_disabled": 0, "rental_uris": {"android": "https://dc.lft.to/lastmile_qr_scan", "ios": "https://dc.lft.to/lastmile_qr_scan"}, "name": "8d0981dbb4bac5cee33d006c60c139a7", "type": "electric_bike"}, {"fusion_lat": 0.0, "bike_id": "90e92e386f001a0ad098e21cc66720c9", "fusion_lon": 0.0, "lon": -77.04332633333334, "lat": 38.913303, "is_reserved": 0, "is_disabled": 0, "rental_uris": {"android": "https://dc.lft.to/lastmile_qr_scan", "ios": "https://dc.lft.to/lastmile_qr_scan"}, "name": "90e92e386f001a0ad098e21cc66720c9", "type": "electric_scooter"}, {"fusion_lat": 0.0, "bike_id": "b1e0f317528e7060398d5c4c5a79cf85", "fusion_lon": 0.0, "lon": -77.00044933333334, "lat": 38.874190166666665, "is_reserved": 0, "is_disabled": 0, "rental_uris": {"android": "https://dc.lft.to/lastmile_qr_scan", "ios": "https://dc.lft.to/lastmile_qr_scan"}, "name": "b1e0f317528e7060398d5c4c5a79cf85", "type": "electric_scooter"}, {"fusion_lat": 0.0, "bike_id": "73ba31a1d8b5b48fb8bc66907f720a5d", "fusion_lon": 0.0, "lon": -76.9970395, "lat": 38.908306, "is_reserved": 0, "is_disabled": 0, "rental_uris": {"android": "https://dc.lft.to/lastmile_qr_scan", "ios": "https://dc.lft.to/lastmile_qr_scan"}, "name": "73ba31a1d8b5b48fb8bc66907f720a5d", "type": "electric_scooter"}, {"fusion_lat": 0.0, "bike_id": "7c442fee2cfa2ac5d113fb0b8028ce94", "fusion_lon": 0.0, "lon": -77.04673383333333, "lat": 38.89811316666667, "is_reserved": 0, "is_disabled": 0, "rental_uris": {"android": "https://dc.lft.to/lastmile_qr_scan", "ios": "https://dc.lft.to/lastmile_qr_scan"}, "name": "7c442fee2cfa2ac5d113fb0b8028ce94", "type": "electric_scooter"}, {"fusion_lat": 0.0, "bike_id": "098d3284540d50e6753f14a18263e00b", "fusion_lon": 0.0, "lon": -77.03223716666666, "lat": 38.90865933333333, "is_reserved": 0, "is_disabled": 0, "rental_uris": {"android": "https://dc.lft.to/lastmile_qr_scan", "ios": "https://dc.lft.to/lastmile_qr_scan"}, "name": "098d3284540d50e6753f14a18263e00b", "type": "electric_scooter"}, {"fusion_lat": 0.0, "bike_id": "b6ff56e37d716000a9a4a10614e92423", "fusion_lon": 0.0, "lon": -77.03219266666666, "lat": 38.92490016666667, "is_reserved": 0, "is_disabled": 0, "rental_uris": {"android": "https://dc.lft.to/lastmile_qr_scan", "ios": "https://dc.lft.to/lastmile_qr_scan"}, "name": "b6ff56e37d716000a9a4a10614e92423", "type": "electric_scooter"}, {"fusion_lat": 0.0, "bike_id": "4d99537df5df35cc055c8d3261dca399", "fusion_lon": 0.0, "lon": -77.02570366666667, "lat": 38.91487466666667, "is_reserved": 0, "is_disabled": 0, "rental_uris": {"android": "https://dc.lft.to/lastmile_qr_scan", "ios": "https://dc.lft.to/lastmile_qr_scan"}, "name": "4d99537df5df35cc055c8d3261dca399", "type": "electric_scooter"}, {"fusion_lat": 0.0, "bike_id": "43cc0b26ce5d292e92c0864d4a320212", "fusion_lon": 0.0, "lon": -76.97811783333333, "lat": 38.906381833333334, "is_reserved": 0, "is_disabled": 0, "rental_uris": {"android": "https://dc.lft.to/lastmile_qr_scan", "ios": "https://dc.lft.to/lastmile_qr_scan"}, "name": "43cc0b26ce5d292e92c0864d4a320212", "type": "electric_scooter"}, {"fusion_lat": 0.0, "bike_id": "ca2fddec37bde8e4020f9b5ed89de971", "fusion_lon": 0.0, "lon": -77.071181, "lat": 38.9196435, "is_reserved": 0, "is_disabled": 0, "rental_uris": {"android": "https://dc.lft.to/lastmile_qr_scan", "ios": "https://dc.lft.to/lastmile_qr_scan"}, "name": "ca2fddec37bde8e4020f9b5ed89de971", "type": "electric_scooter"}, {"fusion_lat": 0.0, "bike_id": "e273216e1c5a4dcffae7d77525f185d7", "fusion_lon": 0.0, "lon": -77.00764916666667, "lat": 38.87608383333333, "is_reserved": 0, "is_disabled": 0, "rental_uris": {"android": "https://dc.lft.to/lastmile_qr_scan", "ios": "https://dc.lft.to/lastmile_qr_scan"}, "name": "e273216e1c5a4dcffae7d77525f185d7", "type": "electric_bike"}, {"fusion_lat": 0.0, "bike_id": "c0f791e6c8ae6b8ea52742f20104518b", "fusion_lon": 0.0, "lon": -77.02804333333333, "lat": 38.89817983333333, "is_reserved": 0, "is_disabled": 0, "rental_uris": {"android": "https://dc.lft.to/lastmile_qr_scan", "ios": "https://dc.lft.to/lastmile_qr_scan"}, "name": "c0f791e6c8ae6b8ea52742f20104518b", "type": "electric_scooter"}, {"fusion_lat": 0.0, "bike_id": "488cb523066f6800a67780cd521db898", "fusion_lon": 0.0, "lon": -77.037151, "lat": 38.930613, "is_reserved": 0, "is_disabled": 0, "rental_uris": {"android": "https://dc.lft.to/lastmile_qr_scan", "ios": "https://dc.lft.to/lastmile_qr_scan"}, "name": "488cb523066f6800a67780cd521db898", "type": "electric_scooter"}, {"fusion_lat": 0.0, "bike_id": "6b4b061fb9bde360a809188e0f56a882", "fusion_lon": 0.0, "lon": -77.04032233333334, "lat": 38.8979355, "is_reserved": 0, "is_disabled": 0, "rental_uris": {"android": "https://dc.lft.to/lastmile_qr_scan", "ios": "https://dc.lft.to/lastmile_qr_scan"}, "name": "6b4b061fb9bde360a809188e0f56a882", "type": "electric_scooter"}, {"fusion_lat": 0.0, "bike_id": "cb3a0092cd139dbcb9a18df7fe4cd201", "fusion_lon": 0.0, "lon": -76.9912055, "lat": 38.90129866666667, "is_reserved": 0, "is_disabled": 0, "rental_uris": {"android": "https://dc.lft.to/lastmile_qr_scan", "ios": "https://dc.lft.to/lastmile_qr_scan"}, "name": "cb3a0092cd139dbcb9a18df7fe4cd201", "type": "electric_scooter"}, {"fusion_lat": 0.0, "bike_id": "e3d38705dddc035a3aa2200731c6443b", "fusion_lon": 0.0, "lon": -77.021407, "lat": 38.915549, "is_reserved": 0, "is_disabled": 0, "rental_uris": {"android": "https://dc.lft.to/lastmile_qr_scan", "ios": "https://dc.lft.to/lastmile_qr_scan"}, "name": "e3d38705dddc035a3aa2200731c6443b", "type": "electric_scooter"}, {"fusion_lat": 0.0, "bike_id": "f018870dd785adf88bf247422a49c5bb", "fusion_lon": 0.0, "lon": -77.052373, "lat": 38.925440333333334, "is_reserved": 0, "is_disabled": 0, "rental_uris": {"android": "https://dc.lft.to/lastmile_qr_scan", "ios": "https://dc.lft.to/lastmile_qr_scan"}, "name": "f018870dd785adf88bf247422a49c5bb", "type": "electric_scooter"}, {"fusion_lat": 0.0, "bike_id": "71a86030ebf41af045ddbff8e2718c04", "fusion_lon": 0.0, "lon": -77.02514, "lat": 38.926360833333334, "is_reserved": 0, "is_disabled": 0, "rental_uris": {"android": "https://dc.lft.to/lastmile_qr_scan", "ios": "https://dc.lft.to/lastmile_qr_scan"}, "name": "71a86030ebf41af045ddbff8e2718c04", "type": "electric_scooter"}, {"fusion_lat": 0.0, "bike_id": "8d5a6fce42ef7c585253e421e30e4bae", "fusion_lon": 0.0, "lon": -77.03274016666667, "lat": 38.892189333333334, "is_reserved": 0, "is_disabled": 0, "rental_uris": {"android": "https://dc.lft.to/lastmile_qr_scan", "ios": "https://dc.lft.to/lastmile_qr_scan"}, "name": "8d5a6fce42ef7c585253e421e30e4bae", "type": "electric_scooter"}, {"fusion_lat": 0.0, "bike_id": "db4e7ac79e0218d2cfa7eed5f4a83d28", "fusion_lon": 0.0, "lon": -77.02968416666667, "lat": 38.90556633333333, "is_reserved": 0, "is_disabled": 0, "rental_uris": {"android": "https://dc.lft.to/lastmile_qr_scan", "ios": "https://dc.lft.to/lastmile_qr_scan"}, "name": "db4e7ac79e0218d2cfa7eed5f4a83d28", "type": "electric_scooter"}, {"fusion_lat": 0.0, "bike_id": "b6d12572e5b01c2041fae6c06ebc196d", "fusion_lon": 0.0, "lon": -76.89538533333334, "lat": 38.94545216666667, "is_reserved": 0, "is_disabled": 0, "rental_uris": {"android": "https://dc.lft.to/lastmile_qr_scan", "ios": "https://dc.lft.to/lastmile_qr_scan"}, "name": "b6d12572e5b01c2041fae6c06ebc196d", "type": "electric_bike"}, {"fusion_lat": 0.0, "bike_id": "da75e46fbb94cb759dca6f992936f799", "fusion_lon": 0.0, "lon": -77.02563066666667, "lat": 38.94166533333333, "is_reserved": 0, "is_disabled": 0, "rental_uris": {"android": "https://dc.lft.to/lastmile_qr_scan", "ios": "https://dc.lft.to/lastmile_qr_scan"}, "name": "da75e46fbb94cb759dca6f992936f799", "type": "electric_scooter"}, {"fusion_lat": 0.0, "bike_id": "f137865cb8ccba7f8d301a2e7f285c27", "fusion_lon": 0.0, "lon": -77.04389133333333, "lat": 38.92109983333334, "is_reserved": 0, "is_disabled": 0, "rental_uris": {"android": "https://dc.lft.to/lastmile_qr_scan", "ios": "https://dc.lft.to/lastmile_qr_scan"}, "name": "f137865cb8ccba7f8d301a2e7f285c27", "type": "electric_scooter"}, {"fusion_lat": 0.0, "bike_id": "9330dc59f23f8f205edc769fac69689d", "fusion_lon": 0.0, "lon": -76.97731483333334, "lat": 38.87241616666667, "is_reserved": 0, "is_disabled": 0, "rental_uris": {"android": "https://dc.lft.to/lastmile_qr_scan", "ios": "https://dc.lft.to/lastmile_qr_scan"}, "name": "9330dc59f23f8f205edc769fac69689d", "type": "electric_scooter"}, {"fusion_lat": 0.0, "bike_id": "b4f01a78bcc25f4838a5acaaf2ada68b", "fusion_lon": 0.0, "lon": -77.0238615, "lat": 38.892332, "is_reserved": 0, "is_disabled": 0, "rental_uris": {"android": "https://dc.lft.to/lastmile_qr_scan", "ios": "https://dc.lft.to/lastmile_qr_scan"}, "name": "b4f01a78bcc25f4838a5acaaf2ada68b", "type": "electric_scooter"}, {"fusion_lat": 0.0, "bike_id": "3e799903748515761ea55774f8d8fb77", "fusion_lon": 0.0, "lon": -77.038413, "lat": 38.917564666666664, "is_reserved": 0, "is_disabled": 0, "rental_uris": {"android": "https://dc.lft.to/lastmile_qr_scan", "ios": "https://dc.lft.to/lastmile_qr_scan"}, "name": "3e799903748515761ea55774f8d8fb77", "type": "electric_scooter"}, {"fusion_lat": 0.0, "bike_id": "5444916939a848e6d5927d7385d07c42", "fusion_lon": 0.0, "lon": -77.00575966666666, "lat": 38.87545016666667, "is_reserved": 0, "is_disabled": 0, "rental_uris": {"android": "https://dc.lft.to/lastmile_qr_scan", "ios": "https://dc.lft.to/lastmile_qr_scan"}, "name": "5444916939a848e6d5927d7385d07c42", "type": "electric_scooter"}, {"fusion_lat": 0.0, "bike_id": "8a5e9d03da9c68aa371c51f068d80c01", "fusion_lon": 0.0, "lon": -77.0267565, "lat": 38.9268075, "is_reserved": 0, "is_disabled": 0, "rental_uris": {"android": "https://dc.lft.to/lastmile_qr_scan", "ios": "https://dc.lft.to/lastmile_qr_scan"}, "name": "8a5e9d03da9c68aa371c51f068d80c01", "type": "electric_scooter"}, {"fusion_lat": 0.0, "bike_id": "4980fed47dc31eafaa5d958578d713ad", "fusion_lon": 0.0, "lon": -77.032132, "lat": 38.9124465, "is_reserved": 0, "is_disabled": 0, "rental_uris": {"android": "https://dc.lft.to/lastmile_qr_scan", "ios": "https://dc.lft.to/lastmile_qr_scan"}, "name": "4980fed47dc31eafaa5d958578d713ad", "type": "electric_scooter"}, {"fusion_lat": 0.0, "bike_id": "b3c0b006f8eddad7a600a2903944e70d", "fusion_lon": 0.0, "lon": -77.04505733333333, "lat": 38.892193666666664, "is_reserved": 0, "is_disabled": 0, "rental_uris": {"android": "https://dc.lft.to/lastmile_qr_scan", "ios": "https://dc.lft.to/lastmile_qr_scan"}, "name": "b3c0b006f8eddad7a600a2903944e70d", "type": "electric_scooter"}, {"fusion_lat": 0.0, "bike_id": "c2434d7217791484c4da803c94df5b2e", "fusion_lon": 0.0, "lon": -77.01887083333334, "lat": 38.930924166666664, "is_reserved": 0, "is_disabled": 0, "rental_uris": {"android": "https://dc.lft.to/lastmile_qr_scan", "ios": "https://dc.lft.to/lastmile_qr_scan"}, "name": "c2434d7217791484c4da803c94df5b2e", "type": "electric_scooter"}, {"fusion_lat": 0.0, "bike_id": "cf42949ebfb70955d68367921e1cd216", "fusion_lon": 0.0, "lon": -76.92943, "lat": 38.884438833333334, "is_reserved": 0, "is_disabled": 0, "rental_uris": {"android": "https://dc.lft.to/lastmile_qr_scan", "ios": "https://dc.lft.to/lastmile_qr_scan"}, "name": "cf42949ebfb70955d68367921e1cd216", "type": "electric_scooter"}, {"fusion_lat": 0.0, "bike_id": "fd359e3453ca063d3dfc9cc6ea54d6f1", "fusion_lon": 0.0, "lon": -77.02459583333334, "lat": 38.91404966666666, "is_reserved": 0, "is_disabled": 0, "rental_uris": {"android": "https://dc.lft.to/lastmile_qr_scan", "ios": "https://dc.lft.to/lastmile_qr_scan"}, "name": "fd359e3453ca063d3dfc9cc6ea54d6f1", "type": "electric_scooter"}, {"fusion_lat": 0.0, "bike_id": "97f8c74b00f16053540ae7f60c3fd2c0", "fusion_lon": 0.0, "lon": -77.02421333333334, "lat": 38.903475666666665, "is_reserved": 0, "is_disabled": 0, "rental_uris": {"android": "https://dc.lft.to/lastmile_qr_scan", "ios": "https://dc.lft.to/lastmile_qr_scan"}, "name": "97f8c74b00f16053540ae7f60c3fd2c0", "type": "electric_scooter"}, {"fusion_lat": 0.0, "bike_id": "62a0f75bfc4fa1e4106b67eadf8e356e", "fusion_lon": 0.0, "lon": -77.04417683333334, "lat": 38.897329166666665, "is_reserved": 0, "is_disabled": 0, "rental_uris": {"android": "https://dc.lft.to/lastmile_qr_scan", "ios": "https://dc.lft.to/lastmile_qr_scan"}, "name": "62a0f75bfc4fa1e4106b67eadf8e356e", "type": "electric_scooter"}, {"fusion_lat": 0.0, "bike_id": "eb85d120b7b9327a42965d90452e263d", "fusion_lon": 0.0, "lon": -77.04336166666667, "lat": 38.892207, "is_reserved": 0, "is_disabled": 0, "rental_uris": {"android": "https://dc.lft.to/lastmile_qr_scan", "ios": "https://dc.lft.to/lastmile_qr_scan"}, "name": "eb85d120b7b9327a42965d90452e263d", "type": "electric_scooter"}, {"fusion_lat": 0.0, "bike_id": "70ee5a37e1e5c38a942257ddcefce1af", "fusion_lon": 0.0, "lon": -77.025907, "lat": 38.89606416666667, "is_reserved": 0, "is_disabled": 0, "rental_uris": {"android": "https://dc.lft.to/lastmile_qr_scan", "ios": "https://dc.lft.to/lastmile_qr_scan"}, "name": "70ee5a37e1e5c38a942257ddcefce1af", "type": "electric_scooter"}, {"fusion_lat": 0.0, "bike_id": "6265263ab6ac4b13234745ae5632ed42", "fusion_lon": 0.0, "lon": -77.04553183333333, "lat": 38.91941683333334, "is_reserved": 0, "is_disabled": 0, "rental_uris": {"android": "https://dc.lft.to/lastmile_qr_scan", "ios": "https://dc.lft.to/lastmile_qr_scan"}, "name": "6265263ab6ac4b13234745ae5632ed42", "type": "electric_scooter"}, {"fusion_lat": 0.0, "bike_id": "a56ae27538265c79cdaf04f97e47d1e5", "fusion_lon": 0.0, "lon": -77.04281566666667, "lat": 38.8998395, "is_reserved": 0, "is_disabled": 0, "rental_uris": {"android": "https://dc.lft.to/lastmile_qr_scan", "ios": "https://dc.lft.to/lastmile_qr_scan"}, "name": "a56ae27538265c79cdaf04f97e47d1e5", "type": "electric_scooter"}, {"fusion_lat": 0.0, "bike_id": "ebd004e13734d65ff53296dbedf403a1", "fusion_lon": 0.0, "lon": -77.03384483333333, "lat": 38.902629833333336, "is_reserved": 0, "is_disabled": 0, "rental_uris": {"android": "https://dc.lft.to/lastmile_qr_scan", "ios": "https://dc.lft.to/lastmile_qr_scan"}, "name": "ebd004e13734d65ff53296dbedf403a1", "type": "electric_scooter"}, {"fusion_lat": 0.0, "bike_id": "4fc36385ed14f8461ae910dc68ce1062", "fusion_lon": 0.0, "lon": -77.02838583333333, "lat": 38.887254666666664, "is_reserved": 0, "is_disabled": 0, "rental_uris": {"android": "https://dc.lft.to/lastmile_qr_scan", "ios": "https://dc.lft.to/lastmile_qr_scan"}, "name": "4fc36385ed14f8461ae910dc68ce1062", "type": "electric_scooter"}, {"fusion_lat": 0.0, "bike_id": "789f609d3db64b184d1a1595c10275e0", "fusion_lon": 0.0, "lon": -77.02270866666667, "lat": 38.9247635, "is_reserved": 0, "is_disabled": 0, "rental_uris": {"android": "https://dc.lft.to/lastmile_qr_scan", "ios": "https://dc.lft.to/lastmile_qr_scan"}, "name": "789f609d3db64b184d1a1595c10275e0", "type": "electric_scooter"}, {"fusion_lat": 0.0, "bike_id": "a30d6db5aa7f886dc1c0a5bff2730122", "fusion_lon": 0.0, "lon": -77.03896916666666, "lat": 38.9012095, "is_reserved": 0, "is_disabled": 0, "rental_uris": {"android": "https://dc.lft.to/lastmile_qr_scan", "ios": "https://dc.lft.to/lastmile_qr_scan"}, "name": "a30d6db5aa7f886dc1c0a5bff2730122", "type": "electric_bike"}, {"fusion_lat": 0.0, "bike_id": "9a97046c5ae26d65d8ef910e11b67de9", "fusion_lon": 0.0, "lon": -77.045068, "lat": 38.905066, "is_reserved": 0, "is_disabled": 0, "rental_uris": {"android": "https://dc.lft.to/lastmile_qr_scan", "ios": "https://dc.lft.to/lastmile_qr_scan"}, "name": "9a97046c5ae26d65d8ef910e11b67de9", "type": "electric_scooter"}, {"fusion_lat": 0.0, "bike_id": "019b280c8b2d7b78bc588264fc61b8ee", "fusion_lon": 0.0, "lon": -77.04715, "lat": 38.899554333333334, "is_reserved": 0, "is_disabled": 0, "rental_uris": {"android": "https://dc.lft.to/lastmile_qr_scan", "ios": "https://dc.lft.to/lastmile_qr_scan"}, "name": "019b280c8b2d7b78bc588264fc61b8ee", "type": "electric_scooter"}, {"fusion_lat": 0.0, "bike_id": "09294efcc378d9e7a53297f09a486572", "fusion_lon": 0.0, "lon": -77.02972033333333, "lat": 38.9228105, "is_reserved": 0, "is_disabled": 0, "rental_uris": {"android": "https://dc.lft.to/lastmile_qr_scan", "ios": "https://dc.lft.to/lastmile_qr_scan"}, "name": "09294efcc378d9e7a53297f09a486572", "type": "electric_scooter"}, {"fusion_lat": 0.0, "bike_id": "3077655a71e3fcfbb9fc5c3a642938ad", "fusion_lon": 0.0, "lon": -77.04190333333334, "lat": 38.9013015, "is_reserved": 0, "is_disabled": 0, "rental_uris": {"android": "https://dc.lft.to/lastmile_qr_scan", "ios": "https://dc.lft.to/lastmile_qr_scan"}, "name": "3077655a71e3fcfbb9fc5c3a642938ad", "type": "electric_scooter"}, {"fusion_lat": 0.0, "bike_id": "4f4142317939eb4306b191bb96c73e72", "fusion_lon": 0.0, "lon": -77.0513455, "lat": 38.90704816666667, "is_reserved": 0, "is_disabled": 0, "rental_uris": {"android": "https://dc.lft.to/lastmile_qr_scan", "ios": "https://dc.lft.to/lastmile_qr_scan"}, "name": "4f4142317939eb4306b191bb96c73e72", "type": "electric_bike"}, {"fusion_lat": 0.0, "bike_id": "02aff89811e0418f5cd53dc898fbaa0d", "fusion_lon": 0.0, "lon": -76.95748316666666, "lat": 38.884278333333334, "is_reserved": 0, "is_disabled": 0, "rental_uris": {"android": "https://dc.lft.to/lastmile_qr_scan", "ios": "https://dc.lft.to/lastmile_qr_scan"}, "name": "02aff89811e0418f5cd53dc898fbaa0d", "type": "electric_scooter"}, {"fusion_lat": 0.0, "bike_id": "04be81004b92312fa10fc3ab5ab5b50c", "fusion_lon": 0.0, "lon": -76.99790633333333, "lat": 38.82903233333333, "is_reserved": 0, "is_disabled": 0, "rental_uris": {"android": "https://dc.lft.to/lastmile_qr_scan", "ios": "https://dc.lft.to/lastmile_qr_scan"}, "name": "04be81004b92312fa10fc3ab5ab5b50c", "type": "electric_bike"}, {"fusion_lat": 0.0, "bike_id": "7edebef532c03f91ea8f2e1d973721a4", "fusion_lon": 0.0, "lon": -77.03091783333333, "lat": 38.910525666666665, "is_reserved": 0, "is_disabled": 0, "rental_uris": {"android": "https://dc.lft.to/lastmile_qr_scan", "ios": "https://dc.lft.to/lastmile_qr_scan"}, "name": "7edebef532c03f91ea8f2e1d973721a4", "type": "electric_scooter"}, {"fusion_lat": 0.0, "bike_id": "b8d48ada508c9fc7628efc7ae7814652", "fusion_lon": 0.0, "lon": -77.03607016666666, "lat": 38.936827, "is_reserved": 0, "is_disabled": 0, "rental_uris": {"android": "https://dc.lft.to/lastmile_qr_scan", "ios": "https://dc.lft.to/lastmile_qr_scan"}, "name": "b8d48ada508c9fc7628efc7ae7814652", "type": "electric_scooter"}, {"fusion_lat": 0.0, "bike_id": "9344f496441840e7809ca68a2a4f9dae", "fusion_lon": 0.0, "lon": -77.02397566666667, "lat": 38.917302, "is_reserved": 0, "is_disabled": 0, "rental_uris": {"android": "https://dc.lft.to/lastmile_qr_scan", "ios": "https://dc.lft.to/lastmile_qr_scan"}, "name": "9344f496441840e7809ca68a2a4f9dae", "type": "electric_scooter"}, {"fusion_lat": 0.0, "bike_id": "5856bf2a6ce03123bbdc5542ffd4923a", "fusion_lon": 0.0, "lon": -77.02225233333333, "lat": 38.935488, "is_reserved": 0, "is_disabled": 0, "rental_uris": {"android": "https://dc.lft.to/lastmile_qr_scan", "ios": "https://dc.lft.to/lastmile_qr_scan"}, "name": "5856bf2a6ce03123bbdc5542ffd4923a", "type": "electric_scooter"}, {"fusion_lat": 0.0, "bike_id": "7a8d47543ade6039b944573a85cecec2", "fusion_lon": 0.0, "lon": -77.02317533333333, "lat": 38.894935, "is_reserved": 0, "is_disabled": 0, "rental_uris": {"android": "https://dc.lft.to/lastmile_qr_scan", "ios": "https://dc.lft.to/lastmile_qr_scan"}, "name": "7a8d47543ade6039b944573a85cecec2", "type": "electric_scooter"}, {"fusion_lat": 0.0, "bike_id": "27853c8db51dfd784f77593fe1d543c3", "fusion_lon": 0.0, "lon": -77.03284766666667, "lat": 38.94767983333333, "is_reserved": 0, "is_disabled": 0, "rental_uris": {"android": "https://dc.lft.to/lastmile_qr_scan", "ios": "https://dc.lft.to/lastmile_qr_scan"}, "name": "27853c8db51dfd784f77593fe1d543c3", "type": "electric_bike"}, {"fusion_lat": 0.0, "bike_id": "42a5009bb3ab462a385d479e910f1105", "fusion_lon": 0.0, "lon": -77.02102166666667, "lat": 38.9326455, "is_reserved": 0, "is_disabled": 0, "rental_uris": {"android": "https://dc.lft.to/lastmile_qr_scan", "ios": "https://dc.lft.to/lastmile_qr_scan"}, "name": "42a5009bb3ab462a385d479e910f1105", "type": "electric_scooter"}, {"fusion_lat": 0.0, "bike_id": "4d6994f190c5e685f5c77b0f76474f40", "fusion_lon": 0.0, "lon": -77.05137383333333, "lat": 38.92524683333333, "is_reserved": 0, "is_disabled": 0, "rental_uris": {"android": "https://dc.lft.to/lastmile_qr_scan", "ios": "https://dc.lft.to/lastmile_qr_scan"}, "name": "4d6994f190c5e685f5c77b0f76474f40", "type": "electric_scooter"}, {"fusion_lat": 0.0, "bike_id": "04a0188911f1c7cb87baa92809e36292", "fusion_lon": 0.0, "lon": -77.02207033333333, "lat": 38.8860065, "is_reserved": 0, "is_disabled": 0, "rental_uris": {"android": "https://dc.lft.to/lastmile_qr_scan", "ios": "https://dc.lft.to/lastmile_qr_scan"}, "name": "04a0188911f1c7cb87baa92809e36292", "type": "electric_scooter"}, {"fusion_lat": 0.0, "bike_id": "418d505dd9b1e972ac6d742d6e6d362b", "fusion_lon": 0.0, "lon": -77.0271545, "lat": 38.89667716666666, "is_reserved": 0, "is_disabled": 0, "rental_uris": {"android": "https://dc.lft.to/lastmile_qr_scan", "ios": "https://dc.lft.to/lastmile_qr_scan"}, "name": "418d505dd9b1e972ac6d742d6e6d362b", "type": "electric_scooter"}, {"fusion_lat": 0.0, "bike_id": "3839ad2152e3e00d667daddfc23331b1", "fusion_lon": 0.0, "lon": -77.11708, "lat": 38.86744983333333, "is_reserved": 0, "is_disabled": 0, "rental_uris": {"android": "https://dc.lft.to/lastmile_qr_scan", "ios": "https://dc.lft.to/lastmile_qr_scan"}, "name": "3839ad2152e3e00d667daddfc23331b1", "type": "electric_bike"}, {"fusion_lat": 0.0, "bike_id": "2cb395e4d61da7ac1c3c750b47971ee9", "fusion_lon": 0.0, "lon": -77.0059025, "lat": 38.906287166666665, "is_reserved": 0, "is_disabled": 0, "rental_uris": {"android": "https://dc.lft.to/lastmile_qr_scan", "ios": "https://dc.lft.to/lastmile_qr_scan"}, "name": "2cb395e4d61da7ac1c3c750b47971ee9", "type": "electric_scooter"}, {"fusion_lat": 0.0, "bike_id": "810c851fe738a8450d75d9449b5fd66e", "fusion_lon": 0.0, "lon": -77.076287, "lat": 38.965733166666666, "is_reserved": 0, "is_disabled": 0, "rental_uris": {"android": "https://dc.lft.to/lastmile_qr_scan", "ios": "https://dc.lft.to/lastmile_qr_scan"}, "name": "810c851fe738a8450d75d9449b5fd66e", "type": "electric_bike"}, {"fusion_lat": 0.0, "bike_id": "54bfb82fa17472c4cc5eeffa808d98a8", "fusion_lon": 0.0, "lon": -77.03224, "lat": 38.92580016666667, "is_reserved": 0, "is_disabled": 0, "rental_uris": {"android": "https://dc.lft.to/lastmile_qr_scan", "ios": "https://dc.lft.to/lastmile_qr_scan"}, "name": "54bfb82fa17472c4cc5eeffa808d98a8", "type": "electric_scooter"}, {"fusion_lat": 0.0, "bike_id": "127743d1c5fe8cf18e4d1604c2f2a350", "fusion_lon": 0.0, "lon": -77.0262985, "lat": 38.9622455, "is_reserved": 0, "is_disabled": 0, "rental_uris": {"android": "https://dc.lft.to/lastmile_qr_scan", "ios": "https://dc.lft.to/lastmile_qr_scan"}, "name": "127743d1c5fe8cf18e4d1604c2f2a350", "type": "electric_bike"}, {"fusion_lat": 0.0, "bike_id": "d34a1b9c0cb190fb18bd8bee12a64a72", "fusion_lon": 0.0, "lon": -77.05851416666667, "lat": 38.930469333333335, "is_reserved": 0, "is_disabled": 0, "rental_uris": {"android": "https://dc.lft.to/lastmile_qr_scan", "ios": "https://dc.lft.to/lastmile_qr_scan"}, "name": "d34a1b9c0cb190fb18bd8bee12a64a72", "type": "electric_scooter"}, {"fusion_lat": 0.0, "bike_id": "587acbe38117278726c52d06781158d4", "fusion_lon": 0.0, "lon": -76.9948185, "lat": 38.88602516666667, "is_reserved": 0, "is_disabled": 0, "rental_uris": {"android": "https://dc.lft.to/lastmile_qr_scan", "ios": "https://dc.lft.to/lastmile_qr_scan"}, "name": "587acbe38117278726c52d06781158d4", "type": "electric_scooter"}, {"fusion_lat": 0.0, "bike_id": "e283ab055d99e3fc99d738308ebe6c94", "fusion_lon": 0.0, "lon": -77.025376, "lat": 38.927461666666666, "is_reserved": 0, "is_disabled": 0, "rental_uris": {"android": "https://dc.lft.to/lastmile_qr_scan", "ios": "https://dc.lft.to/lastmile_qr_scan"}, "name": "e283ab055d99e3fc99d738308ebe6c94", "type": "electric_scooter"}, {"fusion_lat": 0.0, "bike_id": "340b6bdf20ee6accf760fc997204ab91", "fusion_lon": 0.0, "lon": -77.03211166666667, "lat": 38.90898333333333, "is_reserved": 0, "is_disabled": 0, "rental_uris": {"android": "https://dc.lft.to/lastmile_qr_scan", "ios": "https://dc.lft.to/lastmile_qr_scan"}, "name": "340b6bdf20ee6accf760fc997204ab91", "type": "electric_scooter"}, {"fusion_lat": 0.0, "bike_id": "841f497b2055cffcffe9f0db261ba550", "fusion_lon": 0.0, "lon": -76.9859415, "lat": 38.8668075, "is_reserved": 0, "is_disabled": 0, "rental_uris": {"android": "https://dc.lft.to/lastmile_qr_scan", "ios": "https://dc.lft.to/lastmile_qr_scan"}, "name": "841f497b2055cffcffe9f0db261ba550", "type": "electric_scooter"}, {"fusion_lat": 0.0, "bike_id": "e866174ad091212a8a4f42f44878e2c7", "fusion_lon": 0.0, "lon": -77.00210516666667, "lat": 38.91458883333333, "is_reserved": 0, "is_disabled": 0, "rental_uris": {"android": "https://dc.lft.to/lastmile_qr_scan", "ios": "https://dc.lft.to/lastmile_qr_scan"}, "name": "e866174ad091212a8a4f42f44878e2c7", "type": "electric_scooter"}, {"fusion_lat": 0.0, "bike_id": "ccf2b877f7a1e1da66f16e4eaa344404", "fusion_lon": 0.0, "lon": -77.00922216666666, "lat": 38.9161655, "is_reserved": 0, "is_disabled": 0, "rental_uris": {"android": "https://dc.lft.to/lastmile_qr_scan", "ios": "https://dc.lft.to/lastmile_qr_scan"}, "name": "ccf2b877f7a1e1da66f16e4eaa344404", "type": "electric_scooter"}, {"fusion_lat": 0.0, "bike_id": "fd5ca45333ac9342c5dfd03ca30f38ba", "fusion_lon": 0.0, "lon": -77.04003683333333, "lat": 38.915595, "is_reserved": 0, "is_disabled": 0, "rental_uris": {"android": "https://dc.lft.to/lastmile_qr_scan", "ios": "https://dc.lft.to/lastmile_qr_scan"}, "name": "fd5ca45333ac9342c5dfd03ca30f38ba", "type": "electric_scooter"}, {"fusion_lat": 0.0, "bike_id": "4122867b16c16cd58f125ec53fae0f5c", "fusion_lon": 0.0, "lon": -77.049785, "lat": 39.062923833333336, "is_reserved": 0, "is_disabled": 0, "rental_uris": {"android": "https://dc.lft.to/lastmile_qr_scan", "ios": "https://dc.lft.to/lastmile_qr_scan"}, "name": "4122867b16c16cd58f125ec53fae0f5c", "type": "electric_bike"}, {"fusion_lat": 0.0, "bike_id": "71b7b154e2cbc14960bf35dd96d7d3bf", "fusion_lon": 0.0, "lon": -77.0387585, "lat": 38.92007516666666, "is_reserved": 0, "is_disabled": 0, "rental_uris": {"android": "https://dc.lft.to/lastmile_qr_scan", "ios": "https://dc.lft.to/lastmile_qr_scan"}, "name": "71b7b154e2cbc14960bf35dd96d7d3bf", "type": "electric_scooter"}, {"fusion_lat": 0.0, "bike_id": "49ef2a647468f01cef0d73fe32b025a7", "fusion_lon": 0.0, "lon": -77.025581, "lat": 38.9416905, "is_reserved": 0, "is_disabled": 0, "rental_uris": {"android": "https://dc.lft.to/lastmile_qr_scan", "ios": "https://dc.lft.to/lastmile_qr_scan"}, "name": "49ef2a647468f01cef0d73fe32b025a7", "type": "electric_scooter"}, {"fusion_lat": 0.0, "bike_id": "d78c01badb15ddf7021600d7686082d8", "fusion_lon": 0.0, "lon": -77.02553866666666, "lat": 38.940967666666666, "is_reserved": 0, "is_disabled": 0, "rental_uris": {"android": "https://dc.lft.to/lastmile_qr_scan", "ios": "https://dc.lft.to/lastmile_qr_scan"}, "name": "d78c01badb15ddf7021600d7686082d8", "type": "electric_bike"}, {"fusion_lat": 0.0, "bike_id": "06e12b31811b6a8263d63cbfcd569170", "fusion_lon": 0.0, "lon": -77.017662, "lat": 38.8872835, "is_reserved": 0, "is_disabled": 0, "rental_uris": {"android": "https://dc.lft.to/lastmile_qr_scan", "ios": "https://dc.lft.to/lastmile_qr_scan"}, "name": "06e12b31811b6a8263d63cbfcd569170", "type": "electric_scooter"}, {"fusion_lat": 0.0, "bike_id": "519d91ad54e378fb81e88a262f141eb6", "fusion_lon": 0.0, "lon": -76.97858483333333, "lat": 38.88305883333334, "is_reserved": 0, "is_disabled": 0, "rental_uris": {"android": "https://dc.lft.to/lastmile_qr_scan", "ios": "https://dc.lft.to/lastmile_qr_scan"}, "name": "519d91ad54e378fb81e88a262f141eb6", "type": "electric_scooter"}, {"fusion_lat": 0.0, "bike_id": "a521446eb8db99f2fc11fd996e6f7dde", "fusion_lon": 0.0, "lon": -77.0426825, "lat": 38.922984, "is_reserved": 0, "is_disabled": 0, "rental_uris": {"android": "https://dc.lft.to/lastmile_qr_scan", "ios": "https://dc.lft.to/lastmile_qr_scan"}, "name": "a521446eb8db99f2fc11fd996e6f7dde", "type": "electric_scooter"}, {"fusion_lat": 0.0, "bike_id": "bde1aa81de4ec803045afc6a553d0a64", "fusion_lon": 0.0, "lon": -77.06450366666667, "lat": 38.905220166666666, "is_reserved": 0, "is_disabled": 0, "rental_uris": {"android": "https://dc.lft.to/lastmile_qr_scan", "ios": "https://dc.lft.to/lastmile_qr_scan"}, "name": "bde1aa81de4ec803045afc6a553d0a64", "type": "electric_scooter"}, {"fusion_lat": 0.0, "bike_id": "17e7ac11a763b64d74a300cbac2f12ad", "fusion_lon": 0.0, "lon": -77.03156433333334, "lat": 38.91362983333333, "is_reserved": 0, "is_disabled": 0, "rental_uris": {"android": "https://dc.lft.to/lastmile_qr_scan", "ios": "https://dc.lft.to/lastmile_qr_scan"}, "name": "17e7ac11a763b64d74a300cbac2f12ad", "type": "electric_scooter"}, {"fusion_lat": 0.0, "bike_id": "0cfbc1443ca5e81be1ed9e8d35ff662e", "fusion_lon": 0.0, "lon": -77.01549833333333, "lat": 38.89167916666667, "is_reserved": 0, "is_disabled": 0, "rental_uris": {"android": "https://dc.lft.to/lastmile_qr_scan", "ios": "https://dc.lft.to/lastmile_qr_scan"}, "name": "0cfbc1443ca5e81be1ed9e8d35ff662e", "type": "electric_scooter"}, {"fusion_lat": 0.0, "bike_id": "94b20b61953bd4ea2897bea3ee410295", "fusion_lon": 0.0, "lon": -77.03223666666666, "lat": 38.9086605, "is_reserved": 0, "is_disabled": 0, "rental_uris": {"android": "https://dc.lft.to/lastmile_qr_scan", "ios": "https://dc.lft.to/lastmile_qr_scan"}, "name": "94b20b61953bd4ea2897bea3ee410295", "type": "electric_scooter"}, {"fusion_lat": 0.0, "bike_id": "a92014364966b168ae3dff60a0bf901c", "fusion_lon": 0.0, "lon": -77.01486233333334, "lat": 38.892147666666666, "is_reserved": 0, "is_disabled": 0, "rental_uris": {"android": "https://dc.lft.to/lastmile_qr_scan", "ios": "https://dc.lft.to/lastmile_qr_scan"}, "name": "a92014364966b168ae3dff60a0bf901c", "type": "electric_scooter"}, {"fusion_lat": 0.0, "bike_id": "2288c84e18413f73e6bb411ca992e220", "fusion_lon": 0.0, "lon": -77.03423, "lat": 38.919178, "is_reserved": 0, "is_disabled": 0, "rental_uris": {"android": "https://dc.lft.to/lastmile_qr_scan", "ios": "https://dc.lft.to/lastmile_qr_scan"}, "name": "2288c84e18413f73e6bb411ca992e220", "type": "electric_scooter"}, {"fusion_lat": 0.0, "bike_id": "19b0b6979872694a28308e93850ef5d9", "fusion_lon": 0.0, "lon": -77.0191725, "lat": 38.923672333333336, "is_reserved": 0, "is_disabled": 0, "rental_uris": {"android": "https://dc.lft.to/lastmile_qr_scan", "ios": "https://dc.lft.to/lastmile_qr_scan"}, "name": "19b0b6979872694a28308e93850ef5d9", "type": "electric_scooter"}, {"fusion_lat": 0.0, "bike_id": "8940047b5456525d93963dd9b8e554a7", "fusion_lon": 0.0, "lon": -76.93752716666667, "lat": 38.890344666666664, "is_reserved": 0, "is_disabled": 0, "rental_uris": {"android": "https://dc.lft.to/lastmile_qr_scan", "ios": "https://dc.lft.to/lastmile_qr_scan"}, "name": "8940047b5456525d93963dd9b8e554a7", "type": "electric_scooter"}, {"fusion_lat": 0.0, "bike_id": "9b0c7e4836390a31aa2f05eb2316ad5c", "fusion_lon": 0.0, "lon": -77.0465015, "lat": 38.91570316666667, "is_reserved": 0, "is_disabled": 0, "rental_uris": {"android": "https://dc.lft.to/lastmile_qr_scan", "ios": "https://dc.lft.to/lastmile_qr_scan"}, "name": "9b0c7e4836390a31aa2f05eb2316ad5c", "type": "electric_scooter"}, {"fusion_lat": 0.0, "bike_id": "f01c111cb3ee8fbb5bd31eb922177ba9", "fusion_lon": 0.0, "lon": -77.0638055, "lat": 38.90509333333333, "is_reserved": 0, "is_disabled": 0, "rental_uris": {"android": "https://dc.lft.to/lastmile_qr_scan", "ios": "https://dc.lft.to/lastmile_qr_scan"}, "name": "f01c111cb3ee8fbb5bd31eb922177ba9", "type": "electric_scooter"}, {"fusion_lat": 0.0, "bike_id": "3da04d0fde2ae0a46f043d3c1e9021ce", "fusion_lon": 0.0, "lon": -77.0569675, "lat": 38.93713533333333, "is_reserved": 0, "is_disabled": 0, "rental_uris": {"android": "https://dc.lft.to/lastmile_qr_scan", "ios": "https://dc.lft.to/lastmile_qr_scan"}, "name": "3da04d0fde2ae0a46f043d3c1e9021ce", "type": "electric_scooter"}, {"fusion_lat": 0.0, "bike_id": "8ea0c43c801fb0031c701f25d06b1697", "fusion_lon": 0.0, "lon": -77.041249, "lat": 38.917015, "is_reserved": 0, "is_disabled": 0, "rental_uris": {"android": "https://dc.lft.to/lastmile_qr_scan", "ios": "https://dc.lft.to/lastmile_qr_scan"}, "name": "8ea0c43c801fb0031c701f25d06b1697", "type": "electric_scooter"}, {"fusion_lat": 0.0, "bike_id": "d32d19ec4cb78a3bcd3e940632676022", "fusion_lon": 0.0, "lon": -77.051584, "lat": 39.04301516666666, "is_reserved": 0, "is_disabled": 0, "rental_uris": {"android": "https://dc.lft.to/lastmile_qr_scan", "ios": "https://dc.lft.to/lastmile_qr_scan"}, "name": "d32d19ec4cb78a3bcd3e940632676022", "type": "electric_bike"}, {"fusion_lat": 0.0, "bike_id": "67d29695d57438babc58219b7deae226", "fusion_lon": 0.0, "lon": -77.03198716666667, "lat": 38.91174433333333, "is_reserved": 0, "is_disabled": 0, "rental_uris": {"android": "https://dc.lft.to/lastmile_qr_scan", "ios": "https://dc.lft.to/lastmile_qr_scan"}, "name": "67d29695d57438babc58219b7deae226", "type": "electric_scooter"}, {"fusion_lat": 0.0, "bike_id": "21784e13599f29dc295a2207bd5873c6", "fusion_lon": 0.0, "lon": -76.981164, "lat": 38.863193833333334, "is_reserved": 0, "is_disabled": 0, "rental_uris": {"android": "https://dc.lft.to/lastmile_qr_scan", "ios": "https://dc.lft.to/lastmile_qr_scan"}, "name": "21784e13599f29dc295a2207bd5873c6", "type": "electric_scooter"}, {"fusion_lat": 0.0, "bike_id": "68a7044f84ccc784b858ff682850185d", "fusion_lon": 0.0, "lon": -77.02971066666667, "lat": 38.90775, "is_reserved": 0, "is_disabled": 0, "rental_uris": {"android": "https://dc.lft.to/lastmile_qr_scan", "ios": "https://dc.lft.to/lastmile_qr_scan"}, "name": "68a7044f84ccc784b858ff682850185d", "type": "electric_scooter"}, {"fusion_lat": 0.0, "bike_id": "c554ba101b5018d1912df8b72e3a75b5", "fusion_lon": 0.0, "lon": -77.021817, "lat": 38.909506, "is_reserved": 0, "is_disabled": 0, "rental_uris": {"android": "https://dc.lft.to/lastmile_qr_scan", "ios": "https://dc.lft.to/lastmile_qr_scan"}, "name": "c554ba101b5018d1912df8b72e3a75b5", "type": "electric_scooter"}, {"fusion_lat": 0.0, "bike_id": "464a83cddfc6c6918cbff4bdf183c84e", "fusion_lon": 0.0, "lon": -77.0617165, "lat": 38.905158166666666, "is_reserved": 0, "is_disabled": 0, "rental_uris": {"android": "https://dc.lft.to/lastmile_qr_scan", "ios": "https://dc.lft.to/lastmile_qr_scan"}, "name": "464a83cddfc6c6918cbff4bdf183c84e", "type": "electric_scooter"}, {"fusion_lat": 0.0, "bike_id": "290e74a57d0f26d60c21e1ded4f860ff", "fusion_lon": 0.0, "lon": -77.04039916666666, "lat": 38.91853866666666, "is_reserved": 0, "is_disabled": 0, "rental_uris": {"android": "https://dc.lft.to/lastmile_qr_scan", "ios": "https://dc.lft.to/lastmile_qr_scan"}, "name": "290e74a57d0f26d60c21e1ded4f860ff", "type": "electric_scooter"}, {"fusion_lat": 0.0, "bike_id": "64da48db86318848d18ed5c518480b91", "fusion_lon": 0.0, "lon": -76.99505483333333, "lat": 38.899172, "is_reserved": 0, "is_disabled": 0, "rental_uris": {"android": "https://dc.lft.to/lastmile_qr_scan", "ios": "https://dc.lft.to/lastmile_qr_scan"}, "name": "64da48db86318848d18ed5c518480b91", "type": "electric_scooter"}, {"fusion_lat": 0.0, "bike_id": "5f004e67ace1e2bd4e92a94de3b24754", "fusion_lon": 0.0, "lon": -76.93304116666667, "lat": 38.891931, "is_reserved": 0, "is_disabled": 0, "rental_uris": {"android": "https://dc.lft.to/lastmile_qr_scan", "ios": "https://dc.lft.to/lastmile_qr_scan"}, "name": "5f004e67ace1e2bd4e92a94de3b24754", "type": "electric_scooter"}, {"fusion_lat": 0.0, "bike_id": "37b9c8e5869e0ac900a9d30c98e21eac", "fusion_lon": 0.0, "lon": -76.948865, "lat": 38.895112166666664, "is_reserved": 0, "is_disabled": 0, "rental_uris": {"android": "https://dc.lft.to/lastmile_qr_scan", "ios": "https://dc.lft.to/lastmile_qr_scan"}, "name": "37b9c8e5869e0ac900a9d30c98e21eac", "type": "electric_scooter"}, {"fusion_lat": 0.0, "bike_id": "0e2c880a2ebce360bbce0b58b15dc31a", "fusion_lon": 0.0, "lon": -77.01436116666666, "lat": 38.952305833333334, "is_reserved": 0, "is_disabled": 0, "rental_uris": {"android": "https://dc.lft.to/lastmile_qr_scan", "ios": "https://dc.lft.to/lastmile_qr_scan"}, "name": "0e2c880a2ebce360bbce0b58b15dc31a", "type": "electric_scooter"}, {"fusion_lat": 0.0, "bike_id": "762bcb9ce4659ad90c01d7cf2307ac8b", "fusion_lon": 0.0, "lon": -77.04771283333334, "lat": 38.91243, "is_reserved": 0, "is_disabled": 0, "rental_uris": {"android": "https://dc.lft.to/lastmile_qr_scan", "ios": "https://dc.lft.to/lastmile_qr_scan"}, "name": "762bcb9ce4659ad90c01d7cf2307ac8b", "type": "electric_scooter"}, {"fusion_lat": 0.0, "bike_id": "c836d178f5420d842356a8f88cb37bfc", "fusion_lon": 0.0, "lon": -77.1073565, "lat": 38.855395666666666, "is_reserved": 0, "is_disabled": 0, "rental_uris": {"android": "https://dc.lft.to/lastmile_qr_scan", "ios": "https://dc.lft.to/lastmile_qr_scan"}, "name": "c836d178f5420d842356a8f88cb37bfc", "type": "electric_bike"}, {"fusion_lat": 0.0, "bike_id": "de13546ff658454ec4be88bfcd99811c", "fusion_lon": 0.0, "lon": -77.00407733333333, "lat": 38.930845, "is_reserved": 0, "is_disabled": 0, "rental_uris": {"android": "https://dc.lft.to/lastmile_qr_scan", "ios": "https://dc.lft.to/lastmile_qr_scan"}, "name": "de13546ff658454ec4be88bfcd99811c", "type": "electric_scooter"}, {"fusion_lat": 0.0, "bike_id": "ad5953f59c21b99e04d4f31d7e0d1e2e", "fusion_lon": 0.0, "lon": -77.02373933333334, "lat": 38.920525833333336, "is_reserved": 0, "is_disabled": 0, "rental_uris": {"android": "https://dc.lft.to/lastmile_qr_scan", "ios": "https://dc.lft.to/lastmile_qr_scan"}, "name": "ad5953f59c21b99e04d4f31d7e0d1e2e", "type": "electric_scooter"}, {"fusion_lat": 0.0, "bike_id": "fb73c49662c3c12a37e64551e32a243f", "fusion_lon": 0.0, "lon": -77.03246983333334, "lat": 38.92891816666667, "is_reserved": 0, "is_disabled": 0, "rental_uris": {"android": "https://dc.lft.to/lastmile_qr_scan", "ios": "https://dc.lft.to/lastmile_qr_scan"}, "name": "fb73c49662c3c12a37e64551e32a243f", "type": "electric_scooter"}, {"fusion_lat": 0.0, "bike_id": "74c0f6c8c9ad2c68788542146f2d8ad6", "fusion_lon": 0.0, "lon": -77.04160833333333, "lat": 38.91594933333333, "is_reserved": 0, "is_disabled": 0, "rental_uris": {"android": "https://dc.lft.to/lastmile_qr_scan", "ios": "https://dc.lft.to/lastmile_qr_scan"}, "name": "74c0f6c8c9ad2c68788542146f2d8ad6", "type": "electric_scooter"}, {"fusion_lat": 0.0, "bike_id": "a2416daaa49b46c502105946e0b96e19", "fusion_lon": 0.0, "lon": -77.0151305, "lat": 38.8873525, "is_reserved": 0, "is_disabled": 0, "rental_uris": {"android": "https://dc.lft.to/lastmile_qr_scan", "ios": "https://dc.lft.to/lastmile_qr_scan"}, "name": "a2416daaa49b46c502105946e0b96e19", "type": "electric_scooter"}, {"fusion_lat": 0.0, "bike_id": "3342ecef502f1c4c599806eb2a3f8e96", "fusion_lon": 0.0, "lon": -77.03267966666667, "lat": 38.936504166666666, "is_reserved": 0, "is_disabled": 0, "rental_uris": {"android": "https://dc.lft.to/lastmile_qr_scan", "ios": "https://dc.lft.to/lastmile_qr_scan"}, "name": "3342ecef502f1c4c599806eb2a3f8e96", "type": "electric_scooter"}, {"fusion_lat": 0.0, "bike_id": "fd72ac14e58dd31f1f633dc7a0282610", "fusion_lon": 0.0, "lon": -77.06104533333334, "lat": 38.93702866666667, "is_reserved": 0, "is_disabled": 0, "rental_uris": {"android": "https://dc.lft.to/lastmile_qr_scan", "ios": "https://dc.lft.to/lastmile_qr_scan"}, "name": "fd72ac14e58dd31f1f633dc7a0282610", "type": "electric_scooter"}, {"fusion_lat": 0.0, "bike_id": "633fdb3b87c819ed2e00898e40542e77", "fusion_lon": 0.0, "lon": -77.033785, "lat": 38.92146816666666, "is_reserved": 0, "is_disabled": 0, "rental_uris": {"android": "https://dc.lft.to/lastmile_qr_scan", "ios": "https://dc.lft.to/lastmile_qr_scan"}, "name": "633fdb3b87c819ed2e00898e40542e77", "type": "electric_scooter"}, {"fusion_lat": 0.0, "bike_id": "36de8ce0e5fd12f57f656140ff522290", "fusion_lon": 0.0, "lon": -77.03631883333334, "lat": 38.904698333333336, "is_reserved": 0, "is_disabled": 0, "rental_uris": {"android": "https://dc.lft.to/lastmile_qr_scan", "ios": "https://dc.lft.to/lastmile_qr_scan"}, "name": "36de8ce0e5fd12f57f656140ff522290", "type": "electric_scooter"}, {"fusion_lat": 0.0, "bike_id": "7768d907b6639b5d8bdf5aaa89eae153", "fusion_lon": 0.0, "lon": -77.04682133333333, "lat": 38.89452433333334, "is_reserved": 0, "is_disabled": 0, "rental_uris": {"android": "https://dc.lft.to/lastmile_qr_scan", "ios": "https://dc.lft.to/lastmile_qr_scan"}, "name": "7768d907b6639b5d8bdf5aaa89eae153", "type": "electric_scooter"}, {"fusion_lat": 0.0, "bike_id": "0714030ae2990f241c9c815bd928858a", "fusion_lon": 0.0, "lon": -77.04647533333333, "lat": 38.92112216666666, "is_reserved": 0, "is_disabled": 0, "rental_uris": {"android": "https://dc.lft.to/lastmile_qr_scan", "ios": "https://dc.lft.to/lastmile_qr_scan"}, "name": "0714030ae2990f241c9c815bd928858a", "type": "electric_scooter"}, {"fusion_lat": 0.0, "bike_id": "507991e164647fc5a5d5c0b3f2a1676b", "fusion_lon": 0.0, "lon": -77.060979, "lat": 38.9052285, "is_reserved": 0, "is_disabled": 0, "rental_uris": {"android": "https://dc.lft.to/lastmile_qr_scan", "ios": "https://dc.lft.to/lastmile_qr_scan"}, "name": "507991e164647fc5a5d5c0b3f2a1676b", "type": "electric_scooter"}, {"fusion_lat": 0.0, "bike_id": "a13584714c91ba91ed23f289b8cc9c2a", "fusion_lon": 0.0, "lon": -77.03256316666666, "lat": 38.91988333333333, "is_reserved": 0, "is_disabled": 0, "rental_uris": {"android": "https://dc.lft.to/lastmile_qr_scan", "ios": "https://dc.lft.to/lastmile_qr_scan"}, "name": "a13584714c91ba91ed23f289b8cc9c2a", "type": "electric_scooter"}, {"fusion_lat": 0.0, "bike_id": "bd74bd84e4a8009ff73c85e4d8393b26", "fusion_lon": 0.0, "lon": -77.03521683333334, "lat": 38.915932833333336, "is_reserved": 0, "is_disabled": 0, "rental_uris": {"android": "https://dc.lft.to/lastmile_qr_scan", "ios": "https://dc.lft.to/lastmile_qr_scan"}, "name": "bd74bd84e4a8009ff73c85e4d8393b26", "type": "electric_scooter"}, {"fusion_lat": 0.0, "bike_id": "967c952c92113e1dc0f070b97954127e", "fusion_lon": 0.0, "lon": -77.03261933333333, "lat": 38.93885983333333, "is_reserved": 0, "is_disabled": 0, "rental_uris": {"android": "https://dc.lft.to/lastmile_qr_scan", "ios": "https://dc.lft.to/lastmile_qr_scan"}, "name": "967c952c92113e1dc0f070b97954127e", "type": "electric_scooter"}, {"fusion_lat": 0.0, "bike_id": "fecf29e2bfe8f570d8e9d95fc3c83961", "fusion_lon": 0.0, "lon": -77.023131, "lat": 38.901501333333336, "is_reserved": 0, "is_disabled": 0, "rental_uris": {"android": "https://dc.lft.to/lastmile_qr_scan", "ios": "https://dc.lft.to/lastmile_qr_scan"}, "name": "fecf29e2bfe8f570d8e9d95fc3c83961", "type": "electric_scooter"}, {"fusion_lat": 0.0, "bike_id": "c087bd27848498aff945aebde22b3fd0", "fusion_lon": 0.0, "lon": -77.0148445, "lat": 38.91414183333333, "is_reserved": 0, "is_disabled": 0, "rental_uris": {"android": "https://dc.lft.to/lastmile_qr_scan", "ios": "https://dc.lft.to/lastmile_qr_scan"}, "name": "c087bd27848498aff945aebde22b3fd0", "type": "electric_scooter"}, {"fusion_lat": 0.0, "bike_id": "6a5d47d11b46568b3dbf5af8b58b7ae7", "fusion_lon": 0.0, "lon": -77.0060465, "lat": 38.871807, "is_reserved": 0, "is_disabled": 0, "rental_uris": {"android": "https://dc.lft.to/lastmile_qr_scan", "ios": "https://dc.lft.to/lastmile_qr_scan"}, "name": "6a5d47d11b46568b3dbf5af8b58b7ae7", "type": "electric_scooter"}, {"fusion_lat": 0.0, "bike_id": "7dfc7ea38853b39e625f5f5ee96fa19a", "fusion_lon": 0.0, "lon": -77.04129233333333, "lat": 38.92140116666667, "is_reserved": 0, "is_disabled": 0, "rental_uris": {"android": "https://dc.lft.to/lastmile_qr_scan", "ios": "https://dc.lft.to/lastmile_qr_scan"}, "name": "7dfc7ea38853b39e625f5f5ee96fa19a", "type": "electric_scooter"}, {"fusion_lat": 0.0, "bike_id": "86c4d0a5125b31138a573b3745d15e16", "fusion_lon": 0.0, "lon": -77.00218933333333, "lat": 38.897416166666666, "is_reserved": 0, "is_disabled": 0, "rental_uris": {"android": "https://dc.lft.to/lastmile_qr_scan", "ios": "https://dc.lft.to/lastmile_qr_scan"}, "name": "86c4d0a5125b31138a573b3745d15e16", "type": "electric_scooter"}, {"fusion_lat": 0.0, "bike_id": "3c5b20659449b36bbe40b0625410e0aa", "fusion_lon": 0.0, "lon": -77.032652, "lat": 38.92542483333333, "is_reserved": 0, "is_disabled": 0, "rental_uris": {"android": "https://dc.lft.to/lastmile_qr_scan", "ios": "https://dc.lft.to/lastmile_qr_scan"}, "name": "3c5b20659449b36bbe40b0625410e0aa", "type": "electric_scooter"}, {"fusion_lat": 0.0, "bike_id": "b3574739abb8591c0ebfd9c0dfe90b46", "fusion_lon": 0.0, "lon": -76.99929783333333, "lat": 38.843113833333334, "is_reserved": 0, "is_disabled": 0, "rental_uris": {"android": "https://dc.lft.to/lastmile_qr_scan", "ios": "https://dc.lft.to/lastmile_qr_scan"}, "name": "b3574739abb8591c0ebfd9c0dfe90b46", "type": "electric_scooter"}, {"fusion_lat": 0.0, "bike_id": "500badf3428fd08cd9fbeddb8b46a58a", "fusion_lon": 0.0, "lon": -77.03424733333334, "lat": 38.91919266666667, "is_reserved": 0, "is_disabled": 0, "rental_uris": {"android": "https://dc.lft.to/lastmile_qr_scan", "ios": "https://dc.lft.to/lastmile_qr_scan"}, "name": "500badf3428fd08cd9fbeddb8b46a58a", "type": "electric_scooter"}, {"fusion_lat": 0.0, "bike_id": "00d3e367f510ad66090660c9e0ea01bd", "fusion_lon": 0.0, "lon": -76.9463725, "lat": 38.898281, "is_reserved": 0, "is_disabled": 0, "rental_uris": {"android": "https://dc.lft.to/lastmile_qr_scan", "ios": "https://dc.lft.to/lastmile_qr_scan"}, "name": "00d3e367f510ad66090660c9e0ea01bd", "type": "electric_scooter"}, {"fusion_lat": 0.0, "bike_id": "a76ec6b7b1af3531625e294be2be2e56", "fusion_lon": 0.0, "lon": -77.07311283333334, "lat": 38.922366833333335, "is_reserved": 0, "is_disabled": 0, "rental_uris": {"android": "https://dc.lft.to/lastmile_qr_scan", "ios": "https://dc.lft.to/lastmile_qr_scan"}, "name": "a76ec6b7b1af3531625e294be2be2e56", "type": "electric_scooter"}, {"fusion_lat": 0.0, "bike_id": "d0f5a2d9fb2ef9ead6eb73ab99d2a0ac", "fusion_lon": 0.0, "lon": -77.037012, "lat": 38.928308666666666, "is_reserved": 0, "is_disabled": 0, "rental_uris": {"android": "https://dc.lft.to/lastmile_qr_scan", "ios": "https://dc.lft.to/lastmile_qr_scan"}, "name": "d0f5a2d9fb2ef9ead6eb73ab99d2a0ac", "type": "electric_scooter"}, {"fusion_lat": 0.0, "bike_id": "c98e7d793b03ee9dfb973fe480c7dd47", "fusion_lon": 0.0, "lon": -77.0375075, "lat": 38.9125425, "is_reserved": 0, "is_disabled": 0, "rental_uris": {"android": "https://dc.lft.to/lastmile_qr_scan", "ios": "https://dc.lft.to/lastmile_qr_scan"}, "name": "c98e7d793b03ee9dfb973fe480c7dd47", "type": "electric_scooter"}, {"fusion_lat": 0.0, "bike_id": "f79a51f5e9c3e1824209bd9e2649a917", "fusion_lon": 0.0, "lon": -77.03289283333334, "lat": 38.916853833333334, "is_reserved": 0, "is_disabled": 0, "rental_uris": {"android": "https://dc.lft.to/lastmile_qr_scan", "ios": "https://dc.lft.to/lastmile_qr_scan"}, "name": "f79a51f5e9c3e1824209bd9e2649a917", "type": "electric_scooter"}, {"fusion_lat": 0.0, "bike_id": "1d71bebc0431d71cd53cb9d752cedf97", "fusion_lon": 0.0, "lon": -76.99853383333334, "lat": 38.896232499999996, "is_reserved": 0, "is_disabled": 0, "rental_uris": {"android": "https://dc.lft.to/lastmile_qr_scan", "ios": "https://dc.lft.to/lastmile_qr_scan"}, "name": "1d71bebc0431d71cd53cb9d752cedf97", "type": "electric_scooter"}, {"fusion_lat": 0.0, "bike_id": "ed4202ce2e4848c0f941a48bd9340b04", "fusion_lon": 0.0, "lon": -77.01548616666666, "lat": 38.891663333333334, "is_reserved": 0, "is_disabled": 0, "rental_uris": {"android": "https://dc.lft.to/lastmile_qr_scan", "ios": "https://dc.lft.to/lastmile_qr_scan"}, "name": "ed4202ce2e4848c0f941a48bd9340b04", "type": "electric_scooter"}, {"fusion_lat": 0.0, "bike_id": "fbaf0ff3d72cd45c220dd1179fc7b5df", "fusion_lon": 0.0, "lon": -77.0251525, "lat": 38.89230283333333, "is_reserved": 0, "is_disabled": 0, "rental_uris": {"android": "https://dc.lft.to/lastmile_qr_scan", "ios": "https://dc.lft.to/lastmile_qr_scan"}, "name": "fbaf0ff3d72cd45c220dd1179fc7b5df", "type": "electric_scooter"}, {"fusion_lat": 0.0, "bike_id": "132e30f9a6f86f6db1db7b0746741fe2", "fusion_lon": 0.0, "lon": -77.01724916666667, "lat": 38.885889166666665, "is_reserved": 0, "is_disabled": 0, "rental_uris": {"android": "https://dc.lft.to/lastmile_qr_scan", "ios": "https://dc.lft.to/lastmile_qr_scan"}, "name": "132e30f9a6f86f6db1db7b0746741fe2", "type": "electric_scooter"}, {"fusion_lat": 0.0, "bike_id": "022e43522b53e646d069d61ef1241654", "fusion_lon": 0.0, "lon": -77.08812783333333, "lat": 38.91171083333333, "is_reserved": 0, "is_disabled": 0, "rental_uris": {"android": "https://dc.lft.to/lastmile_qr_scan", "ios": "https://dc.lft.to/lastmile_qr_scan"}, "name": "022e43522b53e646d069d61ef1241654", "type": "electric_bike"}, {"fusion_lat": 0.0, "bike_id": "2ea643aa978adf904741cdd551f8f3ba", "fusion_lon": 0.0, "lon": -76.9924665, "lat": 38.89480616666667, "is_reserved": 0, "is_disabled": 0, "rental_uris": {"android": "https://dc.lft.to/lastmile_qr_scan", "ios": "https://dc.lft.to/lastmile_qr_scan"}, "name": "2ea643aa978adf904741cdd551f8f3ba", "type": "electric_scooter"}, {"fusion_lat": 0.0, "bike_id": "1e97834f548f1280987eea4900f8075f", "fusion_lon": 0.0, "lon": -77.036892, "lat": 38.918192833333336, "is_reserved": 0, "is_disabled": 0, "rental_uris": {"android": "https://dc.lft.to/lastmile_qr_scan", "ios": "https://dc.lft.to/lastmile_qr_scan"}, "name": "1e97834f548f1280987eea4900f8075f", "type": "electric_scooter"}, {"fusion_lat": 0.0, "bike_id": "0584825e3459b4a619dde64c63e63546", "fusion_lon": 0.0, "lon": -76.99779933333333, "lat": 38.844242666666666, "is_reserved": 0, "is_disabled": 0, "rental_uris": {"android": "https://dc.lft.to/lastmile_qr_scan", "ios": "https://dc.lft.to/lastmile_qr_scan"}, "name": "0584825e3459b4a619dde64c63e63546", "type": "electric_scooter"}, {"fusion_lat": 0.0, "bike_id": "b8a250a8687689536e41eb70aaf02fa1", "fusion_lon": 0.0, "lon": -76.995153, "lat": 38.93374516666667, "is_reserved": 0, "is_disabled": 0, "rental_uris": {"android": "https://dc.lft.to/lastmile_qr_scan", "ios": "https://dc.lft.to/lastmile_qr_scan"}, "name": "b8a250a8687689536e41eb70aaf02fa1", "type": "electric_scooter"}, {"fusion_lat": 0.0, "bike_id": "3a90e657c16c89b8c9a908089e48399c", "fusion_lon": 0.0, "lon": -76.9761475, "lat": 38.9264875, "is_reserved": 0, "is_disabled": 0, "rental_uris": {"android": "https://dc.lft.to/lastmile_qr_scan", "ios": "https://dc.lft.to/lastmile_qr_scan"}, "name": "3a90e657c16c89b8c9a908089e48399c", "type": "electric_scooter"}, {"fusion_lat": 0.0, "bike_id": "04f6521c7500b7ea4a0ec5b1f7362e1e", "fusion_lon": 0.0, "lon": -77.01759166666666, "lat": 38.880090333333335, "is_reserved": 0, "is_disabled": 0, "rental_uris": {"android": "https://dc.lft.to/lastmile_qr_scan", "ios": "https://dc.lft.to/lastmile_qr_scan"}, "name": "04f6521c7500b7ea4a0ec5b1f7362e1e", "type": "electric_scooter"}, {"fusion_lat": 0.0, "bike_id": "4a1659e52a661872e3d516e210c8091e", "fusion_lon": 0.0, "lon": -77.03928633333334, "lat": 38.927942333333334, "is_reserved": 0, "is_disabled": 0, "rental_uris": {"android": "https://dc.lft.to/lastmile_qr_scan", "ios": "https://dc.lft.to/lastmile_qr_scan"}, "name": "4a1659e52a661872e3d516e210c8091e", "type": "electric_scooter"}, {"fusion_lat": 0.0, "bike_id": "9d548b466862a51cb93abbffdca84cfd", "fusion_lon": 0.0, "lon": -77.069254, "lat": 38.95564916666667, "is_reserved": 0, "is_disabled": 0, "rental_uris": {"android": "https://dc.lft.to/lastmile_qr_scan", "ios": "https://dc.lft.to/lastmile_qr_scan"}, "name": "9d548b466862a51cb93abbffdca84cfd", "type": "electric_bike"}, {"fusion_lat": 0.0, "bike_id": "0afec103305aa94efcbbe5e1476c11e1", "fusion_lon": 0.0, "lon": -76.9523505, "lat": 38.890968666666666, "is_reserved": 0, "is_disabled": 0, "rental_uris": {"android": "https://dc.lft.to/lastmile_qr_scan", "ios": "https://dc.lft.to/lastmile_qr_scan"}, "name": "0afec103305aa94efcbbe5e1476c11e1", "type": "electric_scooter"}, {"fusion_lat": 0.0, "bike_id": "cef405a66e567ecfd199a91f956dfd89", "fusion_lon": 0.0, "lon": -77.019481, "lat": 38.9241855, "is_reserved": 0, "is_disabled": 0, "rental_uris": {"android": "https://dc.lft.to/lastmile_qr_scan", "ios": "https://dc.lft.to/lastmile_qr_scan"}, "name": "cef405a66e567ecfd199a91f956dfd89", "type": "electric_scooter"}, {"fusion_lat": 0.0, "bike_id": "d6354413d624701c1c7e5aa81ed10287", "fusion_lon": 0.0, "lon": -77.04171, "lat": 38.914887, "is_reserved": 0, "is_disabled": 0, "rental_uris": {"android": "https://dc.lft.to/lastmile_qr_scan", "ios": "https://dc.lft.to/lastmile_qr_scan"}, "name": "d6354413d624701c1c7e5aa81ed10287", "type": "electric_scooter"}, {"fusion_lat": 0.0, "bike_id": "11b76b4818c21c5282f76b6bfcc6fc6c", "fusion_lon": 0.0, "lon": -76.97745633333334, "lat": 38.86499033333333, "is_reserved": 0, "is_disabled": 0, "rental_uris": {"android": "https://dc.lft.to/lastmile_qr_scan", "ios": "https://dc.lft.to/lastmile_qr_scan"}, "name": "11b76b4818c21c5282f76b6bfcc6fc6c", "type": "electric_bike"}, {"fusion_lat": 0.0, "bike_id": "db2ba875b0a78238c31eb9712cbc0639", "fusion_lon": 0.0, "lon": -76.97617, "lat": 38.9038735, "is_reserved": 0, "is_disabled": 0, "rental_uris": {"android": "https://dc.lft.to/lastmile_qr_scan", "ios": "https://dc.lft.to/lastmile_qr_scan"}, "name": "db2ba875b0a78238c31eb9712cbc0639", "type": "electric_scooter"}, {"fusion_lat": 0.0, "bike_id": "c48c42ea73fa0741a8a3fe4fa28c6169", "fusion_lon": 0.0, "lon": -77.034044, "lat": 38.92267066666667, "is_reserved": 0, "is_disabled": 0, "rental_uris": {"android": "https://dc.lft.to/lastmile_qr_scan", "ios": "https://dc.lft.to/lastmile_qr_scan"}, "name": "c48c42ea73fa0741a8a3fe4fa28c6169", "type": "electric_scooter"}, {"fusion_lat": 0.0, "bike_id": "0b5dbe28fdf226b4ebef53b010611b0a", "fusion_lon": 0.0, "lon": -76.95454316666667, "lat": 38.9363185, "is_reserved": 0, "is_disabled": 0, "rental_uris": {"android": "https://dc.lft.to/lastmile_qr_scan", "ios": "https://dc.lft.to/lastmile_qr_scan"}, "name": "0b5dbe28fdf226b4ebef53b010611b0a", "type": "electric_bike"}, {"fusion_lat": 0.0, "bike_id": "07c39c50ce67876ecd4537a3f2edb879", "fusion_lon": 0.0, "lon": -76.99060233333333, "lat": 38.86369833333333, "is_reserved": 0, "is_disabled": 0, "rental_uris": {"android": "https://dc.lft.to/lastmile_qr_scan", "ios": "https://dc.lft.to/lastmile_qr_scan"}, "name": "07c39c50ce67876ecd4537a3f2edb879", "type": "electric_scooter"}, {"fusion_lat": 0.0, "bike_id": "3963c77f1110cd07547c5831b69d3f06", "fusion_lon": 0.0, "lon": -77.02073916666667, "lat": 38.90404933333333, "is_reserved": 0, "is_disabled": 0, "rental_uris": {"android": "https://dc.lft.to/lastmile_qr_scan", "ios": "https://dc.lft.to/lastmile_qr_scan"}, "name": "3963c77f1110cd07547c5831b69d3f06", "type": "electric_scooter"}, {"fusion_lat": 0.0, "bike_id": "3d157a35fecb7490ad5d955232bf62f1", "fusion_lon": 0.0, "lon": -77.02225916666667, "lat": 38.935479, "is_reserved": 0, "is_disabled": 0, "rental_uris": {"android": "https://dc.lft.to/lastmile_qr_scan", "ios": "https://dc.lft.to/lastmile_qr_scan"}, "name": "3d157a35fecb7490ad5d955232bf62f1", "type": "electric_scooter"}, {"fusion_lat": 0.0, "bike_id": "7b9f9cbeb8f7efd3aac49d1cf6da9f2a", "fusion_lon": 0.0, "lon": -77.0127175, "lat": 38.892277166666666, "is_reserved": 0, "is_disabled": 0, "rental_uris": {"android": "https://dc.lft.to/lastmile_qr_scan", "ios": "https://dc.lft.to/lastmile_qr_scan"}, "name": "7b9f9cbeb8f7efd3aac49d1cf6da9f2a", "type": "electric_scooter"}, {"fusion_lat": 0.0, "bike_id": "9ae4d054ccede66a54b05628ce55715b", "fusion_lon": 0.0, "lon": -77.02867816666667, "lat": 38.8953425, "is_reserved": 0, "is_disabled": 0, "rental_uris": {"android": "https://dc.lft.to/lastmile_qr_scan", "ios": "https://dc.lft.to/lastmile_qr_scan"}, "name": "9ae4d054ccede66a54b05628ce55715b", "type": "electric_scooter"}, {"fusion_lat": 0.0, "bike_id": "fd4e00280a59686c163724a635279b93", "fusion_lon": 0.0, "lon": -77.00727216666667, "lat": 38.90366783333333, "is_reserved": 0, "is_disabled": 0, "rental_uris": {"android": "https://dc.lft.to/lastmile_qr_scan", "ios": "https://dc.lft.to/lastmile_qr_scan"}, "name": "fd4e00280a59686c163724a635279b93", "type": "electric_scooter"}, {"fusion_lat": 0.0, "bike_id": "33dcf0fd99f3ce163bc45b357a60ae50", "fusion_lon": 0.0, "lon": -76.99935283333333, "lat": 38.919275166666665, "is_reserved": 0, "is_disabled": 0, "rental_uris": {"android": "https://dc.lft.to/lastmile_qr_scan", "ios": "https://dc.lft.to/lastmile_qr_scan"}, "name": "33dcf0fd99f3ce163bc45b357a60ae50", "type": "electric_scooter"}, {"fusion_lat": 0.0, "bike_id": "1e40a969312fcbd5fcab45d38b4f5251", "fusion_lon": 0.0, "lon": -77.02848183333333, "lat": 38.932270833333334, "is_reserved": 0, "is_disabled": 0, "rental_uris": {"android": "https://dc.lft.to/lastmile_qr_scan", "ios": "https://dc.lft.to/lastmile_qr_scan"}, "name": "1e40a969312fcbd5fcab45d38b4f5251", "type": "electric_scooter"}, {"fusion_lat": 0.0, "bike_id": "210e8ec959552d3d1567a66ec0bc207a", "fusion_lon": 0.0, "lon": -77.03181883333333, "lat": 38.896265166666666, "is_reserved": 0, "is_disabled": 0, "rental_uris": {"android": "https://dc.lft.to/lastmile_qr_scan", "ios": "https://dc.lft.to/lastmile_qr_scan"}, "name": "210e8ec959552d3d1567a66ec0bc207a", "type": "electric_scooter"}, {"fusion_lat": 0.0, "bike_id": "5facf68d6a02cc8dd56210fa4786e1dd", "fusion_lon": 0.0, "lon": -77.04494516666666, "lat": 38.90503366666667, "is_reserved": 0, "is_disabled": 0, "rental_uris": {"android": "https://dc.lft.to/lastmile_qr_scan", "ios": "https://dc.lft.to/lastmile_qr_scan"}, "name": "5facf68d6a02cc8dd56210fa4786e1dd", "type": "electric_scooter"}, {"fusion_lat": 0.0, "bike_id": "aac9e2b1717680bd55f230e5f8b9a050", "fusion_lon": 0.0, "lon": -77.0317295, "lat": 38.920980166666666, "is_reserved": 0, "is_disabled": 0, "rental_uris": {"android": "https://dc.lft.to/lastmile_qr_scan", "ios": "https://dc.lft.to/lastmile_qr_scan"}, "name": "aac9e2b1717680bd55f230e5f8b9a050", "type": "electric_scooter"}, {"fusion_lat": 0.0, "bike_id": "33167b4a67698835952bc84ab5f43b9e", "fusion_lon": 0.0, "lon": -77.045951, "lat": 38.897368, "is_reserved": 0, "is_disabled": 0, "rental_uris": {"android": "https://dc.lft.to/lastmile_qr_scan", "ios": "https://dc.lft.to/lastmile_qr_scan"}, "name": "33167b4a67698835952bc84ab5f43b9e", "type": "electric_scooter"}, {"fusion_lat": 0.0, "bike_id": "50f40a5771bf699799754a2aa3173b2f", "fusion_lon": 0.0, "lon": -77.04315633333333, "lat": 38.908915, "is_reserved": 0, "is_disabled": 0, "rental_uris": {"android": "https://dc.lft.to/lastmile_qr_scan", "ios": "https://dc.lft.to/lastmile_qr_scan"},