{"data": {"bikes": [{"is_disabled": 0, "fusion_lon": 0.0, "fusion_lat": 0.0, "lat": 38.9179155, "type": "electric_scooter", "lon": -77.036576, "bike_id": "1e87902203cfa575c68e0a197d9f3a29", "rental_uris": {"android": "https://dc.lft.to/lastmile_qr_scan", "ios": "https://dc.lft.to/lastmile_qr_scan"}, "name": "1e87902203cfa575c68e0a197d9f3a29", "is_reserved": 0}, {"is_disabled": 0, "fusion_lon": 0.0, "fusion_lat": 0.0, "lat": 38.91711083333333, "type": "electric_scooter", "lon": -77.03232866666667, "bike_id": "73cfade23e534e4d81061f57caa8ea5f", "rental_uris": {"android": "https://dc.lft.to/lastmile_qr_scan", "ios": "https://dc.lft.to/lastmile_qr_scan"}, "name": "73cfade23e534e4d81061f57caa8ea5f", "is_reserved": 0}, {"is_disabled": 0, "fusion_lon": 0.0, "fusion_lat": 0.0, "lat": 38.91537983333333, "type": "electric_scooter", "lon": -77.01975183333333, "bike_id": "3670fa26bfb877a55f7dc93b491d3943", "rental_uris": {"android": "https://dc.lft.to/lastmile_qr_scan", "ios": "https://dc.lft.to/lastmile_qr_scan"}, "name": "3670fa26bfb877a55f7dc93b491d3943", "is_reserved": 0}, {"is_disabled": 0, "fusion_lon": 0.0, "fusion_lat": 0.0, "lat": 38.89262766666667, "type": "electric_scooter", "lon": -77.03178433333333, "bike_id": "f79afbb1d54f395d306b9798bf6cd394", "rental_uris": {"android": "https://dc.lft.to/lastmile_qr_scan", "ios": "https://dc.lft.to/lastmile_qr_scan"}, "name": "f79afbb1d54f395d306b9798bf6cd394", "is_reserved": 0}, {"is_disabled": 0, "fusion_lon": 0.0, "fusion_lat": 0.0, "lat": 38.900536833333334, "type": "electric_scooter", "lon": -77.01230866666667, "bike_id": "a70798cdb2da8c6885e1b3b748196c64", "rental_uris": {"android": "https://dc.lft.to/lastmile_qr_scan", "ios": "https://dc.lft.to/lastmile_qr_scan"}, "name": "a70798cdb2da8c6885e1b3b748196c64", "is_reserved": 0}, {"is_disabled": 0, "fusion_lon": 0.0, "fusion_lat": 0.0, "lat": 38.9340525, "type": "electric_scooter", "lon": -77.02719516666667, "bike_id": "64bc598e8cf752d93a228dbb45673a37", "rental_uris": {"android": "https://dc.lft.to/lastmile_qr_scan", "ios": "https://dc.lft.to/lastmile_qr_scan"}, "name": "64bc598e8cf752d93a228dbb45673a37", "is_reserved": 0}, {"is_disabled": 0, "fusion_lon": 0.0, "fusion_lat": 0.0, "lat": 38.9173105, "type": "electric_scooter", "lon": -77.04177, "bike_id": "749e7d8d2be8a545727ded4e6ff40aaf", "rental_uris": {"android": "https://dc.lft.to/lastmile_qr_scan", "ios": "https://dc.lft.to/lastmile_qr_scan"}, "name": "749e7d8d2be8a545727ded4e6ff40aaf", "is_reserved": 0}, {"is_disabled": 0, "fusion_lon": 0.0, "fusion_lat": 0.0, "lat": 38.90079816666667, "type": "electric_scooter", "lon": -77.0345025, "bike_id": "a5b006cfc986ceb6c9ea848e970e7b65", "rental_uris": {"android": "https://dc.lft.to/lastmile_qr_scan", "ios": "https://dc.lft.to/lastmile_qr_scan"}, "name": "a5b006cfc986ceb6c9ea848e970e7b65", "is_reserved": 0}, {"is_disabled": 0, "fusion_lon": 0.0, "fusion_lat": 0.0, "lat": 38.879129, "type": "electric_scooter", "lon": -77.00896, "bike_id": "da7ab2b7fb1be45b37e889d3597be65e", "rental_uris": {"android": "https://dc.lft.to/lastmile_qr_scan", "ios": "https://dc.lft.to/lastmile_qr_scan"}, "name": "da7ab2b7fb1be45b37e889d3597be65e", "is_reserved": 0}, {"is_disabled": 0, "fusion_lon": 0.0, "fusion_lat": 0.0, "lat": 38.96604966666666, "type": "electric_bike", "lon": -76.98331266666666, "bike_id": "dedfd70cb60b6082413820662f7827d9", "rental_uris": {"android": "https://dc.lft.to/lastmile_qr_scan", "ios": "https://dc.lft.to/lastmile_qr_scan"}, "name": "dedfd70cb60b6082413820662f7827d9", "is_reserved": 0}, {"is_disabled": 0, "fusion_lon": 0.0, "fusion_lat": 0.0, "lat": 38.896733166666664, "type": "electric_scooter", "lon": -76.947158, "bike_id": "90a8195bf283d8217aa3c24a1d731091", "rental_uris": {"android": "https://dc.lft.to/lastmile_qr_scan", "ios": "https://dc.lft.to/lastmile_qr_scan"}, "name": "90a8195bf283d8217aa3c24a1d731091", "is_reserved": 0}, {"is_disabled": 0, "fusion_lon": 0.0, "fusion_lat": 0.0, "lat": 38.93583133333333, "type": "electric_scooter", "lon": -77.07373233333334, "bike_id": "00edbcdadba57c5a5902d5d0b3fc730e", "rental_uris": {"android": "https://dc.lft.to/lastmile_qr_scan", "ios": "https://dc.lft.to/lastmile_qr_scan"}, "name": "00edbcdadba57c5a5902d5d0b3fc730e", "is_reserved": 0}, {"is_disabled": 0, "fusion_lon": 0.0, "fusion_lat": 0.0, "lat": 38.848408666666664, "type": "electric_bike", "lon": -77.08046766666666, "bike_id": "ba94782e854d410d04fa43debad3b953", "rental_uris": {"android": "https://dc.lft.to/lastmile_qr_scan", "ios": "https://dc.lft.to/lastmile_qr_scan"}, "name": "ba94782e854d410d04fa43debad3b953", "is_reserved": 0}, {"is_disabled": 0, "fusion_lon": 0.0, "fusion_lat": 0.0, "lat": 38.90858383333333, "type": "electric_scooter", "lon": -77.02382566666667, "bike_id": "78554434d13028ac78129d65332094df", "rental_uris": {"android": "https://dc.lft.to/lastmile_qr_scan", "ios": "https://dc.lft.to/lastmile_qr_scan"}, "name": "78554434d13028ac78129d65332094df", "is_reserved": 0}, {"is_disabled": 0, "fusion_lon": 0.0, "fusion_lat": 0.0, "lat": 38.90270183333333, "type": "electric_scooter", "lon": -77.036411, "bike_id": "047f6f5ccf4c710bc6bfcf13d04ba3ee", "rental_uris": {"android": "https://dc.lft.to/lastmile_qr_scan", "ios": "https://dc.lft.to/lastmile_qr_scan"}, "name": "047f6f5ccf4c710bc6bfcf13d04ba3ee", "is_reserved": 0}, {"is_disabled": 0, "fusion_lon": 0.0, "fusion_lat": 0.0, "lat": 38.87574866666667, "type": "electric_scooter", "lon": -77.0199275, "bike_id": "a65355d9319fe98d234444ff959ca4c2", "rental_uris": {"android": "https://dc.lft.to/lastmile_qr_scan", "ios": "https://dc.lft.to/lastmile_qr_scan"}, "name": "a65355d9319fe98d234444ff959ca4c2", "is_reserved": 0}, {"is_disabled": 0, "fusion_lon": 0.0, "fusion_lat": 0.0, "lat": 38.8429345, "type": "electric_scooter", "lon": -76.99948216666667, "bike_id": "7dfcd0a84e48f98c67ebd8edefd745e4", "rental_uris": {"android": "https://dc.lft.to/lastmile_qr_scan", "ios": "https://dc.lft.to/lastmile_qr_scan"}, "name": "7dfcd0a84e48f98c67ebd8edefd745e4", "is_reserved": 0}, {"is_disabled": 0, "fusion_lon": 0.0, "fusion_lat": 0.0, "lat": 38.9025555, "type": "electric_scooter", "lon": -77.0521565, "bike_id": "c1645ed73d2b05339ed556c588384597", "rental_uris": {"android": "https://dc.lft.to/lastmile_qr_scan", "ios": "https://dc.lft.to/lastmile_qr_scan"}, "name": "c1645ed73d2b05339ed556c588384597", "is_reserved": 0}, {"is_disabled": 0, "fusion_lon": 0.0, "fusion_lat": 0.0, "lat": 38.88702466666667, "type": "electric_scooter", "lon": -76.95362066666667, "bike_id": "54e3fad2ccf5361c598c76f647f9b6b8", "rental_uris": {"android": "https://dc.lft.to/lastmile_qr_scan", "ios": "https://dc.lft.to/lastmile_qr_scan"}, "name": "54e3fad2ccf5361c598c76f647f9b6b8", "is_reserved": 0}, {"is_disabled": 0, "fusion_lon": 0.0, "fusion_lat": 0.0, "lat": 38.94455516666667, "type": "electric_scooter", "lon": -77.00653016666666, "bike_id": "81c714fdcaf1e67dd4fe1c694ec807f8", "rental_uris": {"android": "https://dc.lft.to/lastmile_qr_scan", "ios": "https://dc.lft.to/lastmile_qr_scan"}, "name": "81c714fdcaf1e67dd4fe1c694ec807f8", "is_reserved": 0}, {"is_disabled": 0, "fusion_lon": 0.0, "fusion_lat": 0.0, "lat": 38.915178833333336, "type": "electric_scooter", "lon": -77.01981866666667, "bike_id": "a2728b6c4952f8e6a29cc70a5c554790", "rental_uris": {"android": "https://dc.lft.to/lastmile_qr_scan", "ios": "https://dc.lft.to/lastmile_qr_scan"}, "name": "a2728b6c4952f8e6a29cc70a5c554790", "is_reserved": 0}, {"is_disabled": 0, "fusion_lon": 0.0, "fusion_lat": 0.0, "lat": 38.910431, "type": "electric_scooter", "lon": -77.04354683333334, "bike_id": "1eeeb5b9d4bd9585965636ed78e506f2", "rental_uris": {"android": "https://dc.lft.to/lastmile_qr_scan", "ios": "https://dc.lft.to/lastmile_qr_scan"}, "name": "1eeeb5b9d4bd9585965636ed78e506f2", "is_reserved": 0}, {"is_disabled": 0, "fusion_lon": 0.0, "fusion_lat": 0.0, "lat": 38.9008855, "type": "electric_scooter", "lon": -77.019784, "bike_id": "9e83461e47231da9ad8424ae40485984", "rental_uris": {"android": "https://dc.lft.to/lastmile_qr_scan", "ios": "https://dc.lft.to/lastmile_qr_scan"}, "name": "9e83461e47231da9ad8424ae40485984", "is_reserved": 0}, {"is_disabled": 0, "fusion_lon": 0.0, "fusion_lat": 0.0, "lat": 38.92002133333333, "type": "electric_scooter", "lon": -77.03282133333333, "bike_id": "6ffe271d528d33935a15c4f9ea7c91fe", "rental_uris": {"android": "https://dc.lft.to/lastmile_qr_scan", "ios": "https://dc.lft.to/lastmile_qr_scan"}, "name": "6ffe271d528d33935a15c4f9ea7c91fe", "is_reserved": 0}, {"is_disabled": 0, "fusion_lon": 0.0, "fusion_lat": 0.0, "lat": 38.94198933333333, "type": "electric_scooter", "lon": -77.02416133333334, "bike_id": "71e0c32b4580276c8eaee9d9c059d070", "rental_uris": {"android": "https://dc.lft.to/lastmile_qr_scan", "ios": "https://dc.lft.to/lastmile_qr_scan"}, "name": "71e0c32b4580276c8eaee9d9c059d070", "is_reserved": 0}, {"is_disabled": 0, "fusion_lon": 0.0, "fusion_lat": 0.0, "lat": 38.928772333333335, "type": "electric_scooter", "lon": -77.03275466666666, "bike_id": "9ecb5dcde645a5ba6fc5bde3196c6cef", "rental_uris": {"android": "https://dc.lft.to/lastmile_qr_scan", "ios": "https://dc.lft.to/lastmile_qr_scan"}, "name": "9ecb5dcde645a5ba6fc5bde3196c6cef", "is_reserved": 0}, {"is_disabled": 0, "fusion_lon": 0.0, "fusion_lat": 0.0, "lat": 38.8831105, "type": "electric_bike", "lon": -76.99615083333333, "bike_id": "b1063afd2ecba2db177e9db55e536ccd", "rental_uris": {"android": "https://dc.lft.to/lastmile_qr_scan", "ios": "https://dc.lft.to/lastmile_qr_scan"}, "name": "b1063afd2ecba2db177e9db55e536ccd", "is_reserved": 0}, {"is_disabled": 0, "fusion_lon": 0.0, "fusion_lat": 0.0, "lat": 38.9056025, "type": "electric_scooter", "lon": -77.00703716666666, "bike_id": "3777112624e4e4a1203d93fdb104c96e", "rental_uris": {"android": "https://dc.lft.to/lastmile_qr_scan", "ios": "https://dc.lft.to/lastmile_qr_scan"}, "name": "3777112624e4e4a1203d93fdb104c96e", "is_reserved": 0}, {"is_disabled": 0, "fusion_lon": 0.0, "fusion_lat": 0.0, "lat": 38.96261, "type": "electric_scooter", "lon": -77.02904166666667, "bike_id": "b0697051282b38d533b578874739530a", "rental_uris": {"android": "https://dc.lft.to/lastmile_qr_scan", "ios": "https://dc.lft.to/lastmile_qr_scan"}, "name": "b0697051282b38d533b578874739530a", "is_reserved": 0}, {"is_disabled": 0, "fusion_lon": 0.0, "fusion_lat": 0.0, "lat": 38.82445416666667, "type": "electric_bike", "lon": -77.07047783333333, "bike_id": "93f01a133f1f43e85aa71bf1d3ff4bbb", "rental_uris": {"android": "https://dc.lft.to/lastmile_qr_scan", "ios": "https://dc.lft.to/lastmile_qr_scan"}, "name": "93f01a133f1f43e85aa71bf1d3ff4bbb", "is_reserved": 0}, {"is_disabled": 0, "fusion_lon": 0.0, "fusion_lat": 0.0, "lat": 38.8278355, "type": "electric_bike", "lon": -77.11084, "bike_id": "9c93f14e160cd9c29d684d14e4a5c54c", "rental_uris": {"android": "https://dc.lft.to/lastmile_qr_scan", "ios": "https://dc.lft.to/lastmile_qr_scan"}, "name": "9c93f14e160cd9c29d684d14e4a5c54c", "is_reserved": 0}, {"is_disabled": 0, "fusion_lon": 0.0, "fusion_lat": 0.0, "lat": 38.921548, "type": "electric_scooter", "lon": -77.034405, "bike_id": "2d4daf3d3f17c89b636b2ff51d094623", "rental_uris": {"android": "https://dc.lft.to/lastmile_qr_scan", "ios": "https://dc.lft.to/lastmile_qr_scan"}, "name": "2d4daf3d3f17c89b636b2ff51d094623", "is_reserved": 0}, {"is_disabled": 0, "fusion_lon": 0.0, "fusion_lat": 0.0, "lat": 38.865362833333336, "type": "electric_bike", "lon": -77.12817116666666, "bike_id": "077ea676406e4abed5329991dcda1dea", "rental_uris": {"android": "https://dc.lft.to/lastmile_qr_scan", "ios": "https://dc.lft.to/lastmile_qr_scan"}, "name": "077ea676406e4abed5329991dcda1dea", "is_reserved": 0}, {"is_disabled": 0, "fusion_lon": 0.0, "fusion_lat": 0.0, "lat": 38.91598833333333, "type": "electric_scooter", "lon": -77.02303216666667, "bike_id": "9c326c5dc19994cd9e878e6776f33a2e", "rental_uris": {"android": "https://dc.lft.to/lastmile_qr_scan", "ios": "https://dc.lft.to/lastmile_qr_scan"}, "name": "9c326c5dc19994cd9e878e6776f33a2e", "is_reserved": 0}, {"is_disabled": 0, "fusion_lon": 0.0, "fusion_lat": 0.0, "lat": 38.922327, "type": "electric_scooter", "lon": -77.04203533333333, "bike_id": "4aaa2ec3155d41f5c93598ae2c3b6f98", "rental_uris": {"android": "https://dc.lft.to/lastmile_qr_scan", "ios": "https://dc.lft.to/lastmile_qr_scan"}, "name": "4aaa2ec3155d41f5c93598ae2c3b6f98", "is_reserved": 0}, {"is_disabled": 0, "fusion_lon": 0.0, "fusion_lat": 0.0, "lat": 38.92277166666667, "type": "electric_scooter", "lon": -77.044638, "bike_id": "a56b615e39f32fd7c2a4066fce4e1d1e", "rental_uris": {"android": "https://dc.lft.to/lastmile_qr_scan", "ios": "https://dc.lft.to/lastmile_qr_scan"}, "name": "a56b615e39f32fd7c2a4066fce4e1d1e", "is_reserved": 0}, {"is_disabled": 0, "fusion_lon": 0.0, "fusion_lat": 0.0, "lat": 38.90523016666667, "type": "electric_scooter", "lon": -77.0678125, "bike_id": "a72c7ea0ca6180adc56620f545949fae", "rental_uris": {"android": "https://dc.lft.to/lastmile_qr_scan", "ios": "https://dc.lft.to/lastmile_qr_scan"}, "name": "a72c7ea0ca6180adc56620f545949fae", "is_reserved": 0}, {"is_disabled": 0, "fusion_lon": 0.0, "fusion_lat": 0.0, "lat": 38.914353, "type": "electric_scooter", "lon": -77.032097, "bike_id": "6bd785f52980f6161dc42326c1f36f03", "rental_uris": {"android": "https://dc.lft.to/lastmile_qr_scan", "ios": "https://dc.lft.to/lastmile_qr_scan"}, "name": "6bd785f52980f6161dc42326c1f36f03", "is_reserved": 0}, {"is_disabled": 0, "fusion_lon": 0.0, "fusion_lat": 0.0, "lat": 38.89967033333333, "type": "electric_scooter", "lon": -76.93978283333334, "bike_id": "b03a321fdbb1adaafa3fcb9745f72fb0", "rental_uris": {"android": "https://dc.lft.to/lastmile_qr_scan", "ios": "https://dc.lft.to/lastmile_qr_scan"}, "name": "b03a321fdbb1adaafa3fcb9745f72fb0", "is_reserved": 0}, {"is_disabled": 0, "fusion_lon": 0.0, "fusion_lat": 0.0, "lat": 38.92048366666667, "type": "electric_scooter", "lon": -77.03287666666667, "bike_id": "4db4ff95b4a2a50dbb7ebdd5ee6885a8", "rental_uris": {"android": "https://dc.lft.to/lastmile_qr_scan", "ios": "https://dc.lft.to/lastmile_qr_scan"}, "name": "4db4ff95b4a2a50dbb7ebdd5ee6885a8", "is_reserved": 0}, {"is_disabled": 0, "fusion_lon": 0.0, "fusion_lat": 0.0, "lat": 39.11508366666666, "type": "electric_bike", "lon": -77.19546116666666, "bike_id": "3161ba85e772dfdde42fd9e30d50439e", "rental_uris": {"android": "https://dc.lft.to/lastmile_qr_scan", "ios": "https://dc.lft.to/lastmile_qr_scan"}, "name": "3161ba85e772dfdde42fd9e30d50439e", "is_reserved": 0}, {"is_disabled": 0, "fusion_lon": 0.0, "fusion_lat": 0.0, "lat": 38.93048566666667, "type": "electric_scooter", "lon": -77.00417416666667, "bike_id": "93615131fad19ca9baaf51b65db0fdd8", "rental_uris": {"android": "https://dc.lft.to/lastmile_qr_scan", "ios": "https://dc.lft.to/lastmile_qr_scan"}, "name": "93615131fad19ca9baaf51b65db0fdd8", "is_reserved": 0}, {"is_disabled": 0, "fusion_lon": 0.0, "fusion_lat": 0.0, "lat": 38.857188666666666, "type": "electric_bike", "lon": -76.98110683333333, "bike_id": "1ff1d08462198c2c7a6862a8bb2a274d", "rental_uris": {"android": "https://dc.lft.to/lastmile_qr_scan", "ios": "https://dc.lft.to/lastmile_qr_scan"}, "name": "1ff1d08462198c2c7a6862a8bb2a274d", "is_reserved": 0}, {"is_disabled": 0, "fusion_lon": 0.0, "fusion_lat": 0.0, "lat": 38.91555816666666, "type": "electric_scooter", "lon": -77.03875983333333, "bike_id": "3b312ad68e909f11bd7060817b2bea60", "rental_uris": {"android": "https://dc.lft.to/lastmile_qr_scan", "ios": "https://dc.lft.to/lastmile_qr_scan"}, "name": "3b312ad68e909f11bd7060817b2bea60", "is_reserved": 0}, {"is_disabled": 0, "fusion_lon": 0.0, "fusion_lat": 0.0, "lat": 38.928659833333334, "type": "electric_scooter", "lon": -77.03427133333334, "bike_id": "bc0fc1926362e1b0d363a181594876e6", "rental_uris": {"android": "https://dc.lft.to/lastmile_qr_scan", "ios": "https://dc.lft.to/lastmile_qr_scan"}, "name": "bc0fc1926362e1b0d363a181594876e6", "is_reserved": 0}, {"is_disabled": 0, "fusion_lon": 0.0, "fusion_lat": 0.0, "lat": 38.910467, "type": "electric_scooter", "lon": -77.043562, "bike_id": "d84edbee737789bd5104e356b53bb530", "rental_uris": {"android": "https://dc.lft.to/lastmile_qr_scan", "ios": "https://dc.lft.to/lastmile_qr_scan"}, "name": "d84edbee737789bd5104e356b53bb530", "is_reserved": 0}, {"is_disabled": 0, "fusion_lon": 0.0, "fusion_lat": 0.0, "lat": 39.02496766666667, "type": "electric_bike", "lon": -77.125698, "bike_id": "c389a2e8e6c3ef79980f2dd186e92b0f", "rental_uris": {"android": "https://dc.lft.to/lastmile_qr_scan", "ios": "https://dc.lft.to/lastmile_qr_scan"}, "name": "c389a2e8e6c3ef79980f2dd186e92b0f", "is_reserved": 0}, {"is_disabled": 0, "fusion_lon": 0.0, "fusion_lat": 0.0, "lat": 38.930864166666666, "type": "electric_scooter", "lon": -77.03623233333333, "bike_id": "27e8c8c8256f4dbe20e21e58ff3c7e57", "rental_uris": {"android": "https://dc.lft.to/lastmile_qr_scan", "ios": "https://dc.lft.to/lastmile_qr_scan"}, "name": "27e8c8c8256f4dbe20e21e58ff3c7e57", "is_reserved": 0}, {"is_disabled": 0, "fusion_lon": 0.0, "fusion_lat": 0.0, "lat": 38.9263805, "type": "electric_scooter", "lon": -77.03635733333333, "bike_id": "5e5dd10b52617d4a0d875239ccb648ab", "rental_uris": {"android": "https://dc.lft.to/lastmile_qr_scan", "ios": "https://dc.lft.to/lastmile_qr_scan"}, "name": "5e5dd10b52617d4a0d875239ccb648ab", "is_reserved": 0}, {"is_disabled": 0, "fusion_lon": 0.0, "fusion_lat": 0.0, "lat": 38.930528333333335, "type": "electric_scooter", "lon": -77.02974933333333, "bike_id": "dfac4aa63a739da11df8e1210b6486c5", "rental_uris": {"android": "https://dc.lft.to/lastmile_qr_scan", "ios": "https://dc.lft.to/lastmile_qr_scan"}, "name": "dfac4aa63a739da11df8e1210b6486c5", "is_reserved": 0}, {"is_disabled": 0, "fusion_lon": 0.0, "fusion_lat": 0.0, "lat": 38.9431355, "type": "electric_scooter", "lon": -77.06166616666667, "bike_id": "c9a97722c133c780dd9cd3b7bc91f29c", "rental_uris": {"android": "https://dc.lft.to/lastmile_qr_scan", "ios": "https://dc.lft.to/lastmile_qr_scan"}, "name": "c9a97722c133c780dd9cd3b7bc91f29c", "is_reserved": 0}, {"is_disabled": 0, "fusion_lon": 0.0, "fusion_lat": 0.0, "lat": 38.909772, "type": "electric_scooter", "lon": -77.0344285, "bike_id": "f39f406d8fba475108f06a287a192dc2", "rental_uris": {"android": "https://dc.lft.to/lastmile_qr_scan", "ios": "https://dc.lft.to/lastmile_qr_scan"}, "name": "f39f406d8fba475108f06a287a192dc2", "is_reserved": 0}, {"is_disabled": 0, "fusion_lon": 0.0, "fusion_lat": 0.0, "lat": 38.901264166666664, "type": "electric_scooter", "lon": -77.04420816666666, "bike_id": "b8fc3151fed47b665acbbcb9103ba562", "rental_uris": {"android": "https://dc.lft.to/lastmile_qr_scan", "ios": "https://dc.lft.to/lastmile_qr_scan"}, "name": "b8fc3151fed47b665acbbcb9103ba562", "is_reserved": 0}, {"is_disabled": 0, "fusion_lon": 0.0, "fusion_lat": 0.0, "lat": 38.911121666666666, "type": "electric_scooter", "lon": -77.03569666666667, "bike_id": "ad46d2bac569a7a2d183877270e6f1d3", "rental_uris": {"android": "https://dc.lft.to/lastmile_qr_scan", "ios": "https://dc.lft.to/lastmile_qr_scan"}, "name": "ad46d2bac569a7a2d183877270e6f1d3", "is_reserved": 0}, {"is_disabled": 0, "fusion_lon": 0.0, "fusion_lat": 0.0, "lat": 38.89201033333333, "type": "electric_scooter", "lon": -76.94264183333334, "bike_id": "994d8803ed30df08be675fdd7f634706", "rental_uris": {"android": "https://dc.lft.to/lastmile_qr_scan", "ios": "https://dc.lft.to/lastmile_qr_scan"}, "name": "994d8803ed30df08be675fdd7f634706", "is_reserved": 0}, {"is_disabled": 0, "fusion_lon": 0.0, "fusion_lat": 0.0, "lat": 38.89822016666667, "type": "electric_scooter", "lon": -77.0291005, "bike_id": "9639dd0628fba06b89611b9e118ff3b8", "rental_uris": {"android": "https://dc.lft.to/lastmile_qr_scan", "ios": "https://dc.lft.to/lastmile_qr_scan"}, "name": "9639dd0628fba06b89611b9e118ff3b8", "is_reserved": 0}, {"is_disabled": 0, "fusion_lon": 0.0, "fusion_lat": 0.0, "lat": 38.882517666666665, "type": "electric_scooter", "lon": -77.003513, "bike_id": "b6419ad4401f2e64d16e9dd5a555a3f7", "rental_uris": {"android": "https://dc.lft.to/lastmile_qr_scan", "ios": "https://dc.lft.to/lastmile_qr_scan"}, "name": "b6419ad4401f2e64d16e9dd5a555a3f7", "is_reserved": 0}, {"is_disabled": 0, "fusion_lon": 0.0, "fusion_lat": 0.0, "lat": 38.8766555, "type": "electric_scooter", "lon": -77.00423033333334, "bike_id": "28bb5946384285a6280187d8aa556258", "rental_uris": {"android": "https://dc.lft.to/lastmile_qr_scan", "ios": "https://dc.lft.to/lastmile_qr_scan"}, "name": "28bb5946384285a6280187d8aa556258", "is_reserved": 0}, {"is_disabled": 0, "fusion_lon": 0.0, "fusion_lat": 0.0, "lat": 38.90137883333333, "type": "electric_scooter", "lon": -77.030486, "bike_id": "132dcdf7efdd24dddca1579a9d3b9375", "rental_uris": {"android": "https://dc.lft.to/lastmile_qr_scan", "ios": "https://dc.lft.to/lastmile_qr_scan"}, "name": "132dcdf7efdd24dddca1579a9d3b9375", "is_reserved": 0}, {"is_disabled": 0, "fusion_lon": 0.0, "fusion_lat": 0.0, "lat": 38.922576, "type": "electric_scooter", "lon": -77.03070166666667, "bike_id": "fcde46b7860f2020c94c1064b883153f", "rental_uris": {"android": "https://dc.lft.to/lastmile_qr_scan", "ios": "https://dc.lft.to/lastmile_qr_scan"}, "name": "fcde46b7860f2020c94c1064b883153f", "is_reserved": 0}, {"is_disabled": 0, "fusion_lon": 0.0, "fusion_lat": 0.0, "lat": 38.96306216666667, "type": "electric_bike", "lon": -77.05762833333333, "bike_id": "20e843b42d0b70a60a48d97decf598d7", "rental_uris": {"android": "https://dc.lft.to/lastmile_qr_scan", "ios": "https://dc.lft.to/lastmile_qr_scan"}, "name": "20e843b42d0b70a60a48d97decf598d7", "is_reserved": 0}, {"is_disabled": 0, "fusion_lon": 0.0, "fusion_lat": 0.0, "lat": 38.90481583333333, "type": "electric_scooter", "lon": -77.03840133333334, "bike_id": "fa32dc5efea604d3b83db2bfcea478a0", "rental_uris": {"android": "https://dc.lft.to/lastmile_qr_scan", "ios": "https://dc.lft.to/lastmile_qr_scan"}, "name": "fa32dc5efea604d3b83db2bfcea478a0", "is_reserved": 0}, {"is_disabled": 0, "fusion_lon": 0.0, "fusion_lat": 0.0, "lat": 38.86846216666667, "type": "electric_bike", "lon": -77.09728066666666, "bike_id": "4d479a7ee3c1b7bceb847f05e9262d11", "rental_uris": {"android": "https://dc.lft.to/lastmile_qr_scan", "ios": "https://dc.lft.to/lastmile_qr_scan"}, "name": "4d479a7ee3c1b7bceb847f05e9262d11", "is_reserved": 0}, {"is_disabled": 0, "fusion_lon": 0.0, "fusion_lat": 0.0, "lat": 38.945434166666665, "type": "electric_scooter", "lon": -77.04242166666667, "bike_id": "04cf386aa6763f2c996a24ba65365e23", "rental_uris": {"android": "https://dc.lft.to/lastmile_qr_scan", "ios": "https://dc.lft.to/lastmile_qr_scan"}, "name": "04cf386aa6763f2c996a24ba65365e23", "is_reserved": 0}, {"is_disabled": 0, "fusion_lon": 0.0, "fusion_lat": 0.0, "lat": 38.879245166666664, "type": "electric_scooter", "lon": -77.00051433333333, "bike_id": "2af87fb9809b187f318718bb1aca0b60", "rental_uris": {"android": "https://dc.lft.to/lastmile_qr_scan", "ios": "https://dc.lft.to/lastmile_qr_scan"}, "name": "2af87fb9809b187f318718bb1aca0b60", "is_reserved": 0}, {"is_disabled": 0, "fusion_lon": 0.0, "fusion_lat": 0.0, "lat": 38.833537, "type": "electric_bike", "lon": -76.96559816666667, "bike_id": "74143391d00edaddb89e30fc2536abee", "rental_uris": {"android": "https://dc.lft.to/lastmile_qr_scan", "ios": "https://dc.lft.to/lastmile_qr_scan"}, "name": "74143391d00edaddb89e30fc2536abee", "is_reserved": 0}, {"is_disabled": 0, "fusion_lon": 0.0, "fusion_lat": 0.0, "lat": 38.89220616666667, "type": "electric_scooter", "lon": -77.03197733333333, "bike_id": "0b3e6bf7b06c620a047591f04c372890", "rental_uris": {"android": "https://dc.lft.to/lastmile_qr_scan", "ios": "https://dc.lft.to/lastmile_qr_scan"}, "name": "0b3e6bf7b06c620a047591f04c372890", "is_reserved": 0}, {"is_disabled": 0, "fusion_lon": 0.0, "fusion_lat": 0.0, "lat": 38.918587333333335, "type": "electric_bike", "lon": -76.96089216666667, "bike_id": "125dede9129eb7e1fa7e02b6a9317cce", "rental_uris": {"android": "https://dc.lft.to/lastmile_qr_scan", "ios": "https://dc.lft.to/lastmile_qr_scan"}, "name": "125dede9129eb7e1fa7e02b6a9317cce", "is_reserved": 0}, {"is_disabled": 0, "fusion_lon": 0.0, "fusion_lat": 0.0, "lat": 38.95061483333333, "type": "electric_bike", "lon": -76.96735766666667, "bike_id": "cd8541d87157a1e03c8b603713666cac", "rental_uris": {"android": "https://dc.lft.to/lastmile_qr_scan", "ios": "https://dc.lft.to/lastmile_qr_scan"}, "name": "cd8541d87157a1e03c8b603713666cac", "is_reserved": 0}, {"is_disabled": 0, "fusion_lon": 0.0, "fusion_lat": 0.0, "lat": 38.93272916666667, "type": "electric_scooter", "lon": -76.99686833333334, "bike_id": "44951974745b7066ec5a1fe36c7b6bb6", "rental_uris": {"android": "https://dc.lft.to/lastmile_qr_scan", "ios": "https://dc.lft.to/lastmile_qr_scan"}, "name": "44951974745b7066ec5a1fe36c7b6bb6", "is_reserved": 0}, {"is_disabled": 0, "fusion_lon": 0.0, "fusion_lat": 0.0, "lat": 38.8998165, "type": "electric_scooter", "lon": -77.02678116666667, "bike_id": "f69a02c3b11aff91156d06f4f698b356", "rental_uris": {"android": "https://dc.lft.to/lastmile_qr_scan", "ios": "https://dc.lft.to/lastmile_qr_scan"}, "name": "f69a02c3b11aff91156d06f4f698b356", "is_reserved": 0}, {"is_disabled": 0, "fusion_lon": 0.0, "fusion_lat": 0.0, "lat": 38.914962, "type": "electric_scooter", "lon": -77.01982566666666, "bike_id": "f68694bfc0b4a59ebfa8c6bec3505524", "rental_uris": {"android": "https://dc.lft.to/lastmile_qr_scan", "ios": "https://dc.lft.to/lastmile_qr_scan"}, "name": "f68694bfc0b4a59ebfa8c6bec3505524", "is_reserved": 0}, {"is_disabled": 0, "fusion_lon": 0.0, "fusion_lat": 0.0, "lat": 38.96117383333333, "type": "electric_bike", "lon": -77.068984, "bike_id": "4eb555ca914c47324b1486ba1ec806f1", "rental_uris": {"android": "https://dc.lft.to/lastmile_qr_scan", "ios": "https://dc.lft.to/lastmile_qr_scan"}, "name": "4eb555ca914c47324b1486ba1ec806f1", "is_reserved": 0}, {"is_disabled": 0, "fusion_lon": 0.0, "fusion_lat": 0.0, "lat": 38.899130166666666, "type": "electric_scooter", "lon": -76.93389166666667, "bike_id": "67353d2bf96f100dffe6176e174c8192", "rental_uris": {"android": "https://dc.lft.to/lastmile_qr_scan", "ios": "https://dc.lft.to/lastmile_qr_scan"}, "name": "67353d2bf96f100dffe6176e174c8192", "is_reserved": 0}, {"is_disabled": 0, "fusion_lon": 0.0, "fusion_lat": 0.0, "lat": 38.88755333333334, "type": "electric_scooter", "lon": -76.99614616666666, "bike_id": "9640ec2f0ac98f2e298cf0eae5180ad0", "rental_uris": {"android": "https://dc.lft.to/lastmile_qr_scan", "ios": "https://dc.lft.to/lastmile_qr_scan"}, "name": "9640ec2f0ac98f2e298cf0eae5180ad0", "is_reserved": 0}, {"is_disabled": 0, "fusion_lon": 0.0, "fusion_lat": 0.0, "lat": 38.87148283333333, "type": "electric_scooter", "lon": -76.978943, "bike_id": "5a32f69ddde312828737e97fda88e62a", "rental_uris": {"android": "https://dc.lft.to/lastmile_qr_scan", "ios": "https://dc.lft.to/lastmile_qr_scan"}, "name": "5a32f69ddde312828737e97fda88e62a", "is_reserved": 0}, {"is_disabled": 0, "fusion_lon": 0.0, "fusion_lat": 0.0, "lat": 38.88739983333333, "type": "electric_scooter", "lon": -77.01524816666667, "bike_id": "6a22aba295ac3fe74fb5a70bfb9e7032", "rental_uris": {"android": "https://dc.lft.to/lastmile_qr_scan", "ios": "https://dc.lft.to/lastmile_qr_scan"}, "name": "6a22aba295ac3fe74fb5a70bfb9e7032", "is_reserved": 0}, {"is_disabled": 0, "fusion_lon": 0.0, "fusion_lat": 0.0, "lat": 38.900593, "type": "electric_scooter", "lon": -77.00066633333333, "bike_id": "e422c951308d1e34a6f2173606476a2f", "rental_uris": {"android": "https://dc.lft.to/lastmile_qr_scan", "ios": "https://dc.lft.to/lastmile_qr_scan"}, "name": "e422c951308d1e34a6f2173606476a2f", "is_reserved": 0}, {"is_disabled": 0, "fusion_lon": 0.0, "fusion_lat": 0.0, "lat": 38.924217, "type": "electric_scooter", "lon": -77.05625983333333, "bike_id": "6d1d609038edc4c732ce2756975d56db", "rental_uris": {"android": "https://dc.lft.to/lastmile_qr_scan", "ios": "https://dc.lft.to/lastmile_qr_scan"}, "name": "6d1d609038edc4c732ce2756975d56db", "is_reserved": 0}, {"is_disabled": 0, "fusion_lon": 0.0, "fusion_lat": 0.0, "lat": 38.907442333333336, "type": "electric_scooter", "lon": -77.03475066666667, "bike_id": "22f59a0aef2e79ed538fe5d22ddb10e9", "rental_uris": {"android": "https://dc.lft.to/lastmile_qr_scan", "ios": "https://dc.lft.to/lastmile_qr_scan"}, "name": "22f59a0aef2e79ed538fe5d22ddb10e9", "is_reserved": 0}, {"is_disabled": 0, "fusion_lon": 0.0, "fusion_lat": 0.0, "lat": 38.935564666666664, "type": "electric_scooter", "lon": -77.029653, "bike_id": "63bf78c6bfb1bb1f15d5751dcb515a78", "rental_uris": {"android": "https://dc.lft.to/lastmile_qr_scan", "ios": "https://dc.lft.to/lastmile_qr_scan"}, "name": "63bf78c6bfb1bb1f15d5751dcb515a78", "is_reserved": 0}, {"is_disabled": 0, "fusion_lon": 0.0, "fusion_lat": 0.0, "lat": 38.96919, "type": "electric_bike", "lon": -77.026192, "bike_id": "f834b8a3b91a9ff26ff5855081890896", "rental_uris": {"android": "https://dc.lft.to/lastmile_qr_scan", "ios": "https://dc.lft.to/lastmile_qr_scan"}, "name": "f834b8a3b91a9ff26ff5855081890896", "is_reserved": 0}, {"is_disabled": 0, "fusion_lon": 0.0, "fusion_lat": 0.0, "lat": 38.9169785, "type": "electric_scooter", "lon": -77.03216566666667, "bike_id": "19847022abc563d54b4ee46df6f35fe8", "rental_uris": {"android": "https://dc.lft.to/lastmile_qr_scan", "ios": "https://dc.lft.to/lastmile_qr_scan"}, "name": "19847022abc563d54b4ee46df6f35fe8", "is_reserved": 0}, {"is_disabled": 0, "fusion_lon": 0.0, "fusion_lat": 0.0, "lat": 38.91479283333334, "type": "electric_scooter", "lon": -77.0441485, "bike_id": "208507763b504d75b79ff925dccf56ab", "rental_uris": {"android": "https://dc.lft.to/lastmile_qr_scan", "ios": "https://dc.lft.to/lastmile_qr_scan"}, "name": "208507763b504d75b79ff925dccf56ab", "is_reserved": 0}, {"is_disabled": 0, "fusion_lon": 0.0, "fusion_lat": 0.0, "lat": 38.91855833333334, "type": "electric_bike", "lon": -76.96176133333333, "bike_id": "f9f09ecaf6e36564b8a88c14f12bf9f4", "rental_uris": {"android": "https://dc.lft.to/lastmile_qr_scan", "ios": "https://dc.lft.to/lastmile_qr_scan"}, "name": "f9f09ecaf6e36564b8a88c14f12bf9f4", "is_reserved": 0}, {"is_disabled": 0, "fusion_lon": 0.0, "fusion_lat": 0.0, "lat": 38.924438, "type": "electric_scooter", "lon": -77.04029283333334, "bike_id": "3cade7e39b91fd9e4d7f250faa35ed34", "rental_uris": {"android": "https://dc.lft.to/lastmile_qr_scan", "ios": "https://dc.lft.to/lastmile_qr_scan"}, "name": "3cade7e39b91fd9e4d7f250faa35ed34", "is_reserved": 0}, {"is_disabled": 0, "fusion_lon": 0.0, "fusion_lat": 0.0, "lat": 38.944933, "type": "electric_bike", "lon": -76.98660116666667, "bike_id": "5d7b618626b434169e2035a94f07b73a", "rental_uris": {"android": "https://dc.lft.to/lastmile_qr_scan", "ios": "https://dc.lft.to/lastmile_qr_scan"}, "name": "5d7b618626b434169e2035a94f07b73a", "is_reserved": 0}, {"is_disabled": 0, "fusion_lon": 0.0, "fusion_lat": 0.0, "lat": 38.919139666666666, "type": "electric_scooter", "lon": -77.0250895, "bike_id": "76c1a0d8d52f5050580e53ff595317fd", "rental_uris": {"android": "https://dc.lft.to/lastmile_qr_scan", "ios": "https://dc.lft.to/lastmile_qr_scan"}, "name": "76c1a0d8d52f5050580e53ff595317fd", "is_reserved": 0}, {"is_disabled": 0, "fusion_lon": 0.0, "fusion_lat": 0.0, "lat": 38.926431, "type": "electric_scooter", "lon": -77.03871433333333, "bike_id": "4d007cb558a146114bce778ee3c389ea", "rental_uris": {"android": "https://dc.lft.to/lastmile_qr_scan", "ios": "https://dc.lft.to/lastmile_qr_scan"}, "name": "4d007cb558a146114bce778ee3c389ea", "is_reserved": 0}, {"is_disabled": 0, "fusion_lon": 0.0, "fusion_lat": 0.0, "lat": 38.89600633333333, "type": "electric_scooter", "lon": -77.023072, "bike_id": "c395a75e849ae3100b23f9d99e8d7bce", "rental_uris": {"android": "https://dc.lft.to/lastmile_qr_scan", "ios": "https://dc.lft.to/lastmile_qr_scan"}, "name": "c395a75e849ae3100b23f9d99e8d7bce", "is_reserved": 0}, {"is_disabled": 0, "fusion_lon": 0.0, "fusion_lat": 0.0, "lat": 38.91176033333333, "type": "electric_scooter", "lon": -77.0269885, "bike_id": "8ffa6990d8a66097ec91ba3bea5972f9", "rental_uris": {"android": "https://dc.lft.to/lastmile_qr_scan", "ios": "https://dc.lft.to/lastmile_qr_scan"}, "name": "8ffa6990d8a66097ec91ba3bea5972f9", "is_reserved": 0}, {"is_disabled": 0, "fusion_lon": 0.0, "fusion_lat": 0.0, "lat": 38.89489316666667, "type": "electric_scooter", "lon": -77.02297416666667, "bike_id": "44f65d14b8dbeb9a8f63f5dd1ce5440b", "rental_uris": {"android": "https://dc.lft.to/lastmile_qr_scan", "ios": "https://dc.lft.to/lastmile_qr_scan"}, "name": "44f65d14b8dbeb9a8f63f5dd1ce5440b", "is_reserved": 0}, {"is_disabled": 0, "fusion_lon": 0.0, "fusion_lat": 0.0, "lat": 38.9242585, "type": "electric_scooter", "lon": -77.0447965, "bike_id": "7119833d55fffa24f3ab93fc3436bb02", "rental_uris": {"android": "https://dc.lft.to/lastmile_qr_scan", "ios": "https://dc.lft.to/lastmile_qr_scan"}, "name": "7119833d55fffa24f3ab93fc3436bb02", "is_reserved": 0}, {"is_disabled": 0, "fusion_lon": 0.0, "fusion_lat": 0.0, "lat": 38.93548633333333, "type": "electric_scooter", "lon": -77.058104, "bike_id": "4fc1a923f3c2c520f17622259176a353", "rental_uris": {"android": "https://dc.lft.to/lastmile_qr_scan", "ios": "https://dc.lft.to/lastmile_qr_scan"}, "name": "4fc1a923f3c2c520f17622259176a353", "is_reserved": 0}, {"is_disabled": 0, "fusion_lon": 0.0, "fusion_lat": 0.0, "lat": 38.903571166666666, "type": "electric_scooter", "lon": -77.03993616666666, "bike_id": "9f8a7795d3b160711c4de71668f7bccc", "rental_uris": {"android": "https://dc.lft.to/lastmile_qr_scan", "ios": "https://dc.lft.to/lastmile_qr_scan"}, "name": "9f8a7795d3b160711c4de71668f7bccc", "is_reserved": 0}, {"is_disabled": 0, "fusion_lon": 0.0, "fusion_lat": 0.0, "lat": 38.99091133333334, "type": "electric_bike", "lon": -76.87495, "bike_id": "356ec6e3344255894ac36fc4272d0e5b", "rental_uris": {"android": "https://dc.lft.to/lastmile_qr_scan", "ios": "https://dc.lft.to/lastmile_qr_scan"}, "name": "356ec6e3344255894ac36fc4272d0e5b", "is_reserved": 0}, {"is_disabled": 0, "fusion_lon": 0.0, "fusion_lat": 0.0, "lat": 38.945739333333336, "type": "electric_bike", "lon": -76.96030583333334, "bike_id": "3800aae331dfabd00608ae39004bab18", "rental_uris": {"android": "https://dc.lft.to/lastmile_qr_scan", "ios": "https://dc.lft.to/lastmile_qr_scan"}, "name": "3800aae331dfabd00608ae39004bab18", "is_reserved": 0}, {"is_disabled": 0, "fusion_lon": 0.0, "fusion_lat": 0.0, "lat": 38.90528966666667, "type": "electric_scooter", "lon": -77.06527766666666, "bike_id": "4f21610ac787f56c44bb6925a415e6a8", "rental_uris": {"android": "https://dc.lft.to/lastmile_qr_scan", "ios": "https://dc.lft.to/lastmile_qr_scan"}, "name": "4f21610ac787f56c44bb6925a415e6a8", "is_reserved": 0}, {"is_disabled": 0, "fusion_lon": 0.0, "fusion_lat": 0.0, "lat": 38.990672833333335, "type": "electric_bike", "lon": -77.10028916666667, "bike_id": "a60eab50238e96599b181d8f2aff8a12", "rental_uris": {"android": "https://dc.lft.to/lastmile_qr_scan", "ios": "https://dc.lft.to/lastmile_qr_scan"}, "name": "a60eab50238e96599b181d8f2aff8a12", "is_reserved": 0}, {"is_disabled": 0, "fusion_lon": 0.0, "fusion_lat": 0.0, "lat": 38.91117233333333, "type": "electric_scooter", "lon": -77.03744383333333, "bike_id": "775e3faee55c5121c542f06565d71a4c", "rental_uris": {"android": "https://dc.lft.to/lastmile_qr_scan", "ios": "https://dc.lft.to/lastmile_qr_scan"}, "name": "775e3faee55c5121c542f06565d71a4c", "is_reserved": 0}, {"is_disabled": 0, "fusion_lon": 0.0, "fusion_lat": 0.0, "lat": 38.90010066666667, "type": "electric_scooter", "lon": -76.99347083333333, "bike_id": "f7e99783e46fe155f9d6be73479b78fd", "rental_uris": {"android": "https://dc.lft.to/lastmile_qr_scan", "ios": "https://dc.lft.to/lastmile_qr_scan"}, "name": "f7e99783e46fe155f9d6be73479b78fd", "is_reserved": 0}, {"is_disabled": 0, "fusion_lon": 0.0, "fusion_lat": 0.0, "lat": 38.962148666666664, "type": "electric_scooter", "lon": -77.02805516666666, "bike_id": "3377102ff47e20997d65130cd521f6ef", "rental_uris": {"android": "https://dc.lft.to/lastmile_qr_scan", "ios": "https://dc.lft.to/lastmile_qr_scan"}, "name": "3377102ff47e20997d65130cd521f6ef", "is_reserved": 0}, {"is_disabled": 0, "fusion_lon": 0.0, "fusion_lat": 0.0, "lat": 38.928276333333336, "type": "electric_scooter", "lon": -77.01406883333334, "bike_id": "4d3a0818a325cd57706d03ff67f2e34e", "rental_uris": {"android": "https://dc.lft.to/lastmile_qr_scan", "ios": "https://dc.lft.to/lastmile_qr_scan"}, "name": "4d3a0818a325cd57706d03ff67f2e34e", "is_reserved": 0}, {"is_disabled": 0, "fusion_lon": 0.0, "fusion_lat": 0.0, "lat": 38.923108166666665, "type": "electric_scooter", "lon": -77.02255583333333, "bike_id": "4b59793fc68b7761c7b1fd620ebc87e3", "rental_uris": {"android": "https://dc.lft.to/lastmile_qr_scan", "ios": "https://dc.lft.to/lastmile_qr_scan"}, "name": "4b59793fc68b7761c7b1fd620ebc87e3", "is_reserved": 0}, {"is_disabled": 0, "fusion_lon": 0.0, "fusion_lat": 0.0, "lat": 38.874982833333334, "type": "electric_bike", "lon": -77.04899966666666, "bike_id": "e24cc9310fb496f78d622e16f00d6468", "rental_uris": {"android": "https://dc.lft.to/lastmile_qr_scan", "ios": "https://dc.lft.to/lastmile_qr_scan"}, "name": "e24cc9310fb496f78d622e16f00d6468", "is_reserved": 0}, {"is_disabled": 0, "fusion_lon": 0.0, "fusion_lat": 0.0, "lat": 38.956005, "type": "electric_scooter", "lon": -77.009795, "bike_id": "6dc40980ce06c8ea004860f35a3c7def", "rental_uris": {"android": "https://dc.lft.to/lastmile_qr_scan", "ios": "https://dc.lft.to/lastmile_qr_scan"}, "name": "6dc40980ce06c8ea004860f35a3c7def", "is_reserved": 0}, {"is_disabled": 0, "fusion_lon": 0.0, "fusion_lat": 0.0, "lat": 38.86362833333333, "type": "electric_scooter", "lon": -76.9907355, "bike_id": "70f699847f9ff9b7b345d71edf237257", "rental_uris": {"android": "https://dc.lft.to/lastmile_qr_scan", "ios": "https://dc.lft.to/lastmile_qr_scan"}, "name": "70f699847f9ff9b7b345d71edf237257", "is_reserved": 0}, {"is_disabled": 0, "fusion_lon": 0.0, "fusion_lat": 0.0, "lat": 38.91856216666667, "type": "electric_bike", "lon": -76.960886, "bike_id": "d5038bae815be5e9f2036619015500c2", "rental_uris": {"android": "https://dc.lft.to/lastmile_qr_scan", "ios": "https://dc.lft.to/lastmile_qr_scan"}, "name": "d5038bae815be5e9f2036619015500c2", "is_reserved": 0}, {"is_disabled": 0, "fusion_lon": 0.0, "fusion_lat": 0.0, "lat": 38.878083833333335, "type": "electric_scooter", "lon": -77.01428616666666, "bike_id": "fe77b88fcbd0b0b349530b53136bc47c", "rental_uris": {"android": "https://dc.lft.to/lastmile_qr_scan", "ios": "https://dc.lft.to/lastmile_qr_scan"}, "name": "fe77b88fcbd0b0b349530b53136bc47c", "is_reserved": 0}, {"is_disabled": 0, "fusion_lon": 0.0, "fusion_lat": 0.0, "lat": 38.92853516666667, "type": "electric_scooter", "lon": -77.05626783333334, "bike_id": "5e1001e950c0a8d0795cdf1b61b7f80b", "rental_uris": {"android": "https://dc.lft.to/lastmile_qr_scan", "ios": "https://dc.lft.to/lastmile_qr_scan"}, "name": "5e1001e950c0a8d0795cdf1b61b7f80b", "is_reserved": 0}, {"is_disabled": 0, "fusion_lon": 0.0, "fusion_lat": 0.0, "lat": 38.9177555, "type": "electric_scooter", "lon": -77.02414916666666, "bike_id": "862223754574da4ad9fbeea047b4c3a7", "rental_uris": {"android": "https://dc.lft.to/lastmile_qr_scan", "ios": "https://dc.lft.to/lastmile_qr_scan"}, "name": "862223754574da4ad9fbeea047b4c3a7", "is_reserved": 0}, {"is_disabled": 0, "fusion_lon": 0.0, "fusion_lat": 0.0, "lat": 38.9119425, "type": "electric_scooter", "lon": -77.03859533333333, "bike_id": "cd7b88bf86bc647f651a94e2844c26a1", "rental_uris": {"android": "https://dc.lft.to/lastmile_qr_scan", "ios": "https://dc.lft.to/lastmile_qr_scan"}, "name": "cd7b88bf86bc647f651a94e2844c26a1", "is_reserved": 0}, {"is_disabled": 0, "fusion_lon": 0.0, "fusion_lat": 0.0, "lat": 38.91496, "type": "electric_scooter", "lon": -76.9837475, "bike_id": "f5ca3c5c022db6b708e614381e264ba7", "rental_uris": {"android": "https://dc.lft.to/lastmile_qr_scan", "ios": "https://dc.lft.to/lastmile_qr_scan"}, "name": "f5ca3c5c022db6b708e614381e264ba7", "is_reserved": 0}, {"is_disabled": 0, "fusion_lon": 0.0, "fusion_lat": 0.0, "lat": 38.90559866666667, "type": "electric_scooter", "lon": -77.04661983333334, "bike_id": "e951e2da0d63e209c2b6d8711e471bf6", "rental_uris": {"android": "https://dc.lft.to/lastmile_qr_scan", "ios": "https://dc.lft.to/lastmile_qr_scan"}, "name": "e951e2da0d63e209c2b6d8711e471bf6", "is_reserved": 0}, {"is_disabled": 0, "fusion_lon": 0.0, "fusion_lat": 0.0, "lat": 38.839374666666664, "type": "electric_bike", "lon": -77.07897233333334, "bike_id": "2d7ea1dd480b1545180f7afe782106b9", "rental_uris": {"android": "https://dc.lft.to/lastmile_qr_scan", "ios": "https://dc.lft.to/lastmile_qr_scan"}, "name": "2d7ea1dd480b1545180f7afe782106b9", "is_reserved": 0}, {"is_disabled": 0, "fusion_lon": 0.0, "fusion_lat": 0.0, "lat": 38.917482166666666, "type": "electric_scooter", "lon": -77.0415525, "bike_id": "aa46cfa5458746547c23e6c6b95235d2", "rental_uris": {"android": "https://dc.lft.to/lastmile_qr_scan", "ios": "https://dc.lft.to/lastmile_qr_scan"}, "name": "aa46cfa5458746547c23e6c6b95235d2", "is_reserved": 0}, {"is_disabled": 0, "fusion_lon": 0.0, "fusion_lat": 0.0, "lat": 38.924297, "type": "electric_scooter", "lon": -77.0518295, "bike_id": "c7816c7e100294555cda11b32b2ed76e", "rental_uris": {"android": "https://dc.lft.to/lastmile_qr_scan", "ios": "https://dc.lft.to/lastmile_qr_scan"}, "name": "c7816c7e100294555cda11b32b2ed76e", "is_reserved": 0}, {"is_disabled": 0, "fusion_lon": 0.0, "fusion_lat": 0.0, "lat": 38.9148115, "type": "electric_scooter", "lon": -77.06632766666667, "bike_id": "afad0102ba3fe32be484136b815fefa1", "rental_uris": {"android": "https://dc.lft.to/lastmile_qr_scan", "ios": "https://dc.lft.to/lastmile_qr_scan"}, "name": "afad0102ba3fe32be484136b815fefa1", "is_reserved": 0}, {"is_disabled": 0, "fusion_lon": 0.0, "fusion_lat": 0.0, "lat": 38.916915, "type": "electric_scooter", "lon": -77.04302233333334, "bike_id": "08b92cae35c892ecc99e15f4141f204f", "rental_uris": {"android": "https://dc.lft.to/lastmile_qr_scan", "ios": "https://dc.lft.to/lastmile_qr_scan"}, "name": "08b92cae35c892ecc99e15f4141f204f", "is_reserved": 0}, {"is_disabled": 0, "fusion_lon": 0.0, "fusion_lat": 0.0, "lat": 38.9079365, "type": "electric_scooter", "lon": -77.0441135, "bike_id": "7b9c813a0f8f4249d06caf9ebf1b8c75", "rental_uris": {"android": "https://dc.lft.to/lastmile_qr_scan", "ios": "https://dc.lft.to/lastmile_qr_scan"}, "name": "7b9c813a0f8f4249d06caf9ebf1b8c75", "is_reserved": 0}, {"is_disabled": 0, "fusion_lon": 0.0, "fusion_lat": 0.0, "lat": 38.932271, "type": "electric_bike", "lon": -76.995235, "bike_id": "94c7ae6ab2b4ac5cf24c9e2af32ee118", "rental_uris": {"android": "https://dc.lft.to/lastmile_qr_scan", "ios": "https://dc.lft.to/lastmile_qr_scan"}, "name": "94c7ae6ab2b4ac5cf24c9e2af32ee118", "is_reserved": 0}, {"is_disabled": 0, "fusion_lon": 0.0, "fusion_lat": 0.0, "lat": 38.899727666666664, "type": "electric_scooter", "lon": -76.98707616666667, "bike_id": "46085dfdaac0b42041bcb58c5a6ad25c", "rental_uris": {"android": "https://dc.lft.to/lastmile_qr_scan", "ios": "https://dc.lft.to/lastmile_qr_scan"}, "name": "46085dfdaac0b42041bcb58c5a6ad25c", "is_reserved": 0}, {"is_disabled": 0, "fusion_lon": 0.0, "fusion_lat": 0.0, "lat": 38.911895, "type": "electric_scooter", "lon": -77.00462383333333, "bike_id": "34f1f094da43969bb67823b2bde4d6f8", "rental_uris": {"android": "https://dc.lft.to/lastmile_qr_scan", "ios": "https://dc.lft.to/lastmile_qr_scan"}, "name": "34f1f094da43969bb67823b2bde4d6f8", "is_reserved": 0}, {"is_disabled": 0, "fusion_lon": 0.0, "fusion_lat": 0.0, "lat": 38.914039333333335, "type": "electric_scooter", "lon": -77.01312433333334, "bike_id": "f800c14471106ad04c1ae95589a680b8", "rental_uris": {"android": "https://dc.lft.to/lastmile_qr_scan", "ios": "https://dc.lft.to/lastmile_qr_scan"}, "name": "f800c14471106ad04c1ae95589a680b8", "is_reserved": 0}, {"is_disabled": 0, "fusion_lon": 0.0, "fusion_lat": 0.0, "lat": 38.897339333333335, "type": "electric_scooter", "lon": -77.04721783333333, "bike_id": "df4aa80df5a2430e1b4450d7c4791bf2", "rental_uris": {"android": "https://dc.lft.to/lastmile_qr_scan", "ios": "https://dc.lft.to/lastmile_qr_scan"}, "name": "df4aa80df5a2430e1b4450d7c4791bf2", "is_reserved": 0}, {"is_disabled": 0, "fusion_lon": 0.0, "fusion_lat": 0.0, "lat": 38.915617833333336, "type": "electric_scooter", "lon": -77.02375366666666, "bike_id": "685753032beff8eae044a3e13595f7c9", "rental_uris": {"android": "https://dc.lft.to/lastmile_qr_scan", "ios": "https://dc.lft.to/lastmile_qr_scan"}, "name": "685753032beff8eae044a3e13595f7c9", "is_reserved": 0}, {"is_disabled": 0, "fusion_lon": 0.0, "fusion_lat": 0.0, "lat": 38.89251816666667, "type": "electric_scooter", "lon": -76.99850966666666, "bike_id": "7d994b45b6146bf3ba1d8adf20d3de59", "rental_uris": {"android": "https://dc.lft.to/lastmile_qr_scan", "ios": "https://dc.lft.to/lastmile_qr_scan"}, "name": "7d994b45b6146bf3ba1d8adf20d3de59", "is_reserved": 0}, {"is_disabled": 0, "fusion_lon": 0.0, "fusion_lat": 0.0, "lat": 38.852134, "type": "electric_bike", "lon": -77.12756533333334, "bike_id": "42aeab388f3741907c3366e2883a6537", "rental_uris": {"android": "https://dc.lft.to/lastmile_qr_scan", "ios": "https://dc.lft.to/lastmile_qr_scan"}, "name": "42aeab388f3741907c3366e2883a6537", "is_reserved": 0}, {"is_disabled": 0, "fusion_lon": 0.0, "fusion_lat": 0.0, "lat": 38.944982833333334, "type": "electric_bike", "lon": -77.00681216666666, "bike_id": "e6a6f6b33a93a93d982f2659520b00c3", "rental_uris": {"android": "https://dc.lft.to/lastmile_qr_scan", "ios": "https://dc.lft.to/lastmile_qr_scan"}, "name": "e6a6f6b33a93a93d982f2659520b00c3", "is_reserved": 0}, {"is_disabled": 0, "fusion_lon": 0.0, "fusion_lat": 0.0, "lat": 38.8659625, "type": "electric_bike", "lon": -76.9323155, "bike_id": "b56b9dacc16d0c105ca52f530b208bf8", "rental_uris": {"android": "https://dc.lft.to/lastmile_qr_scan", "ios": "https://dc.lft.to/lastmile_qr_scan"}, "name": "b56b9dacc16d0c105ca52f530b208bf8", "is_reserved": 0}, {"is_disabled": 0, "fusion_lon": 0.0, "fusion_lat": 0.0, "lat": 38.91558, "type": "electric_scooter", "lon": -77.03875516666666, "bike_id": "183d5cd85bd5764b899da66fd2a9d854", "rental_uris": {"android": "https://dc.lft.to/lastmile_qr_scan", "ios": "https://dc.lft.to/lastmile_qr_scan"}, "name": "183d5cd85bd5764b899da66fd2a9d854", "is_reserved": 0}, {"is_disabled": 0, "fusion_lon": 0.0, "fusion_lat": 0.0, "lat": 38.917555666666665, "type": "electric_scooter", "lon": -77.0321705, "bike_id": "4e57c6c3b4015f6b4f5eec9c13473ac4", "rental_uris": {"android": "https://dc.lft.to/lastmile_qr_scan", "ios": "https://dc.lft.to/lastmile_qr_scan"}, "name": "4e57c6c3b4015f6b4f5eec9c13473ac4", "is_reserved": 0}, {"is_disabled": 0, "fusion_lon": 0.0, "fusion_lat": 0.0, "lat": 38.897644666666665, "type": "electric_scooter", "lon": -77.0511815, "bike_id": "3775934ffe7f3cdcd2cc70bc6ba74e5c", "rental_uris": {"android": "https://dc.lft.to/lastmile_qr_scan", "ios": "https://dc.lft.to/lastmile_qr_scan"}, "name": "3775934ffe7f3cdcd2cc70bc6ba74e5c", "is_reserved": 0}, {"is_disabled": 0, "fusion_lon": 0.0, "fusion_lat": 0.0, "lat": 38.92484833333334, "type": "electric_scooter", "lon": -77.0281315, "bike_id": "1add3c1b865a48b9e52e78e8e47e7d65", "rental_uris": {"android": "https://dc.lft.to/lastmile_qr_scan", "ios": "https://dc.lft.to/lastmile_qr_scan"}, "name": "1add3c1b865a48b9e52e78e8e47e7d65", "is_reserved": 0}, {"is_disabled": 0, "fusion_lon": 0.0, "fusion_lat": 0.0, "lat": 38.90497666666667, "type": "electric_scooter", "lon": -77.03447616666666, "bike_id": "4bfbb04e0daa944a3d751aac91ef4b42", "rental_uris": {"android": "https://dc.lft.to/lastmile_qr_scan", "ios": "https://dc.lft.to/lastmile_qr_scan"}, "name": "4bfbb04e0daa944a3d751aac91ef4b42", "is_reserved": 0}, {"is_disabled": 0, "fusion_lon": 0.0, "fusion_lat": 0.0, "lat": 38.882976666666664, "type": "electric_scooter", "lon": -77.01626783333333, "bike_id": "beb64e4735511502fd2748e80ba7dc22", "rental_uris": {"android": "https://dc.lft.to/lastmile_qr_scan", "ios": "https://dc.lft.to/lastmile_qr_scan"}, "name": "beb64e4735511502fd2748e80ba7dc22", "is_reserved": 0}, {"is_disabled": 0, "fusion_lon": 0.0, "fusion_lat": 0.0, "lat": 38.8874405, "type": "electric_scooter", "lon": -77.0153105, "bike_id": "fade785dd40e4ac53333177e7bd51bdb", "rental_uris": {"android": "https://dc.lft.to/lastmile_qr_scan", "ios": "https://dc.lft.to/lastmile_qr_scan"}, "name": "fade785dd40e4ac53333177e7bd51bdb", "is_reserved": 0}, {"is_disabled": 0, "fusion_lon": 0.0, "fusion_lat": 0.0, "lat": 38.89920266666667, "type": "electric_scooter", "lon": -77.03288633333334, "bike_id": "40b38e50bf5438b619b2b47c1ea1a676", "rental_uris": {"android": "https://dc.lft.to/lastmile_qr_scan", "ios": "https://dc.lft.to/lastmile_qr_scan"}, "name": "40b38e50bf5438b619b2b47c1ea1a676", "is_reserved": 0}, {"is_disabled": 0, "fusion_lon": 0.0, "fusion_lat": 0.0, "lat": 38.90134333333334, "type": "electric_scooter", "lon": -77.0399385, "bike_id": "912be4bc919a1a815fe5a1dd54c07398", "rental_uris": {"android": "https://dc.lft.to/lastmile_qr_scan", "ios": "https://dc.lft.to/lastmile_qr_scan"}, "name": "912be4bc919a1a815fe5a1dd54c07398", "is_reserved": 0}, {"is_disabled": 0, "fusion_lon": 0.0, "fusion_lat": 0.0, "lat": 38.92100033333333, "type": "electric_scooter", "lon": -77.0317555, "bike_id": "b7f43bea0cefd6c3d9283c379bf7da07", "rental_uris": {"android": "https://dc.lft.to/lastmile_qr_scan", "ios": "https://dc.lft.to/lastmile_qr_scan"}, "name": "b7f43bea0cefd6c3d9283c379bf7da07", "is_reserved": 0}, {"is_disabled": 0, "fusion_lon": 0.0, "fusion_lat": 0.0, "lat": 38.893521, "type": "electric_scooter", "lon": -76.9846835, "bike_id": "d394873f31ee0905b51461a0ea63aed8", "rental_uris": {"android": "https://dc.lft.to/lastmile_qr_scan", "ios": "https://dc.lft.to/lastmile_qr_scan"}, "name": "d394873f31ee0905b51461a0ea63aed8", "is_reserved": 0}, {"is_disabled": 0, "fusion_lon": 0.0, "fusion_lat": 0.0, "lat": 38.937020833333335, "type": "electric_scooter", "lon": -77.06104083333334, "bike_id": "a6d0de60247c2e9531c1703646b11dca", "rental_uris": {"android": "https://dc.lft.to/lastmile_qr_scan", "ios": "https://dc.lft.to/lastmile_qr_scan"}, "name": "a6d0de60247c2e9531c1703646b11dca", "is_reserved": 0}, {"is_disabled": 0, "fusion_lon": 0.0, "fusion_lat": 0.0, "lat": 38.91200333333333, "type": "electric_scooter", "lon": -77.04161933333333, "bike_id": "3e694a01da7a6689dc6d80db364bca22", "rental_uris": {"android": "https://dc.lft.to/lastmile_qr_scan", "ios": "https://dc.lft.to/lastmile_qr_scan"}, "name": "3e694a01da7a6689dc6d80db364bca22", "is_reserved": 0}, {"is_disabled": 0, "fusion_lon": 0.0, "fusion_lat": 0.0, "lat": 38.8971755, "type": "electric_scooter", "lon": -77.00797883333334, "bike_id": "57be29b5aaf250ad641d6961e9bb5346", "rental_uris": {"android": "https://dc.lft.to/lastmile_qr_scan", "ios": "https://dc.lft.to/lastmile_qr_scan"}, "name": "57be29b5aaf250ad641d6961e9bb5346", "is_reserved": 0}, {"is_disabled": 0, "fusion_lon": 0.0, "fusion_lat": 0.0, "lat": 38.89879116666667, "type": "electric_scooter", "lon": -76.93182883333333, "bike_id": "e364668ce4e18de938a602f3c473578c", "rental_uris": {"android": "https://dc.lft.to/lastmile_qr_scan", "ios": "https://dc.lft.to/lastmile_qr_scan"}, "name": "e364668ce4e18de938a602f3c473578c", "is_reserved": 0}, {"is_disabled": 0, "fusion_lon": 0.0, "fusion_lat": 0.0, "lat": 38.9370175, "type": "electric_scooter", "lon": -77.02404783333333, "bike_id": "6d71a1c9f905e23de39531c218225d51", "rental_uris": {"android": "https://dc.lft.to/lastmile_qr_scan", "ios": "https://dc.lft.to/lastmile_qr_scan"}, "name": "6d71a1c9f905e23de39531c218225d51", "is_reserved": 0}, {"is_disabled": 0, "fusion_lon": 0.0, "fusion_lat": 0.0, "lat": 38.9349435, "type": "electric_scooter", "lon": -77.02715566666667, "bike_id": "9d12d76a6e2b8a8f23e8b3dba264baac", "rental_uris": {"android": "https://dc.lft.to/lastmile_qr_scan", "ios": "https://dc.lft.to/lastmile_qr_scan"}, "name": "9d12d76a6e2b8a8f23e8b3dba264baac", "is_reserved": 0}, {"is_disabled": 0, "fusion_lon": 0.0, "fusion_lat": 0.0, "lat": 38.90334333333333, "type": "electric_bike", "lon": -76.97534583333334, "bike_id": "51e700a27878781ef4b98e8ad41ee955", "rental_uris": {"android": "https://dc.lft.to/lastmile_qr_scan", "ios": "https://dc.lft.to/lastmile_qr_scan"}, "name": "51e700a27878781ef4b98e8ad41ee955", "is_reserved": 0}, {"is_disabled": 0, "fusion_lon": 0.0, "fusion_lat": 0.0, "lat": 38.915963166666664, "type": "electric_scooter", "lon": -77.02343683333334, "bike_id": "8ec4382f51bb346f7f4e627115b6fcd3", "rental_uris": {"android": "https://dc.lft.to/lastmile_qr_scan", "ios": "https://dc.lft.to/lastmile_qr_scan"}, "name": "8ec4382f51bb346f7f4e627115b6fcd3", "is_reserved": 0}, {"is_disabled": 0, "fusion_lon": 0.0, "fusion_lat": 0.0, "lat": 38.88581683333334, "type": "electric_scooter", "lon": -77.01227416666667, "bike_id": "badf53b9bed61e1d0adec22e6afe2f69", "rental_uris": {"android": "https://dc.lft.to/lastmile_qr_scan", "ios": "https://dc.lft.to/lastmile_qr_scan"}, "name": "badf53b9bed61e1d0adec22e6afe2f69", "is_reserved": 0}, {"is_disabled": 0, "fusion_lon": 0.0, "fusion_lat": 0.0, "lat": 38.915639666666664, "type": "electric_scooter", "lon": -77.040147, "bike_id": "150f6b3d9b3a85644dcb9886ad1e621e", "rental_uris": {"android": "https://dc.lft.to/lastmile_qr_scan", "ios": "https://dc.lft.to/lastmile_qr_scan"}, "name": "150f6b3d9b3a85644dcb9886ad1e621e", "is_reserved": 0}, {"is_disabled": 0, "fusion_lon": 0.0, "fusion_lat": 0.0, "lat": 38.91651783333333, "type": "electric_scooter", "lon": -77.0477715, "bike_id": "af0b1b70160e35e15ea0b0b6bb78c0e2", "rental_uris": {"android": "https://dc.lft.to/lastmile_qr_scan", "ios": "https://dc.lft.to/lastmile_qr_scan"}, "name": "af0b1b70160e35e15ea0b0b6bb78c0e2", "is_reserved": 0}, {"is_disabled": 0, "fusion_lon": 0.0, "fusion_lat": 0.0, "lat": 38.92055516666667, "type": "electric_scooter", "lon": -76.99885666666667, "bike_id": "cf656ba4475b5ba3d6f751f228c677ca", "rental_uris": {"android": "https://dc.lft.to/lastmile_qr_scan", "ios": "https://dc.lft.to/lastmile_qr_scan"}, "name": "cf656ba4475b5ba3d6f751f228c677ca", "is_reserved": 0}, {"is_disabled": 0, "fusion_lon": 0.0, "fusion_lat": 0.0, "lat": 38.92854633333334, "type": "electric_scooter", "lon": -77.03312333333334, "bike_id": "cf3a6742c4de4c7989e78fa55c389b08", "rental_uris": {"android": "https://dc.lft.to/lastmile_qr_scan", "ios": "https://dc.lft.to/lastmile_qr_scan"}, "name": "cf3a6742c4de4c7989e78fa55c389b08", "is_reserved": 0}, {"is_disabled": 0, "fusion_lon": 0.0, "fusion_lat": 0.0, "lat": 38.8954265, "type": "electric_scooter", "lon": -77.01534116666667, "bike_id": "dc2ef9869a6199aa3f155a971b5f471f", "rental_uris": {"android": "https://dc.lft.to/lastmile_qr_scan", "ios": "https://dc.lft.to/lastmile_qr_scan"}, "name": "dc2ef9869a6199aa3f155a971b5f471f", "is_reserved": 0}, {"is_disabled": 0, "fusion_lon": 0.0, "fusion_lat": 0.0, "lat": 38.90795033333333, "type": "electric_scooter", "lon": -77.02388566666667, "bike_id": "3cde2c2435b76eab5971f126f8921103", "rental_uris": {"android": "https://dc.lft.to/lastmile_qr_scan", "ios": "https://dc.lft.to/lastmile_qr_scan"}, "name": "3cde2c2435b76eab5971f126f8921103", "is_reserved": 0}, {"is_disabled": 0, "fusion_lon": 0.0, "fusion_lat": 0.0, "lat": 38.900115, "type": "electric_scooter", "lon": -77.03371033333333, "bike_id": "31a1f0b4ef39ceb33107cba0413a0794", "rental_uris": {"android": "https://dc.lft.to/lastmile_qr_scan", "ios": "https://dc.lft.to/lastmile_qr_scan"}, "name": "31a1f0b4ef39ceb33107cba0413a0794", "is_reserved": 0}, {"is_disabled": 0, "fusion_lon": 0.0, "fusion_lat": 0.0, "lat": 38.918156833333335, "type": "electric_scooter", "lon": -77.0269425, "bike_id": "9a61ff76e2db0f14a11c203ab670730a", "rental_uris": {"android": "https://dc.lft.to/lastmile_qr_scan", "ios": "https://dc.lft.to/lastmile_qr_scan"}, "name": "9a61ff76e2db0f14a11c203ab670730a", "is_reserved": 0}, {"is_disabled": 0, "fusion_lon": 0.0, "fusion_lat": 0.0, "lat": 38.91633483333333, "type": "electric_scooter", "lon": -77.03187016666666, "bike_id": "34cb1da53e9b1d7c4142e98cdf8930ac", "rental_uris": {"android": "https://dc.lft.to/lastmile_qr_scan", "ios": "https://dc.lft.to/lastmile_qr_scan"}, "name": "34cb1da53e9b1d7c4142e98cdf8930ac", "is_reserved": 0}, {"is_disabled": 0, "fusion_lon": 0.0, "fusion_lat": 0.0, "lat": 38.94333266666667, "type": "electric_bike", "lon": -77.014762, "bike_id": "4f43f5949f8b1329bd8d68122027dfce", "rental_uris": {"android": "https://dc.lft.to/lastmile_qr_scan", "ios": "https://dc.lft.to/lastmile_qr_scan"}, "name": "4f43f5949f8b1329bd8d68122027dfce", "is_reserved": 0}, {"is_disabled": 0, "fusion_lon": 0.0, "fusion_lat": 0.0, "lat": 38.85784183333333, "type": "electric_bike", "lon": -76.98749916666667, "bike_id": "c994235dd0fb2a1677ac32f8561ea76a", "rental_uris": {"android": "https://dc.lft.to/lastmile_qr_scan", "ios": "https://dc.lft.to/lastmile_qr_scan"}, "name": "c994235dd0fb2a1677ac32f8561ea76a", "is_reserved": 0}, {"is_disabled": 0, "fusion_lon": 0.0, "fusion_lat": 0.0, "lat": 38.91562283333333, "type": "electric_scooter", "lon": -77.00808966666666, "bike_id": "577f10f789f68637c202471437b985c8", "rental_uris": {"android": "https://dc.lft.to/lastmile_qr_scan", "ios": "https://dc.lft.to/lastmile_qr_scan"}, "name": "577f10f789f68637c202471437b985c8", "is_reserved": 0}, {"is_disabled": 0, "fusion_lon": 0.0, "fusion_lat": 0.0, "lat": 38.852929333333336, "type": "electric_bike", "lon": -76.9815445, "bike_id": "698f4e6576cb2643f500e20a9a6786ee", "rental_uris": {"android": "https://dc.lft.to/lastmile_qr_scan", "ios": "https://dc.lft.to/lastmile_qr_scan"}, "name": "698f4e6576cb2643f500e20a9a6786ee", "is_reserved": 0}, {"is_disabled": 0, "fusion_lon": 0.0, "fusion_lat": 0.0, "lat": 38.891995333333334, "type": "electric_scooter", "lon": -76.94270016666667, "bike_id": "fc95397c5e737a0f6d63b67191148c29", "rental_uris": {"android": "https://dc.lft.to/lastmile_qr_scan", "ios": "https://dc.lft.to/lastmile_qr_scan"}, "name": "fc95397c5e737a0f6d63b67191148c29", "is_reserved": 0}, {"is_disabled": 0, "fusion_lon": 0.0, "fusion_lat": 0.0, "lat": 38.88471, "type": "electric_scooter", "lon": -77.025221, "bike_id": "f5a80a5667ec988f5ab10617e0730250", "rental_uris": {"android": "https://dc.lft.to/lastmile_qr_scan", "ios": "https://dc.lft.to/lastmile_qr_scan"}, "name": "f5a80a5667ec988f5ab10617e0730250", "is_reserved": 0}, {"is_disabled": 0, "fusion_lon": 0.0, "fusion_lat": 0.0, "lat": 38.88962766666667, "type": "electric_scooter", "lon": -76.99148166666667, "bike_id": "702f222610afa0a17b8fecbf7a9bbc8a", "rental_uris": {"android": "https://dc.lft.to/lastmile_qr_scan", "ios": "https://dc.lft.to/lastmile_qr_scan"}, "name": "702f222610afa0a17b8fecbf7a9bbc8a", "is_reserved": 0}, {"is_disabled": 0, "fusion_lon": 0.0, "fusion_lat": 0.0, "lat": 38.868098333333336, "type": "electric_scooter", "lon": -77.01177016666666, "bike_id": "3d4234a384afcbf763e09cf0bd1a97f4", "rental_uris": {"android": "https://dc.lft.to/lastmile_qr_scan", "ios": "https://dc.lft.to/lastmile_qr_scan"}, "name": "3d4234a384afcbf763e09cf0bd1a97f4", "is_reserved": 0}, {"is_disabled": 0, "fusion_lon": 0.0, "fusion_lat": 0.0, "lat": 38.91035683333333, "type": "electric_scooter", "lon": -77.03800983333333, "bike_id": "cc9de51fd2cf62c5b6a3a11e9775c1d2", "rental_uris": {"android": "https://dc.lft.to/lastmile_qr_scan", "ios": "https://dc.lft.to/lastmile_qr_scan"}, "name": "cc9de51fd2cf62c5b6a3a11e9775c1d2", "is_reserved": 0}, {"is_disabled": 0, "fusion_lon": 0.0, "fusion_lat": 0.0, "lat": 38.92842816666667, "type": "electric_scooter", "lon": -77.05536466666666, "bike_id": "4cd17af4459a9a4f6e9348f0868cbfe3", "rental_uris": {"android": "https://dc.lft.to/lastmile_qr_scan", "ios": "https://dc.lft.to/lastmile_qr_scan"}, "name": "4cd17af4459a9a4f6e9348f0868cbfe3", "is_reserved": 0}, {"is_disabled": 0, "fusion_lon": 0.0, "fusion_lat": 0.0, "lat": 38.94594983333333, "type": "electric_bike", "lon": -77.34412383333333, "bike_id": "532643384af10f1c5f4b692d8d23e047", "rental_uris": {"android": "https://dc.lft.to/lastmile_qr_scan", "ios": "https://dc.lft.to/lastmile_qr_scan"}, "name": "532643384af10f1c5f4b692d8d23e047", "is_reserved": 0}, {"is_disabled": 0, "fusion_lon": 0.0, "fusion_lat": 0.0, "lat": 38.88853366666667, "type": "electric_bike", "lon": -76.97701683333334, "bike_id": "125cc327521128ea8f769edae41e23ad", "rental_uris": {"android": "https://dc.lft.to/lastmile_qr_scan", "ios": "https://dc.lft.to/lastmile_qr_scan"}, "name": "125cc327521128ea8f769edae41e23ad", "is_reserved": 0}, {"is_disabled": 0, "fusion_lon": 0.0, "fusion_lat": 0.0, "lat": 38.897352833333336, "type": "electric_scooter", "lon": -77.04725566666667, "bike_id": "a44a7ad29ee0445439f8385dcbce4eaf", "rental_uris": {"android": "https://dc.lft.to/lastmile_qr_scan", "ios": "https://dc.lft.to/lastmile_qr_scan"}, "name": "a44a7ad29ee0445439f8385dcbce4eaf", "is_reserved": 0}, {"is_disabled": 0, "fusion_lon": 0.0, "fusion_lat": 0.0, "lat": 39.054574, "type": "electric_bike", "lon": -77.14328216666667, "bike_id": "285122c0f835c229c0be1482a021a120", "rental_uris": {"android": "https://dc.lft.to/lastmile_qr_scan", "ios": "https://dc.lft.to/lastmile_qr_scan"}, "name": "285122c0f835c229c0be1482a021a120", "is_reserved": 0}, {"is_disabled": 0, "fusion_lon": 0.0, "fusion_lat": 0.0, "lat": 38.9085205, "type": "electric_scooter", "lon": -77.055069, "bike_id": "d42c6e839efc8ea593200b9fd7611259", "rental_uris": {"android": "https://dc.lft.to/lastmile_qr_scan", "ios": "https://dc.lft.to/lastmile_qr_scan"}, "name": "d42c6e839efc8ea593200b9fd7611259", "is_reserved": 0}, {"is_disabled": 0, "fusion_lon": 0.0, "fusion_lat": 0.0, "lat": 38.77623783333333, "type": "electric_bike", "lon": -77.08351433333333, "bike_id": "4ef70beb241a3741192b21c2ba44559b", "rental_uris": {"android": "https://dc.lft.to/lastmile_qr_scan", "ios": "https://dc.lft.to/lastmile_qr_scan"}, "name": "4ef70beb241a3741192b21c2ba44559b", "is_reserved": 0}, {"is_disabled": 0, "fusion_lon": 0.0, "fusion_lat": 0.0, "lat": 38.88741183333333, "type": "electric_scooter", "lon": -77.01435466666666, "bike_id": "41305b41be854be71fb3f19ddb50cfef", "rental_uris": {"android": "https://dc.lft.to/lastmile_qr_scan", "ios": "https://dc.lft.to/lastmile_qr_scan"}, "name": "41305b41be854be71fb3f19ddb50cfef", "is_reserved": 0}, {"is_disabled": 0, "fusion_lon": 0.0, "fusion_lat": 0.0, "lat": 38.91752233333333, "type": "electric_scooter", "lon": -77.032032, "bike_id": "3caf5748eda6520c3abddcf3d59bfb98", "rental_uris": {"android": "https://dc.lft.to/lastmile_qr_scan", "ios": "https://dc.lft.to/lastmile_qr_scan"}, "name": "3caf5748eda6520c3abddcf3d59bfb98", "is_reserved": 0}, {"is_disabled": 0, "fusion_lon": 0.0, "fusion_lat": 0.0, "lat": 38.895334, "type": "electric_scooter", "lon": -77.0335095, "bike_id": "c46b61fcb7c5e263f387aacb135c00a5", "rental_uris": {"android": "https://dc.lft.to/lastmile_qr_scan", "ios": "https://dc.lft.to/lastmile_qr_scan"}, "name": "c46b61fcb7c5e263f387aacb135c00a5", "is_reserved": 0}, {"is_disabled": 0, "fusion_lon": 0.0, "fusion_lat": 0.0, "lat": 38.89387633333333, "type": "electric_scooter", "lon": -76.94997533333333, "bike_id": "eebe1f6288566da92c5f8d884ed10094", "rental_uris": {"android": "https://dc.lft.to/lastmile_qr_scan", "ios": "https://dc.lft.to/lastmile_qr_scan"}, "name": "eebe1f6288566da92c5f8d884ed10094", "is_reserved": 0}, {"is_disabled": 0, "fusion_lon": 0.0, "fusion_lat": 0.0, "lat": 38.89605, "type": "electric_scooter", "lon": -77.00930633333333, "bike_id": "ed9e89cd7fa4438d691db076337601ee", "rental_uris": {"android": "https://dc.lft.to/lastmile_qr_scan", "ios": "https://dc.lft.to/lastmile_qr_scan"}, "name": "ed9e89cd7fa4438d691db076337601ee", "is_reserved": 0}, {"is_disabled": 0, "fusion_lon": 0.0, "fusion_lat": 0.0, "lat": 38.9051065, "type": "electric_scooter", "lon": -76.98240966666667, "bike_id": "5efd9c8a6870e78fe5481f40d252e276", "rental_uris": {"android": "https://dc.lft.to/lastmile_qr_scan", "ios": "https://dc.lft.to/lastmile_qr_scan"}, "name": "5efd9c8a6870e78fe5481f40d252e276", "is_reserved": 0}, {"is_disabled": 0, "fusion_lon": 0.0, "fusion_lat": 0.0, "lat": 38.880125, "type": "electric_bike", "lon": -76.915924, "bike_id": "29c2566ddbb0238a49ea20ceb07db103", "rental_uris": {"android": "https://dc.lft.to/lastmile_qr_scan", "ios": "https://dc.lft.to/lastmile_qr_scan"}, "name": "29c2566ddbb0238a49ea20ceb07db103", "is_reserved": 0}, {"is_disabled": 0, "fusion_lon": 0.0, "fusion_lat": 0.0, "lat": 38.86889133333333, "type": "electric_scooter", "lon": -76.98318833333333, "bike_id": "a329d467fbb0dc08f06b9e9d694b53ff", "rental_uris": {"android": "https://dc.lft.to/lastmile_qr_scan", "ios": "https://dc.lft.to/lastmile_qr_scan"}, "name": "a329d467fbb0dc08f06b9e9d694b53ff", "is_reserved": 0}, {"is_disabled": 0, "fusion_lon": 0.0, "fusion_lat": 0.0, "lat": 38.882919666666666, "type": "electric_scooter", "lon": -77.01641783333334, "bike_id": "2537f6c0636ee612c4902ad6f119aef6", "rental_uris": {"android": "https://dc.lft.to/lastmile_qr_scan", "ios": "https://dc.lft.to/lastmile_qr_scan"}, "name": "2537f6c0636ee612c4902ad6f119aef6", "is_reserved": 0}, {"is_disabled": 0, "fusion_lon": 0.0, "fusion_lat": 0.0, "lat": 38.8598905, "type": "electric_bike", "lon": -76.97052216666667, "bike_id": "e2b8e1d7bdeb93fd80f10733f702b4b6", "rental_uris": {"android": "https://dc.lft.to/lastmile_qr_scan", "ios": "https://dc.lft.to/lastmile_qr_scan"}, "name": "e2b8e1d7bdeb93fd80f10733f702b4b6", "is_reserved": 0}, {"is_disabled": 0, "fusion_lon": 0.0, "fusion_lat": 0.0, "lat": 38.8859555, "type": "electric_scooter", "lon": -77.00577566666666, "bike_id": "d23e403b28017cb906b8ed1d8f24555f", "rental_uris": {"android": "https://dc.lft.to/lastmile_qr_scan", "ios": "https://dc.lft.to/lastmile_qr_scan"}, "name": "d23e403b28017cb906b8ed1d8f24555f", "is_reserved": 0}, {"is_disabled": 0, "fusion_lon": 0.0, "fusion_lat": 0.0, "lat": 38.9945395, "type": "electric_bike", "lon": -76.90816983333333, "bike_id": "6222eada61e5d2d916f88a8f88dca562", "rental_uris": {"android": "https://dc.lft.to/lastmile_qr_scan", "ios": "https://dc.lft.to/lastmile_qr_scan"}, "name": "6222eada61e5d2d916f88a8f88dca562", "is_reserved": 0}, {"is_disabled": 0, "fusion_lon": 0.0, "fusion_lat": 0.0, "lat": 38.914624, "type": "electric_scooter", "lon": -77.02802966666667, "bike_id": "98b8bd88f9839d940eb44ef108d0747e", "rental_uris": {"android": "https://dc.lft.to/lastmile_qr_scan", "ios": "https://dc.lft.to/lastmile_qr_scan"}, "name": "98b8bd88f9839d940eb44ef108d0747e", "is_reserved": 0}, {"is_disabled": 0, "fusion_lon": 0.0, "fusion_lat": 0.0, "lat": 38.901848333333334, "type": "electric_scooter", "lon": -77.02056416666667, "bike_id": "98f98477dadc4030be9eff1144a9ccaa", "rental_uris": {"android": "https://dc.lft.to/lastmile_qr_scan", "ios": "https://dc.lft.to/lastmile_qr_scan"}, "name": "98f98477dadc4030be9eff1144a9ccaa", "is_reserved": 0}, {"is_disabled": 0, "fusion_lon": 0.0, "fusion_lat": 0.0, "lat": 38.901392333333334, "type": "electric_scooter", "lon": -76.95178683333333, "bike_id": "aae9064218ac70d88c31014f72223603", "rental_uris": {"android": "https://dc.lft.to/lastmile_qr_scan", "ios": "https://dc.lft.to/lastmile_qr_scan"}, "name": "aae9064218ac70d88c31014f72223603", "is_reserved": 0}, {"is_disabled": 0, "fusion_lon": 0.0, "fusion_lat": 0.0, "lat": 38.942291833333336, "type": "electric_scooter", "lon": -77.02155066666667, "bike_id": "0f6f6f7d5181e72b23f358cbfdf74521", "rental_uris": {"android": "https://dc.lft.to/lastmile_qr_scan", "ios": "https://dc.lft.to/lastmile_qr_scan"}, "name": "0f6f6f7d5181e72b23f358cbfdf74521", "is_reserved": 0}, {"is_disabled": 0, "fusion_lon": 0.0, "fusion_lat": 0.0, "lat": 38.8874785, "type": "electric_scooter", "lon": -77.01741, "bike_id": "5bb6a6647c88ce0d010b1be1e0d83d28", "rental_uris": {"android": "https://dc.lft.to/lastmile_qr_scan", "ios": "https://dc.lft.to/lastmile_qr_scan"}, "name": "5bb6a6647c88ce0d010b1be1e0d83d28", "is_reserved": 0}, {"is_disabled": 0, "fusion_lon": 0.0, "fusion_lat": 0.0, "lat": 38.96219033333333, "type": "electric_scooter", "lon": -77.02805, "bike_id": "6120559a21ffe9290012982c6f7ab673", "rental_uris": {"android": "https://dc.lft.to/lastmile_qr_scan", "ios": "https://dc.lft.to/lastmile_qr_scan"}, "name": "6120559a21ffe9290012982c6f7ab673", "is_reserved": 0}, {"is_disabled": 0, "fusion_lon": 0.0, "fusion_lat": 0.0, "lat": 38.858098166666664, "type": "electric_scooter", "lon": -76.98965233333334, "bike_id": "9571fd3a1a57c222f39fdcf737478213", "rental_uris": {"android": "https://dc.lft.to/lastmile_qr_scan", "ios": "https://dc.lft.to/lastmile_qr_scan"}, "name": "9571fd3a1a57c222f39fdcf737478213", "is_reserved": 0}, {"is_disabled": 0, "fusion_lon": 0.0, "fusion_lat": 0.0, "lat": 38.8928945, "type": "electric_scooter", "lon": -77.02138116666667, "bike_id": "b9cde13f876bdf252ad4163be49e2119", "rental_uris": {"android": "https://dc.lft.to/lastmile_qr_scan", "ios": "https://dc.lft.to/lastmile_qr_scan"}, "name": "b9cde13f876bdf252ad4163be49e2119", "is_reserved": 0}, {"is_disabled": 0, "fusion_lon": 0.0, "fusion_lat": 0.0, "lat": 38.94982866666667, "type": "electric_scooter", "lon": -77.02706133333334, "bike_id": "21a51bb568c517d0fa23f32e4a792990", "rental_uris": {"android": "https://dc.lft.to/lastmile_qr_scan", "ios": "https://dc.lft.to/lastmile_qr_scan"}, "name": "21a51bb568c517d0fa23f32e4a792990", "is_reserved": 0}, {"is_disabled": 0, "fusion_lon": 0.0, "fusion_lat": 0.0, "lat": 38.865246166666665, "type": "electric_scooter", "lon": -76.973325, "bike_id": "b09ada122020aa8f022f02806b4106b2", "rental_uris": {"android": "https://dc.lft.to/lastmile_qr_scan", "ios": "https://dc.lft.to/lastmile_qr_scan"}, "name": "b09ada122020aa8f022f02806b4106b2", "is_reserved": 0}, {"is_disabled": 0, "fusion_lon": 0.0, "fusion_lat": 0.0, "lat": 38.94283433333333, "type": "electric_scooter", "lon": -77.03632633333334, "bike_id": "de174b4cec3c2bcb27978e43f8c551eb", "rental_uris": {"android": "https://dc.lft.to/lastmile_qr_scan", "ios": "https://dc.lft.to/lastmile_qr_scan"}, "name": "de174b4cec3c2bcb27978e43f8c551eb", "is_reserved": 0}, {"is_disabled": 0, "fusion_lon": 0.0, "fusion_lat": 0.0, "lat": 38.9561535, "type": "electric_scooter", "lon": -77.02761216666667, "bike_id": "9cb2d9d1fa6d772226d2e16b5a61ff07", "rental_uris": {"android": "https://dc.lft.to/lastmile_qr_scan", "ios": "https://dc.lft.to/lastmile_qr_scan"}, "name": "9cb2d9d1fa6d772226d2e16b5a61ff07", "is_reserved": 0}, {"is_disabled": 0, "fusion_lon": 0.0, "fusion_lat": 0.0, "lat": 38.9169665, "type": "electric_scooter", "lon": -77.02852966666667, "bike_id": "f264ae833219b4800abd2c2238e46eeb", "rental_uris": {"android": "https://dc.lft.to/lastmile_qr_scan", "ios": "https://dc.lft.to/lastmile_qr_scan"}, "name": "f264ae833219b4800abd2c2238e46eeb", "is_reserved": 0}, {"is_disabled": 0, "fusion_lon": 0.0, "fusion_lat": 0.0, "lat": 38.894783833333335, "type": "electric_scooter", "lon": -76.99521583333333, "bike_id": "a8daa38031bfbaed90b7715c5b1452a4", "rental_uris": {"android": "https://dc.lft.to/lastmile_qr_scan", "ios": "https://dc.lft.to/lastmile_qr_scan"}, "name": "a8daa38031bfbaed90b7715c5b1452a4", "is_reserved": 0}, {"is_disabled": 0, "fusion_lon": 0.0, "fusion_lat": 0.0, "lat": 38.92124416666667, "type": "electric_scooter", "lon": -77.025397, "bike_id": "7ab957861018ff64f88ac53650a28e44", "rental_uris": {"android": "https://dc.lft.to/lastmile_qr_scan", "ios": "https://dc.lft.to/lastmile_qr_scan"}, "name": "7ab957861018ff64f88ac53650a28e44", "is_reserved": 0}, {"is_disabled": 0, "fusion_lon": 0.0, "fusion_lat": 0.0, "lat": 38.905685166666665, "type": "electric_scooter", "lon": -77.00424983333333, "bike_id": "529009c99a0282f32fde8366cd25fd3a", "rental_uris": {"android": "https://dc.lft.to/lastmile_qr_scan", "ios": "https://dc.lft.to/lastmile_qr_scan"}, "name": "529009c99a0282f32fde8366cd25fd3a", "is_reserved": 0}, {"is_disabled": 0, "fusion_lon": 0.0, "fusion_lat": 0.0, "lat": 38.981352, "type": "electric_bike", "lon": -77.00765433333333, "bike_id": "590b8a919b5d9de33343924f851bb4f7", "rental_uris": {"android": "https://dc.lft.to/lastmile_qr_scan", "ios": "https://dc.lft.to/lastmile_qr_scan"}, "name": "590b8a919b5d9de33343924f851bb4f7", "is_reserved": 0}, {"is_disabled": 0, "fusion_lon": 0.0, "fusion_lat": 0.0, "lat": 38.90630516666667, "type": "electric_scooter", "lon": -77.02416833333334, "bike_id": "d7e2a5af1ea12c1e060a6d59fe2fd348", "rental_uris": {"android": "https://dc.lft.to/lastmile_qr_scan", "ios": "https://dc.lft.to/lastmile_qr_scan"}, "name": "d7e2a5af1ea12c1e060a6d59fe2fd348", "is_reserved": 0}, {"is_disabled": 0, "fusion_lon": 0.0, "fusion_lat": 0.0, "lat": 38.90054216666667, "type": "electric_scooter", "lon": -77.00738083333333, "bike_id": "288480c865dd8570f017ec8d692eb536", "rental_uris": {"android": "https://dc.lft.to/lastmile_qr_scan", "ios": "https://dc.lft.to/lastmile_qr_scan"}, "name": "288480c865dd8570f017ec8d692eb536", "is_reserved": 0}, {"is_disabled": 0, "fusion_lon": 0.0, "fusion_lat": 0.0, "lat": 38.91188116666667, "type": "electric_scooter", "lon": -77.04176, "bike_id": "dc6cd69874cf8615f0f7dbf8b3e035e6", "rental_uris": {"android": "https://dc.lft.to/lastmile_qr_scan", "ios": "https://dc.lft.to/lastmile_qr_scan"}, "name": "dc6cd69874cf8615f0f7dbf8b3e035e6", "is_reserved": 0}, {"is_disabled": 0, "fusion_lon": 0.0, "fusion_lat": 0.0, "lat": 38.87775883333333, "type": "electric_scooter", "lon": -77.01436566666666, "bike_id": "691a94339752bc3ad7ecb2d0b1dde194", "rental_uris": {"android": "https://dc.lft.to/lastmile_qr_scan", "ios": "https://dc.lft.to/lastmile_qr_scan"}, "name": "691a94339752bc3ad7ecb2d0b1dde194", "is_reserved": 0}, {"is_disabled": 0, "fusion_lon": 0.0, "fusion_lat": 0.0, "lat": 38.890111833333336, "type": "electric_scooter", "lon": -77.03324333333333, "bike_id": "64741c898e2947626d8a09065321c194", "rental_uris": {"android": "https://dc.lft.to/lastmile_qr_scan", "ios": "https://dc.lft.to/lastmile_qr_scan"}, "name": "64741c898e2947626d8a09065321c194", "is_reserved": 0}, {"is_disabled": 0, "fusion_lon": 0.0, "fusion_lat": 0.0, "lat": 38.84881516666667, "type": "electric_scooter", "lon": -77.00516866666666, "bike_id": "b4862b68924521446cf22a2c87963f0a", "rental_uris": {"android": "https://dc.lft.to/lastmile_qr_scan", "ios": "https://dc.lft.to/lastmile_qr_scan"}, "name": "b4862b68924521446cf22a2c87963f0a", "is_reserved": 0}, {"is_disabled": 0, "fusion_lon": 0.0, "fusion_lat": 0.0, "lat": 38.89654733333333, "type": "electric_scooter", "lon": -77.04339866666666, "bike_id": "3f2c5576263d0ca829496c81f920bf9f", "rental_uris": {"android": "https://dc.lft.to/lastmile_qr_scan", "ios": "https://dc.lft.to/lastmile_qr_scan"}, "name": "3f2c5576263d0ca829496c81f920bf9f", "is_reserved": 0}, {"is_disabled": 0, "fusion_lon": 0.0, "fusion_lat": 0.0, "lat": 38.91561683333333, "type": "electric_scooter", "lon": -77.03151016666666, "bike_id": "f089602bafe31ddd98e44faaeaef2d43", "rental_uris": {"android": "https://dc.lft.to/lastmile_qr_scan", "ios": "https://dc.lft.to/lastmile_qr_scan"}, "name": "f089602bafe31ddd98e44faaeaef2d43", "is_reserved": 0}, {"is_disabled": 0, "fusion_lon": 0.0, "fusion_lat": 0.0, "lat": 38.953977333333334, "type": "electric_scooter", "lon": -77.0275415, "bike_id": "50c89fb5c90667bd945d2c8f2bc90d06", "rental_uris": {"android": "https://dc.lft.to/lastmile_qr_scan", "ios": "https://dc.lft.to/lastmile_qr_scan"}, "name": "50c89fb5c90667bd945d2c8f2bc90d06", "is_reserved": 0}, {"is_disabled": 0, "fusion_lon": 0.0, "fusion_lat": 0.0, "lat": 38.938724666666666, "type": "electric_scooter", "lon": -77.032614, "bike_id": "a064a640e47d3d6a9a2a7e2a2bf30ef9", "rental_uris": {"android": "https://dc.lft.to/lastmile_qr_scan", "ios": "https://dc.lft.to/lastmile_qr_scan"}, "name": "a064a640e47d3d6a9a2a7e2a2bf30ef9", "is_reserved": 0}, {"is_disabled": 0, "fusion_lon": 0.0, "fusion_lat": 0.0, "lat": 38.8583895, "type": "electric_bike", "lon": -76.992841, "bike_id": "c7fdaa498e7795ddb57a39b6106e1f70", "rental_uris": {"android": "https://dc.lft.to/lastmile_qr_scan", "ios": "https://dc.lft.to/lastmile_qr_scan"}, "name": "c7fdaa498e7795ddb57a39b6106e1f70", "is_reserved": 0}, {"is_disabled": 0, "fusion_lon": 0.0, "fusion_lat": 0.0, "lat": 38.92906416666667, "type": "electric_scooter", "lon": -77.03249183333334, "bike_id": "357594a24f407d74df5c7fd9817ac516", "rental_uris": {"android": "https://dc.lft.to/lastmile_qr_scan", "ios": "https://dc.lft.to/lastmile_qr_scan"}, "name": "357594a24f407d74df5c7fd9817ac516", "is_reserved": 0}, {"is_disabled": 0, "fusion_lon": 0.0, "fusion_lat": 0.0, "lat": 38.90813966666666, "type": "electric_scooter", "lon": -77.029353, "bike_id": "1cc4ab2b715011c37058dc2de0b0f56e", "rental_uris": {"android": "https://dc.lft.to/lastmile_qr_scan", "ios": "https://dc.lft.to/lastmile_qr_scan"}, "name": "1cc4ab2b715011c37058dc2de0b0f56e", "is_reserved": 0}, {"is_disabled": 0, "fusion_lon": 0.0, "fusion_lat": 0.0, "lat": 38.88004383333333, "type": "electric_bike", "lon": -76.915953, "bike_id": "ebe92f08636dbaf1bd9b0db45e85fb17", "rental_uris": {"android": "https://dc.lft.to/lastmile_qr_scan", "ios": "https://dc.lft.to/lastmile_qr_scan"}, "name": "ebe92f08636dbaf1bd9b0db45e85fb17", "is_reserved": 0}, {"is_disabled": 0, "fusion_lon": 0.0, "fusion_lat": 0.0, "lat": 38.93534783333333, "type": "electric_scooter", "lon": -77.03409416666666, "bike_id": "164f99d97324508733f156843050071e", "rental_uris": {"android": "https://dc.lft.to/lastmile_qr_scan", "ios": "https://dc.lft.to/lastmile_qr_scan"}, "name": "164f99d97324508733f156843050071e", "is_reserved": 0}, {"is_disabled": 0, "fusion_lon": 0.0, "fusion_lat": 0.0, "lat": 38.904490833333334, "type": "electric_scooter", "lon": -77.06114666666667, "bike_id": "3a24f63d342479435c83c1cbc8e1a67c", "rental_uris": {"android": "https://dc.lft.to/lastmile_qr_scan", "ios": "https://dc.lft.to/lastmile_qr_scan"}, "name": "3a24f63d342479435c83c1cbc8e1a67c", "is_reserved": 0}, {"is_disabled": 0, "fusion_lon": 0.0, "fusion_lat": 0.0, "lat": 38.892422333333336, "type": "electric_scooter", "lon": -77.05034833333333, "bike_id": "23a424ba6dbb27a1e07610add8d1dee4", "rental_uris": {"android": "https://dc.lft.to/lastmile_qr_scan", "ios": "https://dc.lft.to/lastmile_qr_scan"}, "name": "23a424ba6dbb27a1e07610add8d1dee4", "is_reserved": 0}, {"is_disabled": 0, "fusion_lon": 0.0, "fusion_lat": 0.0, "lat": 38.9239945, "type": "electric_scooter", "lon": -77.04079383333334, "bike_id": "bb34d697beb6ab1cce2cd96b04f00336", "rental_uris": {"android": "https://dc.lft.to/lastmile_qr_scan", "ios": "https://dc.lft.to/lastmile_qr_scan"}, "name": "bb34d697beb6ab1cce2cd96b04f00336", "is_reserved": 0}, {"is_disabled": 0, "fusion_lon": 0.0, "fusion_lat": 0.0, "lat": 38.9561435, "type": "electric_scooter", "lon": -77.03283966666666, "bike_id": "42d170ea0eb5d410c537b631f9aeb9d9", "rental_uris": {"android": "https://dc.lft.to/lastmile_qr_scan", "ios": "https://dc.lft.to/lastmile_qr_scan"}, "name": "42d170ea0eb5d410c537b631f9aeb9d9", "is_reserved": 0}, {"is_disabled": 0, "fusion_lon": 0.0, "fusion_lat": 0.0, "lat": 38.91789, "type": "electric_scooter", "lon": -77.03445933333333, "bike_id": "06aa9e7e41853766ffc694aa7926fac6", "rental_uris": {"android": "https://dc.lft.to/lastmile_qr_scan", "ios": "https://dc.lft.to/lastmile_qr_scan"}, "name": "06aa9e7e41853766ffc694aa7926fac6", "is_reserved": 0}, {"is_disabled": 0, "fusion_lon": 0.0, "fusion_lat": 0.0, "lat": 38.922455, "type": "electric_scooter", "lon": -77.03086116666667, "bike_id": "95c65061afc57641b2387b2523d8d25b", "rental_uris": {"android": "https://dc.lft.to/lastmile_qr_scan", "ios": "https://dc.lft.to/lastmile_qr_scan"}, "name": "95c65061afc57641b2387b2523d8d25b", "is_reserved": 0}, {"is_disabled": 0, "fusion_lon": 0.0, "fusion_lat": 0.0, "lat": 38.88128833333333, "type": "electric_scooter", "lon": -77.0165865, "bike_id": "6756361bb3ef0b3ab7cdf9e36efae0a0", "rental_uris": {"android": "https://dc.lft.to/lastmile_qr_scan", "ios": "https://dc.lft.to/lastmile_qr_scan"}, "name": "6756361bb3ef0b3ab7cdf9e36efae0a0", "is_reserved": 0}, {"is_disabled": 0, "fusion_lon": 0.0, "fusion_lat": 0.0, "lat": 38.897309666666665, "type": "electric_scooter", "lon": -77.0498885, "bike_id": "71628604f802543c21cc73c4b65f1eb3", "rental_uris": {"android": "https://dc.lft.to/lastmile_qr_scan", "ios": "https://dc.lft.to/lastmile_qr_scan"}, "name": "71628604f802543c21cc73c4b65f1eb3", "is_reserved": 0}, {"is_disabled": 0, "fusion_lon": 0.0, "fusion_lat": 0.0, "lat": 38.88743816666667, "type": "electric_scooter", "lon": -77.02571166666667, "bike_id": "ecf40145e72b6a93112d77fce6a9ebc1", "rental_uris": {"android": "https://dc.lft.to/lastmile_qr_scan", "ios": "https://dc.lft.to/lastmile_qr_scan"}, "name": "ecf40145e72b6a93112d77fce6a9ebc1", "is_reserved": 0}, {"is_disabled": 0, "fusion_lon": 0.0, "fusion_lat": 0.0, "lat": 38.908373166666664, "type": "electric_scooter", "lon": -77.04888616666666, "bike_id": "a3f264a515ea1073a5af2d4ebff09bff", "rental_uris": {"android": "https://dc.lft.to/lastmile_qr_scan", "ios": "https://dc.lft.to/lastmile_qr_scan"}, "name": "a3f264a515ea1073a5af2d4ebff09bff", "is_reserved": 0}, {"is_disabled": 0, "fusion_lon": 0.0, "fusion_lat": 0.0, "lat": 38.92961116666667, "type": "electric_scooter", "lon": -77.05513266666667, "bike_id": "3d5477715031b6ba2669bd233d6e59cf", "rental_uris": {"android": "https://dc.lft.to/lastmile_qr_scan", "ios": "https://dc.lft.to/lastmile_qr_scan"}, "name": "3d5477715031b6ba2669bd233d6e59cf", "is_reserved": 0}, {"is_disabled": 0, "fusion_lon": 0.0, "fusion_lat": 0.0, "lat": 38.9665295, "type": "electric_bike", "lon": -76.93020916666667, "bike_id": "dd01ce9d91e5bd6c61a04d4c44f76c16", "rental_uris": {"android": "https://dc.lft.to/lastmile_qr_scan", "ios": "https://dc.lft.to/lastmile_qr_scan"}, "name": "dd01ce9d91e5bd6c61a04d4c44f76c16", "is_reserved": 0}, {"is_disabled": 0, "fusion_lon": 0.0, "fusion_lat": 0.0, "lat": 38.94511266666667, "type": "electric_scooter", "lon": -77.02984016666667, "bike_id": "6395a09b1935a6d73c1bb3088496ed67", "rental_uris": {"android": "https://dc.lft.to/lastmile_qr_scan", "ios": "https://dc.lft.to/lastmile_qr_scan"}, "name": "6395a09b1935a6d73c1bb3088496ed67", "is_reserved": 0}, {"is_disabled": 0, "fusion_lon": 0.0, "fusion_lat": 0.0, "lat": 38.9020575, "type": "electric_scooter", "lon": -76.98189816666667, "bike_id": "4a822911e71f5f88ddf16a3a3c0539c4", "rental_uris": {"android": "https://dc.lft.to/lastmile_qr_scan", "ios": "https://dc.lft.to/lastmile_qr_scan"}, "name": "4a822911e71f5f88ddf16a3a3c0539c4", "is_reserved": 0}, {"is_disabled": 0, "fusion_lon": 0.0, "fusion_lat": 0.0, "lat": 38.901382, "type": "electric_scooter", "lon": -77.041607, "bike_id": "0df74dc098df493553afb5fd02563e84", "rental_uris": {"android": "https://dc.lft.to/lastmile_qr_scan", "ios": "https://dc.lft.to/lastmile_qr_scan"}, "name": "0df74dc098df493553afb5fd02563e84", "is_reserved": 0}, {"is_disabled": 0, "fusion_lon": 0.0, "fusion_lat": 0.0, "lat": 38.906846333333334, "type": "electric_scooter", "lon": -77.03116333333334, "bike_id": "853a1e67c65a3d5b2539dee956b038eb", "rental_uris": {"android": "https://dc.lft.to/lastmile_qr_scan", "ios": "https://dc.lft.to/lastmile_qr_scan"}, "name": "853a1e67c65a3d5b2539dee956b038eb", "is_reserved": 0}, {"is_disabled": 0, "fusion_lon": 0.0, "fusion_lat": 0.0, "lat": 38.92782966666667, "type": "electric_scooter", "lon": -77.0325575, "bike_id": "d370e0b5d2e482a3bb881c2c1f1d945b", "rental_uris": {"android": "https://dc.lft.to/lastmile_qr_scan", "ios": "https://dc.lft.to/lastmile_qr_scan"}, "name": "d370e0b5d2e482a3bb881c2c1f1d945b", "is_reserved": 0}, {"is_disabled": 0, "fusion_lon": 0.0, "fusion_lat": 0.0, "lat": 38.898471666666666, "type": "electric_scooter", "lon": -77.03119916666667, "bike_id": "703928ff24758756ee57e1f8169ed0f4", "rental_uris": {"android": "https://dc.lft.to/lastmile_qr_scan", "ios": "https://dc.lft.to/lastmile_qr_scan"}, "name": "703928ff24758756ee57e1f8169ed0f4", "is_reserved": 0}, {"is_disabled": 0, "fusion_lon": 0.0, "fusion_lat": 0.0, "lat": 38.90159333333333, "type": "electric_scooter", "lon": -77.03178166666666, "bike_id": "aee06456c51a6ace1a0cc02ea2c406c3", "rental_uris": {"android": "https://dc.lft.to/lastmile_qr_scan", "ios": "https://dc.lft.to/lastmile_qr_scan"}, "name": "aee06456c51a6ace1a0cc02ea2c406c3", "is_reserved": 0}, {"is_disabled": 0, "fusion_lon": 0.0, "fusion_lat": 0.0, "lat": 38.906009833333336, "type": "electric_scooter", "lon": -77.0637095, "bike_id": "e2177612ff497009415c720a0f6cccb7", "rental_uris": {"android": "https://dc.lft.to/lastmile_qr_scan", "ios": "https://dc.lft.to/lastmile_qr_scan"}, "name": "e2177612ff497009415c720a0f6cccb7", "is_reserved": 0}, {"is_disabled": 0, "fusion_lon": 0.0, "fusion_lat": 0.0, "lat": 38.902921666666664, "type": "electric_scooter", "lon": -77.03661283333334, "bike_id": "385152909fd91a16bb7e4d97672baf86", "rental_uris": {"android": "https://dc.lft.to/lastmile_qr_scan", "ios": "https://dc.lft.to/lastmile_qr_scan"}, "name": "385152909fd91a16bb7e4d97672baf86", "is_reserved": 0}, {"is_disabled": 0, "fusion_lon": 0.0, "fusion_lat": 0.0, "lat": 38.918068166666664, "type": "electric_scooter", "lon": -77.03436383333333, "bike_id": "72520ba9b195feafe4cbf161722cdb99", "rental_uris": {"android": "https://dc.lft.to/lastmile_qr_scan", "ios": "https://dc.lft.to/lastmile_qr_scan"}, "name": "72520ba9b195feafe4cbf161722cdb99", "is_reserved": 0}, {"is_disabled": 0, "fusion_lon": 0.0, "fusion_lat": 0.0, "lat": 38.88372733333333, "type": "electric_scooter", "lon": -77.01962933333333, "bike_id": "438ca66286f1e439be0e7922966f9779", "rental_uris": {"android": "https://dc.lft.to/lastmile_qr_scan", "ios": "https://dc.lft.to/lastmile_qr_scan"}, "name": "438ca66286f1e439be0e7922966f9779", "is_reserved": 0}, {"is_disabled": 0, "fusion_lon": 0.0, "fusion_lat": 0.0, "lat": 38.90770716666667, "type": "electric_scooter", "lon": -77.03843516666667, "bike_id": "fabb7eec70d1ceb85fd83818015e2726", "rental_uris": {"android": "https://dc.lft.to/lastmile_qr_scan", "ios": "https://dc.lft.to/lastmile_qr_scan"}, "name": "fabb7eec70d1ceb85fd83818015e2726", "is_reserved": 0}, {"is_disabled": 0, "fusion_lon": 0.0, "fusion_lat": 0.0, "lat": 38.89992383333333, "type": "electric_scooter", "lon": -77.02193083333333, "bike_id": "f24af4ba6b24ac540edaa21786b54180", "rental_uris": {"android": "https://dc.lft.to/lastmile_qr_scan", "ios": "https://dc.lft.to/lastmile_qr_scan"}, "name": "f24af4ba6b24ac540edaa21786b54180", "is_reserved": 0}, {"is_disabled": 0, "fusion_lon": 0.0, "fusion_lat": 0.0, "lat": 38.9014145, "type": "electric_scooter", "lon": -77.04165916666666, "bike_id": "48807355291ce3d5da94bddfb5415341", "rental_uris": {"android": "https://dc.lft.to/lastmile_qr_scan", "ios": "https://dc.lft.to/lastmile_qr_scan"}, "name": "48807355291ce3d5da94bddfb5415341", "is_reserved": 0}, {"is_disabled": 0, "fusion_lon": 0.0, "fusion_lat": 0.0, "lat": 38.9056235, "type": "electric_scooter", "lon": -77.03364, "bike_id": "238b434f6e59c72c0dcf4c8fc4597e28", "rental_uris": {"android": "https://dc.lft.to/lastmile_qr_scan", "ios": "https://dc.lft.to/lastmile_qr_scan"}, "name": "238b434f6e59c72c0dcf4c8fc4597e28", "is_reserved": 0}, {"is_disabled": 0, "fusion_lon": 0.0, "fusion_lat": 0.0, "lat": 38.897253, "type": "electric_scooter", "lon": -77.0204365, "bike_id": "f4633c1b370f205e979a9c938966d0b6", "rental_uris": {"android": "https://dc.lft.to/lastmile_qr_scan", "ios": "https://dc.lft.to/lastmile_qr_scan"}, "name": "f4633c1b370f205e979a9c938966d0b6", "is_reserved": 0}, {"is_disabled": 0, "fusion_lon": 0.0, "fusion_lat": 0.0, "lat": 38.89523366666667, "type": "electric_scooter", "lon": -77.02197383333333, "bike_id": "4e815e2615dba04410fdd4e6448124ed", "rental_uris": {"android": "https://dc.lft.to/lastmile_qr_scan", "ios": "https://dc.lft.to/lastmile_qr_scan"}, "name": "4e815e2615dba04410fdd4e6448124ed", "is_reserved": 0}, {"is_disabled": 0, "fusion_lon": 0.0, "fusion_lat": 0.0, "lat": 38.88868016666667, "type": "electric_scooter", "lon": -76.97735683333333, "bike_id": "fa7474382f4d363483b236c7b1997359", "rental_uris": {"android": "https://dc.lft.to/lastmile_qr_scan", "ios": "https://dc.lft.to/lastmile_qr_scan"}, "name": "fa7474382f4d363483b236c7b1997359", "is_reserved": 0}, {"is_disabled": 0, "fusion_lon": 0.0, "fusion_lat": 0.0, "lat": 38.8933295, "type": "electric_scooter", "lon": -77.0195805, "bike_id": "9780d649edb8cb6d1ed47df0b8280b5b", "rental_uris": {"android": "https://dc.lft.to/lastmile_qr_scan", "ios": "https://dc.lft.to/lastmile_qr_scan"}, "name": "9780d649edb8cb6d1ed47df0b8280b5b", "is_reserved": 0}, {"is_disabled": 0, "fusion_lon": 0.0, "fusion_lat": 0.0, "lat": 38.92865466666667, "type": "electric_scooter", "lon": -77.03344033333333, "bike_id": "eed31ecadfe4b5c7c0c6ba76b567e010", "rental_uris": {"android": "https://dc.lft.to/lastmile_qr_scan", "ios": "https://dc.lft.to/lastmile_qr_scan"}, "name": "eed31ecadfe4b5c7c0c6ba76b567e010", "is_reserved": 0}, {"is_disabled": 0, "fusion_lon": 0.0, "fusion_lat": 0.0, "lat": 38.901412666666666, "type": "electric_scooter", "lon": -77.04163716666666, "bike_id": "a7fea9b1448a4aa4056f65f3c5263759", "rental_uris": {"android": "https://dc.lft.to/lastmile_qr_scan", "ios": "https://dc.lft.to/lastmile_qr_scan"}, "name": "a7fea9b1448a4aa4056f65f3c5263759", "is_reserved": 0}, {"is_disabled": 0, "fusion_lon": 0.0, "fusion_lat": 0.0, "lat": 38.82732133333333, "type": "electric_bike", "lon": -77.008635, "bike_id": "53fde93ea92191c1db38e5e9c93692f8", "rental_uris": {"android": "https://dc.lft.to/lastmile_qr_scan", "ios": "https://dc.lft.to/lastmile_qr_scan"}, "name": "53fde93ea92191c1db38e5e9c93692f8", "is_reserved": 0}, {"is_disabled": 0, "fusion_lon": 0.0, "fusion_lat": 0.0, "lat": 38.83121833333333, "type": "electric_bike", "lon": -77.04323266666667, "bike_id": "0588465a502b3779e85599c60fa5ff1e", "rental_uris": {"android": "https://dc.lft.to/lastmile_qr_scan", "ios": "https://dc.lft.to/lastmile_qr_scan"}, "name": "0588465a502b3779e85599c60fa5ff1e", "is_reserved": 0}, {"is_disabled": 0, "fusion_lon": 0.0, "fusion_lat": 0.0, "lat": 38.899724666666664, "type": "electric_scooter", "lon": -77.03359683333333, "bike_id": "e71b8ff006dc764a0b70cc72511d5361", "rental_uris": {"android": "https://dc.lft.to/lastmile_qr_scan", "ios": "https://dc.lft.to/lastmile_qr_scan"}, "name": "e71b8ff006dc764a0b70cc72511d5361", "is_reserved": 0}, {"is_disabled": 0, "fusion_lon": 0.0, "fusion_lat": 0.0, "lat": 38.9074225, "type": "electric_scooter", "lon": -77.03455383333333, "bike_id": "e0522dd4870fb7abbf13b6bcca52d584", "rental_uris": {"android": "https://dc.lft.to/lastmile_qr_scan", "ios": "https://dc.lft.to/lastmile_qr_scan"}, "name": "e0522dd4870fb7abbf13b6bcca52d584", "is_reserved": 0}, {"is_disabled": 0, "fusion_lon": 0.0, "fusion_lat": 0.0, "lat": 38.91975583333333, "type": "electric_scooter", "lon": -77.04175783333334, "bike_id": "47f3a80730bf2748813fbaa47fe032a3", "rental_uris": {"android": "https://dc.lft.to/lastmile_qr_scan", "ios": "https://dc.lft.to/lastmile_qr_scan"}, "name": "47f3a80730bf2748813fbaa47fe032a3", "is_reserved": 0}, {"is_disabled": 0, "fusion_lon": 0.0, "fusion_lat": 0.0, "lat": 38.924722333333335, "type": "electric_scooter", "lon": -77.037286, "bike_id": "f58bc9d7eea50173ba5ef3cb47ef7ec8", "rental_uris": {"android": "https://dc.lft.to/lastmile_qr_scan", "ios": "https://dc.lft.to/lastmile_qr_scan"}, "name": "f58bc9d7eea50173ba5ef3cb47ef7ec8", "is_reserved": 0}, {"is_disabled": 0, "fusion_lon": 0.0, "fusion_lat": 0.0, "lat": 38.886861333333336, "type": "electric_scooter", "lon": -76.9548095, "bike_id": "80854b086944dafe38d684b15b53c180", "rental_uris": {"android": "https://dc.lft.to/lastmile_qr_scan", "ios": "https://dc.lft.to/lastmile_qr_scan"}, "name": "80854b086944dafe38d684b15b53c180", "is_reserved": 0}, {"is_disabled": 0, "fusion_lon": 0.0, "fusion_lat": 0.0, "lat": 38.944774333333335, "type": "electric_bike", "lon": -77.006453, "bike_id": "7e284e4c830a69e6ae7a4452db38159f", "rental_uris": {"android": "https://dc.lft.to/lastmile_qr_scan", "ios": "https://dc.lft.to/lastmile_qr_scan"}, "name": "7e284e4c830a69e6ae7a4452db38159f", "is_reserved": 0}, {"is_disabled": 0, "fusion_lon": 0.0, "fusion_lat": 0.0, "lat": 38.9068995, "type": "electric_scooter", "lon": -77.075761, "bike_id": "ef5d0503578ddd8d24bc6db7652c2dd5", "rental_uris": {"android": "https://dc.lft.to/lastmile_qr_scan", "ios": "https://dc.lft.to/lastmile_qr_scan"}, "name": "ef5d0503578ddd8d24bc6db7652c2dd5", "is_reserved": 0}, {"is_disabled": 0, "fusion_lon": 0.0, "fusion_lat": 0.0, "lat": 38.900158833333336, "type": "electric_scooter", "lon": -77.039599, "bike_id": "67cb28d0ec49e2c8951440169240441e", "rental_uris": {"android": "https://dc.lft.to/lastmile_qr_scan", "ios": "https://dc.lft.to/lastmile_qr_scan"}, "name": "67cb28d0ec49e2c8951440169240441e", "is_reserved": 0}, {"is_disabled": 0, "fusion_lon": 0.0, "fusion_lat": 0.0, "lat": 38.900194, "type": "electric_scooter", "lon": -77.0524255, "bike_id": "d5313756ae30c5e444462c508bf5d125", "rental_uris": {"android": "https://dc.lft.to/lastmile_qr_scan", "ios": "https://dc.lft.to/lastmile_qr_scan"}, "name": "d5313756ae30c5e444462c508bf5d125", "is_reserved": 0}, {"is_disabled": 0, "fusion_lon": 0.0, "fusion_lat": 0.0, "lat": 38.905316166666665, "type": "electric_scooter", "lon": -77.0502875, "bike_id": "59e6edb2c29dc9077c5be397178ed61b", "rental_uris": {"android": "https://dc.lft.to/lastmile_qr_scan", "ios": "https://dc.lft.to/lastmile_qr_scan"}, "name": "59e6edb2c29dc9077c5be397178ed61b", "is_reserved": 0}, {"is_disabled": 0, "fusion_lon": 0.0, "fusion_lat": 0.0, "lat": 38.928168666666664, "type": "electric_scooter", "lon": -77.0234885, "bike_id": "c514ed1dad173230df4b77aa04df7d3b", "rental_uris": {"android": "https://dc.lft.to/lastmile_qr_scan", "ios": "https://dc.lft.to/lastmile_qr_scan"}, "name": "c514ed1dad173230df4b77aa04df7d3b", "is_reserved": 0}, {"is_disabled": 0, "fusion_lon": 0.0, "fusion_lat": 0.0, "lat": 38.9173105, "type": "electric_scooter", "lon": -77.032079, "bike_id": "10c37d05d40a6d70adb1a46da420bf73", "rental_uris": {"android": "https://dc.lft.to/lastmile_qr_scan", "ios": "https://dc.lft.to/lastmile_qr_scan"}, "name": "10c37d05d40a6d70adb1a46da420bf73", "is_reserved": 0}, {"is_disabled": 0, "fusion_lon": 0.0, "fusion_lat": 0.0, "lat": 38.9342425, "type": "electric_scooter", "lon": -77.05838166666666, "bike_id": "827b2f771cdce6b41a7dfb59f495f826", "rental_uris": {"android": "https://dc.lft.to/lastmile_qr_scan", "ios": "https://dc.lft.to/lastmile_qr_scan"}, "name": "827b2f771cdce6b41a7dfb59f495f826", "is_reserved": 0}, {"is_disabled": 0, "fusion_lon": 0.0, "fusion_lat": 0.0, "lat": 38.945568333333334, "type": "electric_bike", "lon": -77.0511675, "bike_id": "e95e3ec6d6a064df52a923e0d65c2099", "rental_uris": {"android": "https://dc.lft.to/lastmile_qr_scan", "ios": "https://dc.lft.to/lastmile_qr_scan"}, "name": "e95e3ec6d6a064df52a923e0d65c2099", "is_reserved": 0}, {"is_disabled": 0, "fusion_lon": 0.0, "fusion_lat": 0.0, "lat": 38.91589166666667, "type": "electric_scooter", "lon": -77.02128933333333, "bike_id": "e994f440125a641a1b7b8bcefbff83cc", "rental_uris": {"android": "https://dc.lft.to/lastmile_qr_scan", "ios": "https://dc.lft.to/lastmile_qr_scan"}, "name": "e994f440125a641a1b7b8bcefbff83cc", "is_reserved": 0}, {"is_disabled": 0, "fusion_lon": 0.0, "fusion_lat": 0.0, "lat": 38.91812733333333, "type": "electric_scooter", "lon": -77.0345645, "bike_id": "1f50fcd21877d72f324c857d8b49b11b", "rental_uris": {"android": "https://dc.lft.to/lastmile_qr_scan", "ios": "https://dc.lft.to/lastmile_qr_scan"}, "name": "1f50fcd21877d72f324c857d8b49b11b", "is_reserved": 0}, {"is_disabled": 0, "fusion_lon": 0.0, "fusion_lat": 0.0, "lat": 38.9103575, "type": "electric_scooter", "lon": -77.01491533333333, "bike_id": "ed726eac73a226ceaf2cbdc0ebc53b12", "rental_uris": {"android": "https://dc.lft.to/lastmile_qr_scan", "ios": "https://dc.lft.to/lastmile_qr_scan"}, "name": "ed726eac73a226ceaf2cbdc0ebc53b12", "is_reserved": 0}, {"is_disabled": 0, "fusion_lon": 0.0, "fusion_lat": 0.0, "lat": 38.922526, "type": "electric_scooter", "lon": -77.029895, "bike_id": "7f3a08bdba9a24681f9439d48fb446d8", "rental_uris": {"android": "https://dc.lft.to/lastmile_qr_scan", "ios": "https://dc.lft.to/lastmile_qr_scan"}, "name": "7f3a08bdba9a24681f9439d48fb446d8", "is_reserved": 0}, {"is_disabled": 0, "fusion_lon": 0.0, "fusion_lat": 0.0, "lat": 38.93709833333333, "type": "electric_scooter", "lon": -77.0246725, "bike_id": "78ae72c0798d199c72345b1a331d210c", "rental_uris": {"android": "https://dc.lft.to/lastmile_qr_scan", "ios": "https://dc.lft.to/lastmile_qr_scan"}, "name": "78ae72c0798d199c72345b1a331d210c", "is_reserved": 0}, {"is_disabled": 0, "fusion_lon": 0.0, "fusion_lat": 0.0, "lat": 38.92235483333333, "type": "electric_scooter", "lon": -76.97535016666667, "bike_id": "fb6f9030615fd55f0090b839393f686f", "rental_uris": {"android": "https://dc.lft.to/lastmile_qr_scan", "ios": "https://dc.lft.to/lastmile_qr_scan"}, "name": "fb6f9030615fd55f0090b839393f686f", "is_reserved": 0}, {"is_disabled": 0, "fusion_lon": 0.0, "fusion_lat": 0.0, "lat": 38.909718166666664, "type": "electric_scooter", "lon": -77.0372935, "bike_id": "a11c030037f9ba102da1eb176ab5b181", "rental_uris": {"android": "https://dc.lft.to/lastmile_qr_scan", "ios": "https://dc.lft.to/lastmile_qr_scan"}, "name": "a11c030037f9ba102da1eb176ab5b181", "is_reserved": 0}, {"is_disabled": 0, "fusion_lon": 0.0, "fusion_lat": 0.0, "lat": 38.884544, "type": "electric_scooter", "lon": -76.95208583333333, "bike_id": "5d1c5bfa9d9b0b8da5aaec2179181ef7", "rental_uris": {"android": "https://dc.lft.to/lastmile_qr_scan", "ios": "https://dc.lft.to/lastmile_qr_scan"}, "name": "5d1c5bfa9d9b0b8da5aaec2179181ef7", "is_reserved": 0}, {"is_disabled": 0, "fusion_lon": 0.0, "fusion_lat": 0.0, "lat": 38.896018, "type": "electric_scooter", "lon": -77.02656116666667, "bike_id": "9a5504ef640418c373bce845cb5ac3af", "rental_uris": {"android": "https://dc.lft.to/lastmile_qr_scan", "ios": "https://dc.lft.to/lastmile_qr_scan"}, "name": "9a5504ef640418c373bce845cb5ac3af", "is_reserved": 0}, {"is_disabled": 0, "fusion_lon": 0.0, "fusion_lat": 0.0, "lat": 38.936984333333335, "type": "electric_bike", "lon": -77.02985616666666, "bike_id": "684f9720ac632248f6ea04244da4f9ea", "rental_uris": {"android": "https://dc.lft.to/lastmile_qr_scan", "ios": "https://dc.lft.to/lastmile_qr_scan"}, "name": "684f9720ac632248f6ea04244da4f9ea", "is_reserved": 0}, {"is_disabled": 0, "fusion_lon": 0.0, "fusion_lat": 0.0, "lat": 38.91698216666666, "type": "electric_scooter", "lon": -77.03584283333333, "bike_id": "4079cbd5de27cf39838d4d0422c8fbb2", "rental_uris": {"android": "https://dc.lft.to/lastmile_qr_scan", "ios": "https://dc.lft.to/lastmile_qr_scan"}, "name": "4079cbd5de27cf39838d4d0422c8fbb2", "is_reserved": 0}, {"is_disabled": 0, "fusion_lon": 0.0, "fusion_lat": 0.0, "lat": 38.83382066666667, "type": "electric_scooter", "lon": -76.992989, "bike_id": "3c1bc5ec8897fd5f4193bedcd7670a6f", "rental_uris": {"android": "https://dc.lft.to/lastmile_qr_scan", "ios": "https://dc.lft.to/lastmile_qr_scan"}, "name": "3c1bc5ec8897fd5f4193bedcd7670a6f", "is_reserved": 0}, {"is_disabled": 0, "fusion_lon": 0.0, "fusion_lat": 0.0, "lat": 38.9261205, "type": "electric_scooter", "lon": -77.02412633333333, "bike_id": "c3b60bb6762a3f5d6c7a075c9b679c3f", "rental_uris": {"android": "https://dc.lft.to/lastmile_qr_scan", "ios": "https://dc.lft.to/lastmile_qr_scan"}, "name": "c3b60bb6762a3f5d6c7a075c9b679c3f", "is_reserved": 0}, {"is_disabled": 0, "fusion_lon": 0.0, "fusion_lat": 0.0, "lat": 38.90857716666667, "type": "electric_scooter", "lon": -77.02591416666667, "bike_id": "63327e717e3b3a4804e913413c7eb027", "rental_uris": {"android": "https://dc.lft.to/lastmile_qr_scan", "ios": "https://dc.lft.to/lastmile_qr_scan"}, "name": "63327e717e3b3a4804e913413c7eb027", "is_reserved": 0},