{"data": {"bikes": [{"bike_id": "8cb5d7a9f9b1f46ee7d366e6b24a88ee", "fusion_lon": 0.0, "lon": -76.957596, "name": "8cb5d7a9f9b1f46ee7d366e6b24a88ee", "is_disabled": 0, "rental_uris": {"android": "https://dc.lft.to/lastmile_qr_scan", "ios": "https://dc.lft.to/lastmile_qr_scan"}, "type": "electric_scooter", "lat": 38.884305166666664, "is_reserved": 0, "fusion_lat": 0.0}, {"bike_id": "b53637a9eecb3b579a73e325521742dc", "fusion_lon": 0.0, "lon": -76.975302, "name": "b53637a9eecb3b579a73e325521742dc", "is_disabled": 0, "rental_uris": {"android": "https://dc.lft.to/lastmile_qr_scan", "ios": "https://dc.lft.to/lastmile_qr_scan"}, "type": "electric_bike", "lat": 38.9033075, "is_reserved": 0, "fusion_lat": 0.0}, {"bike_id": "514bc8bb4c3facdcf811e83922bb7bcf", "fusion_lon": 0.0, "lon": -77.03823466666667, "name": "514bc8bb4c3facdcf811e83922bb7bcf", "is_disabled": 0, "rental_uris": {"android": "https://dc.lft.to/lastmile_qr_scan", "ios": "https://dc.lft.to/lastmile_qr_scan"}, "type": "electric_scooter", "lat": 38.9181595, "is_reserved": 0, "fusion_lat": 0.0}, {"bike_id": "60c17d2fcc9181ef108c881a8190e6ac", "fusion_lon": 0.0, "lon": -76.94961883333333, "name": "60c17d2fcc9181ef108c881a8190e6ac", "is_disabled": 0, "rental_uris": {"android": "https://dc.lft.to/lastmile_qr_scan", "ios": "https://dc.lft.to/lastmile_qr_scan"}, "type": "electric_scooter", "lat": 38.90492616666667, "is_reserved": 0, "fusion_lat": 0.0}, {"bike_id": "4452e3779ac89fc8cd0865b4a1635809", "fusion_lon": 0.0, "lon": -77.031305, "name": "4452e3779ac89fc8cd0865b4a1635809", "is_disabled": 0, "rental_uris": {"android": "https://dc.lft.to/lastmile_qr_scan", "ios": "https://dc.lft.to/lastmile_qr_scan"}, "type": "electric_scooter", "lat": 38.914931, "is_reserved": 0, "fusion_lat": 0.0}, {"bike_id": "8e144c98ead7ad31a532ab34dfcbcf38", "fusion_lon": 0.0, "lon": -77.02983983333333, "name": "8e144c98ead7ad31a532ab34dfcbcf38", "is_disabled": 0, "rental_uris": {"android": "https://dc.lft.to/lastmile_qr_scan", "ios": "https://dc.lft.to/lastmile_qr_scan"}, "type": "electric_bike", "lat": 38.93699216666667, "is_reserved": 0, "fusion_lat": 0.0}, {"bike_id": "20345a10f11b7b75d32b370726c9ccce", "fusion_lon": 0.0, "lon": -77.04454416666667, "name": "20345a10f11b7b75d32b370726c9ccce", "is_disabled": 0, "rental_uris": {"android": "https://dc.lft.to/lastmile_qr_scan", "ios": "https://dc.lft.to/lastmile_qr_scan"}, "type": "electric_scooter", "lat": 38.91532083333333, "is_reserved": 0, "fusion_lat": 0.0}, {"bike_id": "7ee9189db8073958c50747e98fa1969d", "fusion_lon": 0.0, "lon": -77.01886283333333, "name": "7ee9189db8073958c50747e98fa1969d", "is_disabled": 0, "rental_uris": {"android": "https://dc.lft.to/lastmile_qr_scan", "ios": "https://dc.lft.to/lastmile_qr_scan"}, "type": "electric_scooter", "lat": 38.9060535, "is_reserved": 0, "fusion_lat": 0.0}, {"bike_id": "af1f5876849a5dc6285f0621102293fb", "fusion_lon": 0.0, "lon": -77.052371, "name": "af1f5876849a5dc6285f0621102293fb", "is_disabled": 0, "rental_uris": {"android": "https://dc.lft.to/lastmile_qr_scan", "ios": "https://dc.lft.to/lastmile_qr_scan"}, "type": "electric_scooter", "lat": 38.924615333333335, "is_reserved": 0, "fusion_lat": 0.0}, {"bike_id": "31c9e21bb6f119469af57d505e524e3e", "fusion_lon": 0.0, "lon": -76.95979983333334, "name": "31c9e21bb6f119469af57d505e524e3e", "is_disabled": 0, "rental_uris": {"android": "https://dc.lft.to/lastmile_qr_scan", "ios": "https://dc.lft.to/lastmile_qr_scan"}, "type": "electric_bike", "lat": 38.870003, "is_reserved": 0, "fusion_lat": 0.0}, {"bike_id": "f3893617abf3ad47302647a0227c2e48", "fusion_lon": 0.0, "lon": -77.0404515, "name": "f3893617abf3ad47302647a0227c2e48", "is_disabled": 0, "rental_uris": {"android": "https://dc.lft.to/lastmile_qr_scan", "ios": "https://dc.lft.to/lastmile_qr_scan"}, "type": "electric_scooter", "lat": 38.913409, "is_reserved": 0, "fusion_lat": 0.0}, {"bike_id": "c1c3c3673961b2659f299611a29ebfe1", "fusion_lon": 0.0, "lon": -77.05061466666666, "name": "c1c3c3673961b2659f299611a29ebfe1", "is_disabled": 0, "rental_uris": {"android": "https://dc.lft.to/lastmile_qr_scan", "ios": "https://dc.lft.to/lastmile_qr_scan"}, "type": "electric_scooter", "lat": 38.92419783333333, "is_reserved": 0, "fusion_lat": 0.0}, {"bike_id": "2e3474c314f991eb8ce549bb3a831875", "fusion_lon": 0.0, "lon": -77.0414495, "name": "2e3474c314f991eb8ce549bb3a831875", "is_disabled": 0, "rental_uris": {"android": "https://dc.lft.to/lastmile_qr_scan", "ios": "https://dc.lft.to/lastmile_qr_scan"}, "type": "electric_scooter", "lat": 38.89366066666667, "is_reserved": 0, "fusion_lat": 0.0}, {"bike_id": "42ae78186ceb2851e7da7ccb83c5f86e", "fusion_lon": 0.0, "lon": -77.0446535, "name": "42ae78186ceb2851e7da7ccb83c5f86e", "is_disabled": 0, "rental_uris": {"android": "https://dc.lft.to/lastmile_qr_scan", "ios": "https://dc.lft.to/lastmile_qr_scan"}, "type": "electric_scooter", "lat": 38.91851916666667, "is_reserved": 0, "fusion_lat": 0.0}, {"bike_id": "d91b3f708e1fc60873ec615c667f54b2", "fusion_lon": 0.0, "lon": -77.03294266666667, "name": "d91b3f708e1fc60873ec615c667f54b2", "is_disabled": 0, "rental_uris": {"android": "https://dc.lft.to/lastmile_qr_scan", "ios": "https://dc.lft.to/lastmile_qr_scan"}, "type": "electric_scooter", "lat": 38.9205315, "is_reserved": 0, "fusion_lat": 0.0}, {"bike_id": "b4a16d06db116eef028c2e79c4d38204", "fusion_lon": 0.0, "lon": -77.03805733333333, "name": "b4a16d06db116eef028c2e79c4d38204", "is_disabled": 0, "rental_uris": {"android": "https://dc.lft.to/lastmile_qr_scan", "ios": "https://dc.lft.to/lastmile_qr_scan"}, "type": "electric_scooter", "lat": 38.925534166666665, "is_reserved": 0, "fusion_lat": 0.0}, {"bike_id": "bff6bfc9c41725872ca179cbf38fc732", "fusion_lon": 0.0, "lon": -77.00203, "name": "bff6bfc9c41725872ca179cbf38fc732", "is_disabled": 0, "rental_uris": {"android": "https://dc.lft.to/lastmile_qr_scan", "ios": "https://dc.lft.to/lastmile_qr_scan"}, "type": "electric_scooter", "lat": 38.90247633333333, "is_reserved": 0, "fusion_lat": 0.0}, {"bike_id": "e797cec545cb65adc1f743f71740f309", "fusion_lon": 0.0, "lon": -77.03932016666667, "name": "e797cec545cb65adc1f743f71740f309", "is_disabled": 0, "rental_uris": {"android": "https://dc.lft.to/lastmile_qr_scan", "ios": "https://dc.lft.to/lastmile_qr_scan"}, "type": "electric_scooter", "lat": 38.924916833333334, "is_reserved": 0, "fusion_lat": 0.0}, {"bike_id": "c2b42257b5ae027e0ba12b93e9d70e6c", "fusion_lon": 0.0, "lon": -77.03158916666666, "name": "c2b42257b5ae027e0ba12b93e9d70e6c", "is_disabled": 0, "rental_uris": {"android": "https://dc.lft.to/lastmile_qr_scan", "ios": "https://dc.lft.to/lastmile_qr_scan"}, "type": "electric_bike", "lat": 38.99953333333333, "is_reserved": 0, "fusion_lat": 0.0}, {"bike_id": "6933ec22aa67fcce41f3ad75e4f3d5eb", "fusion_lon": 0.0, "lon": -76.983808, "name": "6933ec22aa67fcce41f3ad75e4f3d5eb", "is_disabled": 0, "rental_uris": {"android": "https://dc.lft.to/lastmile_qr_scan", "ios": "https://dc.lft.to/lastmile_qr_scan"}, "type": "electric_scooter", "lat": 38.885898166666664, "is_reserved": 0, "fusion_lat": 0.0}, {"bike_id": "6c26b05d76819d0695836bf5f50ee63c", "fusion_lon": 0.0, "lon": -77.0355485, "name": "6c26b05d76819d0695836bf5f50ee63c", "is_disabled": 0, "rental_uris": {"android": "https://dc.lft.to/lastmile_qr_scan", "ios": "https://dc.lft.to/lastmile_qr_scan"}, "type": "electric_scooter", "lat": 38.92861966666667, "is_reserved": 0, "fusion_lat": 0.0}, {"bike_id": "a377cac79677b3a66a831ed44f4df960", "fusion_lon": 0.0, "lon": -77.02005133333333, "name": "a377cac79677b3a66a831ed44f4df960", "is_disabled": 0, "rental_uris": {"android": "https://dc.lft.to/lastmile_qr_scan", "ios": "https://dc.lft.to/lastmile_qr_scan"}, "type": "electric_scooter", "lat": 38.924153833333335, "is_reserved": 0, "fusion_lat": 0.0}, {"bike_id": "0b16e210959d12ff85810aef72b5faee", "fusion_lon": 0.0, "lon": -76.98575783333334, "name": "0b16e210959d12ff85810aef72b5faee", "is_disabled": 0, "rental_uris": {"android": "https://dc.lft.to/lastmile_qr_scan", "ios": "https://dc.lft.to/lastmile_qr_scan"}, "type": "electric_scooter", "lat": 38.854484666666664, "is_reserved": 0, "fusion_lat": 0.0}, {"bike_id": "85eeca6f71151231b207eaf78858419c", "fusion_lon": 0.0, "lon": -77.043959, "name": "85eeca6f71151231b207eaf78858419c", "is_disabled": 0, "rental_uris": {"android": "https://dc.lft.to/lastmile_qr_scan", "ios": "https://dc.lft.to/lastmile_qr_scan"}, "type": "electric_scooter", "lat": 38.914098833333334, "is_reserved": 0, "fusion_lat": 0.0}, {"bike_id": "fef6411b81659f81a51ac593a1d2a279", "fusion_lon": 0.0, "lon": -76.98094216666667, "name": "fef6411b81659f81a51ac593a1d2a279", "is_disabled": 0, "rental_uris": {"android": "https://dc.lft.to/lastmile_qr_scan", "ios": "https://dc.lft.to/lastmile_qr_scan"}, "type": "electric_bike", "lat": 38.953589666666666, "is_reserved": 0, "fusion_lat": 0.0}, {"bike_id": "03c7a597e1079eb4ed28ae6853266c73", "fusion_lon": 0.0, "lon": -76.93132266666667, "name": "03c7a597e1079eb4ed28ae6853266c73", "is_disabled": 0, "rental_uris": {"android": "https://dc.lft.to/lastmile_qr_scan", "ios": "https://dc.lft.to/lastmile_qr_scan"}, "type": "electric_scooter", "lat": 38.893400166666666, "is_reserved": 0, "fusion_lat": 0.0}, {"bike_id": "1b24339cd69da37f8cb64f4eaf2a4200", "fusion_lon": 0.0, "lon": -77.02892666666666, "name": "1b24339cd69da37f8cb64f4eaf2a4200", "is_disabled": 0, "rental_uris": {"android": "https://dc.lft.to/lastmile_qr_scan", "ios": "https://dc.lft.to/lastmile_qr_scan"}, "type": "electric_bike", "lat": 38.994043, "is_reserved": 0, "fusion_lat": 0.0}, {"bike_id": "0856bf3bae619cca01e7e9cd0c9a2ba0", "fusion_lon": 0.0, "lon": -77.0262605, "name": "0856bf3bae619cca01e7e9cd0c9a2ba0", "is_disabled": 0, "rental_uris": {"android": "https://dc.lft.to/lastmile_qr_scan", "ios": "https://dc.lft.to/lastmile_qr_scan"}, "type": "electric_bike", "lat": 38.962308666666665, "is_reserved": 0, "fusion_lat": 0.0}, {"bike_id": "5e385ce1d464bf2628dacb66776a4937", "fusion_lon": 0.0, "lon": -77.02767566666667, "name": "5e385ce1d464bf2628dacb66776a4937", "is_disabled": 0, "rental_uris": {"android": "https://dc.lft.to/lastmile_qr_scan", "ios": "https://dc.lft.to/lastmile_qr_scan"}, "type": "electric_scooter", "lat": 38.954296, "is_reserved": 0, "fusion_lat": 0.0}, {"bike_id": "ef0f442e85dd1db6721fc9f99d92fab2", "fusion_lon": 0.0, "lon": -77.02172033333333, "name": "ef0f442e85dd1db6721fc9f99d92fab2", "is_disabled": 0, "rental_uris": {"android": "https://dc.lft.to/lastmile_qr_scan", "ios": "https://dc.lft.to/lastmile_qr_scan"}, "type": "electric_scooter", "lat": 38.942935, "is_reserved": 0, "fusion_lat": 0.0}, {"bike_id": "c3bc572cf1e19cd995e22ff3100062a1", "fusion_lon": 0.0, "lon": -77.0432245, "name": "c3bc572cf1e19cd995e22ff3100062a1", "is_disabled": 0, "rental_uris": {"android": "https://dc.lft.to/lastmile_qr_scan", "ios": "https://dc.lft.to/lastmile_qr_scan"}, "type": "electric_scooter", "lat": 38.923145, "is_reserved": 0, "fusion_lat": 0.0}, {"bike_id": "b1fbcfb78d05a921ed7a6b3aa294275f", "fusion_lon": 0.0, "lon": -76.96529566666666, "name": "b1fbcfb78d05a921ed7a6b3aa294275f", "is_disabled": 0, "rental_uris": {"android": "https://dc.lft.to/lastmile_qr_scan", "ios": "https://dc.lft.to/lastmile_qr_scan"}, "type": "electric_scooter", "lat": 38.876298166666665, "is_reserved": 0, "fusion_lat": 0.0}, {"bike_id": "9df06315e48148c2f0438be84df89288", "fusion_lon": 0.0, "lon": -77.0153755, "name": "9df06315e48148c2f0438be84df89288", "is_disabled": 0, "rental_uris": {"android": "https://dc.lft.to/lastmile_qr_scan", "ios": "https://dc.lft.to/lastmile_qr_scan"}, "type": "electric_scooter", "lat": 38.887467, "is_reserved": 0, "fusion_lat": 0.0}, {"bike_id": "c9bf5fdfdb59cdcfa3da264169a0b8a2", "fusion_lon": 0.0, "lon": -77.02815316666667, "name": "c9bf5fdfdb59cdcfa3da264169a0b8a2", "is_disabled": 0, "rental_uris": {"android": "https://dc.lft.to/lastmile_qr_scan", "ios": "https://dc.lft.to/lastmile_qr_scan"}, "type": "electric_scooter", "lat": 38.9317235, "is_reserved": 0, "fusion_lat": 0.0}, {"bike_id": "44d620e13bf08b1ed6df67a6376e0e61", "fusion_lon": 0.0, "lon": -77.04785716666666, "name": "44d620e13bf08b1ed6df67a6376e0e61", "is_disabled": 0, "rental_uris": {"android": "https://dc.lft.to/lastmile_qr_scan", "ios": "https://dc.lft.to/lastmile_qr_scan"}, "type": "electric_scooter", "lat": 38.893675, "is_reserved": 0, "fusion_lat": 0.0}, {"bike_id": "81dd2aaa09df26c67881baa9a1d83d6b", "fusion_lon": 0.0, "lon": -77.0234385, "name": "81dd2aaa09df26c67881baa9a1d83d6b", "is_disabled": 0, "rental_uris": {"android": "https://dc.lft.to/lastmile_qr_scan", "ios": "https://dc.lft.to/lastmile_qr_scan"}, "type": "electric_scooter", "lat": 38.94471, "is_reserved": 0, "fusion_lat": 0.0}, {"bike_id": "6f08c2c9351c859db50771c15f5bd353", "fusion_lon": 0.0, "lon": -77.00322833333334, "name": "6f08c2c9351c859db50771c15f5bd353", "is_disabled": 0, "rental_uris": {"android": "https://dc.lft.to/lastmile_qr_scan", "ios": "https://dc.lft.to/lastmile_qr_scan"}, "type": "electric_scooter", "lat": 38.901299333333334, "is_reserved": 0, "fusion_lat": 0.0}, {"bike_id": "4307a16fadf061871163ec6c14c83bb5", "fusion_lon": 0.0, "lon": -77.02794133333333, "name": "4307a16fadf061871163ec6c14c83bb5", "is_disabled": 0, "rental_uris": {"android": "https://dc.lft.to/lastmile_qr_scan", "ios": "https://dc.lft.to/lastmile_qr_scan"}, "type": "electric_scooter", "lat": 38.93083683333333, "is_reserved": 0, "fusion_lat": 0.0}, {"bike_id": "5f6f1f7091bcb83910a4b5e1ae059ecc", "fusion_lon": 0.0, "lon": -76.97775233333333, "name": "5f6f1f7091bcb83910a4b5e1ae059ecc", "is_disabled": 0, "rental_uris": {"android": "https://dc.lft.to/lastmile_qr_scan", "ios": "https://dc.lft.to/lastmile_qr_scan"}, "type": "electric_scooter", "lat": 38.87072466666667, "is_reserved": 0, "fusion_lat": 0.0}, {"bike_id": "89e41f644df6c9aed4cca80e9ee07068", "fusion_lon": 0.0, "lon": -77.12486666666666, "name": "89e41f644df6c9aed4cca80e9ee07068", "is_disabled": 0, "rental_uris": {"android": "https://dc.lft.to/lastmile_qr_scan", "ios": "https://dc.lft.to/lastmile_qr_scan"}, "type": "electric_bike", "lat": 38.853983666666664, "is_reserved": 0, "fusion_lat": 0.0}, {"bike_id": "a1bef0cd83a69571927660d93fd8fccc", "fusion_lon": 0.0, "lon": -77.02687316666666, "name": "a1bef0cd83a69571927660d93fd8fccc", "is_disabled": 0, "rental_uris": {"android": "https://dc.lft.to/lastmile_qr_scan", "ios": "https://dc.lft.to/lastmile_qr_scan"}, "type": "electric_scooter", "lat": 38.912697, "is_reserved": 0, "fusion_lat": 0.0}, {"bike_id": "818d783ae66cf93735fbc7cd2e7dc43e", "fusion_lon": 0.0, "lon": -77.03837616666667, "name": "818d783ae66cf93735fbc7cd2e7dc43e", "is_disabled": 0, "rental_uris": {"android": "https://dc.lft.to/lastmile_qr_scan", "ios": "https://dc.lft.to/lastmile_qr_scan"}, "type": "electric_scooter", "lat": 38.909636166666665, "is_reserved": 0, "fusion_lat": 0.0}, {"bike_id": "9d283827d7c32d97409d969807f5d3be", "fusion_lon": 0.0, "lon": -77.0373595, "name": "9d283827d7c32d97409d969807f5d3be", "is_disabled": 0, "rental_uris": {"android": "https://dc.lft.to/lastmile_qr_scan", "ios": "https://dc.lft.to/lastmile_qr_scan"}, "type": "electric_scooter", "lat": 38.916224, "is_reserved": 0, "fusion_lat": 0.0}, {"bike_id": "e96a21f03f408d45661c7c184556b641", "fusion_lon": 0.0, "lon": -76.97536383333333, "name": "e96a21f03f408d45661c7c184556b641", "is_disabled": 0, "rental_uris": {"android": "https://dc.lft.to/lastmile_qr_scan", "ios": "https://dc.lft.to/lastmile_qr_scan"}, "type": "electric_bike", "lat": 38.840139666666666, "is_reserved": 0, "fusion_lat": 0.0}, {"bike_id": "df0fd802d39c68060c65a26a817fc2b8", "fusion_lon": 0.0, "lon": -77.00568466666667, "name": "df0fd802d39c68060c65a26a817fc2b8", "is_disabled": 0, "rental_uris": {"android": "https://dc.lft.to/lastmile_qr_scan", "ios": "https://dc.lft.to/lastmile_qr_scan"}, "type": "electric_scooter", "lat": 38.885043833333334, "is_reserved": 0, "fusion_lat": 0.0}, {"bike_id": "eef30caafa33da0d58578ff984a0ca0b", "fusion_lon": 0.0, "lon": -77.03253716666667, "name": "eef30caafa33da0d58578ff984a0ca0b", "is_disabled": 0, "rental_uris": {"android": "https://dc.lft.to/lastmile_qr_scan", "ios": "https://dc.lft.to/lastmile_qr_scan"}, "type": "electric_scooter", "lat": 38.915541, "is_reserved": 0, "fusion_lat": 0.0}, {"bike_id": "f4e20583f8bc15d6c6f406ba989e8d24", "fusion_lon": 0.0, "lon": -77.0271585, "name": "f4e20583f8bc15d6c6f406ba989e8d24", "is_disabled": 0, "rental_uris": {"android": "https://dc.lft.to/lastmile_qr_scan", "ios": "https://dc.lft.to/lastmile_qr_scan"}, "type": "electric_scooter", "lat": 38.92239516666667, "is_reserved": 0, "fusion_lat": 0.0}, {"bike_id": "5f2c12d1e0c48e1ccc9a884b839b0f5f", "fusion_lon": 0.0, "lon": -77.04209, "name": "5f2c12d1e0c48e1ccc9a884b839b0f5f", "is_disabled": 0, "rental_uris": {"android": "https://dc.lft.to/lastmile_qr_scan", "ios": "https://dc.lft.to/lastmile_qr_scan"}, "type": "electric_scooter", "lat": 38.920431666666666, "is_reserved": 0, "fusion_lat": 0.0}, {"bike_id": "e42c24e76af761f95725c948bfa67caf", "fusion_lon": 0.0, "lon": -76.9759665, "name": "e42c24e76af761f95725c948bfa67caf", "is_disabled": 0, "rental_uris": {"android": "https://dc.lft.to/lastmile_qr_scan", "ios": "https://dc.lft.to/lastmile_qr_scan"}, "type": "electric_scooter", "lat": 38.884127, "is_reserved": 0, "fusion_lat": 0.0}, {"bike_id": "0f07a4da1ff50735139c6920bd0a9b63", "fusion_lon": 0.0, "lon": -76.994791, "name": "0f07a4da1ff50735139c6920bd0a9b63", "is_disabled": 0, "rental_uris": {"android": "https://dc.lft.to/lastmile_qr_scan", "ios": "https://dc.lft.to/lastmile_qr_scan"}, "type": "electric_bike", "lat": 38.862663833333336, "is_reserved": 0, "fusion_lat": 0.0}, {"bike_id": "f2643b8447a65fbba197f6eac8c27a07", "fusion_lon": 0.0, "lon": -77.03260283333333, "name": "f2643b8447a65fbba197f6eac8c27a07", "is_disabled": 0, "rental_uris": {"android": "https://dc.lft.to/lastmile_qr_scan", "ios": "https://dc.lft.to/lastmile_qr_scan"}, "type": "electric_scooter", "lat": 38.93562283333333, "is_reserved": 0, "fusion_lat": 0.0}, {"bike_id": "744592b3ff98e27d1950ba15c3a022ab", "fusion_lon": 0.0, "lon": -76.98008283333333, "name": "744592b3ff98e27d1950ba15c3a022ab", "is_disabled": 0, "rental_uris": {"android": "https://dc.lft.to/lastmile_qr_scan", "ios": "https://dc.lft.to/lastmile_qr_scan"}, "type": "electric_scooter", "lat": 38.85321116666667, "is_reserved": 0, "fusion_lat": 0.0}, {"bike_id": "4ec81a7e63d25d2fdbd101368d98abd3", "fusion_lon": 0.0, "lon": -77.028002, "name": "4ec81a7e63d25d2fdbd101368d98abd3", "is_disabled": 0, "rental_uris": {"android": "https://dc.lft.to/lastmile_qr_scan", "ios": "https://dc.lft.to/lastmile_qr_scan"}, "type": "electric_scooter", "lat": 38.9095975, "is_reserved": 0, "fusion_lat": 0.0}, {"bike_id": "110d20b0b6b31a7d15b840f72cf9d98c", "fusion_lon": 0.0, "lon": -77.00284083333334, "name": "110d20b0b6b31a7d15b840f72cf9d98c", "is_disabled": 0, "rental_uris": {"android": "https://dc.lft.to/lastmile_qr_scan", "ios": "https://dc.lft.to/lastmile_qr_scan"}, "type": "electric_scooter", "lat": 38.90873633333333, "is_reserved": 0, "fusion_lat": 0.0}, {"bike_id": "3a81d3335590f0da8c64f422745bee3f", "fusion_lon": 0.0, "lon": -76.94838733333333, "name": "3a81d3335590f0da8c64f422745bee3f", "is_disabled": 0, "rental_uris": {"android": "https://dc.lft.to/lastmile_qr_scan", "ios": "https://dc.lft.to/lastmile_qr_scan"}, "type": "electric_scooter", "lat": 38.8958985, "is_reserved": 0, "fusion_lat": 0.0}, {"bike_id": "04ade9e837d114cdffafb001bcf54624", "fusion_lon": 0.0, "lon": -77.0564035, "name": "04ade9e837d114cdffafb001bcf54624", "is_disabled": 0, "rental_uris": {"android": "https://dc.lft.to/lastmile_qr_scan", "ios": "https://dc.lft.to/lastmile_qr_scan"}, "type": "electric_scooter", "lat": 38.90533033333333, "is_reserved": 0, "fusion_lat": 0.0}, {"bike_id": "df2bb49852c524ff26035dc3b650cb02", "fusion_lon": 0.0, "lon": -77.0670045, "name": "df2bb49852c524ff26035dc3b650cb02", "is_disabled": 0, "rental_uris": {"android": "https://dc.lft.to/lastmile_qr_scan", "ios": "https://dc.lft.to/lastmile_qr_scan"}, "type": "electric_bike", "lat": 38.831795166666666, "is_reserved": 0, "fusion_lat": 0.0}, {"bike_id": "e56a197e77679844ba5bb7f2c9cdc70b", "fusion_lon": 0.0, "lon": -77.04015183333334, "name": "e56a197e77679844ba5bb7f2c9cdc70b", "is_disabled": 0, "rental_uris": {"android": "https://dc.lft.to/lastmile_qr_scan", "ios": "https://dc.lft.to/lastmile_qr_scan"}, "type": "electric_scooter", "lat": 38.92266216666667, "is_reserved": 0, "fusion_lat": 0.0}, {"bike_id": "509a0205680bde8eebe9f41db7114d43", "fusion_lon": 0.0, "lon": -77.02767866666667, "name": "509a0205680bde8eebe9f41db7114d43", "is_disabled": 0, "rental_uris": {"android": "https://dc.lft.to/lastmile_qr_scan", "ios": "https://dc.lft.to/lastmile_qr_scan"}, "type": "electric_scooter", "lat": 38.916987666666664, "is_reserved": 0, "fusion_lat": 0.0}, {"bike_id": "b4608635059133758aac74c1c9f07c72", "fusion_lon": 0.0, "lon": -77.05702883333333, "name": "b4608635059133758aac74c1c9f07c72", "is_disabled": 0, "rental_uris": {"android": "https://dc.lft.to/lastmile_qr_scan", "ios": "https://dc.lft.to/lastmile_qr_scan"}, "type": "electric_scooter", "lat": 38.90558933333333, "is_reserved": 0, "fusion_lat": 0.0}, {"bike_id": "4d3ffd7f46790f46660c3284468a425c", "fusion_lon": 0.0, "lon": -77.03501766666666, "name": "4d3ffd7f46790f46660c3284468a425c", "is_disabled": 0, "rental_uris": {"android": "https://dc.lft.to/lastmile_qr_scan", "ios": "https://dc.lft.to/lastmile_qr_scan"}, "type": "electric_scooter", "lat": 38.924791, "is_reserved": 0, "fusion_lat": 0.0}, {"bike_id": "a339b3700cd3e622a3dfca204a48fddf", "fusion_lon": 0.0, "lon": -77.0322405, "name": "a339b3700cd3e622a3dfca204a48fddf", "is_disabled": 0, "rental_uris": {"android": "https://dc.lft.to/lastmile_qr_scan", "ios": "https://dc.lft.to/lastmile_qr_scan"}, "type": "electric_scooter", "lat": 38.91405566666667, "is_reserved": 0, "fusion_lat": 0.0}, {"bike_id": "11a7fc333e28d79f4068deb8d541e266", "fusion_lon": 0.0, "lon": -77.03466866666666, "name": "11a7fc333e28d79f4068deb8d541e266", "is_disabled": 0, "rental_uris": {"android": "https://dc.lft.to/lastmile_qr_scan", "ios": "https://dc.lft.to/lastmile_qr_scan"}, "type": "electric_scooter", "lat": 38.905565, "is_reserved": 0, "fusion_lat": 0.0}, {"bike_id": "1cd41c8a7a73265c8c004fbe1387a6e2", "fusion_lon": 0.0, "lon": -77.02354616666666, "name": "1cd41c8a7a73265c8c004fbe1387a6e2", "is_disabled": 0, "rental_uris": {"android": "https://dc.lft.to/lastmile_qr_scan", "ios": "https://dc.lft.to/lastmile_qr_scan"}, "type": "electric_scooter", "lat": 38.88753233333333, "is_reserved": 0, "fusion_lat": 0.0}, {"bike_id": "1e097441f1bece7f8395be38bb363c35", "fusion_lon": 0.0, "lon": -77.02899, "name": "1e097441f1bece7f8395be38bb363c35", "is_disabled": 0, "rental_uris": {"android": "https://dc.lft.to/lastmile_qr_scan", "ios": "https://dc.lft.to/lastmile_qr_scan"}, "type": "electric_scooter", "lat": 38.91405916666667, "is_reserved": 0, "fusion_lat": 0.0}, {"bike_id": "61dd9f8e9cbce954615700c518561bc1", "fusion_lon": 0.0, "lon": -77.03841833333334, "name": "61dd9f8e9cbce954615700c518561bc1", "is_disabled": 0, "rental_uris": {"android": "https://dc.lft.to/lastmile_qr_scan", "ios": "https://dc.lft.to/lastmile_qr_scan"}, "type": "electric_scooter", "lat": 38.911100833333336, "is_reserved": 0, "fusion_lat": 0.0}, {"bike_id": "aa1e656ae187e75f91d6085fd904092f", "fusion_lon": 0.0, "lon": -77.03317616666666, "name": "aa1e656ae187e75f91d6085fd904092f", "is_disabled": 0, "rental_uris": {"android": "https://dc.lft.to/lastmile_qr_scan", "ios": "https://dc.lft.to/lastmile_qr_scan"}, "type": "electric_scooter", "lat": 38.915714666666666, "is_reserved": 0, "fusion_lat": 0.0}, {"bike_id": "efd575ea1c108d2f014b5caf55e7e3c8", "fusion_lon": 0.0, "lon": -76.952477, "name": "efd575ea1c108d2f014b5caf55e7e3c8", "is_disabled": 0, "rental_uris": {"android": "https://dc.lft.to/lastmile_qr_scan", "ios": "https://dc.lft.to/lastmile_qr_scan"}, "type": "electric_scooter", "lat": 38.89042883333333, "is_reserved": 0, "fusion_lat": 0.0}, {"bike_id": "8c97021b9337a686c24d07676fade7f4", "fusion_lon": 0.0, "lon": -76.99599966666666, "name": "8c97021b9337a686c24d07676fade7f4", "is_disabled": 0, "rental_uris": {"android": "https://dc.lft.to/lastmile_qr_scan", "ios": "https://dc.lft.to/lastmile_qr_scan"}, "type": "electric_scooter", "lat": 38.8569335, "is_reserved": 0, "fusion_lat": 0.0}, {"bike_id": "1d74c7d280350b0e6fcca57302cf8ed5", "fusion_lon": 0.0, "lon": -77.02404116666666, "name": "1d74c7d280350b0e6fcca57302cf8ed5", "is_disabled": 0, "rental_uris": {"android": "https://dc.lft.to/lastmile_qr_scan", "ios": "https://dc.lft.to/lastmile_qr_scan"}, "type": "electric_scooter", "lat": 38.9570695, "is_reserved": 0, "fusion_lat": 0.0}, {"bike_id": "f15aec34528c423d4d5c2a603dcab102", "fusion_lon": 0.0, "lon": -77.0435215, "name": "f15aec34528c423d4d5c2a603dcab102", "is_disabled": 0, "rental_uris": {"android": "https://dc.lft.to/lastmile_qr_scan", "ios": "https://dc.lft.to/lastmile_qr_scan"}, "type": "electric_scooter", "lat": 38.91258466666667, "is_reserved": 0, "fusion_lat": 0.0}, {"bike_id": "a8d5b5e9b79e4c3e7983c6ec4831f5da", "fusion_lon": 0.0, "lon": -77.00304083333333, "name": "a8d5b5e9b79e4c3e7983c6ec4831f5da", "is_disabled": 0, "rental_uris": {"android": "https://dc.lft.to/lastmile_qr_scan", "ios": "https://dc.lft.to/lastmile_qr_scan"}, "type": "electric_scooter", "lat": 38.90136, "is_reserved": 0, "fusion_lat": 0.0}, {"bike_id": "c63d59c5a2080a9fce19ca0d3813ff53", "fusion_lon": 0.0, "lon": -77.03265433333333, "name": "c63d59c5a2080a9fce19ca0d3813ff53", "is_disabled": 0, "rental_uris": {"android": "https://dc.lft.to/lastmile_qr_scan", "ios": "https://dc.lft.to/lastmile_qr_scan"}, "type": "electric_scooter", "lat": 38.93738366666667, "is_reserved": 0, "fusion_lat": 0.0}, {"bike_id": "bea288e6335b403ac506714c61e19c4f", "fusion_lon": 0.0, "lon": -77.01176366666667, "name": "bea288e6335b403ac506714c61e19c4f", "is_disabled": 0, "rental_uris": {"android": "https://dc.lft.to/lastmile_qr_scan", "ios": "https://dc.lft.to/lastmile_qr_scan"}, "type": "electric_scooter", "lat": 38.903173, "is_reserved": 0, "fusion_lat": 0.0}, {"bike_id": "59f788b3c1a2542951974a9360f21ef5", "fusion_lon": 0.0, "lon": -76.95740733333334, "name": "59f788b3c1a2542951974a9360f21ef5", "is_disabled": 0, "rental_uris": {"android": "https://dc.lft.to/lastmile_qr_scan", "ios": "https://dc.lft.to/lastmile_qr_scan"}, "type": "electric_scooter", "lat": 38.89634783333333, "is_reserved": 0, "fusion_lat": 0.0}, {"bike_id": "7c2d230fb8c692400161d44bf76235af", "fusion_lon": 0.0, "lon": -76.9905675, "name": "7c2d230fb8c692400161d44bf76235af", "is_disabled": 0, "rental_uris": {"android": "https://dc.lft.to/lastmile_qr_scan", "ios": "https://dc.lft.to/lastmile_qr_scan"}, "type": "electric_scooter", "lat": 38.855410666666664, "is_reserved": 0, "fusion_lat": 0.0}, {"bike_id": "45684dc49946bd1a4ec77aed4d906256", "fusion_lon": 0.0, "lon": -76.98655283333333, "name": "45684dc49946bd1a4ec77aed4d906256", "is_disabled": 0, "rental_uris": {"android": "https://dc.lft.to/lastmile_qr_scan", "ios": "https://dc.lft.to/lastmile_qr_scan"}, "type": "electric_scooter", "lat": 38.8674525, "is_reserved": 0, "fusion_lat": 0.0}, {"bike_id": "89a28c6a8df6ac5f391175303b380d51", "fusion_lon": 0.0, "lon": -77.02696533333334, "name": "89a28c6a8df6ac5f391175303b380d51", "is_disabled": 0, "rental_uris": {"android": "https://dc.lft.to/lastmile_qr_scan", "ios": "https://dc.lft.to/lastmile_qr_scan"}, "type": "electric_scooter", "lat": 38.92403516666667, "is_reserved": 0, "fusion_lat": 0.0}, {"bike_id": "9b8bab78bedecd90a0960e1ae8062e48", "fusion_lon": 0.0, "lon": -77.02979183333333, "name": "9b8bab78bedecd90a0960e1ae8062e48", "is_disabled": 0, "rental_uris": {"android": "https://dc.lft.to/lastmile_qr_scan", "ios": "https://dc.lft.to/lastmile_qr_scan"}, "type": "electric_scooter", "lat": 38.907374, "is_reserved": 0, "fusion_lat": 0.0}, {"bike_id": "14cb226d3369e525ab8dee71d2629d82", "fusion_lon": 0.0, "lon": -76.99009083333334, "name": "14cb226d3369e525ab8dee71d2629d82", "is_disabled": 0, "rental_uris": {"android": "https://dc.lft.to/lastmile_qr_scan", "ios": "https://dc.lft.to/lastmile_qr_scan"}, "type": "electric_scooter", "lat": 38.8588565, "is_reserved": 0, "fusion_lat": 0.0}, {"bike_id": "304c4406e55c5dc85198547bbeaf344c", "fusion_lon": 0.0, "lon": -77.03643933333333, "name": "304c4406e55c5dc85198547bbeaf344c", "is_disabled": 0, "rental_uris": {"android": "https://dc.lft.to/lastmile_qr_scan", "ios": "https://dc.lft.to/lastmile_qr_scan"}, "type": "electric_scooter", "lat": 38.9235335, "is_reserved": 0, "fusion_lat": 0.0}, {"bike_id": "4bc18e3d76cbc1c33e224ec31141bdf1", "fusion_lon": 0.0, "lon": -77.02957716666667, "name": "4bc18e3d76cbc1c33e224ec31141bdf1", "is_disabled": 0, "rental_uris": {"android": "https://dc.lft.to/lastmile_qr_scan", "ios": "https://dc.lft.to/lastmile_qr_scan"}, "type": "electric_scooter", "lat": 38.9233675, "is_reserved": 0, "fusion_lat": 0.0}, {"bike_id": "d94d55544a08ea4800c592528b452893", "fusion_lon": 0.0, "lon": -77.03986316666666, "name": "d94d55544a08ea4800c592528b452893", "is_disabled": 0, "rental_uris": {"android": "https://dc.lft.to/lastmile_qr_scan", "ios": "https://dc.lft.to/lastmile_qr_scan"}, "type": "electric_scooter", "lat": 38.92584683333333, "is_reserved": 0, "fusion_lat": 0.0}, {"bike_id": "222c10c019c77534f16ed3ee84871824", "fusion_lon": 0.0, "lon": -76.99034233333333, "name": "222c10c019c77534f16ed3ee84871824", "is_disabled": 0, "rental_uris": {"android": "https://dc.lft.to/lastmile_qr_scan", "ios": "https://dc.lft.to/lastmile_qr_scan"}, "type": "electric_scooter", "lat": 38.901900499999996, "is_reserved": 0, "fusion_lat": 0.0}, {"bike_id": "6b67fa0dbeaa961b6f6cd7ca24f55a14", "fusion_lon": 0.0, "lon": -77.02199666666667, "name": "6b67fa0dbeaa961b6f6cd7ca24f55a14", "is_disabled": 0, "rental_uris": {"android": "https://dc.lft.to/lastmile_qr_scan", "ios": "https://dc.lft.to/lastmile_qr_scan"}, "type": "electric_scooter", "lat": 38.9110345, "is_reserved": 0, "fusion_lat": 0.0}, {"bike_id": "138ddc301f48e6e15813d49ba5233ecf", "fusion_lon": 0.0, "lon": -77.02961883333333, "name": "138ddc301f48e6e15813d49ba5233ecf", "is_disabled": 0, "rental_uris": {"android": "https://dc.lft.to/lastmile_qr_scan", "ios": "https://dc.lft.to/lastmile_qr_scan"}, "type": "electric_scooter", "lat": 38.90496266666667, "is_reserved": 0, "fusion_lat": 0.0}, {"bike_id": "e07fd9e31d9662464ce78e8df84d31fe", "fusion_lon": 0.0, "lon": -77.0253235, "name": "e07fd9e31d9662464ce78e8df84d31fe", "is_disabled": 0, "rental_uris": {"android": "https://dc.lft.to/lastmile_qr_scan", "ios": "https://dc.lft.to/lastmile_qr_scan"}, "type": "electric_scooter", "lat": 38.909633666666664, "is_reserved": 0, "fusion_lat": 0.0}, {"bike_id": "48d1c4bdbe939f31138b6279231799e6", "fusion_lon": 0.0, "lon": -77.02466633333333, "name": "48d1c4bdbe939f31138b6279231799e6", "is_disabled": 0, "rental_uris": {"android": "https://dc.lft.to/lastmile_qr_scan", "ios": "https://dc.lft.to/lastmile_qr_scan"}, "type": "electric_scooter", "lat": 38.920509833333334, "is_reserved": 0, "fusion_lat": 0.0}, {"bike_id": "2675e64785974ce7b7fbb4baf845256b", "fusion_lon": 0.0, "lon": -76.99904283333333, "name": "2675e64785974ce7b7fbb4baf845256b", "is_disabled": 0, "rental_uris": {"android": "https://dc.lft.to/lastmile_qr_scan", "ios": "https://dc.lft.to/lastmile_qr_scan"}, "type": "electric_bike", "lat": 38.8920695, "is_reserved": 0, "fusion_lat": 0.0}, {"bike_id": "d3bce508b8336d3954470834260f6778", "fusion_lon": 0.0, "lon": -77.00801966666667, "name": "d3bce508b8336d3954470834260f6778", "is_disabled": 0, "rental_uris": {"android": "https://dc.lft.to/lastmile_qr_scan", "ios": "https://dc.lft.to/lastmile_qr_scan"}, "type": "electric_bike", "lat": 38.94919816666667, "is_reserved": 0, "fusion_lat": 0.0}, {"bike_id": "933c0b72757d8fc5c666ec0be3e4f858", "fusion_lon": 0.0, "lon": -77.025333, "name": "933c0b72757d8fc5c666ec0be3e4f858", "is_disabled": 0, "rental_uris": {"android": "https://dc.lft.to/lastmile_qr_scan", "ios": "https://dc.lft.to/lastmile_qr_scan"}, "type": "electric_scooter", "lat": 38.89828133333334, "is_reserved": 0, "fusion_lat": 0.0}, {"bike_id": "e5736aed977be29ed22d7df75572065f", "fusion_lon": 0.0, "lon": -77.03323733333333, "name": "e5736aed977be29ed22d7df75572065f", "is_disabled": 0, "rental_uris": {"android": "https://dc.lft.to/lastmile_qr_scan", "ios": "https://dc.lft.to/lastmile_qr_scan"}, "type": "electric_scooter", "lat": 38.90245816666667, "is_reserved": 0, "fusion_lat": 0.0}, {"bike_id": "57f0b2a0f5456df5f2c0f24eed0ecfbd", "fusion_lon": 0.0, "lon": -77.01537916666666, "name": "57f0b2a0f5456df5f2c0f24eed0ecfbd", "is_disabled": 0, "rental_uris": {"android": "https://dc.lft.to/lastmile_qr_scan", "ios": "https://dc.lft.to/lastmile_qr_scan"}, "type": "electric_scooter", "lat": 38.88415333333333, "is_reserved": 0, "fusion_lat": 0.0}, {"bike_id": "c23ee0c660c3d0d5f182ab6a6e647e1f", "fusion_lon": 0.0, "lon": -77.04605183333334, "name": "c23ee0c660c3d0d5f182ab6a6e647e1f", "is_disabled": 0, "rental_uris": {"android": "https://dc.lft.to/lastmile_qr_scan", "ios": "https://dc.lft.to/lastmile_qr_scan"}, "type": "electric_scooter", "lat": 38.917273, "is_reserved": 0, "fusion_lat": 0.0}, {"bike_id": "905e9e9ac6b3b55a7dea0a9b839f42b3", "fusion_lon": 0.0, "lon": -76.99095633333333, "name": "905e9e9ac6b3b55a7dea0a9b839f42b3", "is_disabled": 0, "rental_uris": {"android": "https://dc.lft.to/lastmile_qr_scan", "ios": "https://dc.lft.to/lastmile_qr_scan"}, "type": "electric_scooter", "lat": 38.882364, "is_reserved": 0, "fusion_lat": 0.0}, {"bike_id": "cc23d4836c32df1e86d6220128acd9b8", "fusion_lon": 0.0, "lon": -76.974832, "name": "cc23d4836c32df1e86d6220128acd9b8", "is_disabled": 0, "rental_uris": {"android": "https://dc.lft.to/lastmile_qr_scan", "ios": "https://dc.lft.to/lastmile_qr_scan"}, "type": "electric_scooter", "lat": 38.865522666666664, "is_reserved": 0, "fusion_lat": 0.0}, {"bike_id": "bce48b0dc526a1afdfbd2a9eb99588e5", "fusion_lon": 0.0, "lon": -76.98025383333334, "name": "bce48b0dc526a1afdfbd2a9eb99588e5", "is_disabled": 0, "rental_uris": {"android": "https://dc.lft.to/lastmile_qr_scan", "ios": "https://dc.lft.to/lastmile_qr_scan"}, "type": "electric_scooter", "lat": 38.90382233333333, "is_reserved": 0, "fusion_lat": 0.0}, {"bike_id": "5a804a76df78c221bbaab5d081d160aa", "fusion_lon": 0.0, "lon": -77.05583283333333, "name": "5a804a76df78c221bbaab5d081d160aa", "is_disabled": 0, "rental_uris": {"android": "https://dc.lft.to/lastmile_qr_scan", "ios": "https://dc.lft.to/lastmile_qr_scan"}, "type": "electric_scooter", "lat": 38.893287, "is_reserved": 0, "fusion_lat": 0.0}, {"bike_id": "f48e779b9eea4e4a2135ae49dfc4570f", "fusion_lon": 0.0, "lon": -77.04664566666666, "name": "f48e779b9eea4e4a2135ae49dfc4570f", "is_disabled": 0, "rental_uris": {"android": "https://dc.lft.to/lastmile_qr_scan", "ios": "https://dc.lft.to/lastmile_qr_scan"}, "type": "electric_scooter", "lat": 38.90557066666667, "is_reserved": 0, "fusion_lat": 0.0}, {"bike_id": "61e9425bfe51b09564657301bdd3f7b3", "fusion_lon": 0.0, "lon": -77.0244355, "name": "61e9425bfe51b09564657301bdd3f7b3", "is_disabled": 0, "rental_uris": {"android": "https://dc.lft.to/lastmile_qr_scan", "ios": "https://dc.lft.to/lastmile_qr_scan"}, "type": "electric_scooter", "lat": 38.91885033333333, "is_reserved": 0, "fusion_lat": 0.0}, {"bike_id": "01388371a54f116367632783819d1441", "fusion_lon": 0.0, "lon": -77.04156616666667, "name": "01388371a54f116367632783819d1441", "is_disabled": 0, "rental_uris": {"android": "https://dc.lft.to/lastmile_qr_scan", "ios": "https://dc.lft.to/lastmile_qr_scan"}, "type": "electric_scooter", "lat": 38.915924, "is_reserved": 0, "fusion_lat": 0.0}, {"bike_id": "52620023b06c7f4380bf67e533ca4133", "fusion_lon": 0.0, "lon": -76.99613766666667, "name": "52620023b06c7f4380bf67e533ca4133", "is_disabled": 0, "rental_uris": {"android": "https://dc.lft.to/lastmile_qr_scan", "ios": "https://dc.lft.to/lastmile_qr_scan"}, "type": "electric_scooter", "lat": 38.900694666666666, "is_reserved": 0, "fusion_lat": 0.0}, {"bike_id": "d6c8e6a0f18fac532c6f202915b04661", "fusion_lon": 0.0, "lon": -77.046196, "name": "d6c8e6a0f18fac532c6f202915b04661", "is_disabled": 0, "rental_uris": {"android": "https://dc.lft.to/lastmile_qr_scan", "ios": "https://dc.lft.to/lastmile_qr_scan"}, "type": "electric_scooter", "lat": 38.909612833333334, "is_reserved": 0, "fusion_lat": 0.0}, {"bike_id": "be3a3dd299c361203b3edffe92d78c12", "fusion_lon": 0.0, "lon": -77.05210983333333, "name": "be3a3dd299c361203b3edffe92d78c12", "is_disabled": 0, "rental_uris": {"android": "https://dc.lft.to/lastmile_qr_scan", "ios": "https://dc.lft.to/lastmile_qr_scan"}, "type": "electric_scooter", "lat": 38.924368, "is_reserved": 0, "fusion_lat": 0.0}, {"bike_id": "870d3990c8ac98fb78c18d18b8e70d56", "fusion_lon": 0.0, "lon": -77.02829966666667, "name": "870d3990c8ac98fb78c18d18b8e70d56", "is_disabled": 0, "rental_uris": {"android": "https://dc.lft.to/lastmile_qr_scan", "ios": "https://dc.lft.to/lastmile_qr_scan"}, "type": "electric_scooter", "lat": 38.93234666666667, "is_reserved": 0, "fusion_lat": 0.0}, {"bike_id": "9d5325420ec6cf8c2dba9e5f6ae4253e", "fusion_lon": 0.0, "lon": -77.00382066666667, "name": "9d5325420ec6cf8c2dba9e5f6ae4253e", "is_disabled": 0, "rental_uris": {"android": "https://dc.lft.to/lastmile_qr_scan", "ios": "https://dc.lft.to/lastmile_qr_scan"}, "type": "electric_scooter", "lat": 38.875597166666665, "is_reserved": 0, "fusion_lat": 0.0}, {"bike_id": "78eb0edc240ed0ba1d7139321d9577bc", "fusion_lon": 0.0, "lon": -77.0510725, "name": "78eb0edc240ed0ba1d7139321d9577bc", "is_disabled": 0, "rental_uris": {"android": "https://dc.lft.to/lastmile_qr_scan", "ios": "https://dc.lft.to/lastmile_qr_scan"}, "type": "electric_scooter", "lat": 38.905208, "is_reserved": 0, "fusion_lat": 0.0}, {"bike_id": "88f0ac581bcf26114731872fbea7fb40", "fusion_lon": 0.0, "lon": -77.02812333333334, "name": "88f0ac581bcf26114731872fbea7fb40", "is_disabled": 0, "rental_uris": {"android": "https://dc.lft.to/lastmile_qr_scan", "ios": "https://dc.lft.to/lastmile_qr_scan"}, "type": "electric_scooter", "lat": 38.9308675, "is_reserved": 0, "fusion_lat": 0.0}, {"bike_id": "0994e6ec793a64e049c1e66c66724312", "fusion_lon": 0.0, "lon": -77.22319433333334, "name": "0994e6ec793a64e049c1e66c66724312", "is_disabled": 0, "rental_uris": {"android": "https://dc.lft.to/lastmile_qr_scan", "ios": "https://dc.lft.to/lastmile_qr_scan"}, "type": "electric_bike", "lat": 38.9179985, "is_reserved": 0, "fusion_lat": 0.0}, {"bike_id": "205c1661c8f5e79518c959aed0011f14", "fusion_lon": 0.0, "lon": -77.03860316666666, "name": "205c1661c8f5e79518c959aed0011f14", "is_disabled": 0, "rental_uris": {"android": "https://dc.lft.to/lastmile_qr_scan", "ios": "https://dc.lft.to/lastmile_qr_scan"}, "type": "electric_scooter", "lat": 38.907840666666665, "is_reserved": 0, "fusion_lat": 0.0}, {"bike_id": "080d125b92d69a1d72cfa901a8233c2f", "fusion_lon": 0.0, "lon": -77.037575, "name": "080d125b92d69a1d72cfa901a8233c2f", "is_disabled": 0, "rental_uris": {"android": "https://dc.lft.to/lastmile_qr_scan", "ios": "https://dc.lft.to/lastmile_qr_scan"}, "type": "electric_scooter", "lat": 38.912671, "is_reserved": 0, "fusion_lat": 0.0}, {"bike_id": "bfa0074c3d208a1e89410e0f39e55f39", "fusion_lon": 0.0, "lon": -77.09524233333333, "name": "bfa0074c3d208a1e89410e0f39e55f39", "is_disabled": 0, "rental_uris": {"android": "https://dc.lft.to/lastmile_qr_scan", "ios": "https://dc.lft.to/lastmile_qr_scan"}, "type": "electric_bike", "lat": 38.83815466666667, "is_reserved": 0, "fusion_lat": 0.0}, {"bike_id": "966a422c48ff16deeed548b8f09c5b90", "fusion_lon": 0.0, "lon": -77.03812166666667, "name": "966a422c48ff16deeed548b8f09c5b90", "is_disabled": 0, "rental_uris": {"android": "https://dc.lft.to/lastmile_qr_scan", "ios": "https://dc.lft.to/lastmile_qr_scan"}, "type": "electric_scooter", "lat": 38.914182333333336, "is_reserved": 0, "fusion_lat": 0.0}, {"bike_id": "78e26da82d514d7eb2bf48fd934e953a", "fusion_lon": 0.0, "lon": -77.07857816666667, "name": "78e26da82d514d7eb2bf48fd934e953a", "is_disabled": 0, "rental_uris": {"android": "https://dc.lft.to/lastmile_qr_scan", "ios": "https://dc.lft.to/lastmile_qr_scan"}, "type": "electric_bike", "lat": 38.93128033333333, "is_reserved": 0, "fusion_lat": 0.0}, {"bike_id": "c23313e76827a5b433e0907e847810be", "fusion_lon": 0.0, "lon": -76.93865166666667, "name": "c23313e76827a5b433e0907e847810be", "is_disabled": 0, "rental_uris": {"android": "https://dc.lft.to/lastmile_qr_scan", "ios": "https://dc.lft.to/lastmile_qr_scan"}, "type": "electric_scooter", "lat": 38.899031666666666, "is_reserved": 0, "fusion_lat": 0.0}, {"bike_id": "52eacdeac1cd1fb1952e94d986d22662", "fusion_lon": 0.0, "lon": -77.01995566666666, "name": "52eacdeac1cd1fb1952e94d986d22662", "is_disabled": 0, "rental_uris": {"android": "https://dc.lft.to/lastmile_qr_scan", "ios": "https://dc.lft.to/lastmile_qr_scan"}, "type": "electric_scooter", "lat": 38.91366816666667, "is_reserved": 0, "fusion_lat": 0.0}, {"bike_id": "a921d574a0df46734e2a6ccc9720b42c", "fusion_lon": 0.0, "lon": -77.03826066666667, "name": "a921d574a0df46734e2a6ccc9720b42c", "is_disabled": 0, "rental_uris": {"android": "https://dc.lft.to/lastmile_qr_scan", "ios": "https://dc.lft.to/lastmile_qr_scan"}, "type": "electric_scooter", "lat": 38.91008733333334, "is_reserved": 0, "fusion_lat": 0.0}, {"bike_id": "318d62cd5aa829c5cbd748a1e80d2edc", "fusion_lon": 0.0, "lon": -76.99859, "name": "318d62cd5aa829c5cbd748a1e80d2edc", "is_disabled": 0, "rental_uris": {"android": "https://dc.lft.to/lastmile_qr_scan", "ios": "https://dc.lft.to/lastmile_qr_scan"}, "type": "electric_scooter", "lat": 38.9036635, "is_reserved": 0, "fusion_lat": 0.0}, {"bike_id": "43e6be59cb5906695d4323a777beceda", "fusion_lon": 0.0, "lon": -77.01363266666667, "name": "43e6be59cb5906695d4323a777beceda", "is_disabled": 0, "rental_uris": {"android": "https://dc.lft.to/lastmile_qr_scan", "ios": "https://dc.lft.to/lastmile_qr_scan"}, "type": "electric_scooter", "lat": 38.893385333333335, "is_reserved": 0, "fusion_lat": 0.0}, {"bike_id": "9269e94c0831b70a35785ae4afa36e67", "fusion_lon": 0.0, "lon": -77.01399, "name": "9269e94c0831b70a35785ae4afa36e67", "is_disabled": 0, "rental_uris": {"android": "https://dc.lft.to/lastmile_qr_scan", "ios": "https://dc.lft.to/lastmile_qr_scan"}, "type": "electric_scooter", "lat": 38.918112, "is_reserved": 0, "fusion_lat": 0.0}, {"bike_id": "cf9405e88d559c0094327c6a5a80cd96", "fusion_lon": 0.0, "lon": -77.04154833333334, "name": "cf9405e88d559c0094327c6a5a80cd96", "is_disabled": 0, "rental_uris": {"android": "https://dc.lft.to/lastmile_qr_scan", "ios": "https://dc.lft.to/lastmile_qr_scan"}, "type": "electric_scooter", "lat": 38.919948166666664, "is_reserved": 0, "fusion_lat": 0.0}, {"bike_id": "ac0890b297048e68461e6d947b314c28", "fusion_lon": 0.0, "lon": -77.00213166666667, "name": "ac0890b297048e68461e6d947b314c28", "is_disabled": 0, "rental_uris": {"android": "https://dc.lft.to/lastmile_qr_scan", "ios": "https://dc.lft.to/lastmile_qr_scan"}, "type": "electric_scooter", "lat": 38.90028916666667, "is_reserved": 0, "fusion_lat": 0.0}, {"bike_id": "cdd34d41e4a955247ec238ac06092254", "fusion_lon": 0.0, "lon": -76.92438583333333, "name": "cdd34d41e4a955247ec238ac06092254", "is_disabled": 0, "rental_uris": {"android": "https://dc.lft.to/lastmile_qr_scan", "ios": "https://dc.lft.to/lastmile_qr_scan"}, "type": "electric_scooter", "lat": 38.9017855, "is_reserved": 0, "fusion_lat": 0.0}, {"bike_id": "f18994b3b819d6e2e3108e51c82f94d9", "fusion_lon": 0.0, "lon": -76.99856750000001, "name": "f18994b3b819d6e2e3108e51c82f94d9", "is_disabled": 0, "rental_uris": {"android": "https://dc.lft.to/lastmile_qr_scan", "ios": "https://dc.lft.to/lastmile_qr_scan"}, "type": "electric_scooter", "lat": 38.88754816666667, "is_reserved": 0, "fusion_lat": 0.0}, {"bike_id": "af1cc83e4078db3f51f8e9a127fb5369", "fusion_lon": 0.0, "lon": -77.05524033333333, "name": "af1cc83e4078db3f51f8e9a127fb5369", "is_disabled": 0, "rental_uris": {"android": "https://dc.lft.to/lastmile_qr_scan", "ios": "https://dc.lft.to/lastmile_qr_scan"}, "type": "electric_scooter", "lat": 38.909418333333335, "is_reserved": 0, "fusion_lat": 0.0}, {"bike_id": "c73f75ad502b921d69815b1cdf93dcae", "fusion_lon": 0.0, "lon": -77.03469466666667, "name": "c73f75ad502b921d69815b1cdf93dcae", "is_disabled": 0, "rental_uris": {"android": "https://dc.lft.to/lastmile_qr_scan", "ios": "https://dc.lft.to/lastmile_qr_scan"}, "type": "electric_scooter", "lat": 38.92258983333333, "is_reserved": 0, "fusion_lat": 0.0}, {"bike_id": "734b3b1e40a0aef75c33c3e6b8ca74de", "fusion_lon": 0.0, "lon": -77.05310433333334, "name": "734b3b1e40a0aef75c33c3e6b8ca74de", "is_disabled": 0, "rental_uris": {"android": "https://dc.lft.to/lastmile_qr_scan", "ios": "https://dc.lft.to/lastmile_qr_scan"}, "type": "electric_scooter", "lat": 38.92781216666667, "is_reserved": 0, "fusion_lat": 0.0}, {"bike_id": "251b722afa03c2d627e7ec13d0e3cff6", "fusion_lon": 0.0, "lon": -77.0447065, "name": "251b722afa03c2d627e7ec13d0e3cff6", "is_disabled": 0, "rental_uris": {"android": "https://dc.lft.to/lastmile_qr_scan", "ios": "https://dc.lft.to/lastmile_qr_scan"}, "type": "electric_scooter", "lat": 38.91273533333333, "is_reserved": 0, "fusion_lat": 0.0}, {"bike_id": "a90dae85b472ee95d69c8f9bea18169d", "fusion_lon": 0.0, "lon": -77.09964783333334, "name": "a90dae85b472ee95d69c8f9bea18169d", "is_disabled": 0, "rental_uris": {"android": "https://dc.lft.to/lastmile_qr_scan", "ios": "https://dc.lft.to/lastmile_qr_scan"}, "type": "electric_bike", "lat": 38.85789033333333, "is_reserved": 0, "fusion_lat": 0.0}, {"bike_id": "73c29322d8edf465849b4a8a28a9e505", "fusion_lon": 0.0, "lon": -77.029724, "name": "73c29322d8edf465849b4a8a28a9e505", "is_disabled": 0, "rental_uris": {"android": "https://dc.lft.to/lastmile_qr_scan", "ios": "https://dc.lft.to/lastmile_qr_scan"}, "type": "electric_scooter", "lat": 38.91597866666667, "is_reserved": 0, "fusion_lat": 0.0}, {"bike_id": "a852751a050560c561cb02bcf177e949", "fusion_lon": 0.0, "lon": -77.0269565, "name": "a852751a050560c561cb02bcf177e949", "is_disabled": 0, "rental_uris": {"android": "https://dc.lft.to/lastmile_qr_scan", "ios": "https://dc.lft.to/lastmile_qr_scan"}, "type": "electric_scooter", "lat": 38.91125816666667, "is_reserved": 0, "fusion_lat": 0.0}, {"bike_id": "b51166db35d8ccba3c168ab1bf09dfcb", "fusion_lon": 0.0, "lon": -77.043316, "name": "b51166db35d8ccba3c168ab1bf09dfcb", "is_disabled": 0, "rental_uris": {"android": "https://dc.lft.to/lastmile_qr_scan", "ios": "https://dc.lft.to/lastmile_qr_scan"}, "type": "electric_scooter", "lat": 38.89223116666667, "is_reserved": 0, "fusion_lat": 0.0}, {"bike_id": "0ad9cc547bdae7496a99881b2f5467a2", "fusion_lon": 0.0, "lon": -77.03261333333333, "name": "0ad9cc547bdae7496a99881b2f5467a2", "is_disabled": 0, "rental_uris": {"android": "https://dc.lft.to/lastmile_qr_scan", "ios": "https://dc.lft.to/lastmile_qr_scan"}, "type": "electric_scooter", "lat": 38.93773816666667, "is_reserved": 0, "fusion_lat": 0.0}, {"bike_id": "db0bdb147f9af9535645fc862c9aa335", "fusion_lon": 0.0, "lon": -77.04845516666667, "name": "db0bdb147f9af9535645fc862c9aa335", "is_disabled": 0, "rental_uris": {"android": "https://dc.lft.to/lastmile_qr_scan", "ios": "https://dc.lft.to/lastmile_qr_scan"}, "type": "electric_scooter", "lat": 38.91055816666667, "is_reserved": 0, "fusion_lat": 0.0}, {"bike_id": "2aa238cba3c50327970cdbfc07794758", "fusion_lon": 0.0, "lon": -77.02947366666666, "name": "2aa238cba3c50327970cdbfc07794758", "is_disabled": 0, "rental_uris": {"android": "https://dc.lft.to/lastmile_qr_scan", "ios": "https://dc.lft.to/lastmile_qr_scan"}, "type": "electric_scooter", "lat": 38.906302, "is_reserved": 0, "fusion_lat": 0.0}, {"bike_id": "041c71bcf52ad14eb5f9cdbe190d4f77", "fusion_lon": 0.0, "lon": -77.04140416666667, "name": "041c71bcf52ad14eb5f9cdbe190d4f77", "is_disabled": 0, "rental_uris": {"android": "https://dc.lft.to/lastmile_qr_scan", "ios": "https://dc.lft.to/lastmile_qr_scan"}, "type": "electric_scooter", "lat": 38.89350866666667, "is_reserved": 0, "fusion_lat": 0.0}, {"bike_id": "8439bc22a725b10f92bbaca6a831017b", "fusion_lon": 0.0, "lon": -77.04712066666667, "name": "8439bc22a725b10f92bbaca6a831017b", "is_disabled": 0, "rental_uris": {"android": "https://dc.lft.to/lastmile_qr_scan", "ios": "https://dc.lft.to/lastmile_qr_scan"}, "type": "electric_scooter", "lat": 38.92228516666667, "is_reserved": 0, "fusion_lat": 0.0}, {"bike_id": "244da15dec77bf2c2fe7d5e8e058e8f9", "fusion_lon": 0.0, "lon": -76.99707566666666, "name": "244da15dec77bf2c2fe7d5e8e058e8f9", "is_disabled": 0, "rental_uris": {"android": "https://dc.lft.to/lastmile_qr_scan", "ios": "https://dc.lft.to/lastmile_qr_scan"}, "type": "electric_scooter", "lat": 38.84430116666667, "is_reserved": 0, "fusion_lat": 0.0}, {"bike_id": "bec923a08b243c619fe009ef188d548f", "fusion_lon": 0.0, "lon": -77.02389866666667, "name": "bec923a08b243c619fe009ef188d548f", "is_disabled": 0, "rental_uris": {"android": "https://dc.lft.to/lastmile_qr_scan", "ios": "https://dc.lft.to/lastmile_qr_scan"}, "type": "electric_scooter", "lat": 38.90957316666667, "is_reserved": 0, "fusion_lat": 0.0}, {"bike_id": "e13cdb7d227705b01470ffbaf359f588", "fusion_lon": 0.0, "lon": -76.98074066666666, "name": "e13cdb7d227705b01470ffbaf359f588", "is_disabled": 0, "rental_uris": {"android": "https://dc.lft.to/lastmile_qr_scan", "ios": "https://dc.lft.to/lastmile_qr_scan"}, "type": "electric_bike", "lat": 38.90170166666667, "is_reserved": 0, "fusion_lat": 0.0}, {"bike_id": "ca66d4b4eac25e873b98beb0150951c8", "fusion_lon": 0.0, "lon": -77.04175483333333, "name": "ca66d4b4eac25e873b98beb0150951c8", "is_disabled": 0, "rental_uris": {"android": "https://dc.lft.to/lastmile_qr_scan", "ios": "https://dc.lft.to/lastmile_qr_scan"}, "type": "electric_scooter", "lat": 38.91858216666667, "is_reserved": 0, "fusion_lat": 0.0}, {"bike_id": "79203c0a01be7cad1026532e09aca55f", "fusion_lon": 0.0, "lon": -77.03456766666666, "name": "79203c0a01be7cad1026532e09aca55f", "is_disabled": 0, "rental_uris": {"android": "https://dc.lft.to/lastmile_qr_scan", "ios": "https://dc.lft.to/lastmile_qr_scan"}, "type": "electric_scooter", "lat": 38.90804133333334, "is_reserved": 0, "fusion_lat": 0.0}, {"bike_id": "ec87b8e5ace6eaa148e4aabc442df4de", "fusion_lon": 0.0, "lon": -77.0147455, "name": "ec87b8e5ace6eaa148e4aabc442df4de", "is_disabled": 0, "rental_uris": {"android": "https://dc.lft.to/lastmile_qr_scan", "ios": "https://dc.lft.to/lastmile_qr_scan"}, "type": "electric_scooter", "lat": 38.91767633333333, "is_reserved": 0, "fusion_lat": 0.0}, {"bike_id": "5fe513f19048bb80f65bb3d7ceb5c8e7", "fusion_lon": 0.0, "lon": -76.98107233333333, "name": "5fe513f19048bb80f65bb3d7ceb5c8e7", "is_disabled": 0, "rental_uris": {"android": "https://dc.lft.to/lastmile_qr_scan", "ios": "https://dc.lft.to/lastmile_qr_scan"}, "type": "electric_bike", "lat": 38.87730783333333, "is_reserved": 0, "fusion_lat": 0.0}, {"bike_id": "34e899a00ac88836b45da8d8764e5b04", "fusion_lon": 0.0, "lon": -77.02715383333333, "name": "34e899a00ac88836b45da8d8764e5b04", "is_disabled": 0, "rental_uris": {"android": "https://dc.lft.to/lastmile_qr_scan", "ios": "https://dc.lft.to/lastmile_qr_scan"}, "type": "electric_scooter", "lat": 38.915662, "is_reserved": 0, "fusion_lat": 0.0}, {"bike_id": "3a61a1fe770eb58efe3dafd282a63dd1", "fusion_lon": 0.0, "lon": -77.01787116666667, "name": "3a61a1fe770eb58efe3dafd282a63dd1", "is_disabled": 0, "rental_uris": {"android": "https://dc.lft.to/lastmile_qr_scan", "ios": "https://dc.lft.to/lastmile_qr_scan"}, "type": "electric_scooter", "lat": 38.90089116666667, "is_reserved": 0, "fusion_lat": 0.0}, {"bike_id": "11d2b9be2e4e14dfbe74cb89b22aa55e", "fusion_lon": 0.0, "lon": -77.05526266666666, "name": "11d2b9be2e4e14dfbe74cb89b22aa55e", "is_disabled": 0, "rental_uris": {"android": "https://dc.lft.to/lastmile_qr_scan", "ios": "https://dc.lft.to/lastmile_qr_scan"}, "type": "electric_scooter", "lat": 38.93018416666666, "is_reserved": 0, "fusion_lat": 0.0}, {"bike_id": "63372c3f1234bd35372c0894ad7a5e15", "fusion_lon": 0.0, "lon": -77.03829133333333, "name": "63372c3f1234bd35372c0894ad7a5e15", "is_disabled": 0, "rental_uris": {"android": "https://dc.lft.to/lastmile_qr_scan", "ios": "https://dc.lft.to/lastmile_qr_scan"}, "type": "electric_scooter", "lat": 38.906834833333335, "is_reserved": 0, "fusion_lat": 0.0}, {"bike_id": "f3fdea11ae9bd443156d60751c414a91", "fusion_lon": 0.0, "lon": -77.04147583333334, "name": "f3fdea11ae9bd443156d60751c414a91", "is_disabled": 0, "rental_uris": {"android": "https://dc.lft.to/lastmile_qr_scan", "ios": "https://dc.lft.to/lastmile_qr_scan"}, "type": "electric_scooter", "lat": 38.923023, "is_reserved": 0, "fusion_lat": 0.0}, {"bike_id": "17142de6566a56bb867120bc2f4bd271", "fusion_lon": 0.0, "lon": -77.01593483333333, "name": "17142de6566a56bb867120bc2f4bd271", "is_disabled": 0, "rental_uris": {"android": "https://dc.lft.to/lastmile_qr_scan", "ios": "https://dc.lft.to/lastmile_qr_scan"}, "type": "electric_scooter", "lat": 38.949365666666665, "is_reserved": 0, "fusion_lat": 0.0}, {"bike_id": "f2ad9336d75379fa919749a74a223e00", "fusion_lon": 0.0, "lon": -76.99352066666667, "name": "f2ad9336d75379fa919749a74a223e00", "is_disabled": 0, "rental_uris": {"android": "https://dc.lft.to/lastmile_qr_scan", "ios": "https://dc.lft.to/lastmile_qr_scan"}, "type": "electric_scooter", "lat": 38.914849833333335, "is_reserved": 0, "fusion_lat": 0.0}, {"bike_id": "3ff7a1736d14b1166e60d81489d5cf15", "fusion_lon": 0.0, "lon": -77.027454, "name": "3ff7a1736d14b1166e60d81489d5cf15", "is_disabled": 0, "rental_uris": {"android": "https://dc.lft.to/lastmile_qr_scan", "ios": "https://dc.lft.to/lastmile_qr_scan"}, "type": "electric_scooter", "lat": 38.933604333333335, "is_reserved": 0, "fusion_lat": 0.0}, {"bike_id": "da2d06baae06e0d0e1d3b6d32bc7584d", "fusion_lon": 0.0, "lon": -77.03892466666667, "name": "da2d06baae06e0d0e1d3b6d32bc7584d", "is_disabled": 0, "rental_uris": {"android": "https://dc.lft.to/lastmile_qr_scan", "ios": "https://dc.lft.to/lastmile_qr_scan"}, "type": "electric_scooter", "lat": 38.922377166666664, "is_reserved": 0, "fusion_lat": 0.0}, {"bike_id": "7dfa7e0b37e2bbd25af922d7c30ed9d1", "fusion_lon": 0.0, "lon": -77.02726133333333, "name": "7dfa7e0b37e2bbd25af922d7c30ed9d1", "is_disabled": 0, "rental_uris": {"android": "https://dc.lft.to/lastmile_qr_scan", "ios": "https://dc.lft.to/lastmile_qr_scan"}, "type": "electric_scooter", "lat": 38.949598, "is_reserved": 0, "fusion_lat": 0.0}, {"bike_id": "bbb64269884dac3150ec922242df3349", "fusion_lon": 0.0, "lon": -77.01866166666667, "name": "bbb64269884dac3150ec922242df3349", "is_disabled": 0, "rental_uris": {"android": "https://dc.lft.to/lastmile_qr_scan", "ios": "https://dc.lft.to/lastmile_qr_scan"}, "type": "electric_scooter", "lat": 38.97369366666667, "is_reserved": 0, "fusion_lat": 0.0}, {"bike_id": "14f5652483d1cf76329cfe1bc4438ffc", "fusion_lon": 0.0, "lon": -77.02415733333333, "name": "14f5652483d1cf76329cfe1bc4438ffc", "is_disabled": 0, "rental_uris": {"android": "https://dc.lft.to/lastmile_qr_scan", "ios": "https://dc.lft.to/lastmile_qr_scan"}, "type": "electric_scooter", "lat": 38.93714583333333, "is_reserved": 0, "fusion_lat": 0.0}, {"bike_id": "1a492d35d5dcd13dd5138a79bd3994cf", "fusion_lon": 0.0, "lon": -77.02321533333334, "name": "1a492d35d5dcd13dd5138a79bd3994cf", "is_disabled": 0, "rental_uris": {"android": "https://dc.lft.to/lastmile_qr_scan", "ios": "https://dc.lft.to/lastmile_qr_scan"}, "type": "electric_scooter", "lat": 38.91715766666667, "is_reserved": 0, "fusion_lat": 0.0}, {"bike_id": "84cbb83b8017cb522469488362b92b25", "fusion_lon": 0.0, "lon": -77.045963, "name": "84cbb83b8017cb522469488362b92b25", "is_disabled": 0, "rental_uris": {"android": "https://dc.lft.to/lastmile_qr_scan", "ios": "https://dc.lft.to/lastmile_qr_scan"}, "type": "electric_scooter", "lat": 38.919187666666666, "is_reserved": 0, "fusion_lat": 0.0}, {"bike_id": "d45d6cf6a3e81f16df3a0c1986db12b7", "fusion_lon": 0.0, "lon": -77.05859316666667, "name": "d45d6cf6a3e81f16df3a0c1986db12b7", "is_disabled": 0, "rental_uris": {"android": "https://dc.lft.to/lastmile_qr_scan", "ios": "https://dc.lft.to/lastmile_qr_scan"}, "type": "electric_scooter", "lat": 38.93607433333333, "is_reserved": 0, "fusion_lat": 0.0}, {"bike_id": "c65852691dcb2e123444bd2ee0602fc9", "fusion_lon": 0.0, "lon": -77.0293815, "name": "c65852691dcb2e123444bd2ee0602fc9", "is_disabled": 0, "rental_uris": {"android": "https://dc.lft.to/lastmile_qr_scan", "ios": "https://dc.lft.to/lastmile_qr_scan"}, "type": "electric_scooter", "lat": 38.90525133333333, "is_reserved": 0, "fusion_lat": 0.0}, {"bike_id": "52856c92d8875a56bd2a002324ee1253", "fusion_lon": 0.0, "lon": -77.0502535, "name": "52856c92d8875a56bd2a002324ee1253", "is_disabled": 0, "rental_uris": {"android": "https://dc.lft.to/lastmile_qr_scan", "ios": "https://dc.lft.to/lastmile_qr_scan"}, "type": "electric_scooter", "lat": 38.896587833333335, "is_reserved": 0, "fusion_lat": 0.0}, {"bike_id": "52a8942286ff7f7de67079a8e4c8aa7c", "fusion_lon": 0.0, "lon": -77.0223655, "name": "52a8942286ff7f7de67079a8e4c8aa7c", "is_disabled": 0, "rental_uris": {"android": "https://dc.lft.to/lastmile_qr_scan", "ios": "https://dc.lft.to/lastmile_qr_scan"}, "type": "electric_scooter", "lat": 38.96141016666667, "is_reserved": 0, "fusion_lat": 0.0}, {"bike_id": "eb0c246dd7ad94ef17f6fdaaed2e073c", "fusion_lon": 0.0, "lon": -76.92692783333334, "name": "eb0c246dd7ad94ef17f6fdaaed2e073c", "is_disabled": 0, "rental_uris": {"android": "https://dc.lft.to/lastmile_qr_scan", "ios": "https://dc.lft.to/lastmile_qr_scan"}, "type": "electric_scooter", "lat": 38.89375183333333, "is_reserved": 0, "fusion_lat": 0.0}, {"bike_id": "419bf769c1dd5e541acc31882c206710", "fusion_lon": 0.0, "lon": -76.9977735, "name": "419bf769c1dd5e541acc31882c206710", "is_disabled": 0, "rental_uris": {"android": "https://dc.lft.to/lastmile_qr_scan", "ios": "https://dc.lft.to/lastmile_qr_scan"}, "type": "electric_scooter", "lat": 38.84427483333333, "is_reserved": 0, "fusion_lat": 0.0}, {"bike_id": "1205e77c9b0aa1c64d386bc677395a12", "fusion_lon": 0.0, "lon": -76.97091, "name": "1205e77c9b0aa1c64d386bc677395a12", "is_disabled": 0, "rental_uris": {"android": "https://dc.lft.to/lastmile_qr_scan", "ios": "https://dc.lft.to/lastmile_qr_scan"}, "type": "electric_bike", "lat": 38.857229333333336, "is_reserved": 0, "fusion_lat": 0.0}, {"bike_id": "420b1b0a1dbb0b1bbcced194b89d919e", "fusion_lon": 0.0, "lon": -77.02707333333333, "name": "420b1b0a1dbb0b1bbcced194b89d919e", "is_disabled": 0, "rental_uris": {"android": "https://dc.lft.to/lastmile_qr_scan", "ios": "https://dc.lft.to/lastmile_qr_scan"}, "type": "electric_scooter", "lat": 38.9288565, "is_reserved": 0, "fusion_lat": 0.0}, {"bike_id": "2147ba340e76d1642db6c45f4ab44bb7", "fusion_lon": 0.0, "lon": -76.946376, "name": "2147ba340e76d1642db6c45f4ab44bb7", "is_disabled": 0, "rental_uris": {"android": "https://dc.lft.to/lastmile_qr_scan", "ios": "https://dc.lft.to/lastmile_qr_scan"}, "type": "electric_scooter", "lat": 38.89846883333333, "is_reserved": 0, "fusion_lat": 0.0}, {"bike_id": "dd1b6b079540d4128d84e38cd282706a", "fusion_lon": 0.0, "lon": -76.95761016666667, "name": "dd1b6b079540d4128d84e38cd282706a", "is_disabled": 0, "rental_uris": {"android": "https://dc.lft.to/lastmile_qr_scan", "ios": "https://dc.lft.to/lastmile_qr_scan"}, "type": "electric_scooter", "lat": 38.8843035, "is_reserved": 0, "fusion_lat": 0.0}, {"bike_id": "725720ab639bfb978d7ba63d4b889654", "fusion_lon": 0.0, "lon": -77.03463216666667, "name": "725720ab639bfb978d7ba63d4b889654", "is_disabled": 0, "rental_uris": {"android": "https://dc.lft.to/lastmile_qr_scan", "ios": "https://dc.lft.to/lastmile_qr_scan"}, "type": "electric_scooter", "lat": 38.907589, "is_reserved": 0, "fusion_lat": 0.0}, {"bike_id": "199e9ce495cc6fc461b2c213b04eb347", "fusion_lon": 0.0, "lon": -76.99775266666667, "name": "199e9ce495cc6fc461b2c213b04eb347", "is_disabled": 0, "rental_uris": {"android": "https://dc.lft.to/lastmile_qr_scan", "ios": "https://dc.lft.to/lastmile_qr_scan"}, "type": "electric_scooter", "lat": 38.844334333333336, "is_reserved": 0, "fusion_lat": 0.0}, {"bike_id": "3ddd6135eedcef0374790c987fc4517f", "fusion_lon": 0.0, "lon": -77.0203175, "name": "3ddd6135eedcef0374790c987fc4517f", "is_disabled": 0, "rental_uris": {"android": "https://dc.lft.to/lastmile_qr_scan", "ios": "https://dc.lft.to/lastmile_qr_scan"}, "type": "electric_scooter", "lat": 38.92421266666667, "is_reserved": 0, "fusion_lat": 0.0}, {"bike_id": "b39985d54720ca760c0bea1636d2f035", "fusion_lon": 0.0, "lon": -76.91600033333333, "name": "b39985d54720ca760c0bea1636d2f035", "is_disabled": 0, "rental_uris": {"android": "https://dc.lft.to/lastmile_qr_scan", "ios": "https://dc.lft.to/lastmile_qr_scan"}, "type": "electric_bike", "lat": 38.87982983333333, "is_reserved": 0, "fusion_lat": 0.0}, {"bike_id": "4d06911debf68ee7c1f6fc88d6f5df8a", "fusion_lon": 0.0, "lon": -77.03077566666667, "name": "4d06911debf68ee7c1f6fc88d6f5df8a", "is_disabled": 0, "rental_uris": {"android": "https://dc.lft.to/lastmile_qr_scan", "ios": "https://dc.lft.to/lastmile_qr_scan"}, "type": "electric_scooter", "lat": 38.92373883333333, "is_reserved": 0, "fusion_lat": 0.0}, {"bike_id": "f5e66d7e2a81e1b2df5f7beb2be2193a", "fusion_lon": 0.0, "lon": -77.01788883333333, "name": "f5e66d7e2a81e1b2df5f7beb2be2193a", "is_disabled": 0, "rental_uris": {"android": "https://dc.lft.to/lastmile_qr_scan", "ios": "https://dc.lft.to/lastmile_qr_scan"}, "type": "electric_scooter", "lat": 38.900917166666666, "is_reserved": 0, "fusion_lat": 0.0}, {"bike_id": "278a14f63b2015704b5b95da875feb54", "fusion_lon": 0.0, "lon": -77.031336, "name": "278a14f63b2015704b5b95da875feb54", "is_disabled": 0, "rental_uris": {"android": "https://dc.lft.to/lastmile_qr_scan", "ios": "https://dc.lft.to/lastmile_qr_scan"}, "type": "electric_scooter", "lat": 38.92376383333333, "is_reserved": 0, "fusion_lat": 0.0}, {"bike_id": "0e609abb21afa7ddca7316463737ddd7", "fusion_lon": 0.0, "lon": -77.0500235, "name": "0e609abb21afa7ddca7316463737ddd7", "is_disabled": 0, "rental_uris": {"android": "https://dc.lft.to/lastmile_qr_scan", "ios": "https://dc.lft.to/lastmile_qr_scan"}, "type": "electric_scooter", "lat": 38.892324, "is_reserved": 0, "fusion_lat": 0.0}, {"bike_id": "7c60d7daf7e040802f05e8ecb7f6641e", "fusion_lon": 0.0, "lon": -77.0273865, "name": "7c60d7daf7e040802f05e8ecb7f6641e", "is_disabled": 0, "rental_uris": {"android": "https://dc.lft.to/lastmile_qr_scan", "ios": "https://dc.lft.to/lastmile_qr_scan"}, "type": "electric_scooter", "lat": 38.927689, "is_reserved": 0, "fusion_lat": 0.0}, {"bike_id": "f8fbc52f5ef6928a46240a37d5ed076f", "fusion_lon": 0.0, "lon": -77.04650833333334, "name": "f8fbc52f5ef6928a46240a37d5ed076f", "is_disabled": 0, "rental_uris": {"android": "https://dc.lft.to/lastmile_qr_scan", "ios": "https://dc.lft.to/lastmile_qr_scan"}, "type": "electric_scooter", "lat": 38.89256666666667, "is_reserved": 0, "fusion_lat": 0.0}, {"bike_id": "b1d636b8f5baab1817ab4c7916146136", "fusion_lon": 0.0, "lon": -77.0231025, "name": "b1d636b8f5baab1817ab4c7916146136", "is_disabled": 0, "rental_uris": {"android": "https://dc.lft.to/lastmile_qr_scan", "ios": "https://dc.lft.to/lastmile_qr_scan"}, "type": "electric_scooter", "lat": 38.89560816666667, "is_reserved": 0, "fusion_lat": 0.0}, {"bike_id": "a04f0b99d26f09971cb37667f5afe785", "fusion_lon": 0.0, "lon": -76.9883075, "name": "a04f0b99d26f09971cb37667f5afe785", "is_disabled": 0, "rental_uris": {"android": "https://dc.lft.to/lastmile_qr_scan", "ios": "https://dc.lft.to/lastmile_qr_scan"}, "type": "electric_scooter", "lat": 38.90035133333333, "is_reserved": 0, "fusion_lat": 0.0}, {"bike_id": "e2e85db9927ccf245645a442937bdcfb", "fusion_lon": 0.0, "lon": -77.01606616666666, "name": "e2e85db9927ccf245645a442937bdcfb", "is_disabled": 0, "rental_uris": {"android": "https://dc.lft.to/lastmile_qr_scan", "ios": "https://dc.lft.to/lastmile_qr_scan"}, "type": "electric_scooter", "lat": 38.91812983333333, "is_reserved": 0, "fusion_lat": 0.0}, {"bike_id": "86a37b67e15eb07d05a59eba3dc5397f", "fusion_lon": 0.0, "lon": -77.05321483333333, "name": "86a37b67e15eb07d05a59eba3dc5397f", "is_disabled": 0, "rental_uris": {"android": "https://dc.lft.to/lastmile_qr_scan", "ios": "https://dc.lft.to/lastmile_qr_scan"}, "type": "electric_scooter", "lat": 38.923409, "is_reserved": 0, "fusion_lat": 0.0}, {"bike_id": "500aa6ce6bab2322204e5e21ceb5d733", "fusion_lon": 0.0, "lon": -76.98703833333333, "name": "500aa6ce6bab2322204e5e21ceb5d733", "is_disabled": 0, "rental_uris": {"android": "https://dc.lft.to/lastmile_qr_scan", "ios": "https://dc.lft.to/lastmile_qr_scan"}, "type": "electric_scooter", "lat": 38.86257616666666, "is_reserved": 0, "fusion_lat": 0.0}, {"bike_id": "642ee35467e7379c9bd4dd7cdae21351", "fusion_lon": 0.0, "lon": -77.01465466666667, "name": "642ee35467e7379c9bd4dd7cdae21351", "is_disabled": 0, "rental_uris": {"android": "https://dc.lft.to/lastmile_qr_scan", "ios": "https://dc.lft.to/lastmile_qr_scan"}, "type": "electric_scooter", "lat": 38.91773666666667, "is_reserved": 0, "fusion_lat": 0.0}, {"bike_id": "72b51212f4cceb195f7c84158ee82331", "fusion_lon": 0.0, "lon": -77.053084, "name": "72b51212f4cceb195f7c84158ee82331", "is_disabled": 0, "rental_uris": {"android": "https://dc.lft.to/lastmile_qr_scan", "ios": "https://dc.lft.to/lastmile_qr_scan"}, "type": "electric_scooter", "lat": 38.9040845, "is_reserved": 0, "fusion_lat": 0.0}, {"bike_id": "6bf953211b2649768778886778ddb2b0", "fusion_lon": 0.0, "lon": -77.01847583333333, "name": "6bf953211b2649768778886778ddb2b0", "is_disabled": 0, "rental_uris": {"android": "https://dc.lft.to/lastmile_qr_scan", "ios": "https://dc.lft.to/lastmile_qr_scan"}, "type": "electric_scooter", "lat": 38.900373333333334, "is_reserved": 0, "fusion_lat": 0.0}, {"bike_id": "13731595f4a87be1b8219d9435aca47a", "fusion_lon": 0.0, "lon": -77.02289083333334, "name": "13731595f4a87be1b8219d9435aca47a", "is_disabled": 0, "rental_uris": {"android": "https://dc.lft.to/lastmile_qr_scan", "ios": "https://dc.lft.to/lastmile_qr_scan"}, "type": "electric_scooter", "lat": 38.91806716666667, "is_reserved": 0, "fusion_lat": 0.0}, {"bike_id": "a4c33ae75066a9d720e46fc85cb2c1b0", "fusion_lon": 0.0, "lon": -77.02762333333334, "name": "a4c33ae75066a9d720e46fc85cb2c1b0", "is_disabled": 0, "rental_uris": {"android": "https://dc.lft.to/lastmile_qr_scan", "ios": "https://dc.lft.to/lastmile_qr_scan"}, "type": "electric_scooter", "lat": 38.95427516666667, "is_reserved": 0, "fusion_lat": 0.0}, {"bike_id": "4918e5b82833d466f7d3f8665ba8f07c", "fusion_lon": 0.0, "lon": -76.99510566666666, "name": "4918e5b82833d466f7d3f8665ba8f07c", "is_disabled": 0, "rental_uris": {"android": "https://dc.lft.to/lastmile_qr_scan", "ios": "https://dc.lft.to/lastmile_qr_scan"}, "type": "electric_scooter", "lat": 38.8825285, "is_reserved": 0, "fusion_lat": 0.0}, {"bike_id": "e713bde76a0189549f0194efbe2408e5", "fusion_lon": 0.0, "lon": -76.9955705, "name": "e713bde76a0189549f0194efbe2408e5", "is_disabled": 0, "rental_uris": {"android": "https://dc.lft.to/lastmile_qr_scan", "ios": "https://dc.lft.to/lastmile_qr_scan"}, "type": "electric_scooter", "lat": 38.882687833333335, "is_reserved": 0, "fusion_lat": 0.0}, {"bike_id": "a6efc86f6d1176706ba3c8642eb85edd", "fusion_lon": 0.0, "lon": -76.99780583333333, "name": "a6efc86f6d1176706ba3c8642eb85edd", "is_disabled": 0, "rental_uris": {"android": "https://dc.lft.to/lastmile_qr_scan", "ios": "https://dc.lft.to/lastmile_qr_scan"}, "type": "electric_scooter", "lat": 38.84431933333333, "is_reserved": 0, "fusion_lat": 0.0}, {"bike_id": "196c97bee08deb1e70799a1c7730f969", "fusion_lon": 0.0, "lon": -76.98312016666667, "name": "196c97bee08deb1e70799a1c7730f969", "is_disabled": 0, "rental_uris": {"android": "https://dc.lft.to/lastmile_qr_scan", "ios": "https://dc.lft.to/lastmile_qr_scan"}, "type": "electric_scooter", "lat": 38.86892433333333, "is_reserved": 0, "fusion_lat": 0.0}, {"bike_id": "abd581fd5071c32730bec28b27e5c330", "fusion_lon": 0.0, "lon": -77.0294795, "name": "abd581fd5071c32730bec28b27e5c330", "is_disabled": 0, "rental_uris": {"android": "https://dc.lft.to/lastmile_qr_scan", "ios": "https://dc.lft.to/lastmile_qr_scan"}, "type": "electric_scooter", "lat": 38.90488716666667, "is_reserved": 0, "fusion_lat": 0.0}, {"bike_id": "c565c47a26914d1e44b5a47a018f4752", "fusion_lon": 0.0, "lon": -77.04356733333333, "name": "c565c47a26914d1e44b5a47a018f4752", "is_disabled": 0, "rental_uris": {"android": "https://dc.lft.to/lastmile_qr_scan", "ios": "https://dc.lft.to/lastmile_qr_scan"}, "type": "electric_scooter", "lat": 38.921577, "is_reserved": 0, "fusion_lat": 0.0}, {"bike_id": "10e03b081c79ab7373bbcad63d17ef7f", "fusion_lon": 0.0, "lon": -77.05693183333334, "name": "10e03b081c79ab7373bbcad63d17ef7f", "is_disabled": 0, "rental_uris": {"android": "https://dc.lft.to/lastmile_qr_scan", "ios": "https://dc.lft.to/lastmile_qr_scan"}, "type": "electric_bike", "lat": 38.93529616666667, "is_reserved": 0, "fusion_lat": 0.0}, {"bike_id": "b582daad8abcdaa960b8b84486bbe3ea", "fusion_lon": 0.0, "lon": -77.03254566666666, "name": "b582daad8abcdaa960b8b84486bbe3ea", "is_disabled": 0, "rental_uris": {"android": "https://dc.lft.to/lastmile_qr_scan", "ios": "https://dc.lft.to/lastmile_qr_scan"}, "type": "electric_scooter", "lat": 38.920285166666666, "is_reserved": 0, "fusion_lat": 0.0}, {"bike_id": "5b060e438c631c6d1e12e44072e52b75", "fusion_lon": 0.0, "lon": -77.0276235, "name": "5b060e438c631c6d1e12e44072e52b75", "is_disabled": 0, "rental_uris": {"android": "https://dc.lft.to/lastmile_qr_scan", "ios": "https://dc.lft.to/lastmile_qr_scan"}, "type": "electric_scooter", "lat": 38.95611433333333, "is_reserved": 0, "fusion_lat": 0.0}, {"bike_id": "875730da791810472d719e5d6ed1fdd3", "fusion_lon": 0.0, "lon": -76.9851825, "name": "875730da791810472d719e5d6ed1fdd3", "is_disabled": 0, "rental_uris": {"android": "https://dc.lft.to/lastmile_qr_scan", "ios": "https://dc.lft.to/lastmile_qr_scan"}, "type": "electric_scooter", "lat": 38.8666495, "is_reserved": 0, "fusion_lat": 0.0}, {"bike_id": "95e5e362e5c999564edd338929d9d3e8", "fusion_lon": 0.0, "lon": -77.03052133333334, "name": "95e5e362e5c999564edd338929d9d3e8", "is_disabled": 0, "rental_uris": {"android": "https://dc.lft.to/lastmile_qr_scan", "ios": "https://dc.lft.to/lastmile_qr_scan"}, "type": "electric_scooter", "lat": 38.88415583333333, "is_reserved": 0, "fusion_lat": 0.0}, {"bike_id": "b92c0567b4c2e494e89ca85920f239bb", "fusion_lon": 0.0, "lon": -76.982766, "name": "b92c0567b4c2e494e89ca85920f239bb", "is_disabled": 0, "rental_uris": {"android": "https://dc.lft.to/lastmile_qr_scan", "ios": "https://dc.lft.to/lastmile_qr_scan"}, "type": "electric_scooter", "lat": 38.904335333333336, "is_reserved": 0, "fusion_lat": 0.0}, {"bike_id": "676811e10f2e86924bdf5d7582e0f770", "fusion_lon": 0.0, "lon": -77.02683233333333, "name": "676811e10f2e86924bdf5d7582e0f770", "is_disabled": 0, "rental_uris": {"android": "https://dc.lft.to/lastmile_qr_scan", "ios": "https://dc.lft.to/lastmile_qr_scan"}, "type": "electric_scooter", "lat": 38.89583733333333, "is_reserved": 0, "fusion_lat": 0.0}, {"bike_id": "6c1a77e7b862f869a49e863a5633f093", "fusion_lon": 0.0, "lon": -77.02256233333334, "name": "6c1a77e7b862f869a49e863a5633f093", "is_disabled": 0, "rental_uris": {"android": "https://dc.lft.to/lastmile_qr_scan", "ios": "https://dc.lft.to/lastmile_qr_scan"}, "type": "electric_scooter", "lat": 38.923082666666666, "is_reserved": 0, "fusion_lat": 0.0}, {"bike_id": "8051a757e5e86d3c3c2abd1134453025", "fusion_lon": 0.0, "lon": -77.04167766666667, "name": "8051a757e5e86d3c3c2abd1134453025", "is_disabled": 0, "rental_uris": {"android": "https://dc.lft.to/lastmile_qr_scan", "ios": "https://dc.lft.to/lastmile_qr_scan"}, "type": "electric_scooter", "lat": 38.916538833333334, "is_reserved": 0, "fusion_lat": 0.0}, {"bike_id": "00f32ec743cfaa5d648124e0eaa98ce6", "fusion_lon": 0.0, "lon": -77.01784716666667, "name": "00f32ec743cfaa5d648124e0eaa98ce6", "is_disabled": 0, "rental_uris": {"android": "https://dc.lft.to/lastmile_qr_scan", "ios": "https://dc.lft.to/lastmile_qr_scan"}, "type": "electric_scooter", "lat": 38.90414166666667, "is_reserved": 0, "fusion_lat": 0.0}, {"bike_id": "c83a6a02d8ae67c287bb2483a832cfdf", "fusion_lon": 0.0, "lon": -77.0731405, "name": "c83a6a02d8ae67c287bb2483a832cfdf", "is_disabled": 0, "rental_uris": {"android": "https://dc.lft.to/lastmile_qr_scan", "ios": "https://dc.lft.to/lastmile_qr_scan"}, "type": "electric_scooter", "lat": 38.92242616666667, "is_reserved": 0, "fusion_lat": 0.0}, {"bike_id": "d5946e2f8e0e48cdba3d09ba63a6adf5", "fusion_lon": 0.0, "lon": -77.001365, "name": "d5946e2f8e0e48cdba3d09ba63a6adf5", "is_disabled": 0, "rental_uris": {"android": "https://dc.lft.to/lastmile_qr_scan", "ios": "https://dc.lft.to/lastmile_qr_scan"}, "type": "electric_bike", "lat": 38.92551483333333, "is_reserved": 0, "fusion_lat": 0.0}, {"bike_id": "bd3e17b06916317cf2a303b0303b5b47", "fusion_lon": 0.0, "lon": -77.02201333333333, "name": "bd3e17b06916317cf2a303b0303b5b47", "is_disabled": 0, "rental_uris": {"android": "https://dc.lft.to/lastmile_qr_scan", "ios": "https://dc.lft.to/lastmile_qr_scan"}, "type": "electric_scooter", "lat": 38.91842466666667, "is_reserved": 0, "fusion_lat": 0.0}, {"bike_id": "2ac06763f55abdd5b58cf184fc77dd64", "fusion_lon": 0.0, "lon": -76.9806655, "name": "2ac06763f55abdd5b58cf184fc77dd64", "is_disabled": 0, "rental_uris": {"android": "https://dc.lft.to/lastmile_qr_scan", "ios": "https://dc.lft.to/lastmile_qr_scan"}, "type": "electric_scooter", "lat": 38.901713, "is_reserved": 0, "fusion_lat": 0.0}, {"bike_id": "245b7a187daa46bb7bdf2be2ca60b21c", "fusion_lon": 0.0, "lon": -76.99620783333333, "name": "245b7a187daa46bb7bdf2be2ca60b21c", "is_disabled": 0, "rental_uris": {"android": "https://dc.lft.to/lastmile_qr_scan", "ios": "https://dc.lft.to/lastmile_qr_scan"}, "type": "electric_scooter", "lat": 38.8992065, "is_reserved": 0, "fusion_lat": 0.0}, {"bike_id": "9597d626a622da8ec5e4291c33fc9780", "fusion_lon": 0.0, "lon": -76.99337783333333, "name": "9597d626a622da8ec5e4291c33fc9780", "is_disabled": 0, "rental_uris": {"android": "https://dc.lft.to/lastmile_qr_scan", "ios": "https://dc.lft.to/lastmile_qr_scan"}, "type": "electric_bike", "lat": 38.972361666666664, "is_reserved": 0, "fusion_lat": 0.0}, {"bike_id": "e517fc612a11742d9c3baad15f1fe473", "fusion_lon": 0.0, "lon": -76.97174366666667, "name": "e517fc612a11742d9c3baad15f1fe473", "is_disabled": 0, "rental_uris": {"android": "https://dc.lft.to/lastmile_qr_scan", "ios": "https://dc.lft.to/lastmile_qr_scan"}, "type": "electric_scooter", "lat": 38.8543835, "is_reserved": 0, "fusion_lat": 0.0}, {"bike_id": "a5b91c54d7e9fa957395b36d62acc869", "fusion_lon": 0.0, "lon": -76.93295783333333, "name": "a5b91c54d7e9fa957395b36d62acc869", "is_disabled": 0, "rental_uris": {"android": "https://dc.lft.to/lastmile_qr_scan", "ios": "https://dc.lft.to/lastmile_qr_scan"}, "type": "electric_scooter", "lat": 38.88153833333333, "is_reserved": 0, "fusion_lat": 0.0}, {"bike_id": "5ceeb76f737c23a105ffae17b84d600f", "fusion_lon": 0.0, "lon": -76.99702166666667, "name": "5ceeb76f737c23a105ffae17b84d600f", "is_disabled": 0, "rental_uris": {"android": "https://dc.lft.to/lastmile_qr_scan", "ios": "https://dc.lft.to/lastmile_qr_scan"}, "type": "electric_scooter", "lat": 38.90843816666667, "is_reserved": 0, "fusion_lat": 0.0}, {"bike_id": "e85cbe72e503ff25babac9c7bfe2967e", "fusion_lon": 0.0, "lon": -77.0186725, "name": "e85cbe72e503ff25babac9c7bfe2967e", "is_disabled": 0, "rental_uris": {"android": "https://dc.lft.to/lastmile_qr_scan", "ios": "https://dc.lft.to/lastmile_qr_scan"}, "type": "electric_scooter", "lat": 38.93149283333333, "is_reserved": 0, "fusion_lat": 0.0}, {"bike_id": "c4490ac3fdafbad76d2120eb68fc23c4", "fusion_lon": 0.0, "lon": -77.02206016666666, "name": "c4490ac3fdafbad76d2120eb68fc23c4", "is_disabled": 0, "rental_uris": {"android": "https://dc.lft.to/lastmile_qr_scan", "ios": "https://dc.lft.to/lastmile_qr_scan"}, "type": "electric_scooter", "lat": 38.90234916666667, "is_reserved": 0, "fusion_lat": 0.0}, {"bike_id": "bd1d32e503f99d88ff502b225474a400", "fusion_lon": 0.0, "lon": -77.03669233333333, "name": "bd1d32e503f99d88ff502b225474a400", "is_disabled": 0, "rental_uris": {"android": "https://dc.lft.to/lastmile_qr_scan", "ios": "https://dc.lft.to/lastmile_qr_scan"}, "type": "electric_scooter", "lat": 38.93647216666667, "is_reserved": 0, "fusion_lat": 0.0}, {"bike_id": "ab78e825128a20eb1818bd4c192f4b86", "fusion_lon": 0.0, "lon": -77.03257616666667, "name": "ab78e825128a20eb1818bd4c192f4b86", "is_disabled": 0, "rental_uris": {"android": "https://dc.lft.to/lastmile_qr_scan", "ios": "https://dc.lft.to/lastmile_qr_scan"}, "type": "electric_scooter", "lat": 38.9397525, "is_reserved": 0, "fusion_lat": 0.0}, {"bike_id": "537e190f0f396496672c1a84795fcfbe", "fusion_lon": 0.0, "lon": -77.04671816666666, "name": "537e190f0f396496672c1a84795fcfbe", "is_disabled": 0, "rental_uris": {"android": "https://dc.lft.to/lastmile_qr_scan", "ios": "https://dc.lft.to/lastmile_qr_scan"}, "type": "electric_scooter", "lat": 38.90550983333333, "is_reserved": 0, "fusion_lat": 0.0}, {"bike_id": "07a347ee7759d8c1f023f01e4de3291f", "fusion_lon": 0.0, "lon": -77.03590183333333, "name": "07a347ee7759d8c1f023f01e4de3291f", "is_disabled": 0, "rental_uris": {"android": "https://dc.lft.to/lastmile_qr_scan", "ios": "https://dc.lft.to/lastmile_qr_scan"}, "type": "electric_scooter", "lat": 38.912738, "is_reserved": 0, "fusion_lat": 0.0}, {"bike_id": "aa9a59bb8ceeae7cc5af8fdafbb07023", "fusion_lon": 0.0, "lon": -77.02100916666667, "name": "aa9a59bb8ceeae7cc5af8fdafbb07023", "is_disabled": 0, "rental_uris": {"android": "https://dc.lft.to/lastmile_qr_scan", "ios": "https://dc.lft.to/lastmile_qr_scan"}, "type": "electric_scooter", "lat": 38.911124, "is_reserved": 0, "fusion_lat": 0.0}, {"bike_id": "ee4c85a9555f16faf3489e23893ee6da", "fusion_lon": 0.0, "lon": -77.02220783333334, "name": "ee4c85a9555f16faf3489e23893ee6da", "is_disabled": 0, "rental_uris": {"android": "https://dc.lft.to/lastmile_qr_scan", "ios": "https://dc.lft.to/lastmile_qr_scan"}, "type": "electric_scooter", "lat": 38.9156255, "is_reserved": 0, "fusion_lat": 0.0}, {"bike_id": "0e04e00ce35b6efb277489ad685372f8", "fusion_lon": 0.0, "lon": -77.0177005, "name": "0e04e00ce35b6efb277489ad685372f8", "is_disabled": 0, "rental_uris": {"android": "https://dc.lft.to/lastmile_qr_scan", "ios": "https://dc.lft.to/lastmile_qr_scan"}, "type": "electric_scooter", "lat": 38.877178666666666, "is_reserved": 0, "fusion_lat": 0.0}, {"bike_id": "5959a4fdd633a197c9348f2fef6eef1d", "fusion_lon": 0.0, "lon": -77.01753683333334, "name": "5959a4fdd633a197c9348f2fef6eef1d", "is_disabled": 0, "rental_uris": {"android": "https://dc.lft.to/lastmile_qr_scan", "ios": "https://dc.lft.to/lastmile_qr_scan"}, "type": "electric_scooter", "lat": 38.8777115, "is_reserved": 0, "fusion_lat": 0.0}, {"bike_id": "0200795bf3dbf993774e54029794934a", "fusion_lon": 0.0, "lon": -77.04736883333334, "name": "0200795bf3dbf993774e54029794934a", "is_disabled": 0, "rental_uris": {"android": "https://dc.lft.to/lastmile_qr_scan", "ios": "https://dc.lft.to/lastmile_qr_scan"}, "type": "electric_scooter", "lat": 38.9013325, "is_reserved": 0, "fusion_lat": 0.0}, {"bike_id": "088d5c2de35a4b2eb54bdfc60ecded38", "fusion_lon": 0.0, "lon": -77.09961183333333, "name": "088d5c2de35a4b2eb54bdfc60ecded38", "is_disabled": 0, "rental_uris": {"android": "https://dc.lft.to/lastmile_qr_scan", "ios": "https://dc.lft.to/lastmile_qr_scan"}, "type": "electric_bike", "lat": 38.8578965, "is_reserved": 0, "fusion_lat": 0.0}, {"bike_id": "ca33e5f04bebfa6735778b5deb76578e", "fusion_lon": 0.0, "lon": -77.0979645, "name": "ca33e5f04bebfa6735778b5deb76578e", "is_disabled": 0, "rental_uris": {"android": "https://dc.lft.to/lastmile_qr_scan", "ios": "https://dc.lft.to/lastmile_qr_scan"}, "type": "electric_bike", "lat": 38.85033116666666, "is_reserved": 0, "fusion_lat": 0.0}, {"bike_id": "272b8dae5b51881cc736a778d789f2e6", "fusion_lon": 0.0, "lon": -77.02481233333333, "name": "272b8dae5b51881cc736a778d789f2e6", "is_disabled": 0, "rental_uris": {"android": "https://dc.lft.to/lastmile_qr_scan", "ios": "https://dc.lft.to/lastmile_qr_scan"}, "type": "electric_scooter", "lat": 38.90976166666667, "is_reserved": 0, "fusion_lat": 0.0}, {"bike_id": "df8d9d3723d1d449f41f5a04f72e8e97", "fusion_lon": 0.0, "lon": -77.04826916666667, "name": "df8d9d3723d1d449f41f5a04f72e8e97", "is_disabled": 0, "rental_uris": {"android": "https://dc.lft.to/lastmile_qr_scan", "ios": "https://dc.lft.to/lastmile_qr_scan"}, "type": "electric_scooter", "lat": 38.90214866666667, "is_reserved": 0, "fusion_lat": 0.0}, {"bike_id": "d7ddc8969cf6fbd4724716f85c44dfd7", "fusion_lon": 0.0, "lon": -76.99534483333333, "name": "d7ddc8969cf6fbd4724716f85c44dfd7", "is_disabled": 0, "rental_uris": {"android": "https://dc.lft.to/lastmile_qr_scan", "ios": "https://dc.lft.to/lastmile_qr_scan"}, "type": "electric_scooter", "lat": 38.92673083333333, "is_reserved": 0, "fusion_lat": 0.0}, {"bike_id": "09cd4db10915bfe5d04db1e7287eacbd", "fusion_lon": 0.0, "lon": -76.92876083333333, "name": "09cd4db10915bfe5d04db1e7287eacbd", "is_disabled": 0, "rental_uris": {"android": "https://dc.lft.to/lastmile_qr_scan", "ios": "https://dc.lft.to/lastmile_qr_scan"}, "type": "electric_scooter", "lat": 38.885271, "is_reserved": 0, "fusion_lat": 0.0}, {"bike_id": "0749021295466b81fad7859182799fe1", "fusion_lon": 0.0, "lon": -77.00141833333333, "name": "0749021295466b81fad7859182799fe1", "is_disabled": 0, "rental_uris": {"android": "https://dc.lft.to/lastmile_qr_scan", "ios": "https://dc.lft.to/lastmile_qr_scan"}, "type": "electric_scooter", "lat": 38.90755933333333, "is_reserved": 0, "fusion_lat": 0.0}, {"bike_id": "e376d42e9574c7e78498a8fd3888ee84", "fusion_lon": 0.0, "lon": -77.02971166666667, "name": "e376d42e9574c7e78498a8fd3888ee84", "is_disabled": 0, "rental_uris": {"android": "https://dc.lft.to/lastmile_qr_scan", "ios": "https://dc.lft.to/lastmile_qr_scan"}, "type": "electric_scooter", "lat": 38.90747366666667, "is_reserved": 0, "fusion_lat": 0.0}, {"bike_id": "d0f7004a2b5747d1230b5427ad145e37", "fusion_lon": 0.0, "lon": -76.97945733333333, "name": "d0f7004a2b5747d1230b5427ad145e37", "is_disabled": 0, "rental_uris": {"android": "https://dc.lft.to/lastmile_qr_scan", "ios": "https://dc.lft.to/lastmile_qr_scan"}, "type": "electric_scooter", "lat": 38.94527033333333, "is_reserved": 0, "fusion_lat": 0.0}, {"bike_id": "1f5d3cfb08e15a042c8e18627b81dae5", "fusion_lon": 0.0, "lon": -77.00962733333333, "name": "1f5d3cfb08e15a042c8e18627b81dae5", "is_disabled": 0, "rental_uris": {"android": "https://dc.lft.to/lastmile_qr_scan", "ios": "https://dc.lft.to/lastmile_qr_scan"}, "type": "electric_scooter", "lat": 38.90792666666667, "is_reserved": 0, "fusion_lat": 0.0}, {"bike_id": "616f29fb526a4091e9eea8e7c6ed5877", "fusion_lon": 0.0, "lon": -77.020681, "name": "616f29fb526a4091e9eea8e7c6ed5877", "is_disabled": 0, "rental_uris": {"android": "https://dc.lft.to/lastmile_qr_scan", "ios": "https://dc.lft.to/lastmile_qr_scan"}, "type": "electric_bike", "lat": 38.964450166666666, "is_reserved": 0, "fusion_lat": 0.0}, {"bike_id": "c197713213b05b73c8de03546593abbe", "fusion_lon": 0.0, "lon": -77.0266775, "name": "c197713213b05b73c8de03546593abbe", "is_disabled": 0, "rental_uris": {"android": "https://dc.lft.to/lastmile_qr_scan", "ios": "https://dc.lft.to/lastmile_qr_scan"}, "type": "electric_scooter", "lat": 38.92217633333333, "is_reserved": 0, "fusion_lat": 0.0}, {"bike_id": "2c3692e1da2f7763936b18500abd5cd1", "fusion_lon": 0.0, "lon": -77.02330316666666, "name": "2c3692e1da2f7763936b18500abd5cd1", "is_disabled": 0, "rental_uris": {"android": "https://dc.lft.to/lastmile_qr_scan", "ios": "https://dc.lft.to/lastmile_qr_scan"}, "type": "electric_scooter", "lat": 38.927101, "is_reserved": 0, "fusion_lat": 0.0}, {"bike_id": "c3d98e83033527fdc3c0c634064a0624", "fusion_lon": 0.0, "lon": -77.0350495, "name": "c3d98e83033527fdc3c0c634064a0624", "is_disabled": 0, "rental_uris": {"android": "https://dc.lft.to/lastmile_qr_scan", "ios": "https://dc.lft.to/lastmile_qr_scan"}, "type": "electric_scooter", "lat": 38.926306333333336, "is_reserved": 0, "fusion_lat": 0.0}, {"bike_id": "a5f50ae670c892f017b61d5de4c99cbd", "fusion_lon": 0.0, "lon": -77.01656016666666, "name": "a5f50ae670c892f017b61d5de4c99cbd", "is_disabled": 0, "rental_uris": {"android": "https://dc.lft.to/lastmile_qr_scan", "ios": "https://dc.lft.to/lastmile_qr_scan"}, "type": "electric_scooter", "lat": 38.915918833333336, "is_reserved": 0, "fusion_lat": 0.0}, {"bike_id": "ae4baa48757967cc889514ee72ab87a9", "fusion_lon": 0.0, "lon": -77.00926683333333, "name": "ae4baa48757967cc889514ee72ab87a9", "is_disabled": 0, "rental_uris": {"android": "https://dc.lft.to/lastmile_qr_scan", "ios": "https://dc.lft.to/lastmile_qr_scan"}, "type": "electric_scooter", "lat": 38.91268633333333, "is_reserved": 0, "fusion_lat": 0.0}, {"bike_id": "1c2d7b6264b37fc645a6c1285506e224", "fusion_lon": 0.0, "lon": -77.0180385, "name": "1c2d7b6264b37fc645a6c1285506e224", "is_disabled": 0, "rental_uris": {"android": "https://dc.lft.to/lastmile_qr_scan", "ios": "https://dc.lft.to/lastmile_qr_scan"}, "type": "electric_scooter", "lat": 38.90823533333333, "is_reserved": 0, "fusion_lat": 0.0}, {"bike_id": "7fbb1f0d577adf60902f8c095a435d93", "fusion_lon": 0.0, "lon": -77.04192316666666, "name": "7fbb1f0d577adf60902f8c095a435d93", "is_disabled": 0, "rental_uris": {"android": "https://dc.lft.to/lastmile_qr_scan", "ios": "https://dc.lft.to/lastmile_qr_scan"}, "type": "electric_scooter", "lat": 38.920621833333335, "is_reserved": 0, "fusion_lat": 0.0}, {"bike_id": "0af0a39cc2084606c8aa2e1c9fbc343a", "fusion_lon": 0.0, "lon": -76.99091783333333, "name": "0af0a39cc2084606c8aa2e1c9fbc343a", "is_disabled": 0, "rental_uris": {"android": "https://dc.lft.to/lastmile_qr_scan", "ios": "https://dc.lft.to/lastmile_qr_scan"}, "type": "electric_scooter", "lat": 38.9295605, "is_reserved": 0, "fusion_lat": 0.0}, {"bike_id": "4d28ad144dcbbdebbb2a217788923edd", "fusion_lon": 0.0, "lon": -77.03472383333333, "name": "4d28ad144dcbbdebbb2a217788923edd", "is_disabled": 0, "rental_uris": {"android": "https://dc.lft.to/lastmile_qr_scan", "ios": "https://dc.lft.to/lastmile_qr_scan"}, "type": "electric_scooter", "lat": 38.90762333333333, "is_reserved": 0, "fusion_lat": 0.0}, {"bike_id": "d145a7bde261907bda16dd3d4e1e600e", "fusion_lon": 0.0, "lon": -77.0334875, "name": "d145a7bde261907bda16dd3d4e1e600e", "is_disabled": 0, "rental_uris": {"android": "https://dc.lft.to/lastmile_qr_scan", "ios": "https://dc.lft.to/lastmile_qr_scan"}, "type": "electric_scooter", "lat": 38.89843233333333, "is_reserved": 0, "fusion_lat": 0.0}, {"bike_id": "bc950fb6167c2b53ef259ae26b9876e9", "fusion_lon": 0.0, "lon": -77.04042616666666, "name": "bc950fb6167c2b53ef259ae26b9876e9", "is_disabled": 0, "rental_uris": {"android": "https://dc.lft.to/lastmile_qr_scan", "ios": "https://dc.lft.to/lastmile_qr_scan"}, "type": "electric_scooter", "lat": 38.896451, "is_reserved": 0, "fusion_lat": 0.0}, {"bike_id": "163a7aa1d18b3a02ce2a7f21acb7b6c8", "fusion_lon": 0.0, "lon": -77.03213966666667, "name": "163a7aa1d18b3a02ce2a7f21acb7b6c8", "is_disabled": 0, "rental_uris": {"android": "https://dc.lft.to/lastmile_qr_scan", "ios": "https://dc.lft.to/lastmile_qr_scan"}, "type": "electric_scooter", "lat": 38.899661, "is_reserved": 0, "fusion_lat": 0.0}, {"bike_id": "bcb44de68dae7dd1be34149c8d13c1af", "fusion_lon": 0.0, "lon": -77.02340333333333, "name": "bcb44de68dae7dd1be34149c8d13c1af", "is_disabled": 0, "rental_uris": {"android": "https://dc.lft.to/lastmile_qr_scan", "ios": "https://dc.lft.to/lastmile_qr_scan"}, "type": "electric_scooter", "lat": 38.91671566666667, "is_reserved": 0, "fusion_lat": 0.0}, {"bike_id": "e81e46234e72a17b231488bb96f6e72c", "fusion_lon": 0.0, "lon": -77.030894, "name": "e81e46234e72a17b231488bb96f6e72c", "is_disabled": 0, "rental_uris": {"android": "https://dc.lft.to/lastmile_qr_scan", "ios": "https://dc.lft.to/lastmile_qr_scan"}, "type": "electric_scooter", "lat": 38.9375905, "is_reserved": 0, "fusion_lat": 0.0}, {"bike_id": "cc4029b2a5eb79adf1939943b4ce2eb2", "fusion_lon": 0.0, "lon": -77.02783233333334, "name": "cc4029b2a5eb79adf1939943b4ce2eb2", "is_disabled": 0, "rental_uris": {"android": "https://dc.lft.to/lastmile_qr_scan", "ios": "https://dc.lft.to/lastmile_qr_scan"}, "type": "electric_scooter", "lat": 38.8922095, "is_reserved": 0, "fusion_lat": 0.0}, {"bike_id": "86764ff6f89e5a7fa290274e021e8e56", "fusion_lon": 0.0, "lon": -77.0462045, "name": "86764ff6f89e5a7fa290274e021e8e56", "is_disabled": 0, "rental_uris": {"android": "https://dc.lft.to/lastmile_qr_scan", "ios": "https://dc.lft.to/lastmile_qr_scan"}, "type": "electric_scooter", "lat": 38.91933383333333, "is_reserved": 0, "fusion_lat": 0.0}, {"bike_id": "2c21ebfa5442ac7b68df20a3144537dc", "fusion_lon": 0.0, "lon": -76.9838295, "name": "2c21ebfa5442ac7b68df20a3144537dc", "is_disabled": 0, "rental_uris": {"android": "https://dc.lft.to/lastmile_qr_scan", "ios": "https://dc.lft.to/lastmile_qr_scan"}, "type": "electric_scooter", "lat": 38.88587166666667, "is_reserved": 0, "fusion_lat": 0.0}, {"bike_id": "d89a43d303d673983ec705ab94a426d7", "fusion_lon": 0.0, "lon": -77.00639066666666, "name": "d89a43d303d673983ec705ab94a426d7", "is_disabled": 0, "rental_uris": {"android": "https://dc.lft.to/lastmile_qr_scan", "ios": "https://dc.lft.to/lastmile_qr_scan"}, "type": "electric_bike", "lat": 38.948406, "is_reserved": 0, "fusion_lat": 0.0}, {"bike_id": "170a22e9178f44b7010bc370dbc0958e", "fusion_lon": 0.0, "lon": -76.93646533333333, "name": "170a22e9178f44b7010bc370dbc0958e", "is_disabled": 0, "rental_uris": {"android": "https://dc.lft.to/lastmile_qr_scan", "ios": "https://dc.lft.to/lastmile_qr_scan"}, "type": "electric_bike", "lat": 38.871528833333336, "is_reserved": 0, "fusion_lat": 0.0}, {"bike_id": "04dd1ba3242c8a10eafb2e216c150d86", "fusion_lon": 0.0, "lon": -77.0020335, "name": "04dd1ba3242c8a10eafb2e216c150d86", "is_disabled": 0, "rental_uris": {"android": "https://dc.lft.to/lastmile_qr_scan", "ios": "https://dc.lft.to/lastmile_qr_scan"}, "type": "electric_scooter", "lat": 38.90246166666667, "is_reserved": 0, "fusion_lat": 0.0}, {"bike_id": "30be2405828da47fcb16cf752845eca6", "fusion_lon": 0.0, "lon": -77.02694616666666, "name": "30be2405828da47fcb16cf752845eca6", "is_disabled": 0, "rental_uris": {"android": "https://dc.lft.to/lastmile_qr_scan", "ios": "https://dc.lft.to/lastmile_qr_scan"}, "type": "electric_scooter", "lat": 38.89622166666667, "is_reserved": 0, "fusion_lat": 0.0}, {"bike_id": "edbf2c7afbd50744222258efd5ee8547", "fusion_lon": 0.0, "lon": -77.0278905, "name": "edbf2c7afbd50744222258efd5ee8547", "is_disabled": 0, "rental_uris": {"android": "https://dc.lft.to/lastmile_qr_scan", "ios": "https://dc.lft.to/lastmile_qr_scan"}, "type": "electric_scooter", "lat": 38.929767, "is_reserved": 0, "fusion_lat": 0.0}, {"bike_id": "fa70e7d257458c591dafdd5e76a08906", "fusion_lon": 0.0, "lon": -76.96868883333333, "name": "fa70e7d257458c591dafdd5e76a08906", "is_disabled": 0, "rental_uris": {"android": "https://dc.lft.to/lastmile_qr_scan", "ios": "https://dc.lft.to/lastmile_qr_scan"}, "type": "electric_scooter", "lat": 38.87102466666666, "is_reserved": 0, "fusion_lat": 0.0}, {"bike_id": "b8666e3167cc8073411bbd5272ecd109", "fusion_lon": 0.0, "lon": -77.04829916666667, "name": "b8666e3167cc8073411bbd5272ecd109", "is_disabled": 0, "rental_uris": {"android": "https://dc.lft.to/lastmile_qr_scan", "ios": "https://dc.lft.to/lastmile_qr_scan"}, "type": "electric_scooter", "lat": 38.888934166666665, "is_reserved": 0, "fusion_lat": 0.0}, {"bike_id": "dce381f81c3665a6242376d1191aee2a", "fusion_lon": 0.0, "lon": -77.0339945, "name": "dce381f81c3665a6242376d1191aee2a", "is_disabled": 0, "rental_uris": {"android": "https://dc.lft.to/lastmile_qr_scan", "ios": "https://dc.lft.to/lastmile_qr_scan"}, "type": "electric_scooter", "lat": 38.909666, "is_reserved": 0, "fusion_lat": 0.0}, {"bike_id": "11a4eb9e7fb153f3a9e171befe7a4068", "fusion_lon": 0.0, "lon": -76.96602783333333, "name": "11a4eb9e7fb153f3a9e171befe7a4068", "is_disabled": 0, "rental_uris": {"android": "https://dc.lft.to/lastmile_qr_scan", "ios": "https://dc.lft.to/lastmile_qr_scan"}, "type": "electric_scooter", "lat": 38.87394616666667, "is_reserved": 0, "fusion_lat": 0.0}, {"bike_id": "7e0b5ddc5fbe28a47e1c353364cea7a2", "fusion_lon": 0.0, "lon": -77.027224, "name": "7e0b5ddc5fbe28a47e1c353364cea7a2", "is_disabled": 0, "rental_uris": {"android": "https://dc.lft.to/lastmile_qr_scan", "ios": "https://dc.lft.to/lastmile_qr_scan"}, "type": "electric_scooter", "lat": 38.9067335, "is_reserved": 0, "fusion_lat": 0.0}, {"bike_id": "6ac5f1c190d633f9b830d8abb2f32b00", "fusion_lon": 0.0, "lon": -77.00224516666667, "name": "6ac5f1c190d633f9b830d8abb2f32b00", "is_disabled": 0, "rental_uris": {"android": "https://dc.lft.to/lastmile_qr_scan", "ios": "https://dc.lft.to/lastmile_qr_scan"}, "type": "electric_scooter", "lat": 38.9251285, "is_reserved": 0, "fusion_lat": 0.0}, {"bike_id": "bb2200df771f1f98d8cc55bdf042dc19", "fusion_lon": 0.0, "lon": -77.03441983333333, "name": "bb2200df771f1f98d8cc55bdf042dc19", "is_disabled": 0, "rental_uris": {"android": "https://dc.lft.to/lastmile_qr_scan", "ios": "https://dc.lft.to/lastmile_qr_scan"}, "type": "electric_scooter", "lat": 38.90439933333333, "is_reserved": 0, "fusion_lat": 0.0}, {"bike_id": "460ccea9592c257b93c80920aa6be58a", "fusion_lon": 0.0, "lon": -77.0237105, "name": "460ccea9592c257b93c80920aa6be58a", "is_disabled": 0, "rental_uris": {"android": "https://dc.lft.to/lastmile_qr_scan", "ios": "https://dc.lft.to/lastmile_qr_scan"}, "type": "electric_scooter", "lat": 38.90370766666667, "is_reserved": 0, "fusion_lat": 0.0}, {"bike_id": "f282e055b8f90be72d0c02839400f199", "fusion_lon": 0.0, "lon": -76.977309, "name": "f282e055b8f90be72d0c02839400f199", "is_disabled": 0, "rental_uris": {"android": "https://dc.lft.to/lastmile_qr_scan", "ios": "https://dc.lft.to/lastmile_qr_scan"}, "type": "electric_scooter", "lat": 38.895188833333336, "is_reserved": 0, "fusion_lat": 0.0}, {"bike_id": "45eb69ac9b56b774e9888afee933aa16", "fusion_lon": 0.0, "lon": -76.99517116666667, "name": "45eb69ac9b56b774e9888afee933aa16", "is_disabled": 0, "rental_uris": {"android": "https://dc.lft.to/lastmile_qr_scan", "ios": "https://dc.lft.to/lastmile_qr_scan"}, "type": "electric_bike", "lat": 38.93931416666667, "is_reserved": 0, "fusion_lat": 0.0}, {"bike_id": "7341ec32496e673391fecb4cf94e6d5a", "fusion_lon": 0.0, "lon": -77.02734666666667, "name": "7341ec32496e673391fecb4cf94e6d5a", "is_disabled": 0, "rental_uris": {"android": "https://dc.lft.to/lastmile_qr_scan", "ios": "https://dc.lft.to/lastmile_qr_scan"}, "type": "electric_bike", "lat": 38.945608666666665, "is_reserved": 0, "fusion_lat": 0.0}, {"bike_id": "8dea5c6d0a2a43d7351095a182757ce6", "fusion_lon": 0.0, "lon": -77.041361, "name": "8dea5c6d0a2a43d7351095a182757ce6", "is_disabled": 0, "rental_uris": {"android": "https://dc.lft.to/lastmile_qr_scan", "ios": "https://dc.lft.to/lastmile_qr_scan"}, "type": "electric_scooter", "lat": 38.92647683333333, "is_reserved": 0, "fusion_lat": 0.0}, {"bike_id": "fc76b2a8f259081f54e2b169648007a8", "fusion_lon": 0.0, "lon": -76.923318, "name": "fc76b2a8f259081f54e2b169648007a8", "is_disabled": 0, "rental_uris": {"android": "https://dc.lft.to/lastmile_qr_scan", "ios": "https://dc.lft.to/lastmile_qr_scan"}, "type": "electric_bike", "lat": 38.8711305, "is_reserved": 0, "fusion_lat": 0.0}, {"bike_id": "a7138077cf54fa8e660f0303fe1675ba", "fusion_lon": 0.0, "lon": -77.01310783333334, "name": "a7138077cf54fa8e660f0303fe1675ba", "is_disabled": 0, "rental_uris": {"android": "https://dc.lft.to/lastmile_qr_scan", "ios": "https://dc.lft.to/lastmile_qr_scan"}, "type": "electric_scooter", "lat": 38.9013955, "is_reserved": 0, "fusion_lat": 0.0}, {"bike_id": "013e8e5c9ee18c77e8b73d1ea5bad785", "fusion_lon": 0.0, "lon": -77.05783616666666, "name": "013e8e5c9ee18c77e8b73d1ea5bad785", "is_disabled": 0, "rental_uris": {"android": "https://dc.lft.to/lastmile_qr_scan", "ios": "https://dc.lft.to/lastmile_qr_scan"}, "type": "electric_scooter", "lat": 38.901006333333335, "is_reserved": 0, "fusion_lat": 0.0}, {"bike_id": "39bdbade883ad5f163307558539f2f1d", "fusion_lon": 0.0, "lon": -77.02403716666667, "name": "39bdbade883ad5f163307558539f2f1d", "is_disabled": 0, "rental_uris": {"android": "https://dc.lft.to/lastmile_qr_scan", "ios": "https://dc.lft.to/lastmile_qr_scan"}, "type": "electric_scooter", "lat": 38.90744883333333, "is_reserved": 0, "fusion_lat": 0.0}, {"bike_id": "8c7b4896d3f4ac2bdfa4b83f1c801ad4", "fusion_lon": 0.0, "lon": -77.02884416666667, "name": "8c7b4896d3f4ac2bdfa4b83f1c801ad4", "is_disabled": 0, "rental_uris": {"android": "https://dc.lft.to/lastmile_qr_scan", "ios": "https://dc.lft.to/lastmile_qr_scan"}, "type": "electric_scooter", "lat": 38.90433766666666, "is_reserved": 0, "fusion_lat": 0.0}, {"bike_id": "4b5944a8f82b80a9dbb7ef4f28b60b40", "fusion_lon": 0.0, "lon": -77.02344716666667, "name": "4b5944a8f82b80a9dbb7ef4f28b60b40", "is_disabled": 0, "rental_uris": {"android": "https://dc.lft.to/lastmile_qr_scan", "ios": "https://dc.lft.to/lastmile_qr_scan"}, "type": "electric_scooter", "lat": 38.946146166666665, "is_reserved": 0, "fusion_lat": 0.0}, {"bike_id": "79b65e6d178f0158cfd2469538f6988f", "fusion_lon": 0.0, "lon": -77.0335425, "name": "79b65e6d178f0158cfd2469538f6988f", "is_disabled": 0, "rental_uris": {"android": "https://dc.lft.to/lastmile_qr_scan", "ios": "https://dc.lft.to/lastmile_qr_scan"}, "type": "electric_scooter", "lat": 38.92887366666667, "is_reserved": 0, "fusion_lat": 0.0}, {"bike_id": "2017d6b2cf61b3f6bfcb52804db58347", "fusion_lon": 0.0, "lon": -77.02408183333333, "name": "2017d6b2cf61b3f6bfcb52804db58347", "is_disabled": 0, "rental_uris": {"android": "https://dc.lft.to/lastmile_qr_scan", "ios": "https://dc.lft.to/lastmile_qr_scan"}, "type": "electric_scooter", "lat": 38.91752366666667, "is_reserved": 0, "fusion_lat": 0.0}, {"bike_id": "84a1ef6b64e217a0f59c611198fd6168", "fusion_lon": 0.0, "lon": -77.01770666666667, "name": "84a1ef6b64e217a0f59c611198fd6168", "is_disabled": 0, "rental_uris": {"android": "https://dc.lft.to/lastmile_qr_scan", "ios": "https://dc.lft.to/lastmile_qr_scan"}, "type": "electric_scooter", "lat": 38.88331683333333, "is_reserved": 0, "fusion_lat": 0.0}, {"bike_id": "203ff810a87919b455cc7608900ce9eb", "fusion_lon": 0.0, "lon": -77.07350666666666, "name": "203ff810a87919b455cc7608900ce9eb", "is_disabled": 0, "rental_uris": {"android": "https://dc.lft.to/lastmile_qr_scan", "ios": "https://dc.lft.to/lastmile_qr_scan"}, "type": "electric_bike", "lat": 38.93051366666667, "is_reserved": 0, "fusion_lat": 0.0}, {"bike_id": "0d2e421fec89c9099afd2e2467bcd81c", "fusion_lon": 0.0, "lon": -77.03246366666667, "name": "0d2e421fec89c9099afd2e2467bcd81c", "is_disabled": 0, "rental_uris": {"android": "https://dc.lft.to/lastmile_qr_scan", "ios": "https://dc.lft.to/lastmile_qr_scan"}, "type": "electric_scooter", "lat": 38.9235795, "is_reserved": 0, "fusion_lat": 0.0}, {"bike_id": "8f1f14586979ff084471d57dbce37bfe", "fusion_lon": 0.0, "lon": -76.9863055, "name": "8f1f14586979ff084471d57dbce37bfe", "is_disabled": 0, "rental_uris": {"android": "https://dc.lft.to/lastmile_qr_scan", "ios": "https://dc.lft.to/lastmile_qr_scan"}, "type": "electric_scooter", "lat": 38.880488, "is_reserved": 0, "fusion_lat": 0.0}, {"bike_id": "01d68506c10ae0309bcf11114b88086c", "fusion_lon": 0.0, "lon": -77.02800233333333, "name": "01d68506c10ae0309bcf11114b88086c", "is_disabled": 0, "rental_uris": {"android": "https://dc.lft.to/lastmile_qr_scan", "ios": "https://dc.lft.to/lastmile_qr_scan"}, "type": "electric_scooter", "lat": 38.929772166666666, "is_reserved": 0, "fusion_lat": 0.0},