{"data": {"bikes": [{"rental_uris": {"android": "https://dc.lft.to/lastmile_qr_scan", "ios": "https://dc.lft.to/lastmile_qr_scan"}, "type": "electric_scooter", "lon": -76.98496983333334, "name": "b82762294efefcfdb4e48397d6b6584a", "bike_id": "b82762294efefcfdb4e48397d6b6584a", "fusion_lat": 0.0, "is_reserved": 0, "lat": 38.860448, "fusion_lon": 0.0, "is_disabled": 0}, {"rental_uris": {"android": "https://dc.lft.to/lastmile_qr_scan", "ios": "https://dc.lft.to/lastmile_qr_scan"}, "type": "electric_scooter", "lon": -77.0295535, "name": "cd1c7fef44c57803eff4a4babbd43710", "bike_id": "cd1c7fef44c57803eff4a4babbd43710", "fusion_lat": 0.0, "is_reserved": 0, "lat": 38.90496616666667, "fusion_lon": 0.0, "is_disabled": 0}, {"rental_uris": {"android": "https://dc.lft.to/lastmile_qr_scan", "ios": "https://dc.lft.to/lastmile_qr_scan"}, "type": "electric_scooter", "lon": -76.99015666666666, "name": "7995def807161b0a72b43cfc5a2e7f6f", "bike_id": "7995def807161b0a72b43cfc5a2e7f6f", "fusion_lat": 0.0, "is_reserved": 0, "lat": 38.858706166666664, "fusion_lon": 0.0, "is_disabled": 0}, {"rental_uris": {"android": "https://dc.lft.to/lastmile_qr_scan", "ios": "https://dc.lft.to/lastmile_qr_scan"}, "type": "electric_scooter", "lon": -77.06102983333334, "name": "986f61fddefd12d6aba0b9c3efa1596a", "bike_id": "986f61fddefd12d6aba0b9c3efa1596a", "fusion_lat": 0.0, "is_reserved": 0, "lat": 38.9432095, "fusion_lon": 0.0, "is_disabled": 0}, {"rental_uris": {"android": "https://dc.lft.to/lastmile_qr_scan", "ios": "https://dc.lft.to/lastmile_qr_scan"}, "type": "electric_scooter", "lon": -77.03904866666667, "name": "1a35669128189be62d652ab9a6694934", "bike_id": "1a35669128189be62d652ab9a6694934", "fusion_lat": 0.0, "is_reserved": 0, "lat": 38.9141445, "fusion_lon": 0.0, "is_disabled": 0}, {"rental_uris": {"android": "https://dc.lft.to/lastmile_qr_scan", "ios": "https://dc.lft.to/lastmile_qr_scan"}, "type": "electric_scooter", "lon": -77.00281533333333, "name": "7f7f7ede7183519b261a27da88ebc4ae", "bike_id": "7f7f7ede7183519b261a27da88ebc4ae", "fusion_lat": 0.0, "is_reserved": 0, "lat": 38.91479133333333, "fusion_lon": 0.0, "is_disabled": 0}, {"rental_uris": {"android": "https://dc.lft.to/lastmile_qr_scan", "ios": "https://dc.lft.to/lastmile_qr_scan"}, "type": "electric_scooter", "lon": -77.04000316666666, "name": "bad8fc11499e4cd598bf46421bcdee48", "bike_id": "bad8fc11499e4cd598bf46421bcdee48", "fusion_lat": 0.0, "is_reserved": 0, "lat": 38.9181005, "fusion_lon": 0.0, "is_disabled": 0}, {"rental_uris": {"android": "https://dc.lft.to/lastmile_qr_scan", "ios": "https://dc.lft.to/lastmile_qr_scan"}, "type": "electric_scooter", "lon": -76.99756816666667, "name": "d96a5d31fd7936bd756dec394c7ade1b", "bike_id": "d96a5d31fd7936bd756dec394c7ade1b", "fusion_lat": 0.0, "is_reserved": 0, "lat": 38.92195983333333, "fusion_lon": 0.0, "is_disabled": 0}, {"rental_uris": {"android": "https://dc.lft.to/lastmile_qr_scan", "ios": "https://dc.lft.to/lastmile_qr_scan"}, "type": "electric_bike", "lon": -77.18290766666667, "name": "f71cd78b4cdeb1e7f1d1dfbbec640f76", "bike_id": "f71cd78b4cdeb1e7f1d1dfbbec640f76", "fusion_lat": 0.0, "is_reserved": 0, "lat": 38.883407166666665, "fusion_lon": 0.0, "is_disabled": 0}, {"rental_uris": {"android": "https://dc.lft.to/lastmile_qr_scan", "ios": "https://dc.lft.to/lastmile_qr_scan"}, "type": "electric_scooter", "lon": -76.926535, "name": "548591a78d05f5fd31c5ffe1817e0e90", "bike_id": "548591a78d05f5fd31c5ffe1817e0e90", "fusion_lat": 0.0, "is_reserved": 0, "lat": 38.89543783333333, "fusion_lon": 0.0, "is_disabled": 0}, {"rental_uris": {"android": "https://dc.lft.to/lastmile_qr_scan", "ios": "https://dc.lft.to/lastmile_qr_scan"}, "type": "electric_scooter", "lon": -77.03210483333334, "name": "70bfe22882328f20277537e84f624d4d", "bike_id": "70bfe22882328f20277537e84f624d4d", "fusion_lat": 0.0, "is_reserved": 0, "lat": 38.90758833333334, "fusion_lon": 0.0, "is_disabled": 0}, {"rental_uris": {"android": "https://dc.lft.to/lastmile_qr_scan", "ios": "https://dc.lft.to/lastmile_qr_scan"}, "type": "electric_scooter", "lon": -77.02311966666667, "name": "9e9d30aaefec089bb91ba1a1a603659b", "bike_id": "9e9d30aaefec089bb91ba1a1a603659b", "fusion_lat": 0.0, "is_reserved": 0, "lat": 38.9181585, "fusion_lon": 0.0, "is_disabled": 0}, {"rental_uris": {"android": "https://dc.lft.to/lastmile_qr_scan", "ios": "https://dc.lft.to/lastmile_qr_scan"}, "type": "electric_scooter", "lon": -77.02474433333333, "name": "07ee0a2e69840ac64f7c3d38eb7acc61", "bike_id": "07ee0a2e69840ac64f7c3d38eb7acc61", "fusion_lat": 0.0, "is_reserved": 0, "lat": 38.939069333333336, "fusion_lon": 0.0, "is_disabled": 0}, {"rental_uris": {"android": "https://dc.lft.to/lastmile_qr_scan", "ios": "https://dc.lft.to/lastmile_qr_scan"}, "type": "electric_scooter", "lon": -77.02548833333333, "name": "a7c1172e9c31f5518c18775e7dacc581", "bike_id": "a7c1172e9c31f5518c18775e7dacc581", "fusion_lat": 0.0, "is_reserved": 0, "lat": 38.89222633333333, "fusion_lon": 0.0, "is_disabled": 0}, {"rental_uris": {"android": "https://dc.lft.to/lastmile_qr_scan", "ios": "https://dc.lft.to/lastmile_qr_scan"}, "type": "electric_scooter", "lon": -77.06153433333333, "name": "4db9e775679b03e82c83820afd59fc8a", "bike_id": "4db9e775679b03e82c83820afd59fc8a", "fusion_lat": 0.0, "is_reserved": 0, "lat": 38.90523783333333, "fusion_lon": 0.0, "is_disabled": 0}, {"rental_uris": {"android": "https://dc.lft.to/lastmile_qr_scan", "ios": "https://dc.lft.to/lastmile_qr_scan"}, "type": "electric_scooter", "lon": -77.03342, "name": "617c6309cf73851305072e7fe77cb154", "bike_id": "617c6309cf73851305072e7fe77cb154", "fusion_lat": 0.0, "is_reserved": 0, "lat": 38.92055116666667, "fusion_lon": 0.0, "is_disabled": 0}, {"rental_uris": {"android": "https://dc.lft.to/lastmile_qr_scan", "ios": "https://dc.lft.to/lastmile_qr_scan"}, "type": "electric_scooter", "lon": -77.04243933333333, "name": "9b1c7adf81071a3bf7cefa3941e24116", "bike_id": "9b1c7adf81071a3bf7cefa3941e24116", "fusion_lat": 0.0, "is_reserved": 0, "lat": 38.91781116666667, "fusion_lon": 0.0, "is_disabled": 0}, {"rental_uris": {"android": "https://dc.lft.to/lastmile_qr_scan", "ios": "https://dc.lft.to/lastmile_qr_scan"}, "type": "electric_scooter", "lon": -77.03294, "name": "178ccde95e626a03495efe89defb5153", "bike_id": "178ccde95e626a03495efe89defb5153", "fusion_lat": 0.0, "is_reserved": 0, "lat": 38.90841, "fusion_lon": 0.0, "is_disabled": 0}, {"rental_uris": {"android": "https://dc.lft.to/lastmile_qr_scan", "ios": "https://dc.lft.to/lastmile_qr_scan"}, "type": "electric_scooter", "lon": -77.0417655, "name": "f7add1216076c6b9db0bf05618c514bc", "bike_id": "f7add1216076c6b9db0bf05618c514bc", "fusion_lat": 0.0, "is_reserved": 0, "lat": 38.9198235, "fusion_lon": 0.0, "is_disabled": 0}, {"rental_uris": {"android": "https://dc.lft.to/lastmile_qr_scan", "ios": "https://dc.lft.to/lastmile_qr_scan"}, "type": "electric_scooter", "lon": -77.03857016666667, "name": "1482b223c3476488cf82b7218f575339", "bike_id": "1482b223c3476488cf82b7218f575339", "fusion_lat": 0.0, "is_reserved": 0, "lat": 38.91465016666667, "fusion_lon": 0.0, "is_disabled": 0}, {"rental_uris": {"android": "https://dc.lft.to/lastmile_qr_scan", "ios": "https://dc.lft.to/lastmile_qr_scan"}, "type": "electric_scooter", "lon": -76.99151766666667, "name": "998b757e618041b04ac99c3415b87856", "bike_id": "998b757e618041b04ac99c3415b87856", "fusion_lat": 0.0, "is_reserved": 0, "lat": 38.873187333333334, "fusion_lon": 0.0, "is_disabled": 0}, {"rental_uris": {"android": "https://dc.lft.to/lastmile_qr_scan", "ios": "https://dc.lft.to/lastmile_qr_scan"}, "type": "electric_scooter", "lon": -77.01215266666667, "name": "82ad58f76b18216a676e5e5a396d8cba", "bike_id": "82ad58f76b18216a676e5e5a396d8cba", "fusion_lat": 0.0, "is_reserved": 0, "lat": 38.9182235, "fusion_lon": 0.0, "is_disabled": 0}, {"rental_uris": {"android": "https://dc.lft.to/lastmile_qr_scan", "ios": "https://dc.lft.to/lastmile_qr_scan"}, "type": "electric_scooter", "lon": -77.03778766666667, "name": "74e3f179cfa784a4f10ee3d30004bfcd", "bike_id": "74e3f179cfa784a4f10ee3d30004bfcd", "fusion_lat": 0.0, "is_reserved": 0, "lat": 38.9248235, "fusion_lon": 0.0, "is_disabled": 0}, {"rental_uris": {"android": "https://dc.lft.to/lastmile_qr_scan", "ios": "https://dc.lft.to/lastmile_qr_scan"}, "type": "electric_scooter", "lon": -77.027247, "name": "1c8f0b26dee20e5ddd9f292fbff54a95", "bike_id": "1c8f0b26dee20e5ddd9f292fbff54a95", "fusion_lat": 0.0, "is_reserved": 0, "lat": 38.934487833333336, "fusion_lon": 0.0, "is_disabled": 0}, {"rental_uris": {"android": "https://dc.lft.to/lastmile_qr_scan", "ios": "https://dc.lft.to/lastmile_qr_scan"}, "type": "electric_scooter", "lon": -76.9740685, "name": "e3fec4fa2250b632999afd3651f4e8ea", "bike_id": "e3fec4fa2250b632999afd3651f4e8ea", "fusion_lat": 0.0, "is_reserved": 0, "lat": 38.86564966666667, "fusion_lon": 0.0, "is_disabled": 0}, {"rental_uris": {"android": "https://dc.lft.to/lastmile_qr_scan", "ios": "https://dc.lft.to/lastmile_qr_scan"}, "type": "electric_scooter", "lon": -77.00276766666667, "name": "94e21036ac61bbcbd021bcdcc7f4ceaa", "bike_id": "94e21036ac61bbcbd021bcdcc7f4ceaa", "fusion_lat": 0.0, "is_reserved": 0, "lat": 38.93922366666666, "fusion_lon": 0.0, "is_disabled": 0}, {"rental_uris": {"android": "https://dc.lft.to/lastmile_qr_scan", "ios": "https://dc.lft.to/lastmile_qr_scan"}, "type": "electric_scooter", "lon": -76.99078833333333, "name": "15608b2f24a593e98ac03410aeba349e", "bike_id": "15608b2f24a593e98ac03410aeba349e", "fusion_lat": 0.0, "is_reserved": 0, "lat": 38.9000935, "fusion_lon": 0.0, "is_disabled": 0}, {"rental_uris": {"android": "https://dc.lft.to/lastmile_qr_scan", "ios": "https://dc.lft.to/lastmile_qr_scan"}, "type": "electric_bike", "lon": -76.93179116666667, "name": "bfa6da5c87d72a635d776bcfec16a333", "bike_id": "bfa6da5c87d72a635d776bcfec16a333", "fusion_lat": 0.0, "is_reserved": 0, "lat": 38.89847833333334, "fusion_lon": 0.0, "is_disabled": 0}, {"rental_uris": {"android": "https://dc.lft.to/lastmile_qr_scan", "ios": "https://dc.lft.to/lastmile_qr_scan"}, "type": "electric_scooter", "lon": -76.93739333333333, "name": "ad2819fd5fb92ecce3e777f221fdec83", "bike_id": "ad2819fd5fb92ecce3e777f221fdec83", "fusion_lat": 0.0, "is_reserved": 0, "lat": 38.890165, "fusion_lon": 0.0, "is_disabled": 0}, {"rental_uris": {"android": "https://dc.lft.to/lastmile_qr_scan", "ios": "https://dc.lft.to/lastmile_qr_scan"}, "type": "electric_scooter", "lon": -77.04176566666666, "name": "2bdb0f613ca6745547452e0ff611e4d6", "bike_id": "2bdb0f613ca6745547452e0ff611e4d6", "fusion_lat": 0.0, "is_reserved": 0, "lat": 38.919359166666666, "fusion_lon": 0.0, "is_disabled": 0}, {"rental_uris": {"android": "https://dc.lft.to/lastmile_qr_scan", "ios": "https://dc.lft.to/lastmile_qr_scan"}, "type": "electric_scooter", "lon": -77.03405, "name": "d12ed5128b4e623732543e50f362eea0", "bike_id": "d12ed5128b4e623732543e50f362eea0", "fusion_lat": 0.0, "is_reserved": 0, "lat": 38.9318135, "fusion_lon": 0.0, "is_disabled": 0}, {"rental_uris": {"android": "https://dc.lft.to/lastmile_qr_scan", "ios": "https://dc.lft.to/lastmile_qr_scan"}, "type": "electric_scooter", "lon": -77.05000733333334, "name": "3493460fd16fe72393442edd10d1f5ef", "bike_id": "3493460fd16fe72393442edd10d1f5ef", "fusion_lat": 0.0, "is_reserved": 0, "lat": 38.8923005, "fusion_lon": 0.0, "is_disabled": 0}, {"rental_uris": {"android": "https://dc.lft.to/lastmile_qr_scan", "ios": "https://dc.lft.to/lastmile_qr_scan"}, "type": "electric_scooter", "lon": -77.03651733333334, "name": "6803a752faaf04e2c1a1ab9dcdb6f8fc", "bike_id": "6803a752faaf04e2c1a1ab9dcdb6f8fc", "fusion_lat": 0.0, "is_reserved": 0, "lat": 38.92113466666667, "fusion_lon": 0.0, "is_disabled": 0}, {"rental_uris": {"android": "https://dc.lft.to/lastmile_qr_scan", "ios": "https://dc.lft.to/lastmile_qr_scan"}, "type": "electric_scooter", "lon": -77.08440883333333, "name": "983fa9e907df69f8774c2c3459ba4d38", "bike_id": "983fa9e907df69f8774c2c3459ba4d38", "fusion_lat": 0.0, "is_reserved": 0, "lat": 38.91175233333333, "fusion_lon": 0.0, "is_disabled": 0}, {"rental_uris": {"android": "https://dc.lft.to/lastmile_qr_scan", "ios": "https://dc.lft.to/lastmile_qr_scan"}, "type": "electric_scooter", "lon": -77.01132316666667, "name": "37db17ed06a5fb91d8ec7e2305ec5165", "bike_id": "37db17ed06a5fb91d8ec7e2305ec5165", "fusion_lat": 0.0, "is_reserved": 0, "lat": 38.90955183333333, "fusion_lon": 0.0, "is_disabled": 0}, {"rental_uris": {"android": "https://dc.lft.to/lastmile_qr_scan", "ios": "https://dc.lft.to/lastmile_qr_scan"}, "type": "electric_scooter", "lon": -76.99652116666667, "name": "ad293fcc9fd9aed186e7e3df27d3d253", "bike_id": "ad293fcc9fd9aed186e7e3df27d3d253", "fusion_lat": 0.0, "is_reserved": 0, "lat": 38.85889483333333, "fusion_lon": 0.0, "is_disabled": 0}, {"rental_uris": {"android": "https://dc.lft.to/lastmile_qr_scan", "ios": "https://dc.lft.to/lastmile_qr_scan"}, "type": "electric_scooter", "lon": -77.0001855, "name": "f863d8c5ba884a1560b864022e51664c", "bike_id": "f863d8c5ba884a1560b864022e51664c", "fusion_lat": 0.0, "is_reserved": 0, "lat": 38.900181333333336, "fusion_lon": 0.0, "is_disabled": 0}, {"rental_uris": {"android": "https://dc.lft.to/lastmile_qr_scan", "ios": "https://dc.lft.to/lastmile_qr_scan"}, "type": "electric_scooter", "lon": -77.02292183333333, "name": "df5996913f64c57c14eaf10b7c3b44ab", "bike_id": "df5996913f64c57c14eaf10b7c3b44ab", "fusion_lat": 0.0, "is_reserved": 0, "lat": 38.917873166666666, "fusion_lon": 0.0, "is_disabled": 0}, {"rental_uris": {"android": "https://dc.lft.to/lastmile_qr_scan", "ios": "https://dc.lft.to/lastmile_qr_scan"}, "type": "electric_scooter", "lon": -77.04764166666666, "name": "ea6ac44e6534da2af27fa3164fbacf4c", "bike_id": "ea6ac44e6534da2af27fa3164fbacf4c", "fusion_lat": 0.0, "is_reserved": 0, "lat": 38.917661833333334, "fusion_lon": 0.0, "is_disabled": 0}, {"rental_uris": {"android": "https://dc.lft.to/lastmile_qr_scan", "ios": "https://dc.lft.to/lastmile_qr_scan"}, "type": "electric_scooter", "lon": -77.01700083333333, "name": "5c6f2bc225ee51a4aab69711f6769e5d", "bike_id": "5c6f2bc225ee51a4aab69711f6769e5d", "fusion_lat": 0.0, "is_reserved": 0, "lat": 38.920141, "fusion_lon": 0.0, "is_disabled": 0}, {"rental_uris": {"android": "https://dc.lft.to/lastmile_qr_scan", "ios": "https://dc.lft.to/lastmile_qr_scan"}, "type": "electric_scooter", "lon": -76.98326916666667, "name": "3c84cfeca441bccce83d92029b10d957", "bike_id": "3c84cfeca441bccce83d92029b10d957", "fusion_lat": 0.0, "is_reserved": 0, "lat": 38.88985433333333, "fusion_lon": 0.0, "is_disabled": 0}, {"rental_uris": {"android": "https://dc.lft.to/lastmile_qr_scan", "ios": "https://dc.lft.to/lastmile_qr_scan"}, "type": "electric_scooter", "lon": -77.01763316666667, "name": "cd4505cc3a47b538a4cd2534e3c5c785", "bike_id": "cd4505cc3a47b538a4cd2534e3c5c785", "fusion_lat": 0.0, "is_reserved": 0, "lat": 38.877121833333334, "fusion_lon": 0.0, "is_disabled": 0}, {"rental_uris": {"android": "https://dc.lft.to/lastmile_qr_scan", "ios": "https://dc.lft.to/lastmile_qr_scan"}, "type": "electric_scooter", "lon": -77.04160233333333, "name": "eab06141d9ac7c003dece9a786ef1555", "bike_id": "eab06141d9ac7c003dece9a786ef1555", "fusion_lat": 0.0, "is_reserved": 0, "lat": 38.916178333333335, "fusion_lon": 0.0, "is_disabled": 0}, {"rental_uris": {"android": "https://dc.lft.to/lastmile_qr_scan", "ios": "https://dc.lft.to/lastmile_qr_scan"}, "type": "electric_scooter", "lon": -77.027683, "name": "57e73fce42fd8d795488ea602a58980d", "bike_id": "57e73fce42fd8d795488ea602a58980d", "fusion_lat": 0.0, "is_reserved": 0, "lat": 38.892274, "fusion_lon": 0.0, "is_disabled": 0}, {"rental_uris": {"android": "https://dc.lft.to/lastmile_qr_scan", "ios": "https://dc.lft.to/lastmile_qr_scan"}, "type": "electric_scooter", "lon": -77.02497583333333, "name": "ffaed6e9b0469c27c6a492113156527a", "bike_id": "ffaed6e9b0469c27c6a492113156527a", "fusion_lat": 0.0, "is_reserved": 0, "lat": 38.932865166666666, "fusion_lon": 0.0, "is_disabled": 0}, {"rental_uris": {"android": "https://dc.lft.to/lastmile_qr_scan", "ios": "https://dc.lft.to/lastmile_qr_scan"}, "type": "electric_scooter", "lon": -76.97820733333333, "name": "51cdaceeebc724053c45a062be807fa8", "bike_id": "51cdaceeebc724053c45a062be807fa8", "fusion_lat": 0.0, "is_reserved": 0, "lat": 38.896042333333334, "fusion_lon": 0.0, "is_disabled": 0}, {"rental_uris": {"android": "https://dc.lft.to/lastmile_qr_scan", "ios": "https://dc.lft.to/lastmile_qr_scan"}, "type": "electric_scooter", "lon": -77.02298083333334, "name": "289fda9d2959da7aef625e0e2604657b", "bike_id": "289fda9d2959da7aef625e0e2604657b", "fusion_lat": 0.0, "is_reserved": 0, "lat": 38.917872833333334, "fusion_lon": 0.0, "is_disabled": 0}, {"rental_uris": {"android": "https://dc.lft.to/lastmile_qr_scan", "ios": "https://dc.lft.to/lastmile_qr_scan"}, "type": "electric_scooter", "lon": -77.04000016666667, "name": "be0b49cf7ba2535d667165b34f1820c8", "bike_id": "be0b49cf7ba2535d667165b34f1820c8", "fusion_lat": 0.0, "is_reserved": 0, "lat": 38.918040500000004, "fusion_lon": 0.0, "is_disabled": 0}, {"rental_uris": {"android": "https://dc.lft.to/lastmile_qr_scan", "ios": "https://dc.lft.to/lastmile_qr_scan"}, "type": "electric_scooter", "lon": -77.01006316666667, "name": "84e04ebe18802866e55b7e7c44809d63", "bike_id": "84e04ebe18802866e55b7e7c44809d63", "fusion_lat": 0.0, "is_reserved": 0, "lat": 38.867107, "fusion_lon": 0.0, "is_disabled": 0}, {"rental_uris": {"android": "https://dc.lft.to/lastmile_qr_scan", "ios": "https://dc.lft.to/lastmile_qr_scan"}, "type": "electric_scooter", "lon": -77.0424655, "name": "712b0c215b45e40a20b930bad7cc4bf5", "bike_id": "712b0c215b45e40a20b930bad7cc4bf5", "fusion_lat": 0.0, "is_reserved": 0, "lat": 38.922281, "fusion_lon": 0.0, "is_disabled": 0}, {"rental_uris": {"android": "https://dc.lft.to/lastmile_qr_scan", "ios": "https://dc.lft.to/lastmile_qr_scan"}, "type": "electric_scooter", "lon": -77.039671, "name": "244c8974959b98694dabebf380638705", "bike_id": "244c8974959b98694dabebf380638705", "fusion_lat": 0.0, "is_reserved": 0, "lat": 38.9163075, "fusion_lon": 0.0, "is_disabled": 0}, {"rental_uris": {"android": "https://dc.lft.to/lastmile_qr_scan", "ios": "https://dc.lft.to/lastmile_qr_scan"}, "type": "electric_scooter", "lon": -77.03638966666666, "name": "d28dfda4ecfeea5a8e933c6c54efcea7", "bike_id": "d28dfda4ecfeea5a8e933c6c54efcea7", "fusion_lat": 0.0, "is_reserved": 0, "lat": 38.9178045, "fusion_lon": 0.0, "is_disabled": 0}, {"rental_uris": {"android": "https://dc.lft.to/lastmile_qr_scan", "ios": "https://dc.lft.to/lastmile_qr_scan"}, "type": "electric_scooter", "lon": -76.9987835, "name": "603d609f35074d88c12e653908395702", "bike_id": "603d609f35074d88c12e653908395702", "fusion_lat": 0.0, "is_reserved": 0, "lat": 38.92053766666667, "fusion_lon": 0.0, "is_disabled": 0}, {"rental_uris": {"android": "https://dc.lft.to/lastmile_qr_scan", "ios": "https://dc.lft.to/lastmile_qr_scan"}, "type": "electric_scooter", "lon": -77.02704983333334, "name": "50594b7982bd8ab799de740169a96c27", "bike_id": "50594b7982bd8ab799de740169a96c27", "fusion_lat": 0.0, "is_reserved": 0, "lat": 38.9045605, "fusion_lon": 0.0, "is_disabled": 0}, {"rental_uris": {"android": "https://dc.lft.to/lastmile_qr_scan", "ios": "https://dc.lft.to/lastmile_qr_scan"}, "type": "electric_scooter", "lon": -77.0498705, "name": "35845fa20f59f92118c36be4a1d17829", "bike_id": "35845fa20f59f92118c36be4a1d17829", "fusion_lat": 0.0, "is_reserved": 0, "lat": 38.904329833333335, "fusion_lon": 0.0, "is_disabled": 0}, {"rental_uris": {"android": "https://dc.lft.to/lastmile_qr_scan", "ios": "https://dc.lft.to/lastmile_qr_scan"}, "type": "electric_scooter", "lon": -76.99371016666667, "name": "3799d5aa9cecc94444d140322707d23f", "bike_id": "3799d5aa9cecc94444d140322707d23f", "fusion_lat": 0.0, "is_reserved": 0, "lat": 38.9005895, "fusion_lon": 0.0, "is_disabled": 0}, {"rental_uris": {"android": "https://dc.lft.to/lastmile_qr_scan", "ios": "https://dc.lft.to/lastmile_qr_scan"}, "type": "electric_scooter", "lon": -76.98846416666666, "name": "4da95dd421b4e44608117e0d5bbe4257", "bike_id": "4da95dd421b4e44608117e0d5bbe4257", "fusion_lat": 0.0, "is_reserved": 0, "lat": 38.9034735, "fusion_lon": 0.0, "is_disabled": 0}, {"rental_uris": {"android": "https://dc.lft.to/lastmile_qr_scan", "ios": "https://dc.lft.to/lastmile_qr_scan"}, "type": "electric_scooter", "lon": -77.0466265, "name": "2306a576e587080137358b51b15f0d43", "bike_id": "2306a576e587080137358b51b15f0d43", "fusion_lat": 0.0, "is_reserved": 0, "lat": 38.898972666666666, "fusion_lon": 0.0, "is_disabled": 0}, {"rental_uris": {"android": "https://dc.lft.to/lastmile_qr_scan", "ios": "https://dc.lft.to/lastmile_qr_scan"}, "type": "electric_scooter", "lon": -76.98466116666667, "name": "3611799c2d51015c30ed76af0203f4ac", "bike_id": "3611799c2d51015c30ed76af0203f4ac", "fusion_lat": 0.0, "is_reserved": 0, "lat": 38.90864666666667, "fusion_lon": 0.0, "is_disabled": 0}, {"rental_uris": {"android": "https://dc.lft.to/lastmile_qr_scan", "ios": "https://dc.lft.to/lastmile_qr_scan"}, "type": "electric_scooter", "lon": -77.02169766666667, "name": "f565cba318b1beb4031d5e0f1eabb913", "bike_id": "f565cba318b1beb4031d5e0f1eabb913", "fusion_lat": 0.0, "is_reserved": 0, "lat": 38.89630183333333, "fusion_lon": 0.0, "is_disabled": 0}, {"rental_uris": {"android": "https://dc.lft.to/lastmile_qr_scan", "ios": "https://dc.lft.to/lastmile_qr_scan"}, "type": "electric_scooter", "lon": -77.04368183333334, "name": "8dc557cc198e56e1fbccd87be6a98134", "bike_id": "8dc557cc198e56e1fbccd87be6a98134", "fusion_lat": 0.0, "is_reserved": 0, "lat": 38.92584933333333, "fusion_lon": 0.0, "is_disabled": 0}, {"rental_uris": {"android": "https://dc.lft.to/lastmile_qr_scan", "ios": "https://dc.lft.to/lastmile_qr_scan"}, "type": "electric_scooter", "lon": -77.02791116666667, "name": "67fea2f1d86cb4c6183e149595739b87", "bike_id": "67fea2f1d86cb4c6183e149595739b87", "fusion_lat": 0.0, "is_reserved": 0, "lat": 38.9614005, "fusion_lon": 0.0, "is_disabled": 0}, {"rental_uris": {"android": "https://dc.lft.to/lastmile_qr_scan", "ios": "https://dc.lft.to/lastmile_qr_scan"}, "type": "electric_scooter", "lon": -76.9946135, "name": "dc7381ede0a446c2c30f6f2ccce66767", "bike_id": "dc7381ede0a446c2c30f6f2ccce66767", "fusion_lat": 0.0, "is_reserved": 0, "lat": 38.85162916666667, "fusion_lon": 0.0, "is_disabled": 0}, {"rental_uris": {"android": "https://dc.lft.to/lastmile_qr_scan", "ios": "https://dc.lft.to/lastmile_qr_scan"}, "type": "electric_scooter", "lon": -77.01223916666666, "name": "9724d73d4109bfacdf24183009e7c877", "bike_id": "9724d73d4109bfacdf24183009e7c877", "fusion_lat": 0.0, "is_reserved": 0, "lat": 38.91351516666667, "fusion_lon": 0.0, "is_disabled": 0}, {"rental_uris": {"android": "https://dc.lft.to/lastmile_qr_scan", "ios": "https://dc.lft.to/lastmile_qr_scan"}, "type": "electric_scooter", "lon": -77.04684666666667, "name": "cdae0b3e75fb945a934b2e009164766d", "bike_id": "cdae0b3e75fb945a934b2e009164766d", "fusion_lat": 0.0, "is_reserved": 0, "lat": 38.92097233333333, "fusion_lon": 0.0, "is_disabled": 0}, {"rental_uris": {"android": "https://dc.lft.to/lastmile_qr_scan", "ios": "https://dc.lft.to/lastmile_qr_scan"}, "type": "electric_scooter", "lon": -76.93257733333333, "name": "39fe3963b250fdd93a33a1e3d853b08a", "bike_id": "39fe3963b250fdd93a33a1e3d853b08a", "fusion_lat": 0.0, "is_reserved": 0, "lat": 38.88769533333333, "fusion_lon": 0.0, "is_disabled": 0}, {"rental_uris": {"android": "https://dc.lft.to/lastmile_qr_scan", "ios": "https://dc.lft.to/lastmile_qr_scan"}, "type": "electric_scooter", "lon": -77.01107566666667, "name": "929b74f5d314f2206297f856c30cc001", "bike_id": "929b74f5d314f2206297f856c30cc001", "fusion_lat": 0.0, "is_reserved": 0, "lat": 38.870915833333335, "fusion_lon": 0.0, "is_disabled": 0}, {"rental_uris": {"android": "https://dc.lft.to/lastmile_qr_scan", "ios": "https://dc.lft.to/lastmile_qr_scan"}, "type": "electric_scooter", "lon": -77.04657866666666, "name": "f17c5d1b6d097a0ac0924af23fdbedb2", "bike_id": "f17c5d1b6d097a0ac0924af23fdbedb2", "fusion_lat": 0.0, "is_reserved": 0, "lat": 38.89345466666666, "fusion_lon": 0.0, "is_disabled": 0}, {"rental_uris": {"android": "https://dc.lft.to/lastmile_qr_scan", "ios": "https://dc.lft.to/lastmile_qr_scan"}, "type": "electric_scooter", "lon": -77.01208266666667, "name": "a6c1bdc504d9dd16b7e25673b950ce2f", "bike_id": "a6c1bdc504d9dd16b7e25673b950ce2f", "fusion_lat": 0.0, "is_reserved": 0, "lat": 38.92181866666667, "fusion_lon": 0.0, "is_disabled": 0}, {"rental_uris": {"android": "https://dc.lft.to/lastmile_qr_scan", "ios": "https://dc.lft.to/lastmile_qr_scan"}, "type": "electric_scooter", "lon": -77.03267333333334, "name": "1739d3ea3a441839d58ff6225e5698a7", "bike_id": "1739d3ea3a441839d58ff6225e5698a7", "fusion_lat": 0.0, "is_reserved": 0, "lat": 38.928384666666666, "fusion_lon": 0.0, "is_disabled": 0}, {"rental_uris": {"android": "https://dc.lft.to/lastmile_qr_scan", "ios": "https://dc.lft.to/lastmile_qr_scan"}, "type": "electric_scooter", "lon": -76.98616983333334, "name": "5eb53a66bb37966141fcb28ec11c032f", "bike_id": "5eb53a66bb37966141fcb28ec11c032f", "fusion_lat": 0.0, "is_reserved": 0, "lat": 38.90682533333333, "fusion_lon": 0.0, "is_disabled": 0}, {"rental_uris": {"android": "https://dc.lft.to/lastmile_qr_scan", "ios": "https://dc.lft.to/lastmile_qr_scan"}, "type": "electric_scooter", "lon": -77.03883533333334, "name": "177ef24e223cb5023bd1e3adb54794e4", "bike_id": "177ef24e223cb5023bd1e3adb54794e4", "fusion_lat": 0.0, "is_reserved": 0, "lat": 38.932341666666666, "fusion_lon": 0.0, "is_disabled": 0}, {"rental_uris": {"android": "https://dc.lft.to/lastmile_qr_scan", "ios": "https://dc.lft.to/lastmile_qr_scan"}, "type": "electric_scooter", "lon": -76.95106766666666, "name": "d3aaa7bba415d9d146df91d6fa867151", "bike_id": "d3aaa7bba415d9d146df91d6fa867151", "fusion_lat": 0.0, "is_reserved": 0, "lat": 38.887933833333335, "fusion_lon": 0.0, "is_disabled": 0}, {"rental_uris": {"android": "https://dc.lft.to/lastmile_qr_scan", "ios": "https://dc.lft.to/lastmile_qr_scan"}, "type": "electric_scooter", "lon": -77.02382616666667, "name": "9e9d92d26f772168e154e86d4286ace8", "bike_id": "9e9d92d26f772168e154e86d4286ace8", "fusion_lat": 0.0, "is_reserved": 0, "lat": 38.90711, "fusion_lon": 0.0, "is_disabled": 0}, {"rental_uris": {"android": "https://dc.lft.to/lastmile_qr_scan", "ios": "https://dc.lft.to/lastmile_qr_scan"}, "type": "electric_bike", "lon": -76.98147433333334, "name": "76bfec44593afb1f1275d0fdafe3fa40", "bike_id": "76bfec44593afb1f1275d0fdafe3fa40", "fusion_lat": 0.0, "is_reserved": 0, "lat": 38.959659333333335, "fusion_lon": 0.0, "is_disabled": 0}, {"rental_uris": {"android": "https://dc.lft.to/lastmile_qr_scan", "ios": "https://dc.lft.to/lastmile_qr_scan"}, "type": "electric_scooter", "lon": -76.98881133333333, "name": "f969911d214122e8178fe476b650cbb5", "bike_id": "f969911d214122e8178fe476b650cbb5", "fusion_lat": 0.0, "is_reserved": 0, "lat": 38.906298, "fusion_lon": 0.0, "is_disabled": 0}, {"rental_uris": {"android": "https://dc.lft.to/lastmile_qr_scan", "ios": "https://dc.lft.to/lastmile_qr_scan"}, "type": "electric_scooter", "lon": -77.04341983333333, "name": "0f78533981d3192251de2ef3385c8712", "bike_id": "0f78533981d3192251de2ef3385c8712", "fusion_lat": 0.0, "is_reserved": 0, "lat": 38.905065, "fusion_lon": 0.0, "is_disabled": 0}, {"rental_uris": {"android": "https://dc.lft.to/lastmile_qr_scan", "ios": "https://dc.lft.to/lastmile_qr_scan"}, "type": "electric_bike", "lon": -77.08045566666667, "name": "aab49d0fec43b897d3845b3eac44b550", "bike_id": "aab49d0fec43b897d3845b3eac44b550", "fusion_lat": 0.0, "is_reserved": 0, "lat": 38.84845383333333, "fusion_lon": 0.0, "is_disabled": 0}, {"rental_uris": {"android": "https://dc.lft.to/lastmile_qr_scan", "ios": "https://dc.lft.to/lastmile_qr_scan"}, "type": "electric_scooter", "lon": -77.041568, "name": "c1a9484107edda283f785abe184579f1", "bike_id": "c1a9484107edda283f785abe184579f1", "fusion_lat": 0.0, "is_reserved": 0, "lat": 38.916177833333336, "fusion_lon": 0.0, "is_disabled": 0}, {"rental_uris": {"android": "https://dc.lft.to/lastmile_qr_scan", "ios": "https://dc.lft.to/lastmile_qr_scan"}, "type": "electric_scooter", "lon": -77.01523333333333, "name": "163ed1938668de8a9c2ff737206c12bf", "bike_id": "163ed1938668de8a9c2ff737206c12bf", "fusion_lat": 0.0, "is_reserved": 0, "lat": 38.91354466666667, "fusion_lon": 0.0, "is_disabled": 0}, {"rental_uris": {"android": "https://dc.lft.to/lastmile_qr_scan", "ios": "https://dc.lft.to/lastmile_qr_scan"}, "type": "electric_bike", "lon": -77.0861885, "name": "41ce54afe862dc2ae3da61c6906b76ca", "bike_id": "41ce54afe862dc2ae3da61c6906b76ca", "fusion_lat": 0.0, "is_reserved": 0, "lat": 38.874112, "fusion_lon": 0.0, "is_disabled": 0}, {"rental_uris": {"android": "https://dc.lft.to/lastmile_qr_scan", "ios": "https://dc.lft.to/lastmile_qr_scan"}, "type": "electric_scooter", "lon": -77.02421483333333, "name": "ec59603f8eba275f3de2e3e28d961ba3", "bike_id": "ec59603f8eba275f3de2e3e28d961ba3", "fusion_lat": 0.0, "is_reserved": 0, "lat": 38.92757983333333, "fusion_lon": 0.0, "is_disabled": 0}, {"rental_uris": {"android": "https://dc.lft.to/lastmile_qr_scan", "ios": "https://dc.lft.to/lastmile_qr_scan"}, "type": "electric_scooter", "lon": -77.02756966666666, "name": "f1bdaf9a2725fd07d32b0f162c40ab91", "bike_id": "f1bdaf9a2725fd07d32b0f162c40ab91", "fusion_lat": 0.0, "is_reserved": 0, "lat": 38.92383916666667, "fusion_lon": 0.0, "is_disabled": 0}, {"rental_uris": {"android": "https://dc.lft.to/lastmile_qr_scan", "ios": "https://dc.lft.to/lastmile_qr_scan"}, "type": "electric_scooter", "lon": -77.02226866666666, "name": "b9de7959172bf712688b84687de0190e", "bike_id": "b9de7959172bf712688b84687de0190e", "fusion_lat": 0.0, "is_reserved": 0, "lat": 38.91361933333334, "fusion_lon": 0.0, "is_disabled": 0}, {"rental_uris": {"android": "https://dc.lft.to/lastmile_qr_scan", "ios": "https://dc.lft.to/lastmile_qr_scan"}, "type": "electric_scooter", "lon": -77.0044695, "name": "db59d3080809a468c7875e17cd6e61b9", "bike_id": "db59d3080809a468c7875e17cd6e61b9", "fusion_lat": 0.0, "is_reserved": 0, "lat": 38.92890933333334, "fusion_lon": 0.0, "is_disabled": 0}, {"rental_uris": {"android": "https://dc.lft.to/lastmile_qr_scan", "ios": "https://dc.lft.to/lastmile_qr_scan"}, "type": "electric_scooter", "lon": -77.04976083333334, "name": "60341986493db3ffc5e006cc09ac369d", "bike_id": "60341986493db3ffc5e006cc09ac369d", "fusion_lat": 0.0, "is_reserved": 0, "lat": 38.90094066666666, "fusion_lon": 0.0, "is_disabled": 0}, {"rental_uris": {"android": "https://dc.lft.to/lastmile_qr_scan", "ios": "https://dc.lft.to/lastmile_qr_scan"}, "type": "electric_scooter", "lon": -77.03951583333334, "name": "4baea8596fb170f8b22e68ef6f5e4cdf", "bike_id": "4baea8596fb170f8b22e68ef6f5e4cdf", "fusion_lat": 0.0, "is_reserved": 0, "lat": 38.904230166666665, "fusion_lon": 0.0, "is_disabled": 0}, {"rental_uris": {"android": "https://dc.lft.to/lastmile_qr_scan", "ios": "https://dc.lft.to/lastmile_qr_scan"}, "type": "electric_bike", "lon": -77.00612566666666, "name": "4235b4ffa5fcc0a08babcab176b48623", "bike_id": "4235b4ffa5fcc0a08babcab176b48623", "fusion_lat": 0.0, "is_reserved": 0, "lat": 38.8762565, "fusion_lon": 0.0, "is_disabled": 0}, {"rental_uris": {"android": "https://dc.lft.to/lastmile_qr_scan", "ios": "https://dc.lft.to/lastmile_qr_scan"}, "type": "electric_scooter", "lon": -77.04649416666666, "name": "1cde9d64f64f5ab473510a103c85d48a", "bike_id": "1cde9d64f64f5ab473510a103c85d48a", "fusion_lat": 0.0, "is_reserved": 0, "lat": 38.904890333333334, "fusion_lon": 0.0, "is_disabled": 0}, {"rental_uris": {"android": "https://dc.lft.to/lastmile_qr_scan", "ios": "https://dc.lft.to/lastmile_qr_scan"}, "type": "electric_scooter", "lon": -77.02725283333334, "name": "c151a2f2887a25634579fa7fdd31defb", "bike_id": "c151a2f2887a25634579fa7fdd31defb", "fusion_lat": 0.0, "is_reserved": 0, "lat": 38.9340005, "fusion_lon": 0.0, "is_disabled": 0}, {"rental_uris": {"android": "https://dc.lft.to/lastmile_qr_scan", "ios": "https://dc.lft.to/lastmile_qr_scan"}, "type": "electric_scooter", "lon": -77.0426775, "name": "6f69f002d37b0d36e014dc60146b9c45", "bike_id": "6f69f002d37b0d36e014dc60146b9c45", "fusion_lat": 0.0, "is_reserved": 0, "lat": 38.922437333333335, "fusion_lon": 0.0, "is_disabled": 0}, {"rental_uris": {"android": "https://dc.lft.to/lastmile_qr_scan", "ios": "https://dc.lft.to/lastmile_qr_scan"}, "type": "electric_scooter", "lon": -77.03385366666667, "name": "d47b3c4207f7b6d5c7d53eb8c3b41a03", "bike_id": "d47b3c4207f7b6d5c7d53eb8c3b41a03", "fusion_lat": 0.0, "is_reserved": 0, "lat": 38.92160466666667, "fusion_lon": 0.0, "is_disabled": 0}, {"rental_uris": {"android": "https://dc.lft.to/lastmile_qr_scan", "ios": "https://dc.lft.to/lastmile_qr_scan"}, "type": "electric_scooter", "lon": -77.03277416666667, "name": "d26cecebd31130fcbde1f74896eb25f4", "bike_id": "d26cecebd31130fcbde1f74896eb25f4", "fusion_lat": 0.0, "is_reserved": 0, "lat": 38.93991416666667, "fusion_lon": 0.0, "is_disabled": 0}, {"rental_uris": {"android": "https://dc.lft.to/lastmile_qr_scan", "ios": "https://dc.lft.to/lastmile_qr_scan"}, "type": "electric_scooter", "lon": -77.047101, "name": "65b63a22264e2b888d230634944f133c", "bike_id": "65b63a22264e2b888d230634944f133c", "fusion_lat": 0.0, "is_reserved": 0, "lat": 38.9125875, "fusion_lon": 0.0, "is_disabled": 0}, {"rental_uris": {"android": "https://dc.lft.to/lastmile_qr_scan", "ios": "https://dc.lft.to/lastmile_qr_scan"}, "type": "electric_bike", "lon": -77.02424, "name": "89f8a495c02a02b2f240090322837ba7", "bike_id": "89f8a495c02a02b2f240090322837ba7", "fusion_lat": 0.0, "is_reserved": 0, "lat": 38.926096666666666, "fusion_lon": 0.0, "is_disabled": 0}, {"rental_uris": {"android": "https://dc.lft.to/lastmile_qr_scan", "ios": "https://dc.lft.to/lastmile_qr_scan"}, "type": "electric_scooter", "lon": -77.02582433333333, "name": "b04a541fb87d8fb2f53ddb888e0f90a0", "bike_id": "b04a541fb87d8fb2f53ddb888e0f90a0", "fusion_lat": 0.0, "is_reserved": 0, "lat": 38.904815, "fusion_lon": 0.0, "is_disabled": 0}, {"rental_uris": {"android": "https://dc.lft.to/lastmile_qr_scan", "ios": "https://dc.lft.to/lastmile_qr_scan"}, "type": "electric_scooter", "lon": -77.092122, "name": "c5fbcb8bac99e65a33a386f486695403", "bike_id": "c5fbcb8bac99e65a33a386f486695403", "fusion_lat": 0.0, "is_reserved": 0, "lat": 38.91713933333333, "fusion_lon": 0.0, "is_disabled": 0}, {"rental_uris": {"android": "https://dc.lft.to/lastmile_qr_scan", "ios": "https://dc.lft.to/lastmile_qr_scan"}, "type": "electric_scooter", "lon": -77.03201733333333, "name": "4819f2a660b7025056f12d1f5293b7b6", "bike_id": "4819f2a660b7025056f12d1f5293b7b6", "fusion_lat": 0.0, "is_reserved": 0, "lat": 38.90916383333333, "fusion_lon": 0.0, "is_disabled": 0}, {"rental_uris": {"android": "https://dc.lft.to/lastmile_qr_scan", "ios": "https://dc.lft.to/lastmile_qr_scan"}, "type": "electric_scooter", "lon": -77.05285766666667, "name": "a55a67a5715dc0e4f5ead8221f24048f", "bike_id": "a55a67a5715dc0e4f5ead8221f24048f", "fusion_lat": 0.0, "is_reserved": 0, "lat": 38.898725166666665, "fusion_lon": 0.0, "is_disabled": 0}, {"rental_uris": {"android": "https://dc.lft.to/lastmile_qr_scan", "ios": "https://dc.lft.to/lastmile_qr_scan"}, "type": "electric_scooter", "lon": -76.99686333333334, "name": "fc9d76ff7ff27ee2248f1e50038232f9", "bike_id": "fc9d76ff7ff27ee2248f1e50038232f9", "fusion_lat": 0.0, "is_reserved": 0, "lat": 38.87661216666667, "fusion_lon": 0.0, "is_disabled": 0}, {"rental_uris": {"android": "https://dc.lft.to/lastmile_qr_scan", "ios": "https://dc.lft.to/lastmile_qr_scan"}, "type": "electric_scooter", "lon": -77.03882016666667, "name": "773cba91d6b724c0baa4572be57f467d", "bike_id": "773cba91d6b724c0baa4572be57f467d", "fusion_lat": 0.0, "is_reserved": 0, "lat": 38.933685833333335, "fusion_lon": 0.0, "is_disabled": 0}, {"rental_uris": {"android": "https://dc.lft.to/lastmile_qr_scan", "ios": "https://dc.lft.to/lastmile_qr_scan"}, "type": "electric_scooter", "lon": -77.007816, "name": "467528810eebf8436944502b7568eaee", "bike_id": "467528810eebf8436944502b7568eaee", "fusion_lat": 0.0, "is_reserved": 0, "lat": 38.878481, "fusion_lon": 0.0, "is_disabled": 0}, {"rental_uris": {"android": "https://dc.lft.to/lastmile_qr_scan", "ios": "https://dc.lft.to/lastmile_qr_scan"}, "type": "electric_scooter", "lon": -77.03893266666667, "name": "0f7057c778a4089d403faed1aa98cc70", "bike_id": "0f7057c778a4089d403faed1aa98cc70", "fusion_lat": 0.0, "is_reserved": 0, "lat": 38.90480216666667, "fusion_lon": 0.0, "is_disabled": 0}, {"rental_uris": {"android": "https://dc.lft.to/lastmile_qr_scan", "ios": "https://dc.lft.to/lastmile_qr_scan"}, "type": "electric_bike", "lon": -77.0164705, "name": "a8f9a78f0c3dbe68b4e79a42028d7b52", "bike_id": "a8f9a78f0c3dbe68b4e79a42028d7b52", "fusion_lat": 0.0, "is_reserved": 0, "lat": 38.881094833333336, "fusion_lon": 0.0, "is_disabled": 0}, {"rental_uris": {"android": "https://dc.lft.to/lastmile_qr_scan", "ios": "https://dc.lft.to/lastmile_qr_scan"}, "type": "electric_scooter", "lon": -77.02093733333334, "name": "9f6009b54723b3a5a270a0a9153aee84", "bike_id": "9f6009b54723b3a5a270a0a9153aee84", "fusion_lat": 0.0, "is_reserved": 0, "lat": 38.910054333333335, "fusion_lon": 0.0, "is_disabled": 0}, {"rental_uris": {"android": "https://dc.lft.to/lastmile_qr_scan", "ios": "https://dc.lft.to/lastmile_qr_scan"}, "type": "electric_bike", "lon": -76.9801095, "name": "97f46fd103d54b98b7797a0dc29adb1b", "bike_id": "97f46fd103d54b98b7797a0dc29adb1b", "fusion_lat": 0.0, "is_reserved": 0, "lat": 38.902533, "fusion_lon": 0.0, "is_disabled": 0}, {"rental_uris": {"android": "https://dc.lft.to/lastmile_qr_scan", "ios": "https://dc.lft.to/lastmile_qr_scan"}, "type": "electric_bike", "lon": -77.043045, "name": "98c4af7ebad71ee2783e11cd55092a8f", "bike_id": "98c4af7ebad71ee2783e11cd55092a8f", "fusion_lat": 0.0, "is_reserved": 0, "lat": 39.0544425, "fusion_lon": 0.0, "is_disabled": 0}, {"rental_uris": {"android": "https://dc.lft.to/lastmile_qr_scan", "ios": "https://dc.lft.to/lastmile_qr_scan"}, "type": "electric_scooter", "lon": -77.02707533333333, "name": "9689d003b976fdec580e82a1cee4afc1", "bike_id": "9689d003b976fdec580e82a1cee4afc1", "fusion_lat": 0.0, "is_reserved": 0, "lat": 38.950009666666666, "fusion_lon": 0.0, "is_disabled": 0}, {"rental_uris": {"android": "https://dc.lft.to/lastmile_qr_scan", "ios": "https://dc.lft.to/lastmile_qr_scan"}, "type": "electric_scooter", "lon": -77.032153, "name": "32d64d4b2614fa2e5433b1d59c339f76", "bike_id": "32d64d4b2614fa2e5433b1d59c339f76", "fusion_lat": 0.0, "is_reserved": 0, "lat": 38.9028045, "fusion_lon": 0.0, "is_disabled": 0}, {"rental_uris": {"android": "https://dc.lft.to/lastmile_qr_scan", "ios": "https://dc.lft.to/lastmile_qr_scan"}, "type": "electric_scooter", "lon": -77.08211383333334, "name": "5568a678c0c43ac800e97183a99a7557", "bike_id": "5568a678c0c43ac800e97183a99a7557", "fusion_lat": 0.0, "is_reserved": 0, "lat": 38.93557833333333, "fusion_lon": 0.0, "is_disabled": 0}, {"rental_uris": {"android": "https://dc.lft.to/lastmile_qr_scan", "ios": "https://dc.lft.to/lastmile_qr_scan"}, "type": "electric_scooter", "lon": -77.015242, "name": "c1757d3961bd5c48d324c754b6dcebca", "bike_id": "c1757d3961bd5c48d324c754b6dcebca", "fusion_lat": 0.0, "is_reserved": 0, "lat": 38.913571833333336, "fusion_lon": 0.0, "is_disabled": 0}, {"rental_uris": {"android": "https://dc.lft.to/lastmile_qr_scan", "ios": "https://dc.lft.to/lastmile_qr_scan"}, "type": "electric_scooter", "lon": -77.05001466666667, "name": "38d7f9253dca621a8accd8ab57f578ac", "bike_id": "38d7f9253dca621a8accd8ab57f578ac", "fusion_lat": 0.0, "is_reserved": 0, "lat": 38.89903433333333, "fusion_lon": 0.0, "is_disabled": 0}, {"rental_uris": {"android": "https://dc.lft.to/lastmile_qr_scan", "ios": "https://dc.lft.to/lastmile_qr_scan"}, "type": "electric_bike", "lon": -77.178397, "name": "bd7051cd72fd72b31cc6b2d1dde5d878", "bike_id": "bd7051cd72fd72b31cc6b2d1dde5d878", "fusion_lat": 0.0, "is_reserved": 0, "lat": 39.088995833333335, "fusion_lon": 0.0, "is_disabled": 0}, {"rental_uris": {"android": "https://dc.lft.to/lastmile_qr_scan", "ios": "https://dc.lft.to/lastmile_qr_scan"}, "type": "electric_scooter", "lon": -77.02282533333333, "name": "5d8755d818dcaa643401469d7a7b28b9", "bike_id": "5d8755d818dcaa643401469d7a7b28b9", "fusion_lat": 0.0, "is_reserved": 0, "lat": 38.9242085, "fusion_lon": 0.0, "is_disabled": 0}, {"rental_uris": {"android": "https://dc.lft.to/lastmile_qr_scan", "ios": "https://dc.lft.to/lastmile_qr_scan"}, "type": "electric_scooter", "lon": -77.0240745, "name": "90f1dab5ac9a620decb8e684afe481ac", "bike_id": "90f1dab5ac9a620decb8e684afe481ac", "fusion_lat": 0.0, "is_reserved": 0, "lat": 38.91341883333333, "fusion_lon": 0.0, "is_disabled": 0}, {"rental_uris": {"android": "https://dc.lft.to/lastmile_qr_scan", "ios": "https://dc.lft.to/lastmile_qr_scan"}, "type": "electric_scooter", "lon": -76.99477716666667, "name": "5a91ee9cdc2b15ac788e56a0073b0284", "bike_id": "5a91ee9cdc2b15ac788e56a0073b0284", "fusion_lat": 0.0, "is_reserved": 0, "lat": 38.88870383333333, "fusion_lon": 0.0, "is_disabled": 0}, {"rental_uris": {"android": "https://dc.lft.to/lastmile_qr_scan", "ios": "https://dc.lft.to/lastmile_qr_scan"}, "type": "electric_scooter", "lon": -77.02713783333333, "name": "5f5f4b6685a66daea8cf7c791c3dad83", "bike_id": "5f5f4b6685a66daea8cf7c791c3dad83", "fusion_lat": 0.0, "is_reserved": 0, "lat": 38.90670716666666, "fusion_lon": 0.0, "is_disabled": 0}, {"rental_uris": {"android": "https://dc.lft.to/lastmile_qr_scan", "ios": "https://dc.lft.to/lastmile_qr_scan"}, "type": "electric_scooter", "lon": -76.983356, "name": "d42b2df70772784180bbab0c8ec89990", "bike_id": "d42b2df70772784180bbab0c8ec89990", "fusion_lat": 0.0, "is_reserved": 0, "lat": 38.86251883333333, "fusion_lon": 0.0, "is_disabled": 0}, {"rental_uris": {"android": "https://dc.lft.to/lastmile_qr_scan", "ios": "https://dc.lft.to/lastmile_qr_scan"}, "type": "electric_scooter", "lon": -77.02711733333334, "name": "8a22a346dd2c931f69cbf6e3717447be", "bike_id": "8a22a346dd2c931f69cbf6e3717447be", "fusion_lat": 0.0, "is_reserved": 0, "lat": 38.92467283333333, "fusion_lon": 0.0, "is_disabled": 0}, {"rental_uris": {"android": "https://dc.lft.to/lastmile_qr_scan", "ios": "https://dc.lft.to/lastmile_qr_scan"}, "type": "electric_scooter", "lon": -77.01603416666667, "name": "92755e6ce22524d7a2723be33923d52b", "bike_id": "92755e6ce22524d7a2723be33923d52b", "fusion_lat": 0.0, "is_reserved": 0, "lat": 38.9175795, "fusion_lon": 0.0, "is_disabled": 0}, {"rental_uris": {"android": "https://dc.lft.to/lastmile_qr_scan", "ios": "https://dc.lft.to/lastmile_qr_scan"}, "type": "electric_scooter", "lon": -77.03130816666666, "name": "e67ef301a164e480a0539964bc462a91", "bike_id": "e67ef301a164e480a0539964bc462a91", "fusion_lat": 0.0, "is_reserved": 0, "lat": 38.9237715, "fusion_lon": 0.0, "is_disabled": 0}, {"rental_uris": {"android": "https://dc.lft.to/lastmile_qr_scan", "ios": "https://dc.lft.to/lastmile_qr_scan"}, "type": "electric_scooter", "lon": -76.98751883333334, "name": "977aa3c4495bbca6ee6c361447f7e26b", "bike_id": "977aa3c4495bbca6ee6c361447f7e26b", "fusion_lat": 0.0, "is_reserved": 0, "lat": 38.908034666666666, "fusion_lon": 0.0, "is_disabled": 0}, {"rental_uris": {"android": "https://dc.lft.to/lastmile_qr_scan", "ios": "https://dc.lft.to/lastmile_qr_scan"}, "type": "electric_scooter", "lon": -76.99946933333334, "name": "9f646ae2b21a4a5e09ae407e1dfa0f44", "bike_id": "9f646ae2b21a4a5e09ae407e1dfa0f44", "fusion_lat": 0.0, "is_reserved": 0, "lat": 38.84294933333334, "fusion_lon": 0.0, "is_disabled": 0}, {"rental_uris": {"android": "https://dc.lft.to/lastmile_qr_scan", "ios": "https://dc.lft.to/lastmile_qr_scan"}, "type": "electric_bike", "lon": -77.07797833333333, "name": "c746b14772be5e08002669c7e5eead39", "bike_id": "c746b14772be5e08002669c7e5eead39", "fusion_lat": 0.0, "is_reserved": 0, "lat": 38.845171666666666, "fusion_lon": 0.0, "is_disabled": 0}, {"rental_uris": {"android": "https://dc.lft.to/lastmile_qr_scan", "ios": "https://dc.lft.to/lastmile_qr_scan"}, "type": "electric_scooter", "lon": -77.01588216666667, "name": "b845889d9a56fa722868efb4a42407d6", "bike_id": "b845889d9a56fa722868efb4a42407d6", "fusion_lat": 0.0, "is_reserved": 0, "lat": 38.916776, "fusion_lon": 0.0, "is_disabled": 0}, {"rental_uris": {"android": "https://dc.lft.to/lastmile_qr_scan", "ios": "https://dc.lft.to/lastmile_qr_scan"}, "type": "electric_scooter", "lon": -77.02376133333334, "name": "754c1af8a31ae32fe892ee598840db78", "bike_id": "754c1af8a31ae32fe892ee598840db78", "fusion_lat": 0.0, "is_reserved": 0, "lat": 38.9207585, "fusion_lon": 0.0, "is_disabled": 0}, {"rental_uris": {"android": "https://dc.lft.to/lastmile_qr_scan", "ios": "https://dc.lft.to/lastmile_qr_scan"}, "type": "electric_scooter", "lon": -77.03148066666667, "name": "3be42961a3998b74baf129f679afe18f", "bike_id": "3be42961a3998b74baf129f679afe18f", "fusion_lat": 0.0, "is_reserved": 0, "lat": 38.89741883333333, "fusion_lon": 0.0, "is_disabled": 0}, {"rental_uris": {"android": "https://dc.lft.to/lastmile_qr_scan", "ios": "https://dc.lft.to/lastmile_qr_scan"}, "type": "electric_scooter", "lon": -76.99176033333333, "name": "dc707d5ea5c37b290cbd179f8937d248", "bike_id": "dc707d5ea5c37b290cbd179f8937d248", "fusion_lat": 0.0, "is_reserved": 0, "lat": 38.895374333333336, "fusion_lon": 0.0, "is_disabled": 0}, {"rental_uris": {"android": "https://dc.lft.to/lastmile_qr_scan", "ios": "https://dc.lft.to/lastmile_qr_scan"}, "type": "electric_scooter", "lon": -77.00758766666667, "name": "668c7f38c435bac87fc402900f38b4c7", "bike_id": "668c7f38c435bac87fc402900f38b4c7", "fusion_lat": 0.0, "is_reserved": 0, "lat": 38.900596166666666, "fusion_lon": 0.0, "is_disabled": 0}, {"rental_uris": {"android": "https://dc.lft.to/lastmile_qr_scan", "ios": "https://dc.lft.to/lastmile_qr_scan"}, "type": "electric_scooter", "lon": -77.04865416666667, "name": "524907b3fbcc3ff4c43afda171e30ded", "bike_id": "524907b3fbcc3ff4c43afda171e30ded", "fusion_lat": 0.0, "is_reserved": 0, "lat": 38.9097835, "fusion_lon": 0.0, "is_disabled": 0}, {"rental_uris": {"android": "https://dc.lft.to/lastmile_qr_scan", "ios": "https://dc.lft.to/lastmile_qr_scan"}, "type": "electric_scooter", "lon": -77.03176383333333, "name": "e1a4aa2677cdd2641224f1ab082f8c49", "bike_id": "e1a4aa2677cdd2641224f1ab082f8c49", "fusion_lat": 0.0, "is_reserved": 0, "lat": 38.8866355, "fusion_lon": 0.0, "is_disabled": 0}, {"rental_uris": {"android": "https://dc.lft.to/lastmile_qr_scan", "ios": "https://dc.lft.to/lastmile_qr_scan"}, "type": "electric_bike", "lon": -77.001862, "name": "e7565c1eede27c552eef41d4fb53a0f0", "bike_id": "e7565c1eede27c552eef41d4fb53a0f0", "fusion_lat": 0.0, "is_reserved": 0, "lat": 38.89742833333333, "fusion_lon": 0.0, "is_disabled": 0}, {"rental_uris": {"android": "https://dc.lft.to/lastmile_qr_scan", "ios": "https://dc.lft.to/lastmile_qr_scan"}, "type": "electric_scooter", "lon": -77.0155385, "name": "e9059bf3bd9ff29aa75cd86e1dbb9802", "bike_id": "e9059bf3bd9ff29aa75cd86e1dbb9802", "fusion_lat": 0.0, "is_reserved": 0, "lat": 38.913764666666665, "fusion_lon": 0.0, "is_disabled": 0}, {"rental_uris": {"android": "https://dc.lft.to/lastmile_qr_scan", "ios": "https://dc.lft.to/lastmile_qr_scan"}, "type": "electric_scooter", "lon": -77.01167516666666, "name": "a133492564bdd854756c1a4af293dc17", "bike_id": "a133492564bdd854756c1a4af293dc17", "fusion_lat": 0.0, "is_reserved": 0, "lat": 38.900287666666664, "fusion_lon": 0.0, "is_disabled": 0}, {"rental_uris": {"android": "https://dc.lft.to/lastmile_qr_scan", "ios": "https://dc.lft.to/lastmile_qr_scan"}, "type": "electric_scooter", "lon": -77.03176116666667, "name": "7055bbc5a296ab1d96e44b5aed27ad79", "bike_id": "7055bbc5a296ab1d96e44b5aed27ad79", "fusion_lat": 0.0, "is_reserved": 0, "lat": 38.90069066666667, "fusion_lon": 0.0, "is_disabled": 0}, {"rental_uris": {"android": "https://dc.lft.to/lastmile_qr_scan", "ios": "https://dc.lft.to/lastmile_qr_scan"}, "type": "electric_scooter", "lon": -77.02955783333333, "name": "f7b1b45136be8324e7dfde7f10e9091f", "bike_id": "f7b1b45136be8324e7dfde7f10e9091f", "fusion_lat": 0.0, "is_reserved": 0, "lat": 38.90667766666667, "fusion_lon": 0.0, "is_disabled": 0}, {"rental_uris": {"android": "https://dc.lft.to/lastmile_qr_scan", "ios": "https://dc.lft.to/lastmile_qr_scan"}, "type": "electric_scooter", "lon": -77.0237135, "name": "5ec8d36b83289d1edbe54759a4b46dca", "bike_id": "5ec8d36b83289d1edbe54759a4b46dca", "fusion_lat": 0.0, "is_reserved": 0, "lat": 38.91785483333334, "fusion_lon": 0.0, "is_disabled": 0}, {"rental_uris": {"android": "https://dc.lft.to/lastmile_qr_scan", "ios": "https://dc.lft.to/lastmile_qr_scan"}, "type": "electric_scooter", "lon": -77.036851, "name": "145f9f5e5c4372f6de907aa9ca5903c1", "bike_id": "145f9f5e5c4372f6de907aa9ca5903c1", "fusion_lat": 0.0, "is_reserved": 0, "lat": 38.91678783333333, "fusion_lon": 0.0, "is_disabled": 0}, {"rental_uris": {"android": "https://dc.lft.to/lastmile_qr_scan", "ios": "https://dc.lft.to/lastmile_qr_scan"}, "type": "electric_scooter", "lon": -77.001935, "name": "92ac06cbf5e81bc53ff485287ef391a7", "bike_id": "92ac06cbf5e81bc53ff485287ef391a7", "fusion_lat": 0.0, "is_reserved": 0, "lat": 38.914333166666665, "fusion_lon": 0.0, "is_disabled": 0}, {"rental_uris": {"android": "https://dc.lft.to/lastmile_qr_scan", "ios": "https://dc.lft.to/lastmile_qr_scan"}, "type": "electric_scooter", "lon": -77.03211566666667, "name": "426455b8b38e93b005c52acdead36250", "bike_id": "426455b8b38e93b005c52acdead36250", "fusion_lat": 0.0, "is_reserved": 0, "lat": 38.90766166666667, "fusion_lon": 0.0, "is_disabled": 0}, {"rental_uris": {"android": "https://dc.lft.to/lastmile_qr_scan", "ios": "https://dc.lft.to/lastmile_qr_scan"}, "type": "electric_scooter", "lon": -77.0121085, "name": "444b0d7537d9e663f24a5bd097091c81", "bike_id": "444b0d7537d9e663f24a5bd097091c81", "fusion_lat": 0.0, "is_reserved": 0, "lat": 38.913087833333336, "fusion_lon": 0.0, "is_disabled": 0}, {"rental_uris": {"android": "https://dc.lft.to/lastmile_qr_scan", "ios": "https://dc.lft.to/lastmile_qr_scan"}, "type": "electric_scooter", "lon": -77.03309783333333, "name": "678535ddb55f3a9e6dad8d912f37b86e", "bike_id": "678535ddb55f3a9e6dad8d912f37b86e", "fusion_lat": 0.0, "is_reserved": 0, "lat": 38.8986145, "fusion_lon": 0.0, "is_disabled": 0}, {"rental_uris": {"android": "https://dc.lft.to/lastmile_qr_scan", "ios": "https://dc.lft.to/lastmile_qr_scan"}, "type": "electric_bike", "lon": -77.07152233333333, "name": "adcb0aec4eb8f3dd0e0945804a9be46e", "bike_id": "adcb0aec4eb8f3dd0e0945804a9be46e", "fusion_lat": 0.0, "is_reserved": 0, "lat": 38.93343133333333, "fusion_lon": 0.0, "is_disabled": 0}, {"rental_uris": {"android": "https://dc.lft.to/lastmile_qr_scan", "ios": "https://dc.lft.to/lastmile_qr_scan"}, "type": "electric_scooter", "lon": -76.9832475, "name": "06726442b6ef936c53e7c00a9da7ba8d", "bike_id": "06726442b6ef936c53e7c00a9da7ba8d", "fusion_lat": 0.0, "is_reserved": 0, "lat": 38.9074605, "fusion_lon": 0.0, "is_disabled": 0}, {"rental_uris": {"android": "https://dc.lft.to/lastmile_qr_scan", "ios": "https://dc.lft.to/lastmile_qr_scan"}, "type": "electric_scooter", "lon": -77.03797116666667, "name": "7d713291191ded18c9ae97e287f431cf", "bike_id": "7d713291191ded18c9ae97e287f431cf", "fusion_lat": 0.0, "is_reserved": 0, "lat": 38.93016, "fusion_lon": 0.0, "is_disabled": 0}, {"rental_uris": {"android": "https://dc.lft.to/lastmile_qr_scan", "ios": "https://dc.lft.to/lastmile_qr_scan"}, "type": "electric_scooter", "lon": -77.0328715, "name": "36fcd68048e4efe54c48324e4374c1b4", "bike_id": "36fcd68048e4efe54c48324e4374c1b4", "fusion_lat": 0.0, "is_reserved": 0, "lat": 38.92750516666667, "fusion_lon": 0.0, "is_disabled": 0}, {"rental_uris": {"android": "https://dc.lft.to/lastmile_qr_scan", "ios": "https://dc.lft.to/lastmile_qr_scan"}, "type": "electric_scooter", "lon": -76.98325716666666, "name": "5b98f60d20ab65fa71ef50de697e2bc7", "bike_id": "5b98f60d20ab65fa71ef50de697e2bc7", "fusion_lat": 0.0, "is_reserved": 0, "lat": 38.861716666666666, "fusion_lon": 0.0, "is_disabled": 0}, {"rental_uris": {"android": "https://dc.lft.to/lastmile_qr_scan", "ios": "https://dc.lft.to/lastmile_qr_scan"}, "type": "electric_scooter", "lon": -76.96503983333334, "name": "7b7e91847040902a1d517f0a2deb3e3c", "bike_id": "7b7e91847040902a1d517f0a2deb3e3c", "fusion_lat": 0.0, "is_reserved": 0, "lat": 38.87646633333333, "fusion_lon": 0.0, "is_disabled": 0}, {"rental_uris": {"android": "https://dc.lft.to/lastmile_qr_scan", "ios": "https://dc.lft.to/lastmile_qr_scan"}, "type": "electric_bike", "lon": -76.9683265, "name": "9c0607b3a07c2403652f01644c98fafb", "bike_id": "9c0607b3a07c2403652f01644c98fafb", "fusion_lat": 0.0, "is_reserved": 0, "lat": 38.92447766666667, "fusion_lon": 0.0, "is_disabled": 0}, {"rental_uris": {"android": "https://dc.lft.to/lastmile_qr_scan", "ios": "https://dc.lft.to/lastmile_qr_scan"}, "type": "electric_bike", "lon": -76.92996016666666, "name": "bc7a0acdde61ec20e6299c9f2d6544be", "bike_id": "bc7a0acdde61ec20e6299c9f2d6544be", "fusion_lat": 0.0, "is_reserved": 0, "lat": 38.8879825, "fusion_lon": 0.0, "is_disabled": 0}, {"rental_uris": {"android": "https://dc.lft.to/lastmile_qr_scan", "ios": "https://dc.lft.to/lastmile_qr_scan"}, "type": "electric_scooter", "lon": -77.04711766666667, "name": "29edf4f653494dee32a2b3c3efdfab5f", "bike_id": "29edf4f653494dee32a2b3c3efdfab5f", "fusion_lat": 0.0, "is_reserved": 0, "lat": 38.899698, "fusion_lon": 0.0, "is_disabled": 0}, {"rental_uris": {"android": "https://dc.lft.to/lastmile_qr_scan", "ios": "https://dc.lft.to/lastmile_qr_scan"}, "type": "electric_scooter", "lon": -77.07263883333333, "name": "1c8a8431cc8a174c253c254b64d2092a", "bike_id": "1c8a8431cc8a174c253c254b64d2092a", "fusion_lat": 0.0, "is_reserved": 0, "lat": 38.93479033333333, "fusion_lon": 0.0, "is_disabled": 0}, {"rental_uris": {"android": "https://dc.lft.to/lastmile_qr_scan", "ios": "https://dc.lft.to/lastmile_qr_scan"}, "type": "electric_scooter", "lon": -77.02799566666667, "name": "2029d047b7f61df54ed0b0f98abd2b8b", "bike_id": "2029d047b7f61df54ed0b0f98abd2b8b", "fusion_lat": 0.0, "is_reserved": 0, "lat": 38.90002483333333, "fusion_lon": 0.0, "is_disabled": 0}, {"rental_uris": {"android": "https://dc.lft.to/lastmile_qr_scan", "ios": "https://dc.lft.to/lastmile_qr_scan"}, "type": "electric_bike", "lon": -77.15265683333334, "name": "176285eb8589930aa3817a838b2d2d0d", "bike_id": "176285eb8589930aa3817a838b2d2d0d", "fusion_lat": 0.0, "is_reserved": 0, "lat": 39.105662, "fusion_lon": 0.0, "is_disabled": 0}, {"rental_uris": {"android": "https://dc.lft.to/lastmile_qr_scan", "ios": "https://dc.lft.to/lastmile_qr_scan"}, "type": "electric_scooter", "lon": -77.07059783333334, "name": "f57124824e9a2ab36ef728ce41186d05", "bike_id": "f57124824e9a2ab36ef728ce41186d05", "fusion_lat": 0.0, "is_reserved": 0, "lat": 38.91936283333333, "fusion_lon": 0.0, "is_disabled": 0}, {"rental_uris": {"android": "https://dc.lft.to/lastmile_qr_scan", "ios": "https://dc.lft.to/lastmile_qr_scan"}, "type": "electric_scooter", "lon": -77.03453066666667, "name": "0f4a361fcfa3dcf65f7a3eca5e97d94a", "bike_id": "0f4a361fcfa3dcf65f7a3eca5e97d94a", "fusion_lat": 0.0, "is_reserved": 0, "lat": 38.9058445, "fusion_lon": 0.0, "is_disabled": 0}, {"rental_uris": {"android": "https://dc.lft.to/lastmile_qr_scan", "ios": "https://dc.lft.to/lastmile_qr_scan"}, "type": "electric_scooter", "lon": -76.99730483333333, "name": "878e8f453b5c39188f3b5c80cffa2adb", "bike_id": "878e8f453b5c39188f3b5c80cffa2adb", "fusion_lat": 0.0, "is_reserved": 0, "lat": 38.907940833333335, "fusion_lon": 0.0, "is_disabled": 0}, {"rental_uris": {"android": "https://dc.lft.to/lastmile_qr_scan", "ios": "https://dc.lft.to/lastmile_qr_scan"}, "type": "electric_scooter", "lon": -77.03437733333334, "name": "e5b0f5fd1d1d299bcc2713d90d8cce9e", "bike_id": "e5b0f5fd1d1d299bcc2713d90d8cce9e", "fusion_lat": 0.0, "is_reserved": 0, "lat": 38.9179955, "fusion_lon": 0.0, "is_disabled": 0}, {"rental_uris": {"android": "https://dc.lft.to/lastmile_qr_scan", "ios": "https://dc.lft.to/lastmile_qr_scan"}, "type": "electric_scooter", "lon": -76.9976285, "name": "34d08381acd695e46b4eb759b3834fb5", "bike_id": "34d08381acd695e46b4eb759b3834fb5", "fusion_lat": 0.0, "is_reserved": 0, "lat": 38.92283883333333, "fusion_lon": 0.0, "is_disabled": 0}, {"rental_uris": {"android": "https://dc.lft.to/lastmile_qr_scan", "ios": "https://dc.lft.to/lastmile_qr_scan"}, "type": "electric_scooter", "lon": -76.98133033333333, "name": "89973d1a240640a29379b9c0df26c624", "bike_id": "89973d1a240640a29379b9c0df26c624", "fusion_lat": 0.0, "is_reserved": 0, "lat": 38.8842005, "fusion_lon": 0.0, "is_disabled": 0}, {"rental_uris": {"android": "https://dc.lft.to/lastmile_qr_scan", "ios": "https://dc.lft.to/lastmile_qr_scan"}, "type": "electric_scooter", "lon": -76.9948565, "name": "95780cd81c0f9853608c41b8d55e06c6", "bike_id": "95780cd81c0f9853608c41b8d55e06c6", "fusion_lat": 0.0, "is_reserved": 0, "lat": 38.87695516666667, "fusion_lon": 0.0, "is_disabled": 0}, {"rental_uris": {"android": "https://dc.lft.to/lastmile_qr_scan", "ios": "https://dc.lft.to/lastmile_qr_scan"}, "type": "electric_scooter", "lon": -77.02039316666666, "name": "c553dff5ff77c3f4905179b62b55e28d", "bike_id": "c553dff5ff77c3f4905179b62b55e28d", "fusion_lat": 0.0, "is_reserved": 0, "lat": 38.8926205, "fusion_lon": 0.0, "is_disabled": 0}, {"rental_uris": {"android": "https://dc.lft.to/lastmile_qr_scan", "ios": "https://dc.lft.to/lastmile_qr_scan"}, "type": "electric_scooter", "lon": -77.0634545, "name": "b679e641edda69ac6dafc568c6cc6a54", "bike_id": "b679e641edda69ac6dafc568c6cc6a54", "fusion_lat": 0.0, "is_reserved": 0, "lat": 38.9085565, "fusion_lon": 0.0, "is_disabled": 0}, {"rental_uris": {"android": "https://dc.lft.to/lastmile_qr_scan", "ios": "https://dc.lft.to/lastmile_qr_scan"}, "type": "electric_scooter", "lon": -77.01765, "name": "6b34cb5e095834e638710ee5ec8a5ed8", "bike_id": "6b34cb5e095834e638710ee5ec8a5ed8", "fusion_lat": 0.0, "is_reserved": 0, "lat": 38.87298233333333, "fusion_lon": 0.0, "is_disabled": 0}, {"rental_uris": {"android": "https://dc.lft.to/lastmile_qr_scan", "ios": "https://dc.lft.to/lastmile_qr_scan"}, "type": "electric_scooter", "lon": -77.036543, "name": "ea97838c997086ef554ada896b10c0a9", "bike_id": "ea97838c997086ef554ada896b10c0a9", "fusion_lat": 0.0, "is_reserved": 0, "lat": 38.91623083333333, "fusion_lon": 0.0, "is_disabled": 0}, {"rental_uris": {"android": "https://dc.lft.to/lastmile_qr_scan", "ios": "https://dc.lft.to/lastmile_qr_scan"}, "type": "electric_scooter", "lon": -77.02170633333333, "name": "db339fea525169008179e2a31b5f2c11", "bike_id": "db339fea525169008179e2a31b5f2c11", "fusion_lat": 0.0, "is_reserved": 0, "lat": 38.94086333333333, "fusion_lon": 0.0, "is_disabled": 0}, {"rental_uris": {"android": "https://dc.lft.to/lastmile_qr_scan", "ios": "https://dc.lft.to/lastmile_qr_scan"}, "type": "electric_scooter", "lon": -77.02694933333333, "name": "d5e53a8d26bccb9bcac0684374e126ac", "bike_id": "d5e53a8d26bccb9bcac0684374e126ac", "fusion_lat": 0.0, "is_reserved": 0, "lat": 38.91271416666667, "fusion_lon": 0.0, "is_disabled": 0}, {"rental_uris": {"android": "https://dc.lft.to/lastmile_qr_scan", "ios": "https://dc.lft.to/lastmile_qr_scan"}, "type": "electric_scooter", "lon": -76.9995235, "name": "58af8a1de92d2075039d7700e54067d9", "bike_id": "58af8a1de92d2075039d7700e54067d9", "fusion_lat": 0.0, "is_reserved": 0, "lat": 38.908690666666665, "fusion_lon": 0.0, "is_disabled": 0}, {"rental_uris": {"android": "https://dc.lft.to/lastmile_qr_scan", "ios": "https://dc.lft.to/lastmile_qr_scan"}, "type": "electric_bike", "lon": -76.99761783333334, "name": "f9ff96b7ae9f96d9db26f7169dbd838f", "bike_id": "f9ff96b7ae9f96d9db26f7169dbd838f", "fusion_lat": 0.0, "is_reserved": 0, "lat": 39.005918333333334, "fusion_lon": 0.0, "is_disabled": 0}, {"rental_uris": {"android": "https://dc.lft.to/lastmile_qr_scan", "ios": "https://dc.lft.to/lastmile_qr_scan"}, "type": "electric_scooter", "lon": -77.035875, "name": "c20bb9df950fefea219013ca06dca3f8", "bike_id": "c20bb9df950fefea219013ca06dca3f8", "fusion_lat": 0.0, "is_reserved": 0, "lat": 38.9191635, "fusion_lon": 0.0, "is_disabled": 0}, {"rental_uris": {"android": "https://dc.lft.to/lastmile_qr_scan", "ios": "https://dc.lft.to/lastmile_qr_scan"}, "type": "electric_bike", "lon": -77.11424816666667, "name": "c36dbcdea6214ea7738a9292c6450e21", "bike_id": "c36dbcdea6214ea7738a9292c6450e21", "fusion_lat": 0.0, "is_reserved": 0, "lat": 38.852431833333334, "fusion_lon": 0.0, "is_disabled": 0}, {"rental_uris": {"android": "https://dc.lft.to/lastmile_qr_scan", "ios": "https://dc.lft.to/lastmile_qr_scan"}, "type": "electric_scooter", "lon": -76.99486483333334, "name": "5955530d85cb0b9dce3faad2b4dc0097", "bike_id": "5955530d85cb0b9dce3faad2b4dc0097", "fusion_lat": 0.0, "is_reserved": 0, "lat": 38.862458333333336, "fusion_lon": 0.0, "is_disabled": 0}, {"rental_uris": {"android": "https://dc.lft.to/lastmile_qr_scan", "ios": "https://dc.lft.to/lastmile_qr_scan"}, "type": "electric_scooter", "lon": -77.06801166666666, "name": "40d0321b57fb2499ddf385fb9e537b8c", "bike_id": "40d0321b57fb2499ddf385fb9e537b8c", "fusion_lat": 0.0, "is_reserved": 0, "lat": 38.905176, "fusion_lon": 0.0, "is_disabled": 0}, {"rental_uris": {"android": "https://dc.lft.to/lastmile_qr_scan", "ios": "https://dc.lft.to/lastmile_qr_scan"}, "type": "electric_scooter", "lon": -77.03833016666667, "name": "44110ee45c807d2d6456fbd0759ad307", "bike_id": "44110ee45c807d2d6456fbd0759ad307", "fusion_lat": 0.0, "is_reserved": 0, "lat": 38.912180666666664, "fusion_lon": 0.0, "is_disabled": 0}, {"rental_uris": {"android": "https://dc.lft.to/lastmile_qr_scan", "ios": "https://dc.lft.to/lastmile_qr_scan"}, "type": "electric_scooter", "lon": -76.9315725, "name": "04c0e0b108302c86ed27f8f148b3b89e", "bike_id": "04c0e0b108302c86ed27f8f148b3b89e", "fusion_lat": 0.0, "is_reserved": 0, "lat": 38.89882383333333, "fusion_lon": 0.0, "is_disabled": 0}, {"rental_uris": {"android": "https://dc.lft.to/lastmile_qr_scan", "ios": "https://dc.lft.to/lastmile_qr_scan"}, "type": "electric_bike", "lon": -76.8749465, "name": "eaa3794ad64283092da48552d5a9b6b9", "bike_id": "eaa3794ad64283092da48552d5a9b6b9", "fusion_lat": 0.0, "is_reserved": 0, "lat": 38.990917333333336, "fusion_lon": 0.0, "is_disabled": 0}, {"rental_uris": {"android": "https://dc.lft.to/lastmile_qr_scan", "ios": "https://dc.lft.to/lastmile_qr_scan"}, "type": "electric_scooter", "lon": -77.015773, "name": "07778136921e54c7413a5860189d805d", "bike_id": "07778136921e54c7413a5860189d805d", "fusion_lat": 0.0, "is_reserved": 0, "lat": 38.876348166666666, "fusion_lon": 0.0, "is_disabled": 0}, {"rental_uris": {"android": "https://dc.lft.to/lastmile_qr_scan", "ios": "https://dc.lft.to/lastmile_qr_scan"}, "type": "electric_scooter", "lon": -77.000701, "name": "76373eddeda0b3d8b2ee5f447e177135", "bike_id": "76373eddeda0b3d8b2ee5f447e177135", "fusion_lat": 0.0, "is_reserved": 0, "lat": 38.89746816666667, "fusion_lon": 0.0, "is_disabled": 0}, {"rental_uris": {"android": "https://dc.lft.to/lastmile_qr_scan", "ios": "https://dc.lft.to/lastmile_qr_scan"}, "type": "electric_scooter", "lon": -77.0217395, "name": "1bd131acd028cca91b5f1bff94dd6cae", "bike_id": "1bd131acd028cca91b5f1bff94dd6cae", "fusion_lat": 0.0, "is_reserved": 0, "lat": 38.911204166666664, "fusion_lon": 0.0, "is_disabled": 0}, {"rental_uris": {"android": "https://dc.lft.to/lastmile_qr_scan", "ios": "https://dc.lft.to/lastmile_qr_scan"}, "type": "electric_bike", "lon": -77.112191, "name": "ff983bedce58fdce0e8cac5803d72356", "bike_id": "ff983bedce58fdce0e8cac5803d72356", "fusion_lat": 0.0, "is_reserved": 0, "lat": 38.828729, "fusion_lon": 0.0, "is_disabled": 0}, {"rental_uris": {"android": "https://dc.lft.to/lastmile_qr_scan", "ios": "https://dc.lft.to/lastmile_qr_scan"}, "type": "electric_bike", "lon": -76.99561966666667, "name": "af103d28de480691c1b46c12ec2f0df6", "bike_id": "af103d28de480691c1b46c12ec2f0df6", "fusion_lat": 0.0, "is_reserved": 0, "lat": 39.0078585, "fusion_lon": 0.0, "is_disabled": 0}, {"rental_uris": {"android": "https://dc.lft.to/lastmile_qr_scan", "ios": "https://dc.lft.to/lastmile_qr_scan"}, "type": "electric_scooter", "lon": -77.0450335, "name": "9395473c051d34a56f78f6c70d81c834", "bike_id": "9395473c051d34a56f78f6c70d81c834", "fusion_lat": 0.0, "is_reserved": 0, "lat": 38.89226933333333, "fusion_lon": 0.0, "is_disabled": 0}, {"rental_uris": {"android": "https://dc.lft.to/lastmile_qr_scan", "ios": "https://dc.lft.to/lastmile_qr_scan"}, "type": "electric_bike", "lon": -77.09565066666667, "name": "0c79d3ac57e0619e3296ef9d33e980ee", "bike_id": "0c79d3ac57e0619e3296ef9d33e980ee", "fusion_lat": 0.0, "is_reserved": 0, "lat": 38.91705733333333, "fusion_lon": 0.0, "is_disabled": 0}, {"rental_uris": {"android": "https://dc.lft.to/lastmile_qr_scan", "ios": "https://dc.lft.to/lastmile_qr_scan"}, "type": "electric_scooter", "lon": -77.0714615, "name": "2afd1177494945046c3d5daaf1849f18", "bike_id": "2afd1177494945046c3d5daaf1849f18", "fusion_lat": 0.0, "is_reserved": 0, "lat": 38.95849333333334, "fusion_lon": 0.0, "is_disabled": 0}, {"rental_uris": {"android": "https://dc.lft.to/lastmile_qr_scan", "ios": "https://dc.lft.to/lastmile_qr_scan"}, "type": "electric_scooter", "lon": -77.0016515, "name": "cb28557acd870c902573db39ddb4d0fb", "bike_id": "cb28557acd870c902573db39ddb4d0fb", "fusion_lat": 0.0, "is_reserved": 0, "lat": 38.905133666666664, "fusion_lon": 0.0, "is_disabled": 0}, {"rental_uris": {"android": "https://dc.lft.to/lastmile_qr_scan", "ios": "https://dc.lft.to/lastmile_qr_scan"}, "type": "electric_scooter", "lon": -77.04334316666667, "name": "95faceb4da3b7d39f2c5a930370b8114", "bike_id": "95faceb4da3b7d39f2c5a930370b8114", "fusion_lat": 0.0, "is_reserved": 0, "lat": 38.90851166666667, "fusion_lon": 0.0, "is_disabled": 0}, {"rental_uris": {"android": "https://dc.lft.to/lastmile_qr_scan", "ios": "https://dc.lft.to/lastmile_qr_scan"}, "type": "electric_scooter", "lon": -77.02385466666667, "name": "6e0f554392b06977bfb6bd5d119cf99c", "bike_id": "6e0f554392b06977bfb6bd5d119cf99c", "fusion_lat": 0.0, "is_reserved": 0, "lat": 38.907133333333334, "fusion_lon": 0.0, "is_disabled": 0}, {"rental_uris": {"android": "https://dc.lft.to/lastmile_qr_scan", "ios": "https://dc.lft.to/lastmile_qr_scan"}, "type": "electric_scooter", "lon": -76.98709333333333, "name": "f2e81da3bd2118222de568b43675494e", "bike_id": "f2e81da3bd2118222de568b43675494e", "fusion_lat": 0.0, "is_reserved": 0, "lat": 38.866981833333334, "fusion_lon": 0.0, "is_disabled": 0}, {"rental_uris": {"android": "https://dc.lft.to/lastmile_qr_scan", "ios": "https://dc.lft.to/lastmile_qr_scan"}, "type": "electric_scooter", "lon": -77.018145, "name": "77441c0e26fbd124cb70d01024efd12f", "bike_id": "77441c0e26fbd124cb70d01024efd12f", "fusion_lat": 0.0, "is_reserved": 0, "lat": 38.92168983333333, "fusion_lon": 0.0, "is_disabled": 0}, {"rental_uris": {"android": "https://dc.lft.to/lastmile_qr_scan", "ios": "https://dc.lft.to/lastmile_qr_scan"}, "type": "electric_scooter", "lon": -77.0434665, "name": "25f1ac7803715cf3aa4f36360ec1bf9d", "bike_id": "25f1ac7803715cf3aa4f36360ec1bf9d", "fusion_lat": 0.0, "is_reserved": 0, "lat": 38.90528283333333, "fusion_lon": 0.0, "is_disabled": 0}, {"rental_uris": {"android": "https://dc.lft.to/lastmile_qr_scan", "ios": "https://dc.lft.to/lastmile_qr_scan"}, "type": "electric_scooter", "lon": -77.00876083333333, "name": "28a50ceeaf1b0d992b32779e2ad75996", "bike_id": "28a50ceeaf1b0d992b32779e2ad75996", "fusion_lat": 0.0, "is_reserved": 0, "lat": 38.87317, "fusion_lon": 0.0, "is_disabled": 0}, {"rental_uris": {"android": "https://dc.lft.to/lastmile_qr_scan", "ios": "https://dc.lft.to/lastmile_qr_scan"}, "type": "electric_bike", "lon": -77.12503716666667, "name": "22eed78f8f009f837b651ade6e2de7ca", "bike_id": "22eed78f8f009f837b651ade6e2de7ca", "fusion_lat": 0.0, "is_reserved": 0, "lat": 39.0242435, "fusion_lon": 0.0, "is_disabled": 0}, {"rental_uris": {"android": "https://dc.lft.to/lastmile_qr_scan", "ios": "https://dc.lft.to/lastmile_qr_scan"}, "type": "electric_scooter", "lon": -76.992547, "name": "7565e9b9fbcfca0c26a1515e0e64da55", "bike_id": "7565e9b9fbcfca0c26a1515e0e64da55", "fusion_lat": 0.0, "is_reserved": 0, "lat": 38.892950666666664, "fusion_lon": 0.0, "is_disabled": 0}, {"rental_uris": {"android": "https://dc.lft.to/lastmile_qr_scan", "ios": "https://dc.lft.to/lastmile_qr_scan"}, "type": "electric_scooter", "lon": -77.00589983333333, "name": "535d22270466c6e63ba0225fa9436f55", "bike_id": "535d22270466c6e63ba0225fa9436f55", "fusion_lat": 0.0, "is_reserved": 0, "lat": 38.90572383333333, "fusion_lon": 0.0, "is_disabled": 0}, {"rental_uris": {"android": "https://dc.lft.to/lastmile_qr_scan", "ios": "https://dc.lft.to/lastmile_qr_scan"}, "type": "electric_scooter", "lon": -77.0235955, "name": "874710f945d4063d525d0f0a0ca6aefe", "bike_id": "874710f945d4063d525d0f0a0ca6aefe", "fusion_lat": 0.0, "is_reserved": 0, "lat": 38.91787733333334, "fusion_lon": 0.0, "is_disabled": 0}, {"rental_uris": {"android": "https://dc.lft.to/lastmile_qr_scan", "ios": "https://dc.lft.to/lastmile_qr_scan"}, "type": "electric_scooter", "lon": -77.06036483333334, "name": "f4c6610f3b46ae652bb97adfe12bd428", "bike_id": "f4c6610f3b46ae652bb97adfe12bd428", "fusion_lat": 0.0, "is_reserved": 0, "lat": 38.939141666666664, "fusion_lon": 0.0, "is_disabled": 0}, {"rental_uris": {"android": "https://dc.lft.to/lastmile_qr_scan", "ios": "https://dc.lft.to/lastmile_qr_scan"}, "type": "electric_scooter", "lon": -77.005825, "name": "0464f70aee6930d4531798103dc1c7a0", "bike_id": "0464f70aee6930d4531798103dc1c7a0", "fusion_lat": 0.0, "is_reserved": 0, "lat": 38.883729833333334, "fusion_lon": 0.0, "is_disabled": 0}, {"rental_uris": {"android": "https://dc.lft.to/lastmile_qr_scan", "ios": "https://dc.lft.to/lastmile_qr_scan"}, "type": "electric_scooter", "lon": -77.03900666666667, "name": "4418d77c6a0bdad6e033a9112f47cc4a", "bike_id": "4418d77c6a0bdad6e033a9112f47cc4a", "fusion_lat": 0.0, "is_reserved": 0, "lat": 38.9221765, "fusion_lon": 0.0, "is_disabled": 0}, {"rental_uris": {"android": "https://dc.lft.to/lastmile_qr_scan", "ios": "https://dc.lft.to/lastmile_qr_scan"}, "type": "electric_scooter", "lon": -77.07425716666667, "name": "6f41bc82fedcb3b10becb0a097aa872f", "bike_id": "6f41bc82fedcb3b10becb0a097aa872f", "fusion_lat": 0.0, "is_reserved": 0, "lat": 38.91094416666667, "fusion_lon": 0.0, "is_disabled": 0}, {"rental_uris": {"android": "https://dc.lft.to/lastmile_qr_scan", "ios": "https://dc.lft.to/lastmile_qr_scan"}, "type": "electric_bike", "lon": -77.1289895, "name": "7826ffea936f1658b2c0a23c4969a5b9", "bike_id": "7826ffea936f1658b2c0a23c4969a5b9", "fusion_lat": 0.0, "is_reserved": 0, "lat": 38.8637595, "fusion_lon": 0.0, "is_disabled": 0}, {"rental_uris": {"android": "https://dc.lft.to/lastmile_qr_scan", "ios": "https://dc.lft.to/lastmile_qr_scan"}, "type": "electric_scooter", "lon": -77.05107083333333, "name": "02a146423831d03d972d35f34037aecf", "bike_id": "02a146423831d03d972d35f34037aecf", "fusion_lat": 0.0, "is_reserved": 0, "lat": 38.905203, "fusion_lon": 0.0, "is_disabled": 0}, {"rental_uris": {"android": "https://dc.lft.to/lastmile_qr_scan", "ios": "https://dc.lft.to/lastmile_qr_scan"}, "type": "electric_scooter", "lon": -77.03243133333334, "name": "e00d064342d0a423302d5039a44cfb27", "bike_id": "e00d064342d0a423302d5039a44cfb27", "fusion_lat": 0.0, "is_reserved": 0, "lat": 38.93378933333334, "fusion_lon": 0.0, "is_disabled": 0}, {"rental_uris": {"android": "https://dc.lft.to/lastmile_qr_scan", "ios": "https://dc.lft.to/lastmile_qr_scan"}, "type": "electric_scooter", "lon": -77.005853, "name": "36b0856a7b676a3ef34dd91ddd03d6cf", "bike_id": "36b0856a7b676a3ef34dd91ddd03d6cf", "fusion_lat": 0.0, "is_reserved": 0, "lat": 38.88531366666667, "fusion_lon": 0.0, "is_disabled": 0}, {"rental_uris": {"android": "https://dc.lft.to/lastmile_qr_scan", "ios": "https://dc.lft.to/lastmile_qr_scan"}, "type": "electric_scooter", "lon": -77.03974183333334, "name": "e86ab0fe8853b0c79128e11929e7a9fe", "bike_id": "e86ab0fe8853b0c79128e11929e7a9fe", "fusion_lat": 0.0, "is_reserved": 0, "lat": 38.90930083333333, "fusion_lon": 0.0, "is_disabled": 0}, {"rental_uris": {"android": "https://dc.lft.to/lastmile_qr_scan", "ios": "https://dc.lft.to/lastmile_qr_scan"}, "type": "electric_bike", "lon": -77.021054, "name": "26caec8b6bb2e129ab09d3a383079fb5", "bike_id": "26caec8b6bb2e129ab09d3a383079fb5", "fusion_lat": 0.0, "is_reserved": 0, "lat": 39.022989333333335, "fusion_lon": 0.0, "is_disabled": 0}, {"rental_uris": {"android": "https://dc.lft.to/lastmile_qr_scan", "ios": "https://dc.lft.to/lastmile_qr_scan"}, "type": "electric_scooter", "lon": -77.04666766666666, "name": "0f11cd8d42ca6bf6ef0bc9e7f757d406", "bike_id": "0f11cd8d42ca6bf6ef0bc9e7f757d406", "fusion_lat": 0.0, "is_reserved": 0, "lat": 38.895529, "fusion_lon": 0.0, "is_disabled": 0}, {"rental_uris": {"android": "https://dc.lft.to/lastmile_qr_scan", "ios": "https://dc.lft.to/lastmile_qr_scan"}, "type": "electric_scooter", "lon": -77.057588, "name": "2f9506f6564012bf170cb4e50c82d637", "bike_id": "2f9506f6564012bf170cb4e50c82d637", "fusion_lat": 0.0, "is_reserved": 0, "lat": 38.90529766666667, "fusion_lon": 0.0, "is_disabled": 0}, {"rental_uris": {"android": "https://dc.lft.to/lastmile_qr_scan", "ios": "https://dc.lft.to/lastmile_qr_scan"}, "type": "electric_scooter", "lon": -76.9938815, "name": "62f5cf7796d2b0c7c2fa38692c4673be", "bike_id": "62f5cf7796d2b0c7c2fa38692c4673be", "fusion_lat": 0.0, "is_reserved": 0, "lat": 38.884529, "fusion_lon": 0.0, "is_disabled": 0}, {"rental_uris": {"android": "https://dc.lft.to/lastmile_qr_scan", "ios": "https://dc.lft.to/lastmile_qr_scan"}, "type": "electric_scooter", "lon": -77.04813033333333, "name": "0d8c86e041ef25e85694c0ff75bfecc0", "bike_id": "0d8c86e041ef25e85694c0ff75bfecc0", "fusion_lat": 0.0, "is_reserved": 0, "lat": 38.920398, "fusion_lon": 0.0, "is_disabled": 0}, {"rental_uris": {"android": "https://dc.lft.to/lastmile_qr_scan", "ios": "https://dc.lft.to/lastmile_qr_scan"}, "type": "electric_scooter", "lon": -77.02484416666667, "name": "23331b3df3d7b2efaa9aa92344fb8739", "bike_id": "23331b3df3d7b2efaa9aa92344fb8739", "fusion_lat": 0.0, "is_reserved": 0, "lat": 38.938812666666664, "fusion_lon": 0.0, "is_disabled": 0}, {"rental_uris": {"android": "https://dc.lft.to/lastmile_qr_scan", "ios": "https://dc.lft.to/lastmile_qr_scan"}, "type": "electric_bike", "lon": -76.97619383333333, "name": "917cce2fb598c1f63c3f9d40e56b11c2", "bike_id": "917cce2fb598c1f63c3f9d40e56b11c2", "fusion_lat": 0.0, "is_reserved": 0, "lat": 38.895786, "fusion_lon": 0.0, "is_disabled": 0}, {"rental_uris": {"android": "https://dc.lft.to/lastmile_qr_scan", "ios": "https://dc.lft.to/lastmile_qr_scan"}, "type": "electric_scooter", "lon": -77.0052145, "name": "8dd049af111ace1f8100c083971835cc", "bike_id": "8dd049af111ace1f8100c083971835cc", "fusion_lat": 0.0, "is_reserved": 0, "lat": 38.916951833333336, "fusion_lon": 0.0, "is_disabled": 0}, {"rental_uris": {"android": "https://dc.lft.to/lastmile_qr_scan", "ios": "https://dc.lft.to/lastmile_qr_scan"}, "type": "electric_scooter", "lon": -77.017603, "name": "aec0fb2ddb91cbf660cc7558a2511992", "bike_id": "aec0fb2ddb91cbf660cc7558a2511992", "fusion_lat": 0.0, "is_reserved": 0, "lat": 38.92106016666666, "fusion_lon": 0.0, "is_disabled": 0}, {"rental_uris": {"android": "https://dc.lft.to/lastmile_qr_scan", "ios": "https://dc.lft.to/lastmile_qr_scan"}, "type": "electric_scooter", "lon": -77.00649666666666, "name": "d39a50bb615fbd687328d4dbb4eefbb5", "bike_id": "d39a50bb615fbd687328d4dbb4eefbb5", "fusion_lat": 0.0, "is_reserved": 0, "lat": 38.899928333333335, "fusion_lon": 0.0, "is_disabled": 0}, {"rental_uris": {"android": "https://dc.lft.to/lastmile_qr_scan", "ios": "https://dc.lft.to/lastmile_qr_scan"}, "type": "electric_scooter", "lon": -77.024981, "name": "a29eff092af76c51d3d1b8f35cba97d3", "bike_id": "a29eff092af76c51d3d1b8f35cba97d3", "fusion_lat": 0.0, "is_reserved": 0, "lat": 38.9041265, "fusion_lon": 0.0, "is_disabled": 0}, {"rental_uris": {"android": "https://dc.lft.to/lastmile_qr_scan", "ios": "https://dc.lft.to/lastmile_qr_scan"}, "type": "electric_scooter", "lon": -77.01576666666666, "name": "c2b3fd98184cfe52bdabd89be74efdea", "bike_id": "c2b3fd98184cfe52bdabd89be74efdea", "fusion_lat": 0.0, "is_reserved": 0, "lat": 38.9285095, "fusion_lon": 0.0, "is_disabled": 0}, {"rental_uris": {"android": "https://dc.lft.to/lastmile_qr_scan", "ios": "https://dc.lft.to/lastmile_qr_scan"}, "type": "electric_scooter", "lon": -77.03492766666666, "name": "79f2dc7f8779659f337e1beb8fa25ed8", "bike_id": "79f2dc7f8779659f337e1beb8fa25ed8", "fusion_lat": 0.0, "is_reserved": 0, "lat": 38.9373715, "fusion_lon": 0.0, "is_disabled": 0}, {"rental_uris": {"android": "https://dc.lft.to/lastmile_qr_scan", "ios": "https://dc.lft.to/lastmile_qr_scan"}, "type": "electric_scooter", "lon": -77.01059233333334, "name": "711daf386b82755e9d07a396d0587261", "bike_id": "711daf386b82755e9d07a396d0587261", "fusion_lat": 0.0, "is_reserved": 0, "lat": 38.87245933333333, "fusion_lon": 0.0, "is_disabled": 0}, {"rental_uris": {"android": "https://dc.lft.to/lastmile_qr_scan", "ios": "https://dc.lft.to/lastmile_qr_scan"}, "type": "electric_scooter", "lon": -77.02928666666666, "name": "160c7ab33a973b10a3d880d08b7a4c09", "bike_id": "160c7ab33a973b10a3d880d08b7a4c09", "fusion_lat": 0.0, "is_reserved": 0, "lat": 38.8955945, "fusion_lon": 0.0, "is_disabled": 0}, {"rental_uris": {"android": "https://dc.lft.to/lastmile_qr_scan", "ios": "https://dc.lft.to/lastmile_qr_scan"}, "type": "electric_scooter", "lon": -77.04635716666667, "name": "8e5347a3a48c21f6d1de601371f6377c", "bike_id": "8e5347a3a48c21f6d1de601371f6377c", "fusion_lat": 0.0, "is_reserved": 0, "lat": 38.8973715, "fusion_lon": 0.0, "is_disabled": 0}, {"rental_uris": {"android": "https://dc.lft.to/lastmile_qr_scan", "ios": "https://dc.lft.to/lastmile_qr_scan"}, "type": "electric_scooter", "lon": -77.02383516666667, "name": "b6fe968cb3006c8db2a76adc6b9b0a29", "bike_id": "b6fe968cb3006c8db2a76adc6b9b0a29", "fusion_lat": 0.0, "is_reserved": 0, "lat": 38.89232466666667, "fusion_lon": 0.0, "is_disabled": 0}, {"rental_uris": {"android": "https://dc.lft.to/lastmile_qr_scan", "ios": "https://dc.lft.to/lastmile_qr_scan"}, "type": "electric_scooter", "lon": -77.02407483333333, "name": "fb724e92a6ec73cb630bd39f89bd31c0", "bike_id": "fb724e92a6ec73cb630bd39f89bd31c0", "fusion_lat": 0.0, "is_reserved": 0, "lat": 38.916840666666666, "fusion_lon": 0.0, "is_disabled": 0}, {"rental_uris": {"android": "https://dc.lft.to/lastmile_qr_scan", "ios": "https://dc.lft.to/lastmile_qr_scan"}, "type": "electric_scooter", "lon": -77.04502233333334, "name": "0ea7f7675d730630d20a408bda629780", "bike_id": "0ea7f7675d730630d20a408bda629780", "fusion_lat": 0.0, "is_reserved": 0, "lat": 38.907020333333335, "fusion_lon": 0.0, "is_disabled": 0}, {"rental_uris": {"android": "https://dc.lft.to/lastmile_qr_scan", "ios": "https://dc.lft.to/lastmile_qr_scan"}, "type": "electric_scooter", "lon": -76.9891825, "name": "527e4a8aae9bdba166a87679ac09b79e", "bike_id": "527e4a8aae9bdba166a87679ac09b79e", "fusion_lat": 0.0, "is_reserved": 0, "lat": 38.882087166666665, "fusion_lon": 0.0, "is_disabled": 0}, {"rental_uris": {"android": "https://dc.lft.to/lastmile_qr_scan", "ios": "https://dc.lft.to/lastmile_qr_scan"}, "type": "electric_scooter", "lon": -77.04491966666667, "name": "394ad51ac608e4d6b4349aef8f7949f3", "bike_id": "394ad51ac608e4d6b4349aef8f7949f3", "fusion_lat": 0.0, "is_reserved": 0, "lat": 38.91948516666667, "fusion_lon": 0.0, "is_disabled": 0}, {"rental_uris": {"android": "https://dc.lft.to/lastmile_qr_scan", "ios": "https://dc.lft.to/lastmile_qr_scan"}, "type": "electric_scooter", "lon": -77.04001466666666, "name": "5f6528d29f4ba03bb7f688e45863e3aa", "bike_id": "5f6528d29f4ba03bb7f688e45863e3aa", "fusion_lat": 0.0, "is_reserved": 0, "lat": 38.918070166666666, "fusion_lon": 0.0, "is_disabled": 0}, {"rental_uris": {"android": "https://dc.lft.to/lastmile_qr_scan", "ios": "https://dc.lft.to/lastmile_qr_scan"}, "type": "electric_scooter", "lon": -76.97720333333334, "name": "f3f746874707207fd383fd0c2b63f0a3", "bike_id": "f3f746874707207fd383fd0c2b63f0a3", "fusion_lat": 0.0, "is_reserved": 0, "lat": 38.872433, "fusion_lon": 0.0, "is_disabled": 0}, {"rental_uris": {"android": "https://dc.lft.to/lastmile_qr_scan", "ios": "https://dc.lft.to/lastmile_qr_scan"}, "type": "electric_scooter", "lon": -77.033275, "name": "f146bdc1917e2e85d356b2f1f090a2de", "bike_id": "f146bdc1917e2e85d356b2f1f090a2de", "fusion_lat": 0.0, "is_reserved": 0, "lat": 38.903930833333334, "fusion_lon": 0.0, "is_disabled": 0}, {"rental_uris": {"android": "https://dc.lft.to/lastmile_qr_scan", "ios": "https://dc.lft.to/lastmile_qr_scan"}, "type": "electric_scooter", "lon": -77.07995366666667, "name": "f6b5974cc421ef249d80940796791614", "bike_id": "f6b5974cc421ef249d80940796791614", "fusion_lat": 0.0, "is_reserved": 0, "lat": 38.92376766666667, "fusion_lon": 0.0, "is_disabled": 0}, {"rental_uris": {"android": "https://dc.lft.to/lastmile_qr_scan", "ios": "https://dc.lft.to/lastmile_qr_scan"}, "type": "electric_scooter", "lon": -77.025012, "name": "4c2839ac8892462ca6cf5dbeab913d96", "bike_id": "4c2839ac8892462ca6cf5dbeab913d96", "fusion_lat": 0.0, "is_reserved": 0, "lat": 38.942008666666666, "fusion_lon": 0.0, "is_disabled": 0}, {"rental_uris": {"android": "https://dc.lft.to/lastmile_qr_scan", "ios": "https://dc.lft.to/lastmile_qr_scan"}, "type": "electric_scooter", "lon": -77.040277, "name": "1c4942fb94cf7d9615b90556a1b7647f", "bike_id": "1c4942fb94cf7d9615b90556a1b7647f", "fusion_lat": 0.0, "is_reserved": 0, "lat": 38.92458166666667, "fusion_lon": 0.0, "is_disabled": 0}, {"rental_uris": {"android": "https://dc.lft.to/lastmile_qr_scan", "ios": "https://dc.lft.to/lastmile_qr_scan"}, "type": "electric_scooter", "lon": -77.02426266666667, "name": "f307e158da2caacfcaff503db3d83420", "bike_id": "f307e158da2caacfcaff503db3d83420", "fusion_lat": 0.0, "is_reserved": 0, "lat": 38.909641, "fusion_lon": 0.0, "is_disabled": 0}, {"rental_uris": {"android": "https://dc.lft.to/lastmile_qr_scan", "ios": "https://dc.lft.to/lastmile_qr_scan"}, "type": "electric_scooter", "lon": -77.0395685, "name": "39d9c321155e8ac4899e738e155c3434", "bike_id": "39d9c321155e8ac4899e738e155c3434", "fusion_lat": 0.0, "is_reserved": 0, "lat": 38.90621133333333, "fusion_lon": 0.0, "is_disabled": 0}, {"rental_uris": {"android": "https://dc.lft.to/lastmile_qr_scan", "ios": "https://dc.lft.to/lastmile_qr_scan"}, "type": "electric_scooter", "lon": -77.02174316666667, "name": "b02fa1612dc7fcc0d4b7d749a5f2fb02", "bike_id": "b02fa1612dc7fcc0d4b7d749a5f2fb02", "fusion_lat": 0.0, "is_reserved": 0, "lat": 38.887443833333336, "fusion_lon": 0.0, "is_disabled": 0}, {"rental_uris": {"android": "https://dc.lft.to/lastmile_qr_scan", "ios": "https://dc.lft.to/lastmile_qr_scan"}, "type": "electric_scooter", "lon": -77.01952816666666, "name": "a752beee73405464f89d7fa5f33a5f3e", "bike_id": "a752beee73405464f89d7fa5f33a5f3e", "fusion_lat": 0.0, "is_reserved": 0, "lat": 38.9357945, "fusion_lon": 0.0, "is_disabled": 0}, {"rental_uris": {"android": "https://dc.lft.to/lastmile_qr_scan", "ios": "https://dc.lft.to/lastmile_qr_scan"}, "type": "electric_scooter", "lon": -77.04498116666667, "name": "45c98b24c1c3f4afcc075f47728620bc", "bike_id": "45c98b24c1c3f4afcc075f47728620bc", "fusion_lat": 0.0, "is_reserved": 0, "lat": 38.896221833333335, "fusion_lon": 0.0, "is_disabled": 0}, {"rental_uris": {"android": "https://dc.lft.to/lastmile_qr_scan", "ios": "https://dc.lft.to/lastmile_qr_scan"}, "type": "electric_bike", "lon": -76.9732675, "name": "681876f35ae9888b1f6f38d8060a76fd", "bike_id": "681876f35ae9888b1f6f38d8060a76fd", "fusion_lat": 0.0, "is_reserved": 0, "lat": 38.850644833333334, "fusion_lon": 0.0, "is_disabled": 0}, {"rental_uris": {"android": "https://dc.lft.to/lastmile_qr_scan", "ios": "https://dc.lft.to/lastmile_qr_scan"}, "type": "electric_scooter", "lon": -77.04655416666667, "name": "22f0b248f1caf396071328aae9c2c535", "bike_id": "22f0b248f1caf396071328aae9c2c535", "fusion_lat": 0.0, "is_reserved": 0, "lat": 38.905081833333334, "fusion_lon": 0.0, "is_disabled": 0}, {"rental_uris": {"android": "https://dc.lft.to/lastmile_qr_scan", "ios": "https://dc.lft.to/lastmile_qr_scan"}, "type": "electric_scooter", "lon": -77.0327445, "name": "b0218650263695f13a61e1bc86f079c5", "bike_id": "b0218650263695f13a61e1bc86f079c5", "fusion_lat": 0.0, "is_reserved": 0, "lat": 38.93251383333333, "fusion_lon": 0.0, "is_disabled": 0}, {"rental_uris": {"android": "https://dc.lft.to/lastmile_qr_scan", "ios": "https://dc.lft.to/lastmile_qr_scan"}, "type": "electric_scooter", "lon": -77.03445916666666, "name": "bdf3926f03a34fa0148f51e7fe35dd1f", "bike_id": "bdf3926f03a34fa0148f51e7fe35dd1f", "fusion_lat": 0.0, "is_reserved": 0, "lat": 38.92870516666667, "fusion_lon": 0.0, "is_disabled": 0}, {"rental_uris": {"android": "https://dc.lft.to/lastmile_qr_scan", "ios": "https://dc.lft.to/lastmile_qr_scan"}, "type": "electric_scooter", "lon": -77.02509783333333, "name": "3cecfe42c97e791b811ca05e11d5d0d8", "bike_id": "3cecfe42c97e791b811ca05e11d5d0d8", "fusion_lat": 0.0, "is_reserved": 0, "lat": 38.9190905, "fusion_lon": 0.0, "is_disabled": 0}, {"rental_uris": {"android": "https://dc.lft.to/lastmile_qr_scan", "ios": "https://dc.lft.to/lastmile_qr_scan"}, "type": "electric_scooter", "lon": -77.041265, "name": "247cce73ef826bf0a248bf079a8d7cc8", "bike_id": "247cce73ef826bf0a248bf079a8d7cc8", "fusion_lat": 0.0, "is_reserved": 0, "lat": 38.9214395, "fusion_lon": 0.0, "is_disabled": 0}, {"rental_uris": {"android": "https://dc.lft.to/lastmile_qr_scan", "ios": "https://dc.lft.to/lastmile_qr_scan"}, "type": "electric_bike", "lon": -76.90963583333334, "name": "d50841068ba39f352ded30856487ffad", "bike_id": "d50841068ba39f352ded30856487ffad", "fusion_lat": 0.0, "is_reserved": 0, "lat": 38.85436683333333, "fusion_lon": 0.0, "is_disabled": 0}, {"rental_uris": {"android": "https://dc.lft.to/lastmile_qr_scan", "ios": "https://dc.lft.to/lastmile_qr_scan"}, "type": "electric_scooter", "lon": -77.065631, "name": "e92d6496e883a3cd37a9be60aa7f3d0f", "bike_id": "e92d6496e883a3cd37a9be60aa7f3d0f", "fusion_lat": 0.0, "is_reserved": 0, "lat": 38.90522133333333, "fusion_lon": 0.0, "is_disabled": 0}, {"rental_uris": {"android": "https://dc.lft.to/lastmile_qr_scan", "ios": "https://dc.lft.to/lastmile_qr_scan"}, "type": "electric_scooter", "lon": -77.06786083333333, "name": "f8f538289b98c2d78500948a3f8e4ed7", "bike_id": "f8f538289b98c2d78500948a3f8e4ed7", "fusion_lat": 0.0, "is_reserved": 0, "lat": 38.905238, "fusion_lon": 0.0, "is_disabled": 0}, {"rental_uris": {"android": "https://dc.lft.to/lastmile_qr_scan", "ios": "https://dc.lft.to/lastmile_qr_scan"}, "type": "electric_scooter", "lon": -77.03204066666666, "name": "8bae8d42d1e5c11d13e7f8e0033598ec", "bike_id": "8bae8d42d1e5c11d13e7f8e0033598ec", "fusion_lat": 0.0, "is_reserved": 0, "lat": 38.91631016666667, "fusion_lon": 0.0, "is_disabled": 0}, {"rental_uris": {"android": "https://dc.lft.to/lastmile_qr_scan", "ios": "https://dc.lft.to/lastmile_qr_scan"}, "type": "electric_scooter", "lon": -77.04177716666666, "name": "de357b74712f4d93f3adddf208cd8db3", "bike_id": "de357b74712f4d93f3adddf208cd8db3", "fusion_lat": 0.0, "is_reserved": 0, "lat": 38.912681666666664, "fusion_lon": 0.0, "is_disabled": 0}, {"rental_uris": {"android": "https://dc.lft.to/lastmile_qr_scan", "ios": "https://dc.lft.to/lastmile_qr_scan"}, "type": "electric_scooter", "lon": -76.937537, "name": "d6b76a181f5b68ddb272ae4140c96e72", "bike_id": "d6b76a181f5b68ddb272ae4140c96e72", "fusion_lat": 0.0, "is_reserved": 0, "lat": 38.890364166666664, "fusion_lon": 0.0, "is_disabled": 0}, {"rental_uris": {"android": "https://dc.lft.to/lastmile_qr_scan", "ios": "https://dc.lft.to/lastmile_qr_scan"}, "type": "electric_scooter", "lon": -77.0259905, "name": "5f8775147ad1ac52196bf53216269e1f", "bike_id": "5f8775147ad1ac52196bf53216269e1f", "fusion_lat": 0.0, "is_reserved": 0, "lat": 38.90497333333333, "fusion_lon": 0.0, "is_disabled": 0}, {"rental_uris": {"android": "https://dc.lft.to/lastmile_qr_scan", "ios": "https://dc.lft.to/lastmile_qr_scan"}, "type": "electric_scooter", "lon": -77.03623133333333, "name": "252bc1c5c2edbfc05992f8f3b185c935", "bike_id": "252bc1c5c2edbfc05992f8f3b185c935", "fusion_lat": 0.0, "is_reserved": 0, "lat": 38.93279316666667, "fusion_lon": 0.0, "is_disabled": 0}, {"rental_uris": {"android": "https://dc.lft.to/lastmile_qr_scan", "ios": "https://dc.lft.to/lastmile_qr_scan"}, "type": "electric_bike", "lon": -77.023764, "name": "4362c6b01b076f8967b34d784b740a19", "bike_id": "4362c6b01b076f8967b34d784b740a19", "fusion_lat": 0.0, "is_reserved": 0, "lat": 38.95299, "fusion_lon": 0.0, "is_disabled": 0}, {"rental_uris": {"android": "https://dc.lft.to/lastmile_qr_scan", "ios": "https://dc.lft.to/lastmile_qr_scan"}, "type": "electric_scooter", "lon": -77.01379116666666, "name": "e2c42b9ddcc5a72fe9360fd268ec38f6", "bike_id": "e2c42b9ddcc5a72fe9360fd268ec38f6", "fusion_lat": 0.0, "is_reserved": 0, "lat": 38.9150085, "fusion_lon": 0.0, "is_disabled": 0}, {"rental_uris": {"android": "https://dc.lft.to/lastmile_qr_scan", "ios": "https://dc.lft.to/lastmile_qr_scan"}, "type": "electric_scooter", "lon": -77.00344683333333, "name": "3b24ada37b184f93894e96014fdab1bc", "bike_id": "3b24ada37b184f93894e96014fdab1bc", "fusion_lat": 0.0, "is_reserved": 0, "lat": 38.92267233333333, "fusion_lon": 0.0, "is_disabled": 0}, {"rental_uris": {"android": "https://dc.lft.to/lastmile_qr_scan", "ios": "https://dc.lft.to/lastmile_qr_scan"}, "type": "electric_scooter", "lon": -77.020262, "name": "bd5c7c13e197f05d14d44d426e789b9a", "bike_id": "bd5c7c13e197f05d14d44d426e789b9a", "fusion_lat": 0.0, "is_reserved": 0, "lat": 38.92440416666667, "fusion_lon": 0.0, "is_disabled": 0}, {"rental_uris": {"android": "https://dc.lft.to/lastmile_qr_scan", "ios": "https://dc.lft.to/lastmile_qr_scan"}, "type": "electric_scooter", "lon": -77.03660433333333, "name": "9f0946a23e4dbb154d2125f14dbb6a42", "bike_id": "9f0946a23e4dbb154d2125f14dbb6a42", "fusion_lat": 0.0, "is_reserved": 0, "lat": 38.90264066666667, "fusion_lon": 0.0, "is_disabled": 0}, {"rental_uris": {"android": "https://dc.lft.to/lastmile_qr_scan", "ios": "https://dc.lft.to/lastmile_qr_scan"}, "type": "electric_scooter", "lon": -76.99068283333334, "name": "d8a486680b79fc413bbecc83955e673b", "bike_id": "d8a486680b79fc413bbecc83955e673b", "fusion_lat": 0.0, "is_reserved": 0, "lat": 38.9294385, "fusion_lon": 0.0, "is_disabled": 0}, {"rental_uris": {"android": "https://dc.lft.to/lastmile_qr_scan", "ios": "https://dc.lft.to/lastmile_qr_scan"}, "type": "electric_scooter", "lon": -77.04025233333333, "name": "fa3ab63a8d4ba1a289650a2a1925ab0b", "bike_id": "fa3ab63a8d4ba1a289650a2a1925ab0b", "fusion_lat": 0.0, "is_reserved": 0, "lat": 38.9245465, "fusion_lon": 0.0, "is_disabled": 0}, {"rental_uris": {"android": "https://dc.lft.to/lastmile_qr_scan", "ios": "https://dc.lft.to/lastmile_qr_scan"}, "type": "electric_scooter", "lon": -77.047673, "name": "2403dd1963bde86b39535fc672199502", "bike_id": "2403dd1963bde86b39535fc672199502", "fusion_lat": 0.0, "is_reserved": 0, "lat": 38.91749766666667, "fusion_lon": 0.0, "is_disabled": 0}, {"rental_uris": {"android": "https://dc.lft.to/lastmile_qr_scan", "ios": "https://dc.lft.to/lastmile_qr_scan"}, "type": "electric_scooter", "lon": -77.0413825, "name": "e0eba60bdd7578d79568081ce719cb41", "bike_id": "e0eba60bdd7578d79568081ce719cb41", "fusion_lat": 0.0, "is_reserved": 0, "lat": 38.91969066666667, "fusion_lon": 0.0, "is_disabled": 0}, {"rental_uris": {"android": "https://dc.lft.to/lastmile_qr_scan", "ios": "https://dc.lft.to/lastmile_qr_scan"}, "type": "electric_scooter", "lon": -76.99733483333333, "name": "21201ab7f89b614c9a5061b74c732459", "bike_id": "21201ab7f89b614c9a5061b74c732459", "fusion_lat": 0.0, "is_reserved": 0, "lat": 38.89901016666666, "fusion_lon": 0.0, "is_disabled": 0}, {"rental_uris": {"android": "https://dc.lft.to/lastmile_qr_scan", "ios": "https://dc.lft.to/lastmile_qr_scan"}, "type": "electric_scooter", "lon": -76.99025816666666, "name": "7f7ef5ea98510928200020eb59cfcd67", "bike_id": "7f7ef5ea98510928200020eb59cfcd67", "fusion_lat": 0.0, "is_reserved": 0, "lat": 38.86405933333333, "fusion_lon": 0.0, "is_disabled": 0}, {"rental_uris": {"android": "https://dc.lft.to/lastmile_qr_scan", "ios": "https://dc.lft.to/lastmile_qr_scan"}, "type": "electric_scooter", "lon": -77.03910216666667, "name": "36458fd3bdf2d398cce3ee5864b54e44", "bike_id": "36458fd3bdf2d398cce3ee5864b54e44", "fusion_lat": 0.0, "is_reserved": 0, "lat": 38.91422083333333, "fusion_lon": 0.0, "is_disabled": 0}, {"rental_uris": {"android": "https://dc.lft.to/lastmile_qr_scan", "ios": "https://dc.lft.to/lastmile_qr_scan"}, "type": "electric_scooter", "lon": -77.06763116666667, "name": "0f499e04b1bb9b669ddb9ade7880340c", "bike_id": "0f499e04b1bb9b669ddb9ade7880340c", "fusion_lat": 0.0, "is_reserved": 0, "lat": 38.90374833333333, "fusion_lon": 0.0, "is_disabled": 0}, {"rental_uris": {"android": "https://dc.lft.to/lastmile_qr_scan", "ios": "https://dc.lft.to/lastmile_qr_scan"}, "type": "electric_scooter", "lon": -77.0304845, "name": "7b632daa255040e270f4cb1d5a568fd6", "bike_id": "7b632daa255040e270f4cb1d5a568fd6", "fusion_lat": 0.0, "is_reserved": 0, "lat": 38.884134833333334, "fusion_lon": 0.0, "is_disabled": 0}, {"rental_uris": {"android": "https://dc.lft.to/lastmile_qr_scan", "ios": "https://dc.lft.to/lastmile_qr_scan"}, "type": "electric_scooter", "lon": -76.99381516666666, "name": "bdd5f3bafd4be60525b704389af84fc0", "bike_id": "bdd5f3bafd4be60525b704389af84fc0", "fusion_lat": 0.0, "is_reserved": 0, "lat": 38.8870645, "fusion_lon": 0.0, "is_disabled": 0}, {"rental_uris": {"android": "https://dc.lft.to/lastmile_qr_scan", "ios": "https://dc.lft.to/lastmile_qr_scan"}, "type": "electric_scooter", "lon": -77.00591233333333, "name": "508565d07438b658d9e346263e5648e8", "bike_id": "508565d07438b658d9e346263e5648e8", "fusion_lat": 0.0, "is_reserved": 0, "lat": 38.90822133333333, "fusion_lon": 0.0, "is_disabled": 0}, {"rental_uris": {"android": "https://dc.lft.to/lastmile_qr_scan", "ios": "https://dc.lft.to/lastmile_qr_scan"}, "type": "electric_scooter", "lon": -77.04866433333333, "name": "0b3cfeb290dd740b49ab6d65f3fe33f6", "bike_id": "0b3cfeb290dd740b49ab6d65f3fe33f6", "fusion_lat": 0.0, "is_reserved": 0, "lat": 38.900949, "fusion_lon": 0.0, "is_disabled": 0}, {"rental_uris": {"android": "https://dc.lft.to/lastmile_qr_scan", "ios": "https://dc.lft.to/lastmile_qr_scan"}, "type": "electric_scooter", "lon": -77.06084483333333, "name": "2fb9776c78efa5c6a13b8a249b32b1cb", "bike_id": "2fb9776c78efa5c6a13b8a249b32b1cb", "fusion_lat": 0.0, "is_reserved": 0, "lat": 38.94377516666667, "fusion_lon": 0.0, "is_disabled": 0}, {"rental_uris": {"android": "https://dc.lft.to/lastmile_qr_scan", "ios": "https://dc.lft.to/lastmile_qr_scan"}, "type": "electric_scooter", "lon": -77.04860716666667, "name": "bbfabee2177dfa82d3c018c87a8b33d7", "bike_id": "bbfabee2177dfa82d3c018c87a8b33d7", "fusion_lat": 0.0, "is_reserved": 0, "lat": 38.906579666666666, "fusion_lon": 0.0, "is_disabled": 0}, {"rental_uris": {"android": "https://dc.lft.to/lastmile_qr_scan", "ios": "https://dc.lft.to/lastmile_qr_scan"}, "type": "electric_bike", "lon": -77.14323383333333, "name": "5aeed2a15a6b0553a865950bccd7fa61", "bike_id": "5aeed2a15a6b0553a865950bccd7fa61", "fusion_lat": 0.0, "is_reserved": 0, "lat": 39.054573, "fusion_lon": 0.0, "is_disabled": 0}, {"rental_uris": {"android": "https://dc.lft.to/lastmile_qr_scan", "ios": "https://dc.lft.to/lastmile_qr_scan"}, "type": "electric_scooter", "lon": -77.01151133333333, "name": "5adbca03079f21a6b891aacef6f04c4b", "bike_id": "5adbca03079f21a6b891aacef6f04c4b", "fusion_lat": 0.0, "is_reserved": 0, "lat": 38.90298583333333, "fusion_lon": 0.0, "is_disabled": 0}, {"rental_uris": {"android": "https://dc.lft.to/lastmile_qr_scan", "ios": "https://dc.lft.to/lastmile_qr_scan"}, "type": "electric_scooter", "lon": -76.98002016666666, "name": "ad39969fc88e71bf84d2ebf1c1b13bfe", "bike_id": "ad39969fc88e71bf84d2ebf1c1b13bfe", "fusion_lat": 0.0, "is_reserved": 0, "lat": 38.85319366666667, "fusion_lon": 0.0, "is_disabled": 0}, {"rental_uris": {"android": "https://dc.lft.to/lastmile_qr_scan", "ios": "https://dc.lft.to/lastmile_qr_scan"}, "type": "electric_scooter", "lon": -77.03462366666666, "name": "1e93e693c722497fe2bf3af63b0ac817", "bike_id": "1e93e693c722497fe2bf3af63b0ac817", "fusion_lat": 0.0, "is_reserved": 0, "lat": 38.91830866666667, "fusion_lon": 0.0, "is_disabled": 0}, {"rental_uris": {"android": "https://dc.lft.to/lastmile_qr_scan", "ios": "https://dc.lft.to/lastmile_qr_scan"}, "type": "electric_scooter", "lon": -77.03474966666667, "name": "149e1ea5906dbe3e44982b1a5808ee9a", "bike_id": "149e1ea5906dbe3e44982b1a5808ee9a", "fusion_lat": 0.0, "is_reserved": 0, "lat": 38.928618166666666, "fusion_lon": 0.0, "is_disabled": 0}, {"rental_uris": {"android": "https://dc.lft.to/lastmile_qr_scan", "ios": "https://dc.lft.to/lastmile_qr_scan"}, "type": "electric_scooter", "lon": -77.061855, "name": "65f769e9b6b4690ded21ea7367dd3a7c", "bike_id": "65f769e9b6b4690ded21ea7367dd3a7c", "fusion_lat": 0.0, "is_reserved": 0, "lat": 38.93013066666666, "fusion_lon": 0.0, "is_disabled": 0}, {"rental_uris": {"android": "https://dc.lft.to/lastmile_qr_scan", "ios": "https://dc.lft.to/lastmile_qr_scan"}, "type": "electric_scooter", "lon": -76.99025566666667, "name": "03555a429885e5f2ca4678e0a367215b", "bike_id": "03555a429885e5f2ca4678e0a367215b", "fusion_lat": 0.0, "is_reserved": 0, "lat": 38.86067716666667, "fusion_lon": 0.0, "is_disabled": 0}, {"rental_uris": {"android": "https://dc.lft.to/lastmile_qr_scan", "ios": "https://dc.lft.to/lastmile_qr_scan"}, "type": "electric_scooter", "lon": -77.0143635, "name": "4abee1fc5629b661fd2bbc09caae8d60", "bike_id": "4abee1fc5629b661fd2bbc09caae8d60", "fusion_lat": 0.0, "is_reserved": 0, "lat": 38.87783066666667, "fusion_lon": 0.0, "is_disabled": 0}, {"rental_uris": {"android": "https://dc.lft.to/lastmile_qr_scan", "ios": "https://dc.lft.to/lastmile_qr_scan"}, "type": "electric_scooter", "lon": -77.02671533333333, "name": "6690de438ba8d3d0d0fedc52d1cfd001", "bike_id": "6690de438ba8d3d0d0fedc52d1cfd001", "fusion_lat": 0.0, "is_reserved": 0, "lat": 38.92876183333333, "fusion_lon": 0.0, "is_disabled": 0}, {"rental_uris": {"android": "https://dc.lft.to/lastmile_qr_scan", "ios": "https://dc.lft.to/lastmile_qr_scan"}, "type": "electric_scooter", "lon": -77.03153316666666, "name": "6dec9e9bff0eb264325602b976771c4a", "bike_id": "6dec9e9bff0eb264325602b976771c4a", "fusion_lat": 0.0, "is_reserved": 0, "lat": 38.928, "fusion_lon": 0.0, "is_disabled": 0}, {"rental_uris": {"android": "https://dc.lft.to/lastmile_qr_scan", "ios": "https://dc.lft.to/lastmile_qr_scan"}, "type": "electric_bike", "lon": -77.34410683333333, "name": "b6a285427954d8aec0a6a5c0ef32c329", "bike_id": "b6a285427954d8aec0a6a5c0ef32c329", "fusion_lat": 0.0, "is_reserved": 0, "lat": 38.9459335, "fusion_lon": 0.0, "is_disabled": 0}, {"rental_uris": {"android": "https://dc.lft.to/lastmile_qr_scan", "ios": "https://dc.lft.to/lastmile_qr_scan"}, "type": "electric_scooter", "lon": -77.0295185, "name": "930b47020e15ef129bdb57f4d7fcac90", "bike_id": "930b47020e15ef129bdb57f4d7fcac90", "fusion_lat": 0.0, "is_reserved": 0, "lat": 38.917185, "fusion_lon": 0.0, "is_disabled": 0}, {"rental_uris": {"android": "https://dc.lft.to/lastmile_qr_scan", "ios": "https://dc.lft.to/lastmile_qr_scan"}, "type": "electric_scooter", "lon": -77.02097433333333, "name": "f8179edef802477ab20a28cf85f15d56", "bike_id": "f8179edef802477ab20a28cf85f15d56", "fusion_lat": 0.0, "is_reserved": 0, "lat": 38.90089783333333, "fusion_lon": 0.0, "is_disabled": 0},