{"data": {"bikes": [{"fusion_lon": 0.0, "bike_id": "e50b50c68b8ac4f4a36976a7fedb34e5", "name": "e50b50c68b8ac4f4a36976a7fedb34e5", "type": "electric_scooter", "lon": -77.03451883333334, "rental_uris": {"android": "https://dc.lft.to/lastmile_qr_scan", "ios": "https://dc.lft.to/lastmile_qr_scan"}, "lat": 38.92862983333333, "is_reserved": 0, "is_disabled": 0, "fusion_lat": 0.0}, {"fusion_lon": 0.0, "bike_id": "0f3fd2521dd67b3e0b42099e6a2f5c64", "name": "0f3fd2521dd67b3e0b42099e6a2f5c64", "type": "electric_scooter", "lon": -76.987291, "rental_uris": {"android": "https://dc.lft.to/lastmile_qr_scan", "ios": "https://dc.lft.to/lastmile_qr_scan"}, "lat": 38.8671975, "is_reserved": 0, "is_disabled": 0, "fusion_lat": 0.0}, {"fusion_lon": 0.0, "bike_id": "1585b66faa122611e14705ec38381935", "name": "1585b66faa122611e14705ec38381935", "type": "electric_scooter", "lon": -77.03092616666666, "rental_uris": {"android": "https://dc.lft.to/lastmile_qr_scan", "ios": "https://dc.lft.to/lastmile_qr_scan"}, "lat": 38.919241166666666, "is_reserved": 0, "is_disabled": 0, "fusion_lat": 0.0}, {"fusion_lon": 0.0, "bike_id": "3705fc5aa130b5f95c1e9abcb8c3728e", "name": "3705fc5aa130b5f95c1e9abcb8c3728e", "type": "electric_scooter", "lon": -77.0298155, "rental_uris": {"android": "https://dc.lft.to/lastmile_qr_scan", "ios": "https://dc.lft.to/lastmile_qr_scan"}, "lat": 38.92543416666667, "is_reserved": 0, "is_disabled": 0, "fusion_lat": 0.0}, {"fusion_lon": 0.0, "bike_id": "cd1e06c8b3c92f0124051eb39ba94715", "name": "cd1e06c8b3c92f0124051eb39ba94715", "type": "electric_scooter", "lon": -76.94984166666667, "rental_uris": {"android": "https://dc.lft.to/lastmile_qr_scan", "ios": "https://dc.lft.to/lastmile_qr_scan"}, "lat": 38.894385166666666, "is_reserved": 0, "is_disabled": 0, "fusion_lat": 0.0}, {"fusion_lon": 0.0, "bike_id": "635c42e9850423e88428c5d3dcb3d9c3", "name": "635c42e9850423e88428c5d3dcb3d9c3", "type": "electric_scooter", "lon": -77.024908, "rental_uris": {"android": "https://dc.lft.to/lastmile_qr_scan", "ios": "https://dc.lft.to/lastmile_qr_scan"}, "lat": 38.93286716666667, "is_reserved": 0, "is_disabled": 0, "fusion_lat": 0.0}, {"fusion_lon": 0.0, "bike_id": "25027653d57d86ae0533054589a86ef0", "name": "25027653d57d86ae0533054589a86ef0", "type": "electric_scooter", "lon": -77.028134, "rental_uris": {"android": "https://dc.lft.to/lastmile_qr_scan", "ios": "https://dc.lft.to/lastmile_qr_scan"}, "lat": 38.914217666666666, "is_reserved": 0, "is_disabled": 0, "fusion_lat": 0.0}, {"fusion_lon": 0.0, "bike_id": "e6cd603bd5041c28a2c45e694e584cee", "name": "e6cd603bd5041c28a2c45e694e584cee", "type": "electric_scooter", "lon": -76.98096916666667, "rental_uris": {"android": "https://dc.lft.to/lastmile_qr_scan", "ios": "https://dc.lft.to/lastmile_qr_scan"}, "lat": 38.857229833333335, "is_reserved": 0, "is_disabled": 0, "fusion_lat": 0.0}, {"fusion_lon": 0.0, "bike_id": "4f62cb4c90e332e712216d101924a8b2", "name": "4f62cb4c90e332e712216d101924a8b2", "type": "electric_scooter", "lon": -76.99086083333333, "rental_uris": {"android": "https://dc.lft.to/lastmile_qr_scan", "ios": "https://dc.lft.to/lastmile_qr_scan"}, "lat": 38.86238316666667, "is_reserved": 0, "is_disabled": 0, "fusion_lat": 0.0}, {"fusion_lon": 0.0, "bike_id": "5cd80305fa638e40012256ccd3fbd3d2", "name": "5cd80305fa638e40012256ccd3fbd3d2", "type": "electric_scooter", "lon": -77.03215716666666, "rental_uris": {"android": "https://dc.lft.to/lastmile_qr_scan", "ios": "https://dc.lft.to/lastmile_qr_scan"}, "lat": 38.9044315, "is_reserved": 0, "is_disabled": 0, "fusion_lat": 0.0}, {"fusion_lon": 0.0, "bike_id": "3b67cc83b33ef753722165fff38b131a", "name": "3b67cc83b33ef753722165fff38b131a", "type": "electric_scooter", "lon": -77.0599795, "rental_uris": {"android": "https://dc.lft.to/lastmile_qr_scan", "ios": "https://dc.lft.to/lastmile_qr_scan"}, "lat": 38.9052705, "is_reserved": 0, "is_disabled": 0, "fusion_lat": 0.0}, {"fusion_lon": 0.0, "bike_id": "4858627bc55b7dcd72b979de5af1d89b", "name": "4858627bc55b7dcd72b979de5af1d89b", "type": "electric_bike", "lon": -76.98839833333334, "rental_uris": {"android": "https://dc.lft.to/lastmile_qr_scan", "ios": "https://dc.lft.to/lastmile_qr_scan"}, "lat": 38.84277516666667, "is_reserved": 0, "is_disabled": 0, "fusion_lat": 0.0}, {"fusion_lon": 0.0, "bike_id": "5bcb56ff9379c92dcf2af2e3fdf267c4", "name": "5bcb56ff9379c92dcf2af2e3fdf267c4", "type": "electric_scooter", "lon": -77.022994, "rental_uris": {"android": "https://dc.lft.to/lastmile_qr_scan", "ios": "https://dc.lft.to/lastmile_qr_scan"}, "lat": 38.91567333333333, "is_reserved": 0, "is_disabled": 0, "fusion_lat": 0.0}, {"fusion_lon": 0.0, "bike_id": "8d6103103b03e3ef56716f822bd67dfc", "name": "8d6103103b03e3ef56716f822bd67dfc", "type": "electric_scooter", "lon": -77.05583083333333, "rental_uris": {"android": "https://dc.lft.to/lastmile_qr_scan", "ios": "https://dc.lft.to/lastmile_qr_scan"}, "lat": 38.936185333333334, "is_reserved": 0, "is_disabled": 0, "fusion_lat": 0.0}, {"fusion_lon": 0.0, "bike_id": "fad9b95b57a316789fb86e8520b172ed", "name": "fad9b95b57a316789fb86e8520b172ed", "type": "electric_bike", "lon": -77.0124185, "rental_uris": {"android": "https://dc.lft.to/lastmile_qr_scan", "ios": "https://dc.lft.to/lastmile_qr_scan"}, "lat": 38.89319883333334, "is_reserved": 0, "is_disabled": 0, "fusion_lat": 0.0}, {"fusion_lon": 0.0, "bike_id": "215834bee92f790bc44091be8d501852", "name": "215834bee92f790bc44091be8d501852", "type": "electric_scooter", "lon": -77.02293583333334, "rental_uris": {"android": "https://dc.lft.to/lastmile_qr_scan", "ios": "https://dc.lft.to/lastmile_qr_scan"}, "lat": 38.937645833333335, "is_reserved": 0, "is_disabled": 0, "fusion_lat": 0.0}, {"fusion_lon": 0.0, "bike_id": "fd4775195a05feb3a04ccd84c59da78b", "name": "fd4775195a05feb3a04ccd84c59da78b", "type": "electric_scooter", "lon": -77.02406, "rental_uris": {"android": "https://dc.lft.to/lastmile_qr_scan", "ios": "https://dc.lft.to/lastmile_qr_scan"}, "lat": 38.907463666666665, "is_reserved": 0, "is_disabled": 0, "fusion_lat": 0.0}, {"fusion_lon": 0.0, "bike_id": "35a5257a010ded68e83104a4d6ca486e", "name": "35a5257a010ded68e83104a4d6ca486e", "type": "electric_scooter", "lon": -76.949403, "rental_uris": {"android": "https://dc.lft.to/lastmile_qr_scan", "ios": "https://dc.lft.to/lastmile_qr_scan"}, "lat": 38.883208333333336, "is_reserved": 0, "is_disabled": 0, "fusion_lat": 0.0}, {"fusion_lon": 0.0, "bike_id": "dbd4433926a2bfbde53dca5cdef58a21", "name": "dbd4433926a2bfbde53dca5cdef58a21", "type": "electric_scooter", "lon": -76.94773983333333, "rental_uris": {"android": "https://dc.lft.to/lastmile_qr_scan", "ios": "https://dc.lft.to/lastmile_qr_scan"}, "lat": 38.89634933333333, "is_reserved": 0, "is_disabled": 0, "fusion_lat": 0.0}, {"fusion_lon": 0.0, "bike_id": "28a88ef245fc04ba0032b7612549532f", "name": "28a88ef245fc04ba0032b7612549532f", "type": "electric_scooter", "lon": -77.00449683333333, "rental_uris": {"android": "https://dc.lft.to/lastmile_qr_scan", "ios": "https://dc.lft.to/lastmile_qr_scan"}, "lat": 38.90758683333333, "is_reserved": 0, "is_disabled": 0, "fusion_lat": 0.0}, {"fusion_lon": 0.0, "bike_id": "9cea0c32bcb350bfe3d126dcfcee9cdd", "name": "9cea0c32bcb350bfe3d126dcfcee9cdd", "type": "electric_scooter", "lon": -77.03926583333333, "rental_uris": {"android": "https://dc.lft.to/lastmile_qr_scan", "ios": "https://dc.lft.to/lastmile_qr_scan"}, "lat": 38.911902833333336, "is_reserved": 0, "is_disabled": 0, "fusion_lat": 0.0}, {"fusion_lon": 0.0, "bike_id": "8c0f0988e0afb6d242fb7f7b46c89aef", "name": "8c0f0988e0afb6d242fb7f7b46c89aef", "type": "electric_scooter", "lon": -77.00441233333333, "rental_uris": {"android": "https://dc.lft.to/lastmile_qr_scan", "ios": "https://dc.lft.to/lastmile_qr_scan"}, "lat": 38.876686, "is_reserved": 0, "is_disabled": 0, "fusion_lat": 0.0}, {"fusion_lon": 0.0, "bike_id": "b17337bd23b63abe16e3609ea70e4016", "name": "b17337bd23b63abe16e3609ea70e4016", "type": "electric_scooter", "lon": -76.99008183333333, "rental_uris": {"android": "https://dc.lft.to/lastmile_qr_scan", "ios": "https://dc.lft.to/lastmile_qr_scan"}, "lat": 38.865120166666664, "is_reserved": 0, "is_disabled": 0, "fusion_lat": 0.0}, {"fusion_lon": 0.0, "bike_id": "daf0efb6a82ce1a3e51db469bf026f4d", "name": "daf0efb6a82ce1a3e51db469bf026f4d", "type": "electric_scooter", "lon": -77.001377, "rental_uris": {"android": "https://dc.lft.to/lastmile_qr_scan", "ios": "https://dc.lft.to/lastmile_qr_scan"}, "lat": 38.905224, "is_reserved": 0, "is_disabled": 0, "fusion_lat": 0.0}, {"fusion_lon": 0.0, "bike_id": "d15e7bf4caff04125f9c26c2d75e3580", "name": "d15e7bf4caff04125f9c26c2d75e3580", "type": "electric_scooter", "lon": -77.02261033333333, "rental_uris": {"android": "https://dc.lft.to/lastmile_qr_scan", "ios": "https://dc.lft.to/lastmile_qr_scan"}, "lat": 38.9472135, "is_reserved": 0, "is_disabled": 0, "fusion_lat": 0.0}, {"fusion_lon": 0.0, "bike_id": "d4427a730112ec7288f346c676e1619b", "name": "d4427a730112ec7288f346c676e1619b", "type": "electric_scooter", "lon": -77.022013, "rental_uris": {"android": "https://dc.lft.to/lastmile_qr_scan", "ios": "https://dc.lft.to/lastmile_qr_scan"}, "lat": 38.915352, "is_reserved": 0, "is_disabled": 0, "fusion_lat": 0.0}, {"fusion_lon": 0.0, "bike_id": "59d613af33c6420b7dd20a0aed91dee9", "name": "59d613af33c6420b7dd20a0aed91dee9", "type": "electric_scooter", "lon": -77.01718483333333, "rental_uris": {"android": "https://dc.lft.to/lastmile_qr_scan", "ios": "https://dc.lft.to/lastmile_qr_scan"}, "lat": 38.90531416666666, "is_reserved": 0, "is_disabled": 0, "fusion_lat": 0.0}, {"fusion_lon": 0.0, "bike_id": "b62fbd2a3d3a972e34bdca1bb3334f21", "name": "b62fbd2a3d3a972e34bdca1bb3334f21", "type": "electric_scooter", "lon": -77.03319016666667, "rental_uris": {"android": "https://dc.lft.to/lastmile_qr_scan", "ios": "https://dc.lft.to/lastmile_qr_scan"}, "lat": 38.904089666666664, "is_reserved": 0, "is_disabled": 0, "fusion_lat": 0.0}, {"fusion_lon": 0.0, "bike_id": "737c50c1299c851023108da78dcc32e4", "name": "737c50c1299c851023108da78dcc32e4", "type": "electric_scooter", "lon": -77.04361833333333, "rental_uris": {"android": "https://dc.lft.to/lastmile_qr_scan", "ios": "https://dc.lft.to/lastmile_qr_scan"}, "lat": 38.89239583333333, "is_reserved": 0, "is_disabled": 0, "fusion_lat": 0.0}, {"fusion_lon": 0.0, "bike_id": "cee32f807f0c083e8409aa59488e383f", "name": "cee32f807f0c083e8409aa59488e383f", "type": "electric_scooter", "lon": -77.03835116666667, "rental_uris": {"android": "https://dc.lft.to/lastmile_qr_scan", "ios": "https://dc.lft.to/lastmile_qr_scan"}, "lat": 38.9156615, "is_reserved": 0, "is_disabled": 0, "fusion_lat": 0.0}, {"fusion_lon": 0.0, "bike_id": "f47c0e4d717f5aca5364d0776c630c21", "name": "f47c0e4d717f5aca5364d0776c630c21", "type": "electric_scooter", "lon": -77.04723533333333, "rental_uris": {"android": "https://dc.lft.to/lastmile_qr_scan", "ios": "https://dc.lft.to/lastmile_qr_scan"}, "lat": 38.922265333333335, "is_reserved": 0, "is_disabled": 0, "fusion_lat": 0.0}, {"fusion_lon": 0.0, "bike_id": "1bfd6585c4fdb88433e5a53d2b2d1baa", "name": "1bfd6585c4fdb88433e5a53d2b2d1baa", "type": "electric_scooter", "lon": -76.98463716666667, "rental_uris": {"android": "https://dc.lft.to/lastmile_qr_scan", "ios": "https://dc.lft.to/lastmile_qr_scan"}, "lat": 38.89773666666667, "is_reserved": 0, "is_disabled": 0, "fusion_lat": 0.0}, {"fusion_lon": 0.0, "bike_id": "bd77d82ae3482181659e07a5cf00c05c", "name": "bd77d82ae3482181659e07a5cf00c05c", "type": "electric_scooter", "lon": -77.04393666666667, "rental_uris": {"android": "https://dc.lft.to/lastmile_qr_scan", "ios": "https://dc.lft.to/lastmile_qr_scan"}, "lat": 38.910875833333336, "is_reserved": 0, "is_disabled": 0, "fusion_lat": 0.0}, {"fusion_lon": 0.0, "bike_id": "35bfe876a64087a820ac0b242d6f8799", "name": "35bfe876a64087a820ac0b242d6f8799", "type": "electric_scooter", "lon": -77.04903216666666, "rental_uris": {"android": "https://dc.lft.to/lastmile_qr_scan", "ios": "https://dc.lft.to/lastmile_qr_scan"}, "lat": 38.89226333333333, "is_reserved": 0, "is_disabled": 0, "fusion_lat": 0.0}, {"fusion_lon": 0.0, "bike_id": "e18c47eb46fa8fcd39a229e7836d779c", "name": "e18c47eb46fa8fcd39a229e7836d779c", "type": "electric_scooter", "lon": -77.040896, "rental_uris": {"android": "https://dc.lft.to/lastmile_qr_scan", "ios": "https://dc.lft.to/lastmile_qr_scan"}, "lat": 38.90791516666667, "is_reserved": 0, "is_disabled": 0, "fusion_lat": 0.0}, {"fusion_lon": 0.0, "bike_id": "5f658d03fa78b2eac0d34d7b7657e07d", "name": "5f658d03fa78b2eac0d34d7b7657e07d", "type": "electric_bike", "lon": -76.96561733333333, "rental_uris": {"android": "https://dc.lft.to/lastmile_qr_scan", "ios": "https://dc.lft.to/lastmile_qr_scan"}, "lat": 38.950914, "is_reserved": 0, "is_disabled": 0, "fusion_lat": 0.0}, {"fusion_lon": 0.0, "bike_id": "c9ba7960819f3fb947035b9790906107", "name": "c9ba7960819f3fb947035b9790906107", "type": "electric_scooter", "lon": -77.0334765, "rental_uris": {"android": "https://dc.lft.to/lastmile_qr_scan", "ios": "https://dc.lft.to/lastmile_qr_scan"}, "lat": 38.90030133333333, "is_reserved": 0, "is_disabled": 0, "fusion_lat": 0.0}, {"fusion_lon": 0.0, "bike_id": "9b5ad7c28aa36a20a822681cfa651d84", "name": "9b5ad7c28aa36a20a822681cfa651d84", "type": "electric_scooter", "lon": -77.072321, "rental_uris": {"android": "https://dc.lft.to/lastmile_qr_scan", "ios": "https://dc.lft.to/lastmile_qr_scan"}, "lat": 38.93460733333333, "is_reserved": 0, "is_disabled": 0, "fusion_lat": 0.0}, {"fusion_lon": 0.0, "bike_id": "bfdff30d665152378d467929a52ed2d0", "name": "bfdff30d665152378d467929a52ed2d0", "type": "electric_scooter", "lon": -77.04600616666667, "rental_uris": {"android": "https://dc.lft.to/lastmile_qr_scan", "ios": "https://dc.lft.to/lastmile_qr_scan"}, "lat": 38.91700183333333, "is_reserved": 0, "is_disabled": 0, "fusion_lat": 0.0}, {"fusion_lon": 0.0, "bike_id": "b973540ca7408a6c8909e56ed29c5474", "name": "b973540ca7408a6c8909e56ed29c5474", "type": "electric_scooter", "lon": -77.02321983333333, "rental_uris": {"android": "https://dc.lft.to/lastmile_qr_scan", "ios": "https://dc.lft.to/lastmile_qr_scan"}, "lat": 38.91720216666667, "is_reserved": 0, "is_disabled": 0, "fusion_lat": 0.0}, {"fusion_lon": 0.0, "bike_id": "adf050ceb277eed388d1733dc05052a5", "name": "adf050ceb277eed388d1733dc05052a5", "type": "electric_scooter", "lon": -76.98925466666667, "rental_uris": {"android": "https://dc.lft.to/lastmile_qr_scan", "ios": "https://dc.lft.to/lastmile_qr_scan"}, "lat": 38.882040333333336, "is_reserved": 0, "is_disabled": 0, "fusion_lat": 0.0}, {"fusion_lon": 0.0, "bike_id": "bd0cf095afb175386de7c06823039d0b", "name": "bd0cf095afb175386de7c06823039d0b", "type": "electric_bike", "lon": -77.05106366666666, "rental_uris": {"android": "https://dc.lft.to/lastmile_qr_scan", "ios": "https://dc.lft.to/lastmile_qr_scan"}, "lat": 38.9455855, "is_reserved": 0, "is_disabled": 0, "fusion_lat": 0.0}, {"fusion_lon": 0.0, "bike_id": "a63009ad93b911472e31ccdfb20a7f86", "name": "a63009ad93b911472e31ccdfb20a7f86", "type": "electric_bike", "lon": -77.00009666666666, "rental_uris": {"android": "https://dc.lft.to/lastmile_qr_scan", "ios": "https://dc.lft.to/lastmile_qr_scan"}, "lat": 38.923983, "is_reserved": 0, "is_disabled": 0, "fusion_lat": 0.0}, {"fusion_lon": 0.0, "bike_id": "1d881867510213c7b320b7f0dfd0109b", "name": "1d881867510213c7b320b7f0dfd0109b", "type": "electric_scooter", "lon": -77.03934483333333, "rental_uris": {"android": "https://dc.lft.to/lastmile_qr_scan", "ios": "https://dc.lft.to/lastmile_qr_scan"}, "lat": 38.92493066666667, "is_reserved": 0, "is_disabled": 0, "fusion_lat": 0.0}, {"fusion_lon": 0.0, "bike_id": "bb66236481190fc8a872a7744dad3284", "name": "bb66236481190fc8a872a7744dad3284", "type": "electric_bike", "lon": -77.05411216666667, "rental_uris": {"android": "https://dc.lft.to/lastmile_qr_scan", "ios": "https://dc.lft.to/lastmile_qr_scan"}, "lat": 38.848903666666665, "is_reserved": 0, "is_disabled": 0, "fusion_lat": 0.0}, {"fusion_lon": 0.0, "bike_id": "4d84ef5b4a8da368fe977fe6df188b87", "name": "4d84ef5b4a8da368fe977fe6df188b87", "type": "electric_scooter", "lon": -77.0636295, "rental_uris": {"android": "https://dc.lft.to/lastmile_qr_scan", "ios": "https://dc.lft.to/lastmile_qr_scan"}, "lat": 38.9441665, "is_reserved": 0, "is_disabled": 0, "fusion_lat": 0.0}, {"fusion_lon": 0.0, "bike_id": "093841e66c748cab285158e29dc4c637", "name": "093841e66c748cab285158e29dc4c637", "type": "electric_bike", "lon": -77.10713633333333, "rental_uris": {"android": "https://dc.lft.to/lastmile_qr_scan", "ios": "https://dc.lft.to/lastmile_qr_scan"}, "lat": 38.85547616666667, "is_reserved": 0, "is_disabled": 0, "fusion_lat": 0.0}, {"fusion_lon": 0.0, "bike_id": "748ebd2ccf1fbf204833028b67d22278", "name": "748ebd2ccf1fbf204833028b67d22278", "type": "electric_scooter", "lon": -77.03216533333334, "rental_uris": {"android": "https://dc.lft.to/lastmile_qr_scan", "ios": "https://dc.lft.to/lastmile_qr_scan"}, "lat": 38.91271716666667, "is_reserved": 0, "is_disabled": 0, "fusion_lat": 0.0}, {"fusion_lon": 0.0, "bike_id": "ae358eddbebef49a243a5581aba156c9", "name": "ae358eddbebef49a243a5581aba156c9", "type": "electric_scooter", "lon": -77.044538, "rental_uris": {"android": "https://dc.lft.to/lastmile_qr_scan", "ios": "https://dc.lft.to/lastmile_qr_scan"}, "lat": 38.90993666666667, "is_reserved": 0, "is_disabled": 0, "fusion_lat": 0.0}, {"fusion_lon": 0.0, "bike_id": "ae4da44921b8fe8f3ce36164ec0411f9", "name": "ae4da44921b8fe8f3ce36164ec0411f9", "type": "electric_scooter", "lon": -77.02781366666666, "rental_uris": {"android": "https://dc.lft.to/lastmile_qr_scan", "ios": "https://dc.lft.to/lastmile_qr_scan"}, "lat": 38.892233833333336, "is_reserved": 0, "is_disabled": 0, "fusion_lat": 0.0}, {"fusion_lon": 0.0, "bike_id": "1a153af7328fa658285f9b5bfc678fa3", "name": "1a153af7328fa658285f9b5bfc678fa3", "type": "electric_scooter", "lon": -77.04147566666667, "rental_uris": {"android": "https://dc.lft.to/lastmile_qr_scan", "ios": "https://dc.lft.to/lastmile_qr_scan"}, "lat": 38.9156745, "is_reserved": 0, "is_disabled": 0, "fusion_lat": 0.0}, {"fusion_lon": 0.0, "bike_id": "f2646bc5142cbb24b74fc74180e950f0", "name": "f2646bc5142cbb24b74fc74180e950f0", "type": "electric_scooter", "lon": -76.9644015, "rental_uris": {"android": "https://dc.lft.to/lastmile_qr_scan", "ios": "https://dc.lft.to/lastmile_qr_scan"}, "lat": 38.9346545, "is_reserved": 0, "is_disabled": 0, "fusion_lat": 0.0}, {"fusion_lon": 0.0, "bike_id": "a37cdb6357363ace1e36b458826dc526", "name": "a37cdb6357363ace1e36b458826dc526", "type": "electric_scooter", "lon": -77.03880416666667, "rental_uris": {"android": "https://dc.lft.to/lastmile_qr_scan", "ios": "https://dc.lft.to/lastmile_qr_scan"}, "lat": 38.934316, "is_reserved": 0, "is_disabled": 0, "fusion_lat": 0.0}, {"fusion_lon": 0.0, "bike_id": "e8caaf9040bc08322e213e998615a1ed", "name": "e8caaf9040bc08322e213e998615a1ed", "type": "electric_scooter", "lon": -77.045839, "rental_uris": {"android": "https://dc.lft.to/lastmile_qr_scan", "ios": "https://dc.lft.to/lastmile_qr_scan"}, "lat": 38.924202333333334, "is_reserved": 0, "is_disabled": 0, "fusion_lat": 0.0}, {"fusion_lon": 0.0, "bike_id": "fe27641eb15a08a1df6dc1ed44e595c7", "name": "fe27641eb15a08a1df6dc1ed44e595c7", "type": "electric_scooter", "lon": -77.02801566666666, "rental_uris": {"android": "https://dc.lft.to/lastmile_qr_scan", "ios": "https://dc.lft.to/lastmile_qr_scan"}, "lat": 38.91684633333333, "is_reserved": 0, "is_disabled": 0, "fusion_lat": 0.0}, {"fusion_lon": 0.0, "bike_id": "7bad94fe240804a4a48e06feae572a1b", "name": "7bad94fe240804a4a48e06feae572a1b", "type": "electric_scooter", "lon": -77.01996083333333, "rental_uris": {"android": "https://dc.lft.to/lastmile_qr_scan", "ios": "https://dc.lft.to/lastmile_qr_scan"}, "lat": 38.9663065, "is_reserved": 0, "is_disabled": 0, "fusion_lat": 0.0}, {"fusion_lon": 0.0, "bike_id": "b33465e0fe87ec564d5de3b17d9027a4", "name": "b33465e0fe87ec564d5de3b17d9027a4", "type": "electric_bike", "lon": -76.94802583333333, "rental_uris": {"android": "https://dc.lft.to/lastmile_qr_scan", "ios": "https://dc.lft.to/lastmile_qr_scan"}, "lat": 38.86196366666667, "is_reserved": 0, "is_disabled": 0, "fusion_lat": 0.0}, {"fusion_lon": 0.0, "bike_id": "3c304cd42edb219d6a5fcf3b367a6739", "name": "3c304cd42edb219d6a5fcf3b367a6739", "type": "electric_scooter", "lon": -77.02804166666667, "rental_uris": {"android": "https://dc.lft.to/lastmile_qr_scan", "ios": "https://dc.lft.to/lastmile_qr_scan"}, "lat": 38.91104033333333, "is_reserved": 0, "is_disabled": 0, "fusion_lat": 0.0}, {"fusion_lon": 0.0, "bike_id": "697eb5512e95b44bfbc490e8e5a906c1", "name": "697eb5512e95b44bfbc490e8e5a906c1", "type": "electric_scooter", "lon": -77.03865566666667, "rental_uris": {"android": "https://dc.lft.to/lastmile_qr_scan", "ios": "https://dc.lft.to/lastmile_qr_scan"}, "lat": 38.915554, "is_reserved": 0, "is_disabled": 0, "fusion_lat": 0.0}, {"fusion_lon": 0.0, "bike_id": "678f50722e6bf6083229fd09aec549e4", "name": "678f50722e6bf6083229fd09aec549e4", "type": "electric_bike", "lon": -76.98005683333334, "rental_uris": {"android": "https://dc.lft.to/lastmile_qr_scan", "ios": "https://dc.lft.to/lastmile_qr_scan"}, "lat": 38.853235833333336, "is_reserved": 0, "is_disabled": 0, "fusion_lat": 0.0}, {"fusion_lon": 0.0, "bike_id": "967c0bf7fc6cc22fb2ab6aad4e3126ed", "name": "967c0bf7fc6cc22fb2ab6aad4e3126ed", "type": "electric_scooter", "lon": -77.03258066666666, "rental_uris": {"android": "https://dc.lft.to/lastmile_qr_scan", "ios": "https://dc.lft.to/lastmile_qr_scan"}, "lat": 38.932666166666664, "is_reserved": 0, "is_disabled": 0, "fusion_lat": 0.0}, {"fusion_lon": 0.0, "bike_id": "d90a65e54c632fed780764bc9ad28618", "name": "d90a65e54c632fed780764bc9ad28618", "type": "electric_scooter", "lon": -77.0416875, "rental_uris": {"android": "https://dc.lft.to/lastmile_qr_scan", "ios": "https://dc.lft.to/lastmile_qr_scan"}, "lat": 38.920105666666664, "is_reserved": 0, "is_disabled": 0, "fusion_lat": 0.0}, {"fusion_lon": 0.0, "bike_id": "4abb7b5d0b222ddeb022891721f62e12", "name": "4abb7b5d0b222ddeb022891721f62e12", "type": "electric_scooter", "lon": -77.03208766666667, "rental_uris": {"android": "https://dc.lft.to/lastmile_qr_scan", "ios": "https://dc.lft.to/lastmile_qr_scan"}, "lat": 38.907884, "is_reserved": 0, "is_disabled": 0, "fusion_lat": 0.0}, {"fusion_lon": 0.0, "bike_id": "31ce900ec7d062db077122baa7d52f20", "name": "31ce900ec7d062db077122baa7d52f20", "type": "electric_scooter", "lon": -77.0342575, "rental_uris": {"android": "https://dc.lft.to/lastmile_qr_scan", "ios": "https://dc.lft.to/lastmile_qr_scan"}, "lat": 38.907208, "is_reserved": 0, "is_disabled": 0, "fusion_lat": 0.0}, {"fusion_lon": 0.0, "bike_id": "e943babdff7da228d6a80df58bd342cf", "name": "e943babdff7da228d6a80df58bd342cf", "type": "electric_scooter", "lon": -77.01105616666666, "rental_uris": {"android": "https://dc.lft.to/lastmile_qr_scan", "ios": "https://dc.lft.to/lastmile_qr_scan"}, "lat": 38.90972683333333, "is_reserved": 0, "is_disabled": 0, "fusion_lat": 0.0}, {"fusion_lon": 0.0, "bike_id": "60ad714cdedcdc241f82b942ee2488f9", "name": "60ad714cdedcdc241f82b942ee2488f9", "type": "electric_scooter", "lon": -77.03109, "rental_uris": {"android": "https://dc.lft.to/lastmile_qr_scan", "ios": "https://dc.lft.to/lastmile_qr_scan"}, "lat": 38.92020266666667, "is_reserved": 0, "is_disabled": 0, "fusion_lat": 0.0}, {"fusion_lon": 0.0, "bike_id": "3a1c37c6e6877d3f7fb303ea362092f4", "name": "3a1c37c6e6877d3f7fb303ea362092f4", "type": "electric_scooter", "lon": -77.023483, "rental_uris": {"android": "https://dc.lft.to/lastmile_qr_scan", "ios": "https://dc.lft.to/lastmile_qr_scan"}, "lat": 38.9353285, "is_reserved": 0, "is_disabled": 0, "fusion_lat": 0.0}, {"fusion_lon": 0.0, "bike_id": "d0635c9aa5ff9cfe25f8c67fec1e91b1", "name": "d0635c9aa5ff9cfe25f8c67fec1e91b1", "type": "electric_scooter", "lon": -77.0321205, "rental_uris": {"android": "https://dc.lft.to/lastmile_qr_scan", "ios": "https://dc.lft.to/lastmile_qr_scan"}, "lat": 38.9092875, "is_reserved": 0, "is_disabled": 0, "fusion_lat": 0.0}, {"fusion_lon": 0.0, "bike_id": "d395fdac613014aa9e1ab5eef0a551c0", "name": "d395fdac613014aa9e1ab5eef0a551c0", "type": "electric_scooter", "lon": -77.03638533333333, "rental_uris": {"android": "https://dc.lft.to/lastmile_qr_scan", "ios": "https://dc.lft.to/lastmile_qr_scan"}, "lat": 38.91224916666667, "is_reserved": 0, "is_disabled": 0, "fusion_lat": 0.0}, {"fusion_lon": 0.0, "bike_id": "f2ad4de0fec7f65e907e4ae402d85c9c", "name": "f2ad4de0fec7f65e907e4ae402d85c9c", "type": "electric_scooter", "lon": -77.01440383333333, "rental_uris": {"android": "https://dc.lft.to/lastmile_qr_scan", "ios": "https://dc.lft.to/lastmile_qr_scan"}, "lat": 38.91964266666667, "is_reserved": 0, "is_disabled": 0, "fusion_lat": 0.0}, {"fusion_lon": 0.0, "bike_id": "7017e771d5d7fca6739b643d00d8d3c4", "name": "7017e771d5d7fca6739b643d00d8d3c4", "type": "electric_bike", "lon": -76.877733, "rental_uris": {"android": "https://dc.lft.to/lastmile_qr_scan", "ios": "https://dc.lft.to/lastmile_qr_scan"}, "lat": 38.99221466666667, "is_reserved": 0, "is_disabled": 0, "fusion_lat": 0.0}, {"fusion_lon": 0.0, "bike_id": "4ef4050c54ed05c14d3849b964c42e09", "name": "4ef4050c54ed05c14d3849b964c42e09", "type": "electric_scooter", "lon": -76.97822233333333, "rental_uris": {"android": "https://dc.lft.to/lastmile_qr_scan", "ios": "https://dc.lft.to/lastmile_qr_scan"}, "lat": 38.846117666666665, "is_reserved": 0, "is_disabled": 0, "fusion_lat": 0.0}, {"fusion_lon": 0.0, "bike_id": "4098eea962402ce48c9b707b1e8179ef", "name": "4098eea962402ce48c9b707b1e8179ef", "type": "electric_bike", "lon": -76.96385033333334, "rental_uris": {"android": "https://dc.lft.to/lastmile_qr_scan", "ios": "https://dc.lft.to/lastmile_qr_scan"}, "lat": 38.975805666666666, "is_reserved": 0, "is_disabled": 0, "fusion_lat": 0.0}, {"fusion_lon": 0.0, "bike_id": "7898faa886db853e66000b3559eee28b", "name": "7898faa886db853e66000b3559eee28b", "type": "electric_scooter", "lon": -77.00324583333334, "rental_uris": {"android": "https://dc.lft.to/lastmile_qr_scan", "ios": "https://dc.lft.to/lastmile_qr_scan"}, "lat": 38.902664, "is_reserved": 0, "is_disabled": 0, "fusion_lat": 0.0}, {"fusion_lon": 0.0, "bike_id": "eab47898c525af6cbc47fa4beed7a4c3", "name": "eab47898c525af6cbc47fa4beed7a4c3", "type": "electric_bike", "lon": -76.985225, "rental_uris": {"android": "https://dc.lft.to/lastmile_qr_scan", "ios": "https://dc.lft.to/lastmile_qr_scan"}, "lat": 38.92002216666667, "is_reserved": 0, "is_disabled": 0, "fusion_lat": 0.0}, {"fusion_lon": 0.0, "bike_id": "b2b967921069e84280a849303ed67626", "name": "b2b967921069e84280a849303ed67626", "type": "electric_bike", "lon": -76.94863766666667, "rental_uris": {"android": "https://dc.lft.to/lastmile_qr_scan", "ios": "https://dc.lft.to/lastmile_qr_scan"}, "lat": 38.88970466666667, "is_reserved": 0, "is_disabled": 0, "fusion_lat": 0.0}, {"fusion_lon": 0.0, "bike_id": "0acaf1c2aebeeb25ce152444c30cf455", "name": "0acaf1c2aebeeb25ce152444c30cf455", "type": "electric_bike", "lon": -76.98473266666667, "rental_uris": {"android": "https://dc.lft.to/lastmile_qr_scan", "ios": "https://dc.lft.to/lastmile_qr_scan"}, "lat": 38.89151866666667, "is_reserved": 0, "is_disabled": 0, "fusion_lat": 0.0}, {"fusion_lon": 0.0, "bike_id": "598a31719e49314a71b235b04e0df209", "name": "598a31719e49314a71b235b04e0df209", "type": "electric_scooter", "lon": -77.04101666666666, "rental_uris": {"android": "https://dc.lft.to/lastmile_qr_scan", "ios": "https://dc.lft.to/lastmile_qr_scan"}, "lat": 38.90151083333333, "is_reserved": 0, "is_disabled": 0, "fusion_lat": 0.0}, {"fusion_lon": 0.0, "bike_id": "6c7dcbbd686d550a1e45410e898fac22", "name": "6c7dcbbd686d550a1e45410e898fac22", "type": "electric_scooter", "lon": -76.9953795, "rental_uris": {"android": "https://dc.lft.to/lastmile_qr_scan", "ios": "https://dc.lft.to/lastmile_qr_scan"}, "lat": 38.900381333333335, "is_reserved": 0, "is_disabled": 0, "fusion_lat": 0.0}, {"fusion_lon": 0.0, "bike_id": "9c5930aa944efce4e0468a5c7b2e9a36", "name": "9c5930aa944efce4e0468a5c7b2e9a36", "type": "electric_scooter", "lon": -77.03459183333334, "rental_uris": {"android": "https://dc.lft.to/lastmile_qr_scan", "ios": "https://dc.lft.to/lastmile_qr_scan"}, "lat": 38.918126, "is_reserved": 0, "is_disabled": 0, "fusion_lat": 0.0}, {"fusion_lon": 0.0, "bike_id": "ba82fe5719315d6c1cf0cc6816301c1e", "name": "ba82fe5719315d6c1cf0cc6816301c1e", "type": "electric_scooter", "lon": -77.022231, "rental_uris": {"android": "https://dc.lft.to/lastmile_qr_scan", "ios": "https://dc.lft.to/lastmile_qr_scan"}, "lat": 38.9127005, "is_reserved": 0, "is_disabled": 0, "fusion_lat": 0.0}, {"fusion_lon": 0.0, "bike_id": "ce7a07bd67ebc6c9a9556beaa7c6a7e0", "name": "ce7a07bd67ebc6c9a9556beaa7c6a7e0", "type": "electric_scooter", "lon": -77.024189, "rental_uris": {"android": "https://dc.lft.to/lastmile_qr_scan", "ios": "https://dc.lft.to/lastmile_qr_scan"}, "lat": 38.91827416666667, "is_reserved": 0, "is_disabled": 0, "fusion_lat": 0.0}, {"fusion_lon": 0.0, "bike_id": "c61da0fa8cc952491ccd3dda129b472d", "name": "c61da0fa8cc952491ccd3dda129b472d", "type": "electric_scooter", "lon": -77.03030416666667, "rental_uris": {"android": "https://dc.lft.to/lastmile_qr_scan", "ios": "https://dc.lft.to/lastmile_qr_scan"}, "lat": 38.9311535, "is_reserved": 0, "is_disabled": 0, "fusion_lat": 0.0}, {"fusion_lon": 0.0, "bike_id": "0d68da98b21408693ef87a7a0d0ca5bc", "name": "0d68da98b21408693ef87a7a0d0ca5bc", "type": "electric_scooter", "lon": -77.0150085, "rental_uris": {"android": "https://dc.lft.to/lastmile_qr_scan", "ios": "https://dc.lft.to/lastmile_qr_scan"}, "lat": 38.899345333333336, "is_reserved": 0, "is_disabled": 0, "fusion_lat": 0.0}, {"fusion_lon": 0.0, "bike_id": "947043b79f7cd63403e04637414d7f43", "name": "947043b79f7cd63403e04637414d7f43", "type": "electric_bike", "lon": -76.949547, "rental_uris": {"android": "https://dc.lft.to/lastmile_qr_scan", "ios": "https://dc.lft.to/lastmile_qr_scan"}, "lat": 38.93503033333333, "is_reserved": 0, "is_disabled": 0, "fusion_lat": 0.0}, {"fusion_lon": 0.0, "bike_id": "f7f22a78aa89d0ab62cf6efb6af67d19", "name": "f7f22a78aa89d0ab62cf6efb6af67d19", "type": "electric_scooter", "lon": -76.989655, "rental_uris": {"android": "https://dc.lft.to/lastmile_qr_scan", "ios": "https://dc.lft.to/lastmile_qr_scan"}, "lat": 38.90249933333333, "is_reserved": 0, "is_disabled": 0, "fusion_lat": 0.0}, {"fusion_lon": 0.0, "bike_id": "d1b60f715cbac5b71477189ba3bf2b33", "name": "d1b60f715cbac5b71477189ba3bf2b33", "type": "electric_scooter", "lon": -76.99955483333333, "rental_uris": {"android": "https://dc.lft.to/lastmile_qr_scan", "ios": "https://dc.lft.to/lastmile_qr_scan"}, "lat": 38.84285966666667, "is_reserved": 0, "is_disabled": 0, "fusion_lat": 0.0}, {"fusion_lon": 0.0, "bike_id": "8615ee6fa2abe772355b2e3886f6b5d9", "name": "8615ee6fa2abe772355b2e3886f6b5d9", "type": "electric_scooter", "lon": -77.008856, "rental_uris": {"android": "https://dc.lft.to/lastmile_qr_scan", "ios": "https://dc.lft.to/lastmile_qr_scan"}, "lat": 38.88263366666666, "is_reserved": 0, "is_disabled": 0, "fusion_lat": 0.0}, {"fusion_lon": 0.0, "bike_id": "61098d979599b997ec4304caa926bbe0", "name": "61098d979599b997ec4304caa926bbe0", "type": "electric_scooter", "lon": -77.00737466666666, "rental_uris": {"android": "https://dc.lft.to/lastmile_qr_scan", "ios": "https://dc.lft.to/lastmile_qr_scan"}, "lat": 38.876586, "is_reserved": 0, "is_disabled": 0, "fusion_lat": 0.0}, {"fusion_lon": 0.0, "bike_id": "4732f5fdec552bc549bc7fb99625590d", "name": "4732f5fdec552bc549bc7fb99625590d", "type": "electric_scooter", "lon": -77.03752383333334, "rental_uris": {"android": "https://dc.lft.to/lastmile_qr_scan", "ios": "https://dc.lft.to/lastmile_qr_scan"}, "lat": 38.91262616666667, "is_reserved": 0, "is_disabled": 0, "fusion_lat": 0.0}, {"fusion_lon": 0.0, "bike_id": "2e00664e99b7ea8a6d630f01c50112aa", "name": "2e00664e99b7ea8a6d630f01c50112aa", "type": "electric_scooter", "lon": -77.01115116666666, "rental_uris": {"android": "https://dc.lft.to/lastmile_qr_scan", "ios": "https://dc.lft.to/lastmile_qr_scan"}, "lat": 38.90366233333334, "is_reserved": 0, "is_disabled": 0, "fusion_lat": 0.0}, {"fusion_lon": 0.0, "bike_id": "f14e15f4e744e8cc6fff1fd1104eac2a", "name": "f14e15f4e744e8cc6fff1fd1104eac2a", "type": "electric_scooter", "lon": -77.0230335, "rental_uris": {"android": "https://dc.lft.to/lastmile_qr_scan", "ios": "https://dc.lft.to/lastmile_qr_scan"}, "lat": 38.917544666666664, "is_reserved": 0, "is_disabled": 0, "fusion_lat": 0.0}, {"fusion_lon": 0.0, "bike_id": "0ab8b9b6c09a2bf639d6784ad63ed3a4", "name": "0ab8b9b6c09a2bf639d6784ad63ed3a4", "type": "electric_bike", "lon": -77.11419916666667, "rental_uris": {"android": "https://dc.lft.to/lastmile_qr_scan", "ios": "https://dc.lft.to/lastmile_qr_scan"}, "lat": 38.84292966666667, "is_reserved": 0, "is_disabled": 0, "fusion_lat": 0.0}, {"fusion_lon": 0.0, "bike_id": "b3141e6f69b638ff72ffe2f24efdd69b", "name": "b3141e6f69b638ff72ffe2f24efdd69b", "type": "electric_scooter", "lon": -77.02539683333333, "rental_uris": {"android": "https://dc.lft.to/lastmile_qr_scan", "ios": "https://dc.lft.to/lastmile_qr_scan"}, "lat": 38.907362, "is_reserved": 0, "is_disabled": 0, "fusion_lat": 0.0}, {"fusion_lon": 0.0, "bike_id": "96f5c1cd021cbea026039638e0fb372b", "name": "96f5c1cd021cbea026039638e0fb372b", "type": "electric_scooter", "lon": -77.032988, "rental_uris": {"android": "https://dc.lft.to/lastmile_qr_scan", "ios": "https://dc.lft.to/lastmile_qr_scan"}, "lat": 38.92260366666667, "is_reserved": 0, "is_disabled": 0, "fusion_lat": 0.0}, {"fusion_lon": 0.0, "bike_id": "68f1f99538601dcb248b15cf865fb7a4", "name": "68f1f99538601dcb248b15cf865fb7a4", "type": "electric_bike", "lon": -77.06172633333334, "rental_uris": {"android": "https://dc.lft.to/lastmile_qr_scan", "ios": "https://dc.lft.to/lastmile_qr_scan"}, "lat": 38.812716333333334, "is_reserved": 0, "is_disabled": 0, "fusion_lat": 0.0}, {"fusion_lon": 0.0, "bike_id": "5f439ccb614c71298f3cb20605b05cd8", "name": "5f439ccb614c71298f3cb20605b05cd8", "type": "electric_bike", "lon": -76.944714, "rental_uris": {"android": "https://dc.lft.to/lastmile_qr_scan", "ios": "https://dc.lft.to/lastmile_qr_scan"}, "lat": 38.94559916666667, "is_reserved": 0, "is_disabled": 0, "fusion_lat": 0.0}, {"fusion_lon": 0.0, "bike_id": "69db2b7a18c450c6f033e84e91cf06bb", "name": "69db2b7a18c450c6f033e84e91cf06bb", "type": "electric_scooter", "lon": -77.04196333333333, "rental_uris": {"android": "https://dc.lft.to/lastmile_qr_scan", "ios": "https://dc.lft.to/lastmile_qr_scan"}, "lat": 38.9188015, "is_reserved": 0, "is_disabled": 0, "fusion_lat": 0.0}, {"fusion_lon": 0.0, "bike_id": "adb16a6e8f3f721aaa14dac941ca626a", "name": "adb16a6e8f3f721aaa14dac941ca626a", "type": "electric_bike", "lon": -77.07905233333334, "rental_uris": {"android": "https://dc.lft.to/lastmile_qr_scan", "ios": "https://dc.lft.to/lastmile_qr_scan"}, "lat": 38.839312, "is_reserved": 0, "is_disabled": 0, "fusion_lat": 0.0}, {"fusion_lon": 0.0, "bike_id": "62769df3aea4c2ab36b09365ff3070d3", "name": "62769df3aea4c2ab36b09365ff3070d3", "type": "electric_scooter", "lon": -77.0101115, "rental_uris": {"android": "https://dc.lft.to/lastmile_qr_scan", "ios": "https://dc.lft.to/lastmile_qr_scan"}, "lat": 38.8796995, "is_reserved": 0, "is_disabled": 0, "fusion_lat": 0.0}, {"fusion_lon": 0.0, "bike_id": "7f61aed239a0cbfc9f51d4f0745be4e9", "name": "7f61aed239a0cbfc9f51d4f0745be4e9", "type": "electric_scooter", "lon": -77.00872233333334, "rental_uris": {"android": "https://dc.lft.to/lastmile_qr_scan", "ios": "https://dc.lft.to/lastmile_qr_scan"}, "lat": 38.90570566666667, "is_reserved": 0, "is_disabled": 0, "fusion_lat": 0.0}, {"fusion_lon": 0.0, "bike_id": "1ebf1fd70de532f8f1c2c55176fc581f", "name": "1ebf1fd70de532f8f1c2c55176fc581f", "type": "electric_scooter", "lon": -77.03399883333333, "rental_uris": {"android": "https://dc.lft.to/lastmile_qr_scan", "ios": "https://dc.lft.to/lastmile_qr_scan"}, "lat": 38.919674, "is_reserved": 0, "is_disabled": 0, "fusion_lat": 0.0}, {"fusion_lon": 0.0, "bike_id": "49c7fbba7d8a14c99edcc1f3903dc0d1", "name": "49c7fbba7d8a14c99edcc1f3903dc0d1", "type": "electric_scooter", "lon": -77.0434055, "rental_uris": {"android": "https://dc.lft.to/lastmile_qr_scan", "ios": "https://dc.lft.to/lastmile_qr_scan"}, "lat": 38.9221225, "is_reserved": 0, "is_disabled": 0, "fusion_lat": 0.0}, {"fusion_lon": 0.0, "bike_id": "21650660cc8e66a46602f93437b8de2e", "name": "21650660cc8e66a46602f93437b8de2e", "type": "electric_scooter", "lon": -77.02006583333333, "rental_uris": {"android": "https://dc.lft.to/lastmile_qr_scan", "ios": "https://dc.lft.to/lastmile_qr_scan"}, "lat": 38.92410983333333, "is_reserved": 0, "is_disabled": 0, "fusion_lat": 0.0}, {"fusion_lon": 0.0, "bike_id": "6db54fe9d2eafaa9fa8e25e575d98734", "name": "6db54fe9d2eafaa9fa8e25e575d98734", "type": "electric_scooter", "lon": -76.98106866666667, "rental_uris": {"android": "https://dc.lft.to/lastmile_qr_scan", "ios": "https://dc.lft.to/lastmile_qr_scan"}, "lat": 38.905736166666664, "is_reserved": 0, "is_disabled": 0, "fusion_lat": 0.0}, {"fusion_lon": 0.0, "bike_id": "3460b259e03b2f858f16d71a7ccab981", "name": "3460b259e03b2f858f16d71a7ccab981", "type": "electric_scooter", "lon": -77.00345433333334, "rental_uris": {"android": "https://dc.lft.to/lastmile_qr_scan", "ios": "https://dc.lft.to/lastmile_qr_scan"}, "lat": 38.913493833333334, "is_reserved": 0, "is_disabled": 0, "fusion_lat": 0.0}, {"fusion_lon": 0.0, "bike_id": "06405362687858113aa16868a85c0e15", "name": "06405362687858113aa16868a85c0e15", "type": "electric_scooter", "lon": -77.003359, "rental_uris": {"android": "https://dc.lft.to/lastmile_qr_scan", "ios": "https://dc.lft.to/lastmile_qr_scan"}, "lat": 38.8750135, "is_reserved": 0, "is_disabled": 0, "fusion_lat": 0.0}, {"fusion_lon": 0.0, "bike_id": "30403824936b4535ebebfb7ff60b9b58", "name": "30403824936b4535ebebfb7ff60b9b58", "type": "electric_scooter", "lon": -77.03194916666666, "rental_uris": {"android": "https://dc.lft.to/lastmile_qr_scan", "ios": "https://dc.lft.to/lastmile_qr_scan"}, "lat": 38.918045166666666, "is_reserved": 0, "is_disabled": 0, "fusion_lat": 0.0}, {"fusion_lon": 0.0, "bike_id": "4b70ce0f838b03cdc5512da78ebf41d1", "name": "4b70ce0f838b03cdc5512da78ebf41d1", "type": "electric_scooter", "lon": -77.07695033333333, "rental_uris": {"android": "https://dc.lft.to/lastmile_qr_scan", "ios": "https://dc.lft.to/lastmile_qr_scan"}, "lat": 38.92170766666667, "is_reserved": 0, "is_disabled": 0, "fusion_lat": 0.0}, {"fusion_lon": 0.0, "bike_id": "0318c305588926c9d907ba7db4441b89", "name": "0318c305588926c9d907ba7db4441b89", "type": "electric_scooter", "lon": -77.0344365, "rental_uris": {"android": "https://dc.lft.to/lastmile_qr_scan", "ios": "https://dc.lft.to/lastmile_qr_scan"}, "lat": 38.918081666666666, "is_reserved": 0, "is_disabled": 0, "fusion_lat": 0.0}, {"fusion_lon": 0.0, "bike_id": "cdf788cbe5971bba769fd5500a332fb3", "name": "cdf788cbe5971bba769fd5500a332fb3", "type": "electric_scooter", "lon": -77.04150766666666, "rental_uris": {"android": "https://dc.lft.to/lastmile_qr_scan", "ios": "https://dc.lft.to/lastmile_qr_scan"}, "lat": 38.914517000000004, "is_reserved": 0, "is_disabled": 0, "fusion_lat": 0.0}, {"fusion_lon": 0.0, "bike_id": "6915f36aa3b4d6ef524f41e95142a0b4", "name": "6915f36aa3b4d6ef524f41e95142a0b4", "type": "electric_scooter", "lon": -77.02782233333333, "rental_uris": {"android": "https://dc.lft.to/lastmile_qr_scan", "ios": "https://dc.lft.to/lastmile_qr_scan"}, "lat": 38.8922335, "is_reserved": 0, "is_disabled": 0, "fusion_lat": 0.0}, {"fusion_lon": 0.0, "bike_id": "4d2affbc31073e7eae9f407a9ded3c49", "name": "4d2affbc31073e7eae9f407a9ded3c49", "type": "electric_scooter", "lon": -77.0118515, "rental_uris": {"android": "https://dc.lft.to/lastmile_qr_scan", "ios": "https://dc.lft.to/lastmile_qr_scan"}, "lat": 38.90655183333333, "is_reserved": 0, "is_disabled": 0, "fusion_lat": 0.0}, {"fusion_lon": 0.0, "bike_id": "d9b9fd7402782c8c546226fa8df21101", "name": "d9b9fd7402782c8c546226fa8df21101", "type": "electric_bike", "lon": -76.9816725, "rental_uris": {"android": "https://dc.lft.to/lastmile_qr_scan", "ios": "https://dc.lft.to/lastmile_qr_scan"}, "lat": 38.95956916666667, "is_reserved": 0, "is_disabled": 0, "fusion_lat": 0.0}, {"fusion_lon": 0.0, "bike_id": "16293a9aa213ba768451a3dcc75d2b2b", "name": "16293a9aa213ba768451a3dcc75d2b2b", "type": "electric_scooter", "lon": -77.01893883333334, "rental_uris": {"android": "https://dc.lft.to/lastmile_qr_scan", "ios": "https://dc.lft.to/lastmile_qr_scan"}, "lat": 38.94930933333333, "is_reserved": 0, "is_disabled": 0, "fusion_lat": 0.0}, {"fusion_lon": 0.0, "bike_id": "24dd9fa8bf4294cebbad1fe5c89ee311", "name": "24dd9fa8bf4294cebbad1fe5c89ee311", "type": "electric_scooter", "lon": -76.93350783333334, "rental_uris": {"android": "https://dc.lft.to/lastmile_qr_scan", "ios": "https://dc.lft.to/lastmile_qr_scan"}, "lat": 38.8990735, "is_reserved": 0, "is_disabled": 0, "fusion_lat": 0.0}, {"fusion_lon": 0.0, "bike_id": "e10b9856f49f8d8a6c82be07447b592f", "name": "e10b9856f49f8d8a6c82be07447b592f", "type": "electric_scooter", "lon": -77.00213833333333, "rental_uris": {"android": "https://dc.lft.to/lastmile_qr_scan", "ios": "https://dc.lft.to/lastmile_qr_scan"}, "lat": 38.9003025, "is_reserved": 0, "is_disabled": 0, "fusion_lat": 0.0}, {"fusion_lon": 0.0, "bike_id": "4bb251050d7f7f90fe723bd1d8e054dc", "name": "4bb251050d7f7f90fe723bd1d8e054dc", "type": "electric_scooter", "lon": -76.98455216666666, "rental_uris": {"android": "https://dc.lft.to/lastmile_qr_scan", "ios": "https://dc.lft.to/lastmile_qr_scan"}, "lat": 38.88015883333333, "is_reserved": 0, "is_disabled": 0, "fusion_lat": 0.0}, {"fusion_lon": 0.0, "bike_id": "0d4f776379c464702b9a4c432a24260b", "name": "0d4f776379c464702b9a4c432a24260b", "type": "electric_scooter", "lon": -77.03541033333333, "rental_uris": {"android": "https://dc.lft.to/lastmile_qr_scan", "ios": "https://dc.lft.to/lastmile_qr_scan"}, "lat": 38.9360425, "is_reserved": 0, "is_disabled": 0, "fusion_lat": 0.0}, {"fusion_lon": 0.0, "bike_id": "9b6eeaded5c30d6c5af66e370caaba1e", "name": "9b6eeaded5c30d6c5af66e370caaba1e", "type": "electric_scooter", "lon": -77.04164766666666, "rental_uris": {"android": "https://dc.lft.to/lastmile_qr_scan", "ios": "https://dc.lft.to/lastmile_qr_scan"}, "lat": 38.91099716666667, "is_reserved": 0, "is_disabled": 0, "fusion_lat": 0.0}, {"fusion_lon": 0.0, "bike_id": "d18d00074ee574ab5fbd75af7076b0b1", "name": "d18d00074ee574ab5fbd75af7076b0b1", "type": "electric_scooter", "lon": -77.04154133333333, "rental_uris": {"android": "https://dc.lft.to/lastmile_qr_scan", "ios": "https://dc.lft.to/lastmile_qr_scan"}, "lat": 38.91607533333333, "is_reserved": 0, "is_disabled": 0, "fusion_lat": 0.0}, {"fusion_lon": 0.0, "bike_id": "280eb8bcbe8f7b812552901649d1d189", "name": "280eb8bcbe8f7b812552901649d1d189", "type": "electric_scooter", "lon": -77.01204783333333, "rental_uris": {"android": "https://dc.lft.to/lastmile_qr_scan", "ios": "https://dc.lft.to/lastmile_qr_scan"}, "lat": 38.8933245, "is_reserved": 0, "is_disabled": 0, "fusion_lat": 0.0}, {"fusion_lon": 0.0, "bike_id": "80281863e3cb3b70f735dabbbb063162", "name": "80281863e3cb3b70f735dabbbb063162", "type": "electric_scooter", "lon": -77.03641766666667, "rental_uris": {"android": "https://dc.lft.to/lastmile_qr_scan", "ios": "https://dc.lft.to/lastmile_qr_scan"}, "lat": 38.915956, "is_reserved": 0, "is_disabled": 0, "fusion_lat": 0.0}, {"fusion_lon": 0.0, "bike_id": "2dce5791495564335004afd6b0fac523", "name": "2dce5791495564335004afd6b0fac523", "type": "electric_scooter", "lon": -77.01678866666667, "rental_uris": {"android": "https://dc.lft.to/lastmile_qr_scan", "ios": "https://dc.lft.to/lastmile_qr_scan"}, "lat": 38.88339083333334, "is_reserved": 0, "is_disabled": 0, "fusion_lat": 0.0}, {"fusion_lon": 0.0, "bike_id": "457b9cb76af4db50757f0bd1d56abb89", "name": "457b9cb76af4db50757f0bd1d56abb89", "type": "electric_scooter", "lon": -77.0503025, "rental_uris": {"android": "https://dc.lft.to/lastmile_qr_scan", "ios": "https://dc.lft.to/lastmile_qr_scan"}, "lat": 38.89833816666667, "is_reserved": 0, "is_disabled": 0, "fusion_lat": 0.0}, {"fusion_lon": 0.0, "bike_id": "90b9cbf1c9a8b7b74a64af3701acbc7c", "name": "90b9cbf1c9a8b7b74a64af3701acbc7c", "type": "electric_scooter", "lon": -77.03447083333333, "rental_uris": {"android": "https://dc.lft.to/lastmile_qr_scan", "ios": "https://dc.lft.to/lastmile_qr_scan"}, "lat": 38.90558733333334, "is_reserved": 0, "is_disabled": 0, "fusion_lat": 0.0}, {"fusion_lon": 0.0, "bike_id": "a7876d83cc3d437165d939d7cb747dfd", "name": "a7876d83cc3d437165d939d7cb747dfd", "type": "electric_scooter", "lon": -77.02383433333334, "rental_uris": {"android": "https://dc.lft.to/lastmile_qr_scan", "ios": "https://dc.lft.to/lastmile_qr_scan"}, "lat": 38.90588183333333, "is_reserved": 0, "is_disabled": 0, "fusion_lat": 0.0}, {"fusion_lon": 0.0, "bike_id": "90e71657c6c644a6ddd7979b8dd9467f", "name": "90e71657c6c644a6ddd7979b8dd9467f", "type": "electric_scooter", "lon": -76.9960985, "rental_uris": {"android": "https://dc.lft.to/lastmile_qr_scan", "ios": "https://dc.lft.to/lastmile_qr_scan"}, "lat": 38.864694166666666, "is_reserved": 0, "is_disabled": 0, "fusion_lat": 0.0}, {"fusion_lon": 0.0, "bike_id": "8d7cddeb1127050f33013ab2a13b11da", "name": "8d7cddeb1127050f33013ab2a13b11da", "type": "electric_scooter", "lon": -76.99499066666667, "rental_uris": {"android": "https://dc.lft.to/lastmile_qr_scan", "ios": "https://dc.lft.to/lastmile_qr_scan"}, "lat": 38.885847, "is_reserved": 0, "is_disabled": 0, "fusion_lat": 0.0}, {"fusion_lon": 0.0, "bike_id": "8a16be64112859449fcdbf0ff9b80049", "name": "8a16be64112859449fcdbf0ff9b80049", "type": "electric_scooter", "lon": -77.0080955, "rental_uris": {"android": "https://dc.lft.to/lastmile_qr_scan", "ios": "https://dc.lft.to/lastmile_qr_scan"}, "lat": 38.8766145, "is_reserved": 0, "is_disabled": 0, "fusion_lat": 0.0}, {"fusion_lon": 0.0, "bike_id": "48a5462545627ae4c29c2fe4ad1bbccf", "name": "48a5462545627ae4c29c2fe4ad1bbccf", "type": "electric_scooter", "lon": -77.01629766666667, "rental_uris": {"android": "https://dc.lft.to/lastmile_qr_scan", "ios": "https://dc.lft.to/lastmile_qr_scan"}, "lat": 38.90605333333333, "is_reserved": 0, "is_disabled": 0, "fusion_lat": 0.0}, {"fusion_lon": 0.0, "bike_id": "f453b3f3319926a7211cacfdba9a4c94", "name": "f453b3f3319926a7211cacfdba9a4c94", "type": "electric_scooter", "lon": -77.00198766666666, "rental_uris": {"android": "https://dc.lft.to/lastmile_qr_scan", "ios": "https://dc.lft.to/lastmile_qr_scan"}, "lat": 38.90007933333333, "is_reserved": 0, "is_disabled": 0, "fusion_lat": 0.0}, {"fusion_lon": 0.0, "bike_id": "d58e852a0b861b4a74ec2436989b4f05", "name": "d58e852a0b861b4a74ec2436989b4f05", "type": "electric_scooter", "lon": -77.01389366666666, "rental_uris": {"android": "https://dc.lft.to/lastmile_qr_scan", "ios": "https://dc.lft.to/lastmile_qr_scan"}, "lat": 38.880353166666666, "is_reserved": 0, "is_disabled": 0, "fusion_lat": 0.0}, {"fusion_lon": 0.0, "bike_id": "2e07de5fa88868d4dba2040e227bdd1d", "name": "2e07de5fa88868d4dba2040e227bdd1d", "type": "electric_scooter", "lon": -77.07081983333333, "rental_uris": {"android": "https://dc.lft.to/lastmile_qr_scan", "ios": "https://dc.lft.to/lastmile_qr_scan"}, "lat": 38.9390475, "is_reserved": 0, "is_disabled": 0, "fusion_lat": 0.0}, {"fusion_lon": 0.0, "bike_id": "fcc6223680e1759d3eae944976b22a46", "name": "fcc6223680e1759d3eae944976b22a46", "type": "electric_scooter", "lon": -77.0057305, "rental_uris": {"android": "https://dc.lft.to/lastmile_qr_scan", "ios": "https://dc.lft.to/lastmile_qr_scan"}, "lat": 38.905717, "is_reserved": 0, "is_disabled": 0, "fusion_lat": 0.0}, {"fusion_lon": 0.0, "bike_id": "34f25d674c081c439176ccb5f1811d3c", "name": "34f25d674c081c439176ccb5f1811d3c", "type": "electric_bike", "lon": -77.06950383333333, "rental_uris": {"android": "https://dc.lft.to/lastmile_qr_scan", "ios": "https://dc.lft.to/lastmile_qr_scan"}, "lat": 38.9904385, "is_reserved": 0, "is_disabled": 0, "fusion_lat": 0.0}, {"fusion_lon": 0.0, "bike_id": "371cca09d206132ef2b5b9ceda3370f3", "name": "371cca09d206132ef2b5b9ceda3370f3", "type": "electric_bike", "lon": -76.97898116666667, "rental_uris": {"android": "https://dc.lft.to/lastmile_qr_scan", "ios": "https://dc.lft.to/lastmile_qr_scan"}, "lat": 38.85489, "is_reserved": 0, "is_disabled": 0, "fusion_lat": 0.0}, {"fusion_lon": 0.0, "bike_id": "2a0ad875fb6619c9c0064e0c221a4d93", "name": "2a0ad875fb6619c9c0064e0c221a4d93", "type": "electric_scooter", "lon": -76.95536966666667, "rental_uris": {"android": "https://dc.lft.to/lastmile_qr_scan", "ios": "https://dc.lft.to/lastmile_qr_scan"}, "lat": 38.8876915, "is_reserved": 0, "is_disabled": 0, "fusion_lat": 0.0}, {"fusion_lon": 0.0, "bike_id": "6b1a6cf3142ed4cd2462ded91ac61933", "name": "6b1a6cf3142ed4cd2462ded91ac61933", "type": "electric_scooter", "lon": -77.1031255, "rental_uris": {"android": "https://dc.lft.to/lastmile_qr_scan", "ios": "https://dc.lft.to/lastmile_qr_scan"}, "lat": 38.9267315, "is_reserved": 0, "is_disabled": 0, "fusion_lat": 0.0}, {"fusion_lon": 0.0, "bike_id": "cc9f8361196c88c7accebafae4d8276a", "name": "cc9f8361196c88c7accebafae4d8276a", "type": "electric_scooter", "lon": -77.062385, "rental_uris": {"android": "https://dc.lft.to/lastmile_qr_scan", "ios": "https://dc.lft.to/lastmile_qr_scan"}, "lat": 38.90529883333333, "is_reserved": 0, "is_disabled": 0, "fusion_lat": 0.0}, {"fusion_lon": 0.0, "bike_id": "cc0d0691c6e66ea8ba4984eb2fbc0f02", "name": "cc0d0691c6e66ea8ba4984eb2fbc0f02", "type": "electric_scooter", "lon": -77.0509295, "rental_uris": {"android": "https://dc.lft.to/lastmile_qr_scan", "ios": "https://dc.lft.to/lastmile_qr_scan"}, "lat": 38.9234835, "is_reserved": 0, "is_disabled": 0, "fusion_lat": 0.0}, {"fusion_lon": 0.0, "bike_id": "fc9fae1673f7149bdd97f8429f89ed69", "name": "fc9fae1673f7149bdd97f8429f89ed69", "type": "electric_scooter", "lon": -76.98338733333334, "rental_uris": {"android": "https://dc.lft.to/lastmile_qr_scan", "ios": "https://dc.lft.to/lastmile_qr_scan"}, "lat": 38.912738, "is_reserved": 0, "is_disabled": 0, "fusion_lat": 0.0}, {"fusion_lon": 0.0, "bike_id": "2eb3a88b490db1d5abf4a60098c778cb", "name": "2eb3a88b490db1d5abf4a60098c778cb", "type": "electric_bike", "lon": -76.91592633333333, "rental_uris": {"android": "https://dc.lft.to/lastmile_qr_scan", "ios": "https://dc.lft.to/lastmile_qr_scan"}, "lat": 38.88013383333333, "is_reserved": 0, "is_disabled": 0, "fusion_lat": 0.0}, {"fusion_lon": 0.0, "bike_id": "8ea82a0d9ee3340326445d2434964c99", "name": "8ea82a0d9ee3340326445d2434964c99", "type": "electric_scooter", "lon": -77.02716533333333, "rental_uris": {"android": "https://dc.lft.to/lastmile_qr_scan", "ios": "https://dc.lft.to/lastmile_qr_scan"}, "lat": 38.90751683333333, "is_reserved": 0, "is_disabled": 0, "fusion_lat": 0.0}, {"fusion_lon": 0.0, "bike_id": "d36db25c238eef156fd35d8203b6815f", "name": "d36db25c238eef156fd35d8203b6815f", "type": "electric_scooter", "lon": -76.98414983333333, "rental_uris": {"android": "https://dc.lft.to/lastmile_qr_scan", "ios": "https://dc.lft.to/lastmile_qr_scan"}, "lat": 38.85975716666667, "is_reserved": 0, "is_disabled": 0, "fusion_lat": 0.0}, {"fusion_lon": 0.0, "bike_id": "935601960271bb344ede1e325e7b3a0c", "name": "935601960271bb344ede1e325e7b3a0c", "type": "electric_scooter", "lon": -77.03318766666666, "rental_uris": {"android": "https://dc.lft.to/lastmile_qr_scan", "ios": "https://dc.lft.to/lastmile_qr_scan"}, "lat": 38.960166, "is_reserved": 0, "is_disabled": 0, "fusion_lat": 0.0}, {"fusion_lon": 0.0, "bike_id": "dbb6626897d51d51a0555b8a28d8951b", "name": "dbb6626897d51d51a0555b8a28d8951b", "type": "electric_bike", "lon": -76.90813616666667, "rental_uris": {"android": "https://dc.lft.to/lastmile_qr_scan", "ios": "https://dc.lft.to/lastmile_qr_scan"}, "lat": 38.99459216666666, "is_reserved": 0, "is_disabled": 0, "fusion_lat": 0.0}, {"fusion_lon": 0.0, "bike_id": "46834ef7b6fcb75fb35b04659f79fef6", "name": "46834ef7b6fcb75fb35b04659f79fef6", "type": "electric_scooter", "lon": -77.00333883333333, "rental_uris": {"android": "https://dc.lft.to/lastmile_qr_scan", "ios": "https://dc.lft.to/lastmile_qr_scan"}, "lat": 38.883191833333335, "is_reserved": 0, "is_disabled": 0, "fusion_lat": 0.0}, {"fusion_lon": 0.0, "bike_id": "244440b22683fc7ce6caf0e65505cbf7", "name": "244440b22683fc7ce6caf0e65505cbf7", "type": "electric_scooter", "lon": -77.02296916666667, "rental_uris": {"android": "https://dc.lft.to/lastmile_qr_scan", "ios": "https://dc.lft.to/lastmile_qr_scan"}, "lat": 38.917688166666665, "is_reserved": 0, "is_disabled": 0, "fusion_lat": 0.0}, {"fusion_lon": 0.0, "bike_id": "22a432e852c0954fb52d29d8b0471f80", "name": "22a432e852c0954fb52d29d8b0471f80", "type": "electric_scooter", "lon": -77.01943216666666, "rental_uris": {"android": "https://dc.lft.to/lastmile_qr_scan", "ios": "https://dc.lft.to/lastmile_qr_scan"}, "lat": 38.87746533333333, "is_reserved": 0, "is_disabled": 0, "fusion_lat": 0.0}, {"fusion_lon": 0.0, "bike_id": "ab84f7ba5866099eb91a22004b4209f5", "name": "ab84f7ba5866099eb91a22004b4209f5", "type": "electric_scooter", "lon": -76.98807333333333, "rental_uris": {"android": "https://dc.lft.to/lastmile_qr_scan", "ios": "https://dc.lft.to/lastmile_qr_scan"}, "lat": 38.90832183333333, "is_reserved": 0, "is_disabled": 0, "fusion_lat": 0.0}, {"fusion_lon": 0.0, "bike_id": "804aec785921b446b642ed8dd0bff060", "name": "804aec785921b446b642ed8dd0bff060", "type": "electric_scooter", "lon": -76.99843983333334, "rental_uris": {"android": "https://dc.lft.to/lastmile_qr_scan", "ios": "https://dc.lft.to/lastmile_qr_scan"}, "lat": 38.900343166666666, "is_reserved": 0, "is_disabled": 0, "fusion_lat": 0.0}, {"fusion_lon": 0.0, "bike_id": "ce91d7f73eafeb34fc1a59d8534f894a", "name": "ce91d7f73eafeb34fc1a59d8534f894a", "type": "electric_scooter", "lon": -77.037618, "rental_uris": {"android": "https://dc.lft.to/lastmile_qr_scan", "ios": "https://dc.lft.to/lastmile_qr_scan"}, "lat": 38.936231666666664, "is_reserved": 0, "is_disabled": 0, "fusion_lat": 0.0}, {"fusion_lon": 0.0, "bike_id": "f8dc22da39e05bdc4be0179ae6da7167", "name": "f8dc22da39e05bdc4be0179ae6da7167", "type": "electric_scooter", "lon": -77.02202533333333, "rental_uris": {"android": "https://dc.lft.to/lastmile_qr_scan", "ios": "https://dc.lft.to/lastmile_qr_scan"}, "lat": 38.915388, "is_reserved": 0, "is_disabled": 0, "fusion_lat": 0.0}, {"fusion_lon": 0.0, "bike_id": "65fa60fafacfa0815ff7dac09c5163ae", "name": "65fa60fafacfa0815ff7dac09c5163ae", "type": "electric_scooter", "lon": -76.97183766666667, "rental_uris": {"android": "https://dc.lft.to/lastmile_qr_scan", "ios": "https://dc.lft.to/lastmile_qr_scan"}, "lat": 38.912654833333335, "is_reserved": 0, "is_disabled": 0, "fusion_lat": 0.0}, {"fusion_lon": 0.0, "bike_id": "69f4ef84ea00267ccb894d8c558867d5", "name": "69f4ef84ea00267ccb894d8c558867d5", "type": "electric_scooter", "lon": -77.0408565, "rental_uris": {"android": "https://dc.lft.to/lastmile_qr_scan", "ios": "https://dc.lft.to/lastmile_qr_scan"}, "lat": 38.91699466666667, "is_reserved": 0, "is_disabled": 0, "fusion_lat": 0.0}, {"fusion_lon": 0.0, "bike_id": "97c6a68fbe994dce403ca6c1b41d9a4f", "name": "97c6a68fbe994dce403ca6c1b41d9a4f", "type": "electric_scooter", "lon": -77.023259, "rental_uris": {"android": "https://dc.lft.to/lastmile_qr_scan", "ios": "https://dc.lft.to/lastmile_qr_scan"}, "lat": 38.92718466666667, "is_reserved": 0, "is_disabled": 0, "fusion_lat": 0.0}, {"fusion_lon": 0.0, "bike_id": "6be24e0492d7c3b721625c2bce2408a7", "name": "6be24e0492d7c3b721625c2bce2408a7", "type": "electric_scooter", "lon": -76.92715533333333, "rental_uris": {"android": "https://dc.lft.to/lastmile_qr_scan", "ios": "https://dc.lft.to/lastmile_qr_scan"}, "lat": 38.88050916666667, "is_reserved": 0, "is_disabled": 0, "fusion_lat": 0.0}, {"fusion_lon": 0.0, "bike_id": "ea1e74dcc0219f192c0026264a36fd50", "name": "ea1e74dcc0219f192c0026264a36fd50", "type": "electric_scooter", "lon": -77.0401895, "rental_uris": {"android": "https://dc.lft.to/lastmile_qr_scan", "ios": "https://dc.lft.to/lastmile_qr_scan"}, "lat": 38.9133395, "is_reserved": 0, "is_disabled": 0, "fusion_lat": 0.0}, {"fusion_lon": 0.0, "bike_id": "f0c283fbdbf4af5db1dbb4aff467155c", "name": "f0c283fbdbf4af5db1dbb4aff467155c", "type": "electric_bike", "lon": -76.9341455, "rental_uris": {"android": "https://dc.lft.to/lastmile_qr_scan", "ios": "https://dc.lft.to/lastmile_qr_scan"}, "lat": 38.9462405, "is_reserved": 0, "is_disabled": 0, "fusion_lat": 0.0}, {"fusion_lon": 0.0, "bike_id": "eea3ef83d6547b3cbf807c7e28f94009", "name": "eea3ef83d6547b3cbf807c7e28f94009", "type": "electric_scooter", "lon": -77.02941866666667, "rental_uris": {"android": "https://dc.lft.to/lastmile_qr_scan", "ios": "https://dc.lft.to/lastmile_qr_scan"}, "lat": 38.90504833333333, "is_reserved": 0, "is_disabled": 0, "fusion_lat": 0.0}, {"fusion_lon": 0.0, "bike_id": "6aea28d51aa44cb555fcf2e687c464b7", "name": "6aea28d51aa44cb555fcf2e687c464b7", "type": "electric_scooter", "lon": -77.01259283333333, "rental_uris": {"android": "https://dc.lft.to/lastmile_qr_scan", "ios": "https://dc.lft.to/lastmile_qr_scan"}, "lat": 38.8763535, "is_reserved": 0, "is_disabled": 0, "fusion_lat": 0.0}, {"fusion_lon": 0.0, "bike_id": "60be7abbd6db24ae1d20c20c8ed90a45", "name": "60be7abbd6db24ae1d20c20c8ed90a45", "type": "electric_scooter", "lon": -77.02224666666666, "rental_uris": {"android": "https://dc.lft.to/lastmile_qr_scan", "ios": "https://dc.lft.to/lastmile_qr_scan"}, "lat": 38.935539, "is_reserved": 0, "is_disabled": 0, "fusion_lat": 0.0}, {"fusion_lon": 0.0, "bike_id": "2d8465baa28e44ed3d6856ab03af0438", "name": "2d8465baa28e44ed3d6856ab03af0438", "type": "electric_scooter", "lon": -76.93743433333333, "rental_uris": {"android": "https://dc.lft.to/lastmile_qr_scan", "ios": "https://dc.lft.to/lastmile_qr_scan"}, "lat": 38.89008883333333, "is_reserved": 0, "is_disabled": 0, "fusion_lat": 0.0}, {"fusion_lon": 0.0, "bike_id": "b6202a7b904a95dee8838194d07392bf", "name": "b6202a7b904a95dee8838194d07392bf", "type": "electric_scooter", "lon": -77.01222883333334, "rental_uris": {"android": "https://dc.lft.to/lastmile_qr_scan", "ios": "https://dc.lft.to/lastmile_qr_scan"}, "lat": 38.867239833333336, "is_reserved": 0, "is_disabled": 0, "fusion_lat": 0.0}, {"fusion_lon": 0.0, "bike_id": "8b34b5f64044f922b7f4d65e5a48d699", "name": "8b34b5f64044f922b7f4d65e5a48d699", "type": "electric_scooter", "lon": -76.96549783333333, "rental_uris": {"android": "https://dc.lft.to/lastmile_qr_scan", "ios": "https://dc.lft.to/lastmile_qr_scan"}, "lat": 38.918912, "is_reserved": 0, "is_disabled": 0, "fusion_lat": 0.0}, {"fusion_lon": 0.0, "bike_id": "299754ce25c270c5cc6d7d6506c839b3", "name": "299754ce25c270c5cc6d7d6506c839b3", "type": "electric_scooter", "lon": -77.02753816666667, "rental_uris": {"android": "https://dc.lft.to/lastmile_qr_scan", "ios": "https://dc.lft.to/lastmile_qr_scan"}, "lat": 38.9541445, "is_reserved": 0, "is_disabled": 0, "fusion_lat": 0.0}, {"fusion_lon": 0.0, "bike_id": "f9c90b87b8e04b1ff9aed41d3dc08658", "name": "f9c90b87b8e04b1ff9aed41d3dc08658", "type": "electric_scooter", "lon": -77.0345165, "rental_uris": {"android": "https://dc.lft.to/lastmile_qr_scan", "ios": "https://dc.lft.to/lastmile_qr_scan"}, "lat": 38.964316333333336, "is_reserved": 0, "is_disabled": 0, "fusion_lat": 0.0}, {"fusion_lon": 0.0, "bike_id": "e904f31a2d2f841a11ec769f8132ecf0", "name": "e904f31a2d2f841a11ec769f8132ecf0", "type": "electric_scooter", "lon": -77.01958933333333, "rental_uris": {"android": "https://dc.lft.to/lastmile_qr_scan", "ios": "https://dc.lft.to/lastmile_qr_scan"}, "lat": 38.878554666666666, "is_reserved": 0, "is_disabled": 0, "fusion_lat": 0.0}, {"fusion_lon": 0.0, "bike_id": "daf6c1345d2f56ac46322e019f410a49", "name": "daf6c1345d2f56ac46322e019f410a49", "type": "electric_bike", "lon": -77.15268416666666, "rental_uris": {"android": "https://dc.lft.to/lastmile_qr_scan", "ios": "https://dc.lft.to/lastmile_qr_scan"}, "lat": 39.1056735, "is_reserved": 0, "is_disabled": 0, "fusion_lat": 0.0}, {"fusion_lon": 0.0, "bike_id": "9d14784521dec0f4b02de677b6f0b11b", "name": "9d14784521dec0f4b02de677b6f0b11b", "type": "electric_scooter", "lon": -77.04178083333333, "rental_uris": {"android": "https://dc.lft.to/lastmile_qr_scan", "ios": "https://dc.lft.to/lastmile_qr_scan"}, "lat": 38.91279683333333, "is_reserved": 0, "is_disabled": 0, "fusion_lat": 0.0}, {"fusion_lon": 0.0, "bike_id": "111bf5b0909b49ec8569f5b086d4b68e", "name": "111bf5b0909b49ec8569f5b086d4b68e", "type": "electric_scooter", "lon": -76.9648875, "rental_uris": {"android": "https://dc.lft.to/lastmile_qr_scan", "ios": "https://dc.lft.to/lastmile_qr_scan"}, "lat": 38.87551766666667, "is_reserved": 0, "is_disabled": 0, "fusion_lat": 0.0}, {"fusion_lon": 0.0, "bike_id": "3a3781e6842e4cf6be5a4d2e9a177615", "name": "3a3781e6842e4cf6be5a4d2e9a177615", "type": "electric_bike", "lon": -76.9160065, "rental_uris": {"android": "https://dc.lft.to/lastmile_qr_scan", "ios": "https://dc.lft.to/lastmile_qr_scan"}, "lat": 38.879746, "is_reserved": 0, "is_disabled": 0, "fusion_lat": 0.0}, {"fusion_lon": 0.0, "bike_id": "fb44c58380ee6abbb742774362dec752", "name": "fb44c58380ee6abbb742774362dec752", "type": "electric_scooter", "lon": -76.9832605, "rental_uris": {"android": "https://dc.lft.to/lastmile_qr_scan", "ios": "https://dc.lft.to/lastmile_qr_scan"}, "lat": 38.86174483333333, "is_reserved": 0, "is_disabled": 0, "fusion_lat": 0.0}, {"fusion_lon": 0.0, "bike_id": "d762df0e445428e7e039b8f26e010bb0", "name": "d762df0e445428e7e039b8f26e010bb0", "type": "electric_bike", "lon": -76.9683965, "rental_uris": {"android": "https://dc.lft.to/lastmile_qr_scan", "ios": "https://dc.lft.to/lastmile_qr_scan"}, "lat": 38.924483333333335, "is_reserved": 0, "is_disabled": 0, "fusion_lat": 0.0}, {"fusion_lon": 0.0, "bike_id": "c0415c8a75ad55cf5828e91e916c6918", "name": "c0415c8a75ad55cf5828e91e916c6918", "type": "electric_scooter", "lon": -77.00826133333334, "rental_uris": {"android": "https://dc.lft.to/lastmile_qr_scan", "ios": "https://dc.lft.to/lastmile_qr_scan"}, "lat": 38.876212333333335, "is_reserved": 0, "is_disabled": 0, "fusion_lat": 0.0}, {"fusion_lon": 0.0, "bike_id": "11ba07fde07dcdd5d3349f918ae2702c", "name": "11ba07fde07dcdd5d3349f918ae2702c", "type": "electric_scooter", "lon": -76.96505283333333, "rental_uris": {"android": "https://dc.lft.to/lastmile_qr_scan", "ios": "https://dc.lft.to/lastmile_qr_scan"}, "lat": 38.8765015, "is_reserved": 0, "is_disabled": 0, "fusion_lat": 0.0}, {"fusion_lon": 0.0, "bike_id": "7071daa84fa3a9ba0325dae57015218b", "name": "7071daa84fa3a9ba0325dae57015218b", "type": "electric_scooter", "lon": -77.047156, "rental_uris": {"android": "https://dc.lft.to/lastmile_qr_scan", "ios": "https://dc.lft.to/lastmile_qr_scan"}, "lat": 38.8995895, "is_reserved": 0, "is_disabled": 0, "fusion_lat": 0.0}, {"fusion_lon": 0.0, "bike_id": "d3faccdb04ea3c20642c865561f6e351", "name": "d3faccdb04ea3c20642c865561f6e351", "type": "electric_scooter", "lon": -77.04663766666667, "rental_uris": {"android": "https://dc.lft.to/lastmile_qr_scan", "ios": "https://dc.lft.to/lastmile_qr_scan"}, "lat": 38.92061733333333, "is_reserved": 0, "is_disabled": 0, "fusion_lat": 0.0}, {"fusion_lon": 0.0, "bike_id": "34664de3919ec7c867529b212b97937a", "name": "34664de3919ec7c867529b212b97937a", "type": "electric_scooter", "lon": -77.01473883333334, "rental_uris": {"android": "https://dc.lft.to/lastmile_qr_scan", "ios": "https://dc.lft.to/lastmile_qr_scan"}, "lat": 38.917699999999996, "is_reserved": 0, "is_disabled": 0, "fusion_lat": 0.0}, {"fusion_lon": 0.0, "bike_id": "6e60525ace64f041e7bf49e19e755067", "name": "6e60525ace64f041e7bf49e19e755067", "type": "electric_scooter", "lon": -77.03100483333333, "rental_uris": {"android": "https://dc.lft.to/lastmile_qr_scan", "ios": "https://dc.lft.to/lastmile_qr_scan"}, "lat": 38.92578616666667, "is_reserved": 0, "is_disabled": 0, "fusion_lat": 0.0}, {"fusion_lon": 0.0, "bike_id": "d14baa95b937fd04de6b9d522ea7cd8c", "name": "d14baa95b937fd04de6b9d522ea7cd8c", "type": "electric_scooter", "lon": -77.02102566666667, "rental_uris": {"android": "https://dc.lft.to/lastmile_qr_scan", "ios": "https://dc.lft.to/lastmile_qr_scan"}, "lat": 38.91114116666667, "is_reserved": 0, "is_disabled": 0, "fusion_lat": 0.0}, {"fusion_lon": 0.0, "bike_id": "79b1ee28bc497affc26e485da6b1c986", "name": "79b1ee28bc497affc26e485da6b1c986", "type": "electric_scooter", "lon": -77.05058683333333, "rental_uris": {"android": "https://dc.lft.to/lastmile_qr_scan", "ios": "https://dc.lft.to/lastmile_qr_scan"}, "lat": 38.90077133333333, "is_reserved": 0, "is_disabled": 0, "fusion_lat": 0.0}, {"fusion_lon": 0.0, "bike_id": "fd2d9274410d895884128380691388bf", "name": "fd2d9274410d895884128380691388bf", "type": "electric_scooter", "lon": -77.0096705, "rental_uris": {"android": "https://dc.lft.to/lastmile_qr_scan", "ios": "https://dc.lft.to/lastmile_qr_scan"}, "lat": 38.90788233333333, "is_reserved": 0, "is_disabled": 0, "fusion_lat": 0.0}, {"fusion_lon": 0.0, "bike_id": "3d441284d06d6aabe55d18e1fe542923", "name": "3d441284d06d6aabe55d18e1fe542923", "type": "electric_scooter", "lon": -77.000737, "rental_uris": {"android": "https://dc.lft.to/lastmile_qr_scan", "ios": "https://dc.lft.to/lastmile_qr_scan"}, "lat": 38.901407666666664, "is_reserved": 0, "is_disabled": 0, "fusion_lat": 0.0}, {"fusion_lon": 0.0, "bike_id": "55a948a3acb27ecbabe85f2c867aa3dc", "name": "55a948a3acb27ecbabe85f2c867aa3dc", "type": "electric_scooter", "lon": -76.9791215, "rental_uris": {"android": "https://dc.lft.to/lastmile_qr_scan", "ios": "https://dc.lft.to/lastmile_qr_scan"}, "lat": 38.894402, "is_reserved": 0, "is_disabled": 0, "fusion_lat": 0.0}, {"fusion_lon": 0.0, "bike_id": "9b88a8147b7555dbe826843d80da39c3", "name": "9b88a8147b7555dbe826843d80da39c3", "type": "electric_bike", "lon": -76.98764633333333, "rental_uris": {"android": "https://dc.lft.to/lastmile_qr_scan", "ios": "https://dc.lft.to/lastmile_qr_scan"}, "lat": 38.85784266666667, "is_reserved": 0, "is_disabled": 0, "fusion_lat": 0.0}, {"fusion_lon": 0.0, "bike_id": "9540f99eaf254b8fceb754a9b5cd2a04", "name": "9540f99eaf254b8fceb754a9b5cd2a04", "type": "electric_bike", "lon": -77.10685716666667, "rental_uris": {"android": "https://dc.lft.to/lastmile_qr_scan", "ios": "https://dc.lft.to/lastmile_qr_scan"}, "lat": 38.935851, "is_reserved": 0, "is_disabled": 0, "fusion_lat": 0.0}, {"fusion_lon": 0.0, "bike_id": "265946aa5a5f913297b4322dd7af2e3b", "name": "265946aa5a5f913297b4322dd7af2e3b", "type": "electric_scooter", "lon": -77.041715, "rental_uris": {"android": "https://dc.lft.to/lastmile_qr_scan", "ios": "https://dc.lft.to/lastmile_qr_scan"}, "lat": 38.9134575, "is_reserved": 0, "is_disabled": 0, "fusion_lat": 0.0}, {"fusion_lon": 0.0, "bike_id": "8e7361c8856b1a0c6e011c95a3edb2f3", "name": "8e7361c8856b1a0c6e011c95a3edb2f3", "type": "electric_scooter", "lon": -77.0139335, "rental_uris": {"android": "https://dc.lft.to/lastmile_qr_scan", "ios": "https://dc.lft.to/lastmile_qr_scan"}, "lat": 38.88030033333333, "is_reserved": 0, "is_disabled": 0, "fusion_lat": 0.0}, {"fusion_lon": 0.0, "bike_id": "e626a14da70df0587c4fda4b1686a2ba", "name": "e626a14da70df0587c4fda4b1686a2ba", "type": "electric_scooter", "lon": -76.98467283333333, "rental_uris": {"android": "https://dc.lft.to/lastmile_qr_scan", "ios": "https://dc.lft.to/lastmile_qr_scan"}, "lat": 38.893572166666665, "is_reserved": 0, "is_disabled": 0, "fusion_lat": 0.0}, {"fusion_lon": 0.0, "bike_id": "7328c8b7950b4b45d29ac3d1ce1fdedf", "name": "7328c8b7950b4b45d29ac3d1ce1fdedf", "type": "electric_scooter", "lon": -76.97992433333333, "rental_uris": {"android": "https://dc.lft.to/lastmile_qr_scan", "ios": "https://dc.lft.to/lastmile_qr_scan"}, "lat": 38.888748166666666, "is_reserved": 0, "is_disabled": 0, "fusion_lat": 0.0}, {"fusion_lon": 0.0, "bike_id": "53dc19d10be3e8b39ceebf16f6f2d24b", "name": "53dc19d10be3e8b39ceebf16f6f2d24b", "type": "electric_scooter", "lon": -77.03624483333333, "rental_uris": {"android": "https://dc.lft.to/lastmile_qr_scan", "ios": "https://dc.lft.to/lastmile_qr_scan"}, "lat": 38.9191435, "is_reserved": 0, "is_disabled": 0, "fusion_lat": 0.0}, {"fusion_lon": 0.0, "bike_id": "507b6693f8bf79ab191501b05e2d10f7", "name": "507b6693f8bf79ab191501b05e2d10f7", "type": "electric_scooter", "lon": -77.0427235, "rental_uris": {"android": "https://dc.lft.to/lastmile_qr_scan", "ios": "https://dc.lft.to/lastmile_qr_scan"}, "lat": 38.91700433333333, "is_reserved": 0, "is_disabled": 0, "fusion_lat": 0.0}, {"fusion_lon": 0.0, "bike_id": "53449780c276f4bdf8950190a262306a", "name": "53449780c276f4bdf8950190a262306a", "type": "electric_scooter", "lon": -77.02233383333333, "rental_uris": {"android": "https://dc.lft.to/lastmile_qr_scan", "ios": "https://dc.lft.to/lastmile_qr_scan"}, "lat": 38.9141315, "is_reserved": 0, "is_disabled": 0, "fusion_lat": 0.0}, {"fusion_lon": 0.0, "bike_id": "ff573c3226bf617448bf94642458f3f0", "name": "ff573c3226bf617448bf94642458f3f0", "type": "electric_scooter", "lon": -77.03117516666667, "rental_uris": {"android": "https://dc.lft.to/lastmile_qr_scan", "ios": "https://dc.lft.to/lastmile_qr_scan"}, "lat": 38.9055255, "is_reserved": 0, "is_disabled": 0, "fusion_lat": 0.0}, {"fusion_lon": 0.0, "bike_id": "87c50b9e211b780bdc4d436e9153ef3d", "name": "87c50b9e211b780bdc4d436e9153ef3d", "type": "electric_scooter", "lon": -77.03965766666667, "rental_uris": {"android": "https://dc.lft.to/lastmile_qr_scan", "ios": "https://dc.lft.to/lastmile_qr_scan"}, "lat": 38.91985416666667, "is_reserved": 0, "is_disabled": 0, "fusion_lat": 0.0}, {"fusion_lon": 0.0, "bike_id": "6b53586d8a2bb6f8e290a30d6361fca8", "name": "6b53586d8a2bb6f8e290a30d6361fca8", "type": "electric_scooter", "lon": -77.05921583333334, "rental_uris": {"android": "https://dc.lft.to/lastmile_qr_scan", "ios": "https://dc.lft.to/lastmile_qr_scan"}, "lat": 38.900837, "is_reserved": 0, "is_disabled": 0, "fusion_lat": 0.0}, {"fusion_lon": 0.0, "bike_id": "bc762f1f4ce8aaf10795c8273e2c219d", "name": "bc762f1f4ce8aaf10795c8273e2c219d", "type": "electric_scooter", "lon": -77.073797, "rental_uris": {"android": "https://dc.lft.to/lastmile_qr_scan", "ios": "https://dc.lft.to/lastmile_qr_scan"}, "lat": 38.93357316666667, "is_reserved": 0, "is_disabled": 0, "fusion_lat": 0.0}, {"fusion_lon": 0.0, "bike_id": "65b7a9ca44951e5ce3e04f89c29d74f8", "name": "65b7a9ca44951e5ce3e04f89c29d74f8", "type": "electric_scooter", "lon": -77.03642166666667, "rental_uris": {"android": "https://dc.lft.to/lastmile_qr_scan", "ios": "https://dc.lft.to/lastmile_qr_scan"}, "lat": 38.91843883333333, "is_reserved": 0, "is_disabled": 0, "fusion_lat": 0.0}, {"fusion_lon": 0.0, "bike_id": "807cee12a75433a87324698345ee1b01", "name": "807cee12a75433a87324698345ee1b01", "type": "electric_scooter", "lon": -76.99610416666667, "rental_uris": {"android": "https://dc.lft.to/lastmile_qr_scan", "ios": "https://dc.lft.to/lastmile_qr_scan"}, "lat": 38.901215, "is_reserved": 0, "is_disabled": 0, "fusion_lat": 0.0}, {"fusion_lon": 0.0, "bike_id": "6f3578236ba1cb0603e91a87cc7e55fd", "name": "6f3578236ba1cb0603e91a87cc7e55fd", "type": "electric_scooter", "lon": -77.01223783333333, "rental_uris": {"android": "https://dc.lft.to/lastmile_qr_scan", "ios": "https://dc.lft.to/lastmile_qr_scan"}, "lat": 38.913504833333334, "is_reserved": 0, "is_disabled": 0, "fusion_lat": 0.0}, {"fusion_lon": 0.0, "bike_id": "dc90543dd2528da59faa3006d7210561", "name": "dc90543dd2528da59faa3006d7210561", "type": "electric_scooter", "lon": -77.024437, "rental_uris": {"android": "https://dc.lft.to/lastmile_qr_scan", "ios": "https://dc.lft.to/lastmile_qr_scan"}, "lat": 38.9358895, "is_reserved": 0, "is_disabled": 0, "fusion_lat": 0.0}, {"fusion_lon": 0.0, "bike_id": "564ef5cd767f1e6484e6b352e2a3a436", "name": "564ef5cd767f1e6484e6b352e2a3a436", "type": "electric_scooter", "lon": -76.996948, "rental_uris": {"android": "https://dc.lft.to/lastmile_qr_scan", "ios": "https://dc.lft.to/lastmile_qr_scan"}, "lat": 38.88429683333333, "is_reserved": 0, "is_disabled": 0, "fusion_lat": 0.0}, {"fusion_lon": 0.0, "bike_id": "e4eb4798080a1c06616b736233cd9d0c", "name": "e4eb4798080a1c06616b736233cd9d0c", "type": "electric_scooter", "lon": -77.04009816666667, "rental_uris": {"android": "https://dc.lft.to/lastmile_qr_scan", "ios": "https://dc.lft.to/lastmile_qr_scan"}, "lat": 38.916337, "is_reserved": 0, "is_disabled": 0, "fusion_lat": 0.0}, {"fusion_lon": 0.0, "bike_id": "47d1203ac5a34ea286ddbcde33518934", "name": "47d1203ac5a34ea286ddbcde33518934", "type": "electric_scooter", "lon": -77.03595016666667, "rental_uris": {"android": "https://dc.lft.to/lastmile_qr_scan", "ios": "https://dc.lft.to/lastmile_qr_scan"}, "lat": 38.90700566666667, "is_reserved": 0, "is_disabled": 0, "fusion_lat": 0.0}, {"fusion_lon": 0.0, "bike_id": "1a2f561c115d6fcce9649a6666ffc1cd", "name": "1a2f561c115d6fcce9649a6666ffc1cd", "type": "electric_scooter", "lon": -77.0344325, "rental_uris": {"android": "https://dc.lft.to/lastmile_qr_scan", "ios": "https://dc.lft.to/lastmile_qr_scan"}, "lat": 38.915860333333335, "is_reserved": 0, "is_disabled": 0, "fusion_lat": 0.0}, {"fusion_lon": 0.0, "bike_id": "c3e4eea425c9dd7248d8155fc329e637", "name": "c3e4eea425c9dd7248d8155fc329e637", "type": "electric_scooter", "lon": -77.0621535, "rental_uris": {"android": "https://dc.lft.to/lastmile_qr_scan", "ios": "https://dc.lft.to/lastmile_qr_scan"}, "lat": 38.90520016666667, "is_reserved": 0, "is_disabled": 0, "fusion_lat": 0.0}, {"fusion_lon": 0.0, "bike_id": "55de7c5c4aa3c7ff8c23644066a59cc0", "name": "55de7c5c4aa3c7ff8c23644066a59cc0", "type": "electric_scooter", "lon": -76.996774, "rental_uris": {"android": "https://dc.lft.to/lastmile_qr_scan", "ios": "https://dc.lft.to/lastmile_qr_scan"}, "lat": 38.887020166666666, "is_reserved": 0, "is_disabled": 0, "fusion_lat": 0.0}, {"fusion_lon": 0.0, "bike_id": "2c907f88c8f2020086e2af6f0dc01d68", "name": "2c907f88c8f2020086e2af6f0dc01d68", "type": "electric_scooter", "lon": -77.0261165, "rental_uris": {"android": "https://dc.lft.to/lastmile_qr_scan", "ios": "https://dc.lft.to/lastmile_qr_scan"}, "lat": 38.9244565, "is_reserved": 0, "is_disabled": 0, "fusion_lat": 0.0}, {"fusion_lon": 0.0, "bike_id": "58f147924060fd600ba6375759f99daf", "name": "58f147924060fd600ba6375759f99daf", "type": "electric_scooter", "lon": -77.031055, "rental_uris": {"android": "https://dc.lft.to/lastmile_qr_scan", "ios": "https://dc.lft.to/lastmile_qr_scan"}, "lat": 38.92981066666667, "is_reserved": 0, "is_disabled": 0, "fusion_lat": 0.0}, {"fusion_lon": 0.0, "bike_id": "0516b5061e4613eacf2f7bfff14a01d7", "name": "0516b5061e4613eacf2f7bfff14a01d7", "type": "electric_scooter", "lon": -77.0005795, "rental_uris": {"android": "https://dc.lft.to/lastmile_qr_scan", "ios": "https://dc.lft.to/lastmile_qr_scan"}, "lat": 38.88906083333333, "is_reserved": 0, "is_disabled": 0, "fusion_lat": 0.0}, {"fusion_lon": 0.0, "bike_id": "a7fd58a59a4d14569d936db7440f9403", "name": "a7fd58a59a4d14569d936db7440f9403", "type": "electric_scooter", "lon": -76.965265, "rental_uris": {"android": "https://dc.lft.to/lastmile_qr_scan", "ios": "https://dc.lft.to/lastmile_qr_scan"}, "lat": 38.876314666666666, "is_reserved": 0, "is_disabled": 0, "fusion_lat": 0.0}, {"fusion_lon": 0.0, "bike_id": "b3c59f6f6437409113cf80c55d86fc52", "name": "b3c59f6f6437409113cf80c55d86fc52", "type": "electric_bike", "lon": -76.94573333333334, "rental_uris": {"android": "https://dc.lft.to/lastmile_qr_scan", "ios": "https://dc.lft.to/lastmile_qr_scan"}, "lat": 38.866231166666665, "is_reserved": 0, "is_disabled": 0, "fusion_lat": 0.0}, {"fusion_lon": 0.0, "bike_id": "5fc768866aede3523d4692e79f2d84ea", "name": "5fc768866aede3523d4692e79f2d84ea", "type": "electric_scooter", "lon": -77.03129333333334, "rental_uris": {"android": "https://dc.lft.to/lastmile_qr_scan", "ios": "https://dc.lft.to/lastmile_qr_scan"}, "lat": 38.918554, "is_reserved": 0, "is_disabled": 0, "fusion_lat": 0.0}, {"fusion_lon": 0.0, "bike_id": "4f35b7a2e044194af0d3d854671e104b", "name": "4f35b7a2e044194af0d3d854671e104b", "type": "electric_scooter", "lon": -77.026348, "rental_uris": {"android": "https://dc.lft.to/lastmile_qr_scan", "ios": "https://dc.lft.to/lastmile_qr_scan"}, "lat": 38.98057816666667, "is_reserved": 0, "is_disabled": 0, "fusion_lat": 0.0}, {"fusion_lon": 0.0, "bike_id": "8fa0da0357de3075680faa0ac106a404", "name": "8fa0da0357de3075680faa0ac106a404", "type": "electric_scooter", "lon": -77.06889916666667, "rental_uris": {"android": "https://dc.lft.to/lastmile_qr_scan", "ios": "https://dc.lft.to/lastmile_qr_scan"}, "lat": 38.905141666666665, "is_reserved": 0, "is_disabled": 0, "fusion_lat": 0.0}, {"fusion_lon": 0.0, "bike_id": "83b13279db012ea115b28f82c83767ce", "name": "83b13279db012ea115b28f82c83767ce", "type": "electric_scooter", "lon": -77.03838883333333, "rental_uris": {"android": "https://dc.lft.to/lastmile_qr_scan", "ios": "https://dc.lft.to/lastmile_qr_scan"}, "lat": 38.915655666666666, "is_reserved": 0, "is_disabled": 0, "fusion_lat": 0.0}, {"fusion_lon": 0.0, "bike_id": "831d974d258bea86e59375ba07b5b724", "name": "831d974d258bea86e59375ba07b5b724", "type": "electric_scooter", "lon": -77.01759483333333, "rental_uris": {"android": "https://dc.lft.to/lastmile_qr_scan", "ios": "https://dc.lft.to/lastmile_qr_scan"}, "lat": 38.8772565, "is_reserved": 0, "is_disabled": 0, "fusion_lat": 0.0}, {"fusion_lon": 0.0, "bike_id": "b8d71de9305548190e8dc49d66b5950e", "name": "b8d71de9305548190e8dc49d66b5950e", "type": "electric_scooter", "lon": -77.01995816666667, "rental_uris": {"android": "https://dc.lft.to/lastmile_qr_scan", "ios": "https://dc.lft.to/lastmile_qr_scan"}, "lat": 38.96643566666667, "is_reserved": 0, "is_disabled": 0, "fusion_lat": 0.0}, {"fusion_lon": 0.0, "bike_id": "a502271265e988411f63e5bde08bc994", "name": "a502271265e988411f63e5bde08bc994", "type": "electric_scooter", "lon": -77.06253166666667, "rental_uris": {"android": "https://dc.lft.to/lastmile_qr_scan", "ios": "https://dc.lft.to/lastmile_qr_scan"}, "lat": 38.91323666666667, "is_reserved": 0, "is_disabled": 0, "fusion_lat": 0.0}, {"fusion_lon": 0.0, "bike_id": "c1da3423b6c31eae98c651e7262d5851", "name": "c1da3423b6c31eae98c651e7262d5851", "type": "electric_scooter", "lon": -77.02225966666667, "rental_uris": {"android": "https://dc.lft.to/lastmile_qr_scan", "ios": "https://dc.lft.to/lastmile_qr_scan"}, "lat": 38.892247166666664, "is_reserved": 0, "is_disabled": 0, "fusion_lat": 0.0}, {"fusion_lon": 0.0, "bike_id": "412241f76bd04f582b6fab35a1012b58", "name": "412241f76bd04f582b6fab35a1012b58", "type": "electric_scooter", "lon": -77.0245355, "rental_uris": {"android": "https://dc.lft.to/lastmile_qr_scan", "ios": "https://dc.lft.to/lastmile_qr_scan"}, "lat": 38.90848916666667, "is_reserved": 0, "is_disabled": 0, "fusion_lat": 0.0}, {"fusion_lon": 0.0, "bike_id": "ac740d0d0ce29c28df0beae90f7001b2", "name": "ac740d0d0ce29c28df0beae90f7001b2", "type": "electric_scooter", "lon": -77.05753583333333, "rental_uris": {"android": "https://dc.lft.to/lastmile_qr_scan", "ios": "https://dc.lft.to/lastmile_qr_scan"}, "lat": 38.925012333333335, "is_reserved": 0, "is_disabled": 0, "fusion_lat": 0.0}, {"fusion_lon": 0.0, "bike_id": "056df0f041b07565d001e3d6dd9cc5fa", "name": "056df0f041b07565d001e3d6dd9cc5fa", "type": "electric_scooter", "lon": -76.990052, "rental_uris": {"android": "https://dc.lft.to/lastmile_qr_scan", "ios": "https://dc.lft.to/lastmile_qr_scan"}, "lat": 38.8651105, "is_reserved": 0, "is_disabled": 0, "fusion_lat": 0.0}, {"fusion_lon": 0.0, "bike_id": "6cc34f00028085b0165cd357f4208f6e", "name": "6cc34f00028085b0165cd357f4208f6e", "type": "electric_scooter", "lon": -77.03278633333333, "rental_uris": {"android": "https://dc.lft.to/lastmile_qr_scan", "ios": "https://dc.lft.to/lastmile_qr_scan"}, "lat": 38.947012, "is_reserved": 0, "is_disabled": 0, "fusion_lat": 0.0}, {"fusion_lon": 0.0, "bike_id": "e76ee8d903c32f0da816a73d7e9d845b", "name": "e76ee8d903c32f0da816a73d7e9d845b", "type": "electric_scooter", "lon": -76.9936245, "rental_uris": {"android": "https://dc.lft.to/lastmile_qr_scan", "ios": "https://dc.lft.to/lastmile_qr_scan"}, "lat": 38.928441, "is_reserved": 0, "is_disabled": 0, "fusion_lat": 0.0}, {"fusion_lon": 0.0, "bike_id": "1dca6ceb1114cafea61a6fe33a207203", "name": "1dca6ceb1114cafea61a6fe33a207203", "type": "electric_scooter", "lon": -77.01202116666667, "rental_uris": {"android": "https://dc.lft.to/lastmile_qr_scan", "ios": "https://dc.lft.to/lastmile_qr_scan"}, "lat": 38.925889833333336, "is_reserved": 0, "is_disabled": 0, "fusion_lat": 0.0}, {"fusion_lon": 0.0, "bike_id": "e4cd5010823234235919eb50c43c7435", "name": "e4cd5010823234235919eb50c43c7435", "type": "electric_scooter", "lon": -76.99076616666666, "rental_uris": {"android": "https://dc.lft.to/lastmile_qr_scan", "ios": "https://dc.lft.to/lastmile_qr_scan"}, "lat": 38.860520666666666, "is_reserved": 0, "is_disabled": 0, "fusion_lat": 0.0}, {"fusion_lon": 0.0, "bike_id": "48210366650e6cdf3443acd0b9441e93", "name": "48210366650e6cdf3443acd0b9441e93", "type": "electric_scooter", "lon": -77.02312583333334, "rental_uris": {"android": "https://dc.lft.to/lastmile_qr_scan", "ios": "https://dc.lft.to/lastmile_qr_scan"}, "lat": 38.9172345, "is_reserved": 0, "is_disabled": 0, "fusion_lat": 0.0}, {"fusion_lon": 0.0, "bike_id": "5f3e36063cd826769ce1d2e3a38f9bef", "name": "5f3e36063cd826769ce1d2e3a38f9bef", "type": "electric_scooter", "lon": -77.03906983333333, "rental_uris": {"android": "https://dc.lft.to/lastmile_qr_scan", "ios": "https://dc.lft.to/lastmile_qr_scan"}, "lat": 38.914200666666666, "is_reserved": 0, "is_disabled": 0, "fusion_lat": 0.0}, {"fusion_lon": 0.0, "bike_id": "6d9d55589997b461220c7476fa62b763", "name": "6d9d55589997b461220c7476fa62b763", "type": "electric_bike", "lon": -77.02487483333333, "rental_uris": {"android": "https://dc.lft.to/lastmile_qr_scan", "ios": "https://dc.lft.to/lastmile_qr_scan"}, "lat": 38.974011833333336, "is_reserved": 0, "is_disabled": 0, "fusion_lat": 0.0}, {"fusion_lon": 0.0, "bike_id": "f741ddf6174c8d712f5cdd8ab3b353cf", "name": "f741ddf6174c8d712f5cdd8ab3b353cf", "type": "electric_bike", "lon": -77.00080783333334, "rental_uris": {"android": "https://dc.lft.to/lastmile_qr_scan", "ios": "https://dc.lft.to/lastmile_qr_scan"}, "lat": 38.8860775, "is_reserved": 0, "is_disabled": 0, "fusion_lat": 0.0}, {"fusion_lon": 0.0, "bike_id": "a9c848aad9934beacd3acd5d87a53023", "name": "a9c848aad9934beacd3acd5d87a53023", "type": "electric_scooter", "lon": -77.02316383333333, "rental_uris": {"android": "https://dc.lft.to/lastmile_qr_scan", "ios": "https://dc.lft.to/lastmile_qr_scan"}, "lat": 38.92074383333333, "is_reserved": 0, "is_disabled": 0, "fusion_lat": 0.0}, {"fusion_lon": 0.0, "bike_id": "970f9380f18974a0365e86af33b442ca", "name": "970f9380f18974a0365e86af33b442ca", "type": "electric_scooter", "lon": -77.0216895, "rental_uris": {"android": "https://dc.lft.to/lastmile_qr_scan", "ios": "https://dc.lft.to/lastmile_qr_scan"}, "lat": 38.942959333333334, "is_reserved": 0, "is_disabled": 0, "fusion_lat": 0.0}, {"fusion_lon": 0.0, "bike_id": "da0a2c42d5f327473bd30e262c4897b4", "name": "da0a2c42d5f327473bd30e262c4897b4", "type": "electric_scooter", "lon": -76.9907935, "rental_uris": {"android": "https://dc.lft.to/lastmile_qr_scan", "ios": "https://dc.lft.to/lastmile_qr_scan"}, "lat": 38.90423083333334, "is_reserved": 0, "is_disabled": 0, "fusion_lat": 0.0}, {"fusion_lon": 0.0, "bike_id": "3961c8844813a3f193bd04913f2759a6", "name": "3961c8844813a3f193bd04913f2759a6", "type": "electric_scooter", "lon": -77.05437266666667, "rental_uris": {"android": "https://dc.lft.to/lastmile_qr_scan", "ios": "https://dc.lft.to/lastmile_qr_scan"}, "lat": 38.8960535, "is_reserved": 0, "is_disabled": 0, "fusion_lat": 0.0}, {"fusion_lon": 0.0, "bike_id": "21d9991083b01e176ca2f7157f8e822d", "name": "21d9991083b01e176ca2f7157f8e822d", "type": "electric_scooter", "lon": -77.01735083333334, "rental_uris": {"android": "https://dc.lft.to/lastmile_qr_scan", "ios": "https://dc.lft.to/lastmile_qr_scan"}, "lat": 38.874683833333336, "is_reserved": 0, "is_disabled": 0, "fusion_lat": 0.0}, {"fusion_lon": 0.0, "bike_id": "b1298e4b803e919801d96c26347ad596", "name": "b1298e4b803e919801d96c26347ad596", "type": "electric_scooter", "lon": -77.0087285, "rental_uris": {"android": "https://dc.lft.to/lastmile_qr_scan", "ios": "https://dc.lft.to/lastmile_qr_scan"}, "lat": 38.90582916666666, "is_reserved": 0, "is_disabled": 0, "fusion_lat": 0.0}, {"fusion_lon": 0.0, "bike_id": "beb4e1303c8d92a6ddd3db99f2e36e99", "name": "beb4e1303c8d92a6ddd3db99f2e36e99", "type": "electric_scooter", "lon": -77.00740533333334, "rental_uris": {"android": "https://dc.lft.to/lastmile_qr_scan", "ios": "https://dc.lft.to/lastmile_qr_scan"}, "lat": 38.876468833333334, "is_reserved": 0, "is_disabled": 0, "fusion_lat": 0.0}, {"fusion_lon": 0.0, "bike_id": "cfa2e51a249b86f1f1d99f648123a366", "name": "cfa2e51a249b86f1f1d99f648123a366", "type": "electric_scooter", "lon": -77.03367366666667, "rental_uris": {"android": "https://dc.lft.to/lastmile_qr_scan", "ios": "https://dc.lft.to/lastmile_qr_scan"}, "lat": 38.9119895, "is_reserved": 0, "is_disabled": 0, "fusion_lat": 0.0}, {"fusion_lon": 0.0, "bike_id": "a14d68a1dc9419fec63a8c359f721ae8", "name": "a14d68a1dc9419fec63a8c359f721ae8", "type": "electric_scooter", "lon": -76.93183283333333, "rental_uris": {"android": "https://dc.lft.to/lastmile_qr_scan", "ios": "https://dc.lft.to/lastmile_qr_scan"}, "lat": 38.89879833333333, "is_reserved": 0, "is_disabled": 0, "fusion_lat": 0.0}, {"fusion_lon": 0.0, "bike_id": "a995064f560ea3b87edc5601dc5af99f", "name": "a995064f560ea3b87edc5601dc5af99f", "type": "electric_scooter", "lon": -76.98070566666667, "rental_uris": {"android": "https://dc.lft.to/lastmile_qr_scan", "ios": "https://dc.lft.to/lastmile_qr_scan"}, "lat": 38.9167395, "is_reserved": 0, "is_disabled": 0, "fusion_lat": 0.0}, {"fusion_lon": 0.0, "bike_id": "640d9cd43f45b73d1df0fb89bbd97377", "name": "640d9cd43f45b73d1df0fb89bbd97377", "type": "electric_scooter", "lon": -76.9864585, "rental_uris": {"android": "https://dc.lft.to/lastmile_qr_scan", "ios": "https://dc.lft.to/lastmile_qr_scan"}, "lat": 38.90143916666667, "is_reserved": 0, "is_disabled": 0, "fusion_lat": 0.0}, {"fusion_lon": 0.0, "bike_id": "950a6a1f50e971ce228bfee8379d2ef2", "name": "950a6a1f50e971ce228bfee8379d2ef2", "type": "electric_scooter", "lon": -77.04208183333333, "rental_uris": {"android": "https://dc.lft.to/lastmile_qr_scan", "ios": "https://dc.lft.to/lastmile_qr_scan"}, "lat": 38.917018166666665, "is_reserved": 0, "is_disabled": 0, "fusion_lat": 0.0}, {"fusion_lon": 0.0, "bike_id": "1d3c45abfb7870aa1598d64e7db24a7c", "name": "1d3c45abfb7870aa1598d64e7db24a7c", "type": "electric_scooter", "lon": -76.93184166666667, "rental_uris": {"android": "https://dc.lft.to/lastmile_qr_scan", "ios": "https://dc.lft.to/lastmile_qr_scan"}, "lat": 38.89879716666667, "is_reserved": 0, "is_disabled": 0, "fusion_lat": 0.0}, {"fusion_lon": 0.0, "bike_id": "e55f9362ca51c28d5e704cf4237e2c86", "name": "e55f9362ca51c28d5e704cf4237e2c86", "type": "electric_scooter", "lon": -77.0730145, "rental_uris": {"android": "https://dc.lft.to/lastmile_qr_scan", "ios": "https://dc.lft.to/lastmile_qr_scan"}, "lat": 38.92163566666667, "is_reserved": 0, "is_disabled": 0, "fusion_lat": 0.0}, {"fusion_lon": 0.0, "bike_id": "8d4fe92bdddff67e0102b8c3e1b579d9", "name": "8d4fe92bdddff67e0102b8c3e1b579d9", "type": "electric_scooter", "lon": -77.018168, "rental_uris": {"android": "https://dc.lft.to/lastmile_qr_scan", "ios": "https://dc.lft.to/lastmile_qr_scan"}, "lat": 38.92205533333333, "is_reserved": 0, "is_disabled": 0, "fusion_lat": 0.0}, {"fusion_lon": 0.0, "bike_id": "42c43c697d88a97a8a5289488be0751f", "name": "42c43c697d88a97a8a5289488be0751f", "type": "electric_bike", "lon": -77.04306616666666, "rental_uris": {"android": "https://dc.lft.to/lastmile_qr_scan", "ios": "https://dc.lft.to/lastmile_qr_scan"}, "lat": 39.0544825, "is_reserved": 0, "is_disabled": 0, "fusion_lat": 0.0}, {"fusion_lon": 0.0, "bike_id": "6ab5947c9675630f0ae9e5aa61899cfa", "name": "6ab5947c9675630f0ae9e5aa61899cfa", "type": "electric_scooter", "lon": -76.99858166666667, "rental_uris": {"android": "https://dc.lft.to/lastmile_qr_scan", "ios": "https://dc.lft.to/lastmile_qr_scan"}, "lat": 38.90898333333333, "is_reserved": 0, "is_disabled": 0, "fusion_lat": 0.0}, {"fusion_lon": 0.0, "bike_id": "769f06c81b3cbdda3319ab4c0dd35de4", "name": "769f06c81b3cbdda3319ab4c0dd35de4", "type": "electric_bike", "lon": -77.17847483333334, "rental_uris": {"android": "https://dc.lft.to/lastmile_qr_scan", "ios": "https://dc.lft.to/lastmile_qr_scan"}, "lat": 39.08900083333333, "is_reserved": 0, "is_disabled": 0, "fusion_lat": 0.0}, {"fusion_lon": 0.0, "bike_id": "8f9174b75aba6e27cc7993b046ba13f7", "name": "8f9174b75aba6e27cc7993b046ba13f7", "type": "electric_scooter", "lon": -77.07168016666667, "rental_uris": {"android": "https://dc.lft.to/lastmile_qr_scan", "ios": "https://dc.lft.to/lastmile_qr_scan"}, "lat": 38.90763, "is_reserved": 0, "is_disabled": 0, "fusion_lat": 0.0}, {"fusion_lon": 0.0, "bike_id": "2ba44c12928089bf8e997a805498b144", "name": "2ba44c12928089bf8e997a805498b144", "type": "electric_scooter", "lon": -77.01135, "rental_uris": {"android": "https://dc.lft.to/lastmile_qr_scan", "ios": "https://dc.lft.to/lastmile_qr_scan"}, "lat": 38.895169, "is_reserved": 0, "is_disabled": 0, "fusion_lat": 0.0}, {"fusion_lon": 0.0, "bike_id": "e10fcd95743ba15c6cbbf297dafb0626", "name": "e10fcd95743ba15c6cbbf297dafb0626", "type": "electric_scooter", "lon": -77.021683, "rental_uris": {"android": "https://dc.lft.to/lastmile_qr_scan", "ios": "https://dc.lft.to/lastmile_qr_scan"}, "lat": 38.94296516666667, "is_reserved": 0, "is_disabled": 0, "fusion_lat": 0.0}, {"fusion_lon": 0.0, "bike_id": "e3da3611b4579b287823d25c4149bc04", "name": "e3da3611b4579b287823d25c4149bc04", "type": "electric_scooter", "lon": -77.04655283333334, "rental_uris": {"android": "https://dc.lft.to/lastmile_qr_scan", "ios": "https://dc.lft.to/lastmile_qr_scan"}, "lat": 38.90429316666667, "is_reserved": 0, "is_disabled": 0, "fusion_lat": 0.0}, {"fusion_lon": 0.0, "bike_id": "2d54af6ab7437705827fc73b7583598d", "name": "2d54af6ab7437705827fc73b7583598d", "type": "electric_bike", "lon": -77.13230633333333, "rental_uris": {"android": "https://dc.lft.to/lastmile_qr_scan", "ios": "https://dc.lft.to/lastmile_qr_scan"}, "lat": 38.869780166666665, "is_reserved": 0, "is_disabled": 0, "fusion_lat": 0.0}, {"fusion_lon": 0.0, "bike_id": "44a6b145b7daba3024b15788c83e98b8", "name": "44a6b145b7daba3024b15788c83e98b8", "type": "electric_scooter", "lon": -77.0251925, "rental_uris": {"android": "https://dc.lft.to/lastmile_qr_scan", "ios": "https://dc.lft.to/lastmile_qr_scan"}, "lat": 38.900909, "is_reserved": 0, "is_disabled": 0, "fusion_lat": 0.0}, {"fusion_lon": 0.0, "bike_id": "e21bfb5259608b14ecd7d0b87960eb0d", "name": "e21bfb5259608b14ecd7d0b87960eb0d", "type": "electric_scooter", "lon": -77.03199416666666, "rental_uris": {"android": "https://dc.lft.to/lastmile_qr_scan", "ios": "https://dc.lft.to/lastmile_qr_scan"}, "lat": 38.916425333333336, "is_reserved": 0, "is_disabled": 0, "fusion_lat": 0.0}, {"fusion_lon": 0.0, "bike_id": "015a15e38620136973d650cffcc7511c", "name": "015a15e38620136973d650cffcc7511c", "type": "electric_scooter", "lon": -77.04613016666667, "rental_uris": {"android": "https://dc.lft.to/lastmile_qr_scan", "ios": "https://dc.lft.to/lastmile_qr_scan"}, "lat": 38.905744166666665, "is_reserved": 0, "is_disabled": 0, "fusion_lat": 0.0}, {"fusion_lon": 0.0, "bike_id": "50d4ae68f33e67c3b7e324a8863bd10d", "name": "50d4ae68f33e67c3b7e324a8863bd10d", "type": "electric_scooter", "lon": -77.02714666666667, "rental_uris": {"android": "https://dc.lft.to/lastmile_qr_scan", "ios": "https://dc.lft.to/lastmile_qr_scan"}, "lat": 38.90756016666667, "is_reserved": 0, "is_disabled": 0, "fusion_lat": 0.0}, {"fusion_lon": 0.0, "bike_id": "bb2ff4c71cbfc7d8455ee64da09f0f24", "name": "bb2ff4c71cbfc7d8455ee64da09f0f24", "type": "electric_scooter", "lon": -77.00102266666667, "rental_uris": {"android": "https://dc.lft.to/lastmile_qr_scan", "ios": "https://dc.lft.to/lastmile_qr_scan"}, "lat": 38.89746316666667, "is_reserved": 0, "is_disabled": 0, "fusion_lat": 0.0}, {"fusion_lon": 0.0, "bike_id": "9fe25224998477fdc6df27b7c9b17cf5", "name": "9fe25224998477fdc6df27b7c9b17cf5", "type": "electric_scooter", "lon": -77.00732333333333, "rental_uris": {"android": "https://dc.lft.to/lastmile_qr_scan", "ios": "https://dc.lft.to/lastmile_qr_scan"}, "lat": 38.876550333333334, "is_reserved": 0, "is_disabled": 0, "fusion_lat": 0.0}, {"fusion_lon": 0.0, "bike_id": "a0bd4efe50f3b595127fda2f90dc9478", "name": "a0bd4efe50f3b595127fda2f90dc9478", "type": "electric_scooter", "lon": -77.03200266666667, "rental_uris": {"android": "https://dc.lft.to/lastmile_qr_scan", "ios": "https://dc.lft.to/lastmile_qr_scan"}, "lat": 38.91928383333333, "is_reserved": 0, "is_disabled": 0, "fusion_lat": 0.0}, {"fusion_lon": 0.0, "bike_id": "92cf15dd32c653b6e795c61a9af2b825", "name": "92cf15dd32c653b6e795c61a9af2b825", "type": "electric_scooter", "lon": -77.00580433333333, "rental_uris": {"android": "https://dc.lft.to/lastmile_qr_scan", "ios": "https://dc.lft.to/lastmile_qr_scan"}, "lat": 38.87524166666667, "is_reserved": 0, "is_disabled": 0, "fusion_lat": 0.0}, {"fusion_lon": 0.0, "bike_id": "c3e16f4c0bdfd6f637a2e976167e234a", "name": "c3e16f4c0bdfd6f637a2e976167e234a", "type": "electric_scooter", "lon": -77.026582, "rental_uris": {"android": "https://dc.lft.to/lastmile_qr_scan", "ios": "https://dc.lft.to/lastmile_qr_scan"}, "lat": 38.93097916666667, "is_reserved": 0, "is_disabled": 0, "fusion_lat": 0.0}, {"fusion_lon": 0.0, "bike_id": "18a8741d070211bd94c89d883f0c8f22", "name": "18a8741d070211bd94c89d883f0c8f22", "type": "electric_scooter", "lon": -77.0036415, "rental_uris": {"android": "https://dc.lft.to/lastmile_qr_scan", "ios": "https://dc.lft.to/lastmile_qr_scan"}, "lat": 38.877665666666665, "is_reserved": 0, "is_disabled": 0, "fusion_lat": 0.0}, {"fusion_lon": 0.0, "bike_id": "e9df83030069b0e432b7bf1c2f941893", "name": "e9df83030069b0e432b7bf1c2f941893", "type": "electric_scooter", "lon": -77.041204, "rental_uris": {"android": "https://dc.lft.to/lastmile_qr_scan", "ios": "https://dc.lft.to/lastmile_qr_scan"}, "lat": 38.9155735, "is_reserved": 0, "is_disabled": 0, "fusion_lat": 0.0}, {"fusion_lon": 0.0, "bike_id": "90a6e792e1c723f109a95d1b9106690a", "name": "90a6e792e1c723f109a95d1b9106690a", "type": "electric_scooter", "lon": -77.01654266666667, "rental_uris": {"android": "https://dc.lft.to/lastmile_qr_scan", "ios": "https://dc.lft.to/lastmile_qr_scan"}, "lat": 38.88757116666667, "is_reserved": 0, "is_disabled": 0, "fusion_lat": 0.0}, {"fusion_lon": 0.0, "bike_id": "c9d3436bc78359f784ffe7e3b18cfb73", "name": "c9d3436bc78359f784ffe7e3b18cfb73", "type": "electric_scooter", "lon": -77.039071, "rental_uris": {"android": "https://dc.lft.to/lastmile_qr_scan", "ios": "https://dc.lft.to/lastmile_qr_scan"}, "lat": 38.9141895, "is_reserved": 0, "is_disabled": 0, "fusion_lat": 0.0}, {"fusion_lon": 0.0, "bike_id": "79fedc674ed3f0c3185363c7912f7995", "name": "79fedc674ed3f0c3185363c7912f7995", "type": "electric_scooter", "lon": -76.9906065, "rental_uris": {"android": "https://dc.lft.to/lastmile_qr_scan", "ios": "https://dc.lft.to/lastmile_qr_scan"}, "lat": 38.863667666666665, "is_reserved": 0, "is_disabled": 0, "fusion_lat": 0.0}, {"fusion_lon": 0.0, "bike_id": "6cde2353e6416b0a5be4ea6ee3a387df", "name": "6cde2353e6416b0a5be4ea6ee3a387df", "type": "electric_bike", "lon": -77.00629683333334, "rental_uris": {"android": "https://dc.lft.to/lastmile_qr_scan", "ios": "https://dc.lft.to/lastmile_qr_scan"}, "lat": 38.98363766666667, "is_reserved": 0, "is_disabled": 0, "fusion_lat": 0.0}, {"fusion_lon": 0.0, "bike_id": "97b8533362c4ccd2bf846a3fa2f6cfc5", "name": "97b8533362c4ccd2bf846a3fa2f6cfc5", "type": "electric_scooter", "lon": -77.00569533333334, "rental_uris": {"android": "https://dc.lft.to/lastmile_qr_scan", "ios": "https://dc.lft.to/lastmile_qr_scan"}, "lat": 38.90570183333333, "is_reserved": 0, "is_disabled": 0, "fusion_lat": 0.0}, {"fusion_lon": 0.0, "bike_id": "3ea673aed8df862efbd09af1f2607790", "name": "3ea673aed8df862efbd09af1f2607790", "type": "electric_bike", "lon": -77.06474233333333, "rental_uris": {"android": "https://dc.lft.to/lastmile_qr_scan", "ios": "https://dc.lft.to/lastmile_qr_scan"}, "lat": 38.97385233333333, "is_reserved": 0, "is_disabled": 0, "fusion_lat": 0.0}, {"fusion_lon": 0.0, "bike_id": "9b3da8fdc8b922acfd309314ce407eac", "name": "9b3da8fdc8b922acfd309314ce407eac", "type": "electric_scooter", "lon": -76.99607516666667, "rental_uris": {"android": "https://dc.lft.to/lastmile_qr_scan", "ios": "https://dc.lft.to/lastmile_qr_scan"}, "lat": 38.92618566666667, "is_reserved": 0, "is_disabled": 0, "fusion_lat": 0.0}, {"fusion_lon": 0.0, "bike_id": "e58f79c9cfa5f041ab712c0d1aad7882", "name": "e58f79c9cfa5f041ab712c0d1aad7882", "type": "electric_scooter", "lon": -77.0246815, "rental_uris": {"android": "https://dc.lft.to/lastmile_qr_scan", "ios": "https://dc.lft.to/lastmile_qr_scan"}, "lat": 38.90853366666666, "is_reserved": 0, "is_disabled": 0, "fusion_lat": 0.0}, {"fusion_lon": 0.0, "bike_id": "9c2a68aaab1f25fe62631b69202c500d", "name": "9c2a68aaab1f25fe62631b69202c500d", "type": "electric_scooter", "lon": -76.98560566666667, "rental_uris": {"android": "https://dc.lft.to/lastmile_qr_scan", "ios": "https://dc.lft.to/lastmile_qr_scan"}, "lat": 38.898889, "is_reserved": 0, "is_disabled": 0, "fusion_lat": 0.0}, {"fusion_lon": 0.0, "bike_id": "435b3253b4f36b49cbdbabd9dfe74a3d", "name": "435b3253b4f36b49cbdbabd9dfe74a3d", "type": "electric_scooter", "lon": -77.01054566666667, "rental_uris": {"android": "https://dc.lft.to/lastmile_qr_scan", "ios": "https://dc.lft.to/lastmile_qr_scan"}, "lat": 38.92990316666667, "is_reserved": 0, "is_disabled": 0, "fusion_lat": 0.0}, {"fusion_lon": 0.0, "bike_id": "ab99710c10a81d76107f25c709590552", "name": "ab99710c10a81d76107f25c709590552", "type": "electric_scooter", "lon": -77.0105925, "rental_uris": {"android": "https://dc.lft.to/lastmile_qr_scan", "ios": "https://dc.lft.to/lastmile_qr_scan"}, "lat": 38.871425333333335, "is_reserved": 0, "is_disabled": 0, "fusion_lat": 0.0}, {"fusion_lon": 0.0, "bike_id": "73e52820106efb0b3461e63debf02ae7", "name": "73e52820106efb0b3461e63debf02ae7", "type": "electric_scooter", "lon": -77.03639816666667, "rental_uris": {"android": "https://dc.lft.to/lastmile_qr_scan", "ios": "https://dc.lft.to/lastmile_qr_scan"}, "lat": 38.912791666666664, "is_reserved": 0, "is_disabled": 0, "fusion_lat": 0.0}, {"fusion_lon": 0.0, "bike_id": "4948cc2dcd987198c0c06cddfea2fd27", "name": "4948cc2dcd987198c0c06cddfea2fd27", "type": "electric_scooter", "lon": -77.046481, "rental_uris": {"android": "https://dc.lft.to/lastmile_qr_scan", "ios": "https://dc.lft.to/lastmile_qr_scan"}, "lat": 38.903284666666664, "is_reserved": 0, "is_disabled": 0, "fusion_lat": 0.0}, {"fusion_lon": 0.0, "bike_id": "cf991784711ccc7adf9b377fcfcfcb43", "name": "cf991784711ccc7adf9b377fcfcfcb43", "type": "electric_scooter", "lon": -77.02416616666666, "rental_uris": {"android": "https://dc.lft.to/lastmile_qr_scan", "ios": "https://dc.lft.to/lastmile_qr_scan"}, "lat": 38.9349445, "is_reserved": 0, "is_disabled": 0, "fusion_lat": 0.0}, {"fusion_lon": 0.0, "bike_id": "0993f4126a0c53ac97c4eea2bce9c3d0", "name": "0993f4126a0c53ac97c4eea2bce9c3d0", "type": "electric_scooter", "lon": -76.987259, "rental_uris": {"android": "https://dc.lft.to/lastmile_qr_scan", "ios": "https://dc.lft.to/lastmile_qr_scan"}, "lat": 38.86719566666667, "is_reserved": 0, "is_disabled": 0, "fusion_lat": 0.0},