{"data": {"bikes": [{"bike_id": "ecc6bcad868fa0fc532a390b532a3090", "lat": 38.90919566666667, "is_reserved": 0, "fusion_lat": 0.0, "rental_uris": {"android": "https://dc.lft.to/lastmile_qr_scan", "ios": "https://dc.lft.to/lastmile_qr_scan"}, "fusion_lon": 0.0, "name": "ecc6bcad868fa0fc532a390b532a3090", "lon": -77.01893783333334, "is_disabled": 0, "type": "electric_scooter"}, {"bike_id": "5c1554c0e5e899aa0e4549c59f6498d3", "lat": 38.92608633333333, "is_reserved": 0, "fusion_lat": 0.0, "rental_uris": {"android": "https://dc.lft.to/lastmile_qr_scan", "ios": "https://dc.lft.to/lastmile_qr_scan"}, "fusion_lon": 0.0, "name": "5c1554c0e5e899aa0e4549c59f6498d3", "lon": -77.0570995, "is_disabled": 0, "type": "electric_scooter"}, {"bike_id": "a183d67e7dac1d09b1da421e94511015", "lat": 38.91396833333334, "is_reserved": 0, "fusion_lat": 0.0, "rental_uris": {"android": "https://dc.lft.to/lastmile_qr_scan", "ios": "https://dc.lft.to/lastmile_qr_scan"}, "fusion_lon": 0.0, "name": "a183d67e7dac1d09b1da421e94511015", "lon": -77.0240785, "is_disabled": 0, "type": "electric_scooter"}, {"bike_id": "d5c92a4c4bb65c3b8380198d273c4b17", "lat": 38.89220916666667, "is_reserved": 0, "fusion_lat": 0.0, "rental_uris": {"android": "https://dc.lft.to/lastmile_qr_scan", "ios": "https://dc.lft.to/lastmile_qr_scan"}, "fusion_lon": 0.0, "name": "d5c92a4c4bb65c3b8380198d273c4b17", "lon": -77.048666, "is_disabled": 0, "type": "electric_scooter"}, {"bike_id": "08f91e89d4ad860000ac6741c2a50ef3", "lat": 38.908536166666664, "is_reserved": 0, "fusion_lat": 0.0, "rental_uris": {"android": "https://dc.lft.to/lastmile_qr_scan", "ios": "https://dc.lft.to/lastmile_qr_scan"}, "fusion_lon": 0.0, "name": "08f91e89d4ad860000ac6741c2a50ef3", "lon": -76.99802133333333, "is_disabled": 0, "type": "electric_scooter"}, {"bike_id": "9f0e0d2a14a52c17aec4441bfb2e7d79", "lat": 38.897289666666666, "is_reserved": 0, "fusion_lat": 0.0, "rental_uris": {"android": "https://dc.lft.to/lastmile_qr_scan", "ios": "https://dc.lft.to/lastmile_qr_scan"}, "fusion_lon": 0.0, "name": "9f0e0d2a14a52c17aec4441bfb2e7d79", "lon": -77.05554316666667, "is_disabled": 0, "type": "electric_bike"}, {"bike_id": "93f8d907721e1c5590b0556ea0614c46", "lat": 38.83609416666667, "is_reserved": 0, "fusion_lat": 0.0, "rental_uris": {"android": "https://dc.lft.to/lastmile_qr_scan", "ios": "https://dc.lft.to/lastmile_qr_scan"}, "fusion_lon": 0.0, "name": "93f8d907721e1c5590b0556ea0614c46", "lon": -77.0038085, "is_disabled": 0, "type": "electric_bike"}, {"bike_id": "02feaef3241e0e2995ee0961c2f10e3c", "lat": 38.9181425, "is_reserved": 0, "fusion_lat": 0.0, "rental_uris": {"android": "https://dc.lft.to/lastmile_qr_scan", "ios": "https://dc.lft.to/lastmile_qr_scan"}, "fusion_lon": 0.0, "name": "02feaef3241e0e2995ee0961c2f10e3c", "lon": -77.0247795, "is_disabled": 0, "type": "electric_scooter"}, {"bike_id": "0ea39a2e86de5f83bdc4557ee58114e8", "lat": 38.90667366666667, "is_reserved": 0, "fusion_lat": 0.0, "rental_uris": {"android": "https://dc.lft.to/lastmile_qr_scan", "ios": "https://dc.lft.to/lastmile_qr_scan"}, "fusion_lon": 0.0, "name": "0ea39a2e86de5f83bdc4557ee58114e8", "lon": -77.02707366666667, "is_disabled": 0, "type": "electric_scooter"}, {"bike_id": "e3d799706fc83b7ac713a5933b73cf62", "lat": 38.914226166666666, "is_reserved": 0, "fusion_lat": 0.0, "rental_uris": {"android": "https://dc.lft.to/lastmile_qr_scan", "ios": "https://dc.lft.to/lastmile_qr_scan"}, "fusion_lon": 0.0, "name": "e3d799706fc83b7ac713a5933b73cf62", "lon": -77.01984483333334, "is_disabled": 0, "type": "electric_scooter"}, {"bike_id": "9877b051e50253d96161437dd6539e88", "lat": 38.90775283333333, "is_reserved": 0, "fusion_lat": 0.0, "rental_uris": {"android": "https://dc.lft.to/lastmile_qr_scan", "ios": "https://dc.lft.to/lastmile_qr_scan"}, "fusion_lon": 0.0, "name": "9877b051e50253d96161437dd6539e88", "lon": -77.07167833333334, "is_disabled": 0, "type": "electric_scooter"}, {"bike_id": "f07dbee59e74a4df07bb4e77ec645185", "lat": 38.93537466666667, "is_reserved": 0, "fusion_lat": 0.0, "rental_uris": {"android": "https://dc.lft.to/lastmile_qr_scan", "ios": "https://dc.lft.to/lastmile_qr_scan"}, "fusion_lon": 0.0, "name": "f07dbee59e74a4df07bb4e77ec645185", "lon": -77.023492, "is_disabled": 0, "type": "electric_scooter"}, {"bike_id": "a7d94466d1ea64cbc3b52e48e64a4f77", "lat": 38.89372216666667, "is_reserved": 0, "fusion_lat": 0.0, "rental_uris": {"android": "https://dc.lft.to/lastmile_qr_scan", "ios": "https://dc.lft.to/lastmile_qr_scan"}, "fusion_lon": 0.0, "name": "a7d94466d1ea64cbc3b52e48e64a4f77", "lon": -77.02256683333333, "is_disabled": 0, "type": "electric_scooter"}, {"bike_id": "54302d939db7d2faafde58c7505eadbe", "lat": 38.933900333333334, "is_reserved": 0, "fusion_lat": 0.0, "rental_uris": {"android": "https://dc.lft.to/lastmile_qr_scan", "ios": "https://dc.lft.to/lastmile_qr_scan"}, "fusion_lon": 0.0, "name": "54302d939db7d2faafde58c7505eadbe", "lon": -77.0574105, "is_disabled": 0, "type": "electric_scooter"}, {"bike_id": "d5e33e18a7846c87924fce1e41446258", "lat": 38.90507483333333, "is_reserved": 0, "fusion_lat": 0.0, "rental_uris": {"android": "https://dc.lft.to/lastmile_qr_scan", "ios": "https://dc.lft.to/lastmile_qr_scan"}, "fusion_lon": 0.0, "name": "d5e33e18a7846c87924fce1e41446258", "lon": -77.0698605, "is_disabled": 0, "type": "electric_bike"}, {"bike_id": "5db6c931a4b1e2156198d3a90e6c4c77", "lat": 38.907295166666664, "is_reserved": 0, "fusion_lat": 0.0, "rental_uris": {"android": "https://dc.lft.to/lastmile_qr_scan", "ios": "https://dc.lft.to/lastmile_qr_scan"}, "fusion_lon": 0.0, "name": "5db6c931a4b1e2156198d3a90e6c4c77", "lon": -77.02378283333333, "is_disabled": 0, "type": "electric_scooter"}, {"bike_id": "e27c4d5e2e45c0f7ac478dae6991796a", "lat": 38.9227415, "is_reserved": 0, "fusion_lat": 0.0, "rental_uris": {"android": "https://dc.lft.to/lastmile_qr_scan", "ios": "https://dc.lft.to/lastmile_qr_scan"}, "fusion_lon": 0.0, "name": "e27c4d5e2e45c0f7ac478dae6991796a", "lon": -77.036557, "is_disabled": 0, "type": "electric_scooter"}, {"bike_id": "65f02d54340b573448a7676f5b83bf57", "lat": 38.902869, "is_reserved": 0, "fusion_lat": 0.0, "rental_uris": {"android": "https://dc.lft.to/lastmile_qr_scan", "ios": "https://dc.lft.to/lastmile_qr_scan"}, "fusion_lon": 0.0, "name": "65f02d54340b573448a7676f5b83bf57", "lon": -77.0580515, "is_disabled": 0, "type": "electric_scooter"}, {"bike_id": "7013980e8a9cd6807346f0eb6623002c", "lat": 38.89328883333334, "is_reserved": 0, "fusion_lat": 0.0, "rental_uris": {"android": "https://dc.lft.to/lastmile_qr_scan", "ios": "https://dc.lft.to/lastmile_qr_scan"}, "fusion_lon": 0.0, "name": "7013980e8a9cd6807346f0eb6623002c", "lon": -77.046801, "is_disabled": 0, "type": "electric_scooter"}, {"bike_id": "74ce40ab37e630eba4ece45d31e7aae8", "lat": 38.934710833333334, "is_reserved": 0, "fusion_lat": 0.0, "rental_uris": {"android": "https://dc.lft.to/lastmile_qr_scan", "ios": "https://dc.lft.to/lastmile_qr_scan"}, "fusion_lon": 0.0, "name": "74ce40ab37e630eba4ece45d31e7aae8", "lon": -77.02235966666667, "is_disabled": 0, "type": "electric_scooter"}, {"bike_id": "8d63d4539083b86d185c6ca053e12b59", "lat": 38.93226333333333, "is_reserved": 0, "fusion_lat": 0.0, "rental_uris": {"android": "https://dc.lft.to/lastmile_qr_scan", "ios": "https://dc.lft.to/lastmile_qr_scan"}, "fusion_lon": 0.0, "name": "8d63d4539083b86d185c6ca053e12b59", "lon": -77.03859616666666, "is_disabled": 0, "type": "electric_scooter"}, {"bike_id": "15c76cec738db26a88943012eb534713", "lat": 38.90798733333333, "is_reserved": 0, "fusion_lat": 0.0, "rental_uris": {"android": "https://dc.lft.to/lastmile_qr_scan", "ios": "https://dc.lft.to/lastmile_qr_scan"}, "fusion_lon": 0.0, "name": "15c76cec738db26a88943012eb534713", "lon": -77.0305865, "is_disabled": 0, "type": "electric_scooter"}, {"bike_id": "5862e83041f34b7ec29ac8f0eb8058e5", "lat": 38.9221745, "is_reserved": 0, "fusion_lat": 0.0, "rental_uris": {"android": "https://dc.lft.to/lastmile_qr_scan", "ios": "https://dc.lft.to/lastmile_qr_scan"}, "fusion_lon": 0.0, "name": "5862e83041f34b7ec29ac8f0eb8058e5", "lon": -77.20141266666667, "is_disabled": 0, "type": "electric_bike"}, {"bike_id": "0e1d2668a3e55f265082d18a2e9c7b5a", "lat": 38.89866816666667, "is_reserved": 0, "fusion_lat": 0.0, "rental_uris": {"android": "https://dc.lft.to/lastmile_qr_scan", "ios": "https://dc.lft.to/lastmile_qr_scan"}, "fusion_lon": 0.0, "name": "0e1d2668a3e55f265082d18a2e9c7b5a", "lon": -76.94639683333334, "is_disabled": 0, "type": "electric_scooter"}, {"bike_id": "77bdbc30eb53401b2770c82ee738d236", "lat": 38.87062916666667, "is_reserved": 0, "fusion_lat": 0.0, "rental_uris": {"android": "https://dc.lft.to/lastmile_qr_scan", "ios": "https://dc.lft.to/lastmile_qr_scan"}, "fusion_lon": 0.0, "name": "77bdbc30eb53401b2770c82ee738d236", "lon": -76.97100083333333, "is_disabled": 0, "type": "electric_scooter"}, {"bike_id": "b69c60c89eb918f383429beca5c853ad", "lat": 38.86148083333333, "is_reserved": 0, "fusion_lat": 0.0, "rental_uris": {"android": "https://dc.lft.to/lastmile_qr_scan", "ios": "https://dc.lft.to/lastmile_qr_scan"}, "fusion_lon": 0.0, "name": "b69c60c89eb918f383429beca5c853ad", "lon": -77.09146, "is_disabled": 0, "type": "electric_bike"}, {"bike_id": "d19c0b5621bf27aefd2f4f3b93473f15", "lat": 38.888391666666664, "is_reserved": 0, "fusion_lat": 0.0, "rental_uris": {"android": "https://dc.lft.to/lastmile_qr_scan", "ios": "https://dc.lft.to/lastmile_qr_scan"}, "fusion_lon": 0.0, "name": "d19c0b5621bf27aefd2f4f3b93473f15", "lon": -77.0490165, "is_disabled": 0, "type": "electric_scooter"}, {"bike_id": "64a3e8ccd802bb2f23fa8968ed2ca793", "lat": 38.90964116666667, "is_reserved": 0, "fusion_lat": 0.0, "rental_uris": {"android": "https://dc.lft.to/lastmile_qr_scan", "ios": "https://dc.lft.to/lastmile_qr_scan"}, "fusion_lon": 0.0, "name": "64a3e8ccd802bb2f23fa8968ed2ca793", "lon": -77.032907, "is_disabled": 0, "type": "electric_scooter"}, {"bike_id": "d15d9d12baa9821e7317e9fa92583f34", "lat": 38.88348766666667, "is_reserved": 0, "fusion_lat": 0.0, "rental_uris": {"android": "https://dc.lft.to/lastmile_qr_scan", "ios": "https://dc.lft.to/lastmile_qr_scan"}, "fusion_lon": 0.0, "name": "d15d9d12baa9821e7317e9fa92583f34", "lon": -77.02467633333333, "is_disabled": 0, "type": "electric_bike"}, {"bike_id": "206c9f8f2df917735e1bfdeebf8befc2", "lat": 38.8874355, "is_reserved": 0, "fusion_lat": 0.0, "rental_uris": {"android": "https://dc.lft.to/lastmile_qr_scan", "ios": "https://dc.lft.to/lastmile_qr_scan"}, "fusion_lon": 0.0, "name": "206c9f8f2df917735e1bfdeebf8befc2", "lon": -77.03165533333333, "is_disabled": 0, "type": "electric_scooter"}, {"bike_id": "a9339850c4e6b33679d2b9024bbbe3ce", "lat": 38.8953425, "is_reserved": 0, "fusion_lat": 0.0, "rental_uris": {"android": "https://dc.lft.to/lastmile_qr_scan", "ios": "https://dc.lft.to/lastmile_qr_scan"}, "fusion_lon": 0.0, "name": "a9339850c4e6b33679d2b9024bbbe3ce", "lon": -77.02293816666666, "is_disabled": 0, "type": "electric_scooter"}, {"bike_id": "e55578f3b62f19a42952d6226259021a", "lat": 38.896245, "is_reserved": 0, "fusion_lat": 0.0, "rental_uris": {"android": "https://dc.lft.to/lastmile_qr_scan", "ios": "https://dc.lft.to/lastmile_qr_scan"}, "fusion_lon": 0.0, "name": "e55578f3b62f19a42952d6226259021a", "lon": -77.044905, "is_disabled": 0, "type": "electric_scooter"}, {"bike_id": "3ed65992bcd2fe74a20df934aa010c57", "lat": 38.900527833333335, "is_reserved": 0, "fusion_lat": 0.0, "rental_uris": {"android": "https://dc.lft.to/lastmile_qr_scan", "ios": "https://dc.lft.to/lastmile_qr_scan"}, "fusion_lon": 0.0, "name": "3ed65992bcd2fe74a20df934aa010c57", "lon": -76.99148416666667, "is_disabled": 0, "type": "electric_scooter"}, {"bike_id": "deb7907a4f6d4e4aabfacd26e15786e5", "lat": 38.884943666666665, "is_reserved": 0, "fusion_lat": 0.0, "rental_uris": {"android": "https://dc.lft.to/lastmile_qr_scan", "ios": "https://dc.lft.to/lastmile_qr_scan"}, "fusion_lon": 0.0, "name": "deb7907a4f6d4e4aabfacd26e15786e5", "lon": -77.00730366666667, "is_disabled": 0, "type": "electric_scooter"}, {"bike_id": "97e06371fa65cda947910fc219a06392", "lat": 38.902636333333334, "is_reserved": 0, "fusion_lat": 0.0, "rental_uris": {"android": "https://dc.lft.to/lastmile_qr_scan", "ios": "https://dc.lft.to/lastmile_qr_scan"}, "fusion_lon": 0.0, "name": "97e06371fa65cda947910fc219a06392", "lon": -77.06171466666666, "is_disabled": 0, "type": "electric_scooter"}, {"bike_id": "5576faa3653444f1eff6833e5e267068", "lat": 38.89956466666667, "is_reserved": 0, "fusion_lat": 0.0, "rental_uris": {"android": "https://dc.lft.to/lastmile_qr_scan", "ios": "https://dc.lft.to/lastmile_qr_scan"}, "fusion_lon": 0.0, "name": "5576faa3653444f1eff6833e5e267068", "lon": -77.02012, "is_disabled": 0, "type": "electric_scooter"}, {"bike_id": "b072119985ef03f2e4c3cce30aa0dd50", "lat": 38.9660805, "is_reserved": 0, "fusion_lat": 0.0, "rental_uris": {"android": "https://dc.lft.to/lastmile_qr_scan", "ios": "https://dc.lft.to/lastmile_qr_scan"}, "fusion_lon": 0.0, "name": "b072119985ef03f2e4c3cce30aa0dd50", "lon": -77.0197955, "is_disabled": 0, "type": "electric_scooter"}, {"bike_id": "236fb1fd7096677562d4602765adfdfc", "lat": 38.9017285, "is_reserved": 0, "fusion_lat": 0.0, "rental_uris": {"android": "https://dc.lft.to/lastmile_qr_scan", "ios": "https://dc.lft.to/lastmile_qr_scan"}, "fusion_lon": 0.0, "name": "236fb1fd7096677562d4602765adfdfc", "lon": -77.01844366666667, "is_disabled": 0, "type": "electric_scooter"}, {"bike_id": "43216f0e19dfe465d00b9578a3e8c83d", "lat": 38.914229166666665, "is_reserved": 0, "fusion_lat": 0.0, "rental_uris": {"android": "https://dc.lft.to/lastmile_qr_scan", "ios": "https://dc.lft.to/lastmile_qr_scan"}, "fusion_lon": 0.0, "name": "43216f0e19dfe465d00b9578a3e8c83d", "lon": -77.022284, "is_disabled": 0, "type": "electric_scooter"}, {"bike_id": "47ca62adb3852f6ebfee4789c950d23b", "lat": 38.89427533333333, "is_reserved": 0, "fusion_lat": 0.0, "rental_uris": {"android": "https://dc.lft.to/lastmile_qr_scan", "ios": "https://dc.lft.to/lastmile_qr_scan"}, "fusion_lon": 0.0, "name": "47ca62adb3852f6ebfee4789c950d23b", "lon": -77.03966666666666, "is_disabled": 0, "type": "electric_scooter"}, {"bike_id": "102993db3a6173eaaea1175332324e8e", "lat": 38.90237533333333, "is_reserved": 0, "fusion_lat": 0.0, "rental_uris": {"android": "https://dc.lft.to/lastmile_qr_scan", "ios": "https://dc.lft.to/lastmile_qr_scan"}, "fusion_lon": 0.0, "name": "102993db3a6173eaaea1175332324e8e", "lon": -77.00204383333333, "is_disabled": 0, "type": "electric_scooter"}, {"bike_id": "8dbc3529b3f0fe99759b2127d47da9d1", "lat": 38.92132183333333, "is_reserved": 0, "fusion_lat": 0.0, "rental_uris": {"android": "https://dc.lft.to/lastmile_qr_scan", "ios": "https://dc.lft.to/lastmile_qr_scan"}, "fusion_lon": 0.0, "name": "8dbc3529b3f0fe99759b2127d47da9d1", "lon": -77.04580216666666, "is_disabled": 0, "type": "electric_scooter"}, {"bike_id": "f4ef572b18ab0f561ebd1f4b4890e1f2", "lat": 38.903940166666665, "is_reserved": 0, "fusion_lat": 0.0, "rental_uris": {"android": "https://dc.lft.to/lastmile_qr_scan", "ios": "https://dc.lft.to/lastmile_qr_scan"}, "fusion_lon": 0.0, "name": "f4ef572b18ab0f561ebd1f4b4890e1f2", "lon": -77.022043, "is_disabled": 0, "type": "electric_scooter"}, {"bike_id": "bba4c9c2f29dcd019cd5f7213dbffe92", "lat": 38.9146565, "is_reserved": 0, "fusion_lat": 0.0, "rental_uris": {"android": "https://dc.lft.to/lastmile_qr_scan", "ios": "https://dc.lft.to/lastmile_qr_scan"}, "fusion_lon": 0.0, "name": "bba4c9c2f29dcd019cd5f7213dbffe92", "lon": -77.0458805, "is_disabled": 0, "type": "electric_scooter"}, {"bike_id": "f70ed97fc821ec372d160ddb81a749b2", "lat": 38.87360533333333, "is_reserved": 0, "fusion_lat": 0.0, "rental_uris": {"android": "https://dc.lft.to/lastmile_qr_scan", "ios": "https://dc.lft.to/lastmile_qr_scan"}, "fusion_lon": 0.0, "name": "f70ed97fc821ec372d160ddb81a749b2", "lon": -76.97030416666666, "is_disabled": 0, "type": "electric_scooter"}, {"bike_id": "4be0212ac15e41a7e02de1382a661486", "lat": 38.9333345, "is_reserved": 0, "fusion_lat": 0.0, "rental_uris": {"android": "https://dc.lft.to/lastmile_qr_scan", "ios": "https://dc.lft.to/lastmile_qr_scan"}, "fusion_lon": 0.0, "name": "4be0212ac15e41a7e02de1382a661486", "lon": -77.02852733333333, "is_disabled": 0, "type": "electric_scooter"}, {"bike_id": "48ffa48ed8ec71bd4d875c08ca12f776", "lat": 38.89885833333334, "is_reserved": 0, "fusion_lat": 0.0, "rental_uris": {"android": "https://dc.lft.to/lastmile_qr_scan", "ios": "https://dc.lft.to/lastmile_qr_scan"}, "fusion_lon": 0.0, "name": "48ffa48ed8ec71bd4d875c08ca12f776", "lon": -76.93177633333333, "is_disabled": 0, "type": "electric_scooter"}, {"bike_id": "7fd6dfda94c7e74ada0ce047dc520dda", "lat": 38.89822683333333, "is_reserved": 0, "fusion_lat": 0.0, "rental_uris": {"android": "https://dc.lft.to/lastmile_qr_scan", "ios": "https://dc.lft.to/lastmile_qr_scan"}, "fusion_lon": 0.0, "name": "7fd6dfda94c7e74ada0ce047dc520dda", "lon": -77.02455983333333, "is_disabled": 0, "type": "electric_bike"}, {"bike_id": "766e8c96581b1798e7397369e76a88ba", "lat": 38.925073, "is_reserved": 0, "fusion_lat": 0.0, "rental_uris": {"android": "https://dc.lft.to/lastmile_qr_scan", "ios": "https://dc.lft.to/lastmile_qr_scan"}, "fusion_lon": 0.0, "name": "766e8c96581b1798e7397369e76a88ba", "lon": -77.02333066666667, "is_disabled": 0, "type": "electric_scooter"}, {"bike_id": "62ee6479e33a7260b076241d88821b85", "lat": 38.86680166666667, "is_reserved": 0, "fusion_lat": 0.0, "rental_uris": {"android": "https://dc.lft.to/lastmile_qr_scan", "ios": "https://dc.lft.to/lastmile_qr_scan"}, "fusion_lon": 0.0, "name": "62ee6479e33a7260b076241d88821b85", "lon": -76.98571366666667, "is_disabled": 0, "type": "electric_scooter"}, {"bike_id": "f520ed96cd7bf910f206d60f9ed4dacc", "lat": 38.9006725, "is_reserved": 0, "fusion_lat": 0.0, "rental_uris": {"android": "https://dc.lft.to/lastmile_qr_scan", "ios": "https://dc.lft.to/lastmile_qr_scan"}, "fusion_lon": 0.0, "name": "f520ed96cd7bf910f206d60f9ed4dacc", "lon": -77.02715233333333, "is_disabled": 0, "type": "electric_scooter"}, {"bike_id": "54b07bac8d6afb094bec9d65f7ec27c9", "lat": 38.922671333333334, "is_reserved": 0, "fusion_lat": 0.0, "rental_uris": {"android": "https://dc.lft.to/lastmile_qr_scan", "ios": "https://dc.lft.to/lastmile_qr_scan"}, "fusion_lon": 0.0, "name": "54b07bac8d6afb094bec9d65f7ec27c9", "lon": -77.03682783333333, "is_disabled": 0, "type": "electric_scooter"}, {"bike_id": "90f99ada09050bbd18d029fb577bdce1", "lat": 38.86685333333333, "is_reserved": 0, "fusion_lat": 0.0, "rental_uris": {"android": "https://dc.lft.to/lastmile_qr_scan", "ios": "https://dc.lft.to/lastmile_qr_scan"}, "fusion_lon": 0.0, "name": "90f99ada09050bbd18d029fb577bdce1", "lon": -76.98579816666667, "is_disabled": 0, "type": "electric_scooter"}, {"bike_id": "da6dc11bb8b343778f0b7a3c871b86e8", "lat": 38.93344533333333, "is_reserved": 0, "fusion_lat": 0.0, "rental_uris": {"android": "https://dc.lft.to/lastmile_qr_scan", "ios": "https://dc.lft.to/lastmile_qr_scan"}, "fusion_lon": 0.0, "name": "da6dc11bb8b343778f0b7a3c871b86e8", "lon": -77.062036, "is_disabled": 0, "type": "electric_scooter"}, {"bike_id": "bee997c97b2ff6a969b92c0665c9a69c", "lat": 38.91692033333333, "is_reserved": 0, "fusion_lat": 0.0, "rental_uris": {"android": "https://dc.lft.to/lastmile_qr_scan", "ios": "https://dc.lft.to/lastmile_qr_scan"}, "fusion_lon": 0.0, "name": "bee997c97b2ff6a969b92c0665c9a69c", "lon": -77.0408875, "is_disabled": 0, "type": "electric_scooter"}, {"bike_id": "d9295717fb779b5f89f1b67bcc7d3255", "lat": 38.90790916666667, "is_reserved": 0, "fusion_lat": 0.0, "rental_uris": {"android": "https://dc.lft.to/lastmile_qr_scan", "ios": "https://dc.lft.to/lastmile_qr_scan"}, "fusion_lon": 0.0, "name": "d9295717fb779b5f89f1b67bcc7d3255", "lon": -77.03187416666667, "is_disabled": 0, "type": "electric_scooter"}, {"bike_id": "8a5444c60a31023d8e86baac25f6ee4b", "lat": 38.925368666666664, "is_reserved": 0, "fusion_lat": 0.0, "rental_uris": {"android": "https://dc.lft.to/lastmile_qr_scan", "ios": "https://dc.lft.to/lastmile_qr_scan"}, "fusion_lon": 0.0, "name": "8a5444c60a31023d8e86baac25f6ee4b", "lon": -77.02136483333334, "is_disabled": 0, "type": "electric_scooter"}, {"bike_id": "a4cc2fb664b7a4c776c0ce9b86229409", "lat": 38.922326, "is_reserved": 0, "fusion_lat": 0.0, "rental_uris": {"android": "https://dc.lft.to/lastmile_qr_scan", "ios": "https://dc.lft.to/lastmile_qr_scan"}, "fusion_lon": 0.0, "name": "a4cc2fb664b7a4c776c0ce9b86229409", "lon": -77.03886116666666, "is_disabled": 0, "type": "electric_scooter"}, {"bike_id": "df16738ebc0b75f75d42b18ac810aa2f", "lat": 38.932257666666665, "is_reserved": 0, "fusion_lat": 0.0, "rental_uris": {"android": "https://dc.lft.to/lastmile_qr_scan", "ios": "https://dc.lft.to/lastmile_qr_scan"}, "fusion_lon": 0.0, "name": "df16738ebc0b75f75d42b18ac810aa2f", "lon": -77.03866383333333, "is_disabled": 0, "type": "electric_scooter"}, {"bike_id": "1c85c60430a71c62aa8081fb59b2fa4c", "lat": 38.900013333333334, "is_reserved": 0, "fusion_lat": 0.0, "rental_uris": {"android": "https://dc.lft.to/lastmile_qr_scan", "ios": "https://dc.lft.to/lastmile_qr_scan"}, "fusion_lon": 0.0, "name": "1c85c60430a71c62aa8081fb59b2fa4c", "lon": -77.01192866666666, "is_disabled": 0, "type": "electric_scooter"}, {"bike_id": "436080d10c84653b63253e2ce46dbff2", "lat": 38.9070255, "is_reserved": 0, "fusion_lat": 0.0, "rental_uris": {"android": "https://dc.lft.to/lastmile_qr_scan", "ios": "https://dc.lft.to/lastmile_qr_scan"}, "fusion_lon": 0.0, "name": "436080d10c84653b63253e2ce46dbff2", "lon": -77.02386766666666, "is_disabled": 0, "type": "electric_scooter"}, {"bike_id": "0a49459c4d8c604f31feeeb35f038140", "lat": 38.9063955, "is_reserved": 0, "fusion_lat": 0.0, "rental_uris": {"android": "https://dc.lft.to/lastmile_qr_scan", "ios": "https://dc.lft.to/lastmile_qr_scan"}, "fusion_lon": 0.0, "name": "0a49459c4d8c604f31feeeb35f038140", "lon": -77.00987183333334, "is_disabled": 0, "type": "electric_scooter"}, {"bike_id": "13a5819d0d7abe2bb35927d5f3ac4719", "lat": 38.92727083333333, "is_reserved": 0, "fusion_lat": 0.0, "rental_uris": {"android": "https://dc.lft.to/lastmile_qr_scan", "ios": "https://dc.lft.to/lastmile_qr_scan"}, "fusion_lon": 0.0, "name": "13a5819d0d7abe2bb35927d5f3ac4719", "lon": -77.00565533333334, "is_disabled": 0, "type": "electric_scooter"}, {"bike_id": "0988fe257b06476fab531e0095723f89", "lat": 38.903763166666664, "is_reserved": 0, "fusion_lat": 0.0, "rental_uris": {"android": "https://dc.lft.to/lastmile_qr_scan", "ios": "https://dc.lft.to/lastmile_qr_scan"}, "fusion_lon": 0.0, "name": "0988fe257b06476fab531e0095723f89", "lon": -77.0293385, "is_disabled": 0, "type": "electric_scooter"}, {"bike_id": "cc02e296e03cc469363e910e0e0e1fa1", "lat": 38.90525933333333, "is_reserved": 0, "fusion_lat": 0.0, "rental_uris": {"android": "https://dc.lft.to/lastmile_qr_scan", "ios": "https://dc.lft.to/lastmile_qr_scan"}, "fusion_lon": 0.0, "name": "cc02e296e03cc469363e910e0e0e1fa1", "lon": -77.04179033333334, "is_disabled": 0, "type": "electric_scooter"}, {"bike_id": "0d8f6def242fc3f3a232c74e20889c96", "lat": 38.916841, "is_reserved": 0, "fusion_lat": 0.0, "rental_uris": {"android": "https://dc.lft.to/lastmile_qr_scan", "ios": "https://dc.lft.to/lastmile_qr_scan"}, "fusion_lon": 0.0, "name": "0d8f6def242fc3f3a232c74e20889c96", "lon": -77.0295485, "is_disabled": 0, "type": "electric_scooter"}, {"bike_id": "258b3cc7913faf638e9be9999ee909a7", "lat": 38.936687666666664, "is_reserved": 0, "fusion_lat": 0.0, "rental_uris": {"android": "https://dc.lft.to/lastmile_qr_scan", "ios": "https://dc.lft.to/lastmile_qr_scan"}, "fusion_lon": 0.0, "name": "258b3cc7913faf638e9be9999ee909a7", "lon": -76.95210866666666, "is_disabled": 0, "type": "electric_bike"}, {"bike_id": "9917e934453ed00b4f5a267e3d8625ff", "lat": 38.89730083333333, "is_reserved": 0, "fusion_lat": 0.0, "rental_uris": {"android": "https://dc.lft.to/lastmile_qr_scan", "ios": "https://dc.lft.to/lastmile_qr_scan"}, "fusion_lon": 0.0, "name": "9917e934453ed00b4f5a267e3d8625ff", "lon": -77.021716, "is_disabled": 0, "type": "electric_scooter"}, {"bike_id": "65d2c6d6027deb1873adbec88ac5e1ea", "lat": 38.92641966666667, "is_reserved": 0, "fusion_lat": 0.0, "rental_uris": {"android": "https://dc.lft.to/lastmile_qr_scan", "ios": "https://dc.lft.to/lastmile_qr_scan"}, "fusion_lon": 0.0, "name": "65d2c6d6027deb1873adbec88ac5e1ea", "lon": -76.984284, "is_disabled": 0, "type": "electric_bike"}, {"bike_id": "bbf5d81518cc0d4e9d8fb0ece9e04324", "lat": 38.941970166666664, "is_reserved": 0, "fusion_lat": 0.0, "rental_uris": {"android": "https://dc.lft.to/lastmile_qr_scan", "ios": "https://dc.lft.to/lastmile_qr_scan"}, "fusion_lon": 0.0, "name": "bbf5d81518cc0d4e9d8fb0ece9e04324", "lon": -77.02434133333334, "is_disabled": 0, "type": "electric_scooter"}, {"bike_id": "fc436a6342e6ed53a2f5ee10d375a48a", "lat": 38.9562435, "is_reserved": 0, "fusion_lat": 0.0, "rental_uris": {"android": "https://dc.lft.to/lastmile_qr_scan", "ios": "https://dc.lft.to/lastmile_qr_scan"}, "fusion_lon": 0.0, "name": "fc436a6342e6ed53a2f5ee10d375a48a", "lon": -77.02433533333334, "is_disabled": 0, "type": "electric_scooter"}, {"bike_id": "02aeccd9bb889757c8366d19de1f446c", "lat": 38.924620833333336, "is_reserved": 0, "fusion_lat": 0.0, "rental_uris": {"android": "https://dc.lft.to/lastmile_qr_scan", "ios": "https://dc.lft.to/lastmile_qr_scan"}, "fusion_lon": 0.0, "name": "02aeccd9bb889757c8366d19de1f446c", "lon": -77.2257205, "is_disabled": 0, "type": "electric_bike"}, {"bike_id": "a9dcf24fb5c5351cdc82b72aff4af2dc", "lat": 38.90206216666667, "is_reserved": 0, "fusion_lat": 0.0, "rental_uris": {"android": "https://dc.lft.to/lastmile_qr_scan", "ios": "https://dc.lft.to/lastmile_qr_scan"}, "fusion_lon": 0.0, "name": "a9dcf24fb5c5351cdc82b72aff4af2dc", "lon": -76.97413333333333, "is_disabled": 0, "type": "electric_bike"}, {"bike_id": "0454f62bcfebe4b9d7e3add40b7ab5fb", "lat": 38.9071925, "is_reserved": 0, "fusion_lat": 0.0, "rental_uris": {"android": "https://dc.lft.to/lastmile_qr_scan", "ios": "https://dc.lft.to/lastmile_qr_scan"}, "fusion_lon": 0.0, "name": "0454f62bcfebe4b9d7e3add40b7ab5fb", "lon": -77.00098933333334, "is_disabled": 0, "type": "electric_scooter"}, {"bike_id": "c35cb39fe3982a6fe9c3652f9fb60764", "lat": 38.91009783333333, "is_reserved": 0, "fusion_lat": 0.0, "rental_uris": {"android": "https://dc.lft.to/lastmile_qr_scan", "ios": "https://dc.lft.to/lastmile_qr_scan"}, "fusion_lon": 0.0, "name": "c35cb39fe3982a6fe9c3652f9fb60764", "lon": -77.0161305, "is_disabled": 0, "type": "electric_scooter"}, {"bike_id": "e8018b5dc88ff013bb35308b8cea2591", "lat": 39.056319, "is_reserved": 0, "fusion_lat": 0.0, "rental_uris": {"android": "https://dc.lft.to/lastmile_qr_scan", "ios": "https://dc.lft.to/lastmile_qr_scan"}, "fusion_lon": 0.0, "name": "e8018b5dc88ff013bb35308b8cea2591", "lon": -77.12529533333333, "is_disabled": 0, "type": "electric_bike"}, {"bike_id": "7d62b585dc6a37b38f7908461c474839", "lat": 38.93269433333333, "is_reserved": 0, "fusion_lat": 0.0, "rental_uris": {"android": "https://dc.lft.to/lastmile_qr_scan", "ios": "https://dc.lft.to/lastmile_qr_scan"}, "fusion_lon": 0.0, "name": "7d62b585dc6a37b38f7908461c474839", "lon": -77.0350095, "is_disabled": 0, "type": "electric_scooter"}, {"bike_id": "f98256ab9431740eddebc5d4639353ba", "lat": 38.9039755, "is_reserved": 0, "fusion_lat": 0.0, "rental_uris": {"android": "https://dc.lft.to/lastmile_qr_scan", "ios": "https://dc.lft.to/lastmile_qr_scan"}, "fusion_lon": 0.0, "name": "f98256ab9431740eddebc5d4639353ba", "lon": -77.06510133333333, "is_disabled": 0, "type": "electric_scooter"}, {"bike_id": "9701c1d6f5969922d2837a28c7100c71", "lat": 38.93818266666667, "is_reserved": 0, "fusion_lat": 0.0, "rental_uris": {"android": "https://dc.lft.to/lastmile_qr_scan", "ios": "https://dc.lft.to/lastmile_qr_scan"}, "fusion_lon": 0.0, "name": "9701c1d6f5969922d2837a28c7100c71", "lon": -77.07162966666667, "is_disabled": 0, "type": "electric_scooter"}, {"bike_id": "fe16b6280796c592b4fc699bb058fd61", "lat": 38.908583666666665, "is_reserved": 0, "fusion_lat": 0.0, "rental_uris": {"android": "https://dc.lft.to/lastmile_qr_scan", "ios": "https://dc.lft.to/lastmile_qr_scan"}, "fusion_lon": 0.0, "name": "fe16b6280796c592b4fc699bb058fd61", "lon": -77.02708783333334, "is_disabled": 0, "type": "electric_scooter"}, {"bike_id": "c96a507fc64a875cf7cc8a886af5ad14", "lat": 38.931054333333336, "is_reserved": 0, "fusion_lat": 0.0, "rental_uris": {"android": "https://dc.lft.to/lastmile_qr_scan", "ios": "https://dc.lft.to/lastmile_qr_scan"}, "fusion_lon": 0.0, "name": "c96a507fc64a875cf7cc8a886af5ad14", "lon": -77.023931, "is_disabled": 0, "type": "electric_scooter"}, {"bike_id": "0fb1ef896783d95ac7acfe7ff9bf3178", "lat": 38.923464333333335, "is_reserved": 0, "fusion_lat": 0.0, "rental_uris": {"android": "https://dc.lft.to/lastmile_qr_scan", "ios": "https://dc.lft.to/lastmile_qr_scan"}, "fusion_lon": 0.0, "name": "0fb1ef896783d95ac7acfe7ff9bf3178", "lon": -77.05119183333333, "is_disabled": 0, "type": "electric_scooter"}, {"bike_id": "418f74762cfc43d98c627a189660a284", "lat": 38.923223, "is_reserved": 0, "fusion_lat": 0.0, "rental_uris": {"android": "https://dc.lft.to/lastmile_qr_scan", "ios": "https://dc.lft.to/lastmile_qr_scan"}, "fusion_lon": 0.0, "name": "418f74762cfc43d98c627a189660a284", "lon": -77.03567383333333, "is_disabled": 0, "type": "electric_scooter"}, {"bike_id": "3bbfe251f49c9c1046cd25498633178c", "lat": 38.908588, "is_reserved": 0, "fusion_lat": 0.0, "rental_uris": {"android": "https://dc.lft.to/lastmile_qr_scan", "ios": "https://dc.lft.to/lastmile_qr_scan"}, "fusion_lon": 0.0, "name": "3bbfe251f49c9c1046cd25498633178c", "lon": -77.02456183333334, "is_disabled": 0, "type": "electric_scooter"}, {"bike_id": "a9c07bf87bbe3255874c69514295dd37", "lat": 38.91833366666667, "is_reserved": 0, "fusion_lat": 0.0, "rental_uris": {"android": "https://dc.lft.to/lastmile_qr_scan", "ios": "https://dc.lft.to/lastmile_qr_scan"}, "fusion_lon": 0.0, "name": "a9c07bf87bbe3255874c69514295dd37", "lon": -77.04155633333333, "is_disabled": 0, "type": "electric_scooter"}, {"bike_id": "53a982bbe7f801336ad9d776f418e516", "lat": 38.9097385, "is_reserved": 0, "fusion_lat": 0.0, "rental_uris": {"android": "https://dc.lft.to/lastmile_qr_scan", "ios": "https://dc.lft.to/lastmile_qr_scan"}, "fusion_lon": 0.0, "name": "53a982bbe7f801336ad9d776f418e516", "lon": -77.03379716666667, "is_disabled": 0, "type": "electric_scooter"}, {"bike_id": "2e239000b4208ca1439e0ed10ca3ebd6", "lat": 38.904357833333336, "is_reserved": 0, "fusion_lat": 0.0, "rental_uris": {"android": "https://dc.lft.to/lastmile_qr_scan", "ios": "https://dc.lft.to/lastmile_qr_scan"}, "fusion_lon": 0.0, "name": "2e239000b4208ca1439e0ed10ca3ebd6", "lon": -77.02825766666666, "is_disabled": 0, "type": "electric_scooter"}, {"bike_id": "76dabe7a41ef7f5f365fcb4275885890", "lat": 38.89930733333333, "is_reserved": 0, "fusion_lat": 0.0, "rental_uris": {"android": "https://dc.lft.to/lastmile_qr_scan", "ios": "https://dc.lft.to/lastmile_qr_scan"}, "fusion_lon": 0.0, "name": "76dabe7a41ef7f5f365fcb4275885890", "lon": -77.03167383333333, "is_disabled": 0, "type": "electric_scooter"}, {"bike_id": "6d855204a9ee7fa8a47878bc9cd5b477", "lat": 38.939523, "is_reserved": 0, "fusion_lat": 0.0, "rental_uris": {"android": "https://dc.lft.to/lastmile_qr_scan", "ios": "https://dc.lft.to/lastmile_qr_scan"}, "fusion_lon": 0.0, "name": "6d855204a9ee7fa8a47878bc9cd5b477", "lon": -77.072424, "is_disabled": 0, "type": "electric_scooter"}, {"bike_id": "7d951db3234b73d7f079a6dd49fca4aa", "lat": 38.9247055, "is_reserved": 0, "fusion_lat": 0.0, "rental_uris": {"android": "https://dc.lft.to/lastmile_qr_scan", "ios": "https://dc.lft.to/lastmile_qr_scan"}, "fusion_lon": 0.0, "name": "7d951db3234b73d7f079a6dd49fca4aa", "lon": -77.03728816666667, "is_disabled": 0, "type": "electric_scooter"}, {"bike_id": "a5e55d9585cfb27c463705b915b427b5", "lat": 38.887455833333334, "is_reserved": 0, "fusion_lat": 0.0, "rental_uris": {"android": "https://dc.lft.to/lastmile_qr_scan", "ios": "https://dc.lft.to/lastmile_qr_scan"}, "fusion_lon": 0.0, "name": "a5e55d9585cfb27c463705b915b427b5", "lon": -77.01734416666666, "is_disabled": 0, "type": "electric_scooter"}, {"bike_id": "746dba4508e1b267f302a03ac0713ca9", "lat": 38.906147, "is_reserved": 0, "fusion_lat": 0.0, "rental_uris": {"android": "https://dc.lft.to/lastmile_qr_scan", "ios": "https://dc.lft.to/lastmile_qr_scan"}, "fusion_lon": 0.0, "name": "746dba4508e1b267f302a03ac0713ca9", "lon": -77.01285383333334, "is_disabled": 0, "type": "electric_scooter"}, {"bike_id": "4410945dc0be721307a75821bc2548be", "lat": 38.916744666666666, "is_reserved": 0, "fusion_lat": 0.0, "rental_uris": {"android": "https://dc.lft.to/lastmile_qr_scan", "ios": "https://dc.lft.to/lastmile_qr_scan"}, "fusion_lon": 0.0, "name": "4410945dc0be721307a75821bc2548be", "lon": -77.0229465, "is_disabled": 0, "type": "electric_scooter"}, {"bike_id": "e4580221f0efa13cd3e48f7803d01ac0", "lat": 38.915667666666664, "is_reserved": 0, "fusion_lat": 0.0, "rental_uris": {"android": "https://dc.lft.to/lastmile_qr_scan", "ios": "https://dc.lft.to/lastmile_qr_scan"}, "fusion_lon": 0.0, "name": "e4580221f0efa13cd3e48f7803d01ac0", "lon": -77.033934, "is_disabled": 0, "type": "electric_scooter"}, {"bike_id": "72e48e9204591f4bde21e931363af28c", "lat": 38.8996235, "is_reserved": 0, "fusion_lat": 0.0, "rental_uris": {"android": "https://dc.lft.to/lastmile_qr_scan", "ios": "https://dc.lft.to/lastmile_qr_scan"}, "fusion_lon": 0.0, "name": "72e48e9204591f4bde21e931363af28c", "lon": -77.00347016666667, "is_disabled": 0, "type": "electric_scooter"}, {"bike_id": "cd6d61231fefa379508658c152deff33", "lat": 38.901318, "is_reserved": 0, "fusion_lat": 0.0, "rental_uris": {"android": "https://dc.lft.to/lastmile_qr_scan", "ios": "https://dc.lft.to/lastmile_qr_scan"}, "fusion_lon": 0.0, "name": "cd6d61231fefa379508658c152deff33", "lon": -77.00088433333333, "is_disabled": 0, "type": "electric_scooter"}, {"bike_id": "3207b167755017a0e1fdbac8f3f49886", "lat": 38.899724, "is_reserved": 0, "fusion_lat": 0.0, "rental_uris": {"android": "https://dc.lft.to/lastmile_qr_scan", "ios": "https://dc.lft.to/lastmile_qr_scan"}, "fusion_lon": 0.0, "name": "3207b167755017a0e1fdbac8f3f49886", "lon": -77.03206, "is_disabled": 0, "type": "electric_scooter"}, {"bike_id": "6c235c810fbf9752c1567dc6d8da7b82", "lat": 38.89741683333333, "is_reserved": 0, "fusion_lat": 0.0, "rental_uris": {"android": "https://dc.lft.to/lastmile_qr_scan", "ios": "https://dc.lft.to/lastmile_qr_scan"}, "fusion_lon": 0.0, "name": "6c235c810fbf9752c1567dc6d8da7b82", "lon": -76.92047166666667, "is_disabled": 0, "type": "electric_bike"}, {"bike_id": "c4f87c6db705aa0784cb0e2d24321712", "lat": 38.917189666666665, "is_reserved": 0, "fusion_lat": 0.0, "rental_uris": {"android": "https://dc.lft.to/lastmile_qr_scan", "ios": "https://dc.lft.to/lastmile_qr_scan"}, "fusion_lon": 0.0, "name": "c4f87c6db705aa0784cb0e2d24321712", "lon": -77.0317875, "is_disabled": 0, "type": "electric_scooter"}, {"bike_id": "24bef9ede2855f6493679446a0fd6060", "lat": 38.916922666666665, "is_reserved": 0, "fusion_lat": 0.0, "rental_uris": {"android": "https://dc.lft.to/lastmile_qr_scan", "ios": "https://dc.lft.to/lastmile_qr_scan"}, "fusion_lon": 0.0, "name": "24bef9ede2855f6493679446a0fd6060", "lon": -77.0288995, "is_disabled": 0, "type": "electric_scooter"}, {"bike_id": "35f09e9d740574d5ee2becaa872d32e1", "lat": 38.902698, "is_reserved": 0, "fusion_lat": 0.0, "rental_uris": {"android": "https://dc.lft.to/lastmile_qr_scan", "ios": "https://dc.lft.to/lastmile_qr_scan"}, "fusion_lon": 0.0, "name": "35f09e9d740574d5ee2becaa872d32e1", "lon": -77.0543845, "is_disabled": 0, "type": "electric_scooter"}, {"bike_id": "eda7f621fab8ce6d095d7ccfc83bf3ad", "lat": 38.887117833333335, "is_reserved": 0, "fusion_lat": 0.0, "rental_uris": {"android": "https://dc.lft.to/lastmile_qr_scan", "ios": "https://dc.lft.to/lastmile_qr_scan"}, "fusion_lon": 0.0, "name": "eda7f621fab8ce6d095d7ccfc83bf3ad", "lon": -77.01777266666667, "is_disabled": 0, "type": "electric_scooter"}, {"bike_id": "85cd9a56bcc431c7d68b809ec8ef54c1", "lat": 38.9182165, "is_reserved": 0, "fusion_lat": 0.0, "rental_uris": {"android": "https://dc.lft.to/lastmile_qr_scan", "ios": "https://dc.lft.to/lastmile_qr_scan"}, "fusion_lon": 0.0, "name": "85cd9a56bcc431c7d68b809ec8ef54c1", "lon": -77.04944533333334, "is_disabled": 0, "type": "electric_scooter"}, {"bike_id": "34e8316fe4497cbc2cd6f8103db81eea", "lat": 38.90282083333334, "is_reserved": 0, "fusion_lat": 0.0, "rental_uris": {"android": "https://dc.lft.to/lastmile_qr_scan", "ios": "https://dc.lft.to/lastmile_qr_scan"}, "fusion_lon": 0.0, "name": "34e8316fe4497cbc2cd6f8103db81eea", "lon": -77.03328383333333, "is_disabled": 0, "type": "electric_scooter"}, {"bike_id": "d474342113af4c86a0b8823bb504558f", "lat": 38.87469016666667, "is_reserved": 0, "fusion_lat": 0.0, "rental_uris": {"android": "https://dc.lft.to/lastmile_qr_scan", "ios": "https://dc.lft.to/lastmile_qr_scan"}, "fusion_lon": 0.0, "name": "d474342113af4c86a0b8823bb504558f", "lon": -77.00560083333333, "is_disabled": 0, "type": "electric_scooter"}, {"bike_id": "e0deed91451e870e1a8fd9aa24838e82", "lat": 38.9226415, "is_reserved": 0, "fusion_lat": 0.0, "rental_uris": {"android": "https://dc.lft.to/lastmile_qr_scan", "ios": "https://dc.lft.to/lastmile_qr_scan"}, "fusion_lon": 0.0, "name": "e0deed91451e870e1a8fd9aa24838e82", "lon": -77.018513, "is_disabled": 0, "type": "electric_scooter"}, {"bike_id": "91b8fc41522c502314f4c2fb6f2920a2", "lat": 38.8974535, "is_reserved": 0, "fusion_lat": 0.0, "rental_uris": {"android": "https://dc.lft.to/lastmile_qr_scan", "ios": "https://dc.lft.to/lastmile_qr_scan"}, "fusion_lon": 0.0, "name": "91b8fc41522c502314f4c2fb6f2920a2", "lon": -77.02565433333334, "is_disabled": 0, "type": "electric_scooter"}, {"bike_id": "76b6977fb2da1aebf773d62edeb88445", "lat": 38.90384316666667, "is_reserved": 0, "fusion_lat": 0.0, "rental_uris": {"android": "https://dc.lft.to/lastmile_qr_scan", "ios": "https://dc.lft.to/lastmile_qr_scan"}, "fusion_lon": 0.0, "name": "76b6977fb2da1aebf773d62edeb88445", "lon": -77.03638783333334, "is_disabled": 0, "type": "electric_scooter"}, {"bike_id": "4fc0d970f5270edc9537405c5ab07f07", "lat": 38.884917, "is_reserved": 0, "fusion_lat": 0.0, "rental_uris": {"android": "https://dc.lft.to/lastmile_qr_scan", "ios": "https://dc.lft.to/lastmile_qr_scan"}, "fusion_lon": 0.0, "name": "4fc0d970f5270edc9537405c5ab07f07", "lon": -77.02537716666667, "is_disabled": 0, "type": "electric_scooter"}, {"bike_id": "e8aab2e9000013b6c4732fb09908da37", "lat": 38.9069645, "is_reserved": 0, "fusion_lat": 0.0, "rental_uris": {"android": "https://dc.lft.to/lastmile_qr_scan", "ios": "https://dc.lft.to/lastmile_qr_scan"}, "fusion_lon": 0.0, "name": "e8aab2e9000013b6c4732fb09908da37", "lon": -77.0004445, "is_disabled": 0, "type": "electric_scooter"}, {"bike_id": "43c68b996379a9c951bc3e2193c11da1", "lat": 38.93426816666667, "is_reserved": 0, "fusion_lat": 0.0, "rental_uris": {"android": "https://dc.lft.to/lastmile_qr_scan", "ios": "https://dc.lft.to/lastmile_qr_scan"}, "fusion_lon": 0.0, "name": "43c68b996379a9c951bc3e2193c11da1", "lon": -77.0284125, "is_disabled": 0, "type": "electric_scooter"}, {"bike_id": "d24dd06b4748da2d8a7711fd8d660146", "lat": 38.91913133333333, "is_reserved": 0, "fusion_lat": 0.0, "rental_uris": {"android": "https://dc.lft.to/lastmile_qr_scan", "ios": "https://dc.lft.to/lastmile_qr_scan"}, "fusion_lon": 0.0, "name": "d24dd06b4748da2d8a7711fd8d660146", "lon": -77.01349716666667, "is_disabled": 0, "type": "electric_scooter"}, {"bike_id": "779b8a4028fbf0afeb916fc21672cb73", "lat": 38.9206155, "is_reserved": 0, "fusion_lat": 0.0, "rental_uris": {"android": "https://dc.lft.to/lastmile_qr_scan", "ios": "https://dc.lft.to/lastmile_qr_scan"}, "fusion_lon": 0.0, "name": "779b8a4028fbf0afeb916fc21672cb73", "lon": -77.04231616666667, "is_disabled": 0, "type": "electric_scooter"}, {"bike_id": "ccadc26b11f608057564278c6eb6e844", "lat": 38.9287175, "is_reserved": 0, "fusion_lat": 0.0, "rental_uris": {"android": "https://dc.lft.to/lastmile_qr_scan", "ios": "https://dc.lft.to/lastmile_qr_scan"}, "fusion_lon": 0.0, "name": "ccadc26b11f608057564278c6eb6e844", "lon": -77.034114, "is_disabled": 0, "type": "electric_scooter"}, {"bike_id": "6cc4aab2824eaf3634d38b50ed8950ef", "lat": 38.9274975, "is_reserved": 0, "fusion_lat": 0.0, "rental_uris": {"android": "https://dc.lft.to/lastmile_qr_scan", "ios": "https://dc.lft.to/lastmile_qr_scan"}, "fusion_lon": 0.0, "name": "6cc4aab2824eaf3634d38b50ed8950ef", "lon": -77.02385333333334, "is_disabled": 0, "type": "electric_scooter"}, {"bike_id": "887d95b0daac6f734dc1d28122bf6d19", "lat": 38.915347833333335, "is_reserved": 0, "fusion_lat": 0.0, "rental_uris": {"android": "https://dc.lft.to/lastmile_qr_scan", "ios": "https://dc.lft.to/lastmile_qr_scan"}, "fusion_lon": 0.0, "name": "887d95b0daac6f734dc1d28122bf6d19", "lon": -76.98347316666667, "is_disabled": 0, "type": "electric_scooter"}, {"bike_id": "9f2d6d604be4d3a73655126ee1457a82", "lat": 38.9184325, "is_reserved": 0, "fusion_lat": 0.0, "rental_uris": {"android": "https://dc.lft.to/lastmile_qr_scan", "ios": "https://dc.lft.to/lastmile_qr_scan"}, "fusion_lon": 0.0, "name": "9f2d6d604be4d3a73655126ee1457a82", "lon": -77.04834816666667, "is_disabled": 0, "type": "electric_scooter"}, {"bike_id": "fe206798ab4a5610ea836ad89a323037", "lat": 38.90193266666667, "is_reserved": 0, "fusion_lat": 0.0, "rental_uris": {"android": "https://dc.lft.to/lastmile_qr_scan", "ios": "https://dc.lft.to/lastmile_qr_scan"}, "fusion_lon": 0.0, "name": "fe206798ab4a5610ea836ad89a323037", "lon": -76.97882883333334, "is_disabled": 0, "type": "electric_scooter"}, {"bike_id": "c1b29c98bf7f314b3f25556763c2d995", "lat": 38.9139705, "is_reserved": 0, "fusion_lat": 0.0, "rental_uris": {"android": "https://dc.lft.to/lastmile_qr_scan", "ios": "https://dc.lft.to/lastmile_qr_scan"}, "fusion_lon": 0.0, "name": "c1b29c98bf7f314b3f25556763c2d995", "lon": -77.01797666666667, "is_disabled": 0, "type": "electric_scooter"}, {"bike_id": "5e4850acf804c22938ca07234d4b2542", "lat": 38.91637716666666, "is_reserved": 0, "fusion_lat": 0.0, "rental_uris": {"android": "https://dc.lft.to/lastmile_qr_scan", "ios": "https://dc.lft.to/lastmile_qr_scan"}, "fusion_lon": 0.0, "name": "5e4850acf804c22938ca07234d4b2542", "lon": -77.02585866666666, "is_disabled": 0, "type": "electric_scooter"}, {"bike_id": "cab1e842dcb4490b2f3e6c5a24420b13", "lat": 38.920368333333336, "is_reserved": 0, "fusion_lat": 0.0, "rental_uris": {"android": "https://dc.lft.to/lastmile_qr_scan", "ios": "https://dc.lft.to/lastmile_qr_scan"}, "fusion_lon": 0.0, "name": "cab1e842dcb4490b2f3e6c5a24420b13", "lon": -77.08196766666667, "is_disabled": 0, "type": "electric_scooter"}, {"bike_id": "e75f6fe5cfe1a496d84506706af6e2e9", "lat": 38.9204835, "is_reserved": 0, "fusion_lat": 0.0, "rental_uris": {"android": "https://dc.lft.to/lastmile_qr_scan", "ios": "https://dc.lft.to/lastmile_qr_scan"}, "fusion_lon": 0.0, "name": "e75f6fe5cfe1a496d84506706af6e2e9", "lon": -77.04183466666667, "is_disabled": 0, "type": "electric_scooter"}, {"bike_id": "9370a97ec9afef4885f2a9df0a2b44ec", "lat": 38.895483666666664, "is_reserved": 0, "fusion_lat": 0.0, "rental_uris": {"android": "https://dc.lft.to/lastmile_qr_scan", "ios": "https://dc.lft.to/lastmile_qr_scan"}, "fusion_lon": 0.0, "name": "9370a97ec9afef4885f2a9df0a2b44ec", "lon": -77.0039225, "is_disabled": 0, "type": "electric_scooter"}, {"bike_id": "f6a6542c1fc28fb6a6900da34d6162ee", "lat": 38.922005, "is_reserved": 0, "fusion_lat": 0.0, "rental_uris": {"android": "https://dc.lft.to/lastmile_qr_scan", "ios": "https://dc.lft.to/lastmile_qr_scan"}, "fusion_lon": 0.0, "name": "f6a6542c1fc28fb6a6900da34d6162ee", "lon": -77.0184395, "is_disabled": 0, "type": "electric_scooter"}, {"bike_id": "32a74f6ba48530e56b86d5d7e792ffc8", "lat": 38.91817616666667, "is_reserved": 0, "fusion_lat": 0.0, "rental_uris": {"android": "https://dc.lft.to/lastmile_qr_scan", "ios": "https://dc.lft.to/lastmile_qr_scan"}, "fusion_lon": 0.0, "name": "32a74f6ba48530e56b86d5d7e792ffc8", "lon": -77.03251116666667, "is_disabled": 0, "type": "electric_scooter"}, {"bike_id": "99aa904ae36fe6edaaf618e2d9198ed8", "lat": 38.92228516666667, "is_reserved": 0, "fusion_lat": 0.0, "rental_uris": {"android": "https://dc.lft.to/lastmile_qr_scan", "ios": "https://dc.lft.to/lastmile_qr_scan"}, "fusion_lon": 0.0, "name": "99aa904ae36fe6edaaf618e2d9198ed8", "lon": -77.021855, "is_disabled": 0, "type": "electric_scooter"}, {"bike_id": "bbb53f161efd404a4c65d02eb7c0a3ce", "lat": 38.91806916666667, "is_reserved": 0, "fusion_lat": 0.0, "rental_uris": {"android": "https://dc.lft.to/lastmile_qr_scan", "ios": "https://dc.lft.to/lastmile_qr_scan"}, "fusion_lon": 0.0, "name": "bbb53f161efd404a4c65d02eb7c0a3ce", "lon": -77.03441666666667, "is_disabled": 0, "type": "electric_scooter"}, {"bike_id": "d993e36968bacc6fa2fd88cd1dfb239f", "lat": 38.908322166666665, "is_reserved": 0, "fusion_lat": 0.0, "rental_uris": {"android": "https://dc.lft.to/lastmile_qr_scan", "ios": "https://dc.lft.to/lastmile_qr_scan"}, "fusion_lon": 0.0, "name": "d993e36968bacc6fa2fd88cd1dfb239f", "lon": -77.032041, "is_disabled": 0, "type": "electric_scooter"}, {"bike_id": "de92bd4460ce4ff61e186e9d92b7fec1", "lat": 38.895089, "is_reserved": 0, "fusion_lat": 0.0, "rental_uris": {"android": "https://dc.lft.to/lastmile_qr_scan", "ios": "https://dc.lft.to/lastmile_qr_scan"}, "fusion_lon": 0.0, "name": "de92bd4460ce4ff61e186e9d92b7fec1", "lon": -77.02308133333334, "is_disabled": 0, "type": "electric_scooter"}, {"bike_id": "302ce6ff08c58ad5bc683bf0bc8a9fa0", "lat": 38.915312666666665, "is_reserved": 0, "fusion_lat": 0.0, "rental_uris": {"android": "https://dc.lft.to/lastmile_qr_scan", "ios": "https://dc.lft.to/lastmile_qr_scan"}, "fusion_lon": 0.0, "name": "302ce6ff08c58ad5bc683bf0bc8a9fa0", "lon": -76.98374066666666, "is_disabled": 0, "type": "electric_scooter"}, {"bike_id": "2e7a25f9f8bef29b851a2f33347db796", "lat": 38.91855616666667, "is_reserved": 0, "fusion_lat": 0.0, "rental_uris": {"android": "https://dc.lft.to/lastmile_qr_scan", "ios": "https://dc.lft.to/lastmile_qr_scan"}, "fusion_lon": 0.0, "name": "2e7a25f9f8bef29b851a2f33347db796", "lon": -76.96115933333333, "is_disabled": 0, "type": "electric_scooter"}, {"bike_id": "e769c4d23878e200e135fe6fcefdf345", "lat": 38.912563666666664, "is_reserved": 0, "fusion_lat": 0.0, "rental_uris": {"android": "https://dc.lft.to/lastmile_qr_scan", "ios": "https://dc.lft.to/lastmile_qr_scan"}, "fusion_lon": 0.0, "name": "e769c4d23878e200e135fe6fcefdf345", "lon": -77.03861016666667, "is_disabled": 0, "type": "electric_scooter"}, {"bike_id": "92748bea3c90b0b22c39eceda555c9be", "lat": 38.9019, "is_reserved": 0, "fusion_lat": 0.0, "rental_uris": {"android": "https://dc.lft.to/lastmile_qr_scan", "ios": "https://dc.lft.to/lastmile_qr_scan"}, "fusion_lon": 0.0, "name": "92748bea3c90b0b22c39eceda555c9be", "lon": -77.05042933333333, "is_disabled": 0, "type": "electric_scooter"}, {"bike_id": "d1efa647297844d9247dd6409c083369", "lat": 38.918124, "is_reserved": 0, "fusion_lat": 0.0, "rental_uris": {"android": "https://dc.lft.to/lastmile_qr_scan", "ios": "https://dc.lft.to/lastmile_qr_scan"}, "fusion_lon": 0.0, "name": "d1efa647297844d9247dd6409c083369", "lon": -77.024815, "is_disabled": 0, "type": "electric_scooter"}, {"bike_id": "cd6175331114153dc0f4d71fce377d55", "lat": 38.89608466666667, "is_reserved": 0, "fusion_lat": 0.0, "rental_uris": {"android": "https://dc.lft.to/lastmile_qr_scan", "ios": "https://dc.lft.to/lastmile_qr_scan"}, "fusion_lon": 0.0, "name": "cd6175331114153dc0f4d71fce377d55", "lon": -77.05038333333333, "is_disabled": 0, "type": "electric_scooter"}, {"bike_id": "53f6bf3f544aff5c324ad49a6a6e8563", "lat": 38.894851333333335, "is_reserved": 0, "fusion_lat": 0.0, "rental_uris": {"android": "https://dc.lft.to/lastmile_qr_scan", "ios": "https://dc.lft.to/lastmile_qr_scan"}, "fusion_lon": 0.0, "name": "53f6bf3f544aff5c324ad49a6a6e8563", "lon": -76.9495415, "is_disabled": 0, "type": "electric_scooter"}, {"bike_id": "0c313c11f3506db25644f2ee7191436a", "lat": 38.919578, "is_reserved": 0, "fusion_lat": 0.0, "rental_uris": {"android": "https://dc.lft.to/lastmile_qr_scan", "ios": "https://dc.lft.to/lastmile_qr_scan"}, "fusion_lon": 0.0, "name": "0c313c11f3506db25644f2ee7191436a", "lon": -77.02333016666667, "is_disabled": 0, "type": "electric_scooter"}, {"bike_id": "fc800f226e92ddfff8399132e11d6f2d", "lat": 38.908119166666665, "is_reserved": 0, "fusion_lat": 0.0, "rental_uris": {"android": "https://dc.lft.to/lastmile_qr_scan", "ios": "https://dc.lft.to/lastmile_qr_scan"}, "fusion_lon": 0.0, "name": "fc800f226e92ddfff8399132e11d6f2d", "lon": -76.98572, "is_disabled": 0, "type": "electric_scooter"}, {"bike_id": "91077a68f8e55de5f27e9fe4eec1ec24", "lat": 38.87111483333333, "is_reserved": 0, "fusion_lat": 0.0, "rental_uris": {"android": "https://dc.lft.to/lastmile_qr_scan", "ios": "https://dc.lft.to/lastmile_qr_scan"}, "fusion_lon": 0.0, "name": "91077a68f8e55de5f27e9fe4eec1ec24", "lon": -76.982397, "is_disabled": 0, "type": "electric_scooter"}, {"bike_id": "4e0ea6b437eea0fdcec3b5c45978522e", "lat": 38.91110333333334, "is_reserved": 0, "fusion_lat": 0.0, "rental_uris": {"android": "https://dc.lft.to/lastmile_qr_scan", "ios": "https://dc.lft.to/lastmile_qr_scan"}, "fusion_lon": 0.0, "name": "4e0ea6b437eea0fdcec3b5c45978522e", "lon": -77.04364666666666, "is_disabled": 0, "type": "electric_scooter"}, {"bike_id": "4177706a0d2d7ef89cbc8fd7afc0c61e", "lat": 38.89529483333333, "is_reserved": 0, "fusion_lat": 0.0, "rental_uris": {"android": "https://dc.lft.to/lastmile_qr_scan", "ios": "https://dc.lft.to/lastmile_qr_scan"}, "fusion_lon": 0.0, "name": "4177706a0d2d7ef89cbc8fd7afc0c61e", "lon": -77.0034455, "is_disabled": 0, "type": "electric_scooter"}, {"bike_id": "3652104d97963b7aad940f1961552aea", "lat": 38.90375616666667, "is_reserved": 0, "fusion_lat": 0.0, "rental_uris": {"android": "https://dc.lft.to/lastmile_qr_scan", "ios": "https://dc.lft.to/lastmile_qr_scan"}, "fusion_lon": 0.0, "name": "3652104d97963b7aad940f1961552aea", "lon": -77.01786266666667, "is_disabled": 0, "type": "electric_scooter"}, {"bike_id": "b2bb32f8497a747ba2d1a39ffc9eea04", "lat": 38.819849166666664, "is_reserved": 0, "fusion_lat": 0.0, "rental_uris": {"android": "https://dc.lft.to/lastmile_qr_scan", "ios": "https://dc.lft.to/lastmile_qr_scan"}, "fusion_lon": 0.0, "name": "b2bb32f8497a747ba2d1a39ffc9eea04", "lon": -76.99817316666666, "is_disabled": 0, "type": "electric_bike"}, {"bike_id": "98a11e8347695d93384a6ef61b7e0b22", "lat": 38.9058255, "is_reserved": 0, "fusion_lat": 0.0, "rental_uris": {"android": "https://dc.lft.to/lastmile_qr_scan", "ios": "https://dc.lft.to/lastmile_qr_scan"}, "fusion_lon": 0.0, "name": "98a11e8347695d93384a6ef61b7e0b22", "lon": -77.02210983333333, "is_disabled": 0, "type": "electric_scooter"}, {"bike_id": "4f8a97fe7edb5c85b13b4be722485186", "lat": 38.905845166666666, "is_reserved": 0, "fusion_lat": 0.0, "rental_uris": {"android": "https://dc.lft.to/lastmile_qr_scan", "ios": "https://dc.lft.to/lastmile_qr_scan"}, "fusion_lon": 0.0, "name": "4f8a97fe7edb5c85b13b4be722485186", "lon": -77.06990333333333, "is_disabled": 0, "type": "electric_bike"}, {"bike_id": "911e11e4b1bff9b12d337c3002b872ae", "lat": 38.927067, "is_reserved": 0, "fusion_lat": 0.0, "rental_uris": {"android": "https://dc.lft.to/lastmile_qr_scan", "ios": "https://dc.lft.to/lastmile_qr_scan"}, "fusion_lon": 0.0, "name": "911e11e4b1bff9b12d337c3002b872ae", "lon": -77.0148915, "is_disabled": 0, "type": "electric_scooter"}, {"bike_id": "3b947457ed3fdebe253309b59cbe24c8", "lat": 38.91418733333333, "is_reserved": 0, "fusion_lat": 0.0, "rental_uris": {"android": "https://dc.lft.to/lastmile_qr_scan", "ios": "https://dc.lft.to/lastmile_qr_scan"}, "fusion_lon": 0.0, "name": "3b947457ed3fdebe253309b59cbe24c8", "lon": -77.0221015, "is_disabled": 0, "type": "electric_scooter"}, {"bike_id": "f4c92efebd0f77410a9433f6f8d9b092", "lat": 38.9110295, "is_reserved": 0, "fusion_lat": 0.0, "rental_uris": {"android": "https://dc.lft.to/lastmile_qr_scan", "ios": "https://dc.lft.to/lastmile_qr_scan"}, "fusion_lon": 0.0, "name": "f4c92efebd0f77410a9433f6f8d9b092", "lon": -77.04471083333334, "is_disabled": 0, "type": "electric_scooter"}, {"bike_id": "c819a6bc9e1b21af24178b6e152bd327", "lat": 38.85715116666667, "is_reserved": 0, "fusion_lat": 0.0, "rental_uris": {"android": "https://dc.lft.to/lastmile_qr_scan", "ios": "https://dc.lft.to/lastmile_qr_scan"}, "fusion_lon": 0.0, "name": "c819a6bc9e1b21af24178b6e152bd327", "lon": -76.98983433333333, "is_disabled": 0, "type": "electric_scooter"}, {"bike_id": "c93db9ee8ffd39c2eec407f1638bfd6a", "lat": 38.90442516666667, "is_reserved": 0, "fusion_lat": 0.0, "rental_uris": {"android": "https://dc.lft.to/lastmile_qr_scan", "ios": "https://dc.lft.to/lastmile_qr_scan"}, "fusion_lon": 0.0, "name": "c93db9ee8ffd39c2eec407f1638bfd6a", "lon": -76.98006083333334, "is_disabled": 0, "type": "electric_scooter"}, {"bike_id": "047a4282e063d0cbe16ea7c5de81f484", "lat": 38.911064, "is_reserved": 0, "fusion_lat": 0.0, "rental_uris": {"android": "https://dc.lft.to/lastmile_qr_scan", "ios": "https://dc.lft.to/lastmile_qr_scan"}, "fusion_lon": 0.0, "name": "047a4282e063d0cbe16ea7c5de81f484", "lon": -77.02234683333333, "is_disabled": 0, "type": "electric_scooter"}, {"bike_id": "ff512ecd752caa6eaef96ad5bd56509e", "lat": 38.9185995, "is_reserved": 0, "fusion_lat": 0.0, "rental_uris": {"android": "https://dc.lft.to/lastmile_qr_scan", "ios": "https://dc.lft.to/lastmile_qr_scan"}, "fusion_lon": 0.0, "name": "ff512ecd752caa6eaef96ad5bd56509e", "lon": -77.04474866666666, "is_disabled": 0, "type": "electric_scooter"}, {"bike_id": "e74a48aa9aef5af62ee801e349d88bf6", "lat": 38.892292166666664, "is_reserved": 0, "fusion_lat": 0.0, "rental_uris": {"android": "https://dc.lft.to/lastmile_qr_scan", "ios": "https://dc.lft.to/lastmile_qr_scan"}, "fusion_lon": 0.0, "name": "e74a48aa9aef5af62ee801e349d88bf6", "lon": -77.01491416666667, "is_disabled": 0, "type": "electric_scooter"}, {"bike_id": "e74de4a04718326885b4842ef9c68874", "lat": 38.925046, "is_reserved": 0, "fusion_lat": 0.0, "rental_uris": {"android": "https://dc.lft.to/lastmile_qr_scan", "ios": "https://dc.lft.to/lastmile_qr_scan"}, "fusion_lon": 0.0, "name": "e74de4a04718326885b4842ef9c68874", "lon": -77.0378425, "is_disabled": 0, "type": "electric_scooter"}, {"bike_id": "742678fdd83a4375e6fe178784e947d1", "lat": 38.93429483333333, "is_reserved": 0, "fusion_lat": 0.0, "rental_uris": {"android": "https://dc.lft.to/lastmile_qr_scan", "ios": "https://dc.lft.to/lastmile_qr_scan"}, "fusion_lon": 0.0, "name": "742678fdd83a4375e6fe178784e947d1", "lon": -77.04002783333334, "is_disabled": 0, "type": "electric_scooter"}, {"bike_id": "bfa875a97169254cac301658fa1575f5", "lat": 38.916687833333334, "is_reserved": 0, "fusion_lat": 0.0, "rental_uris": {"android": "https://dc.lft.to/lastmile_qr_scan", "ios": "https://dc.lft.to/lastmile_qr_scan"}, "fusion_lon": 0.0, "name": "bfa875a97169254cac301658fa1575f5", "lon": -76.98178783333333, "is_disabled": 0, "type": "electric_scooter"}, {"bike_id": "fd3174977df8a4d15137fe1aadb147c8", "lat": 38.92150733333333, "is_reserved": 0, "fusion_lat": 0.0, "rental_uris": {"android": "https://dc.lft.to/lastmile_qr_scan", "ios": "https://dc.lft.to/lastmile_qr_scan"}, "fusion_lon": 0.0, "name": "fd3174977df8a4d15137fe1aadb147c8", "lon": -77.03864733333333, "is_disabled": 0, "type": "electric_scooter"}, {"bike_id": "8382dd80afd3f617e6539c7c2cf0480f", "lat": 38.897203166666664, "is_reserved": 0, "fusion_lat": 0.0, "rental_uris": {"android": "https://dc.lft.to/lastmile_qr_scan", "ios": "https://dc.lft.to/lastmile_qr_scan"}, "fusion_lon": 0.0, "name": "8382dd80afd3f617e6539c7c2cf0480f", "lon": -77.0239545, "is_disabled": 0, "type": "electric_scooter"}, {"bike_id": "c7eb4e27c390a13c5702765683f12e71", "lat": 38.899684, "is_reserved": 0, "fusion_lat": 0.0, "rental_uris": {"android": "https://dc.lft.to/lastmile_qr_scan", "ios": "https://dc.lft.to/lastmile_qr_scan"}, "fusion_lon": 0.0, "name": "c7eb4e27c390a13c5702765683f12e71", "lon": -77.02179933333333, "is_disabled": 0, "type": "electric_scooter"}, {"bike_id": "7d25c5c439b3d57468e02cbed75d2bc7", "lat": 38.9284695, "is_reserved": 0, "fusion_lat": 0.0, "rental_uris": {"android": "https://dc.lft.to/lastmile_qr_scan", "ios": "https://dc.lft.to/lastmile_qr_scan"}, "fusion_lon": 0.0, "name": "7d25c5c439b3d57468e02cbed75d2bc7", "lon": -77.0325505, "is_disabled": 0, "type": "electric_scooter"}, {"bike_id": "947e90b33910120f8f233b48cb997d55", "lat": 38.90998733333333, "is_reserved": 0, "fusion_lat": 0.0, "rental_uris": {"android": "https://dc.lft.to/lastmile_qr_scan", "ios": "https://dc.lft.to/lastmile_qr_scan"}, "fusion_lon": 0.0, "name": "947e90b33910120f8f233b48cb997d55", "lon": -77.04011016666666, "is_disabled": 0, "type": "electric_scooter"}, {"bike_id": "b013d305992eed4008019d4e8bc7fb4b", "lat": 38.899134833333335, "is_reserved": 0, "fusion_lat": 0.0, "rental_uris": {"android": "https://dc.lft.to/lastmile_qr_scan", "ios": "https://dc.lft.to/lastmile_qr_scan"}, "fusion_lon": 0.0, "name": "b013d305992eed4008019d4e8bc7fb4b", "lon": -76.933689, "is_disabled": 0, "type": "electric_scooter"}, {"bike_id": "5e25467cc66e6eb5688ec48bcd90f93d", "lat": 38.916765, "is_reserved": 0, "fusion_lat": 0.0, "rental_uris": {"android": "https://dc.lft.to/lastmile_qr_scan", "ios": "https://dc.lft.to/lastmile_qr_scan"}, "fusion_lon": 0.0, "name": "5e25467cc66e6eb5688ec48bcd90f93d", "lon": -77.02319316666667, "is_disabled": 0, "type": "electric_scooter"}, {"bike_id": "a978aa149d1530c19a923f77b8c78373", "lat": 38.90812733333333, "is_reserved": 0, "fusion_lat": 0.0, "rental_uris": {"android": "https://dc.lft.to/lastmile_qr_scan", "ios": "https://dc.lft.to/lastmile_qr_scan"}, "fusion_lon": 0.0, "name": "a978aa149d1530c19a923f77b8c78373", "lon": -77.03446666666666, "is_disabled": 0, "type": "electric_scooter"}, {"bike_id": "4144a3dd6ad886d55fbe0da35c63e0dc", "lat": 38.915678166666666, "is_reserved": 0, "fusion_lat": 0.0, "rental_uris": {"android": "https://dc.lft.to/lastmile_qr_scan", "ios": "https://dc.lft.to/lastmile_qr_scan"}, "fusion_lon": 0.0, "name": "4144a3dd6ad886d55fbe0da35c63e0dc", "lon": -77.02009966666667, "is_disabled": 0, "type": "electric_scooter"}, {"bike_id": "059fb085da4100614fc99cc85c04384e", "lat": 38.895546833333334, "is_reserved": 0, "fusion_lat": 0.0, "rental_uris": {"android": "https://dc.lft.to/lastmile_qr_scan", "ios": "https://dc.lft.to/lastmile_qr_scan"}, "fusion_lon": 0.0, "name": "059fb085da4100614fc99cc85c04384e", "lon": -77.01098283333333, "is_disabled": 0, "type": "electric_scooter"}, {"bike_id": "dcce6c7bca2da86916a7556d5ca00702", "lat": 38.88745333333333, "is_reserved": 0, "fusion_lat": 0.0, "rental_uris": {"android": "https://dc.lft.to/lastmile_qr_scan", "ios": "https://dc.lft.to/lastmile_qr_scan"}, "fusion_lon": 0.0, "name": "dcce6c7bca2da86916a7556d5ca00702", "lon": -77.01730816666667, "is_disabled": 0, "type": "electric_scooter"}, {"bike_id": "f7ced5f2396a55670d2600afdc40eb1d", "lat": 38.9161565, "is_reserved": 0, "fusion_lat": 0.0, "rental_uris": {"android": "https://dc.lft.to/lastmile_qr_scan", "ios": "https://dc.lft.to/lastmile_qr_scan"}, "fusion_lon": 0.0, "name": "f7ced5f2396a55670d2600afdc40eb1d", "lon": -77.022992, "is_disabled": 0, "type": "electric_scooter"}, {"bike_id": "4f3302bdaf3c00538b886977909aa480", "lat": 38.90116116666667, "is_reserved": 0, "fusion_lat": 0.0, "rental_uris": {"android": "https://dc.lft.to/lastmile_qr_scan", "ios": "https://dc.lft.to/lastmile_qr_scan"}, "fusion_lon": 0.0, "name": "4f3302bdaf3c00538b886977909aa480", "lon": -77.04237533333334, "is_disabled": 0, "type": "electric_scooter"}, {"bike_id": "122d263b85a3fd26acf921345cd1f7a3", "lat": 38.90621733333333, "is_reserved": 0, "fusion_lat": 0.0, "rental_uris": {"android": "https://dc.lft.to/lastmile_qr_scan", "ios": "https://dc.lft.to/lastmile_qr_scan"}, "fusion_lon": 0.0, "name": "122d263b85a3fd26acf921345cd1f7a3", "lon": -77.04872316666666, "is_disabled": 0, "type": "electric_scooter"}, {"bike_id": "4f698f71339b94b6efe1c34658374fb9", "lat": 38.904249166666666, "is_reserved": 0, "fusion_lat": 0.0, "rental_uris": {"android": "https://dc.lft.to/lastmile_qr_scan", "ios": "https://dc.lft.to/lastmile_qr_scan"}, "fusion_lon": 0.0, "name": "4f698f71339b94b6efe1c34658374fb9", "lon": -76.97905933333334, "is_disabled": 0, "type": "electric_scooter"}, {"bike_id": "6febbfd4639ab1a2eeaec18cc6d8758b", "lat": 38.92869866666667, "is_reserved": 0, "fusion_lat": 0.0, "rental_uris": {"android": "https://dc.lft.to/lastmile_qr_scan", "ios": "https://dc.lft.to/lastmile_qr_scan"}, "fusion_lon": 0.0, "name": "6febbfd4639ab1a2eeaec18cc6d8758b", "lon": -77.03346516666667, "is_disabled": 0, "type": "electric_scooter"}, {"bike_id": "f5c7251e4c859c56add8a650c5eb6c86", "lat": 38.89949516666667, "is_reserved": 0, "fusion_lat": 0.0, "rental_uris": {"android": "https://dc.lft.to/lastmile_qr_scan", "ios": "https://dc.lft.to/lastmile_qr_scan"}, "fusion_lon": 0.0, "name": "f5c7251e4c859c56add8a650c5eb6c86", "lon": -77.071788, "is_disabled": 0, "type": "electric_scooter"}, {"bike_id": "4cb69fbaec011809bfd50e9a6f4f6c88", "lat": 38.9076165, "is_reserved": 0, "fusion_lat": 0.0, "rental_uris": {"android": "https://dc.lft.to/lastmile_qr_scan", "ios": "https://dc.lft.to/lastmile_qr_scan"}, "fusion_lon": 0.0, "name": "4cb69fbaec011809bfd50e9a6f4f6c88", "lon": -77.01695383333333, "is_disabled": 0, "type": "electric_scooter"}, {"bike_id": "20acb008cb231320a3638e885c7d0bbc", "lat": 38.87482583333333, "is_reserved": 0, "fusion_lat": 0.0, "rental_uris": {"android": "https://dc.lft.to/lastmile_qr_scan", "ios": "https://dc.lft.to/lastmile_qr_scan"}, "fusion_lon": 0.0, "name": "20acb008cb231320a3638e885c7d0bbc", "lon": -76.96530566666667, "is_disabled": 0, "type": "electric_bike"}, {"bike_id": "387c1473a7a6e228a4d40bd457a50dda", "lat": 38.93212716666667, "is_reserved": 0, "fusion_lat": 0.0, "rental_uris": {"android": "https://dc.lft.to/lastmile_qr_scan", "ios": "https://dc.lft.to/lastmile_qr_scan"}, "fusion_lon": 0.0, "name": "387c1473a7a6e228a4d40bd457a50dda", "lon": -77.032675, "is_disabled": 0, "type": "electric_scooter"}, {"bike_id": "4546ec088ce013c0221cb089838aed8f", "lat": 38.89528083333333, "is_reserved": 0, "fusion_lat": 0.0, "rental_uris": {"android": "https://dc.lft.to/lastmile_qr_scan", "ios": "https://dc.lft.to/lastmile_qr_scan"}, "fusion_lon": 0.0, "name": "4546ec088ce013c0221cb089838aed8f", "lon": -77.03350933333333, "is_disabled": 0, "type": "electric_scooter"}, {"bike_id": "f7230b136e4879c84f72f7ae40555e4d", "lat": 38.898642, "is_reserved": 0, "fusion_lat": 0.0, "rental_uris": {"android": "https://dc.lft.to/lastmile_qr_scan", "ios": "https://dc.lft.to/lastmile_qr_scan"}, "fusion_lon": 0.0, "name": "f7230b136e4879c84f72f7ae40555e4d", "lon": -76.94641, "is_disabled": 0, "type": "electric_scooter"}, {"bike_id": "6e49b8cbf04816b17b17e61c66e59ffb", "lat": 38.952861166666665, "is_reserved": 0, "fusion_lat": 0.0, "rental_uris": {"android": "https://dc.lft.to/lastmile_qr_scan", "ios": "https://dc.lft.to/lastmile_qr_scan"}, "fusion_lon": 0.0, "name": "6e49b8cbf04816b17b17e61c66e59ffb", "lon": -77.01797783333333, "is_disabled": 0, "type": "electric_scooter"}, {"bike_id": "4596e86a501c8fed5cf639be691d4a8b", "lat": 38.919141, "is_reserved": 0, "fusion_lat": 0.0, "rental_uris": {"android": "https://dc.lft.to/lastmile_qr_scan", "ios": "https://dc.lft.to/lastmile_qr_scan"}, "fusion_lon": 0.0, "name": "4596e86a501c8fed5cf639be691d4a8b", "lon": -77.03339266666667, "is_disabled": 0, "type": "electric_scooter"}, {"bike_id": "0d265e5df3e3195fcd2b58a8ae8300ac", "lat": 38.89478, "is_reserved": 0, "fusion_lat": 0.0, "rental_uris": {"android": "https://dc.lft.to/lastmile_qr_scan", "ios": "https://dc.lft.to/lastmile_qr_scan"}, "fusion_lon": 0.0, "name": "0d265e5df3e3195fcd2b58a8ae8300ac", "lon": -76.94862016666667, "is_disabled": 0, "type": "electric_scooter"}, {"bike_id": "92918441c2208ca33816a9b73df6870c", "lat": 38.874864333333335, "is_reserved": 0, "fusion_lat": 0.0, "rental_uris": {"android": "https://dc.lft.to/lastmile_qr_scan", "ios": "https://dc.lft.to/lastmile_qr_scan"}, "fusion_lon": 0.0, "name": "92918441c2208ca33816a9b73df6870c", "lon": -76.99979883333333, "is_disabled": 0, "type": "electric_scooter"}, {"bike_id": "a0952fe0a145e15ecf7ecb40a5f94029", "lat": 38.919244666666664, "is_reserved": 0, "fusion_lat": 0.0, "rental_uris": {"android": "https://dc.lft.to/lastmile_qr_scan", "ios": "https://dc.lft.to/lastmile_qr_scan"}, "fusion_lon": 0.0, "name": "a0952fe0a145e15ecf7ecb40a5f94029", "lon": -77.00931, "is_disabled": 0, "type": "electric_scooter"}, {"bike_id": "3e0084dc63211f9d9cba3eaf18ee4764", "lat": 38.823699833333336, "is_reserved": 0, "fusion_lat": 0.0, "rental_uris": {"android": "https://dc.lft.to/lastmile_qr_scan", "ios": "https://dc.lft.to/lastmile_qr_scan"}, "fusion_lon": 0.0, "name": "3e0084dc63211f9d9cba3eaf18ee4764", "lon": -77.00223883333334, "is_disabled": 0, "type": "electric_bike"}, {"bike_id": "adb590bbddec76e52525b05399f156fa", "lat": 39.02293266666667, "is_reserved": 0, "fusion_lat": 0.0, "rental_uris": {"android": "https://dc.lft.to/lastmile_qr_scan", "ios": "https://dc.lft.to/lastmile_qr_scan"}, "fusion_lon": 0.0, "name": "adb590bbddec76e52525b05399f156fa", "lon": -77.0210635, "is_disabled": 0, "type": "electric_bike"}, {"bike_id": "46ac10a40091e306e2111b7cd21205d2", "lat": 38.859345166666664, "is_reserved": 0, "fusion_lat": 0.0, "rental_uris": {"android": "https://dc.lft.to/lastmile_qr_scan", "ios": "https://dc.lft.to/lastmile_qr_scan"}, "fusion_lon": 0.0, "name": "46ac10a40091e306e2111b7cd21205d2", "lon": -77.11831566666666, "is_disabled": 0, "type": "electric_bike"}, {"bike_id": "7d0ac8ace11a205ea6b1234cdb967eac", "lat": 38.907442, "is_reserved": 0, "fusion_lat": 0.0, "rental_uris": {"android": "https://dc.lft.to/lastmile_qr_scan", "ios": "https://dc.lft.to/lastmile_qr_scan"}, "fusion_lon": 0.0, "name": "7d0ac8ace11a205ea6b1234cdb967eac", "lon": -77.06903066666666, "is_disabled": 0, "type": "electric_scooter"}, {"bike_id": "91dbd7b578873472c28c94975444618b", "lat": 38.87453266666667, "is_reserved": 0, "fusion_lat": 0.0, "rental_uris": {"android": "https://dc.lft.to/lastmile_qr_scan", "ios": "https://dc.lft.to/lastmile_qr_scan"}, "fusion_lon": 0.0, "name": "91dbd7b578873472c28c94975444618b", "lon": -77.00051933333333, "is_disabled": 0, "type": "electric_scooter"}, {"bike_id": "b3ef0f85ee0f7eca15e33518e0bfc050", "lat": 38.92376, "is_reserved": 0, "fusion_lat": 0.0, "rental_uris": {"android": "https://dc.lft.to/lastmile_qr_scan", "ios": "https://dc.lft.to/lastmile_qr_scan"}, "fusion_lon": 0.0, "name": "b3ef0f85ee0f7eca15e33518e0bfc050", "lon": -77.05175983333334, "is_disabled": 0, "type": "electric_scooter"}, {"bike_id": "affea346393ac68f1eb90b7c41c4d86a", "lat": 38.90238466666667, "is_reserved": 0, "fusion_lat": 0.0, "rental_uris": {"android": "https://dc.lft.to/lastmile_qr_scan", "ios": "https://dc.lft.to/lastmile_qr_scan"}, "fusion_lon": 0.0, "name": "affea346393ac68f1eb90b7c41c4d86a", "lon": -77.0371525, "is_disabled": 0, "type": "electric_scooter"}, {"bike_id": "d88a9c9b56dc5e355177066b41d0a0b0", "lat": 38.9001215, "is_reserved": 0, "fusion_lat": 0.0, "rental_uris": {"android": "https://dc.lft.to/lastmile_qr_scan", "ios": "https://dc.lft.to/lastmile_qr_scan"}, "fusion_lon": 0.0, "name": "d88a9c9b56dc5e355177066b41d0a0b0", "lon": -77.0448705, "is_disabled": 0, "type": "electric_scooter"}, {"bike_id": "9aabacc90aef772cb31eb00ee9afef55", "lat": 38.88186133333333, "is_reserved": 0, "fusion_lat": 0.0, "rental_uris": {"android": "https://dc.lft.to/lastmile_qr_scan", "ios": "https://dc.lft.to/lastmile_qr_scan"}, "fusion_lon": 0.0, "name": "9aabacc90aef772cb31eb00ee9afef55", "lon": -77.02084116666667, "is_disabled": 0, "type": "electric_scooter"}, {"bike_id": "d349a7b2aeb6decc99dff20c4b16632b", "lat": 38.9231675, "is_reserved": 0, "fusion_lat": 0.0, "rental_uris": {"android": "https://dc.lft.to/lastmile_qr_scan", "ios": "https://dc.lft.to/lastmile_qr_scan"}, "fusion_lon": 0.0, "name": "d349a7b2aeb6decc99dff20c4b16632b", "lon": -77.044479, "is_disabled": 0, "type": "electric_scooter"}, {"bike_id": "854183406b5cf02c1a5e2893204750fc", "lat": 38.883408833333334, "is_reserved": 0, "fusion_lat": 0.0, "rental_uris": {"android": "https://dc.lft.to/lastmile_qr_scan", "ios": "https://dc.lft.to/lastmile_qr_scan"}, "fusion_lon": 0.0, "name": "854183406b5cf02c1a5e2893204750fc", "lon": -76.99481066666667, "is_disabled": 0, "type": "electric_scooter"}, {"bike_id": "8b1dbdfba335a85899069c833c4e0e31", "lat": 38.949980833333335, "is_reserved": 0, "fusion_lat": 0.0, "rental_uris": {"android": "https://dc.lft.to/lastmile_qr_scan", "ios": "https://dc.lft.to/lastmile_qr_scan"}, "fusion_lon": 0.0, "name": "8b1dbdfba335a85899069c833c4e0e31", "lon": -77.01830833333334, "is_disabled": 0, "type": "electric_scooter"}, {"bike_id": "9b956033bd130eaa0faac5ccb160e890", "lat": 38.886665, "is_reserved": 0, "fusion_lat": 0.0, "rental_uris": {"android": "https://dc.lft.to/lastmile_qr_scan", "ios": "https://dc.lft.to/lastmile_qr_scan"}, "fusion_lon": 0.0, "name": "9b956033bd130eaa0faac5ccb160e890", "lon": -77.16236166666667, "is_disabled": 0, "type": "electric_bike"}, {"bike_id": "019d9e564bb6fe42cb952d923fd300ce", "lat": 38.931975333333334, "is_reserved": 0, "fusion_lat": 0.0, "rental_uris": {"android": "https://dc.lft.to/lastmile_qr_scan", "ios": "https://dc.lft.to/lastmile_qr_scan"}, "fusion_lon": 0.0, "name": "019d9e564bb6fe42cb952d923fd300ce", "lon": -77.0239625, "is_disabled": 0, "type": "electric_scooter"}, {"bike_id": "4510458dfccde6732d923be00cad6e90", "lat": 38.9006365, "is_reserved": 0, "fusion_lat": 0.0, "rental_uris": {"android": "https://dc.lft.to/lastmile_qr_scan", "ios": "https://dc.lft.to/lastmile_qr_scan"}, "fusion_lon": 0.0, "name": "4510458dfccde6732d923be00cad6e90", "lon": -76.92744116666667, "is_disabled": 0, "type": "electric_scooter"}, {"bike_id": "94f1e19cbd0841a865b9226f94575d3d", "lat": 38.87622316666667, "is_reserved": 0, "fusion_lat": 0.0, "rental_uris": {"android": "https://dc.lft.to/lastmile_qr_scan", "ios": "https://dc.lft.to/lastmile_qr_scan"}, "fusion_lon": 0.0, "name": "94f1e19cbd0841a865b9226f94575d3d", "lon": -76.96532983333333, "is_disabled": 0, "type": "electric_scooter"}, {"bike_id": "d8095e447187b14fac54699b5148dba8", "lat": 38.909774, "is_reserved": 0, "fusion_lat": 0.0, "rental_uris": {"android": "https://dc.lft.to/lastmile_qr_scan", "ios": "https://dc.lft.to/lastmile_qr_scan"}, "fusion_lon": 0.0, "name": "d8095e447187b14fac54699b5148dba8", "lon": -76.99509066666667, "is_disabled": 0, "type": "electric_scooter"}, {"bike_id": "362edb611496db2c13d0f4c664fac67e", "lat": 38.92679283333333, "is_reserved": 0, "fusion_lat": 0.0, "rental_uris": {"android": "https://dc.lft.to/lastmile_qr_scan", "ios": "https://dc.lft.to/lastmile_qr_scan"}, "fusion_lon": 0.0, "name": "362edb611496db2c13d0f4c664fac67e", "lon": -77.01565216666667, "is_disabled": 0, "type": "electric_scooter"}, {"bike_id": "052f7b5aedaf4ad0574d8e52909b1d30", "lat": 38.87664783333334, "is_reserved": 0, "fusion_lat": 0.0, "rental_uris": {"android": "https://dc.lft.to/lastmile_qr_scan", "ios": "https://dc.lft.to/lastmile_qr_scan"}, "fusion_lon": 0.0, "name": "052f7b5aedaf4ad0574d8e52909b1d30", "lon": -77.00434516666667, "is_disabled": 0, "type": "electric_scooter"}, {"bike_id": "92faad82c73d0c0499bc89228eaf9f48", "lat": 38.90697016666667, "is_reserved": 0, "fusion_lat": 0.0, "rental_uris": {"android": "https://dc.lft.to/lastmile_qr_scan", "ios": "https://dc.lft.to/lastmile_qr_scan"}, "fusion_lon": 0.0, "name": "92faad82c73d0c0499bc89228eaf9f48", "lon": -77.0239375, "is_disabled": 0, "type": "electric_scooter"}, {"bike_id": "e7f94b3b552a1453970e5ed4c1240e64", "lat": 38.90614733333334, "is_reserved": 0, "fusion_lat": 0.0, "rental_uris": {"android": "https://dc.lft.to/lastmile_qr_scan", "ios": "https://dc.lft.to/lastmile_qr_scan"}, "fusion_lon": 0.0, "name": "e7f94b3b552a1453970e5ed4c1240e64", "lon": -77.07632833333334, "is_disabled": 0, "type": "electric_bike"}, {"bike_id": "d861949be181a22122ac3e1556e94b48", "lat": 38.89952383333333, "is_reserved": 0, "fusion_lat": 0.0, "rental_uris": {"android": "https://dc.lft.to/lastmile_qr_scan", "ios": "https://dc.lft.to/lastmile_qr_scan"}, "fusion_lon": 0.0, "name": "d861949be181a22122ac3e1556e94b48", "lon": -77.0477695, "is_disabled": 0, "type": "electric_scooter"}, {"bike_id": "0dcf9da89cce80c273c55f62beec6b04", "lat": 38.935784166666664, "is_reserved": 0, "fusion_lat": 0.0, "rental_uris": {"android": "https://dc.lft.to/lastmile_qr_scan", "ios": "https://dc.lft.to/lastmile_qr_scan"}, "fusion_lon": 0.0, "name": "0dcf9da89cce80c273c55f62beec6b04", "lon": -77.01975733333333, "is_disabled": 0, "type": "electric_scooter"}, {"bike_id": "5162e9812e04be090ee120574f193765", "lat": 38.8951045, "is_reserved": 0, "fusion_lat": 0.0, "rental_uris": {"android": "https://dc.lft.to/lastmile_qr_scan", "ios": "https://dc.lft.to/lastmile_qr_scan"}, "fusion_lon": 0.0, "name": "5162e9812e04be090ee120574f193765", "lon": -77.02305266666667, "is_disabled": 0, "type": "electric_scooter"}, {"bike_id": "01c08f32a1db9413c7a1830638de1497", "lat": 38.91399216666667, "is_reserved": 0, "fusion_lat": 0.0, "rental_uris": {"android": "https://dc.lft.to/lastmile_qr_scan", "ios": "https://dc.lft.to/lastmile_qr_scan"}, "fusion_lon": 0.0, "name": "01c08f32a1db9413c7a1830638de1497", "lon": -77.02410883333333, "is_disabled": 0, "type": "electric_scooter"}, {"bike_id": "74be581bfcaaab9d2ff39c4b6f423f10", "lat": 39.05279183333333, "is_reserved": 0, "fusion_lat": 0.0, "rental_uris": {"android": "https://dc.lft.to/lastmile_qr_scan", "ios": "https://dc.lft.to/lastmile_qr_scan"}, "fusion_lon": 0.0, "name": "74be581bfcaaab9d2ff39c4b6f423f10", "lon": -77.0806755, "is_disabled": 0, "type": "electric_bike"}, {"bike_id": "63abcc941b856d2d5adb1fccd2e459e0", "lat": 38.90508616666666, "is_reserved": 0, "fusion_lat": 0.0, "rental_uris": {"android": "https://dc.lft.to/lastmile_qr_scan", "ios": "https://dc.lft.to/lastmile_qr_scan"}, "fusion_lon": 0.0, "name": "63abcc941b856d2d5adb1fccd2e459e0", "lon": -77.06471316666666, "is_disabled": 0, "type": "electric_scooter"}, {"bike_id": "acd456452f7dea82bcb86033de888ee9", "lat": 38.91514, "is_reserved": 0, "fusion_lat": 0.0, "rental_uris": {"android": "https://dc.lft.to/lastmile_qr_scan", "ios": "https://dc.lft.to/lastmile_qr_scan"}, "fusion_lon": 0.0, "name": "acd456452f7dea82bcb86033de888ee9", "lon": -77.04494, "is_disabled": 0, "type": "electric_scooter"}, {"bike_id": "0053338ed1e5560b7acd39e9766bd334", "lat": 38.90780733333333, "is_reserved": 0, "fusion_lat": 0.0, "rental_uris": {"android": "https://dc.lft.to/lastmile_qr_scan", "ios": "https://dc.lft.to/lastmile_qr_scan"}, "fusion_lon": 0.0, "name": "0053338ed1e5560b7acd39e9766bd334", "lon": -77.04270766666667, "is_disabled": 0, "type": "electric_scooter"}, {"bike_id": "52b7c816747ae0f055ea8334952b6623", "lat": 38.93337916666667, "is_reserved": 0, "fusion_lat": 0.0, "rental_uris": {"android": "https://dc.lft.to/lastmile_qr_scan", "ios": "https://dc.lft.to/lastmile_qr_scan"}, "fusion_lon": 0.0, "name": "52b7c816747ae0f055ea8334952b6623", "lon": -77.0206455, "is_disabled": 0, "type": "electric_scooter"}, {"bike_id": "ddbd542674c2614be01912e432d4e229", "lat": 38.918240833333336, "is_reserved": 0, "fusion_lat": 0.0, "rental_uris": {"android": "https://dc.lft.to/lastmile_qr_scan", "ios": "https://dc.lft.to/lastmile_qr_scan"}, "fusion_lon": 0.0, "name": "ddbd542674c2614be01912e432d4e229", "lon": -77.04942133333333, "is_disabled": 0, "type": "electric_scooter"}, {"bike_id": "64e0c1171bf42aac58dcfd2796827b60", "lat": 38.896282666666664, "is_reserved": 0, "fusion_lat": 0.0, "rental_uris": {"android": "https://dc.lft.to/lastmile_qr_scan", "ios": "https://dc.lft.to/lastmile_qr_scan"}, "fusion_lon": 0.0, "name": "64e0c1171bf42aac58dcfd2796827b60", "lon": -77.00352966666667, "is_disabled": 0, "type": "electric_scooter"}, {"bike_id": "b1d4dc494c14aae9201cfd81eb2c99c5", "lat": 38.87460316666667, "is_reserved": 0, "fusion_lat": 0.0, "rental_uris": {"android": "https://dc.lft.to/lastmile_qr_scan", "ios": "https://dc.lft.to/lastmile_qr_scan"}, "fusion_lon": 0.0, "name": "b1d4dc494c14aae9201cfd81eb2c99c5", "lon": -77.00497483333334, "is_disabled": 0, "type": "electric_scooter"}, {"bike_id": "b485023da1ae74847ff9b78eaca57ceb", "lat": 38.873547, "is_reserved": 0, "fusion_lat": 0.0, "rental_uris": {"android": "https://dc.lft.to/lastmile_qr_scan", "ios": "https://dc.lft.to/lastmile_qr_scan"}, "fusion_lon": 0.0, "name": "b485023da1ae74847ff9b78eaca57ceb", "lon": -76.97028816666666, "is_disabled": 0, "type": "electric_scooter"}, {"bike_id": "a74cac07b111acac6169858232a085f2", "lat": 38.921435333333335, "is_reserved": 0, "fusion_lat": 0.0, "rental_uris": {"android": "https://dc.lft.to/lastmile_qr_scan", "ios": "https://dc.lft.to/lastmile_qr_scan"}, "fusion_lon": 0.0, "name": "a74cac07b111acac6169858232a085f2", "lon": -77.035085, "is_disabled": 0, "type": "electric_scooter"}, {"bike_id": "bcdd272433e8754aa08e1b292732bf03", "lat": 38.867064, "is_reserved": 0, "fusion_lat": 0.0, "rental_uris": {"android": "https://dc.lft.to/lastmile_qr_scan", "ios": "https://dc.lft.to/lastmile_qr_scan"}, "fusion_lon": 0.0, "name": "bcdd272433e8754aa08e1b292732bf03", "lon": -76.98713166666667, "is_disabled": 0, "type": "electric_scooter"}, {"bike_id": "375f2d1349e05e7b93e1c865c65d6724", "lat": 38.903051, "is_reserved": 0, "fusion_lat": 0.0, "rental_uris": {"android": "https://dc.lft.to/lastmile_qr_scan", "ios": "https://dc.lft.to/lastmile_qr_scan"}, "fusion_lon": 0.0, "name": "375f2d1349e05e7b93e1c865c65d6724", "lon": -77.05055733333333, "is_disabled": 0, "type": "electric_scooter"}, {"bike_id": "2f837b963edff9702188961a9eb4ffc5", "lat": 38.898480166666666, "is_reserved": 0, "fusion_lat": 0.0, "rental_uris": {"android": "https://dc.lft.to/lastmile_qr_scan", "ios": "https://dc.lft.to/lastmile_qr_scan"}, "fusion_lon": 0.0, "name": "2f837b963edff9702188961a9eb4ffc5", "lon": -77.04118083333333, "is_disabled": 0, "type": "electric_scooter"}, {"bike_id": "bfa001541d491d76075152a482d7565b", "lat": 38.9067405, "is_reserved": 0, "fusion_lat": 0.0, "rental_uris": {"android": "https://dc.lft.to/lastmile_qr_scan", "ios": "https://dc.lft.to/lastmile_qr_scan"}, "fusion_lon": 0.0, "name": "bfa001541d491d76075152a482d7565b", "lon": -77.010569, "is_disabled": 0, "type": "electric_scooter"}, {"bike_id": "db2463e61e4af5d5558a0a8e6d9b8a31", "lat": 38.898546833333334, "is_reserved": 0, "fusion_lat": 0.0, "rental_uris": {"android": "https://dc.lft.to/lastmile_qr_scan", "ios": "https://dc.lft.to/lastmile_qr_scan"}, "fusion_lon": 0.0, "name": "db2463e61e4af5d5558a0a8e6d9b8a31", "lon": -77.0487735, "is_disabled": 0, "type": "electric_scooter"}, {"bike_id": "fb595cd915819e4090213f6fc72fc961", "lat": 38.91012766666667, "is_reserved": 0, "fusion_lat": 0.0, "rental_uris": {"android": "https://dc.lft.to/lastmile_qr_scan", "ios": "https://dc.lft.to/lastmile_qr_scan"}, "fusion_lon": 0.0, "name": "fb595cd915819e4090213f6fc72fc961", "lon": -77.04447933333333, "is_disabled": 0, "type": "electric_scooter"}, {"bike_id": "b136ab7e6c0ee320236b6f833778a387", "lat": 38.876643333333334, "is_reserved": 0, "fusion_lat": 0.0, "rental_uris": {"android": "https://dc.lft.to/lastmile_qr_scan", "ios": "https://dc.lft.to/lastmile_qr_scan"}, "fusion_lon": 0.0, "name": "b136ab7e6c0ee320236b6f833778a387", "lon": -77.00826966666666, "is_disabled": 0, "type": "electric_scooter"}, {"bike_id": "f2767234758ae91b519964dcc961d10c", "lat": 38.897146666666664, "is_reserved": 0, "fusion_lat": 0.0, "rental_uris": {"android": "https://dc.lft.to/lastmile_qr_scan", "ios": "https://dc.lft.to/lastmile_qr_scan"}, "fusion_lon": 0.0, "name": "f2767234758ae91b519964dcc961d10c", "lon": -77.007977, "is_disabled": 0, "type": "electric_scooter"}, {"bike_id": "2c85807c34331e5173f0f18a24a4ed94", "lat": 38.9103205, "is_reserved": 0, "fusion_lat": 0.0, "rental_uris": {"android": "https://dc.lft.to/lastmile_qr_scan", "ios": "https://dc.lft.to/lastmile_qr_scan"}, "fusion_lon": 0.0, "name": "2c85807c34331e5173f0f18a24a4ed94", "lon": -76.9934305, "is_disabled": 0, "type": "electric_scooter"}, {"bike_id": "0d98acd57818087345ca6612efd61871", "lat": 38.9401645, "is_reserved": 0, "fusion_lat": 0.0, "rental_uris": {"android": "https://dc.lft.to/lastmile_qr_scan", "ios": "https://dc.lft.to/lastmile_qr_scan"}, "fusion_lon": 0.0, "name": "0d98acd57818087345ca6612efd61871", "lon": -77.026341, "is_disabled": 0, "type": "electric_scooter"}, {"bike_id": "b6243af6cc8594be19955bea588746c7", "lat": 38.95617266666667, "is_reserved": 0, "fusion_lat": 0.0, "rental_uris": {"android": "https://dc.lft.to/lastmile_qr_scan", "ios": "https://dc.lft.to/lastmile_qr_scan"}, "fusion_lon": 0.0, "name": "b6243af6cc8594be19955bea588746c7", "lon": -77.010219, "is_disabled": 0, "type": "electric_scooter"}, {"bike_id": "43fcae0a0bc0b3701af491fccae111a5", "lat": 38.917241, "is_reserved": 0, "fusion_lat": 0.0, "rental_uris": {"android": "https://dc.lft.to/lastmile_qr_scan", "ios": "https://dc.lft.to/lastmile_qr_scan"}, "fusion_lon": 0.0, "name": "43fcae0a0bc0b3701af491fccae111a5", "lon": -77.01899966666667, "is_disabled": 0, "type": "electric_scooter"}, {"bike_id": "891058048f96fd781f1ed00d6da891ed", "lat": 38.8750525, "is_reserved": 0, "fusion_lat": 0.0, "rental_uris": {"android": "https://dc.lft.to/lastmile_qr_scan", "ios": "https://dc.lft.to/lastmile_qr_scan"}, "fusion_lon": 0.0, "name": "891058048f96fd781f1ed00d6da891ed", "lon": -77.01237833333333, "is_disabled": 0, "type": "electric_scooter"}, {"bike_id": "b2d5772b30e038d277e8e53b876b5d03", "lat": 38.9036455, "is_reserved": 0, "fusion_lat": 0.0, "rental_uris": {"android": "https://dc.lft.to/lastmile_qr_scan", "ios": "https://dc.lft.to/lastmile_qr_scan"}, "fusion_lon": 0.0, "name": "b2d5772b30e038d277e8e53b876b5d03", "lon": -77.035753, "is_disabled": 0, "type": "electric_scooter"}, {"bike_id": "ecbc1e5104f72e464e28bcf82eaee36a", "lat": 38.87619766666667, "is_reserved": 0, "fusion_lat": 0.0, "rental_uris": {"android": "https://dc.lft.to/lastmile_qr_scan", "ios": "https://dc.lft.to/lastmile_qr_scan"}, "fusion_lon": 0.0, "name": "ecbc1e5104f72e464e28bcf82eaee36a", "lon": -76.965243, "is_disabled": 0, "type": "electric_scooter"}, {"bike_id": "1edf3c66e996cf35c3916cb4839ef0fa", "lat": 38.90729483333333, "is_reserved": 0, "fusion_lat": 0.0, "rental_uris": {"android": "https://dc.lft.to/lastmile_qr_scan", "ios": "https://dc.lft.to/lastmile_qr_scan"}, "fusion_lon": 0.0, "name": "1edf3c66e996cf35c3916cb4839ef0fa", "lon": -77.032046, "is_disabled": 0, "type": "electric_scooter"}, {"bike_id": "96b43a47b9be5f4917ac871546fcc038", "lat": 38.8999925, "is_reserved": 0, "fusion_lat": 0.0, "rental_uris": {"android": "https://dc.lft.to/lastmile_qr_scan", "ios": "https://dc.lft.to/lastmile_qr_scan"}, "fusion_lon": 0.0, "name": "96b43a47b9be5f4917ac871546fcc038", "lon": -77.02698133333334, "is_disabled": 0, "type": "electric_scooter"}, {"bike_id": "85f0313739a1269805498575bcffd7b4", "lat": 38.92425216666667, "is_reserved": 0, "fusion_lat": 0.0, "rental_uris": {"android": "https://dc.lft.to/lastmile_qr_scan", "ios": "https://dc.lft.to/lastmile_qr_scan"}, "fusion_lon": 0.0, "name": "85f0313739a1269805498575bcffd7b4", "lon": -77.02240533333334, "is_disabled": 0, "type": "electric_scooter"}, {"bike_id": "03bc2722d905704f48c0c46b13ac8bd6", "lat": 38.89670266666667, "is_reserved": 0, "fusion_lat": 0.0, "rental_uris": {"android": "https://dc.lft.to/lastmile_qr_scan", "ios": "https://dc.lft.to/lastmile_qr_scan"}, "fusion_lon": 0.0, "name": "03bc2722d905704f48c0c46b13ac8bd6", "lon": -76.93213383333334, "is_disabled": 0, "type": "electric_scooter"}, {"bike_id": "322d17af829d7489efb1051439ff4b8a", "lat": 38.90364833333334, "is_reserved": 0, "fusion_lat": 0.0, "rental_uris": {"android": "https://dc.lft.to/lastmile_qr_scan", "ios": "https://dc.lft.to/lastmile_qr_scan"}, "fusion_lon": 0.0, "name": "322d17af829d7489efb1051439ff4b8a", "lon": -77.046932, "is_disabled": 0, "type": "electric_scooter"}, {"bike_id": "bb461087781ea90c0a19441d2b143ed7", "lat": 38.90727233333333, "is_reserved": 0, "fusion_lat": 0.0, "rental_uris": {"android": "https://dc.lft.to/lastmile_qr_scan", "ios": "https://dc.lft.to/lastmile_qr_scan"}, "fusion_lon": 0.0, "name": "bb461087781ea90c0a19441d2b143ed7", "lon": -77.02374983333333, "is_disabled": 0, "type": "electric_scooter"}, {"bike_id": "aa413eb59796cc9cdfdce141a122d36b", "lat": 38.91051216666666, "is_reserved": 0, "fusion_lat": 0.0, "rental_uris": {"android": "https://dc.lft.to/lastmile_qr_scan", "ios": "https://dc.lft.to/lastmile_qr_scan"}, "fusion_lon": 0.0, "name": "aa413eb59796cc9cdfdce141a122d36b", "lon": -77.0434125, "is_disabled": 0, "type": "electric_scooter"}, {"bike_id": "3805d60129a688580f20878e46660d99", "lat": 38.939681, "is_reserved": 0, "fusion_lat": 0.0, "rental_uris": {"android": "https://dc.lft.to/lastmile_qr_scan", "ios": "https://dc.lft.to/lastmile_qr_scan"}, "fusion_lon": 0.0, "name": "3805d60129a688580f20878e46660d99", "lon": -77.02733766666667, "is_disabled": 0, "type": "electric_scooter"}, {"bike_id": "b53de44686bddc4d18117bea249866a9", "lat": 38.90525183333333, "is_reserved": 0, "fusion_lat": 0.0, "rental_uris": {"android": "https://dc.lft.to/lastmile_qr_scan", "ios": "https://dc.lft.to/lastmile_qr_scan"}, "fusion_lon": 0.0, "name": "b53de44686bddc4d18117bea249866a9", "lon": -77.0582605, "is_disabled": 0, "type": "electric_scooter"}, {"bike_id": "3a663b3220d4a1b0bc347ce07c2ae310", "lat": 38.91406766666667, "is_reserved": 0, "fusion_lat": 0.0, "rental_uris": {"android": "https://dc.lft.to/lastmile_qr_scan", "ios": "https://dc.lft.to/lastmile_qr_scan"}, "fusion_lon": 0.0, "name": "3a663b3220d4a1b0bc347ce07c2ae310", "lon": -77.03222433333333, "is_disabled": 0, "type": "electric_scooter"}, {"bike_id": "bfe0c309af87bfb63096a2a924cb1507", "lat": 38.928735333333336, "is_reserved": 0, "fusion_lat": 0.0, "rental_uris": {"android": "https://dc.lft.to/lastmile_qr_scan", "ios": "https://dc.lft.to/lastmile_qr_scan"}, "fusion_lon": 0.0, "name": "bfe0c309af87bfb63096a2a924cb1507", "lon": -77.02776633333333, "is_disabled": 0, "type": "electric_scooter"}, {"bike_id": "579fcf513e9d4f510772f7e087123bc4", "lat": 38.885137, "is_reserved": 0, "fusion_lat": 0.0, "rental_uris": {"android": "https://dc.lft.to/lastmile_qr_scan", "ios": "https://dc.lft.to/lastmile_qr_scan"}, "fusion_lon": 0.0, "name": "579fcf513e9d4f510772f7e087123bc4", "lon": -76.95634583333333, "is_disabled": 0, "type": "electric_bike"}, {"bike_id": "68370b7a2c126c7c11d4adb9f5edce7f", "lat": 38.9322645, "is_reserved": 0, "fusion_lat": 0.0, "rental_uris": {"android": "https://dc.lft.to/lastmile_qr_scan", "ios": "https://dc.lft.to/lastmile_qr_scan"}, "fusion_lon": 0.0, "name": "68370b7a2c126c7c11d4adb9f5edce7f", "lon": -77.18124166666666, "is_disabled": 0, "type": "electric_bike"}, {"bike_id": "1065419a315e855f4b63d56663fc8d26", "lat": 38.93158733333333, "is_reserved": 0, "fusion_lat": 0.0, "rental_uris": {"android": "https://dc.lft.to/lastmile_qr_scan", "ios": "https://dc.lft.to/lastmile_qr_scan"}, "fusion_lon": 0.0, "name": "1065419a315e855f4b63d56663fc8d26", "lon": -77.04540533333333, "is_disabled": 0, "type": "electric_scooter"}, {"bike_id": "d57be2d06991679df9897f2a5d2a96dd", "lat": 38.87471133333333, "is_reserved": 0, "fusion_lat": 0.0, "rental_uris": {"android": "https://dc.lft.to/lastmile_qr_scan", "ios": "https://dc.lft.to/lastmile_qr_scan"}, "fusion_lon": 0.0, "name": "d57be2d06991679df9897f2a5d2a96dd", "lon": -77.00926116666666, "is_disabled": 0, "type": "electric_scooter"}, {"bike_id": "cc4b9c3d74ec0ef46d5b6a3b6a6e2bb3", "lat": 38.9046705, "is_reserved": 0, "fusion_lat": 0.0, "rental_uris": {"android": "https://dc.lft.to/lastmile_qr_scan", "ios": "https://dc.lft.to/lastmile_qr_scan"}, "fusion_lon": 0.0, "name": "cc4b9c3d74ec0ef46d5b6a3b6a6e2bb3", "lon": -76.97610066666667, "is_disabled": 0, "type": "electric_scooter"}, {"bike_id": "a20165fb2b62a0db0cc96dfeccf55e17", "lat": 38.881079, "is_reserved": 0, "fusion_lat": 0.0, "rental_uris": {"android": "https://dc.lft.to/lastmile_qr_scan", "ios": "https://dc.lft.to/lastmile_qr_scan"}, "fusion_lon": 0.0, "name": "a20165fb2b62a0db0cc96dfeccf55e17", "lon": -77.01654033333334, "is_disabled": 0, "type": "electric_scooter"}, {"bike_id": "8ca58efc9c742356ebb943d208fa6630", "lat": 38.9067985, "is_reserved": 0, "fusion_lat": 0.0, "rental_uris": {"android": "https://dc.lft.to/lastmile_qr_scan", "ios": "https://dc.lft.to/lastmile_qr_scan"}, "fusion_lon": 0.0, "name": "8ca58efc9c742356ebb943d208fa6630", "lon": -76.98009133333333, "is_disabled": 0, "type": "electric_scooter"}, {"bike_id": "ea1c5319da14553ec44744defd830f76", "lat": 38.91608, "is_reserved": 0, "fusion_lat": 0.0, "rental_uris": {"android": "https://dc.lft.to/lastmile_qr_scan", "ios": "https://dc.lft.to/lastmile_qr_scan"}, "fusion_lon": 0.0, "name": "ea1c5319da14553ec44744defd830f76", "lon": -77.04874716666667, "is_disabled": 0, "type": "electric_scooter"}, {"bike_id": "47f1069bea5885c5a3732424550b286d", "lat": 38.91691383333333, "is_reserved": 0, "fusion_lat": 0.0, "rental_uris": {"android": "https://dc.lft.to/lastmile_qr_scan", "ios": "https://dc.lft.to/lastmile_qr_scan"}, "fusion_lon": 0.0, "name": "47f1069bea5885c5a3732424550b286d", "lon": -77.02373416666667, "is_disabled": 0, "type": "electric_scooter"}, {"bike_id": "96c891bc10f7041eb7a9460423374ad2", "lat": 38.91205733333334, "is_reserved": 0, "fusion_lat": 0.0, "rental_uris": {"android": "https://dc.lft.to/lastmile_qr_scan", "ios": "https://dc.lft.to/lastmile_qr_scan"}, "fusion_lon": 0.0, "name": "96c891bc10f7041eb7a9460423374ad2", "lon": -77.04481416666667, "is_disabled": 0, "type": "electric_scooter"}, {"bike_id": "0657c175257685f6e3c02c1722862856", "lat": 38.88491333333333, "is_reserved": 0, "fusion_lat": 0.0, "rental_uris": {"android": "https://dc.lft.to/lastmile_qr_scan", "ios": "https://dc.lft.to/lastmile_qr_scan"}, "fusion_lon": 0.0, "name": "0657c175257685f6e3c02c1722862856", "lon": -77.0071415, "is_disabled": 0, "type": "electric_scooter"}, {"bike_id": "5d4a3b4dc02514cb1c4d86aa7d5766e9", "lat": 38.90466416666667, "is_reserved": 0, "fusion_lat": 0.0, "rental_uris": {"android": "https://dc.lft.to/lastmile_qr_scan", "ios": "https://dc.lft.to/lastmile_qr_scan"}, "fusion_lon": 0.0, "name": "5d4a3b4dc02514cb1c4d86aa7d5766e9", "lon": -77.0435315, "is_disabled": 0, "type": "electric_scooter"}, {"bike_id": "e46945ab30cbd939b354f7310b328a47", "lat": 38.873706, "is_reserved": 0, "fusion_lat": 0.0, "rental_uris": {"android": "https://dc.lft.to/lastmile_qr_scan", "ios": "https://dc.lft.to/lastmile_qr_scan"}, "fusion_lon": 0.0, "name": "e46945ab30cbd939b354f7310b328a47", "lon": -77.00119666666667, "is_disabled": 0, "type": "electric_scooter"}, {"bike_id": "c58870ced3a822838011a18c017201a4", "lat": 38.90723366666667, "is_reserved": 0, "fusion_lat": 0.0, "rental_uris": {"android": "https://dc.lft.to/lastmile_qr_scan", "ios": "https://dc.lft.to/lastmile_qr_scan"}, "fusion_lon": 0.0, "name": "c58870ced3a822838011a18c017201a4", "lon": -77.002418, "is_disabled": 0, "type": "electric_scooter"}, {"bike_id": "58571534922988847fb94953cf752d7e", "lat": 38.91704133333333, "is_reserved": 0, "fusion_lat": 0.0, "rental_uris": {"android": "https://dc.lft.to/lastmile_qr_scan", "ios": "https://dc.lft.to/lastmile_qr_scan"}, "fusion_lon": 0.0, "name": "58571534922988847fb94953cf752d7e", "lon": -77.03879116666667, "is_disabled": 0, "type": "electric_scooter"}, {"bike_id": "f51660cef4ddc5a1e4b59c3591a8b752", "lat": 38.9242295, "is_reserved": 0, "fusion_lat": 0.0, "rental_uris": {"android": "https://dc.lft.to/lastmile_qr_scan", "ios": "https://dc.lft.to/lastmile_qr_scan"}, "fusion_lon": 0.0, "name": "f51660cef4ddc5a1e4b59c3591a8b752", "lon": -77.05181116666667, "is_disabled": 0, "type": "electric_scooter"}, {"bike_id": "03eb15586e386fef6e92ec2070e90046", "lat": 38.895504333333335, "is_reserved": 0, "fusion_lat": 0.0, "rental_uris": {"android": "https://dc.lft.to/lastmile_qr_scan", "ios": "https://dc.lft.to/lastmile_qr_scan"}, "fusion_lon": 0.0, "name": "03eb15586e386fef6e92ec2070e90046", "lon": -77.04684333333333, "is_disabled": 0, "type": "electric_scooter"}, {"bike_id": "234510b68a27d1c387f9f7e6ee939414", "lat": 38.9181145, "is_reserved": 0, "fusion_lat": 0.0, "rental_uris": {"android": "https://dc.lft.to/lastmile_qr_scan", "ios": "https://dc.lft.to/lastmile_qr_scan"}, "fusion_lon": 0.0, "name": "234510b68a27d1c387f9f7e6ee939414", "lon": -77.03999983333334, "is_disabled": 0, "type": "electric_scooter"}, {"bike_id": "b78dde2196aa7c983c85f5329aa95c17", "lat": 38.90490916666667, "is_reserved": 0, "fusion_lat": 0.0, "rental_uris": {"android": "https://dc.lft.to/lastmile_qr_scan", "ios": "https://dc.lft.to/lastmile_qr_scan"}, "fusion_lon": 0.0, "name": "b78dde2196aa7c983c85f5329aa95c17", "lon": -77.04348966666667, "is_disabled": 0, "type": "electric_scooter"}, {"bike_id": "c266b84189c5bbf987ee24d729c221f7", "lat": 38.9640405, "is_reserved": 0, "fusion_lat": 0.0, "rental_uris": {"android": "https://dc.lft.to/lastmile_qr_scan", "ios": "https://dc.lft.to/lastmile_qr_scan"}, "fusion_lon": 0.0, "name": "c266b84189c5bbf987ee24d729c221f7", "lon": -76.99992566666667, "is_disabled": 0, "type": "electric_bike"}, {"bike_id": "0a8e293836c145ffa8c0439b21ef6769", "lat": 38.88366416666667, "is_reserved": 0, "fusion_lat": 0.0, "rental_uris": {"android": "https://dc.lft.to/lastmile_qr_scan", "ios": "https://dc.lft.to/lastmile_qr_scan"}, "fusion_lon": 0.0, "name": "0a8e293836c145ffa8c0439b21ef6769", "lon": -77.026243, "is_disabled": 0, "type": "electric_scooter"}, {"bike_id": "71c868d2819a2ccd56f7932a7911d60d", "lat": 38.90414366666667, "is_reserved": 0, "fusion_lat": 0.0, "rental_uris": {"android": "https://dc.lft.to/lastmile_qr_scan", "ios": "https://dc.lft.to/lastmile_qr_scan"}, "fusion_lon": 0.0, "name": "71c868d2819a2ccd56f7932a7911d60d", "lon": -77.04855466666666, "is_disabled": 0, "type": "electric_scooter"}, {"bike_id": "3fe00f023d26d8c2e5e75b21d5b59909", "lat": 38.89603066666667, "is_reserved": 0, "fusion_lat": 0.0, "rental_uris": {"android": "https://dc.lft.to/lastmile_qr_scan", "ios": "https://dc.lft.to/lastmile_qr_scan"}, "fusion_lon": 0.0, "name": "3fe00f023d26d8c2e5e75b21d5b59909", "lon": -77.02354183333334, "is_disabled": 0, "type": "electric_scooter"}, {"bike_id": "fe0c543c1c636920898d23cbd363565a", "lat": 38.91573066666667, "is_reserved": 0, "fusion_lat": 0.0, "rental_uris": {"android": "https://dc.lft.to/lastmile_qr_scan", "ios": "https://dc.lft.to/lastmile_qr_scan"}, "fusion_lon": 0.0, "name": "fe0c543c1c636920898d23cbd363565a", "lon": -77.019589, "is_disabled": 0, "type": "electric_scooter"}, {"bike_id": "39158d71de5dd897a46af1f591661435", "lat": 38.9140755, "is_reserved": 0, "fusion_lat": 0.0, "rental_uris": {"android": "https://dc.lft.to/lastmile_qr_scan", "ios": "https://dc.lft.to/lastmile_qr_scan"}, "fusion_lon": 0.0, "name": "39158d71de5dd897a46af1f591661435", "lon": -77.02010483333333, "is_disabled": 0, "type": "electric_scooter"}, {"bike_id": "7fbf242fb35d9c794d1a2fe8bbcf4623", "lat": 38.917314166666664, "is_reserved": 0, "fusion_lat": 0.0, "rental_uris": {"android": "https://dc.lft.to/lastmile_qr_scan", "ios": "https://dc.lft.to/lastmile_qr_scan"}, "fusion_lon": 0.0, "name": "7fbf242fb35d9c794d1a2fe8bbcf4623", "lon": -77.03214483333333, "is_disabled": 0, "type": "electric_scooter"}, {"bike_id": "2c7d014052d60003aba15e2ebc7f57a7", "lat": 38.914178, "is_reserved": 0, "fusion_lat": 0.0, "rental_uris": {"android": "https://dc.lft.to/lastmile_qr_scan", "ios": "https://dc.lft.to/lastmile_qr_scan"}, "fusion_lon": 0.0, "name": "2c7d014052d60003aba15e2ebc7f57a7", "lon": -77.02409866666666, "is_disabled": 0, "type": "electric_scooter"}, {"bike_id": "20efd60d089f977f8fbf25fa31685a47", "lat": 38.86693316666667, "is_reserved": 0, "fusion_lat": 0.0, "rental_uris": {"android": "https://dc.lft.to/lastmile_qr_scan", "ios": "https://dc.lft.to/lastmile_qr_scan"}, "fusion_lon": 0.0, "name": "20efd60d089f977f8fbf25fa31685a47", "lon": -76.98544783333334, "is_disabled": 0, "type": "electric_scooter"}, {"bike_id": "2051b8be3c46adc858c96fbde4a239d5", "lat": 38.87718733333333, "is_reserved": 0, "fusion_lat": 0.0, "rental_uris": {"android": "https://dc.lft.to/lastmile_qr_scan", "ios": "https://dc.lft.to/lastmile_qr_scan"}, "fusion_lon": 0.0, "name": "2051b8be3c46adc858c96fbde4a239d5", "lon": -77.00316866666667, "is_disabled": 0, "type": "electric_scooter"}, {"bike_id": "39fa92ee1501895eb1f33ff43c5867a2", "lat": 38.90372833333333, "is_reserved": 0, "fusion_lat": 0.0, "rental_uris": {"android": "https://dc.lft.to/lastmile_qr_scan", "ios": "https://dc.lft.to/lastmile_qr_scan"}, "fusion_lon": 0.0, "name": "39fa92ee1501895eb1f33ff43c5867a2", "lon": -77.04026133333333, "is_disabled": 0, "type": "electric_scooter"}, {"bike_id": "fc58e734d89e5b0c779608e6f84da1cc", "lat": 38.94181016666667, "is_reserved": 0, "fusion_lat": 0.0, "rental_uris": {"android": "https://dc.lft.to/lastmile_qr_scan", "ios": "https://dc.lft.to/lastmile_qr_scan"}, "fusion_lon": 0.0, "name": "fc58e734d89e5b0c779608e6f84da1cc", "lon": -77.02487716666667, "is_disabled": 0, "type": "electric_scooter"}, {"bike_id": "96a650e89ab64c24a4bea2b7dce0671d", "lat": 38.916061166666665, "is_reserved": 0, "fusion_lat": 0.0, "rental_uris": {"android": "https://dc.lft.to/lastmile_qr_scan", "ios": "https://dc.lft.to/lastmile_qr_scan"}, "fusion_lon": 0.0, "name": "96a650e89ab64c24a4bea2b7dce0671d", "lon": -77.023102, "is_disabled": 0, "type": "electric_scooter"}, {"bike_id": "2fb095696406fe6da085f52b3059657c", "lat": 38.900167333333336, "is_reserved": 0, "fusion_lat": 0.0, "rental_uris": {"android": "https://dc.lft.to/lastmile_qr_scan", "ios": "https://dc.lft.to/lastmile_qr_scan"}, "fusion_lon": 0.0, "name": "2fb095696406fe6da085f52b3059657c", "lon": -76.98701666666666, "is_disabled": 0, "type": "electric_scooter"}, {"bike_id": "b4db5062c47081393a2ac0f3cc50e1a4", "lat": 38.932739166666664, "is_reserved": 0, "fusion_lat": 0.0, "rental_uris": {"android": "https://dc.lft.to/lastmile_qr_scan", "ios": "https://dc.lft.to/lastmile_qr_scan"}, "fusion_lon": 0.0, "name": "b4db5062c47081393a2ac0f3cc50e1a4", "lon": -77.03499966666666, "is_disabled": 0, "type": "electric_scooter"}, {"bike_id": "d7e14fdb7d8f9a000d0cd3a9783c1721", "lat": 38.89799416666666, "is_reserved": 0, "fusion_lat": 0.0, "rental_uris": {"android": "https://dc.lft.to/lastmile_qr_scan", "ios": "https://dc.lft.to/lastmile_qr_scan"}, "fusion_lon": 0.0, "name": "d7e14fdb7d8f9a000d0cd3a9783c1721", "lon": -77.02484016666666, "is_disabled": 0, "type": "electric_scooter"}, {"bike_id": "a0708cde800106a5491fa08695e1072c", "lat": 38.892376, "is_reserved": 0, "fusion_lat": 0.0, "rental_uris": {"android": "https://dc.lft.to/lastmile_qr_scan", "ios": "https://dc.lft.to/lastmile_qr_scan"}, "fusion_lon": 0.0, "name": "a0708cde800106a5491fa08695e1072c", "lon": -76.94103833333334, "is_disabled": 0, "type": "electric_scooter"}, {"bike_id": "186ef49eec754717ec63aae0d513dda9", "lat": 38.90399516666667, "is_reserved": 0, "fusion_lat": 0.0, "rental_uris": {"android": "https://dc.lft.to/lastmile_qr_scan", "ios": "https://dc.lft.to/lastmile_qr_scan"}, "fusion_lon": 0.0, "name": "186ef49eec754717ec63aae0d513dda9", "lon": -77.02959133333333, "is_disabled": 0, "type": "electric_scooter"}, {"bike_id": "fbcc74b64efae593dafba6d3abb50d98", "lat": 38.8919595, "is_reserved": 0, "fusion_lat": 0.0, "rental_uris": {"android": "https://dc.lft.to/lastmile_qr_scan", "ios": "https://dc.lft.to/lastmile_qr_scan"}, "fusion_lon": 0.0, "name": "fbcc74b64efae593dafba6d3abb50d98", "lon": -77.002997, "is_disabled": 0, "type": "electric_scooter"},