{"data": {"bikes": [{"rental_uris": {"ios": "https://dc.lft.to/lastmile_qr_scan", "android": "https://dc.lft.to/lastmile_qr_scan"}, "lon": -77.00252783333333, "type": "electric_scooter", "fusion_lat": 0.0, "lat": 38.90123666666667, "name": "3aceb30a74924593345a6034750e1941", "fusion_lon": 0.0, "bike_id": "3aceb30a74924593345a6034750e1941", "is_disabled": 0, "is_reserved": 0}, {"rental_uris": {"ios": "https://dc.lft.to/lastmile_qr_scan", "android": "https://dc.lft.to/lastmile_qr_scan"}, "lon": -76.9997515, "type": "electric_scooter", "fusion_lat": 0.0, "lat": 38.83839366666667, "name": "1004fd04cb333e4431fac95da0a1de91", "fusion_lon": 0.0, "bike_id": "1004fd04cb333e4431fac95da0a1de91", "is_disabled": 0, "is_reserved": 0}, {"rental_uris": {"ios": "https://dc.lft.to/lastmile_qr_scan", "android": "https://dc.lft.to/lastmile_qr_scan"}, "lon": -77.034675, "type": "electric_scooter", "fusion_lat": 0.0, "lat": 38.9089535, "name": "58310c65e452f1cfd9ddfacde43805eb", "fusion_lon": 0.0, "bike_id": "58310c65e452f1cfd9ddfacde43805eb", "is_disabled": 0, "is_reserved": 0}, {"rental_uris": {"ios": "https://dc.lft.to/lastmile_qr_scan", "android": "https://dc.lft.to/lastmile_qr_scan"}, "lon": -77.0403125, "type": "electric_scooter", "fusion_lat": 0.0, "lat": 38.923321, "name": "042236048980b7f2bbd84ca57e950327", "fusion_lon": 0.0, "bike_id": "042236048980b7f2bbd84ca57e950327", "is_disabled": 0, "is_reserved": 0}, {"rental_uris": {"ios": "https://dc.lft.to/lastmile_qr_scan", "android": "https://dc.lft.to/lastmile_qr_scan"}, "lon": -77.03895216666666, "type": "electric_scooter", "fusion_lat": 0.0, "lat": 38.9232795, "name": "f67553a1b61853dae99879a8eda49c69", "fusion_lon": 0.0, "bike_id": "f67553a1b61853dae99879a8eda49c69", "is_disabled": 0, "is_reserved": 0}, {"rental_uris": {"ios": "https://dc.lft.to/lastmile_qr_scan", "android": "https://dc.lft.to/lastmile_qr_scan"}, "lon": -77.03910416666666, "type": "electric_scooter", "fusion_lat": 0.0, "lat": 38.911133666666665, "name": "8536e1bfe72f22f95556b833c922fe75", "fusion_lon": 0.0, "bike_id": "8536e1bfe72f22f95556b833c922fe75", "is_disabled": 0, "is_reserved": 0}, {"rental_uris": {"ios": "https://dc.lft.to/lastmile_qr_scan", "android": "https://dc.lft.to/lastmile_qr_scan"}, "lon": -77.07276066666667, "type": "electric_scooter", "fusion_lat": 0.0, "lat": 38.93486383333333, "name": "3a327eadb95dea6ea2e8e27d11f7ce47", "fusion_lon": 0.0, "bike_id": "3a327eadb95dea6ea2e8e27d11f7ce47", "is_disabled": 0, "is_reserved": 0}, {"rental_uris": {"ios": "https://dc.lft.to/lastmile_qr_scan", "android": "https://dc.lft.to/lastmile_qr_scan"}, "lon": -77.0429035, "type": "electric_scooter", "fusion_lat": 0.0, "lat": 38.922683166666665, "name": "693fb6e937f86dab9fa726193f816b3e", "fusion_lon": 0.0, "bike_id": "693fb6e937f86dab9fa726193f816b3e", "is_disabled": 0, "is_reserved": 0}, {"rental_uris": {"ios": "https://dc.lft.to/lastmile_qr_scan", "android": "https://dc.lft.to/lastmile_qr_scan"}, "lon": -77.0009195, "type": "electric_scooter", "fusion_lat": 0.0, "lat": 38.90757083333333, "name": "0d99b8835318df1a6898acd4f8540726", "fusion_lon": 0.0, "bike_id": "0d99b8835318df1a6898acd4f8540726", "is_disabled": 0, "is_reserved": 0}, {"rental_uris": {"ios": "https://dc.lft.to/lastmile_qr_scan", "android": "https://dc.lft.to/lastmile_qr_scan"}, "lon": -77.04987166666666, "type": "electric_scooter", "fusion_lat": 0.0, "lat": 38.90117433333333, "name": "01756493544601f32eada231cee36799", "fusion_lon": 0.0, "bike_id": "01756493544601f32eada231cee36799", "is_disabled": 0, "is_reserved": 0}, {"rental_uris": {"ios": "https://dc.lft.to/lastmile_qr_scan", "android": "https://dc.lft.to/lastmile_qr_scan"}, "lon": -76.99004033333334, "type": "electric_scooter", "fusion_lat": 0.0, "lat": 38.865085, "name": "bd04b9455496f31d7cae2debe967e34d", "fusion_lon": 0.0, "bike_id": "bd04b9455496f31d7cae2debe967e34d", "is_disabled": 0, "is_reserved": 0}, {"rental_uris": {"ios": "https://dc.lft.to/lastmile_qr_scan", "android": "https://dc.lft.to/lastmile_qr_scan"}, "lon": -77.04423883333334, "type": "electric_scooter", "fusion_lat": 0.0, "lat": 38.92232, "name": "a57ddaa2c1690de06562f89f5337cf5c", "fusion_lon": 0.0, "bike_id": "a57ddaa2c1690de06562f89f5337cf5c", "is_disabled": 0, "is_reserved": 0}, {"rental_uris": {"ios": "https://dc.lft.to/lastmile_qr_scan", "android": "https://dc.lft.to/lastmile_qr_scan"}, "lon": -77.17845616666666, "type": "electric_bike", "fusion_lat": 0.0, "lat": 39.08858033333333, "name": "5cbbb150114a80f648a26601261b83e4", "fusion_lon": 0.0, "bike_id": "5cbbb150114a80f648a26601261b83e4", "is_disabled": 0, "is_reserved": 0}, {"rental_uris": {"ios": "https://dc.lft.to/lastmile_qr_scan", "android": "https://dc.lft.to/lastmile_qr_scan"}, "lon": -77.03635183333333, "type": "electric_scooter", "fusion_lat": 0.0, "lat": 38.90279866666667, "name": "3b8a131d855e683f1ab8cc789b37a334", "fusion_lon": 0.0, "bike_id": "3b8a131d855e683f1ab8cc789b37a334", "is_disabled": 0, "is_reserved": 0}, {"rental_uris": {"ios": "https://dc.lft.to/lastmile_qr_scan", "android": "https://dc.lft.to/lastmile_qr_scan"}, "lon": -76.953605, "type": "electric_bike", "fusion_lat": 0.0, "lat": 38.939551333333334, "name": "e8ea259f77a3b2597deeb89d11641348", "fusion_lon": 0.0, "bike_id": "e8ea259f77a3b2597deeb89d11641348", "is_disabled": 0, "is_reserved": 0}, {"rental_uris": {"ios": "https://dc.lft.to/lastmile_qr_scan", "android": "https://dc.lft.to/lastmile_qr_scan"}, "lon": -77.02706366666666, "type": "electric_scooter", "fusion_lat": 0.0, "lat": 38.94997816666667, "name": "37814a1c90d6ee74c23434666a227dcd", "fusion_lon": 0.0, "bike_id": "37814a1c90d6ee74c23434666a227dcd", "is_disabled": 0, "is_reserved": 0}, {"rental_uris": {"ios": "https://dc.lft.to/lastmile_qr_scan", "android": "https://dc.lft.to/lastmile_qr_scan"}, "lon": -77.03261733333333, "type": "electric_scooter", "fusion_lat": 0.0, "lat": 38.927406833333336, "name": "53cfb826affb631b963983e241dca594", "fusion_lon": 0.0, "bike_id": "53cfb826affb631b963983e241dca594", "is_disabled": 0, "is_reserved": 0}, {"rental_uris": {"ios": "https://dc.lft.to/lastmile_qr_scan", "android": "https://dc.lft.to/lastmile_qr_scan"}, "lon": -77.04304483333334, "type": "electric_bike", "fusion_lat": 0.0, "lat": 39.054491, "name": "1af135bbc4dd68d0bf8efc385fe0ed09", "fusion_lon": 0.0, "bike_id": "1af135bbc4dd68d0bf8efc385fe0ed09", "is_disabled": 0, "is_reserved": 0}, {"rental_uris": {"ios": "https://dc.lft.to/lastmile_qr_scan", "android": "https://dc.lft.to/lastmile_qr_scan"}, "lon": -77.001873, "type": "electric_scooter", "fusion_lat": 0.0, "lat": 38.9001395, "name": "05c583395937ea38e2ec7935b3315bbb", "fusion_lon": 0.0, "bike_id": "05c583395937ea38e2ec7935b3315bbb", "is_disabled": 0, "is_reserved": 0}, {"rental_uris": {"ios": "https://dc.lft.to/lastmile_qr_scan", "android": "https://dc.lft.to/lastmile_qr_scan"}, "lon": -77.0376745, "type": "electric_scooter", "fusion_lat": 0.0, "lat": 38.915887166666664, "name": "7dd61cd9e771afca46e233035b67ab3c", "fusion_lon": 0.0, "bike_id": "7dd61cd9e771afca46e233035b67ab3c", "is_disabled": 0, "is_reserved": 0}, {"rental_uris": {"ios": "https://dc.lft.to/lastmile_qr_scan", "android": "https://dc.lft.to/lastmile_qr_scan"}, "lon": -76.98903566666667, "type": "electric_scooter", "fusion_lat": 0.0, "lat": 38.866955833333336, "name": "10b85040e3da7167cf1ef2844a164c86", "fusion_lon": 0.0, "bike_id": "10b85040e3da7167cf1ef2844a164c86", "is_disabled": 0, "is_reserved": 0}, {"rental_uris": {"ios": "https://dc.lft.to/lastmile_qr_scan", "android": "https://dc.lft.to/lastmile_qr_scan"}, "lon": -77.03930533333333, "type": "electric_scooter", "fusion_lat": 0.0, "lat": 38.917542, "name": "83f8669ed00cc00995fc2ebdf3522529", "fusion_lon": 0.0, "bike_id": "83f8669ed00cc00995fc2ebdf3522529", "is_disabled": 0, "is_reserved": 0}, {"rental_uris": {"ios": "https://dc.lft.to/lastmile_qr_scan", "android": "https://dc.lft.to/lastmile_qr_scan"}, "lon": -77.05923716666666, "type": "electric_bike", "fusion_lat": 0.0, "lat": 38.90433, "name": "1deb6d187f0bfc7dedf59efdf79602b8", "fusion_lon": 0.0, "bike_id": "1deb6d187f0bfc7dedf59efdf79602b8", "is_disabled": 0, "is_reserved": 0}, {"rental_uris": {"ios": "https://dc.lft.to/lastmile_qr_scan", "android": "https://dc.lft.to/lastmile_qr_scan"}, "lon": -77.03458233333333, "type": "electric_scooter", "fusion_lat": 0.0, "lat": 38.90555766666667, "name": "617c9c311cd3be59dcd657fbacab4f60", "fusion_lon": 0.0, "bike_id": "617c9c311cd3be59dcd657fbacab4f60", "is_disabled": 0, "is_reserved": 0}, {"rental_uris": {"ios": "https://dc.lft.to/lastmile_qr_scan", "android": "https://dc.lft.to/lastmile_qr_scan"}, "lon": -77.00048116666666, "type": "electric_scooter", "fusion_lat": 0.0, "lat": 38.87388983333334, "name": "242a093f37d1c5fc89a0847b30aa2a6a", "fusion_lon": 0.0, "bike_id": "242a093f37d1c5fc89a0847b30aa2a6a", "is_disabled": 0, "is_reserved": 0}, {"rental_uris": {"ios": "https://dc.lft.to/lastmile_qr_scan", "android": "https://dc.lft.to/lastmile_qr_scan"}, "lon": -76.99593066666667, "type": "electric_scooter", "fusion_lat": 0.0, "lat": 38.92228033333333, "name": "3892ed3cad3d8e70a9ce0c45276223f1", "fusion_lon": 0.0, "bike_id": "3892ed3cad3d8e70a9ce0c45276223f1", "is_disabled": 0, "is_reserved": 0}, {"rental_uris": {"ios": "https://dc.lft.to/lastmile_qr_scan", "android": "https://dc.lft.to/lastmile_qr_scan"}, "lon": -77.0297545, "type": "electric_scooter", "fusion_lat": 0.0, "lat": 38.940459833333335, "name": "2e6fe1852d2414ca2df2bd6d0c246704", "fusion_lon": 0.0, "bike_id": "2e6fe1852d2414ca2df2bd6d0c246704", "is_disabled": 0, "is_reserved": 0}, {"rental_uris": {"ios": "https://dc.lft.to/lastmile_qr_scan", "android": "https://dc.lft.to/lastmile_qr_scan"}, "lon": -77.00792416666667, "type": "electric_bike", "fusion_lat": 0.0, "lat": 38.949227, "name": "b439fe35b2cab9638b8bfde06da01a9d", "fusion_lon": 0.0, "bike_id": "b439fe35b2cab9638b8bfde06da01a9d", "is_disabled": 0, "is_reserved": 0}, {"rental_uris": {"ios": "https://dc.lft.to/lastmile_qr_scan", "android": "https://dc.lft.to/lastmile_qr_scan"}, "lon": -77.00665883333333, "type": "electric_scooter", "fusion_lat": 0.0, "lat": 38.87489633333333, "name": "ed657f56d8348fbf712daec3f4004e49", "fusion_lon": 0.0, "bike_id": "ed657f56d8348fbf712daec3f4004e49", "is_disabled": 0, "is_reserved": 0}, {"rental_uris": {"ios": "https://dc.lft.to/lastmile_qr_scan", "android": "https://dc.lft.to/lastmile_qr_scan"}, "lon": -77.039287, "type": "electric_scooter", "fusion_lat": 0.0, "lat": 38.926216333333336, "name": "ffbb1324362219f24a9c990c0e8104e1", "fusion_lon": 0.0, "bike_id": "ffbb1324362219f24a9c990c0e8104e1", "is_disabled": 0, "is_reserved": 0}, {"rental_uris": {"ios": "https://dc.lft.to/lastmile_qr_scan", "android": "https://dc.lft.to/lastmile_qr_scan"}, "lon": -77.0276745, "type": "electric_scooter", "fusion_lat": 0.0, "lat": 38.89202383333333, "name": "fef6e6e05ad0773a9c02f06c95f4702a", "fusion_lon": 0.0, "bike_id": "fef6e6e05ad0773a9c02f06c95f4702a", "is_disabled": 0, "is_reserved": 0}, {"rental_uris": {"ios": "https://dc.lft.to/lastmile_qr_scan", "android": "https://dc.lft.to/lastmile_qr_scan"}, "lon": -77.03847483333334, "type": "electric_scooter", "fusion_lat": 0.0, "lat": 38.90382566666667, "name": "0661886c896e8aebdafffc95d1e9386e", "fusion_lon": 0.0, "bike_id": "0661886c896e8aebdafffc95d1e9386e", "is_disabled": 0, "is_reserved": 0}, {"rental_uris": {"ios": "https://dc.lft.to/lastmile_qr_scan", "android": "https://dc.lft.to/lastmile_qr_scan"}, "lon": -77.14121983333334, "type": "electric_bike", "fusion_lat": 0.0, "lat": 38.8160235, "name": "2c13b03c86d33514864650561ef72aea", "fusion_lon": 0.0, "bike_id": "2c13b03c86d33514864650561ef72aea", "is_disabled": 0, "is_reserved": 0}, {"rental_uris": {"ios": "https://dc.lft.to/lastmile_qr_scan", "android": "https://dc.lft.to/lastmile_qr_scan"}, "lon": -77.04460116666667, "type": "electric_scooter", "fusion_lat": 0.0, "lat": 38.915434, "name": "2b653b8850bc8464fa0adb314f50f3a6", "fusion_lon": 0.0, "bike_id": "2b653b8850bc8464fa0adb314f50f3a6", "is_disabled": 0, "is_reserved": 0}, {"rental_uris": {"ios": "https://dc.lft.to/lastmile_qr_scan", "android": "https://dc.lft.to/lastmile_qr_scan"}, "lon": -77.00656383333333, "type": "electric_scooter", "fusion_lat": 0.0, "lat": 38.944618166666665, "name": "e144ff91cdd06b13262899dbc3c44694", "fusion_lon": 0.0, "bike_id": "e144ff91cdd06b13262899dbc3c44694", "is_disabled": 0, "is_reserved": 0}, {"rental_uris": {"ios": "https://dc.lft.to/lastmile_qr_scan", "android": "https://dc.lft.to/lastmile_qr_scan"}, "lon": -76.98415266666666, "type": "electric_scooter", "fusion_lat": 0.0, "lat": 38.85973333333333, "name": "7d3e337d49fa56a908367fa3ef33f602", "fusion_lon": 0.0, "bike_id": "7d3e337d49fa56a908367fa3ef33f602", "is_disabled": 0, "is_reserved": 0}, {"rental_uris": {"ios": "https://dc.lft.to/lastmile_qr_scan", "android": "https://dc.lft.to/lastmile_qr_scan"}, "lon": -77.05512116666667, "type": "electric_scooter", "fusion_lat": 0.0, "lat": 38.899341166666666, "name": "c8af5ce2db53743b9cd9821e915d6451", "fusion_lon": 0.0, "bike_id": "c8af5ce2db53743b9cd9821e915d6451", "is_disabled": 0, "is_reserved": 0}, {"rental_uris": {"ios": "https://dc.lft.to/lastmile_qr_scan", "android": "https://dc.lft.to/lastmile_qr_scan"}, "lon": -77.02212533333334, "type": "electric_scooter", "fusion_lat": 0.0, "lat": 38.887697833333334, "name": "877616b0e9151a7a43548a498995cf60", "fusion_lon": 0.0, "bike_id": "877616b0e9151a7a43548a498995cf60", "is_disabled": 0, "is_reserved": 0}, {"rental_uris": {"ios": "https://dc.lft.to/lastmile_qr_scan", "android": "https://dc.lft.to/lastmile_qr_scan"}, "lon": -77.08946183333333, "type": "electric_bike", "fusion_lat": 0.0, "lat": 38.841072, "name": "7173d8ea84f205124447f9982c9fa467", "fusion_lon": 0.0, "bike_id": "7173d8ea84f205124447f9982c9fa467", "is_disabled": 0, "is_reserved": 0}, {"rental_uris": {"ios": "https://dc.lft.to/lastmile_qr_scan", "android": "https://dc.lft.to/lastmile_qr_scan"}, "lon": -77.00274016666667, "type": "electric_scooter", "fusion_lat": 0.0, "lat": 38.89738883333333, "name": "acd630e9bdb86f20f4b11915d4e6c225", "fusion_lon": 0.0, "bike_id": "acd630e9bdb86f20f4b11915d4e6c225", "is_disabled": 0, "is_reserved": 0}, {"rental_uris": {"ios": "https://dc.lft.to/lastmile_qr_scan", "android": "https://dc.lft.to/lastmile_qr_scan"}, "lon": -77.030834, "type": "electric_scooter", "fusion_lat": 0.0, "lat": 38.90038083333334, "name": "a6cb6ad7b2bc95d2be68544a4d4f5cc3", "fusion_lon": 0.0, "bike_id": "a6cb6ad7b2bc95d2be68544a4d4f5cc3", "is_disabled": 0, "is_reserved": 0}, {"rental_uris": {"ios": "https://dc.lft.to/lastmile_qr_scan", "android": "https://dc.lft.to/lastmile_qr_scan"}, "lon": -77.1050445, "type": "electric_bike", "fusion_lat": 0.0, "lat": 38.928460333333334, "name": "ad8d45bf57dc8621c6f34b2d8ca6bcdc", "fusion_lon": 0.0, "bike_id": "ad8d45bf57dc8621c6f34b2d8ca6bcdc", "is_disabled": 0, "is_reserved": 0}, {"rental_uris": {"ios": "https://dc.lft.to/lastmile_qr_scan", "android": "https://dc.lft.to/lastmile_qr_scan"}, "lon": -76.93174416666666, "type": "electric_scooter", "fusion_lat": 0.0, "lat": 38.89884766666667, "name": "eabdd6ad4cb0811042ed76a741d6af9d", "fusion_lon": 0.0, "bike_id": "eabdd6ad4cb0811042ed76a741d6af9d", "is_disabled": 0, "is_reserved": 0}, {"rental_uris": {"ios": "https://dc.lft.to/lastmile_qr_scan", "android": "https://dc.lft.to/lastmile_qr_scan"}, "lon": -77.03263083333333, "type": "electric_scooter", "fusion_lat": 0.0, "lat": 38.927409833333336, "name": "7f9c84824d4d33cef039f94db0736162", "fusion_lon": 0.0, "bike_id": "7f9c84824d4d33cef039f94db0736162", "is_disabled": 0, "is_reserved": 0}, {"rental_uris": {"ios": "https://dc.lft.to/lastmile_qr_scan", "android": "https://dc.lft.to/lastmile_qr_scan"}, "lon": -77.02656, "type": "electric_scooter", "fusion_lat": 0.0, "lat": 38.88118033333333, "name": "c4e7237da74948b1462cc7cbb86fcfe8", "fusion_lon": 0.0, "bike_id": "c4e7237da74948b1462cc7cbb86fcfe8", "is_disabled": 0, "is_reserved": 0}, {"rental_uris": {"ios": "https://dc.lft.to/lastmile_qr_scan", "android": "https://dc.lft.to/lastmile_qr_scan"}, "lon": -77.02108516666667, "type": "electric_scooter", "fusion_lat": 0.0, "lat": 38.931178333333335, "name": "e627f5663d940eb180a32b54f437e878", "fusion_lon": 0.0, "bike_id": "e627f5663d940eb180a32b54f437e878", "is_disabled": 0, "is_reserved": 0}, {"rental_uris": {"ios": "https://dc.lft.to/lastmile_qr_scan", "android": "https://dc.lft.to/lastmile_qr_scan"}, "lon": -77.00033216666667, "type": "electric_scooter", "fusion_lat": 0.0, "lat": 38.876393166666666, "name": "7ee8f6c68827021390eddc670cb472de", "fusion_lon": 0.0, "bike_id": "7ee8f6c68827021390eddc670cb472de", "is_disabled": 0, "is_reserved": 0}, {"rental_uris": {"ios": "https://dc.lft.to/lastmile_qr_scan", "android": "https://dc.lft.to/lastmile_qr_scan"}, "lon": -77.03791366666667, "type": "electric_scooter", "fusion_lat": 0.0, "lat": 38.930256666666665, "name": "8ffeadfd034c53da3e76b99fe49de1be", "fusion_lon": 0.0, "bike_id": "8ffeadfd034c53da3e76b99fe49de1be", "is_disabled": 0, "is_reserved": 0}, {"rental_uris": {"ios": "https://dc.lft.to/lastmile_qr_scan", "android": "https://dc.lft.to/lastmile_qr_scan"}, "lon": -77.0160405, "type": "electric_scooter", "fusion_lat": 0.0, "lat": 38.91130166666667, "name": "1f4526372510a2f46abbaac0c1c8b9d2", "fusion_lon": 0.0, "bike_id": "1f4526372510a2f46abbaac0c1c8b9d2", "is_disabled": 0, "is_reserved": 0}, {"rental_uris": {"ios": "https://dc.lft.to/lastmile_qr_scan", "android": "https://dc.lft.to/lastmile_qr_scan"}, "lon": -77.033804, "type": "electric_scooter", "fusion_lat": 0.0, "lat": 38.909856166666664, "name": "4747b15b573a7d44e2b9c01539a6e846", "fusion_lon": 0.0, "bike_id": "4747b15b573a7d44e2b9c01539a6e846", "is_disabled": 0, "is_reserved": 0}, {"rental_uris": {"ios": "https://dc.lft.to/lastmile_qr_scan", "android": "https://dc.lft.to/lastmile_qr_scan"}, "lon": -77.03819966666667, "type": "electric_scooter", "fusion_lat": 0.0, "lat": 38.931125333333334, "name": "8d5927b465e6d25536eb4cce117fc2f7", "fusion_lon": 0.0, "bike_id": "8d5927b465e6d25536eb4cce117fc2f7", "is_disabled": 0, "is_reserved": 0}, {"rental_uris": {"ios": "https://dc.lft.to/lastmile_qr_scan", "android": "https://dc.lft.to/lastmile_qr_scan"}, "lon": -76.9823585, "type": "electric_scooter", "fusion_lat": 0.0, "lat": 38.867641166666665, "name": "d0ffa36d4633eb48bfa11dafc05af79b", "fusion_lon": 0.0, "bike_id": "d0ffa36d4633eb48bfa11dafc05af79b", "is_disabled": 0, "is_reserved": 0}, {"rental_uris": {"ios": "https://dc.lft.to/lastmile_qr_scan", "android": "https://dc.lft.to/lastmile_qr_scan"}, "lon": -77.026078, "type": "electric_scooter", "fusion_lat": 0.0, "lat": 38.916737166666664, "name": "be058658a0398de201e63d4f74c88773", "fusion_lon": 0.0, "bike_id": "be058658a0398de201e63d4f74c88773", "is_disabled": 0, "is_reserved": 0}, {"rental_uris": {"ios": "https://dc.lft.to/lastmile_qr_scan", "android": "https://dc.lft.to/lastmile_qr_scan"}, "lon": -76.98761366666666, "type": "electric_scooter", "fusion_lat": 0.0, "lat": 38.84503616666667, "name": "1d40bfeb937506d7a3f685c121d9ab81", "fusion_lon": 0.0, "bike_id": "1d40bfeb937506d7a3f685c121d9ab81", "is_disabled": 0, "is_reserved": 0}, {"rental_uris": {"ios": "https://dc.lft.to/lastmile_qr_scan", "android": "https://dc.lft.to/lastmile_qr_scan"}, "lon": -77.04619666666666, "type": "electric_scooter", "fusion_lat": 0.0, "lat": 38.9096935, "name": "768a0ff591e70a6fc165d8d92d50024a", "fusion_lon": 0.0, "bike_id": "768a0ff591e70a6fc165d8d92d50024a", "is_disabled": 0, "is_reserved": 0}, {"rental_uris": {"ios": "https://dc.lft.to/lastmile_qr_scan", "android": "https://dc.lft.to/lastmile_qr_scan"}, "lon": -77.055068, "type": "electric_scooter", "fusion_lat": 0.0, "lat": 38.9283855, "name": "8ef3d434c3460007c6e88b99b232952e", "fusion_lon": 0.0, "bike_id": "8ef3d434c3460007c6e88b99b232952e", "is_disabled": 0, "is_reserved": 0}, {"rental_uris": {"ios": "https://dc.lft.to/lastmile_qr_scan", "android": "https://dc.lft.to/lastmile_qr_scan"}, "lon": -77.03362233333333, "type": "electric_scooter", "fusion_lat": 0.0, "lat": 38.9287375, "name": "c60875b29e0abf264bf913f7c78f0dd6", "fusion_lon": 0.0, "bike_id": "c60875b29e0abf264bf913f7c78f0dd6", "is_disabled": 0, "is_reserved": 0}, {"rental_uris": {"ios": "https://dc.lft.to/lastmile_qr_scan", "android": "https://dc.lft.to/lastmile_qr_scan"}, "lon": -77.0257425, "type": "electric_scooter", "fusion_lat": 0.0, "lat": 38.887444, "name": "6650d19417e48ea57acfbb94ad29a1f9", "fusion_lon": 0.0, "bike_id": "6650d19417e48ea57acfbb94ad29a1f9", "is_disabled": 0, "is_reserved": 0}, {"rental_uris": {"ios": "https://dc.lft.to/lastmile_qr_scan", "android": "https://dc.lft.to/lastmile_qr_scan"}, "lon": -77.05754033333334, "type": "electric_scooter", "fusion_lat": 0.0, "lat": 38.934148666666665, "name": "e278739c8ad7eb95686c120915b41a5f", "fusion_lon": 0.0, "bike_id": "e278739c8ad7eb95686c120915b41a5f", "is_disabled": 0, "is_reserved": 0}, {"rental_uris": {"ios": "https://dc.lft.to/lastmile_qr_scan", "android": "https://dc.lft.to/lastmile_qr_scan"}, "lon": -77.035138, "type": "electric_scooter", "fusion_lat": 0.0, "lat": 38.93583533333333, "name": "f065883a29aec12adaf70ad6e157f455", "fusion_lon": 0.0, "bike_id": "f065883a29aec12adaf70ad6e157f455", "is_disabled": 0, "is_reserved": 0}, {"rental_uris": {"ios": "https://dc.lft.to/lastmile_qr_scan", "android": "https://dc.lft.to/lastmile_qr_scan"}, "lon": -77.07188916666667, "type": "electric_scooter", "fusion_lat": 0.0, "lat": 38.9199595, "name": "21e90a2a209e71dff7101140e2160a08", "fusion_lon": 0.0, "bike_id": "21e90a2a209e71dff7101140e2160a08", "is_disabled": 0, "is_reserved": 0}, {"rental_uris": {"ios": "https://dc.lft.to/lastmile_qr_scan", "android": "https://dc.lft.to/lastmile_qr_scan"}, "lon": -77.0326535, "type": "electric_bike", "fusion_lat": 0.0, "lat": 38.935692333333336, "name": "01c0b17ead20c49c0e6b4a6f3b96b76f", "fusion_lon": 0.0, "bike_id": "01c0b17ead20c49c0e6b4a6f3b96b76f", "is_disabled": 0, "is_reserved": 0}, {"rental_uris": {"ios": "https://dc.lft.to/lastmile_qr_scan", "android": "https://dc.lft.to/lastmile_qr_scan"}, "lon": -76.98362116666667, "type": "electric_scooter", "fusion_lat": 0.0, "lat": 38.88271316666667, "name": "563812a8ebe5e86735889724ff56d31b", "fusion_lon": 0.0, "bike_id": "563812a8ebe5e86735889724ff56d31b", "is_disabled": 0, "is_reserved": 0}, {"rental_uris": {"ios": "https://dc.lft.to/lastmile_qr_scan", "android": "https://dc.lft.to/lastmile_qr_scan"}, "lon": -76.999222, "type": "electric_scooter", "fusion_lat": 0.0, "lat": 38.90908566666667, "name": "7acb5849d724cfc0627d4214d870c263", "fusion_lon": 0.0, "bike_id": "7acb5849d724cfc0627d4214d870c263", "is_disabled": 0, "is_reserved": 0}, {"rental_uris": {"ios": "https://dc.lft.to/lastmile_qr_scan", "android": "https://dc.lft.to/lastmile_qr_scan"}, "lon": -77.033075, "type": "electric_scooter", "fusion_lat": 0.0, "lat": 38.9048695, "name": "3195ac2d699d7082a8d550402dfacf97", "fusion_lon": 0.0, "bike_id": "3195ac2d699d7082a8d550402dfacf97", "is_disabled": 0, "is_reserved": 0}, {"rental_uris": {"ios": "https://dc.lft.to/lastmile_qr_scan", "android": "https://dc.lft.to/lastmile_qr_scan"}, "lon": -77.01076416666666, "type": "electric_scooter", "fusion_lat": 0.0, "lat": 38.894984, "name": "3e98091632b7bfca13a5ec876646fa43", "fusion_lon": 0.0, "bike_id": "3e98091632b7bfca13a5ec876646fa43", "is_disabled": 0, "is_reserved": 0}, {"rental_uris": {"ios": "https://dc.lft.to/lastmile_qr_scan", "android": "https://dc.lft.to/lastmile_qr_scan"}, "lon": -77.01210833333333, "type": "electric_scooter", "fusion_lat": 0.0, "lat": 38.870892166666664, "name": "051bf36026979ac779991908c96a132b", "fusion_lon": 0.0, "bike_id": "051bf36026979ac779991908c96a132b", "is_disabled": 0, "is_reserved": 0}, {"rental_uris": {"ios": "https://dc.lft.to/lastmile_qr_scan", "android": "https://dc.lft.to/lastmile_qr_scan"}, "lon": -77.041648, "type": "electric_scooter", "fusion_lat": 0.0, "lat": 38.90546666666667, "name": "d3e36dfa75883411d948bddda6c47f3d", "fusion_lon": 0.0, "bike_id": "d3e36dfa75883411d948bddda6c47f3d", "is_disabled": 0, "is_reserved": 0}, {"rental_uris": {"ios": "https://dc.lft.to/lastmile_qr_scan", "android": "https://dc.lft.to/lastmile_qr_scan"}, "lon": -77.0186745, "type": "electric_scooter", "fusion_lat": 0.0, "lat": 38.915748666666666, "name": "f6527990e66b9b862b59ca93082c095c", "fusion_lon": 0.0, "bike_id": "f6527990e66b9b862b59ca93082c095c", "is_disabled": 0, "is_reserved": 0}, {"rental_uris": {"ios": "https://dc.lft.to/lastmile_qr_scan", "android": "https://dc.lft.to/lastmile_qr_scan"}, "lon": -77.0195015, "type": "electric_scooter", "fusion_lat": 0.0, "lat": 38.90359483333334, "name": "ba561293ab697c149fb9a7f1d1fd5f40", "fusion_lon": 0.0, "bike_id": "ba561293ab697c149fb9a7f1d1fd5f40", "is_disabled": 0, "is_reserved": 0}, {"rental_uris": {"ios": "https://dc.lft.to/lastmile_qr_scan", "android": "https://dc.lft.to/lastmile_qr_scan"}, "lon": -77.04119933333334, "type": "electric_scooter", "fusion_lat": 0.0, "lat": 38.9245415, "name": "10e4ad6ee1a5aaaf67644621eede3921", "fusion_lon": 0.0, "bike_id": "10e4ad6ee1a5aaaf67644621eede3921", "is_disabled": 0, "is_reserved": 0}, {"rental_uris": {"ios": "https://dc.lft.to/lastmile_qr_scan", "android": "https://dc.lft.to/lastmile_qr_scan"}, "lon": -77.07893716666666, "type": "electric_scooter", "fusion_lat": 0.0, "lat": 38.91927, "name": "4a541b50cb47d57d715ac08f53290f56", "fusion_lon": 0.0, "bike_id": "4a541b50cb47d57d715ac08f53290f56", "is_disabled": 0, "is_reserved": 0}, {"rental_uris": {"ios": "https://dc.lft.to/lastmile_qr_scan", "android": "https://dc.lft.to/lastmile_qr_scan"}, "lon": -77.03447216666666, "type": "electric_scooter", "fusion_lat": 0.0, "lat": 38.90949533333333, "name": "98ac60655077ef8e0ba182f5817670d5", "fusion_lon": 0.0, "bike_id": "98ac60655077ef8e0ba182f5817670d5", "is_disabled": 0, "is_reserved": 0}, {"rental_uris": {"ios": "https://dc.lft.to/lastmile_qr_scan", "android": "https://dc.lft.to/lastmile_qr_scan"}, "lon": -77.0025605, "type": "electric_scooter", "fusion_lat": 0.0, "lat": 38.91273266666666, "name": "6101f10158e25810c1246254f8c8302d", "fusion_lon": 0.0, "bike_id": "6101f10158e25810c1246254f8c8302d", "is_disabled": 0, "is_reserved": 0}, {"rental_uris": {"ios": "https://dc.lft.to/lastmile_qr_scan", "android": "https://dc.lft.to/lastmile_qr_scan"}, "lon": -77.0344385, "type": "electric_scooter", "fusion_lat": 0.0, "lat": 38.90346433333333, "name": "44da91fa466518eba37e652707ffb7fc", "fusion_lon": 0.0, "bike_id": "44da91fa466518eba37e652707ffb7fc", "is_disabled": 0, "is_reserved": 0}, {"rental_uris": {"ios": "https://dc.lft.to/lastmile_qr_scan", "android": "https://dc.lft.to/lastmile_qr_scan"}, "lon": -77.03263283333334, "type": "electric_scooter", "fusion_lat": 0.0, "lat": 38.927425666666664, "name": "cc492500fb9feee3dd2a25afc8bf2850", "fusion_lon": 0.0, "bike_id": "cc492500fb9feee3dd2a25afc8bf2850", "is_disabled": 0, "is_reserved": 0}, {"rental_uris": {"ios": "https://dc.lft.to/lastmile_qr_scan", "android": "https://dc.lft.to/lastmile_qr_scan"}, "lon": -76.937177, "type": "electric_scooter", "fusion_lat": 0.0, "lat": 38.89586833333333, "name": "fbc903920f034869bb1d1401ebacaca2", "fusion_lon": 0.0, "bike_id": "fbc903920f034869bb1d1401ebacaca2", "is_disabled": 0, "is_reserved": 0}, {"rental_uris": {"ios": "https://dc.lft.to/lastmile_qr_scan", "android": "https://dc.lft.to/lastmile_qr_scan"}, "lon": -77.029616, "type": "electric_scooter", "fusion_lat": 0.0, "lat": 38.92330466666667, "name": "f036c97884d564572763db1a6039bd15", "fusion_lon": 0.0, "bike_id": "f036c97884d564572763db1a6039bd15", "is_disabled": 0, "is_reserved": 0}, {"rental_uris": {"ios": "https://dc.lft.to/lastmile_qr_scan", "android": "https://dc.lft.to/lastmile_qr_scan"}, "lon": -76.97415633333334, "type": "electric_scooter", "fusion_lat": 0.0, "lat": 38.90158783333333, "name": "e45a8dee93b33552ef5a6d7fd923a0d1", "fusion_lon": 0.0, "bike_id": "e45a8dee93b33552ef5a6d7fd923a0d1", "is_disabled": 0, "is_reserved": 0}, {"rental_uris": {"ios": "https://dc.lft.to/lastmile_qr_scan", "android": "https://dc.lft.to/lastmile_qr_scan"}, "lon": -76.97619666666667, "type": "electric_bike", "fusion_lat": 0.0, "lat": 38.895767666666664, "name": "1681790cf9202d98c2c1c76e84ca424f", "fusion_lon": 0.0, "bike_id": "1681790cf9202d98c2c1c76e84ca424f", "is_disabled": 0, "is_reserved": 0}, {"rental_uris": {"ios": "https://dc.lft.to/lastmile_qr_scan", "android": "https://dc.lft.to/lastmile_qr_scan"}, "lon": -77.03495816666667, "type": "electric_scooter", "fusion_lat": 0.0, "lat": 38.903705333333335, "name": "fd672c4e3fb3a9c515576677fd5e6b37", "fusion_lon": 0.0, "bike_id": "fd672c4e3fb3a9c515576677fd5e6b37", "is_disabled": 0, "is_reserved": 0}, {"rental_uris": {"ios": "https://dc.lft.to/lastmile_qr_scan", "android": "https://dc.lft.to/lastmile_qr_scan"}, "lon": -77.04668416666667, "type": "electric_scooter", "fusion_lat": 0.0, "lat": 38.913173666666665, "name": "fea0a12035175d415a319af8d5697dc7", "fusion_lon": 0.0, "bike_id": "fea0a12035175d415a319af8d5697dc7", "is_disabled": 0, "is_reserved": 0}, {"rental_uris": {"ios": "https://dc.lft.to/lastmile_qr_scan", "android": "https://dc.lft.to/lastmile_qr_scan"}, "lon": -77.00240616666666, "type": "electric_scooter", "fusion_lat": 0.0, "lat": 38.911821833333335, "name": "1ebd954ddf2421ec8ace6fcd8a93012e", "fusion_lon": 0.0, "bike_id": "1ebd954ddf2421ec8ace6fcd8a93012e", "is_disabled": 0, "is_reserved": 0}, {"rental_uris": {"ios": "https://dc.lft.to/lastmile_qr_scan", "android": "https://dc.lft.to/lastmile_qr_scan"}, "lon": -77.08829266666666, "type": "electric_bike", "fusion_lat": 0.0, "lat": 38.909737666666665, "name": "1e71d65c5d2b32fa3d94cfb29c04452d", "fusion_lon": 0.0, "bike_id": "1e71d65c5d2b32fa3d94cfb29c04452d", "is_disabled": 0, "is_reserved": 0}, {"rental_uris": {"ios": "https://dc.lft.to/lastmile_qr_scan", "android": "https://dc.lft.to/lastmile_qr_scan"}, "lon": -77.0512005, "type": "electric_bike", "fusion_lat": 0.0, "lat": 38.999658333333336, "name": "8fe07baa04dea14b917747510f0ef654", "fusion_lon": 0.0, "bike_id": "8fe07baa04dea14b917747510f0ef654", "is_disabled": 0, "is_reserved": 0}, {"rental_uris": {"ios": "https://dc.lft.to/lastmile_qr_scan", "android": "https://dc.lft.to/lastmile_qr_scan"}, "lon": -77.02446683333334, "type": "electric_scooter", "fusion_lat": 0.0, "lat": 38.91838966666667, "name": "d02375feb7ac598146d900f2a4ebb0a9", "fusion_lon": 0.0, "bike_id": "d02375feb7ac598146d900f2a4ebb0a9", "is_disabled": 0, "is_reserved": 0}, {"rental_uris": {"ios": "https://dc.lft.to/lastmile_qr_scan", "android": "https://dc.lft.to/lastmile_qr_scan"}, "lon": -77.01637266666667, "type": "electric_scooter", "fusion_lat": 0.0, "lat": 38.903364333333336, "name": "278404bae560061d0d069b6517fc26ff", "fusion_lon": 0.0, "bike_id": "278404bae560061d0d069b6517fc26ff", "is_disabled": 0, "is_reserved": 0}, {"rental_uris": {"ios": "https://dc.lft.to/lastmile_qr_scan", "android": "https://dc.lft.to/lastmile_qr_scan"}, "lon": -77.03448883333333, "type": "electric_scooter", "fusion_lat": 0.0, "lat": 38.909472666666666, "name": "3b05972f2f8638bb88be486a49269493", "fusion_lon": 0.0, "bike_id": "3b05972f2f8638bb88be486a49269493", "is_disabled": 0, "is_reserved": 0}, {"rental_uris": {"ios": "https://dc.lft.to/lastmile_qr_scan", "android": "https://dc.lft.to/lastmile_qr_scan"}, "lon": -76.9861165, "type": "electric_bike", "fusion_lat": 0.0, "lat": 38.9062535, "name": "81a8db48373a7a09d12e133665e4e6ef", "fusion_lon": 0.0, "bike_id": "81a8db48373a7a09d12e133665e4e6ef", "is_disabled": 0, "is_reserved": 0}, {"rental_uris": {"ios": "https://dc.lft.to/lastmile_qr_scan", "android": "https://dc.lft.to/lastmile_qr_scan"}, "lon": -76.96873916666667, "type": "electric_scooter", "fusion_lat": 0.0, "lat": 38.92441016666667, "name": "25684116ec9057a88f98bd0309b7cf90", "fusion_lon": 0.0, "bike_id": "25684116ec9057a88f98bd0309b7cf90", "is_disabled": 0, "is_reserved": 0}, {"rental_uris": {"ios": "https://dc.lft.to/lastmile_qr_scan", "android": "https://dc.lft.to/lastmile_qr_scan"}, "lon": -77.024226, "type": "electric_scooter", "fusion_lat": 0.0, "lat": 38.91820716666667, "name": "e415d0a8e397c2d2b9815e8bb21ed8d2", "fusion_lon": 0.0, "bike_id": "e415d0a8e397c2d2b9815e8bb21ed8d2", "is_disabled": 0, "is_reserved": 0}, {"rental_uris": {"ios": "https://dc.lft.to/lastmile_qr_scan", "android": "https://dc.lft.to/lastmile_qr_scan"}, "lon": -77.02043183333333, "type": "electric_scooter", "fusion_lat": 0.0, "lat": 38.915574166666666, "name": "9f6ce330f0d3a2792ff0b874443a8194", "fusion_lon": 0.0, "bike_id": "9f6ce330f0d3a2792ff0b874443a8194", "is_disabled": 0, "is_reserved": 0}, {"rental_uris": {"ios": "https://dc.lft.to/lastmile_qr_scan", "android": "https://dc.lft.to/lastmile_qr_scan"}, "lon": -77.0332725, "type": "electric_scooter", "fusion_lat": 0.0, "lat": 38.899050333333335, "name": "3245aae8e13dc1389dd7ff98d06e86a4", "fusion_lon": 0.0, "bike_id": "3245aae8e13dc1389dd7ff98d06e86a4", "is_disabled": 0, "is_reserved": 0}, {"rental_uris": {"ios": "https://dc.lft.to/lastmile_qr_scan", "android": "https://dc.lft.to/lastmile_qr_scan"}, "lon": -77.07169716666667, "type": "electric_scooter", "fusion_lat": 0.0, "lat": 38.9077855, "name": "6922e48eda20aad211c27666da3df875", "fusion_lon": 0.0, "bike_id": "6922e48eda20aad211c27666da3df875", "is_disabled": 0, "is_reserved": 0}, {"rental_uris": {"ios": "https://dc.lft.to/lastmile_qr_scan", "android": "https://dc.lft.to/lastmile_qr_scan"}, "lon": -77.048813, "type": "electric_scooter", "fusion_lat": 0.0, "lat": 38.905988, "name": "0c0ded25d0751009031cf7530134cfd9", "fusion_lon": 0.0, "bike_id": "0c0ded25d0751009031cf7530134cfd9", "is_disabled": 0, "is_reserved": 0}, {"rental_uris": {"ios": "https://dc.lft.to/lastmile_qr_scan", "android": "https://dc.lft.to/lastmile_qr_scan"}, "lon": -77.03419566666666, "type": "electric_scooter", "fusion_lat": 0.0, "lat": 38.93538483333333, "name": "b52de68dc2a1ccce2920a7974f193735", "fusion_lon": 0.0, "bike_id": "b52de68dc2a1ccce2920a7974f193735", "is_disabled": 0, "is_reserved": 0}, {"rental_uris": {"ios": "https://dc.lft.to/lastmile_qr_scan", "android": "https://dc.lft.to/lastmile_qr_scan"}, "lon": -77.02967583333333, "type": "electric_scooter", "fusion_lat": 0.0, "lat": 38.8920105, "name": "4f8790750b71692d2add9cb969c059c9", "fusion_lon": 0.0, "bike_id": "4f8790750b71692d2add9cb969c059c9", "is_disabled": 0, "is_reserved": 0}, {"rental_uris": {"ios": "https://dc.lft.to/lastmile_qr_scan", "android": "https://dc.lft.to/lastmile_qr_scan"}, "lon": -76.9783105, "type": "electric_bike", "fusion_lat": 0.0, "lat": 38.8460705, "name": "b61afbea49d917ede155d24225aa7db4", "fusion_lon": 0.0, "bike_id": "b61afbea49d917ede155d24225aa7db4", "is_disabled": 0, "is_reserved": 0}, {"rental_uris": {"ios": "https://dc.lft.to/lastmile_qr_scan", "android": "https://dc.lft.to/lastmile_qr_scan"}, "lon": -77.03154283333333, "type": "electric_scooter", "fusion_lat": 0.0, "lat": 38.91036283333333, "name": "d5f4bf55d2fc2944e4dd0477892c15c7", "fusion_lon": 0.0, "bike_id": "d5f4bf55d2fc2944e4dd0477892c15c7", "is_disabled": 0, "is_reserved": 0}, {"rental_uris": {"ios": "https://dc.lft.to/lastmile_qr_scan", "android": "https://dc.lft.to/lastmile_qr_scan"}, "lon": -77.0433045, "type": "electric_scooter", "fusion_lat": 0.0, "lat": 38.903659833333336, "name": "5da9d9efd4c33ddce9fa57e9c52f78f2", "fusion_lon": 0.0, "bike_id": "5da9d9efd4c33ddce9fa57e9c52f78f2", "is_disabled": 0, "is_reserved": 0}, {"rental_uris": {"ios": "https://dc.lft.to/lastmile_qr_scan", "android": "https://dc.lft.to/lastmile_qr_scan"}, "lon": -76.98396683333333, "type": "electric_bike", "fusion_lat": 0.0, "lat": 38.9220355, "name": "391f5620230f4209bbf7713fe042d783", "fusion_lon": 0.0, "bike_id": "391f5620230f4209bbf7713fe042d783", "is_disabled": 0, "is_reserved": 0}, {"rental_uris": {"ios": "https://dc.lft.to/lastmile_qr_scan", "android": "https://dc.lft.to/lastmile_qr_scan"}, "lon": -77.12624216666667, "type": "electric_bike", "fusion_lat": 0.0, "lat": 39.05811666666666, "name": "897e1d80f827febcc7a2baed46955ef2", "fusion_lon": 0.0, "bike_id": "897e1d80f827febcc7a2baed46955ef2", "is_disabled": 0, "is_reserved": 0}, {"rental_uris": {"ios": "https://dc.lft.to/lastmile_qr_scan", "android": "https://dc.lft.to/lastmile_qr_scan"}, "lon": -77.02518083333334, "type": "electric_scooter", "fusion_lat": 0.0, "lat": 38.9196585, "name": "6a935ca122b3c17b79a4e64d7fd6c4a7", "fusion_lon": 0.0, "bike_id": "6a935ca122b3c17b79a4e64d7fd6c4a7", "is_disabled": 0, "is_reserved": 0}, {"rental_uris": {"ios": "https://dc.lft.to/lastmile_qr_scan", "android": "https://dc.lft.to/lastmile_qr_scan"}, "lon": -77.032256, "type": "electric_scooter", "fusion_lat": 0.0, "lat": 38.89223766666667, "name": "19a84d011310ea8f88e208136897c6af", "fusion_lon": 0.0, "bike_id": "19a84d011310ea8f88e208136897c6af", "is_disabled": 0, "is_reserved": 0}, {"rental_uris": {"ios": "https://dc.lft.to/lastmile_qr_scan", "android": "https://dc.lft.to/lastmile_qr_scan"}, "lon": -77.02346783333333, "type": "electric_scooter", "fusion_lat": 0.0, "lat": 38.96208033333333, "name": "8801a5c00b470a2c5efb52caa5d586c3", "fusion_lon": 0.0, "bike_id": "8801a5c00b470a2c5efb52caa5d586c3", "is_disabled": 0, "is_reserved": 0}, {"rental_uris": {"ios": "https://dc.lft.to/lastmile_qr_scan", "android": "https://dc.lft.to/lastmile_qr_scan"}, "lon": -77.1250115, "type": "electric_bike", "fusion_lat": 0.0, "lat": 39.02423666666667, "name": "d1767ac4ea6f6aea4055fdcde29fe071", "fusion_lon": 0.0, "bike_id": "d1767ac4ea6f6aea4055fdcde29fe071", "is_disabled": 0, "is_reserved": 0}, {"rental_uris": {"ios": "https://dc.lft.to/lastmile_qr_scan", "android": "https://dc.lft.to/lastmile_qr_scan"}, "lon": -77.00599116666666, "type": "electric_scooter", "fusion_lat": 0.0, "lat": 38.915777, "name": "e1fae3fcf8ff385b23a14add908b6fa7", "fusion_lon": 0.0, "bike_id": "e1fae3fcf8ff385b23a14add908b6fa7", "is_disabled": 0, "is_reserved": 0}, {"rental_uris": {"ios": "https://dc.lft.to/lastmile_qr_scan", "android": "https://dc.lft.to/lastmile_qr_scan"}, "lon": -77.028471, "type": "electric_scooter", "fusion_lat": 0.0, "lat": 38.9308185, "name": "7965317b80d1a00bed0da3b418b530e0", "fusion_lon": 0.0, "bike_id": "7965317b80d1a00bed0da3b418b530e0", "is_disabled": 0, "is_reserved": 0}, {"rental_uris": {"ios": "https://dc.lft.to/lastmile_qr_scan", "android": "https://dc.lft.to/lastmile_qr_scan"}, "lon": -77.02609266666667, "type": "electric_scooter", "fusion_lat": 0.0, "lat": 38.903533, "name": "3991d934dde1294bf4399b67bf26531a", "fusion_lon": 0.0, "bike_id": "3991d934dde1294bf4399b67bf26531a", "is_disabled": 0, "is_reserved": 0}, {"rental_uris": {"ios": "https://dc.lft.to/lastmile_qr_scan", "android": "https://dc.lft.to/lastmile_qr_scan"}, "lon": -77.02293, "type": "electric_scooter", "fusion_lat": 0.0, "lat": 38.91571783333333, "name": "56a720608187baabf3a060692c5e15a6", "fusion_lon": 0.0, "bike_id": "56a720608187baabf3a060692c5e15a6", "is_disabled": 0, "is_reserved": 0}, {"rental_uris": {"ios": "https://dc.lft.to/lastmile_qr_scan", "android": "https://dc.lft.to/lastmile_qr_scan"}, "lon": -77.04244566666667, "type": "electric_scooter", "fusion_lat": 0.0, "lat": 38.907529333333336, "name": "91685ef0e6780731ed5c38374609f522", "fusion_lon": 0.0, "bike_id": "91685ef0e6780731ed5c38374609f522", "is_disabled": 0, "is_reserved": 0}, {"rental_uris": {"ios": "https://dc.lft.to/lastmile_qr_scan", "android": "https://dc.lft.to/lastmile_qr_scan"}, "lon": -77.22211366666667, "type": "electric_bike", "fusion_lat": 0.0, "lat": 38.920804, "name": "87508860134fa5ce8d13a895696cf7b8", "fusion_lon": 0.0, "bike_id": "87508860134fa5ce8d13a895696cf7b8", "is_disabled": 0, "is_reserved": 0}, {"rental_uris": {"ios": "https://dc.lft.to/lastmile_qr_scan", "android": "https://dc.lft.to/lastmile_qr_scan"}, "lon": -77.04392333333334, "type": "electric_scooter", "fusion_lat": 0.0, "lat": 38.9294935, "name": "62628df09c64268a5511b13390122983", "fusion_lon": 0.0, "bike_id": "62628df09c64268a5511b13390122983", "is_disabled": 0, "is_reserved": 0}, {"rental_uris": {"ios": "https://dc.lft.to/lastmile_qr_scan", "android": "https://dc.lft.to/lastmile_qr_scan"}, "lon": -77.03081, "type": "electric_scooter", "fusion_lat": 0.0, "lat": 38.922362666666665, "name": "917224bf0e3cf3cd2b830e23162a9b68", "fusion_lon": 0.0, "bike_id": "917224bf0e3cf3cd2b830e23162a9b68", "is_disabled": 0, "is_reserved": 0}, {"rental_uris": {"ios": "https://dc.lft.to/lastmile_qr_scan", "android": "https://dc.lft.to/lastmile_qr_scan"}, "lon": -77.03193883333333, "type": "electric_scooter", "fusion_lat": 0.0, "lat": 38.91341216666667, "name": "9f21a76aec8767c47d702792a3ad123c", "fusion_lon": 0.0, "bike_id": "9f21a76aec8767c47d702792a3ad123c", "is_disabled": 0, "is_reserved": 0}, {"rental_uris": {"ios": "https://dc.lft.to/lastmile_qr_scan", "android": "https://dc.lft.to/lastmile_qr_scan"}, "lon": -77.03894633333333, "type": "electric_scooter", "fusion_lat": 0.0, "lat": 38.923342166666664, "name": "e424dd4381e694e7dc6407e57c03ec11", "fusion_lon": 0.0, "bike_id": "e424dd4381e694e7dc6407e57c03ec11", "is_disabled": 0, "is_reserved": 0}, {"rental_uris": {"ios": "https://dc.lft.to/lastmile_qr_scan", "android": "https://dc.lft.to/lastmile_qr_scan"}, "lon": -77.0482165, "type": "electric_scooter", "fusion_lat": 0.0, "lat": 38.92043316666667, "name": "757e8cde5ab52cf16c6b1d8c76270f99", "fusion_lon": 0.0, "bike_id": "757e8cde5ab52cf16c6b1d8c76270f99", "is_disabled": 0, "is_reserved": 0}, {"rental_uris": {"ios": "https://dc.lft.to/lastmile_qr_scan", "android": "https://dc.lft.to/lastmile_qr_scan"}, "lon": -77.00072366666667, "type": "electric_scooter", "fusion_lat": 0.0, "lat": 38.9255035, "name": "132410b1374aee0786df1ee15e37ee3b", "fusion_lon": 0.0, "bike_id": "132410b1374aee0786df1ee15e37ee3b", "is_disabled": 0, "is_reserved": 0}, {"rental_uris": {"ios": "https://dc.lft.to/lastmile_qr_scan", "android": "https://dc.lft.to/lastmile_qr_scan"}, "lon": -76.9893485, "type": "electric_bike", "fusion_lat": 0.0, "lat": 38.928606, "name": "58d2ece10bc85df604ef38d1c4e265e7", "fusion_lon": 0.0, "bike_id": "58d2ece10bc85df604ef38d1c4e265e7", "is_disabled": 0, "is_reserved": 0}, {"rental_uris": {"ios": "https://dc.lft.to/lastmile_qr_scan", "android": "https://dc.lft.to/lastmile_qr_scan"}, "lon": -77.03213, "type": "electric_scooter", "fusion_lat": 0.0, "lat": 38.9171795, "name": "d5389d67996ab183222751466ac3ae19", "fusion_lon": 0.0, "bike_id": "d5389d67996ab183222751466ac3ae19", "is_disabled": 0, "is_reserved": 0}, {"rental_uris": {"ios": "https://dc.lft.to/lastmile_qr_scan", "android": "https://dc.lft.to/lastmile_qr_scan"}, "lon": -77.02104083333333, "type": "electric_scooter", "fusion_lat": 0.0, "lat": 38.934523166666665, "name": "5368b652ddc6018179c10654a43f707a", "fusion_lon": 0.0, "bike_id": "5368b652ddc6018179c10654a43f707a", "is_disabled": 0, "is_reserved": 0}, {"rental_uris": {"ios": "https://dc.lft.to/lastmile_qr_scan", "android": "https://dc.lft.to/lastmile_qr_scan"}, "lon": -76.94664716666666, "type": "electric_scooter", "fusion_lat": 0.0, "lat": 38.898693333333334, "name": "7ebc3a082a929a1bbeb82d17977b643f", "fusion_lon": 0.0, "bike_id": "7ebc3a082a929a1bbeb82d17977b643f", "is_disabled": 0, "is_reserved": 0}, {"rental_uris": {"ios": "https://dc.lft.to/lastmile_qr_scan", "android": "https://dc.lft.to/lastmile_qr_scan"}, "lon": -77.01188516666667, "type": "electric_scooter", "fusion_lat": 0.0, "lat": 38.91552633333333, "name": "98d071c522a5d2413218043e4e16df9b", "fusion_lon": 0.0, "bike_id": "98d071c522a5d2413218043e4e16df9b", "is_disabled": 0, "is_reserved": 0}, {"rental_uris": {"ios": "https://dc.lft.to/lastmile_qr_scan", "android": "https://dc.lft.to/lastmile_qr_scan"}, "lon": -76.9463615, "type": "electric_scooter", "fusion_lat": 0.0, "lat": 38.8983325, "name": "0d52b3a714875c24a081198894d48d33", "fusion_lon": 0.0, "bike_id": "0d52b3a714875c24a081198894d48d33", "is_disabled": 0, "is_reserved": 0}, {"rental_uris": {"ios": "https://dc.lft.to/lastmile_qr_scan", "android": "https://dc.lft.to/lastmile_qr_scan"}, "lon": -77.03642783333333, "type": "electric_scooter", "fusion_lat": 0.0, "lat": 38.90327766666667, "name": "8d35d2e8f5974a865a9dcb232a8a8e8c", "fusion_lon": 0.0, "bike_id": "8d35d2e8f5974a865a9dcb232a8a8e8c", "is_disabled": 0, "is_reserved": 0}, {"rental_uris": {"ios": "https://dc.lft.to/lastmile_qr_scan", "android": "https://dc.lft.to/lastmile_qr_scan"}, "lon": -77.03183866666667, "type": "electric_scooter", "fusion_lat": 0.0, "lat": 38.914629166666664, "name": "43de2a2869c2a04c3212b707da9ec1f7", "fusion_lon": 0.0, "bike_id": "43de2a2869c2a04c3212b707da9ec1f7", "is_disabled": 0, "is_reserved": 0}, {"rental_uris": {"ios": "https://dc.lft.to/lastmile_qr_scan", "android": "https://dc.lft.to/lastmile_qr_scan"}, "lon": -76.999275, "type": "electric_scooter", "fusion_lat": 0.0, "lat": 38.90909216666667, "name": "ff798a5126e14c0342c46584dcf4ba30", "fusion_lon": 0.0, "bike_id": "ff798a5126e14c0342c46584dcf4ba30", "is_disabled": 0, "is_reserved": 0}, {"rental_uris": {"ios": "https://dc.lft.to/lastmile_qr_scan", "android": "https://dc.lft.to/lastmile_qr_scan"}, "lon": -77.01380983333334, "type": "electric_scooter", "fusion_lat": 0.0, "lat": 38.92854533333333, "name": "03a48b41f8e07c828cd0aa7a8f486d65", "fusion_lon": 0.0, "bike_id": "03a48b41f8e07c828cd0aa7a8f486d65", "is_disabled": 0, "is_reserved": 0}, {"rental_uris": {"ios": "https://dc.lft.to/lastmile_qr_scan", "android": "https://dc.lft.to/lastmile_qr_scan"}, "lon": -76.98949966666666, "type": "electric_scooter", "fusion_lat": 0.0, "lat": 38.90135566666667, "name": "41be8d0df25da4e253f62aed42597604", "fusion_lon": 0.0, "bike_id": "41be8d0df25da4e253f62aed42597604", "is_disabled": 0, "is_reserved": 0}, {"rental_uris": {"ios": "https://dc.lft.to/lastmile_qr_scan", "android": "https://dc.lft.to/lastmile_qr_scan"}, "lon": -77.028474, "type": "electric_scooter", "fusion_lat": 0.0, "lat": 38.9341645, "name": "84ef30ed81458f22856f44be5189e1f6", "fusion_lon": 0.0, "bike_id": "84ef30ed81458f22856f44be5189e1f6", "is_disabled": 0, "is_reserved": 0}, {"rental_uris": {"ios": "https://dc.lft.to/lastmile_qr_scan", "android": "https://dc.lft.to/lastmile_qr_scan"}, "lon": -77.02704616666666, "type": "electric_scooter", "fusion_lat": 0.0, "lat": 38.9499965, "name": "c976d2c331affec2011a40365d030ab7", "fusion_lon": 0.0, "bike_id": "c976d2c331affec2011a40365d030ab7", "is_disabled": 0, "is_reserved": 0}, {"rental_uris": {"ios": "https://dc.lft.to/lastmile_qr_scan", "android": "https://dc.lft.to/lastmile_qr_scan"}, "lon": -77.03203933333333, "type": "electric_scooter", "fusion_lat": 0.0, "lat": 38.920580666666666, "name": "24160ba5431f7eb8ea1eb062fcec1a14", "fusion_lon": 0.0, "bike_id": "24160ba5431f7eb8ea1eb062fcec1a14", "is_disabled": 0, "is_reserved": 0}, {"rental_uris": {"ios": "https://dc.lft.to/lastmile_qr_scan", "android": "https://dc.lft.to/lastmile_qr_scan"}, "lon": -77.00615233333333, "type": "electric_scooter", "fusion_lat": 0.0, "lat": 38.902729, "name": "a7e1eff209c84f6afcda724f8cc2ffd8", "fusion_lon": 0.0, "bike_id": "a7e1eff209c84f6afcda724f8cc2ffd8", "is_disabled": 0, "is_reserved": 0}, {"rental_uris": {"ios": "https://dc.lft.to/lastmile_qr_scan", "android": "https://dc.lft.to/lastmile_qr_scan"}, "lon": -77.03144966666666, "type": "electric_scooter", "fusion_lat": 0.0, "lat": 38.91704216666667, "name": "e33b05d07e3737d44b90a104acb15716", "fusion_lon": 0.0, "bike_id": "e33b05d07e3737d44b90a104acb15716", "is_disabled": 0, "is_reserved": 0}, {"rental_uris": {"ios": "https://dc.lft.to/lastmile_qr_scan", "android": "https://dc.lft.to/lastmile_qr_scan"}, "lon": -76.98967133333333, "type": "electric_scooter", "fusion_lat": 0.0, "lat": 38.902440166666665, "name": "bff01ef6c7dc5824f7ca7187386ada66", "fusion_lon": 0.0, "bike_id": "bff01ef6c7dc5824f7ca7187386ada66", "is_disabled": 0, "is_reserved": 0}, {"rental_uris": {"ios": "https://dc.lft.to/lastmile_qr_scan", "android": "https://dc.lft.to/lastmile_qr_scan"}, "lon": -77.02008366666666, "type": "electric_scooter", "fusion_lat": 0.0, "lat": 38.91313816666667, "name": "7f2a3576e7cb6e8b6db1945cf445e03e", "fusion_lon": 0.0, "bike_id": "7f2a3576e7cb6e8b6db1945cf445e03e", "is_disabled": 0, "is_reserved": 0}, {"rental_uris": {"ios": "https://dc.lft.to/lastmile_qr_scan", "android": "https://dc.lft.to/lastmile_qr_scan"}, "lon": -77.01187433333334, "type": "electric_scooter", "fusion_lat": 0.0, "lat": 38.900339, "name": "23c86828c555724c3d9c94923753475c", "fusion_lon": 0.0, "bike_id": "23c86828c555724c3d9c94923753475c", "is_disabled": 0, "is_reserved": 0}, {"rental_uris": {"ios": "https://dc.lft.to/lastmile_qr_scan", "android": "https://dc.lft.to/lastmile_qr_scan"}, "lon": -77.00566816666667, "type": "electric_scooter", "fusion_lat": 0.0, "lat": 38.92724283333333, "name": "ee29f46507de4acb95b3a354e8288a5e", "fusion_lon": 0.0, "bike_id": "ee29f46507de4acb95b3a354e8288a5e", "is_disabled": 0, "is_reserved": 0}, {"rental_uris": {"ios": "https://dc.lft.to/lastmile_qr_scan", "android": "https://dc.lft.to/lastmile_qr_scan"}, "lon": -77.03874333333333, "type": "electric_scooter", "fusion_lat": 0.0, "lat": 38.917124, "name": "7888a7b25103fd5cf78727ac6a50446b", "fusion_lon": 0.0, "bike_id": "7888a7b25103fd5cf78727ac6a50446b", "is_disabled": 0, "is_reserved": 0}, {"rental_uris": {"ios": "https://dc.lft.to/lastmile_qr_scan", "android": "https://dc.lft.to/lastmile_qr_scan"}, "lon": -77.02344, "type": "electric_scooter", "fusion_lat": 0.0, "lat": 38.962095833333336, "name": "b46216b4daabf175c64bb4a48cd86d43", "fusion_lon": 0.0, "bike_id": "b46216b4daabf175c64bb4a48cd86d43", "is_disabled": 0, "is_reserved": 0}, {"rental_uris": {"ios": "https://dc.lft.to/lastmile_qr_scan", "android": "https://dc.lft.to/lastmile_qr_scan"}, "lon": -77.05723866666666, "type": "electric_scooter", "fusion_lat": 0.0, "lat": 38.933666833333334, "name": "be25e0aad5b26508cde609e883dda5bc", "fusion_lon": 0.0, "bike_id": "be25e0aad5b26508cde609e883dda5bc", "is_disabled": 0, "is_reserved": 0}, {"rental_uris": {"ios": "https://dc.lft.to/lastmile_qr_scan", "android": "https://dc.lft.to/lastmile_qr_scan"}, "lon": -77.06352216666667, "type": "electric_scooter", "fusion_lat": 0.0, "lat": 38.94448033333333, "name": "1d0a7d19f50f35aa80a4d4e0444eec0d", "fusion_lon": 0.0, "bike_id": "1d0a7d19f50f35aa80a4d4e0444eec0d", "is_disabled": 0, "is_reserved": 0}, {"rental_uris": {"ios": "https://dc.lft.to/lastmile_qr_scan", "android": "https://dc.lft.to/lastmile_qr_scan"}, "lon": -77.00521316666666, "type": "electric_scooter", "fusion_lat": 0.0, "lat": 38.92904516666667, "name": "06121fc1b0d70c6b9f39609cf1d2aa8f", "fusion_lon": 0.0, "bike_id": "06121fc1b0d70c6b9f39609cf1d2aa8f", "is_disabled": 0, "is_reserved": 0}, {"rental_uris": {"ios": "https://dc.lft.to/lastmile_qr_scan", "android": "https://dc.lft.to/lastmile_qr_scan"}, "lon": -77.03957066666666, "type": "electric_scooter", "fusion_lat": 0.0, "lat": 38.91486116666667, "name": "3dca399c218b8f1539c30e72b1781ca7", "fusion_lon": 0.0, "bike_id": "3dca399c218b8f1539c30e72b1781ca7", "is_disabled": 0, "is_reserved": 0}, {"rental_uris": {"ios": "https://dc.lft.to/lastmile_qr_scan", "android": "https://dc.lft.to/lastmile_qr_scan"}, "lon": -77.031937, "type": "electric_scooter", "fusion_lat": 0.0, "lat": 38.917339, "name": "d4408105f44ef46a70216c46a359e75c", "fusion_lon": 0.0, "bike_id": "d4408105f44ef46a70216c46a359e75c", "is_disabled": 0, "is_reserved": 0}, {"rental_uris": {"ios": "https://dc.lft.to/lastmile_qr_scan", "android": "https://dc.lft.to/lastmile_qr_scan"}, "lon": -77.04809783333333, "type": "electric_scooter", "fusion_lat": 0.0, "lat": 38.8974725, "name": "bb703730b296da5d07dfc2c969b09f63", "fusion_lon": 0.0, "bike_id": "bb703730b296da5d07dfc2c969b09f63", "is_disabled": 0, "is_reserved": 0}, {"rental_uris": {"ios": "https://dc.lft.to/lastmile_qr_scan", "android": "https://dc.lft.to/lastmile_qr_scan"}, "lon": -77.07274783333334, "type": "electric_scooter", "fusion_lat": 0.0, "lat": 38.934826666666666, "name": "883b722540ab276d7213a95e6e448575", "fusion_lon": 0.0, "bike_id": "883b722540ab276d7213a95e6e448575", "is_disabled": 0, "is_reserved": 0}, {"rental_uris": {"ios": "https://dc.lft.to/lastmile_qr_scan", "android": "https://dc.lft.to/lastmile_qr_scan"}, "lon": -76.99036833333334, "type": "electric_scooter", "fusion_lat": 0.0, "lat": 38.888823333333335, "name": "8e551d202990ce6b9acf13cbbf82e115", "fusion_lon": 0.0, "bike_id": "8e551d202990ce6b9acf13cbbf82e115", "is_disabled": 0, "is_reserved": 0}, {"rental_uris": {"ios": "https://dc.lft.to/lastmile_qr_scan", "android": "https://dc.lft.to/lastmile_qr_scan"}, "lon": -77.014249, "type": "electric_scooter", "fusion_lat": 0.0, "lat": 38.9423135, "name": "ad3b16b04aba15508600c9f12bc511d8", "fusion_lon": 0.0, "bike_id": "ad3b16b04aba15508600c9f12bc511d8", "is_disabled": 0, "is_reserved": 0}, {"rental_uris": {"ios": "https://dc.lft.to/lastmile_qr_scan", "android": "https://dc.lft.to/lastmile_qr_scan"}, "lon": -77.03032583333334, "type": "electric_scooter", "fusion_lat": 0.0, "lat": 38.9312235, "name": "6442abeff311872a34cffc025bb60301", "fusion_lon": 0.0, "bike_id": "6442abeff311872a34cffc025bb60301", "is_disabled": 0, "is_reserved": 0}, {"rental_uris": {"ios": "https://dc.lft.to/lastmile_qr_scan", "android": "https://dc.lft.to/lastmile_qr_scan"}, "lon": -77.053223, "type": "electric_scooter", "fusion_lat": 0.0, "lat": 38.923524, "name": "2eaba6436c0a1022d8dbc19ec0bdc23c", "fusion_lon": 0.0, "bike_id": "2eaba6436c0a1022d8dbc19ec0bdc23c", "is_disabled": 0, "is_reserved": 0}, {"rental_uris": {"ios": "https://dc.lft.to/lastmile_qr_scan", "android": "https://dc.lft.to/lastmile_qr_scan"}, "lon": -77.02209, "type": "electric_scooter", "fusion_lat": 0.0, "lat": 38.89614866666667, "name": "ad301656eececc7aa71fa28afa671bf1", "fusion_lon": 0.0, "bike_id": "ad301656eececc7aa71fa28afa671bf1", "is_disabled": 0, "is_reserved": 0}, {"rental_uris": {"ios": "https://dc.lft.to/lastmile_qr_scan", "android": "https://dc.lft.to/lastmile_qr_scan"}, "lon": -77.038621, "type": "electric_scooter", "fusion_lat": 0.0, "lat": 38.90802633333333, "name": "4478f811a2c83877aafa3911c34dd925", "fusion_lon": 0.0, "bike_id": "4478f811a2c83877aafa3911c34dd925", "is_disabled": 0, "is_reserved": 0}, {"rental_uris": {"ios": "https://dc.lft.to/lastmile_qr_scan", "android": "https://dc.lft.to/lastmile_qr_scan"}, "lon": -77.03187516666667, "type": "electric_scooter", "fusion_lat": 0.0, "lat": 38.917644833333334, "name": "2e21514ba27108aac36eddcbc197faa6", "fusion_lon": 0.0, "bike_id": "2e21514ba27108aac36eddcbc197faa6", "is_disabled": 0, "is_reserved": 0}, {"rental_uris": {"ios": "https://dc.lft.to/lastmile_qr_scan", "android": "https://dc.lft.to/lastmile_qr_scan"}, "lon": -76.99931383333333, "type": "electric_scooter", "fusion_lat": 0.0, "lat": 38.896195166666665, "name": "80d5c8b131dedc60bfb065144b52bb78", "fusion_lon": 0.0, "bike_id": "80d5c8b131dedc60bfb065144b52bb78", "is_disabled": 0, "is_reserved": 0}, {"rental_uris": {"ios": "https://dc.lft.to/lastmile_qr_scan", "android": "https://dc.lft.to/lastmile_qr_scan"}, "lon": -77.01700933333333, "type": "electric_scooter", "fusion_lat": 0.0, "lat": 38.9201805, "name": "05166bfe8d5716aa22a8671fedb304c3", "fusion_lon": 0.0, "bike_id": "05166bfe8d5716aa22a8671fedb304c3", "is_disabled": 0, "is_reserved": 0}, {"rental_uris": {"ios": "https://dc.lft.to/lastmile_qr_scan", "android": "https://dc.lft.to/lastmile_qr_scan"}, "lon": -77.0185535, "type": "electric_scooter", "fusion_lat": 0.0, "lat": 38.93996966666667, "name": "328c8dba66d13d4d7b62b8cb977b4f93", "fusion_lon": 0.0, "bike_id": "328c8dba66d13d4d7b62b8cb977b4f93", "is_disabled": 0, "is_reserved": 0}, {"rental_uris": {"ios": "https://dc.lft.to/lastmile_qr_scan", "android": "https://dc.lft.to/lastmile_qr_scan"}, "lon": -77.024075, "type": "electric_scooter", "fusion_lat": 0.0, "lat": 38.91106033333333, "name": "16a41586ecb2dc89e2bbf7d7ff0209ea", "fusion_lon": 0.0, "bike_id": "16a41586ecb2dc89e2bbf7d7ff0209ea", "is_disabled": 0, "is_reserved": 0}, {"rental_uris": {"ios": "https://dc.lft.to/lastmile_qr_scan", "android": "https://dc.lft.to/lastmile_qr_scan"}, "lon": -77.0456805, "type": "electric_scooter", "fusion_lat": 0.0, "lat": 38.910475166666664, "name": "62d75296b6269e206b35a0ffc74021a5", "fusion_lon": 0.0, "bike_id": "62d75296b6269e206b35a0ffc74021a5", "is_disabled": 0, "is_reserved": 0}, {"rental_uris": {"ios": "https://dc.lft.to/lastmile_qr_scan", "android": "https://dc.lft.to/lastmile_qr_scan"}, "lon": -77.0386955, "type": "electric_scooter", "fusion_lat": 0.0, "lat": 38.93254483333333, "name": "ff03449423c9fe6154408251d0d753a9", "fusion_lon": 0.0, "bike_id": "ff03449423c9fe6154408251d0d753a9", "is_disabled": 0, "is_reserved": 0}, {"rental_uris": {"ios": "https://dc.lft.to/lastmile_qr_scan", "android": "https://dc.lft.to/lastmile_qr_scan"}, "lon": -77.028357, "type": "electric_scooter", "fusion_lat": 0.0, "lat": 38.88768866666667, "name": "2fe8d36209a5b74d6afddba35033826d", "fusion_lon": 0.0, "bike_id": "2fe8d36209a5b74d6afddba35033826d", "is_disabled": 0, "is_reserved": 0}, {"rental_uris": {"ios": "https://dc.lft.to/lastmile_qr_scan", "android": "https://dc.lft.to/lastmile_qr_scan"}, "lon": -77.013058, "type": "electric_scooter", "fusion_lat": 0.0, "lat": 38.90051966666667, "name": "73282e50a18d82f24a405617a9c86147", "fusion_lon": 0.0, "bike_id": "73282e50a18d82f24a405617a9c86147", "is_disabled": 0, "is_reserved": 0}, {"rental_uris": {"ios": "https://dc.lft.to/lastmile_qr_scan", "android": "https://dc.lft.to/lastmile_qr_scan"}, "lon": -77.03832816666667, "type": "electric_scooter", "fusion_lat": 0.0, "lat": 38.907824166666664, "name": "16a39a6edbb6b4466eb642a8fcecac2e", "fusion_lon": 0.0, "bike_id": "16a39a6edbb6b4466eb642a8fcecac2e", "is_disabled": 0, "is_reserved": 0}, {"rental_uris": {"ios": "https://dc.lft.to/lastmile_qr_scan", "android": "https://dc.lft.to/lastmile_qr_scan"}, "lon": -77.0304325, "type": "electric_scooter", "fusion_lat": 0.0, "lat": 38.91704766666667, "name": "49c7f1ed660df833b15a1a11bc046911", "fusion_lon": 0.0, "bike_id": "49c7f1ed660df833b15a1a11bc046911", "is_disabled": 0, "is_reserved": 0}, {"rental_uris": {"ios": "https://dc.lft.to/lastmile_qr_scan", "android": "https://dc.lft.to/lastmile_qr_scan"}, "lon": -77.03900716666666, "type": "electric_scooter", "fusion_lat": 0.0, "lat": 38.922207666666665, "name": "6a61af233d69a0c77773699b79caff21", "fusion_lon": 0.0, "bike_id": "6a61af233d69a0c77773699b79caff21", "is_disabled": 0, "is_reserved": 0}, {"rental_uris": {"ios": "https://dc.lft.to/lastmile_qr_scan", "android": "https://dc.lft.to/lastmile_qr_scan"}, "lon": -77.04521183333334, "type": "electric_scooter", "fusion_lat": 0.0, "lat": 38.9097225, "name": "76d9de9a87d36af835412f89afc3a8ac", "fusion_lon": 0.0, "bike_id": "76d9de9a87d36af835412f89afc3a8ac", "is_disabled": 0, "is_reserved": 0}, {"rental_uris": {"ios": "https://dc.lft.to/lastmile_qr_scan", "android": "https://dc.lft.to/lastmile_qr_scan"}, "lon": -77.0326415, "type": "electric_scooter", "fusion_lat": 0.0, "lat": 38.91818383333333, "name": "f40cb099e00a66bb7eef292af412909e", "fusion_lon": 0.0, "bike_id": "f40cb099e00a66bb7eef292af412909e", "is_disabled": 0, "is_reserved": 0}, {"rental_uris": {"ios": "https://dc.lft.to/lastmile_qr_scan", "android": "https://dc.lft.to/lastmile_qr_scan"}, "lon": -77.0280585, "type": "electric_scooter", "fusion_lat": 0.0, "lat": 38.89329933333333, "name": "e716c7991cc387c1184b005f3ef9b479", "fusion_lon": 0.0, "bike_id": "e716c7991cc387c1184b005f3ef9b479", "is_disabled": 0, "is_reserved": 0}, {"rental_uris": {"ios": "https://dc.lft.to/lastmile_qr_scan", "android": "https://dc.lft.to/lastmile_qr_scan"}, "lon": -77.04374533333333, "type": "electric_scooter", "fusion_lat": 0.0, "lat": 38.902482, "name": "03e44cec6742c02c0df96c2d1f70ce59", "fusion_lon": 0.0, "bike_id": "03e44cec6742c02c0df96c2d1f70ce59", "is_disabled": 0, "is_reserved": 0}, {"rental_uris": {"ios": "https://dc.lft.to/lastmile_qr_scan", "android": "https://dc.lft.to/lastmile_qr_scan"}, "lon": -77.04002516666667, "type": "electric_scooter", "fusion_lat": 0.0, "lat": 38.888882333333335, "name": "72fca9a953c6c26726f2b4d16b92c736", "fusion_lon": 0.0, "bike_id": "72fca9a953c6c26726f2b4d16b92c736", "is_disabled": 0, "is_reserved": 0}, {"rental_uris": {"ios": "https://dc.lft.to/lastmile_qr_scan", "android": "https://dc.lft.to/lastmile_qr_scan"}, "lon": -77.03818966666667, "type": "electric_scooter", "fusion_lat": 0.0, "lat": 38.92049683333333, "name": "9c0969a9cfeb40c50971d27d841b6636", "fusion_lon": 0.0, "bike_id": "9c0969a9cfeb40c50971d27d841b6636", "is_disabled": 0, "is_reserved": 0}, {"rental_uris": {"ios": "https://dc.lft.to/lastmile_qr_scan", "android": "https://dc.lft.to/lastmile_qr_scan"}, "lon": -77.031933, "type": "electric_scooter", "fusion_lat": 0.0, "lat": 38.91311266666666, "name": "70cdddbbf4265121bc2b9f68f97560f3", "fusion_lon": 0.0, "bike_id": "70cdddbbf4265121bc2b9f68f97560f3", "is_disabled": 0, "is_reserved": 0}, {"rental_uris": {"ios": "https://dc.lft.to/lastmile_qr_scan", "android": "https://dc.lft.to/lastmile_qr_scan"}, "lon": -77.032107, "type": "electric_scooter", "fusion_lat": 0.0, "lat": 38.91704683333333, "name": "338a15ea59b570fa578a644a4a99906d", "fusion_lon": 0.0, "bike_id": "338a15ea59b570fa578a644a4a99906d", "is_disabled": 0, "is_reserved": 0}, {"rental_uris": {"ios": "https://dc.lft.to/lastmile_qr_scan", "android": "https://dc.lft.to/lastmile_qr_scan"}, "lon": -77.03571783333334, "type": "electric_scooter", "fusion_lat": 0.0, "lat": 38.918183666666664, "name": "094b8238fd666ffb93c36fa768494242", "fusion_lon": 0.0, "bike_id": "094b8238fd666ffb93c36fa768494242", "is_disabled": 0, "is_reserved": 0}, {"rental_uris": {"ios": "https://dc.lft.to/lastmile_qr_scan", "android": "https://dc.lft.to/lastmile_qr_scan"}, "lon": -76.95818716666666, "type": "electric_scooter", "fusion_lat": 0.0, "lat": 38.890531, "name": "0f22acf8bb9c95de96a250b6e02b818c", "fusion_lon": 0.0, "bike_id": "0f22acf8bb9c95de96a250b6e02b818c", "is_disabled": 0, "is_reserved": 0}, {"rental_uris": {"ios": "https://dc.lft.to/lastmile_qr_scan", "android": "https://dc.lft.to/lastmile_qr_scan"}, "lon": -77.03344283333334, "type": "electric_scooter", "fusion_lat": 0.0, "lat": 38.885043, "name": "8623e8639ebd98b377027e6433ef6fd3", "fusion_lon": 0.0, "bike_id": "8623e8639ebd98b377027e6433ef6fd3", "is_disabled": 0, "is_reserved": 0}, {"rental_uris": {"ios": "https://dc.lft.to/lastmile_qr_scan", "android": "https://dc.lft.to/lastmile_qr_scan"}, "lon": -77.09527216666666, "type": "electric_bike", "fusion_lat": 0.0, "lat": 38.8381385, "name": "14766477d033a13e372f570a3fc74221", "fusion_lon": 0.0, "bike_id": "14766477d033a13e372f570a3fc74221", "is_disabled": 0, "is_reserved": 0}, {"rental_uris": {"ios": "https://dc.lft.to/lastmile_qr_scan", "android": "https://dc.lft.to/lastmile_qr_scan"}, "lon": -77.055916, "type": "electric_scooter", "fusion_lat": 0.0, "lat": 38.92779733333333, "name": "f22083b63dc3465fd5908ce1ab6e324e", "fusion_lon": 0.0, "bike_id": "f22083b63dc3465fd5908ce1ab6e324e", "is_disabled": 0, "is_reserved": 0}, {"rental_uris": {"ios": "https://dc.lft.to/lastmile_qr_scan", "android": "https://dc.lft.to/lastmile_qr_scan"}, "lon": -77.04448233333333, "type": "electric_scooter", "fusion_lat": 0.0, "lat": 38.918796, "name": "20231567072c4263f3eea5f8186f49db", "fusion_lon": 0.0, "bike_id": "20231567072c4263f3eea5f8186f49db", "is_disabled": 0, "is_reserved": 0}, {"rental_uris": {"ios": "https://dc.lft.to/lastmile_qr_scan", "android": "https://dc.lft.to/lastmile_qr_scan"}, "lon": -77.04543016666666, "type": "electric_scooter", "fusion_lat": 0.0, "lat": 38.89481816666667, "name": "82a2f59e69720a85a29b7667c85b918e", "fusion_lon": 0.0, "bike_id": "82a2f59e69720a85a29b7667c85b918e", "is_disabled": 0, "is_reserved": 0}, {"rental_uris": {"ios": "https://dc.lft.to/lastmile_qr_scan", "android": "https://dc.lft.to/lastmile_qr_scan"}, "lon": -77.02706783333333, "type": "electric_scooter", "fusion_lat": 0.0, "lat": 38.90951033333333, "name": "4e8244699ab12960c83ead14098c35e9", "fusion_lon": 0.0, "bike_id": "4e8244699ab12960c83ead14098c35e9", "is_disabled": 0, "is_reserved": 0}, {"rental_uris": {"ios": "https://dc.lft.to/lastmile_qr_scan", "android": "https://dc.lft.to/lastmile_qr_scan"}, "lon": -76.98346166666667, "type": "electric_scooter", "fusion_lat": 0.0, "lat": 38.91527633333333, "name": "4cdefa631d1c16a977ebdc319eb53add", "fusion_lon": 0.0, "bike_id": "4cdefa631d1c16a977ebdc319eb53add", "is_disabled": 0, "is_reserved": 0}, {"rental_uris": {"ios": "https://dc.lft.to/lastmile_qr_scan", "android": "https://dc.lft.to/lastmile_qr_scan"}, "lon": -77.02721066666666, "type": "electric_scooter", "fusion_lat": 0.0, "lat": 38.906744, "name": "0ed0db71a6d194bc0d00c33f8cf0a0b7", "fusion_lon": 0.0, "bike_id": "0ed0db71a6d194bc0d00c33f8cf0a0b7", "is_disabled": 0, "is_reserved": 0}, {"rental_uris": {"ios": "https://dc.lft.to/lastmile_qr_scan", "android": "https://dc.lft.to/lastmile_qr_scan"}, "lon": -77.05510066666666, "type": "electric_scooter", "fusion_lat": 0.0, "lat": 38.8999845, "name": "cb97f3460793bef18c017eb7bfd790b9", "fusion_lon": 0.0, "bike_id": "cb97f3460793bef18c017eb7bfd790b9", "is_disabled": 0, "is_reserved": 0}, {"rental_uris": {"ios": "https://dc.lft.to/lastmile_qr_scan", "android": "https://dc.lft.to/lastmile_qr_scan"}, "lon": -77.03177816666667, "type": "electric_scooter", "fusion_lat": 0.0, "lat": 38.89841066666666, "name": "380c327c29f6c65b4d6132552f26b18e", "fusion_lon": 0.0, "bike_id": "380c327c29f6c65b4d6132552f26b18e", "is_disabled": 0, "is_reserved": 0}, {"rental_uris": {"ios": "https://dc.lft.to/lastmile_qr_scan", "android": "https://dc.lft.to/lastmile_qr_scan"}, "lon": -76.95471483333333, "type": "electric_bike", "fusion_lat": 0.0, "lat": 38.88635166666667, "name": "7cce7e5616d5d4b1f4ba1809db2c4e53", "fusion_lon": 0.0, "bike_id": "7cce7e5616d5d4b1f4ba1809db2c4e53", "is_disabled": 0, "is_reserved": 0}, {"rental_uris": {"ios": "https://dc.lft.to/lastmile_qr_scan", "android": "https://dc.lft.to/lastmile_qr_scan"}, "lon": -77.07306233333334, "type": "electric_scooter", "fusion_lat": 0.0, "lat": 38.93613083333334, "name": "58b1e951492ef0f733b5a425fef97dd1", "fusion_lon": 0.0, "bike_id": "58b1e951492ef0f733b5a425fef97dd1", "is_disabled": 0, "is_reserved": 0}, {"rental_uris": {"ios": "https://dc.lft.to/lastmile_qr_scan", "android": "https://dc.lft.to/lastmile_qr_scan"}, "lon": -77.0265555, "type": "electric_scooter", "fusion_lat": 0.0, "lat": 38.881189166666665, "name": "4d9015335f4621f52c7baac28c9617c7", "fusion_lon": 0.0, "bike_id": "4d9015335f4621f52c7baac28c9617c7", "is_disabled": 0, "is_reserved": 0}, {"rental_uris": {"ios": "https://dc.lft.to/lastmile_qr_scan", "android": "https://dc.lft.to/lastmile_qr_scan"}, "lon": -77.0265955, "type": "electric_scooter", "fusion_lat": 0.0, "lat": 38.92884016666667, "name": "4a8e995d38a2b51c3624d86d49a8f5a5", "fusion_lon": 0.0, "bike_id": "4a8e995d38a2b51c3624d86d49a8f5a5", "is_disabled": 0, "is_reserved": 0}, {"rental_uris": {"ios": "https://dc.lft.to/lastmile_qr_scan", "android": "https://dc.lft.to/lastmile_qr_scan"}, "lon": -77.035898, "type": "electric_scooter", "fusion_lat": 0.0, "lat": 38.917602, "name": "9099f3f2fffbf89019a57ea7232ee28d", "fusion_lon": 0.0, "bike_id": "9099f3f2fffbf89019a57ea7232ee28d", "is_disabled": 0, "is_reserved": 0}, {"rental_uris": {"ios": "https://dc.lft.to/lastmile_qr_scan", "android": "https://dc.lft.to/lastmile_qr_scan"}, "lon": -77.0067295, "type": "electric_scooter", "fusion_lat": 0.0, "lat": 38.876499333333335, "name": "ea9c45ff7db817cf240c778461e0c529", "fusion_lon": 0.0, "bike_id": "ea9c45ff7db817cf240c778461e0c529", "is_disabled": 0, "is_reserved": 0}, {"rental_uris": {"ios": "https://dc.lft.to/lastmile_qr_scan", "android": "https://dc.lft.to/lastmile_qr_scan"}, "lon": -76.99067183333334, "type": "electric_scooter", "fusion_lat": 0.0, "lat": 38.86363633333333, "name": "073de0027e5ac6bd2df28ef42fc1b347", "fusion_lon": 0.0, "bike_id": "073de0027e5ac6bd2df28ef42fc1b347", "is_disabled": 0, "is_reserved": 0}, {"rental_uris": {"ios": "https://dc.lft.to/lastmile_qr_scan", "android": "https://dc.lft.to/lastmile_qr_scan"}, "lon": -77.03666333333334, "type": "electric_scooter", "fusion_lat": 0.0, "lat": 38.913067833333336, "name": "3f2bb0d947498cff281f15569c3294d9", "fusion_lon": 0.0, "bike_id": "3f2bb0d947498cff281f15569c3294d9", "is_disabled": 0, "is_reserved": 0}, {"rental_uris": {"ios": "https://dc.lft.to/lastmile_qr_scan", "android": "https://dc.lft.to/lastmile_qr_scan"}, "lon": -77.0320375, "type": "electric_scooter", "fusion_lat": 0.0, "lat": 38.90023566666667, "name": "bcc732ee84fd65ad0b1b0946132bda99", "fusion_lon": 0.0, "bike_id": "bcc732ee84fd65ad0b1b0946132bda99", "is_disabled": 0, "is_reserved": 0}, {"rental_uris": {"ios": "https://dc.lft.to/lastmile_qr_scan", "android": "https://dc.lft.to/lastmile_qr_scan"}, "lon": -77.03302516666666, "type": "electric_scooter", "fusion_lat": 0.0, "lat": 38.909123666666666, "name": "0c0714d2344e4239ebbcdae660c81536", "fusion_lon": 0.0, "bike_id": "0c0714d2344e4239ebbcdae660c81536", "is_disabled": 0, "is_reserved": 0}, {"rental_uris": {"ios": "https://dc.lft.to/lastmile_qr_scan", "android": "https://dc.lft.to/lastmile_qr_scan"}, "lon": -77.36096283333333, "type": "electric_bike", "fusion_lat": 0.0, "lat": 38.9396085, "name": "b5caf3723585aa3a1f5d19d29b9527ff", "fusion_lon": 0.0, "bike_id": "b5caf3723585aa3a1f5d19d29b9527ff", "is_disabled": 0, "is_reserved": 0}, {"rental_uris": {"ios": "https://dc.lft.to/lastmile_qr_scan", "android": "https://dc.lft.to/lastmile_qr_scan"}, "lon": -77.02096633333333, "type": "electric_scooter", "fusion_lat": 0.0, "lat": 38.91010683333333, "name": "36f2835b057ade12929fd2441148959c", "fusion_lon": 0.0, "bike_id": "36f2835b057ade12929fd2441148959c", "is_disabled": 0, "is_reserved": 0}, {"rental_uris": {"ios": "https://dc.lft.to/lastmile_qr_scan", "android": "https://dc.lft.to/lastmile_qr_scan"}, "lon": -77.01574433333333, "type": "electric_scooter", "fusion_lat": 0.0, "lat": 38.916824, "name": "b6e0be39e984680c36d74898de10ed2f", "fusion_lon": 0.0, "bike_id": "b6e0be39e984680c36d74898de10ed2f", "is_disabled": 0, "is_reserved": 0}, {"rental_uris": {"ios": "https://dc.lft.to/lastmile_qr_scan", "android": "https://dc.lft.to/lastmile_qr_scan"}, "lon": -77.02997766666667, "type": "electric_scooter", "fusion_lat": 0.0, "lat": 38.924815333333335, "name": "d3b9ceca34dc3f84a60790026494daff", "fusion_lon": 0.0, "bike_id": "d3b9ceca34dc3f84a60790026494daff", "is_disabled": 0, "is_reserved": 0}, {"rental_uris": {"ios": "https://dc.lft.to/lastmile_qr_scan", "android": "https://dc.lft.to/lastmile_qr_scan"}, "lon": -76.97992266666667, "type": "electric_bike", "fusion_lat": 0.0, "lat": 38.87749783333334, "name": "f59eb4ee30f1d944cc21c82292917b68", "fusion_lon": 0.0, "bike_id": "f59eb4ee30f1d944cc21c82292917b68", "is_disabled": 0, "is_reserved": 0}, {"rental_uris": {"ios": "https://dc.lft.to/lastmile_qr_scan", "android": "https://dc.lft.to/lastmile_qr_scan"}, "lon": -77.01233783333333, "type": "electric_scooter", "fusion_lat": 0.0, "lat": 38.915516, "name": "43a1c38aa617286994ffd289b9757ffa", "fusion_lon": 0.0, "bike_id": "43a1c38aa617286994ffd289b9757ffa", "is_disabled": 0, "is_reserved": 0}, {"rental_uris": {"ios": "https://dc.lft.to/lastmile_qr_scan", "android": "https://dc.lft.to/lastmile_qr_scan"}, "lon": -77.0350585, "type": "electric_scooter", "fusion_lat": 0.0, "lat": 38.92870333333333, "name": "eba2c15fb79191d2849131ad47017dce", "fusion_lon": 0.0, "bike_id": "eba2c15fb79191d2849131ad47017dce", "is_disabled": 0, "is_reserved": 0}, {"rental_uris": {"ios": "https://dc.lft.to/lastmile_qr_scan", "android": "https://dc.lft.to/lastmile_qr_scan"}, "lon": -77.0465455, "type": "electric_scooter", "fusion_lat": 0.0, "lat": 38.90552133333333, "name": "a9c562093b861f71ca3227839eaed369", "fusion_lon": 0.0, "bike_id": "a9c562093b861f71ca3227839eaed369", "is_disabled": 0, "is_reserved": 0}, {"rental_uris": {"ios": "https://dc.lft.to/lastmile_qr_scan", "android": "https://dc.lft.to/lastmile_qr_scan"}, "lon": -77.01091716666667, "type": "electric_scooter", "fusion_lat": 0.0, "lat": 38.918215000000004, "name": "1eea0a7cf439853a6be22361529c7036", "fusion_lon": 0.0, "bike_id": "1eea0a7cf439853a6be22361529c7036", "is_disabled": 0, "is_reserved": 0}, {"rental_uris": {"ios": "https://dc.lft.to/lastmile_qr_scan", "android": "https://dc.lft.to/lastmile_qr_scan"}, "lon": -77.04086316666667, "type": "electric_scooter", "fusion_lat": 0.0, "lat": 38.907265833333334, "name": "95e30eedbfd40e3a9a6363dac42c7e20", "fusion_lon": 0.0, "bike_id": "95e30eedbfd40e3a9a6363dac42c7e20", "is_disabled": 0, "is_reserved": 0}, {"rental_uris": {"ios": "https://dc.lft.to/lastmile_qr_scan", "android": "https://dc.lft.to/lastmile_qr_scan"}, "lon": -76.947811, "type": "electric_bike", "fusion_lat": 0.0, "lat": 38.89439866666667, "name": "87b00ce87951c62ba223800e4e110051", "fusion_lon": 0.0, "bike_id": "87b00ce87951c62ba223800e4e110051", "is_disabled": 0, "is_reserved": 0}, {"rental_uris": {"ios": "https://dc.lft.to/lastmile_qr_scan", "android": "https://dc.lft.to/lastmile_qr_scan"}, "lon": -77.001021, "type": "electric_scooter", "fusion_lat": 0.0, "lat": 38.894284999999996, "name": "22f2170aa61d3f451579d08db47350f9", "fusion_lon": 0.0, "bike_id": "22f2170aa61d3f451579d08db47350f9", "is_disabled": 0, "is_reserved": 0}, {"rental_uris": {"ios": "https://dc.lft.to/lastmile_qr_scan", "android": "https://dc.lft.to/lastmile_qr_scan"}, "lon": -77.03298833333334, "type": "electric_scooter", "fusion_lat": 0.0, "lat": 38.9221965, "name": "c9786077e22fac8d5b38c348573175b8", "fusion_lon": 0.0, "bike_id": "c9786077e22fac8d5b38c348573175b8", "is_disabled": 0, "is_reserved": 0}, {"rental_uris": {"ios": "https://dc.lft.to/lastmile_qr_scan", "android": "https://dc.lft.to/lastmile_qr_scan"}, "lon": -77.04786933333334, "type": "electric_scooter", "fusion_lat": 0.0, "lat": 38.89945016666667, "name": "6b5e445e8f24f568b26855bede83c692", "fusion_lon": 0.0, "bike_id": "6b5e445e8f24f568b26855bede83c692", "is_disabled": 0, "is_reserved": 0}, {"rental_uris": {"ios": "https://dc.lft.to/lastmile_qr_scan", "android": "https://dc.lft.to/lastmile_qr_scan"}, "lon": -77.03359566666667, "type": "electric_scooter", "fusion_lat": 0.0, "lat": 38.9322295, "name": "327195e82f2a19602d16f5333d21b954", "fusion_lon": 0.0, "bike_id": "327195e82f2a19602d16f5333d21b954", "is_disabled": 0, "is_reserved": 0}, {"rental_uris": {"ios": "https://dc.lft.to/lastmile_qr_scan", "android": "https://dc.lft.to/lastmile_qr_scan"}, "lon": -77.02288766666666, "type": "electric_scooter", "fusion_lat": 0.0, "lat": 38.916751833333336, "name": "ac5830cd1c2bbaae2ff9bf244ba23e01", "fusion_lon": 0.0, "bike_id": "ac5830cd1c2bbaae2ff9bf244ba23e01", "is_disabled": 0, "is_reserved": 0}, {"rental_uris": {"ios": "https://dc.lft.to/lastmile_qr_scan", "android": "https://dc.lft.to/lastmile_qr_scan"}, "lon": -77.0367405, "type": "electric_scooter", "fusion_lat": 0.0, "lat": 38.91815066666667, "name": "c994cc51608bda22b7a05f85b154bb5f", "fusion_lon": 0.0, "bike_id": "c994cc51608bda22b7a05f85b154bb5f", "is_disabled": 0, "is_reserved": 0}, {"rental_uris": {"ios": "https://dc.lft.to/lastmile_qr_scan", "android": "https://dc.lft.to/lastmile_qr_scan"}, "lon": -77.00603933333333, "type": "electric_scooter", "fusion_lat": 0.0, "lat": 38.884946166666666, "name": "463abacb54561344f61827a214501bb8", "fusion_lon": 0.0, "bike_id": "463abacb54561344f61827a214501bb8", "is_disabled": 0, "is_reserved": 0}, {"rental_uris": {"ios": "https://dc.lft.to/lastmile_qr_scan", "android": "https://dc.lft.to/lastmile_qr_scan"}, "lon": -77.03838066666667, "type": "electric_scooter", "fusion_lat": 0.0, "lat": 38.90750383333334, "name": "efee6fc788792e92ff739b9798f5ae2a", "fusion_lon": 0.0, "bike_id": "efee6fc788792e92ff739b9798f5ae2a", "is_disabled": 0, "is_reserved": 0}, {"rental_uris": {"ios": "https://dc.lft.to/lastmile_qr_scan", "android": "https://dc.lft.to/lastmile_qr_scan"}, "lon": -77.02795233333333, "type": "electric_scooter", "fusion_lat": 0.0, "lat": 38.9538605, "name": "2cb1726e17f91f7e65b9e85b18fd86d2", "fusion_lon": 0.0, "bike_id": "2cb1726e17f91f7e65b9e85b18fd86d2", "is_disabled": 0, "is_reserved": 0}, {"rental_uris": {"ios": "https://dc.lft.to/lastmile_qr_scan", "android": "https://dc.lft.to/lastmile_qr_scan"}, "lon": -77.02542283333334, "type": "electric_scooter", "fusion_lat": 0.0, "lat": 38.92406166666667, "name": "c106e615c7cf4ca1615518698d069fe4", "fusion_lon": 0.0, "bike_id": "c106e615c7cf4ca1615518698d069fe4", "is_disabled": 0, "is_reserved": 0}, {"rental_uris": {"ios": "https://dc.lft.to/lastmile_qr_scan", "android": "https://dc.lft.to/lastmile_qr_scan"}, "lon": -77.0772475, "type": "electric_scooter", "fusion_lat": 0.0, "lat": 38.94705066666667, "name": "71b8e027f868f29d95cda777520d0986", "fusion_lon": 0.0, "bike_id": "71b8e027f868f29d95cda777520d0986", "is_disabled": 0, "is_reserved": 0}, {"rental_uris": {"ios": "https://dc.lft.to/lastmile_qr_scan", "android": "https://dc.lft.to/lastmile_qr_scan"}, "lon": -77.07100416666667, "type": "electric_bike", "fusion_lat": 0.0, "lat": 38.91449, "name": "985f4231f6db0ff3b571e5b0d5d3b08a", "fusion_lon": 0.0, "bike_id": "985f4231f6db0ff3b571e5b0d5d3b08a", "is_disabled": 0, "is_reserved": 0}, {"rental_uris": {"ios": "https://dc.lft.to/lastmile_qr_scan", "android": "https://dc.lft.to/lastmile_qr_scan"}, "lon": -76.973064, "type": "electric_scooter", "fusion_lat": 0.0, "lat": 38.919865, "name": "8ebd6fd73270152df47bbd18856f2c61", "fusion_lon": 0.0, "bike_id": "8ebd6fd73270152df47bbd18856f2c61", "is_disabled": 0, "is_reserved": 0}, {"rental_uris": {"ios": "https://dc.lft.to/lastmile_qr_scan", "android": "https://dc.lft.to/lastmile_qr_scan"}, "lon": -77.03466833333333, "type": "electric_scooter", "fusion_lat": 0.0, "lat": 38.923535666666666, "name": "3e5eea510c75e580bb0cc5d83bd94173", "fusion_lon": 0.0, "bike_id": "3e5eea510c75e580bb0cc5d83bd94173", "is_disabled": 0, "is_reserved": 0}, {"rental_uris": {"ios": "https://dc.lft.to/lastmile_qr_scan", "android": "https://dc.lft.to/lastmile_qr_scan"}, "lon": -77.03104883333333, "type": "electric_scooter", "fusion_lat": 0.0, "lat": 38.909674833333334, "name": "102d765cb060e7f3c0b2694230d74d83", "fusion_lon": 0.0, "bike_id": "102d765cb060e7f3c0b2694230d74d83", "is_disabled": 0, "is_reserved": 0}, {"rental_uris": {"ios": "https://dc.lft.to/lastmile_qr_scan", "android": "https://dc.lft.to/lastmile_qr_scan"}, "lon": -76.98091466666666, "type": "electric_bike", "fusion_lat": 0.0, "lat": 38.88133066666666, "name": "7bcc5bc4e570751f8563ab9f790da0e1", "fusion_lon": 0.0, "bike_id": "7bcc5bc4e570751f8563ab9f790da0e1", "is_disabled": 0, "is_reserved": 0}, {"rental_uris": {"ios": "https://dc.lft.to/lastmile_qr_scan", "android": "https://dc.lft.to/lastmile_qr_scan"}, "lon": -76.9524425, "type": "electric_bike", "fusion_lat": 0.0, "lat": 38.907046666666666, "name": "7ab1972d6a017c001fb39390d782985e", "fusion_lon": 0.0, "bike_id": "7ab1972d6a017c001fb39390d782985e", "is_disabled": 0, "is_reserved": 0}, {"rental_uris": {"ios": "https://dc.lft.to/lastmile_qr_scan", "android": "https://dc.lft.to/lastmile_qr_scan"}, "lon": -77.0131065, "type": "electric_scooter", "fusion_lat": 0.0, "lat": 38.897415, "name": "d1f32258b89a7495c6bd0a967dfeefb6", "fusion_lon": 0.0, "bike_id": "d1f32258b89a7495c6bd0a967dfeefb6", "is_disabled": 0, "is_reserved": 0}, {"rental_uris": {"ios": "https://dc.lft.to/lastmile_qr_scan", "android": "https://dc.lft.to/lastmile_qr_scan"}, "lon": -76.98053066666667, "type": "electric_bike", "fusion_lat": 0.0, "lat": 38.89926766666667, "name": "ded8c1d4890bf7d9879dfb6f280fb6e1", "fusion_lon": 0.0, "bike_id": "ded8c1d4890bf7d9879dfb6f280fb6e1", "is_disabled": 0, "is_reserved": 0}, {"rental_uris": {"ios": "https://dc.lft.to/lastmile_qr_scan", "android": "https://dc.lft.to/lastmile_qr_scan"}, "lon": -77.02204816666666, "type": "electric_scooter", "fusion_lat": 0.0, "lat": 38.90832566666667, "name": "967f504f8fb950e3812088a9502a9d57", "fusion_lon": 0.0, "bike_id": "967f504f8fb950e3812088a9502a9d57", "is_disabled": 0, "is_reserved": 0}, {"rental_uris": {"ios": "https://dc.lft.to/lastmile_qr_scan", "android": "https://dc.lft.to/lastmile_qr_scan"}, "lon": -77.0228875, "type": "electric_scooter", "fusion_lat": 0.0, "lat": 38.91569916666667, "name": "403ae8cdb1a34ecc90b2595d78722203", "fusion_lon": 0.0, "bike_id": "403ae8cdb1a34ecc90b2595d78722203", "is_disabled": 0, "is_reserved": 0}, {"rental_uris": {"ios": "https://dc.lft.to/lastmile_qr_scan", "android": "https://dc.lft.to/lastmile_qr_scan"}, "lon": -77.02304, "type": "electric_scooter", "fusion_lat": 0.0, "lat": 38.91778466666667, "name": "529c55c24550ed403be829cc6f6aeac1", "fusion_lon": 0.0, "bike_id": "529c55c24550ed403be829cc6f6aeac1", "is_disabled": 0, "is_reserved": 0}, {"rental_uris": {"ios": "https://dc.lft.to/lastmile_qr_scan", "android": "https://dc.lft.to/lastmile_qr_scan"}, "lon": -77.032133, "type": "electric_scooter", "fusion_lat": 0.0, "lat": 38.92014233333333, "name": "e464194ceb49ee5024aae2557fc7244d", "fusion_lon": 0.0, "bike_id": "e464194ceb49ee5024aae2557fc7244d", "is_disabled": 0, "is_reserved": 0}, {"rental_uris": {"ios": "https://dc.lft.to/lastmile_qr_scan", "android": "https://dc.lft.to/lastmile_qr_scan"}, "lon": -77.02208033333334, "type": "electric_scooter", "fusion_lat": 0.0, "lat": 38.88718133333333, "name": "49ce857f8d81c785e8f9ad45e9925087", "fusion_lon": 0.0, "bike_id": "49ce857f8d81c785e8f9ad45e9925087", "is_disabled": 0, "is_reserved": 0}, {"rental_uris": {"ios": "https://dc.lft.to/lastmile_qr_scan", "android": "https://dc.lft.to/lastmile_qr_scan"}, "lon": -77.041541, "type": "electric_scooter", "fusion_lat": 0.0, "lat": 38.92360866666667, "name": "03f2c6641381512be5d50c8d48ccc75a", "fusion_lon": 0.0, "bike_id": "03f2c6641381512be5d50c8d48ccc75a", "is_disabled": 0, "is_reserved": 0}, {"rental_uris": {"ios": "https://dc.lft.to/lastmile_qr_scan", "android": "https://dc.lft.to/lastmile_qr_scan"}, "lon": -77.02824316666667, "type": "electric_bike", "fusion_lat": 0.0, "lat": 38.965039833333336, "name": "50ea4fa60232d6470d250c868a9e34d0", "fusion_lon": 0.0, "bike_id": "50ea4fa60232d6470d250c868a9e34d0", "is_disabled": 0, "is_reserved": 0}, {"rental_uris": {"ios": "https://dc.lft.to/lastmile_qr_scan", "android": "https://dc.lft.to/lastmile_qr_scan"}, "lon": -77.050022, "type": "electric_scooter", "fusion_lat": 0.0, "lat": 38.89231816666667, "name": "ccd5c5e959ba5cba609541aa33f686f9", "fusion_lon": 0.0, "bike_id": "ccd5c5e959ba5cba609541aa33f686f9", "is_disabled": 0, "is_reserved": 0}, {"rental_uris": {"ios": "https://dc.lft.to/lastmile_qr_scan", "android": "https://dc.lft.to/lastmile_qr_scan"}, "lon": -77.031902, "type": "electric_scooter", "fusion_lat": 0.0, "lat": 38.913538833333334, "name": "5202549fb8164a89f7416d0c9f0ccdea", "fusion_lon": 0.0, "bike_id": "5202549fb8164a89f7416d0c9f0ccdea", "is_disabled": 0, "is_reserved": 0}, {"rental_uris": {"ios": "https://dc.lft.to/lastmile_qr_scan", "android": "https://dc.lft.to/lastmile_qr_scan"}, "lon": -77.01357333333333, "type": "electric_scooter", "fusion_lat": 0.0, "lat": 38.87118666666667, "name": "a76d3b994b1eddf904ebcfab92eb2ee2", "fusion_lon": 0.0, "bike_id": "a76d3b994b1eddf904ebcfab92eb2ee2", "is_disabled": 0, "is_reserved": 0}, {"rental_uris": {"ios": "https://dc.lft.to/lastmile_qr_scan", "android": "https://dc.lft.to/lastmile_qr_scan"}, "lon": -77.11238466666667, "type": "electric_bike", "fusion_lat": 0.0, "lat": 38.812287166666664, "name": "a4961e13c5a003dc218fba5e6cc28ab3", "fusion_lon": 0.0, "bike_id": "a4961e13c5a003dc218fba5e6cc28ab3", "is_disabled": 0, "is_reserved": 0}, {"rental_uris": {"ios": "https://dc.lft.to/lastmile_qr_scan", "android": "https://dc.lft.to/lastmile_qr_scan"}, "lon": -76.94931266666667, "type": "electric_scooter", "fusion_lat": 0.0, "lat": 38.89477333333333, "name": "38f965b188f84ebea8498dca868e87ec", "fusion_lon": 0.0, "bike_id": "38f965b188f84ebea8498dca868e87ec", "is_disabled": 0, "is_reserved": 0}, {"rental_uris": {"ios": "https://dc.lft.to/lastmile_qr_scan", "android": "https://dc.lft.to/lastmile_qr_scan"}, "lon": -77.0233215, "type": "electric_scooter", "fusion_lat": 0.0, "lat": 38.893957, "name": "1f4806dcb0731463e38491e38b13392d", "fusion_lon": 0.0, "bike_id": "1f4806dcb0731463e38491e38b13392d", "is_disabled": 0, "is_reserved": 0}, {"rental_uris": {"ios": "https://dc.lft.to/lastmile_qr_scan", "android": "https://dc.lft.to/lastmile_qr_scan"}, "lon": -77.01120533333334, "type": "electric_scooter", "fusion_lat": 0.0, "lat": 38.90024616666667, "name": "3b90b8075133e9013ff96778a4f84eef", "fusion_lon": 0.0, "bike_id": "3b90b8075133e9013ff96778a4f84eef", "is_disabled": 0, "is_reserved": 0}, {"rental_uris": {"ios": "https://dc.lft.to/lastmile_qr_scan", "android": "https://dc.lft.to/lastmile_qr_scan"}, "lon": -76.98262416666667, "type": "electric_scooter", "fusion_lat": 0.0, "lat": 38.86353416666667, "name": "e99852672a3fb8f1e3ffd6d4cbc793b5", "fusion_lon": 0.0, "bike_id": "e99852672a3fb8f1e3ffd6d4cbc793b5", "is_disabled": 0, "is_reserved": 0}, {"rental_uris": {"ios": "https://dc.lft.to/lastmile_qr_scan", "android": "https://dc.lft.to/lastmile_qr_scan"}, "lon": -77.01652533333333, "type": "electric_scooter", "fusion_lat": 0.0, "lat": 38.953300666666664, "name": "73ea38c0d98ceb915505fc10c6b8310e", "fusion_lon": 0.0, "bike_id": "73ea38c0d98ceb915505fc10c6b8310e", "is_disabled": 0, "is_reserved": 0}, {"rental_uris": {"ios": "https://dc.lft.to/lastmile_qr_scan", "android": "https://dc.lft.to/lastmile_qr_scan"}, "lon": -77.03814333333334, "type": "electric_scooter", "fusion_lat": 0.0, "lat": 38.909692166666666, "name": "42d9bcce9ae8da20431885729abd560e", "fusion_lon": 0.0, "bike_id": "42d9bcce9ae8da20431885729abd560e", "is_disabled": 0, "is_reserved": 0}, {"rental_uris": {"ios": "https://dc.lft.to/lastmile_qr_scan", "android": "https://dc.lft.to/lastmile_qr_scan"}, "lon": -77.05442216666667, "type": "electric_scooter", "fusion_lat": 0.0, "lat": 38.8960865, "name": "fe0d6f28981edf9fd4ca202a71489962", "fusion_lon": 0.0, "bike_id": "fe0d6f28981edf9fd4ca202a71489962", "is_disabled": 0, "is_reserved": 0}, {"rental_uris": {"ios": "https://dc.lft.to/lastmile_qr_scan", "android": "https://dc.lft.to/lastmile_qr_scan"}, "lon": -77.00266016666667, "type": "electric_scooter", "fusion_lat": 0.0, "lat": 38.877542166666665, "name": "a29ab409892f0bbd45872e89a91577da", "fusion_lon": 0.0, "bike_id": "a29ab409892f0bbd45872e89a91577da", "is_disabled": 0, "is_reserved": 0}, {"rental_uris": {"ios": "https://dc.lft.to/lastmile_qr_scan", "android": "https://dc.lft.to/lastmile_qr_scan"}, "lon": -76.98558983333334, "type": "electric_bike", "fusion_lat": 0.0, "lat": 38.892149833333335, "name": "f8c639fa70a0257e5d500df25bf615c8", "fusion_lon": 0.0, "bike_id": "f8c639fa70a0257e5d500df25bf615c8", "is_disabled": 0, "is_reserved": 0}, {"rental_uris": {"ios": "https://dc.lft.to/lastmile_qr_scan", "android": "https://dc.lft.to/lastmile_qr_scan"}, "lon": -77.04414866666667, "type": "electric_scooter", "fusion_lat": 0.0, "lat": 38.90570833333334, "name": "56eab24975156fffbca0478775f79221", "fusion_lon": 0.0, "bike_id": "56eab24975156fffbca0478775f79221", "is_disabled": 0, "is_reserved": 0}, {"rental_uris": {"ios": "https://dc.lft.to/lastmile_qr_scan", "android": "https://dc.lft.to/lastmile_qr_scan"}, "lon": -77.018397, "type": "electric_scooter", "fusion_lat": 0.0, "lat": 38.908818833333335, "name": "51dce559f7bc201534cf764635401718", "fusion_lon": 0.0, "bike_id": "51dce559f7bc201534cf764635401718", "is_disabled": 0, "is_reserved": 0}, {"rental_uris": {"ios": "https://dc.lft.to/lastmile_qr_scan", "android": "https://dc.lft.to/lastmile_qr_scan"}, "lon": -77.04793083333334, "type": "electric_scooter", "fusion_lat": 0.0, "lat": 38.893687, "name": "2860e9ae910d988b7740cbd9deb9dd1f", "fusion_lon": 0.0, "bike_id": "2860e9ae910d988b7740cbd9deb9dd1f", "is_disabled": 0, "is_reserved": 0}, {"rental_uris": {"ios": "https://dc.lft.to/lastmile_qr_scan", "android": "https://dc.lft.to/lastmile_qr_scan"}, "lon": -77.03379733333334, "type": "electric_scooter", "fusion_lat": 0.0, "lat": 38.938384, "name": "2075ffb1bbd3e021b806637c14f0cf72", "fusion_lon": 0.0, "bike_id": "2075ffb1bbd3e021b806637c14f0cf72", "is_disabled": 0, "is_reserved": 0}, {"rental_uris": {"ios": "https://dc.lft.to/lastmile_qr_scan", "android": "https://dc.lft.to/lastmile_qr_scan"}, "lon": -77.03489733333333, "type": "electric_scooter", "fusion_lat": 0.0, "lat": 38.91705683333333, "name": "db9f93c87b10f8db892256578cda3a79", "fusion_lon": 0.0, "bike_id": "db9f93c87b10f8db892256578cda3a79", "is_disabled": 0, "is_reserved": 0}, {"rental_uris": {"ios": "https://dc.lft.to/lastmile_qr_scan", "android": "https://dc.lft.to/lastmile_qr_scan"}, "lon": -77.0186115, "type": "electric_scooter", "fusion_lat": 0.0, "lat": 38.919707833333334, "name": "b5768da6fdcde58e9f529fa2629df615", "fusion_lon": 0.0, "bike_id": "b5768da6fdcde58e9f529fa2629df615", "is_disabled": 0, "is_reserved": 0}, {"rental_uris": {"ios": "https://dc.lft.to/lastmile_qr_scan", "android": "https://dc.lft.to/lastmile_qr_scan"}, "lon": -77.01093983333334, "type": "electric_scooter", "fusion_lat": 0.0, "lat": 38.895109166666664, "name": "8abd0f8e3a22717ab2eb7b925f1e10b7", "fusion_lon": 0.0, "bike_id": "8abd0f8e3a22717ab2eb7b925f1e10b7", "is_disabled": 0, "is_reserved": 0}, {"rental_uris": {"ios": "https://dc.lft.to/lastmile_qr_scan", "android": "https://dc.lft.to/lastmile_qr_scan"}, "lon": -77.04644616666667, "type": "electric_bike", "fusion_lat": 0.0, "lat": 38.852110333333336, "name": "07c3288f26cee540ec29f4c27ca6bd8a", "fusion_lon": 0.0, "bike_id": "07c3288f26cee540ec29f4c27ca6bd8a", "is_disabled": 0, "is_reserved": 0}, {"rental_uris": {"ios": "https://dc.lft.to/lastmile_qr_scan", "android": "https://dc.lft.to/lastmile_qr_scan"}, "lon": -77.02561933333334, "type": "electric_scooter", "fusion_lat": 0.0, "lat": 38.92535633333333, "name": "3392cdce04d362cd0731d741d4a32ff8", "fusion_lon": 0.0, "bike_id": "3392cdce04d362cd0731d741d4a32ff8", "is_disabled": 0, "is_reserved": 0}, {"rental_uris": {"ios": "https://dc.lft.to/lastmile_qr_scan", "android": "https://dc.lft.to/lastmile_qr_scan"}, "lon": -76.99948533333334, "type": "electric_scooter", "fusion_lat": 0.0, "lat": 38.842917666666665, "name": "b71139bddefd458b7358900586a233dc", "fusion_lon": 0.0, "bike_id": "b71139bddefd458b7358900586a233dc", "is_disabled": 0, "is_reserved": 0}, {"rental_uris": {"ios": "https://dc.lft.to/lastmile_qr_scan", "android": "https://dc.lft.to/lastmile_qr_scan"}, "lon": -77.04194716666667, "type": "electric_scooter", "fusion_lat": 0.0, "lat": 38.9202455, "name": "b9b783c8d095a3252b9fec4d610a96fb", "fusion_lon": 0.0, "bike_id": "b9b783c8d095a3252b9fec4d610a96fb", "is_disabled": 0, "is_reserved": 0}, {"rental_uris": {"ios": "https://dc.lft.to/lastmile_qr_scan", "android": "https://dc.lft.to/lastmile_qr_scan"}, "lon": -77.03328333333333, "type": "electric_scooter", "fusion_lat": 0.0, "lat": 38.900415, "name": "9e663ca7aff65b3a92f013e161ecf84f", "fusion_lon": 0.0, "bike_id": "9e663ca7aff65b3a92f013e161ecf84f", "is_disabled": 0, "is_reserved": 0}, {"rental_uris": {"ios": "https://dc.lft.to/lastmile_qr_scan", "android": "https://dc.lft.to/lastmile_qr_scan"}, "lon": -76.9473225, "type": "electric_scooter", "fusion_lat": 0.0, "lat": 38.896834, "name": "3c827c2317b2adfdd7535c63a4343a1c", "fusion_lon": 0.0, "bike_id": "3c827c2317b2adfdd7535c63a4343a1c", "is_disabled": 0, "is_reserved": 0}, {"rental_uris": {"ios": "https://dc.lft.to/lastmile_qr_scan", "android": "https://dc.lft.to/lastmile_qr_scan"}, "lon": -77.04374766666666, "type": "electric_scooter", "fusion_lat": 0.0, "lat": 38.9178295, "name": "5971844329f89f329fbaef557e503ab8", "fusion_lon": 0.0, "bike_id": "5971844329f89f329fbaef557e503ab8", "is_disabled": 0, "is_reserved": 0}, {"rental_uris": {"ios": "https://dc.lft.to/lastmile_qr_scan", "android": "https://dc.lft.to/lastmile_qr_scan"}, "lon": -77.0419425, "type": "electric_scooter", "fusion_lat": 0.0, "lat": 38.9262395, "name": "2645f8dd8e1859f2c5f2783f55e00c68", "fusion_lon": 0.0, "bike_id": "2645f8dd8e1859f2c5f2783f55e00c68", "is_disabled": 0, "is_reserved": 0}, {"rental_uris": {"ios": "https://dc.lft.to/lastmile_qr_scan", "android": "https://dc.lft.to/lastmile_qr_scan"}, "lon": -77.041549, "type": "electric_scooter", "fusion_lat": 0.0, "lat": 38.919177166666664, "name": "2788ecbe556e9949aa82e7a68fde0023", "fusion_lon": 0.0, "bike_id": "2788ecbe556e9949aa82e7a68fde0023", "is_disabled": 0, "is_reserved": 0}, {"rental_uris": {"ios": "https://dc.lft.to/lastmile_qr_scan", "android": "https://dc.lft.to/lastmile_qr_scan"}, "lon": -77.0325685, "type": "electric_scooter", "fusion_lat": 0.0, "lat": 38.935279, "name": "c51c0e875545785d6d19d37556797991", "fusion_lon": 0.0, "bike_id": "c51c0e875545785d6d19d37556797991", "is_disabled": 0, "is_reserved": 0}, {"rental_uris": {"ios": "https://dc.lft.to/lastmile_qr_scan", "android": "https://dc.lft.to/lastmile_qr_scan"}, "lon": -77.03132833333333, "type": "electric_scooter", "fusion_lat": 0.0, "lat": 38.923751, "name": "58e8b348b38150c1a2c61f03807db943", "fusion_lon": 0.0, "bike_id": "58e8b348b38150c1a2c61f03807db943", "is_disabled": 0, "is_reserved": 0}, {"rental_uris": {"ios": "https://dc.lft.to/lastmile_qr_scan", "android": "https://dc.lft.to/lastmile_qr_scan"}, "lon": -77.050027, "type": "electric_scooter", "fusion_lat": 0.0, "lat": 38.892288666666666, "name": "d21fb454539f537ff33a28ba9c7db7b3", "fusion_lon": 0.0, "bike_id": "d21fb454539f537ff33a28ba9c7db7b3", "is_disabled": 0, "is_reserved": 0}, {"rental_uris": {"ios": "https://dc.lft.to/lastmile_qr_scan", "android": "https://dc.lft.to/lastmile_qr_scan"}, "lon": -76.93830716666666, "type": "electric_scooter", "fusion_lat": 0.0, "lat": 38.89762366666667, "name": "643152d3c2ace6b13999c4af73e036a0", "fusion_lon": 0.0, "bike_id": "643152d3c2ace6b13999c4af73e036a0", "is_disabled": 0, "is_reserved": 0}, {"rental_uris": {"ios": "https://dc.lft.to/lastmile_qr_scan", "android": "https://dc.lft.to/lastmile_qr_scan"}, "lon": -77.04426283333333, "type": "electric_scooter", "fusion_lat": 0.0, "lat": 38.921219666666666, "name": "2f8fb1e614dbee1878e7e5875a4d8664", "fusion_lon": 0.0, "bike_id": "2f8fb1e614dbee1878e7e5875a4d8664", "is_disabled": 0, "is_reserved": 0}, {"rental_uris": {"ios": "https://dc.lft.to/lastmile_qr_scan", "android": "https://dc.lft.to/lastmile_qr_scan"}, "lon": -77.02721483333333, "type": "electric_scooter", "fusion_lat": 0.0, "lat": 38.892214833333334, "name": "b940f005e31c550415b5898c5bf11d5c", "fusion_lon": 0.0, "bike_id": "b940f005e31c550415b5898c5bf11d5c", "is_disabled": 0, "is_reserved": 0}, {"rental_uris": {"ios": "https://dc.lft.to/lastmile_qr_scan", "android": "https://dc.lft.to/lastmile_qr_scan"}, "lon": -77.035343, "type": "electric_scooter", "fusion_lat": 0.0, "lat": 38.92424466666667, "name": "450eb3258809957167a294911e5a9d49", "fusion_lon": 0.0, "bike_id": "450eb3258809957167a294911e5a9d49", "is_disabled": 0, "is_reserved": 0}, {"rental_uris": {"ios": "https://dc.lft.to/lastmile_qr_scan", "android": "https://dc.lft.to/lastmile_qr_scan"}, "lon": -76.994875, "type": "electric_scooter", "fusion_lat": 0.0, "lat": 38.93203416666667, "name": "5023f3aa8be0a557eb3e0bd9ed5186eb", "fusion_lon": 0.0, "bike_id": "5023f3aa8be0a557eb3e0bd9ed5186eb", "is_disabled": 0, "is_reserved": 0}, {"rental_uris": {"ios": "https://dc.lft.to/lastmile_qr_scan", "android": "https://dc.lft.to/lastmile_qr_scan"}, "lon": -77.02217, "type": "electric_scooter", "fusion_lat": 0.0, "lat": 38.90573633333333, "name": "f432bf77eabc14ece3befe8c5261da83", "fusion_lon": 0.0, "bike_id": "f432bf77eabc14ece3befe8c5261da83", "is_disabled": 0, "is_reserved": 0}, {"rental_uris": {"ios": "https://dc.lft.to/lastmile_qr_scan", "android": "https://dc.lft.to/lastmile_qr_scan"}, "lon": -77.0011595, "type": "electric_scooter", "fusion_lat": 0.0, "lat": 38.8943535, "name": "2dd02b2b3a982f5e7b6d34be6457f730", "fusion_lon": 0.0, "bike_id": "2dd02b2b3a982f5e7b6d34be6457f730", "is_disabled": 0, "is_reserved": 0}, {"rental_uris": {"ios": "https://dc.lft.to/lastmile_qr_scan", "android": "https://dc.lft.to/lastmile_qr_scan"}, "lon": -76.9901565, "type": "electric_scooter", "fusion_lat": 0.0, "lat": 38.860995333333335, "name": "2d1c7f1097345594931c8b050e7bafab", "fusion_lon": 0.0, "bike_id": "2d1c7f1097345594931c8b050e7bafab", "is_disabled": 0, "is_reserved": 0}, {"rental_uris": {"ios": "https://dc.lft.to/lastmile_qr_scan", "android": "https://dc.lft.to/lastmile_qr_scan"}, "lon": -77.03073916666666, "type": "electric_scooter", "fusion_lat": 0.0, "lat": 38.90564333333333, "name": "5543c960302c594fdd18f75df6496f3e", "fusion_lon": 0.0, "bike_id": "5543c960302c594fdd18f75df6496f3e", "is_disabled": 0, "is_reserved": 0}, {"rental_uris": {"ios": "https://dc.lft.to/lastmile_qr_scan", "android": "https://dc.lft.to/lastmile_qr_scan"}, "lon": -76.99751183333333, "type": "electric_scooter", "fusion_lat": 0.0, "lat": 38.90017183333333, "name": "9ff68e15a3f0061ea69e18097ca21201", "fusion_lon": 0.0, "bike_id": "9ff68e15a3f0061ea69e18097ca21201", "is_disabled": 0, "is_reserved": 0}, {"rental_uris": {"ios": "https://dc.lft.to/lastmile_qr_scan", "android": "https://dc.lft.to/lastmile_qr_scan"}, "lon": -76.97676633333333, "type": "electric_scooter", "fusion_lat": 0.0, "lat": 38.898857166666666, "name": "39a08f9a4d9fb9013d69fa784bf9bf52", "fusion_lon": 0.0, "bike_id": "39a08f9a4d9fb9013d69fa784bf9bf52", "is_disabled": 0, "is_reserved": 0}, {"rental_uris": {"ios": "https://dc.lft.to/lastmile_qr_scan", "android": "https://dc.lft.to/lastmile_qr_scan"}, "lon": -77.02135983333334, "type": "electric_scooter", "fusion_lat": 0.0, "lat": 38.93763833333333, "name": "70abb5baa0af2e585dc961c30fa000c6", "fusion_lon": 0.0, "bike_id": "70abb5baa0af2e585dc961c30fa000c6", "is_disabled": 0, "is_reserved": 0}, {"rental_uris": {"ios": "https://dc.lft.to/lastmile_qr_scan", "android": "https://dc.lft.to/lastmile_qr_scan"}, "lon": -77.03306683333334, "type": "electric_scooter", "fusion_lat": 0.0, "lat": 38.92653033333333, "name": "072e8cbd6c866b3a411f936037361aa2", "fusion_lon": 0.0, "bike_id": "072e8cbd6c866b3a411f936037361aa2", "is_disabled": 0, "is_reserved": 0}, {"rental_uris": {"ios": "https://dc.lft.to/lastmile_qr_scan", "android": "https://dc.lft.to/lastmile_qr_scan"}, "lon": -77.04536516666667, "type": "electric_scooter", "fusion_lat": 0.0, "lat": 38.907871166666666, "name": "efe40a377cd9632d99f7e559bed61557", "fusion_lon": 0.0, "bike_id": "efe40a377cd9632d99f7e559bed61557", "is_disabled": 0, "is_reserved": 0}, {"rental_uris": {"ios": "https://dc.lft.to/lastmile_qr_scan", "android": "https://dc.lft.to/lastmile_qr_scan"}, "lon": -76.9475515, "type": "electric_scooter", "fusion_lat": 0.0, "lat": 38.90054416666667, "name": "6e20d0d46e50da9ec75b83b30eab9b38", "fusion_lon": 0.0, "bike_id": "6e20d0d46e50da9ec75b83b30eab9b38", "is_disabled": 0, "is_reserved": 0}, {"rental_uris": {"ios": "https://dc.lft.to/lastmile_qr_scan", "android": "https://dc.lft.to/lastmile_qr_scan"}, "lon": -77.02382483333334, "type": "electric_scooter", "fusion_lat": 0.0, "lat": 38.95246616666667, "name": "78da3a43da52b7a94aa1ee34c13e845b", "fusion_lon": 0.0, "bike_id": "78da3a43da52b7a94aa1ee34c13e845b", "is_disabled": 0, "is_reserved": 0}, {"rental_uris": {"ios": "https://dc.lft.to/lastmile_qr_scan", "android": "https://dc.lft.to/lastmile_qr_scan"}, "lon": -76.9963095, "type": "electric_scooter", "fusion_lat": 0.0, "lat": 38.84619433333334, "name": "95b80610de642a7e04a2dee4fbfb63c1", "fusion_lon": 0.0, "bike_id": "95b80610de642a7e04a2dee4fbfb63c1", "is_disabled": 0, "is_reserved": 0}, {"rental_uris": {"ios": "https://dc.lft.to/lastmile_qr_scan", "android": "https://dc.lft.to/lastmile_qr_scan"}, "lon": -77.0276145, "type": "electric_scooter", "fusion_lat": 0.0, "lat": 38.9561605, "name": "2fd74deead11af9f8dac674abbc70fae", "fusion_lon": 0.0, "bike_id": "2fd74deead11af9f8dac674abbc70fae", "is_disabled": 0, "is_reserved": 0}, {"rental_uris": {"ios": "https://dc.lft.to/lastmile_qr_scan", "android": "https://dc.lft.to/lastmile_qr_scan"},