{"data": {"bikes": [{"rental_uris": {"ios": "https://dc.lft.to/lastmile_qr_scan", "android": "https://dc.lft.to/lastmile_qr_scan"}, "lon": -77.0138895, "type": "electric_scooter", "fusion_lat": 0.0, "lat": 38.97017666666667, "name": "3218cbfd1ce8ddf18a683d3c4c1a6bb8", "fusion_lon": 0.0, "bike_id": "3218cbfd1ce8ddf18a683d3c4c1a6bb8", "is_disabled": 0, "is_reserved": 0}, {"rental_uris": {"ios": "https://dc.lft.to/lastmile_qr_scan", "android": "https://dc.lft.to/lastmile_qr_scan"}, "lon": -77.0204885, "type": "electric_scooter", "fusion_lat": 0.0, "lat": 38.91558466666667, "name": "b459a6fe88ae5e971ba7198f92c3713f", "fusion_lon": 0.0, "bike_id": "b459a6fe88ae5e971ba7198f92c3713f", "is_disabled": 0, "is_reserved": 0}, {"rental_uris": {"ios": "https://dc.lft.to/lastmile_qr_scan", "android": "https://dc.lft.to/lastmile_qr_scan"}, "lon": -77.03171983333333, "type": "electric_scooter", "fusion_lat": 0.0, "lat": 38.913419166666664, "name": "9fba675b2135ed034cdc93d2d8ce05b6", "fusion_lon": 0.0, "bike_id": "9fba675b2135ed034cdc93d2d8ce05b6", "is_disabled": 0, "is_reserved": 0}, {"rental_uris": {"ios": "https://dc.lft.to/lastmile_qr_scan", "android": "https://dc.lft.to/lastmile_qr_scan"}, "lon": -77.0446615, "type": "electric_scooter", "fusion_lat": 0.0, "lat": 38.911092833333335, "name": "512fe1d3e250a89f4488f4dc420b0753", "fusion_lon": 0.0, "bike_id": "512fe1d3e250a89f4488f4dc420b0753", "is_disabled": 0, "is_reserved": 0}, {"rental_uris": {"ios": "https://dc.lft.to/lastmile_qr_scan", "android": "https://dc.lft.to/lastmile_qr_scan"}, "lon": -77.10090883333334, "type": "electric_bike", "fusion_lat": 0.0, "lat": 38.959577833333334, "name": "872f13a6a1d483b4211e4190b4c58cd9", "fusion_lon": 0.0, "bike_id": "872f13a6a1d483b4211e4190b4c58cd9", "is_disabled": 0, "is_reserved": 0}, {"rental_uris": {"ios": "https://dc.lft.to/lastmile_qr_scan", "android": "https://dc.lft.to/lastmile_qr_scan"}, "lon": -77.02714483333334, "type": "electric_scooter", "fusion_lat": 0.0, "lat": 38.91805466666667, "name": "04475b8d8ce57b3be2954d219e2f8444", "fusion_lon": 0.0, "bike_id": "04475b8d8ce57b3be2954d219e2f8444", "is_disabled": 0, "is_reserved": 0}, {"rental_uris": {"ios": "https://dc.lft.to/lastmile_qr_scan", "android": "https://dc.lft.to/lastmile_qr_scan"}, "lon": -76.98496233333333, "type": "electric_scooter", "fusion_lat": 0.0, "lat": 38.86047966666667, "name": "6dcd0cfa78846695681348415512a9b8", "fusion_lon": 0.0, "bike_id": "6dcd0cfa78846695681348415512a9b8", "is_disabled": 0, "is_reserved": 0}, {"rental_uris": {"ios": "https://dc.lft.to/lastmile_qr_scan", "android": "https://dc.lft.to/lastmile_qr_scan"}, "lon": -77.02710166666667, "type": "electric_scooter", "fusion_lat": 0.0, "lat": 38.91819483333333, "name": "2a0f84cedcc703e7af67aca3c01cc07c", "fusion_lon": 0.0, "bike_id": "2a0f84cedcc703e7af67aca3c01cc07c", "is_disabled": 0, "is_reserved": 0}, {"rental_uris": {"ios": "https://dc.lft.to/lastmile_qr_scan", "android": "https://dc.lft.to/lastmile_qr_scan"}, "lon": -76.9788805, "type": "electric_scooter", "fusion_lat": 0.0, "lat": 38.9042605, "name": "331144f02c8f9b68b9c843b397c7e2f8", "fusion_lon": 0.0, "bike_id": "331144f02c8f9b68b9c843b397c7e2f8", "is_disabled": 0, "is_reserved": 0}, {"rental_uris": {"ios": "https://dc.lft.to/lastmile_qr_scan", "android": "https://dc.lft.to/lastmile_qr_scan"}, "lon": -77.0453225, "type": "electric_scooter", "fusion_lat": 0.0, "lat": 38.913288, "name": "2deda1c4aa340a551f6d00dffd174896", "fusion_lon": 0.0, "bike_id": "2deda1c4aa340a551f6d00dffd174896", "is_disabled": 0, "is_reserved": 0}, {"rental_uris": {"ios": "https://dc.lft.to/lastmile_qr_scan", "android": "https://dc.lft.to/lastmile_qr_scan"}, "lon": -77.03853983333333, "type": "electric_scooter", "fusion_lat": 0.0, "lat": 38.90535933333334, "name": "2f44a83b2903a3e0601050e389e64998", "fusion_lon": 0.0, "bike_id": "2f44a83b2903a3e0601050e389e64998", "is_disabled": 0, "is_reserved": 0}, {"rental_uris": {"ios": "https://dc.lft.to/lastmile_qr_scan", "android": "https://dc.lft.to/lastmile_qr_scan"}, "lon": -77.0369525, "type": "electric_scooter", "fusion_lat": 0.0, "lat": 38.92837683333333, "name": "ab652023d9cc4c9ae88240efe13ffce4", "fusion_lon": 0.0, "bike_id": "ab652023d9cc4c9ae88240efe13ffce4", "is_disabled": 0, "is_reserved": 0}, {"rental_uris": {"ios": "https://dc.lft.to/lastmile_qr_scan", "android": "https://dc.lft.to/lastmile_qr_scan"}, "lon": -76.98742516666667, "type": "electric_bike", "fusion_lat": 0.0, "lat": 38.85799016666667, "name": "e4205191d38ed7b954b99ac1a878698a", "fusion_lon": 0.0, "bike_id": "e4205191d38ed7b954b99ac1a878698a", "is_disabled": 0, "is_reserved": 0}, {"rental_uris": {"ios": "https://dc.lft.to/lastmile_qr_scan", "android": "https://dc.lft.to/lastmile_qr_scan"}, "lon": -76.995956, "type": "electric_scooter", "fusion_lat": 0.0, "lat": 38.845422666666664, "name": "3ca35e7555fc6d87575b681e3bf0a341", "fusion_lon": 0.0, "bike_id": "3ca35e7555fc6d87575b681e3bf0a341", "is_disabled": 0, "is_reserved": 0}, {"rental_uris": {"ios": "https://dc.lft.to/lastmile_qr_scan", "android": "https://dc.lft.to/lastmile_qr_scan"}, "lon": -77.01527833333333, "type": "electric_scooter", "fusion_lat": 0.0, "lat": 38.9019835, "name": "1f7a73ffe8772d01b2aed2b64adb6287", "fusion_lon": 0.0, "bike_id": "1f7a73ffe8772d01b2aed2b64adb6287", "is_disabled": 0, "is_reserved": 0}, {"rental_uris": {"ios": "https://dc.lft.to/lastmile_qr_scan", "android": "https://dc.lft.to/lastmile_qr_scan"}, "lon": -77.02577966666666, "type": "electric_scooter", "fusion_lat": 0.0, "lat": 38.9053675, "name": "37ba67a7eadb5e29909bd64c01b30757", "fusion_lon": 0.0, "bike_id": "37ba67a7eadb5e29909bd64c01b30757", "is_disabled": 0, "is_reserved": 0}, {"rental_uris": {"ios": "https://dc.lft.to/lastmile_qr_scan", "android": "https://dc.lft.to/lastmile_qr_scan"}, "lon": -77.0006435, "type": "electric_scooter", "fusion_lat": 0.0, "lat": 38.90731733333333, "name": "0d0e4c8b6434635048a3ad8b5f6d4d16", "fusion_lon": 0.0, "bike_id": "0d0e4c8b6434635048a3ad8b5f6d4d16", "is_disabled": 0, "is_reserved": 0}, {"rental_uris": {"ios": "https://dc.lft.to/lastmile_qr_scan", "android": "https://dc.lft.to/lastmile_qr_scan"}, "lon": -77.05537383333333, "type": "electric_scooter", "fusion_lat": 0.0, "lat": 38.92795183333333, "name": "21a16523de25492ff8dc1bf5a765b958", "fusion_lon": 0.0, "bike_id": "21a16523de25492ff8dc1bf5a765b958", "is_disabled": 0, "is_reserved": 0}, {"rental_uris": {"ios": "https://dc.lft.to/lastmile_qr_scan", "android": "https://dc.lft.to/lastmile_qr_scan"}, "lon": -77.01741083333333, "type": "electric_bike", "fusion_lat": 0.0, "lat": 39.0001715, "name": "14da3024fde5b1454361ce7e519d5a75", "fusion_lon": 0.0, "bike_id": "14da3024fde5b1454361ce7e519d5a75", "is_disabled": 0, "is_reserved": 0}, {"rental_uris": {"ios": "https://dc.lft.to/lastmile_qr_scan", "android": "https://dc.lft.to/lastmile_qr_scan"}, "lon": -77.02749516666667, "type": "electric_scooter", "fusion_lat": 0.0, "lat": 38.93963183333334, "name": "da2e54e8ccd72742083c696432fc5532", "fusion_lon": 0.0, "bike_id": "da2e54e8ccd72742083c696432fc5532", "is_disabled": 0, "is_reserved": 0}, {"rental_uris": {"ios": "https://dc.lft.to/lastmile_qr_scan", "android": "https://dc.lft.to/lastmile_qr_scan"}, "lon": -77.02134983333333, "type": "electric_scooter", "fusion_lat": 0.0, "lat": 38.894949, "name": "fccaef5184657f05707b0eefb8fa7b74", "fusion_lon": 0.0, "bike_id": "fccaef5184657f05707b0eefb8fa7b74", "is_disabled": 0, "is_reserved": 0}, {"rental_uris": {"ios": "https://dc.lft.to/lastmile_qr_scan", "android": "https://dc.lft.to/lastmile_qr_scan"}, "lon": -77.03466133333333, "type": "electric_scooter", "fusion_lat": 0.0, "lat": 38.921576, "name": "7857806e285219bdc9002d183bf0a9bf", "fusion_lon": 0.0, "bike_id": "7857806e285219bdc9002d183bf0a9bf", "is_disabled": 0, "is_reserved": 0}, {"rental_uris": {"ios": "https://dc.lft.to/lastmile_qr_scan", "android": "https://dc.lft.to/lastmile_qr_scan"}, "lon": -77.05692266666667, "type": "electric_scooter", "fusion_lat": 0.0, "lat": 38.9054835, "name": "72c80db34d4cfd5e806925be66f2a7f6", "fusion_lon": 0.0, "bike_id": "72c80db34d4cfd5e806925be66f2a7f6", "is_disabled": 0, "is_reserved": 0}, {"rental_uris": {"ios": "https://dc.lft.to/lastmile_qr_scan", "android": "https://dc.lft.to/lastmile_qr_scan"}, "lon": -77.0611675, "type": "electric_bike", "fusion_lat": 0.0, "lat": 38.90203666666667, "name": "697b70b92164f18c43311595cf47b748", "fusion_lon": 0.0, "bike_id": "697b70b92164f18c43311595cf47b748", "is_disabled": 0, "is_reserved": 0}, {"rental_uris": {"ios": "https://dc.lft.to/lastmile_qr_scan", "android": "https://dc.lft.to/lastmile_qr_scan"}, "lon": -77.02814066666667, "type": "electric_scooter", "fusion_lat": 0.0, "lat": 38.896464333333334, "name": "6753cfc37fa258e97a37667d1966a540", "fusion_lon": 0.0, "bike_id": "6753cfc37fa258e97a37667d1966a540", "is_disabled": 0, "is_reserved": 0}, {"rental_uris": {"ios": "https://dc.lft.to/lastmile_qr_scan", "android": "https://dc.lft.to/lastmile_qr_scan"}, "lon": -77.036568, "type": "electric_scooter", "fusion_lat": 0.0, "lat": 38.929318, "name": "2ad27ad951099c715e8bb5cba33a9c58", "fusion_lon": 0.0, "bike_id": "2ad27ad951099c715e8bb5cba33a9c58", "is_disabled": 0, "is_reserved": 0}, {"rental_uris": {"ios": "https://dc.lft.to/lastmile_qr_scan", "android": "https://dc.lft.to/lastmile_qr_scan"}, "lon": -77.073215, "type": "electric_scooter", "fusion_lat": 0.0, "lat": 38.9249835, "name": "b939b77796d3fe935a6f4c677fdd4041", "fusion_lon": 0.0, "bike_id": "b939b77796d3fe935a6f4c677fdd4041", "is_disabled": 0, "is_reserved": 0}, {"rental_uris": {"ios": "https://dc.lft.to/lastmile_qr_scan", "android": "https://dc.lft.to/lastmile_qr_scan"}, "lon": -77.0756145, "type": "electric_scooter", "fusion_lat": 0.0, "lat": 38.920907, "name": "a82c02c8011a4f80af650bf70dbad4f5", "fusion_lon": 0.0, "bike_id": "a82c02c8011a4f80af650bf70dbad4f5", "is_disabled": 0, "is_reserved": 0}, {"rental_uris": {"ios": "https://dc.lft.to/lastmile_qr_scan", "android": "https://dc.lft.to/lastmile_qr_scan"}, "lon": -77.01766466666666, "type": "electric_scooter", "fusion_lat": 0.0, "lat": 38.8840885, "name": "953a20c803c5980eafa55a84dcd20cf5", "fusion_lon": 0.0, "bike_id": "953a20c803c5980eafa55a84dcd20cf5", "is_disabled": 0, "is_reserved": 0}, {"rental_uris": {"ios": "https://dc.lft.to/lastmile_qr_scan", "android": "https://dc.lft.to/lastmile_qr_scan"}, "lon": -77.02711183333334, "type": "electric_scooter", "fusion_lat": 0.0, "lat": 38.918197, "name": "2f9e38af36bb7c14e9bf03c655275288", "fusion_lon": 0.0, "bike_id": "2f9e38af36bb7c14e9bf03c655275288", "is_disabled": 0, "is_reserved": 0}, {"rental_uris": {"ios": "https://dc.lft.to/lastmile_qr_scan", "android": "https://dc.lft.to/lastmile_qr_scan"}, "lon": -77.03872, "type": "electric_scooter", "fusion_lat": 0.0, "lat": 38.9315945, "name": "9eb2a7decae02bfeb94ec6d5f397acab", "fusion_lon": 0.0, "bike_id": "9eb2a7decae02bfeb94ec6d5f397acab", "is_disabled": 0, "is_reserved": 0}, {"rental_uris": {"ios": "https://dc.lft.to/lastmile_qr_scan", "android": "https://dc.lft.to/lastmile_qr_scan"}, "lon": -77.02227933333333, "type": "electric_scooter", "fusion_lat": 0.0, "lat": 38.891976666666665, "name": "89481fe8e39af00d43ea4e5cbaf3262b", "fusion_lon": 0.0, "bike_id": "89481fe8e39af00d43ea4e5cbaf3262b", "is_disabled": 0, "is_reserved": 0}, {"rental_uris": {"ios": "https://dc.lft.to/lastmile_qr_scan", "android": "https://dc.lft.to/lastmile_qr_scan"}, "lon": -77.02712433333333, "type": "electric_scooter", "fusion_lat": 0.0, "lat": 38.92485966666667, "name": "e86d73cbc1cff1410f6a506df1a9718b", "fusion_lon": 0.0, "bike_id": "e86d73cbc1cff1410f6a506df1a9718b", "is_disabled": 0, "is_reserved": 0}, {"rental_uris": {"ios": "https://dc.lft.to/lastmile_qr_scan", "android": "https://dc.lft.to/lastmile_qr_scan"}, "lon": -77.0433545, "type": "electric_scooter", "fusion_lat": 0.0, "lat": 38.89227866666667, "name": "10758f89a77e797deba55bdf669154b5", "fusion_lon": 0.0, "bike_id": "10758f89a77e797deba55bdf669154b5", "is_disabled": 0, "is_reserved": 0}, {"rental_uris": {"ios": "https://dc.lft.to/lastmile_qr_scan", "android": "https://dc.lft.to/lastmile_qr_scan"}, "lon": -77.03212033333334, "type": "electric_scooter", "fusion_lat": 0.0, "lat": 38.911138, "name": "1a138e2f4d686ba0f224a55c456cc40a", "fusion_lon": 0.0, "bike_id": "1a138e2f4d686ba0f224a55c456cc40a", "is_disabled": 0, "is_reserved": 0}, {"rental_uris": {"ios": "https://dc.lft.to/lastmile_qr_scan", "android": "https://dc.lft.to/lastmile_qr_scan"}, "lon": -77.04170766666667, "type": "electric_scooter", "fusion_lat": 0.0, "lat": 38.9120645, "name": "52602372840c20eff385cc5ddeae7ce7", "fusion_lon": 0.0, "bike_id": "52602372840c20eff385cc5ddeae7ce7", "is_disabled": 0, "is_reserved": 0}, {"rental_uris": {"ios": "https://dc.lft.to/lastmile_qr_scan", "android": "https://dc.lft.to/lastmile_qr_scan"}, "lon": -77.04087133333333, "type": "electric_scooter", "fusion_lat": 0.0, "lat": 38.90581933333333, "name": "e025072fedf33f69b23a2ad8f94b2dd6", "fusion_lon": 0.0, "bike_id": "e025072fedf33f69b23a2ad8f94b2dd6", "is_disabled": 0, "is_reserved": 0}, {"rental_uris": {"ios": "https://dc.lft.to/lastmile_qr_scan", "android": "https://dc.lft.to/lastmile_qr_scan"}, "lon": -77.01433966666667, "type": "electric_scooter", "fusion_lat": 0.0, "lat": 38.9299115, "name": "1f02b10e910496b345ae65503616327a", "fusion_lon": 0.0, "bike_id": "1f02b10e910496b345ae65503616327a", "is_disabled": 0, "is_reserved": 0}, {"rental_uris": {"ios": "https://dc.lft.to/lastmile_qr_scan", "android": "https://dc.lft.to/lastmile_qr_scan"}, "lon": -77.04838566666666, "type": "electric_scooter", "fusion_lat": 0.0, "lat": 38.90385216666667, "name": "d64935eadba492aeb3a63d22be395185", "fusion_lon": 0.0, "bike_id": "d64935eadba492aeb3a63d22be395185", "is_disabled": 0, "is_reserved": 0}, {"rental_uris": {"ios": "https://dc.lft.to/lastmile_qr_scan", "android": "https://dc.lft.to/lastmile_qr_scan"}, "lon": -77.038431, "type": "electric_scooter", "fusion_lat": 0.0, "lat": 38.91666933333333, "name": "529d2e00a07e68430591e5f9980ab96e", "fusion_lon": 0.0, "bike_id": "529d2e00a07e68430591e5f9980ab96e", "is_disabled": 0, "is_reserved": 0}, {"rental_uris": {"ios": "https://dc.lft.to/lastmile_qr_scan", "android": "https://dc.lft.to/lastmile_qr_scan"}, "lon": -77.127356, "type": "electric_bike", "fusion_lat": 0.0, "lat": 38.8882205, "name": "567a0c128e1b34698b7a2f4e92ebd312", "fusion_lon": 0.0, "bike_id": "567a0c128e1b34698b7a2f4e92ebd312", "is_disabled": 0, "is_reserved": 0}, {"rental_uris": {"ios": "https://dc.lft.to/lastmile_qr_scan", "android": "https://dc.lft.to/lastmile_qr_scan"}, "lon": -77.029991, "type": "electric_scooter", "fusion_lat": 0.0, "lat": 38.924831166666664, "name": "32791454ff2661662fc444f0dbb3ff06", "fusion_lon": 0.0, "bike_id": "32791454ff2661662fc444f0dbb3ff06", "is_disabled": 0, "is_reserved": 0}, {"rental_uris": {"ios": "https://dc.lft.to/lastmile_qr_scan", "android": "https://dc.lft.to/lastmile_qr_scan"}, "lon": -77.02616483333334, "type": "electric_scooter", "fusion_lat": 0.0, "lat": 38.916937833333336, "name": "ae0bc630360eadd0e02b9bf67a4d0987", "fusion_lon": 0.0, "bike_id": "ae0bc630360eadd0e02b9bf67a4d0987", "is_disabled": 0, "is_reserved": 0}, {"rental_uris": {"ios": "https://dc.lft.to/lastmile_qr_scan", "android": "https://dc.lft.to/lastmile_qr_scan"}, "lon": -77.00852666666667, "type": "electric_scooter", "fusion_lat": 0.0, "lat": 38.92596416666667, "name": "8d148e755617fc93484d74b14ad96368", "fusion_lon": 0.0, "bike_id": "8d148e755617fc93484d74b14ad96368", "is_disabled": 0, "is_reserved": 0}, {"rental_uris": {"ios": "https://dc.lft.to/lastmile_qr_scan", "android": "https://dc.lft.to/lastmile_qr_scan"}, "lon": -77.06111583333333, "type": "electric_scooter", "fusion_lat": 0.0, "lat": 38.904447833333336, "name": "18fd71dd479aed88a37cd1fed108ab44", "fusion_lon": 0.0, "bike_id": "18fd71dd479aed88a37cd1fed108ab44", "is_disabled": 0, "is_reserved": 0}, {"rental_uris": {"ios": "https://dc.lft.to/lastmile_qr_scan", "android": "https://dc.lft.to/lastmile_qr_scan"}, "lon": -76.93791983333334, "type": "electric_scooter", "fusion_lat": 0.0, "lat": 38.912908333333334, "name": "7362076f73dfb69ecb74aca342af16ad", "fusion_lon": 0.0, "bike_id": "7362076f73dfb69ecb74aca342af16ad", "is_disabled": 0, "is_reserved": 0}, {"rental_uris": {"ios": "https://dc.lft.to/lastmile_qr_scan", "android": "https://dc.lft.to/lastmile_qr_scan"}, "lon": -77.04616216666666, "type": "electric_scooter", "fusion_lat": 0.0, "lat": 38.9157545, "name": "40216ee309ee9777a0e659eef34d5111", "fusion_lon": 0.0, "bike_id": "40216ee309ee9777a0e659eef34d5111", "is_disabled": 0, "is_reserved": 0}, {"rental_uris": {"ios": "https://dc.lft.to/lastmile_qr_scan", "android": "https://dc.lft.to/lastmile_qr_scan"}, "lon": -77.032534, "type": "electric_scooter", "fusion_lat": 0.0, "lat": 38.911234666666665, "name": "082436ee820cbfc3a5d637d2352d1f7d", "fusion_lon": 0.0, "bike_id": "082436ee820cbfc3a5d637d2352d1f7d", "is_disabled": 0, "is_reserved": 0}, {"rental_uris": {"ios": "https://dc.lft.to/lastmile_qr_scan", "android": "https://dc.lft.to/lastmile_qr_scan"}, "lon": -76.97887, "type": "electric_scooter", "fusion_lat": 0.0, "lat": 38.91673316666667, "name": "8d3d90626d3ef60d8984775705f38b00", "fusion_lon": 0.0, "bike_id": "8d3d90626d3ef60d8984775705f38b00", "is_disabled": 0, "is_reserved": 0}, {"rental_uris": {"ios": "https://dc.lft.to/lastmile_qr_scan", "android": "https://dc.lft.to/lastmile_qr_scan"}, "lon": -77.01756266666666, "type": "electric_scooter", "fusion_lat": 0.0, "lat": 38.938947166666665, "name": "656f716fe4d9eb661ef42c7b3c023e4e", "fusion_lon": 0.0, "bike_id": "656f716fe4d9eb661ef42c7b3c023e4e", "is_disabled": 0, "is_reserved": 0}, {"rental_uris": {"ios": "https://dc.lft.to/lastmile_qr_scan", "android": "https://dc.lft.to/lastmile_qr_scan"}, "lon": -76.98773233333333, "type": "electric_scooter", "fusion_lat": 0.0, "lat": 38.91175116666667, "name": "490979c501b5e033d818174c88cdb811", "fusion_lon": 0.0, "bike_id": "490979c501b5e033d818174c88cdb811", "is_disabled": 0, "is_reserved": 0}, {"rental_uris": {"ios": "https://dc.lft.to/lastmile_qr_scan", "android": "https://dc.lft.to/lastmile_qr_scan"}, "lon": -76.99522366666666, "type": "electric_scooter", "fusion_lat": 0.0, "lat": 38.92679666666667, "name": "ad1da930e0efa4ad6deb3d14efc52c91", "fusion_lon": 0.0, "bike_id": "ad1da930e0efa4ad6deb3d14efc52c91", "is_disabled": 0, "is_reserved": 0}, {"rental_uris": {"ios": "https://dc.lft.to/lastmile_qr_scan", "android": "https://dc.lft.to/lastmile_qr_scan"}, "lon": -77.08366766666667, "type": "electric_scooter", "fusion_lat": 0.0, "lat": 38.93034766666667, "name": "8fe045994f9622af092380e9c0c797b2", "fusion_lon": 0.0, "bike_id": "8fe045994f9622af092380e9c0c797b2", "is_disabled": 0, "is_reserved": 0}, {"rental_uris": {"ios": "https://dc.lft.to/lastmile_qr_scan", "android": "https://dc.lft.to/lastmile_qr_scan"}, "lon": -77.049145, "type": "electric_scooter", "fusion_lat": 0.0, "lat": 38.89686666666667, "name": "e28dfb14178a56d711bc81b547dc9093", "fusion_lon": 0.0, "bike_id": "e28dfb14178a56d711bc81b547dc9093", "is_disabled": 0, "is_reserved": 0}, {"rental_uris": {"ios": "https://dc.lft.to/lastmile_qr_scan", "android": "https://dc.lft.to/lastmile_qr_scan"}, "lon": -77.05150883333333, "type": "electric_scooter", "fusion_lat": 0.0, "lat": 38.902357, "name": "0c0592b9df7c91e220aace85f11fb53d", "fusion_lon": 0.0, "bike_id": "0c0592b9df7c91e220aace85f11fb53d", "is_disabled": 0, "is_reserved": 0}, {"rental_uris": {"ios": "https://dc.lft.to/lastmile_qr_scan", "android": "https://dc.lft.to/lastmile_qr_scan"}, "lon": -77.03977183333333, "type": "electric_scooter", "fusion_lat": 0.0, "lat": 38.9002335, "name": "cac328f0f62de1c2c2f717c547894476", "fusion_lon": 0.0, "bike_id": "cac328f0f62de1c2c2f717c547894476", "is_disabled": 0, "is_reserved": 0}, {"rental_uris": {"ios": "https://dc.lft.to/lastmile_qr_scan", "android": "https://dc.lft.to/lastmile_qr_scan"}, "lon": -76.97211366666667, "type": "electric_scooter", "fusion_lat": 0.0, "lat": 38.85497866666667, "name": "12d2bb13c7d6ca7cdceed0d11240c777", "fusion_lon": 0.0, "bike_id": "12d2bb13c7d6ca7cdceed0d11240c777", "is_disabled": 0, "is_reserved": 0}, {"rental_uris": {"ios": "https://dc.lft.to/lastmile_qr_scan", "android": "https://dc.lft.to/lastmile_qr_scan"}, "lon": -77.02212233333333, "type": "electric_scooter", "fusion_lat": 0.0, "lat": 38.896121, "name": "a17e82e2dd213fd7e233d3266eff45d6", "fusion_lon": 0.0, "bike_id": "a17e82e2dd213fd7e233d3266eff45d6", "is_disabled": 0, "is_reserved": 0}, {"rental_uris": {"ios": "https://dc.lft.to/lastmile_qr_scan", "android": "https://dc.lft.to/lastmile_qr_scan"}, "lon": -77.0292045, "type": "electric_scooter", "fusion_lat": 0.0, "lat": 38.89548083333333, "name": "43a03221a69ee219f8b6cbb2f30a9fd5", "fusion_lon": 0.0, "bike_id": "43a03221a69ee219f8b6cbb2f30a9fd5", "is_disabled": 0, "is_reserved": 0}, {"rental_uris": {"ios": "https://dc.lft.to/lastmile_qr_scan", "android": "https://dc.lft.to/lastmile_qr_scan"}, "lon": -77.04504433333334, "type": "electric_scooter", "fusion_lat": 0.0, "lat": 38.91192216666666, "name": "e10d42abcf3ec527a75c41168e2e49a4", "fusion_lon": 0.0, "bike_id": "e10d42abcf3ec527a75c41168e2e49a4", "is_disabled": 0, "is_reserved": 0}, {"rental_uris": {"ios": "https://dc.lft.to/lastmile_qr_scan", "android": "https://dc.lft.to/lastmile_qr_scan"}, "lon": -77.03908033333333, "type": "electric_scooter", "fusion_lat": 0.0, "lat": 38.89906033333333, "name": "e837a46bd07452e2fd4973689f44ad60", "fusion_lon": 0.0, "bike_id": "e837a46bd07452e2fd4973689f44ad60", "is_disabled": 0, "is_reserved": 0}, {"rental_uris": {"ios": "https://dc.lft.to/lastmile_qr_scan", "android": "https://dc.lft.to/lastmile_qr_scan"}, "lon": -76.99874383333334, "type": "electric_scooter", "fusion_lat": 0.0, "lat": 38.9075695, "name": "e762393dcf16d63afce740bf8b1c7345", "fusion_lon": 0.0, "bike_id": "e762393dcf16d63afce740bf8b1c7345", "is_disabled": 0, "is_reserved": 0}, {"rental_uris": {"ios": "https://dc.lft.to/lastmile_qr_scan", "android": "https://dc.lft.to/lastmile_qr_scan"}, "lon": -77.026325, "type": "electric_scooter", "fusion_lat": 0.0, "lat": 38.89615916666666, "name": "ff7d73f8f1996ce961a2fbb01313a557", "fusion_lon": 0.0, "bike_id": "ff7d73f8f1996ce961a2fbb01313a557", "is_disabled": 0, "is_reserved": 0}, {"rental_uris": {"ios": "https://dc.lft.to/lastmile_qr_scan", "android": "https://dc.lft.to/lastmile_qr_scan"}, "lon": -77.0431345, "type": "electric_scooter", "fusion_lat": 0.0, "lat": 38.90821183333333, "name": "9b2fa152724f086efa114ba2f10d8d5f", "fusion_lon": 0.0, "bike_id": "9b2fa152724f086efa114ba2f10d8d5f", "is_disabled": 0, "is_reserved": 0}, {"rental_uris": {"ios": "https://dc.lft.to/lastmile_qr_scan", "android": "https://dc.lft.to/lastmile_qr_scan"}, "lon": -76.94626933333333, "type": "electric_bike", "fusion_lat": 0.0, "lat": 38.946265333333336, "name": "90c9982b39701ade2e23a1d26ed6353e", "fusion_lon": 0.0, "bike_id": "90c9982b39701ade2e23a1d26ed6353e", "is_disabled": 0, "is_reserved": 0}, {"rental_uris": {"ios": "https://dc.lft.to/lastmile_qr_scan", "android": "https://dc.lft.to/lastmile_qr_scan"}, "lon": -77.06301933333333, "type": "electric_scooter", "fusion_lat": 0.0, "lat": 38.90698183333333, "name": "0e1007608f783f64a7a14f879718a795", "fusion_lon": 0.0, "bike_id": "0e1007608f783f64a7a14f879718a795", "is_disabled": 0, "is_reserved": 0}, {"rental_uris": {"ios": "https://dc.lft.to/lastmile_qr_scan", "android": "https://dc.lft.to/lastmile_qr_scan"}, "lon": -77.05002233333333, "type": "electric_scooter", "fusion_lat": 0.0, "lat": 38.892318, "name": "73833b84e9173bc648da6bd9a56cdfed", "fusion_lon": 0.0, "bike_id": "73833b84e9173bc648da6bd9a56cdfed", "is_disabled": 0, "is_reserved": 0}, {"rental_uris": {"ios": "https://dc.lft.to/lastmile_qr_scan", "android": "https://dc.lft.to/lastmile_qr_scan"}, "lon": -77.025939, "type": "electric_scooter", "fusion_lat": 0.0, "lat": 38.905189, "name": "702aa43c947437d33f6c15523b9744f1", "fusion_lon": 0.0, "bike_id": "702aa43c947437d33f6c15523b9744f1", "is_disabled": 0, "is_reserved": 0}, {"rental_uris": {"ios": "https://dc.lft.to/lastmile_qr_scan", "android": "https://dc.lft.to/lastmile_qr_scan"}, "lon": -77.03117633333333, "type": "electric_scooter", "fusion_lat": 0.0, "lat": 38.91341633333333, "name": "1ccd30aae6f12fda37750481e223440b", "fusion_lon": 0.0, "bike_id": "1ccd30aae6f12fda37750481e223440b", "is_disabled": 0, "is_reserved": 0}, {"rental_uris": {"ios": "https://dc.lft.to/lastmile_qr_scan", "android": "https://dc.lft.to/lastmile_qr_scan"}, "lon": -77.02895616666666, "type": "electric_scooter", "fusion_lat": 0.0, "lat": 38.92578066666667, "name": "d1d9143836a8369d6062fe8729d4c095", "fusion_lon": 0.0, "bike_id": "d1d9143836a8369d6062fe8729d4c095", "is_disabled": 0, "is_reserved": 0}, {"rental_uris": {"ios": "https://dc.lft.to/lastmile_qr_scan", "android": "https://dc.lft.to/lastmile_qr_scan"}, "lon": -77.058863, "type": "electric_scooter", "fusion_lat": 0.0, "lat": 38.93636933333333, "name": "c6ac911adba0f59904449549da55a0fe", "fusion_lon": 0.0, "bike_id": "c6ac911adba0f59904449549da55a0fe", "is_disabled": 0, "is_reserved": 0}, {"rental_uris": {"ios": "https://dc.lft.to/lastmile_qr_scan", "android": "https://dc.lft.to/lastmile_qr_scan"}, "lon": -77.0450915, "type": "electric_scooter", "fusion_lat": 0.0, "lat": 38.912176, "name": "ae4a9c02119bd06e26e8549992d134f2", "fusion_lon": 0.0, "bike_id": "ae4a9c02119bd06e26e8549992d134f2", "is_disabled": 0, "is_reserved": 0}, {"rental_uris": {"ios": "https://dc.lft.to/lastmile_qr_scan", "android": "https://dc.lft.to/lastmile_qr_scan"}, "lon": -77.018316, "type": "electric_scooter", "fusion_lat": 0.0, "lat": 38.911092, "name": "6939fb60635c27af763ffa21dac04baa", "fusion_lon": 0.0, "bike_id": "6939fb60635c27af763ffa21dac04baa", "is_disabled": 0, "is_reserved": 0}, {"rental_uris": {"ios": "https://dc.lft.to/lastmile_qr_scan", "android": "https://dc.lft.to/lastmile_qr_scan"}, "lon": -77.0468635, "type": "electric_scooter", "fusion_lat": 0.0, "lat": 38.896129, "name": "bd77f15d2eb3d2ce357380ff12b128c0", "fusion_lon": 0.0, "bike_id": "bd77f15d2eb3d2ce357380ff12b128c0", "is_disabled": 0, "is_reserved": 0}, {"rental_uris": {"ios": "https://dc.lft.to/lastmile_qr_scan", "android": "https://dc.lft.to/lastmile_qr_scan"}, "lon": -76.9868465, "type": "electric_scooter", "fusion_lat": 0.0, "lat": 38.8821395, "name": "028ccd18e118589e68882cf8e9d9ae1c", "fusion_lon": 0.0, "bike_id": "028ccd18e118589e68882cf8e9d9ae1c", "is_disabled": 0, "is_reserved": 0}, {"rental_uris": {"ios": "https://dc.lft.to/lastmile_qr_scan", "android": "https://dc.lft.to/lastmile_qr_scan"}, "lon": -76.99485483333333, "type": "electric_scooter", "fusion_lat": 0.0, "lat": 38.862208833333334, "name": "fd30e8dcdc74eb93f987ae9f0822587d", "fusion_lon": 0.0, "bike_id": "fd30e8dcdc74eb93f987ae9f0822587d", "is_disabled": 0, "is_reserved": 0}, {"rental_uris": {"ios": "https://dc.lft.to/lastmile_qr_scan", "android": "https://dc.lft.to/lastmile_qr_scan"}, "lon": -77.03346116666667, "type": "electric_bike", "fusion_lat": 0.0, "lat": 38.968084166666664, "name": "48b65e857f888ca9456e834744816aad", "fusion_lon": 0.0, "bike_id": "48b65e857f888ca9456e834744816aad", "is_disabled": 0, "is_reserved": 0}, {"rental_uris": {"ios": "https://dc.lft.to/lastmile_qr_scan", "android": "https://dc.lft.to/lastmile_qr_scan"}, "lon": -77.02712916666667, "type": "electric_scooter", "fusion_lat": 0.0, "lat": 38.9248585, "name": "01949341aaf06798a942754b3147339f", "fusion_lon": 0.0, "bike_id": "01949341aaf06798a942754b3147339f", "is_disabled": 0, "is_reserved": 0}, {"rental_uris": {"ios": "https://dc.lft.to/lastmile_qr_scan", "android": "https://dc.lft.to/lastmile_qr_scan"}, "lon": -77.05026866666667, "type": "electric_scooter", "fusion_lat": 0.0, "lat": 38.900786333333336, "name": "7c76b57af1dd4584c4763623919eb1d0", "fusion_lon": 0.0, "bike_id": "7c76b57af1dd4584c4763623919eb1d0", "is_disabled": 0, "is_reserved": 0}, {"rental_uris": {"ios": "https://dc.lft.to/lastmile_qr_scan", "android": "https://dc.lft.to/lastmile_qr_scan"}, "lon": -77.029308, "type": "electric_scooter", "fusion_lat": 0.0, "lat": 38.89545783333333, "name": "1b170906c727a83e02f7595aa39b7e06", "fusion_lon": 0.0, "bike_id": "1b170906c727a83e02f7595aa39b7e06", "is_disabled": 0, "is_reserved": 0}, {"rental_uris": {"ios": "https://dc.lft.to/lastmile_qr_scan", "android": "https://dc.lft.to/lastmile_qr_scan"}, "lon": -77.03126533333334, "type": "electric_scooter", "fusion_lat": 0.0, "lat": 38.89982166666667, "name": "aa9b4e43de6a8cccfa0f0a56bfaf7d1e", "fusion_lon": 0.0, "bike_id": "aa9b4e43de6a8cccfa0f0a56bfaf7d1e", "is_disabled": 0, "is_reserved": 0}, {"rental_uris": {"ios": "https://dc.lft.to/lastmile_qr_scan", "android": "https://dc.lft.to/lastmile_qr_scan"}, "lon": -76.99504666666667, "type": "electric_scooter", "fusion_lat": 0.0, "lat": 38.880122166666666, "name": "61144f7b12579a217062baaa470f6867", "fusion_lon": 0.0, "bike_id": "61144f7b12579a217062baaa470f6867", "is_disabled": 0, "is_reserved": 0}, {"rental_uris": {"ios": "https://dc.lft.to/lastmile_qr_scan", "android": "https://dc.lft.to/lastmile_qr_scan"}, "lon": -77.04645066666667, "type": "electric_scooter", "fusion_lat": 0.0, "lat": 38.906548, "name": "c104eb682af50aa91dfed3df7b23b602", "fusion_lon": 0.0, "bike_id": "c104eb682af50aa91dfed3df7b23b602", "is_disabled": 0, "is_reserved": 0}, {"rental_uris": {"ios": "https://dc.lft.to/lastmile_qr_scan", "android": "https://dc.lft.to/lastmile_qr_scan"}, "lon": -76.94179283333334, "type": "electric_scooter", "fusion_lat": 0.0, "lat": 38.88219683333333, "name": "515acd7c151fccef0fc04463e7660c77", "fusion_lon": 0.0, "bike_id": "515acd7c151fccef0fc04463e7660c77", "is_disabled": 0, "is_reserved": 0}, {"rental_uris": {"ios": "https://dc.lft.to/lastmile_qr_scan", "android": "https://dc.lft.to/lastmile_qr_scan"}, "lon": -76.98712116666667, "type": "electric_scooter", "fusion_lat": 0.0, "lat": 38.862648166666666, "name": "e48bd2e19f822e712aa21873656ac1bb", "fusion_lon": 0.0, "bike_id": "e48bd2e19f822e712aa21873656ac1bb", "is_disabled": 0, "is_reserved": 0}, {"rental_uris": {"ios": "https://dc.lft.to/lastmile_qr_scan", "android": "https://dc.lft.to/lastmile_qr_scan"}, "lon": -77.03619016666667, "type": "electric_scooter", "fusion_lat": 0.0, "lat": 38.9325775, "name": "1d1d0ecc0b00c643f2ac5054b4b9e89b", "fusion_lon": 0.0, "bike_id": "1d1d0ecc0b00c643f2ac5054b4b9e89b", "is_disabled": 0, "is_reserved": 0}, {"rental_uris": {"ios": "https://dc.lft.to/lastmile_qr_scan", "android": "https://dc.lft.to/lastmile_qr_scan"}, "lon": -77.0448365, "type": "electric_scooter", "fusion_lat": 0.0, "lat": 38.91050166666667, "name": "7335dec9f7a13879d6ec0f814b0e2cde", "fusion_lon": 0.0, "bike_id": "7335dec9f7a13879d6ec0f814b0e2cde", "is_disabled": 0, "is_reserved": 0}, {"rental_uris": {"ios": "https://dc.lft.to/lastmile_qr_scan", "android": "https://dc.lft.to/lastmile_qr_scan"}, "lon": -77.04260983333333, "type": "electric_scooter", "fusion_lat": 0.0, "lat": 38.922096333333336, "name": "f035e6a46db1eee50b081ac8b82e4113", "fusion_lon": 0.0, "bike_id": "f035e6a46db1eee50b081ac8b82e4113", "is_disabled": 0, "is_reserved": 0}, {"rental_uris": {"ios": "https://dc.lft.to/lastmile_qr_scan", "android": "https://dc.lft.to/lastmile_qr_scan"}, "lon": -77.044421, "type": "electric_scooter", "fusion_lat": 0.0, "lat": 38.91018916666667, "name": "7e000e01e9f3eef1d349521e5922aba4", "fusion_lon": 0.0, "bike_id": "7e000e01e9f3eef1d349521e5922aba4", "is_disabled": 0, "is_reserved": 0}, {"rental_uris": {"ios": "https://dc.lft.to/lastmile_qr_scan", "android": "https://dc.lft.to/lastmile_qr_scan"}, "lon": -76.99146666666667, "type": "electric_scooter", "fusion_lat": 0.0, "lat": 38.90039316666667, "name": "f5f02bc79f6161273e32a97e13609d37", "fusion_lon": 0.0, "bike_id": "f5f02bc79f6161273e32a97e13609d37", "is_disabled": 0, "is_reserved": 0}, {"rental_uris": {"ios": "https://dc.lft.to/lastmile_qr_scan", "android": "https://dc.lft.to/lastmile_qr_scan"}, "lon": -76.95408966666666, "type": "electric_scooter", "fusion_lat": 0.0, "lat": 38.88998016666667, "name": "29d99c80b0065cb40e487012a12198eb", "fusion_lon": 0.0, "bike_id": "29d99c80b0065cb40e487012a12198eb", "is_disabled": 0, "is_reserved": 0}, {"rental_uris": {"ios": "https://dc.lft.to/lastmile_qr_scan", "android": "https://dc.lft.to/lastmile_qr_scan"}, "lon": -77.03863083333333, "type": "electric_scooter", "fusion_lat": 0.0, "lat": 38.91564866666667, "name": "e6882c7219676ff3569fda1a329bfd9e", "fusion_lon": 0.0, "bike_id": "e6882c7219676ff3569fda1a329bfd9e", "is_disabled": 0, "is_reserved": 0}, {"rental_uris": {"ios": "https://dc.lft.to/lastmile_qr_scan", "android": "https://dc.lft.to/lastmile_qr_scan"}, "lon": -77.02099466666667, "type": "electric_scooter", "fusion_lat": 0.0, "lat": 38.914146, "name": "8160eca26434b9b86066b41fc379d3f8", "fusion_lon": 0.0, "bike_id": "8160eca26434b9b86066b41fc379d3f8", "is_disabled": 0, "is_reserved": 0}, {"rental_uris": {"ios": "https://dc.lft.to/lastmile_qr_scan", "android": "https://dc.lft.to/lastmile_qr_scan"}, "lon": -77.054734, "type": "electric_scooter", "fusion_lat": 0.0, "lat": 38.92103083333333, "name": "9057590f09773d8291ffe6e4f95c477d", "fusion_lon": 0.0, "bike_id": "9057590f09773d8291ffe6e4f95c477d", "is_disabled": 0, "is_reserved": 0}, {"rental_uris": {"ios": "https://dc.lft.to/lastmile_qr_scan", "android": "https://dc.lft.to/lastmile_qr_scan"}, "lon": -77.04132733333333, "type": "electric_scooter", "fusion_lat": 0.0, "lat": 38.939715666666665, "name": "ce05f566aca461f12d2e4f114e32c4c8", "fusion_lon": 0.0, "bike_id": "ce05f566aca461f12d2e4f114e32c4c8", "is_disabled": 0, "is_reserved": 0}, {"rental_uris": {"ios": "https://dc.lft.to/lastmile_qr_scan", "android": "https://dc.lft.to/lastmile_qr_scan"}, "lon": -77.04175583333334, "type": "electric_scooter", "fusion_lat": 0.0, "lat": 38.91152233333333, "name": "e075949d11333b58b97f6bd03e27b8b9", "fusion_lon": 0.0, "bike_id": "e075949d11333b58b97f6bd03e27b8b9", "is_disabled": 0, "is_reserved": 0}, {"rental_uris": {"ios": "https://dc.lft.to/lastmile_qr_scan", "android": "https://dc.lft.to/lastmile_qr_scan"}, "lon": -77.03830816666667, "type": "electric_scooter", "fusion_lat": 0.0, "lat": 38.8987135, "name": "137a95863ba88c38b91afaf38926b5c2", "fusion_lon": 0.0, "bike_id": "137a95863ba88c38b91afaf38926b5c2", "is_disabled": 0, "is_reserved": 0}, {"rental_uris": {"ios": "https://dc.lft.to/lastmile_qr_scan", "android": "https://dc.lft.to/lastmile_qr_scan"}, "lon": -76.94996633333334, "type": "electric_scooter", "fusion_lat": 0.0, "lat": 38.8937305, "name": "eeebf52032da3272986be165430929ea", "fusion_lon": 0.0, "bike_id": "eeebf52032da3272986be165430929ea", "is_disabled": 0, "is_reserved": 0}, {"rental_uris": {"ios": "https://dc.lft.to/lastmile_qr_scan", "android": "https://dc.lft.to/lastmile_qr_scan"}, "lon": -77.003339, "type": "electric_scooter", "fusion_lat": 0.0, "lat": 38.893617166666665, "name": "d18e7eea3cc66c64b0da6bda080ef89f", "fusion_lon": 0.0, "bike_id": "d18e7eea3cc66c64b0da6bda080ef89f", "is_disabled": 0, "is_reserved": 0}, {"rental_uris": {"ios": "https://dc.lft.to/lastmile_qr_scan", "android": "https://dc.lft.to/lastmile_qr_scan"}, "lon": -76.960903, "type": "electric_scooter", "fusion_lat": 0.0, "lat": 38.874168833333336, "name": "aafa401c04158a0e390d35caa0edc593", "fusion_lon": 0.0, "bike_id": "aafa401c04158a0e390d35caa0edc593", "is_disabled": 0, "is_reserved": 0}, {"rental_uris": {"ios": "https://dc.lft.to/lastmile_qr_scan", "android": "https://dc.lft.to/lastmile_qr_scan"}, "lon": -77.02167166666666, "type": "electric_scooter", "fusion_lat": 0.0, "lat": 38.942905333333336, "name": "8babb37db27d2653afd5081e1d7488ab", "fusion_lon": 0.0, "bike_id": "8babb37db27d2653afd5081e1d7488ab", "is_disabled": 0, "is_reserved": 0}, {"rental_uris": {"ios": "https://dc.lft.to/lastmile_qr_scan", "android": "https://dc.lft.to/lastmile_qr_scan"}, "lon": -77.03245916666667, "type": "electric_scooter", "fusion_lat": 0.0, "lat": 38.9245115, "name": "1bebccc74b96437b5308463d0581260c", "fusion_lon": 0.0, "bike_id": "1bebccc74b96437b5308463d0581260c", "is_disabled": 0, "is_reserved": 0}, {"rental_uris": {"ios": "https://dc.lft.to/lastmile_qr_scan", "android": "https://dc.lft.to/lastmile_qr_scan"}, "lon": -76.9897615, "type": "electric_scooter", "fusion_lat": 0.0, "lat": 38.8592515, "name": "d84f8e58fe9fb8c737090090043e69fd", "fusion_lon": 0.0, "bike_id": "d84f8e58fe9fb8c737090090043e69fd", "is_disabled": 0, "is_reserved": 0}, {"rental_uris": {"ios": "https://dc.lft.to/lastmile_qr_scan", "android": "https://dc.lft.to/lastmile_qr_scan"}, "lon": -77.036264, "type": "electric_bike", "fusion_lat": 0.0, "lat": 38.9560855, "name": "088525387e7bebd4b6c5a10587425883", "fusion_lon": 0.0, "bike_id": "088525387e7bebd4b6c5a10587425883", "is_disabled": 0, "is_reserved": 0}, {"rental_uris": {"ios": "https://dc.lft.to/lastmile_qr_scan", "android": "https://dc.lft.to/lastmile_qr_scan"}, "lon": -77.0380225, "type": "electric_scooter", "fusion_lat": 0.0, "lat": 38.9339725, "name": "4a4a26264bb3a9e797480c53a0b9da49", "fusion_lon": 0.0, "bike_id": "4a4a26264bb3a9e797480c53a0b9da49", "is_disabled": 0, "is_reserved": 0}, {"rental_uris": {"ios": "https://dc.lft.to/lastmile_qr_scan", "android": "https://dc.lft.to/lastmile_qr_scan"}, "lon": -77.0005115, "type": "electric_scooter", "fusion_lat": 0.0, "lat": 38.920662, "name": "a60fba38c77edb61c735b30b5d1ecbd2", "fusion_lon": 0.0, "bike_id": "a60fba38c77edb61c735b30b5d1ecbd2", "is_disabled": 0, "is_reserved": 0}, {"rental_uris": {"ios": "https://dc.lft.to/lastmile_qr_scan", "android": "https://dc.lft.to/lastmile_qr_scan"}, "lon": -77.09620883333334, "type": "electric_bike", "fusion_lat": 0.0, "lat": 38.8457235, "name": "7fc3caed568c522ebfd7dd08644f3138", "fusion_lon": 0.0, "bike_id": "7fc3caed568c522ebfd7dd08644f3138", "is_disabled": 0, "is_reserved": 0}, {"rental_uris": {"ios": "https://dc.lft.to/lastmile_qr_scan", "android": "https://dc.lft.to/lastmile_qr_scan"}, "lon": -77.03263983333333, "type": "electric_scooter", "fusion_lat": 0.0, "lat": 38.935291166666666, "name": "e0de894396e51041af36988da57010a3", "fusion_lon": 0.0, "bike_id": "e0de894396e51041af36988da57010a3", "is_disabled": 0, "is_reserved": 0}, {"rental_uris": {"ios": "https://dc.lft.to/lastmile_qr_scan", "android": "https://dc.lft.to/lastmile_qr_scan"}, "lon": -77.03801816666666, "type": "electric_scooter", "fusion_lat": 0.0, "lat": 38.93113866666667, "name": "9089c9c334777a5e9e01aa8262d2c413", "fusion_lon": 0.0, "bike_id": "9089c9c334777a5e9e01aa8262d2c413", "is_disabled": 0, "is_reserved": 0}, {"rental_uris": {"ios": "https://dc.lft.to/lastmile_qr_scan", "android": "https://dc.lft.to/lastmile_qr_scan"}, "lon": -77.04355816666667, "type": "electric_scooter", "fusion_lat": 0.0, "lat": 38.90109666666667, "name": "14877917d7e8513fd6c2355cb57aa222", "fusion_lon": 0.0, "bike_id": "14877917d7e8513fd6c2355cb57aa222", "is_disabled": 0, "is_reserved": 0}, {"rental_uris": {"ios": "https://dc.lft.to/lastmile_qr_scan", "android": "https://dc.lft.to/lastmile_qr_scan"}, "lon": -77.02710416666666, "type": "electric_scooter", "fusion_lat": 0.0, "lat": 38.896211666666666, "name": "2c5534d5a217db054c832e4a54aca2b0", "fusion_lon": 0.0, "bike_id": "2c5534d5a217db054c832e4a54aca2b0", "is_disabled": 0, "is_reserved": 0}, {"rental_uris": {"ios": "https://dc.lft.to/lastmile_qr_scan", "android": "https://dc.lft.to/lastmile_qr_scan"}, "lon": -77.04612783333333, "type": "electric_bike", "fusion_lat": 0.0, "lat": 38.999074, "name": "c411faeaaf8b30ff1ccffd9192a34ccb", "fusion_lon": 0.0, "bike_id": "c411faeaaf8b30ff1ccffd9192a34ccb", "is_disabled": 0, "is_reserved": 0}, {"rental_uris": {"ios": "https://dc.lft.to/lastmile_qr_scan", "android": "https://dc.lft.to/lastmile_qr_scan"}, "lon": -77.06470716666666, "type": "electric_bike", "fusion_lat": 0.0, "lat": 38.973855666666665, "name": "eb578ec6e2cc7e168bfa6399d88b1505", "fusion_lon": 0.0, "bike_id": "eb578ec6e2cc7e168bfa6399d88b1505", "is_disabled": 0, "is_reserved": 0}, {"rental_uris": {"ios": "https://dc.lft.to/lastmile_qr_scan", "android": "https://dc.lft.to/lastmile_qr_scan"}, "lon": -77.0358135, "type": "electric_scooter", "fusion_lat": 0.0, "lat": 38.933962333333334, "name": "26c7b2d3013f711ef22f03fde7e9a845", "fusion_lon": 0.0, "bike_id": "26c7b2d3013f711ef22f03fde7e9a845", "is_disabled": 0, "is_reserved": 0}, {"rental_uris": {"ios": "https://dc.lft.to/lastmile_qr_scan", "android": "https://dc.lft.to/lastmile_qr_scan"}, "lon": -77.05881233333334, "type": "electric_scooter", "fusion_lat": 0.0, "lat": 38.936446333333336, "name": "959add6d1d9a6d515c179a9ea25b215b", "fusion_lon": 0.0, "bike_id": "959add6d1d9a6d515c179a9ea25b215b", "is_disabled": 0, "is_reserved": 0}, {"rental_uris": {"ios": "https://dc.lft.to/lastmile_qr_scan", "android": "https://dc.lft.to/lastmile_qr_scan"}, "lon": -77.0075885, "type": "electric_scooter", "fusion_lat": 0.0, "lat": 38.90398916666667, "name": "fde1cc350d88d67e5b589cedad403f9c", "fusion_lon": 0.0, "bike_id": "fde1cc350d88d67e5b589cedad403f9c", "is_disabled": 0, "is_reserved": 0}, {"rental_uris": {"ios": "https://dc.lft.to/lastmile_qr_scan", "android": "https://dc.lft.to/lastmile_qr_scan"}, "lon": -77.02969033333333, "type": "electric_scooter", "fusion_lat": 0.0, "lat": 38.93612983333333, "name": "068497f9fd22097a0b30f403d4e7d783", "fusion_lon": 0.0, "bike_id": "068497f9fd22097a0b30f403d4e7d783", "is_disabled": 0, "is_reserved": 0}, {"rental_uris": {"ios": "https://dc.lft.to/lastmile_qr_scan", "android": "https://dc.lft.to/lastmile_qr_scan"}, "lon": -77.043424, "type": "electric_scooter", "fusion_lat": 0.0, "lat": 38.92230216666667, "name": "fe3406944e8b592954f139151c5f9c50", "fusion_lon": 0.0, "bike_id": "fe3406944e8b592954f139151c5f9c50", "is_disabled": 0, "is_reserved": 0}, {"rental_uris": {"ios": "https://dc.lft.to/lastmile_qr_scan", "android": "https://dc.lft.to/lastmile_qr_scan"}, "lon": -77.06275, "type": "electric_scooter", "fusion_lat": 0.0, "lat": 38.90629666666667, "name": "a77a05e55e6f5ebe6f44bab141bc26d2", "fusion_lon": 0.0, "bike_id": "a77a05e55e6f5ebe6f44bab141bc26d2", "is_disabled": 0, "is_reserved": 0}, {"rental_uris": {"ios": "https://dc.lft.to/lastmile_qr_scan", "android": "https://dc.lft.to/lastmile_qr_scan"}, "lon": -77.04692616666667, "type": "electric_scooter", "fusion_lat": 0.0, "lat": 38.897472666666665, "name": "591bfb11ea9f141f702b3d55fda512af", "fusion_lon": 0.0, "bike_id": "591bfb11ea9f141f702b3d55fda512af", "is_disabled": 0, "is_reserved": 0}, {"rental_uris": {"ios": "https://dc.lft.to/lastmile_qr_scan", "android": "https://dc.lft.to/lastmile_qr_scan"}, "lon": -76.995164, "type": "electric_scooter", "fusion_lat": 0.0, "lat": 38.86261916666667, "name": "d4696b9f2318a648080f6b080675b654", "fusion_lon": 0.0, "bike_id": "d4696b9f2318a648080f6b080675b654", "is_disabled": 0, "is_reserved": 0}, {"rental_uris": {"ios": "https://dc.lft.to/lastmile_qr_scan", "android": "https://dc.lft.to/lastmile_qr_scan"}, "lon": -77.02355016666667, "type": "electric_scooter", "fusion_lat": 0.0, "lat": 38.945223, "name": "43224d90cccac47be018a0611bad7db2", "fusion_lon": 0.0, "bike_id": "43224d90cccac47be018a0611bad7db2", "is_disabled": 0, "is_reserved": 0}, {"rental_uris": {"ios": "https://dc.lft.to/lastmile_qr_scan", "android": "https://dc.lft.to/lastmile_qr_scan"}, "lon": -77.04999233333334, "type": "electric_scooter", "fusion_lat": 0.0, "lat": 38.89229483333333, "name": "d9d8bbc8185c020481ee1ce92dd8b58e", "fusion_lon": 0.0, "bike_id": "d9d8bbc8185c020481ee1ce92dd8b58e", "is_disabled": 0, "is_reserved": 0}, {"rental_uris": {"ios": "https://dc.lft.to/lastmile_qr_scan", "android": "https://dc.lft.to/lastmile_qr_scan"}, "lon": -77.03856766666667, "type": "electric_scooter", "fusion_lat": 0.0, "lat": 38.9203145, "name": "908198996e9e53d2fe27670e57b5b2ac", "fusion_lon": 0.0, "bike_id": "908198996e9e53d2fe27670e57b5b2ac", "is_disabled": 0, "is_reserved": 0}, {"rental_uris": {"ios": "https://dc.lft.to/lastmile_qr_scan", "android": "https://dc.lft.to/lastmile_qr_scan"}, "lon": -77.01610033333333, "type": "electric_scooter", "fusion_lat": 0.0, "lat": 38.899658333333335, "name": "c2aacfa6fc011e886f5a7517a9b39fa6", "fusion_lon": 0.0, "bike_id": "c2aacfa6fc011e886f5a7517a9b39fa6", "is_disabled": 0, "is_reserved": 0}, {"rental_uris": {"ios": "https://dc.lft.to/lastmile_qr_scan", "android": "https://dc.lft.to/lastmile_qr_scan"}, "lon": -76.948871, "type": "electric_scooter", "fusion_lat": 0.0, "lat": 38.895358333333334, "name": "fa30e2f9cdf19cb4152dddad14303b51", "fusion_lon": 0.0, "bike_id": "fa30e2f9cdf19cb4152dddad14303b51", "is_disabled": 0, "is_reserved": 0}, {"rental_uris": {"ios": "https://dc.lft.to/lastmile_qr_scan", "android": "https://dc.lft.to/lastmile_qr_scan"}, "lon": -77.01252316666667, "type": "electric_scooter", "fusion_lat": 0.0, "lat": 38.89965683333333, "name": "7c01a1f87e327905269718d12e32109b", "fusion_lon": 0.0, "bike_id": "7c01a1f87e327905269718d12e32109b", "is_disabled": 0, "is_reserved": 0}, {"rental_uris": {"ios": "https://dc.lft.to/lastmile_qr_scan", "android": "https://dc.lft.to/lastmile_qr_scan"}, "lon": -76.987159, "type": "electric_scooter", "fusion_lat": 0.0, "lat": 38.862748833333335, "name": "9ad8bc391402a6c96fdc6e303945fe21", "fusion_lon": 0.0, "bike_id": "9ad8bc391402a6c96fdc6e303945fe21", "is_disabled": 0, "is_reserved": 0}, {"rental_uris": {"ios": "https://dc.lft.to/lastmile_qr_scan", "android": "https://dc.lft.to/lastmile_qr_scan"}, "lon": -77.01010183333334, "type": "electric_scooter", "fusion_lat": 0.0, "lat": 38.894916, "name": "9e96b944fe9e8d37306248940ea1910a", "fusion_lon": 0.0, "bike_id": "9e96b944fe9e8d37306248940ea1910a", "is_disabled": 0, "is_reserved": 0}, {"rental_uris": {"ios": "https://dc.lft.to/lastmile_qr_scan", "android": "https://dc.lft.to/lastmile_qr_scan"}, "lon": -77.13593783333333, "type": "electric_bike", "fusion_lat": 0.0, "lat": 39.0534745, "name": "87c7e88ac2219648777f50d26c70ad67", "fusion_lon": 0.0, "bike_id": "87c7e88ac2219648777f50d26c70ad67", "is_disabled": 0, "is_reserved": 0}, {"rental_uris": {"ios": "https://dc.lft.to/lastmile_qr_scan", "android": "https://dc.lft.to/lastmile_qr_scan"}, "lon": -76.991464, "type": "electric_scooter", "fusion_lat": 0.0, "lat": 38.9004015, "name": "2822d3f7a58c3a5d0b162bd0f5125a75", "fusion_lon": 0.0, "bike_id": "2822d3f7a58c3a5d0b162bd0f5125a75", "is_disabled": 0, "is_reserved": 0}, {"rental_uris": {"ios": "https://dc.lft.to/lastmile_qr_scan", "android": "https://dc.lft.to/lastmile_qr_scan"}, "lon": -77.02208066666667, "type": "electric_scooter", "fusion_lat": 0.0, "lat": 38.887376, "name": "a47f436c0c3d1fdced6726015540d0af", "fusion_lon": 0.0, "bike_id": "a47f436c0c3d1fdced6726015540d0af", "is_disabled": 0, "is_reserved": 0}, {"rental_uris": {"ios": "https://dc.lft.to/lastmile_qr_scan", "android": "https://dc.lft.to/lastmile_qr_scan"}, "lon": -77.07874183333334, "type": "electric_scooter", "fusion_lat": 0.0, "lat": 38.93166733333333, "name": "fe0b803db499e898935a237d0e22d8d1", "fusion_lon": 0.0, "bike_id": "fe0b803db499e898935a237d0e22d8d1", "is_disabled": 0, "is_reserved": 0}, {"rental_uris": {"ios": "https://dc.lft.to/lastmile_qr_scan", "android": "https://dc.lft.to/lastmile_qr_scan"}, "lon": -77.041925, "type": "electric_scooter", "fusion_lat": 0.0, "lat": 38.9006685, "name": "cfc9a422ad4a5815ad7d78543a3c9fef", "fusion_lon": 0.0, "bike_id": "cfc9a422ad4a5815ad7d78543a3c9fef", "is_disabled": 0, "is_reserved": 0}, {"rental_uris": {"ios": "https://dc.lft.to/lastmile_qr_scan", "android": "https://dc.lft.to/lastmile_qr_scan"}, "lon": -77.02725733333334, "type": "electric_scooter", "fusion_lat": 0.0, "lat": 38.9340075, "name": "669a1068e32fd0d2f552cbbfcbae3b75", "fusion_lon": 0.0, "bike_id": "669a1068e32fd0d2f552cbbfcbae3b75", "is_disabled": 0, "is_reserved": 0}, {"rental_uris": {"ios": "https://dc.lft.to/lastmile_qr_scan", "android": "https://dc.lft.to/lastmile_qr_scan"}, "lon": -77.0013565, "type": "electric_scooter", "fusion_lat": 0.0, "lat": 38.9041295, "name": "b065a0f14736a95b34778528b26808c8", "fusion_lon": 0.0, "bike_id": "b065a0f14736a95b34778528b26808c8", "is_disabled": 0, "is_reserved": 0}, {"rental_uris": {"ios": "https://dc.lft.to/lastmile_qr_scan", "android": "https://dc.lft.to/lastmile_qr_scan"}, "lon": -76.92720866666667, "type": "electric_scooter", "fusion_lat": 0.0, "lat": 38.88041316666666, "name": "75b4669e4ac90f50bb31ec556eb77adf", "fusion_lon": 0.0, "bike_id": "75b4669e4ac90f50bb31ec556eb77adf", "is_disabled": 0, "is_reserved": 0}, {"rental_uris": {"ios": "https://dc.lft.to/lastmile_qr_scan", "android": "https://dc.lft.to/lastmile_qr_scan"}, "lon": -77.0221605, "type": "electric_scooter", "fusion_lat": 0.0, "lat": 38.905723333333334, "name": "1bb45cd7e3a7521dd802a61df4ebf3ca", "fusion_lon": 0.0, "bike_id": "1bb45cd7e3a7521dd802a61df4ebf3ca", "is_disabled": 0, "is_reserved": 0}, {"rental_uris": {"ios": "https://dc.lft.to/lastmile_qr_scan", "android": "https://dc.lft.to/lastmile_qr_scan"}, "lon": -77.02712666666666, "type": "electric_scooter", "fusion_lat": 0.0, "lat": 38.881355666666664, "name": "5e076e27a1be2ca65eb87dbd82c8ab14", "fusion_lon": 0.0, "bike_id": "5e076e27a1be2ca65eb87dbd82c8ab14", "is_disabled": 0, "is_reserved": 0}, {"rental_uris": {"ios": "https://dc.lft.to/lastmile_qr_scan", "android": "https://dc.lft.to/lastmile_qr_scan"}, "lon": -77.02977033333333, "type": "electric_scooter", "fusion_lat": 0.0, "lat": 38.96231933333333, "name": "442a97efae862be10840772ac90a6d49", "fusion_lon": 0.0, "bike_id": "442a97efae862be10840772ac90a6d49", "is_disabled": 0, "is_reserved": 0}, {"rental_uris": {"ios": "https://dc.lft.to/lastmile_qr_scan", "android": "https://dc.lft.to/lastmile_qr_scan"}, "lon": -77.10335566666667, "type": "electric_bike", "fusion_lat": 0.0, "lat": 38.852328666666665, "name": "cbb3fee228805e90a42b25be2fa8b574", "fusion_lon": 0.0, "bike_id": "cbb3fee228805e90a42b25be2fa8b574", "is_disabled": 0, "is_reserved": 0}, {"rental_uris": {"ios": "https://dc.lft.to/lastmile_qr_scan", "android": "https://dc.lft.to/lastmile_qr_scan"}, "lon": -76.9258125, "type": "electric_scooter", "fusion_lat": 0.0, "lat": 38.897315166666665, "name": "e2c010e0c2ebba5138c6c6f8f6670fe6", "fusion_lon": 0.0, "bike_id": "e2c010e0c2ebba5138c6c6f8f6670fe6", "is_disabled": 0, "is_reserved": 0}, {"rental_uris": {"ios": "https://dc.lft.to/lastmile_qr_scan", "android": "https://dc.lft.to/lastmile_qr_scan"}, "lon": -77.007156, "type": "electric_scooter", "fusion_lat": 0.0, "lat": 38.884905833333335, "name": "3e1186d729f285c58956aae766abbeb8", "fusion_lon": 0.0, "bike_id": "3e1186d729f285c58956aae766abbeb8", "is_disabled": 0, "is_reserved": 0}, {"rental_uris": {"ios": "https://dc.lft.to/lastmile_qr_scan", "android": "https://dc.lft.to/lastmile_qr_scan"}, "lon": -77.01276633333333, "type": "electric_bike", "fusion_lat": 0.0, "lat": 38.881257, "name": "95fe4adeff0ee86759c624904c35c320", "fusion_lon": 0.0, "bike_id": "95fe4adeff0ee86759c624904c35c320", "is_disabled": 0, "is_reserved": 0}, {"rental_uris": {"ios": "https://dc.lft.to/lastmile_qr_scan", "android": "https://dc.lft.to/lastmile_qr_scan"}, "lon": -77.03031766666666, "type": "electric_scooter", "fusion_lat": 0.0, "lat": 38.89727233333333, "name": "812691d7f2cf2caa3116c7a7b18f328c", "fusion_lon": 0.0, "bike_id": "812691d7f2cf2caa3116c7a7b18f328c", "is_disabled": 0, "is_reserved": 0}, {"rental_uris": {"ios": "https://dc.lft.to/lastmile_qr_scan", "android": "https://dc.lft.to/lastmile_qr_scan"}, "lon": -77.07680416666666, "type": "electric_bike", "fusion_lat": 0.0, "lat": 38.83195466666667, "name": "64e0b5559899b69fcf792f4047f75e50", "fusion_lon": 0.0, "bike_id": "64e0b5559899b69fcf792f4047f75e50", "is_disabled": 0, "is_reserved": 0}, {"rental_uris": {"ios": "https://dc.lft.to/lastmile_qr_scan", "android": "https://dc.lft.to/lastmile_qr_scan"}, "lon": -77.0437715, "type": "electric_scooter", "fusion_lat": 0.0, "lat": 38.92072316666667, "name": "f4b45be4cdeb9f05a9fdb2e586739504", "fusion_lon": 0.0, "bike_id": "f4b45be4cdeb9f05a9fdb2e586739504", "is_disabled": 0, "is_reserved": 0}, {"rental_uris": {"ios": "https://dc.lft.to/lastmile_qr_scan", "android": "https://dc.lft.to/lastmile_qr_scan"}, "lon": -77.03183016666667, "type": "electric_scooter", "fusion_lat": 0.0, "lat": 38.9183875, "name": "8f0d8243fa4ff207d93c5db3aaa671ec", "fusion_lon": 0.0, "bike_id": "8f0d8243fa4ff207d93c5db3aaa671ec", "is_disabled": 0, "is_reserved": 0}, {"rental_uris": {"ios": "https://dc.lft.to/lastmile_qr_scan", "android": "https://dc.lft.to/lastmile_qr_scan"}, "lon": -77.03214616666666, "type": "electric_scooter", "fusion_lat": 0.0, "lat": 38.92589266666667, "name": "a67fd0728406ce259f7096e68a68c7fa", "fusion_lon": 0.0, "bike_id": "a67fd0728406ce259f7096e68a68c7fa", "is_disabled": 0, "is_reserved": 0}, {"rental_uris": {"ios": "https://dc.lft.to/lastmile_qr_scan", "android": "https://dc.lft.to/lastmile_qr_scan"}, "lon": -76.97814033333333, "type": "electric_scooter", "fusion_lat": 0.0, "lat": 38.9067755, "name": "7a8c5e13ed717ce8bf3086c976dad2cc", "fusion_lon": 0.0, "bike_id": "7a8c5e13ed717ce8bf3086c976dad2cc", "is_disabled": 0, "is_reserved": 0}, {"rental_uris": {"ios": "https://dc.lft.to/lastmile_qr_scan", "android": "https://dc.lft.to/lastmile_qr_scan"}, "lon": -77.037248, "type": "electric_scooter", "fusion_lat": 0.0, "lat": 38.933632833333334, "name": "49aa177a4a3b52d47baa585315e38958", "fusion_lon": 0.0, "bike_id": "49aa177a4a3b52d47baa585315e38958", "is_disabled": 0, "is_reserved": 0}, {"rental_uris": {"ios": "https://dc.lft.to/lastmile_qr_scan", "android": "https://dc.lft.to/lastmile_qr_scan"}, "lon": -77.11195233333333, "type": "electric_bike", "fusion_lat": 0.0, "lat": 38.81305433333333, "name": "eefd6b9db948baa3f9925f5358126578", "fusion_lon": 0.0, "bike_id": "eefd6b9db948baa3f9925f5358126578", "is_disabled": 0, "is_reserved": 0}, {"rental_uris": {"ios": "https://dc.lft.to/lastmile_qr_scan", "android": "https://dc.lft.to/lastmile_qr_scan"}, "lon": -77.12258483333333, "type": "electric_bike", "fusion_lat": 0.0, "lat": 38.89188683333333, "name": "f9672154b1fa6ce2e120e40c2fb3735f", "fusion_lon": 0.0, "bike_id": "f9672154b1fa6ce2e120e40c2fb3735f", "is_disabled": 0, "is_reserved": 0}, {"rental_uris": {"ios": "https://dc.lft.to/lastmile_qr_scan", "android": "https://dc.lft.to/lastmile_qr_scan"}, "lon": -77.051353, "type": "electric_scooter", "fusion_lat": 0.0, "lat": 38.90234133333333, "name": "df4de3e3221081fcd14051f5682e7418", "fusion_lon": 0.0, "bike_id": "df4de3e3221081fcd14051f5682e7418", "is_disabled": 0, "is_reserved": 0}, {"rental_uris": {"ios": "https://dc.lft.to/lastmile_qr_scan", "android": "https://dc.lft.to/lastmile_qr_scan"}, "lon": -77.02413283333334, "type": "electric_scooter", "fusion_lat": 0.0, "lat": 38.89217633333333, "name": "8cef5dc3c7e8cd9ac2b689965934da28", "fusion_lon": 0.0, "bike_id": "8cef5dc3c7e8cd9ac2b689965934da28", "is_disabled": 0, "is_reserved": 0}, {"rental_uris": {"ios": "https://dc.lft.to/lastmile_qr_scan", "android": "https://dc.lft.to/lastmile_qr_scan"}, "lon": -77.0416015, "type": "electric_scooter", "fusion_lat": 0.0, "lat": 38.911501333333334, "name": "6f92fafc42fba8c56cd2b3c0848a8f3c", "fusion_lon": 0.0, "bike_id": "6f92fafc42fba8c56cd2b3c0848a8f3c", "is_disabled": 0, "is_reserved": 0}, {"rental_uris": {"ios": "https://dc.lft.to/lastmile_qr_scan", "android": "https://dc.lft.to/lastmile_qr_scan"}, "lon": -76.9352635, "type": "electric_bike", "fusion_lat": 0.0, "lat": 38.95540733333333, "name": "7bb2214109a716185515d7d29bd30538", "fusion_lon": 0.0, "bike_id": "7bb2214109a716185515d7d29bd30538", "is_disabled": 0, "is_reserved": 0}, {"rental_uris": {"ios": "https://dc.lft.to/lastmile_qr_scan", "android": "https://dc.lft.to/lastmile_qr_scan"}, "lon": -77.02073616666667, "type": "electric_scooter", "fusion_lat": 0.0, "lat": 38.915497333333334, "name": "986b3ec27bf150d7d6d8387e27ec7796", "fusion_lon": 0.0, "bike_id": "986b3ec27bf150d7d6d8387e27ec7796", "is_disabled": 0, "is_reserved": 0}, {"rental_uris": {"ios": "https://dc.lft.to/lastmile_qr_scan", "android": "https://dc.lft.to/lastmile_qr_scan"}, "lon": -77.04369833333334, "type": "electric_scooter", "fusion_lat": 0.0, "lat": 38.92812083333333, "name": "3c7227cb1ec27cda385ed9d5590e802a", "fusion_lon": 0.0, "bike_id": "3c7227cb1ec27cda385ed9d5590e802a", "is_disabled": 0, "is_reserved": 0}, {"rental_uris": {"ios": "https://dc.lft.to/lastmile_qr_scan", "android": "https://dc.lft.to/lastmile_qr_scan"}, "lon": -76.995038, "type": "electric_scooter", "fusion_lat": 0.0, "lat": 38.899613, "name": "60f57dddead72931644de0d0b2edb908", "fusion_lon": 0.0, "bike_id": "60f57dddead72931644de0d0b2edb908", "is_disabled": 0, "is_reserved": 0}, {"rental_uris": {"ios": "https://dc.lft.to/lastmile_qr_scan", "android": "https://dc.lft.to/lastmile_qr_scan"}, "lon": -77.053161, "type": "electric_scooter", "fusion_lat": 0.0, "lat": 38.926249, "name": "8dccee8b8b68c5da6d27e880fcce2f76", "fusion_lon": 0.0, "bike_id": "8dccee8b8b68c5da6d27e880fcce2f76", "is_disabled": 0, "is_reserved": 0}, {"rental_uris": {"ios": "https://dc.lft.to/lastmile_qr_scan", "android": "https://dc.lft.to/lastmile_qr_scan"}, "lon": -76.93174633333334, "type": "electric_scooter", "fusion_lat": 0.0, "lat": 38.898857, "name": "1a0b9628abcb9fb59a8609c438c375b6", "fusion_lon": 0.0, "bike_id": "1a0b9628abcb9fb59a8609c438c375b6", "is_disabled": 0, "is_reserved": 0}, {"rental_uris": {"ios": "https://dc.lft.to/lastmile_qr_scan", "android": "https://dc.lft.to/lastmile_qr_scan"}, "lon": -76.97503133333333, "type": "electric_scooter", "fusion_lat": 0.0, "lat": 38.869187, "name": "664feaa305ab73f53b29384d3881732f", "fusion_lon": 0.0, "bike_id": "664feaa305ab73f53b29384d3881732f", "is_disabled": 0, "is_reserved": 0}, {"rental_uris": {"ios": "https://dc.lft.to/lastmile_qr_scan", "android": "https://dc.lft.to/lastmile_qr_scan"}, "lon": -77.041402, "type": "electric_scooter", "fusion_lat": 0.0, "lat": 38.92299083333333, "name": "3661a490743422e9033ff706fc59348d", "fusion_lon": 0.0, "bike_id": "3661a490743422e9033ff706fc59348d", "is_disabled": 0, "is_reserved": 0}, {"rental_uris": {"ios": "https://dc.lft.to/lastmile_qr_scan", "android": "https://dc.lft.to/lastmile_qr_scan"}, "lon": -77.00776416666666, "type": "electric_scooter", "fusion_lat": 0.0, "lat": 38.89738766666667, "name": "741062a2726367dc4f2d7cd6ccf19bf9", "fusion_lon": 0.0, "bike_id": "741062a2726367dc4f2d7cd6ccf19bf9", "is_disabled": 0, "is_reserved": 0}, {"rental_uris": {"ios": "https://dc.lft.to/lastmile_qr_scan", "android": "https://dc.lft.to/lastmile_qr_scan"}, "lon": -77.02923566666666, "type": "electric_scooter", "fusion_lat": 0.0, "lat": 38.89548766666667, "name": "5db6116c75dc206195b8b42672095f78", "fusion_lon": 0.0, "bike_id": "5db6116c75dc206195b8b42672095f78", "is_disabled": 0, "is_reserved": 0}, {"rental_uris": {"ios": "https://dc.lft.to/lastmile_qr_scan", "android": "https://dc.lft.to/lastmile_qr_scan"}, "lon": -77.049764, "type": "electric_scooter", "fusion_lat": 0.0, "lat": 38.901082, "name": "4cfcc764cd6d838849fc9af84eae564d", "fusion_lon": 0.0, "bike_id": "4cfcc764cd6d838849fc9af84eae564d", "is_disabled": 0, "is_reserved": 0}, {"rental_uris": {"ios": "https://dc.lft.to/lastmile_qr_scan", "android": "https://dc.lft.to/lastmile_qr_scan"}, "lon": -76.98714183333334, "type": "electric_scooter", "fusion_lat": 0.0, "lat": 38.86702783333333, "name": "cecbea09e3827031d7fac6c00dd280af", "fusion_lon": 0.0, "bike_id": "cecbea09e3827031d7fac6c00dd280af", "is_disabled": 0, "is_reserved": 0}, {"rental_uris": {"ios": "https://dc.lft.to/lastmile_qr_scan", "android": "https://dc.lft.to/lastmile_qr_scan"}, "lon": -76.93176833333334, "type": "electric_scooter", "fusion_lat": 0.0, "lat": 38.89888333333333, "name": "e1fbdc5b3354c4ab32d83fa7b7ce76bc", "fusion_lon": 0.0, "bike_id": "e1fbdc5b3354c4ab32d83fa7b7ce76bc", "is_disabled": 0, "is_reserved": 0}, {"rental_uris": {"ios": "https://dc.lft.to/lastmile_qr_scan", "android": "https://dc.lft.to/lastmile_qr_scan"}, "lon": -77.02208833333333, "type": "electric_scooter", "fusion_lat": 0.0, "lat": 38.9223345, "name": "f7d18c136605d6adc3f0758d0be7c5f3", "fusion_lon": 0.0, "bike_id": "f7d18c136605d6adc3f0758d0be7c5f3", "is_disabled": 0, "is_reserved": 0}, {"rental_uris": {"ios": "https://dc.lft.to/lastmile_qr_scan", "android": "https://dc.lft.to/lastmile_qr_scan"}, "lon": -77.03288716666667, "type": "electric_scooter", "fusion_lat": 0.0, "lat": 38.90967216666667, "name": "e9f4d991f7fde5d7973fc297218b4d98", "fusion_lon": 0.0, "bike_id": "e9f4d991f7fde5d7973fc297218b4d98", "is_disabled": 0, "is_reserved": 0}, {"rental_uris": {"ios": "https://dc.lft.to/lastmile_qr_scan", "android": "https://dc.lft.to/lastmile_qr_scan"}, "lon": -76.99857533333333, "type": "electric_scooter", "fusion_lat": 0.0, "lat": 38.9078045, "name": "9fe47192fee7054af786b0298351ed64", "fusion_lon": 0.0, "bike_id": "9fe47192fee7054af786b0298351ed64", "is_disabled": 0, "is_reserved": 0}, {"rental_uris": {"ios": "https://dc.lft.to/lastmile_qr_scan", "android": "https://dc.lft.to/lastmile_qr_scan"}, "lon": -76.91918366666667, "type": "electric_scooter", "fusion_lat": 0.0, "lat": 38.900429833333334, "name": "c5fb7cba033afbe02b915401d87bdacd", "fusion_lon": 0.0, "bike_id": "c5fb7cba033afbe02b915401d87bdacd", "is_disabled": 0, "is_reserved": 0}, {"rental_uris": {"ios": "https://dc.lft.to/lastmile_qr_scan", "android": "https://dc.lft.to/lastmile_qr_scan"}, "lon": -77.00182866666667, "type": "electric_bike", "fusion_lat": 0.0, "lat": 38.88869833333333, "name": "c1244711fc5eb9554a7158d33e25b28c", "fusion_lon": 0.0, "bike_id": "c1244711fc5eb9554a7158d33e25b28c", "is_disabled": 0, "is_reserved": 0}, {"rental_uris": {"ios": "https://dc.lft.to/lastmile_qr_scan", "android": "https://dc.lft.to/lastmile_qr_scan"}, "lon": -77.0437595, "type": "electric_scooter", "fusion_lat": 0.0, "lat": 38.911179833333335, "name": "32fd62ad13dd26f03f5cbc97ba961afe", "fusion_lon": 0.0, "bike_id": "32fd62ad13dd26f03f5cbc97ba961afe", "is_disabled": 0, "is_reserved": 0}, {"rental_uris": {"ios": "https://dc.lft.to/lastmile_qr_scan", "android": "https://dc.lft.to/lastmile_qr_scan"}, "lon": -77.0413475, "type": "electric_scooter", "fusion_lat": 0.0, "lat": 38.9221005, "name": "a4c290c4601f5066713cf01d46592b09", "fusion_lon": 0.0, "bike_id": "a4c290c4601f5066713cf01d46592b09", "is_disabled": 0, "is_reserved": 0}, {"rental_uris": {"ios": "https://dc.lft.to/lastmile_qr_scan", "android": "https://dc.lft.to/lastmile_qr_scan"}, "lon": -77.04352616666667, "type": "electric_scooter", "fusion_lat": 0.0, "lat": 38.91050633333333, "name": "f64862859c8724918a8eda47f80e82aa", "fusion_lon": 0.0, "bike_id": "f64862859c8724918a8eda47f80e82aa", "is_disabled": 0, "is_reserved": 0}, {"rental_uris": {"ios": "https://dc.lft.to/lastmile_qr_scan", "android": "https://dc.lft.to/lastmile_qr_scan"}, "lon": -77.0652435, "type": "electric_scooter", "fusion_lat": 0.0, "lat": 38.90537783333333, "name": "54fde823aa3260326563c3be4d77b807", "fusion_lon": 0.0, "bike_id": "54fde823aa3260326563c3be4d77b807", "is_disabled": 0, "is_reserved": 0}, {"rental_uris": {"ios": "https://dc.lft.to/lastmile_qr_scan", "android": "https://dc.lft.to/lastmile_qr_scan"}, "lon": -77.021754, "type": "electric_bike", "fusion_lat": 0.0, "lat": 38.8925705, "name": "4b043b1ce7c1a5d0d2a10269ba787f58", "fusion_lon": 0.0, "bike_id": "4b043b1ce7c1a5d0d2a10269ba787f58", "is_disabled": 0, "is_reserved": 0}, {"rental_uris": {"ios": "https://dc.lft.to/lastmile_qr_scan", "android": "https://dc.lft.to/lastmile_qr_scan"}, "lon": -77.0405455, "type": "electric_scooter", "fusion_lat": 0.0, "lat": 38.92655766666667, "name": "17eb1e7e19de6108a35fe0c319a546f8", "fusion_lon": 0.0, "bike_id": "17eb1e7e19de6108a35fe0c319a546f8", "is_disabled": 0, "is_reserved": 0}, {"rental_uris": {"ios": "https://dc.lft.to/lastmile_qr_scan", "android": "https://dc.lft.to/lastmile_qr_scan"}, "lon": -77.05807016666667, "type": "electric_scooter", "fusion_lat": 0.0, "lat": 38.90296816666667, "name": "27a7d3f2a46d08f2d81ab0f205b48873", "fusion_lon": 0.0, "bike_id": "27a7d3f2a46d08f2d81ab0f205b48873", "is_disabled": 0, "is_reserved": 0}, {"rental_uris": {"ios": "https://dc.lft.to/lastmile_qr_scan", "android": "https://dc.lft.to/lastmile_qr_scan"}, "lon": -76.999468, "type": "electric_scooter", "fusion_lat": 0.0, "lat": 38.8429365, "name": "5cbb69f555f313d1d3ea74126e6b7251", "fusion_lon": 0.0, "bike_id": "5cbb69f555f313d1d3ea74126e6b7251", "is_disabled": 0, "is_reserved": 0}, {"rental_uris": {"ios": "https://dc.lft.to/lastmile_qr_scan", "android": "https://dc.lft.to/lastmile_qr_scan"}, "lon": -77.07040716666667, "type": "electric_bike", "fusion_lat": 0.0, "lat": 38.824483, "name": "ce5adde5bc93be23a200908f2d8ed21a", "fusion_lon": 0.0, "bike_id": "ce5adde5bc93be23a200908f2d8ed21a", "is_disabled": 0, "is_reserved": 0}, {"rental_uris": {"ios": "https://dc.lft.to/lastmile_qr_scan", "android": "https://dc.lft.to/lastmile_qr_scan"}, "lon": -77.03422466666666, "type": "electric_scooter", "fusion_lat": 0.0, "lat": 38.919302, "name": "2b2b712246060b0a67e7db9712e8aa86", "fusion_lon": 0.0, "bike_id": "2b2b712246060b0a67e7db9712e8aa86", "is_disabled": 0, "is_reserved": 0}, {"rental_uris": {"ios": "https://dc.lft.to/lastmile_qr_scan", "android": "https://dc.lft.to/lastmile_qr_scan"}, "lon": -77.00931483333333, "type": "electric_scooter", "fusion_lat": 0.0, "lat": 38.87200516666667, "name": "38542a5e90fb634cc0e9c7a81e74d03d", "fusion_lon": 0.0, "bike_id": "38542a5e90fb634cc0e9c7a81e74d03d", "is_disabled": 0, "is_reserved": 0}, {"rental_uris": {"ios": "https://dc.lft.to/lastmile_qr_scan", "android": "https://dc.lft.to/lastmile_qr_scan"}, "lon": -77.04329366666667, "type": "electric_scooter", "fusion_lat": 0.0, "lat": 38.89226816666667, "name": "290e68d6f4388f50cbb1219468b1eeb9", "fusion_lon": 0.0, "bike_id": "290e68d6f4388f50cbb1219468b1eeb9", "is_disabled": 0, "is_reserved": 0}, {"rental_uris": {"ios": "https://dc.lft.to/lastmile_qr_scan", "android": "https://dc.lft.to/lastmile_qr_scan"}, "lon": -77.0344585, "type": "electric_scooter", "fusion_lat": 0.0, "lat": 38.918264, "name": "a70eda81d0bb8d81092608f40b72d2a1", "fusion_lon": 0.0, "bike_id": "a70eda81d0bb8d81092608f40b72d2a1", "is_disabled": 0, "is_reserved": 0}, {"rental_uris": {"ios": "https://dc.lft.to/lastmile_qr_scan", "android": "https://dc.lft.to/lastmile_qr_scan"}, "lon": -77.0322495, "type": "electric_scooter", "fusion_lat": 0.0, "lat": 38.938723333333336, "name": "c812f2a74e1ebc7e667e6be824ec365b", "fusion_lon": 0.0, "bike_id": "c812f2a74e1ebc7e667e6be824ec365b", "is_disabled": 0, "is_reserved": 0}, {"rental_uris": {"ios": "https://dc.lft.to/lastmile_qr_scan", "android": "https://dc.lft.to/lastmile_qr_scan"}, "lon": -77.03671533333333, "type": "electric_scooter", "fusion_lat": 0.0, "lat": 38.929951, "name": "bcbc01d3e9441a34ca163b6b3d62e73f", "fusion_lon": 0.0, "bike_id": "bcbc01d3e9441a34ca163b6b3d62e73f", "is_disabled": 0, "is_reserved": 0}, {"rental_uris": {"ios": "https://dc.lft.to/lastmile_qr_scan", "android": "https://dc.lft.to/lastmile_qr_scan"}, "lon": -77.0357225, "type": "electric_scooter", "fusion_lat": 0.0, "lat": 38.881839666666664, "name": "c761efd1eca2c36a809a9950e083c8ec", "fusion_lon": 0.0, "bike_id": "c761efd1eca2c36a809a9950e083c8ec", "is_disabled": 0, "is_reserved": 0}, {"rental_uris": {"ios": "https://dc.lft.to/lastmile_qr_scan", "android": "https://dc.lft.to/lastmile_qr_scan"}, "lon": -77.02453233333334, "type": "electric_scooter", "fusion_lat": 0.0, "lat": 38.97935966666667, "name": "aca6d8b05879dd22c98a2cf79134fac5", "fusion_lon": 0.0, "bike_id": "aca6d8b05879dd22c98a2cf79134fac5", "is_disabled": 0, "is_reserved": 0}, {"rental_uris": {"ios": "https://dc.lft.to/lastmile_qr_scan", "android": "https://dc.lft.to/lastmile_qr_scan"}, "lon": -77.046157, "type": "electric_scooter", "fusion_lat": 0.0, "lat": 38.9026215, "name": "44edb5d7a77d4621a17c619bb08a3f86", "fusion_lon": 0.0, "bike_id": "44edb5d7a77d4621a17c619bb08a3f86", "is_disabled": 0, "is_reserved": 0}, {"rental_uris": {"ios": "https://dc.lft.to/lastmile_qr_scan", "android": "https://dc.lft.to/lastmile_qr_scan"}, "lon": -77.050356, "type": "electric_scooter", "fusion_lat": 0.0, "lat": 38.89656433333333, "name": "4a2053faed078cd1607adfba780af1f2", "fusion_lon": 0.0, "bike_id": "4a2053faed078cd1607adfba780af1f2", "is_disabled": 0, "is_reserved": 0}, {"rental_uris": {"ios": "https://dc.lft.to/lastmile_qr_scan", "android": "https://dc.lft.to/lastmile_qr_scan"}, "lon": -77.0468555, "type": "electric_scooter", "fusion_lat": 0.0, "lat": 38.89609983333333, "name": "e9838decd9ceb89feae3a3aa49de47f4", "fusion_lon": 0.0, "bike_id": "e9838decd9ceb89feae3a3aa49de47f4", "is_disabled": 0, "is_reserved": 0}, {"rental_uris": {"ios": "https://dc.lft.to/lastmile_qr_scan", "android": "https://dc.lft.to/lastmile_qr_scan"}, "lon": -77.05421133333333, "type": "electric_scooter", "fusion_lat": 0.0, "lat": 38.928415333333334, "name": "2406d191351a89a3d04bc7efcfe82e66", "fusion_lon": 0.0, "bike_id": "2406d191351a89a3d04bc7efcfe82e66", "is_disabled": 0, "is_reserved": 0}, {"rental_uris": {"ios": "https://dc.lft.to/lastmile_qr_scan", "android": "https://dc.lft.to/lastmile_qr_scan"}, "lon": -76.97726783333333, "type": "electric_scooter", "fusion_lat": 0.0, "lat": 38.872485166666664, "name": "af5e667e615d655c5150eafa9d9c670b", "fusion_lon": 0.0, "bike_id": "af5e667e615d655c5150eafa9d9c670b", "is_disabled": 0, "is_reserved": 0}, {"rental_uris": {"ios": "https://dc.lft.to/lastmile_qr_scan", "android": "https://dc.lft.to/lastmile_qr_scan"}, "lon": -77.04352116666666, "type": "electric_scooter", "fusion_lat": 0.0, "lat": 38.921249, "name": "233590ca84fdd6b50227517f1401ad54", "fusion_lon": 0.0, "bike_id": "233590ca84fdd6b50227517f1401ad54", "is_disabled": 0, "is_reserved": 0}, {"rental_uris": {"ios": "https://dc.lft.to/lastmile_qr_scan", "android": "https://dc.lft.to/lastmile_qr_scan"}, "lon": -77.057474, "type": "electric_scooter", "fusion_lat": 0.0, "lat": 38.905026, "name": "dbea25aeede11290791108e071227e9e", "fusion_lon": 0.0, "bike_id": "dbea25aeede11290791108e071227e9e", "is_disabled": 0, "is_reserved": 0}, {"rental_uris": {"ios": "https://dc.lft.to/lastmile_qr_scan", "android": "https://dc.lft.to/lastmile_qr_scan"}, "lon": -76.973245, "type": "electric_bike", "fusion_lat": 0.0, "lat": 38.85069683333333, "name": "5387ae5e41ff1ca7b6d8c9d18bda191d", "fusion_lon": 0.0, "bike_id": "5387ae5e41ff1ca7b6d8c9d18bda191d", "is_disabled": 0, "is_reserved": 0}, {"rental_uris": {"ios": "https://dc.lft.to/lastmile_qr_scan", "android": "https://dc.lft.to/lastmile_qr_scan"}, "lon": -77.050437, "type": "electric_scooter", "fusion_lat": 0.0, "lat": 38.923643, "name": "09b95a785c412641e00370040b03800a", "fusion_lon": 0.0, "bike_id": "09b95a785c412641e00370040b03800a", "is_disabled": 0, "is_reserved": 0}, {"rental_uris": {"ios": "https://dc.lft.to/lastmile_qr_scan", "android": "https://dc.lft.to/lastmile_qr_scan"}, "lon": -76.99033983333334, "type": "electric_scooter", "fusion_lat": 0.0, "lat": 38.85664216666667, "name": "e792012e409a729b17116b3ca20eedf5", "fusion_lon": 0.0, "bike_id": "e792012e409a729b17116b3ca20eedf5", "is_disabled": 0, "is_reserved": 0}, {"rental_uris": {"ios": "https://dc.lft.to/lastmile_qr_scan", "android": "https://dc.lft.to/lastmile_qr_scan"}, "lon": -76.932425, "type": "electric_scooter", "fusion_lat": 0.0, "lat": 38.89406566666667, "name": "b7c424f5baf9c9dfc44a2ab8784a9830", "fusion_lon": 0.0, "bike_id": "b7c424f5baf9c9dfc44a2ab8784a9830", "is_disabled": 0, "is_reserved": 0}, {"rental_uris": {"ios": "https://dc.lft.to/lastmile_qr_scan", "android": "https://dc.lft.to/lastmile_qr_scan"}, "lon": -77.04645483333333, "type": "electric_bike", "fusion_lat": 0.0, "lat": 38.85213733333333, "name": "e0028ff9c3e3c9eef4f73d816261446d", "fusion_lon": 0.0, "bike_id": "e0028ff9c3e3c9eef4f73d816261446d", "is_disabled": 0, "is_reserved": 0}, {"rental_uris": {"ios": "https://dc.lft.to/lastmile_qr_scan", "android": "https://dc.lft.to/lastmile_qr_scan"}, "lon": -77.074001, "type": "electric_scooter", "fusion_lat": 0.0, "lat": 38.96178033333333, "name": "045439f482c58c6a92672686e99e645d", "fusion_lon": 0.0, "bike_id": "045439f482c58c6a92672686e99e645d", "is_disabled": 0, "is_reserved": 0}, {"rental_uris": {"ios": "https://dc.lft.to/lastmile_qr_scan", "android": "https://dc.lft.to/lastmile_qr_scan"}, "lon": -77.05524333333334, "type": "electric_scooter", "fusion_lat": 0.0, "lat": 38.9280155, "name": "9fa0ea1a98e1c8fbcf0663aba75544e7", "fusion_lon": 0.0, "bike_id": "9fa0ea1a98e1c8fbcf0663aba75544e7", "is_disabled": 0, "is_reserved": 0}, {"rental_uris": {"ios": "https://dc.lft.to/lastmile_qr_scan", "android": "https://dc.lft.to/lastmile_qr_scan"}, "lon": -77.129641, "type": "electric_bike", "fusion_lat": 0.0, "lat": 38.807939833333336, "name": "ca2c170e342a694001b825c56d01e71c", "fusion_lon": 0.0, "bike_id": "ca2c170e342a694001b825c56d01e71c", "is_disabled": 0, "is_reserved": 0}, {"rental_uris": {"ios": "https://dc.lft.to/lastmile_qr_scan", "android": "https://dc.lft.to/lastmile_qr_scan"}, "lon": -77.01288116666667, "type": "electric_bike", "fusion_lat": 0.0, "lat": 39.00387766666667, "name": "0dfe8f70aed6a82a99d4c746e3722f41", "fusion_lon": 0.0, "bike_id": "0dfe8f70aed6a82a99d4c746e3722f41", "is_disabled": 0, "is_reserved": 0}, {"rental_uris": {"ios": "https://dc.lft.to/lastmile_qr_scan", "android": "https://dc.lft.to/lastmile_qr_scan"}, "lon": -77.02753916666667, "type": "electric_scooter", "fusion_lat": 0.0, "lat": 38.881704166666665, "name": "a39cf0bd888988d53f2dae9b5f3410f4", "fusion_lon": 0.0, "bike_id": "a39cf0bd888988d53f2dae9b5f3410f4", "is_disabled": 0, "is_reserved": 0}, {"rental_uris": {"ios": "https://dc.lft.to/lastmile_qr_scan", "android": "https://dc.lft.to/lastmile_qr_scan"}, "lon": -77.0318175, "type": "electric_scooter", "fusion_lat": 0.0, "lat": 38.887403, "name": "f52a76d00a42ff7c01d81a6fbba239e5", "fusion_lon": 0.0, "bike_id": "f52a76d00a42ff7c01d81a6fbba239e5", "is_disabled": 0, "is_reserved": 0}, {"rental_uris": {"ios": "https://dc.lft.to/lastmile_qr_scan", "android": "https://dc.lft.to/lastmile_qr_scan"}, "lon": -77.02455016666667, "type": "electric_scooter", "fusion_lat": 0.0, "lat": 38.93857033333333, "name": "59daf75afe50746b7ebc9f8604cc4090", "fusion_lon": 0.0, "bike_id": "59daf75afe50746b7ebc9f8604cc4090", "is_disabled": 0, "is_reserved": 0}, {"rental_uris": {"ios": "https://dc.lft.to/lastmile_qr_scan", "android": "https://dc.lft.to/lastmile_qr_scan"}, "lon": -77.050441, "type": "electric_scooter", "fusion_lat": 0.0, "lat": 38.92365216666666, "name": "9a6228305f6aac202f0f7ed0e9cbf448", "fusion_lon": 0.0, "bike_id": "9a6228305f6aac202f0f7ed0e9cbf448", "is_disabled": 0, "is_reserved": 0}, {"rental_uris": {"ios": "https://dc.lft.to/lastmile_qr_scan", "android": "https://dc.lft.to/lastmile_qr_scan"}, "lon": -77.02954633333333, "type": "electric_scooter", "fusion_lat": 0.0, "lat": 38.908442666666666, "name": "23eac40b3f2d60c2bddd514fac7483ab", "fusion_lon": 0.0, "bike_id": "23eac40b3f2d60c2bddd514fac7483ab", "is_disabled": 0, "is_reserved": 0}, {"rental_uris": {"ios": "https://dc.lft.to/lastmile_qr_scan", "android": "https://dc.lft.to/lastmile_qr_scan"}, "lon": -77.04664716666667, "type": "electric_scooter", "fusion_lat": 0.0, "lat": 38.933024, "name": "f513c8a33fdec19f81d65202e12d8edd", "fusion_lon": 0.0, "bike_id": "f513c8a33fdec19f81d65202e12d8edd", "is_disabled": 0, "is_reserved": 0}, {"rental_uris": {"ios": "https://dc.lft.to/lastmile_qr_scan", "android": "https://dc.lft.to/lastmile_qr_scan"}, "lon": -77.01607433333334, "type": "electric_scooter", "fusion_lat": 0.0, "lat": 38.901847833333335, "name": "5d003ef1c9ee042afc1a82c73a510f5d", "fusion_lon": 0.0, "bike_id": "5d003ef1c9ee042afc1a82c73a510f5d", "is_disabled": 0, "is_reserved": 0}, {"rental_uris": {"ios": "https://dc.lft.to/lastmile_qr_scan", "android": "https://dc.lft.to/lastmile_qr_scan"}, "lon": -77.02743583333333, "type": "electric_scooter", "fusion_lat": 0.0, "lat": 38.927760666666664, "name": "9b7d007118c0e6ce333946ee3b17b0c1", "fusion_lon": 0.0, "bike_id": "9b7d007118c0e6ce333946ee3b17b0c1", "is_disabled": 0, "is_reserved": 0}, {"rental_uris": {"ios": "https://dc.lft.to/lastmile_qr_scan", "android": "https://dc.lft.to/lastmile_qr_scan"}, "lon": -77.03316116666667, "type": "electric_scooter", "fusion_lat": 0.0, "lat": 38.9198785, "name": "11f777d57b00e68335c1d5c869e8e94e", "fusion_lon": 0.0, "bike_id": "11f777d57b00e68335c1d5c869e8e94e", "is_disabled": 0, "is_reserved": 0}, {"rental_uris": {"ios": "https://dc.lft.to/lastmile_qr_scan", "android": "https://dc.lft.to/lastmile_qr_scan"}, "lon": -77.0217385, "type": "electric_scooter", "fusion_lat": 0.0, "lat": 38.899079666666665, "name": "fb694a8afc6e1369b59e3c4d92570446", "fusion_lon": 0.0, "bike_id": "fb694a8afc6e1369b59e3c4d92570446", "is_disabled": 0, "is_reserved": 0}, {"rental_uris": {"ios": "https://dc.lft.to/lastmile_qr_scan", "android": "https://dc.lft.to/lastmile_qr_scan"}, "lon": -77.0153165, "type": "electric_scooter", "fusion_lat": 0.0, "lat": 38.887421333333336, "name": "2bbe0efdaabd6137365fb4508cf692d8", "fusion_lon": 0.0, "bike_id": "2bbe0efdaabd6137365fb4508cf692d8", "is_disabled": 0, "is_reserved": 0}, {"rental_uris": {"ios": "https://dc.lft.to/lastmile_qr_scan", "android": "https://dc.lft.to/lastmile_qr_scan"}, "lon": -77.05455316666666, "type": "electric_scooter", "fusion_lat": 0.0, "lat": 38.92909916666667, "name": "87b859310ffb702e44dccccb352607a2", "fusion_lon": 0.0, "bike_id": "87b859310ffb702e44dccccb352607a2", "is_disabled": 0, "is_reserved": 0}, {"rental_uris": {"ios": "https://dc.lft.to/lastmile_qr_scan", "android": "https://dc.lft.to/lastmile_qr_scan"}, "lon": -77.030981, "type": "electric_scooter", "fusion_lat": 0.0, "lat": 38.894813, "name": "5cce84088cbf18f30245bef4e65c66e7", "fusion_lon": 0.0, "bike_id": "5cce84088cbf18f30245bef4e65c66e7", "is_disabled": 0, "is_reserved": 0}, {"rental_uris": {"ios": "https://dc.lft.to/lastmile_qr_scan", "android": "https://dc.lft.to/lastmile_qr_scan"}, "lon": -77.1050395, "type": "electric_bike", "fusion_lat": 0.0, "lat": 38.928507833333335, "name": "b080f655e7918a9ddc2491502223af2a", "fusion_lon": 0.0, "bike_id": "b080f655e7918a9ddc2491502223af2a", "is_disabled": 0, "is_reserved": 0}, {"rental_uris": {"ios": "https://dc.lft.to/lastmile_qr_scan", "android": "https://dc.lft.to/lastmile_qr_scan"}, "lon": -77.073862, "type": "electric_bike", "fusion_lat": 0.0, "lat": 38.9617515, "name": "63f2f02c0507c90e67626ce4512fb168", "fusion_lon": 0.0, "bike_id": "63f2f02c0507c90e67626ce4512fb168", "is_disabled": 0, "is_reserved": 0}, {"rental_uris": {"ios": "https://dc.lft.to/lastmile_qr_scan", "android": "https://dc.lft.to/lastmile_qr_scan"}, "lon": -77.0320415, "type": "electric_scooter", "fusion_lat": 0.0, "lat": 38.9207895, "name": "dfc128cfb7a46dbf2b10e7cf419b1ded", "fusion_lon": 0.0, "bike_id": "dfc128cfb7a46dbf2b10e7cf419b1ded", "is_disabled": 0, "is_reserved": 0}, {"rental_uris": {"ios": "https://dc.lft.to/lastmile_qr_scan", "android": "https://dc.lft.to/lastmile_qr_scan"}, "lon": -77.0329705, "type": "electric_scooter", "fusion_lat": 0.0, "lat": 38.930503, "name": "b40a5dab11876af9167f5f25f310fe0b", "fusion_lon": 0.0, "bike_id": "b40a5dab11876af9167f5f25f310fe0b", "is_disabled": 0, "is_reserved": 0}, {"rental_uris": {"ios": "https://dc.lft.to/lastmile_qr_scan", "android": "https://dc.lft.to/lastmile_qr_scan"}, "lon": -77.041264, "type": "electric_scooter", "fusion_lat": 0.0, "lat": 38.9243745, "name": "80a65a18b88e037d8fca909303712dcd", "fusion_lon": 0.0, "bike_id": "80a65a18b88e037d8fca909303712dcd", "is_disabled": 0, "is_reserved": 0}, {"rental_uris": {"ios": "https://dc.lft.to/lastmile_qr_scan", "android": "https://dc.lft.to/lastmile_qr_scan"}, "lon": -76.97347183333333, "type": "electric_scooter", "fusion_lat": 0.0, "lat": 38.862086, "name": "745212047ed93ed62672d8ea8dfe161a", "fusion_lon": 0.0, "bike_id": "745212047ed93ed62672d8ea8dfe161a", "is_disabled": 0, "is_reserved": 0}, {"rental_uris": {"ios": "https://dc.lft.to/lastmile_qr_scan", "android": "https://dc.lft.to/lastmile_qr_scan"}, "lon": -77.0331955, "type": "electric_scooter", "fusion_lat": 0.0, "lat": 38.919903833333336, "name": "9ad7d1f6f1bdeaefddf691731a021dc8", "fusion_lon": 0.0, "bike_id": "9ad7d1f6f1bdeaefddf691731a021dc8", "is_disabled": 0, "is_reserved": 0}, {"rental_uris": {"ios": "https://dc.lft.to/lastmile_qr_scan", "android": "https://dc.lft.to/lastmile_qr_scan"}, "lon": -77.03196183333333, "type": "electric_scooter", "fusion_lat": 0.0, "lat": 38.91829533333333, "name": "98b1ca727881720927465cd13a915d3b", "fusion_lon": 0.0, "bike_id": "98b1ca727881720927465cd13a915d3b", "is_disabled": 0, "is_reserved": 0}, {"rental_uris": {"ios": "https://dc.lft.to/lastmile_qr_scan", "android": "https://dc.lft.to/lastmile_qr_scan"}, "lon": -77.05306566666667, "type": "electric_scooter", "fusion_lat": 0.0, "lat": 38.89928483333333, "name": "8ca2cbdabb0925f514b3283353a94e45", "fusion_lon": 0.0, "bike_id": "8ca2cbdabb0925f514b3283353a94e45", "is_disabled": 0, "is_reserved": 0}, {"rental_uris": {"ios": "https://dc.lft.to/lastmile_qr_scan", "android": "https://dc.lft.to/lastmile_qr_scan"}, "lon": -77.00568316666667, "type": "electric_scooter", "fusion_lat": 0.0, "lat": 38.88508866666667, "name": "490b6e8909b1e2adeb2fa5b80880e8ad", "fusion_lon": 0.0, "bike_id": "490b6e8909b1e2adeb2fa5b80880e8ad", "is_disabled": 0, "is_reserved": 0}, {"rental_uris": {"ios": "https://dc.lft.to/lastmile_qr_scan", "android": "https://dc.lft.to/lastmile_qr_scan"}, "lon": -77.02397783333333, "type": "electric_scooter", "fusion_lat": 0.0, "lat": 38.9370265, "name": "a622af76c8ee24045d21886819366941", "fusion_lon": 0.0, "bike_id": "a622af76c8ee24045d21886819366941", "is_disabled": 0, "is_reserved": 0}, {"rental_uris": {"ios": "https://dc.lft.to/lastmile_qr_scan", "android": "https://dc.lft.to/lastmile_qr_scan"}, "lon": -76.99820133333333, "type": "electric_bike", "fusion_lat": 0.0, "lat": 38.84434666666667, "name": "e6df9f4218bbc4786a0e211f369d6f59", "fusion_lon": 0.0, "bike_id": "e6df9f4218bbc4786a0e211f369d6f59", "is_disabled": 0, "is_reserved": 0}, {"rental_uris": {"ios": "https://dc.lft.to/lastmile_qr_scan", "android": "https://dc.lft.to/lastmile_qr_scan"}, "lon": -76.99347966666667, "type": "electric_scooter", "fusion_lat": 0.0, "lat": 38.90019866666667, "name": "6d30ec9b69ce8c8a5c5b700de6d7d1e6", "fusion_lon": 0.0, "bike_id": "6d30ec9b69ce8c8a5c5b700de6d7d1e6", "is_disabled": 0, "is_reserved": 0}, {"rental_uris": {"ios": "https://dc.lft.to/lastmile_qr_scan", "android": "https://dc.lft.to/lastmile_qr_scan"}, "lon": -77.040105, "type": "electric_scooter", "fusion_lat": 0.0, "lat": 38.93253716666667, "name": "ffa087e25b45d6f1e51ecbb21f904323", "fusion_lon": 0.0, "bike_id": "ffa087e25b45d6f1e51ecbb21f904323", "is_disabled": 0, "is_reserved": 0}, {"rental_uris": {"ios": "https://dc.lft.to/lastmile_qr_scan", "android": "https://dc.lft.to/lastmile_qr_scan"}, "lon": -77.02116866666667, "type": "electric_scooter", "fusion_lat": 0.0, "lat": 38.91416483333333, "name": "0a10c7e0676ee28865dfcd4dc736b76e", "fusion_lon": 0.0, "bike_id": "0a10c7e0676ee28865dfcd4dc736b76e", "is_disabled": 0, "is_reserved": 0}, {"rental_uris": {"ios": "https://dc.lft.to/lastmile_qr_scan", "android": "https://dc.lft.to/lastmile_qr_scan"}, "lon": -77.058963, "type": "electric_scooter", "fusion_lat": 0.0, "lat": 38.935696, "name": "6205594420a9f15607ef997aa4d74dc2", "fusion_lon": 0.0, "bike_id": "6205594420a9f15607ef997aa4d74dc2", "is_disabled": 0, "is_reserved": 0}, {"rental_uris": {"ios": "https://dc.lft.to/lastmile_qr_scan", "android": "https://dc.lft.to/lastmile_qr_scan"}, "lon": -77.01449566666666, "type": "electric_scooter", "fusion_lat": 0.0, "lat": 38.929878, "name": "aac356e02d9be404e7c6610f1becd6c2", "fusion_lon": 0.0, "bike_id": "aac356e02d9be404e7c6610f1becd6c2", "is_disabled": 0, "is_reserved": 0}, {"rental_uris": {"ios": "https://dc.lft.to/lastmile_qr_scan", "android": "https://dc.lft.to/lastmile_qr_scan"}, "lon": -77.17847533333334, "type": "electric_bike", "fusion_lat": 0.0, "lat": 39.089048, "name": "3a8283838d788b54be37b1184dc9600b", "fusion_lon": 0.0, "bike_id": "3a8283838d788b54be37b1184dc9600b", "is_disabled": 0, "is_reserved": 0}, {"rental_uris": {"ios": "https://dc.lft.to/lastmile_qr_scan", "android": "https://dc.lft.to/lastmile_qr_scan"}, "lon": -76.97832516666666, "type": "electric_bike", "fusion_lat": 0.0, "lat": 38.84617816666667, "name": "d1423256b341703ae5cc2f1307554f08", "fusion_lon": 0.0, "bike_id": "d1423256b341703ae5cc2f1307554f08", "is_disabled": 0, "is_reserved": 0}, {"rental_uris": {"ios": "https://dc.lft.to/lastmile_qr_scan", "android": "https://dc.lft.to/lastmile_qr_scan"}, "lon": -77.04677733333334, "type": "electric_scooter", "fusion_lat": 0.0, "lat": 38.90540033333333, "name": "d8926b934fe5af209606ac25377c79ce", "fusion_lon": 0.0, "bike_id": "d8926b934fe5af209606ac25377c79ce", "is_disabled": 0, "is_reserved": 0}, {"rental_uris": {"ios": "https://dc.lft.to/lastmile_qr_scan", "android": "https://dc.lft.to/lastmile_qr_scan"}, "lon": -76.99896, "type": "electric_bike", "fusion_lat": 0.0, "lat": 38.95309266666667, "name": "6049fc22e30137b16db22355e235110b", "fusion_lon": 0.0, "bike_id": "6049fc22e30137b16db22355e235110b", "is_disabled": 0, "is_reserved": 0}, {"rental_uris": {"ios": "https://dc.lft.to/lastmile_qr_scan", "android": "https://dc.lft.to/lastmile_qr_scan"}, "lon": -77.02942733333333, "type": "electric_scooter", "fusion_lat": 0.0, "lat": 38.90511716666666, "name": "cc832aa00b6e26da038611dc1714a41f", "fusion_lon": 0.0, "bike_id": "cc832aa00b6e26da038611dc1714a41f", "is_disabled": 0, "is_reserved": 0}, {"rental_uris": {"ios": "https://dc.lft.to/lastmile_qr_scan", "android": "https://dc.lft.to/lastmile_qr_scan"}, "lon": -77.1262635, "type": "electric_bike", "fusion_lat": 0.0, "lat": 39.05814183333333, "name": "be74e7050145037ca9eb6cedebd83f80", "fusion_lon": 0.0, "bike_id": "be74e7050145037ca9eb6cedebd83f80", "is_disabled": 0, "is_reserved": 0}, {"rental_uris": {"ios": "https://dc.lft.to/lastmile_qr_scan", "android": "https://dc.lft.to/lastmile_qr_scan"}, "lon": -77.01405683333333, "type": "electric_scooter", "fusion_lat": 0.0, "lat": 38.9285375, "name": "3f418293fffdf88368878fd1039bc3ac", "fusion_lon": 0.0, "bike_id": "3f418293fffdf88368878fd1039bc3ac", "is_disabled": 0, "is_reserved": 0}, {"rental_uris": {"ios": "https://dc.lft.to/lastmile_qr_scan", "android": "https://dc.lft.to/lastmile_qr_scan"}, "lon": -77.0240725, "type": "electric_scooter", "fusion_lat": 0.0, "lat": 38.9097645, "name": "1098fcc9b6d276982e4768c2c082109d", "fusion_lon": 0.0, "bike_id": "1098fcc9b6d276982e4768c2c082109d", "is_disabled": 0, "is_reserved": 0}, {"rental_uris": {"ios": "https://dc.lft.to/lastmile_qr_scan", "android": "https://dc.lft.to/lastmile_qr_scan"}, "lon": -76.98886083333333, "type": "electric_scooter", "fusion_lat": 0.0, "lat": 38.866649333333335, "name": "478cc857fc7a7f0f5e3d58f7bb5946a9", "fusion_lon": 0.0, "bike_id": "478cc857fc7a7f0f5e3d58f7bb5946a9", "is_disabled": 0, "is_reserved": 0}, {"rental_uris": {"ios": "https://dc.lft.to/lastmile_qr_scan", "android": "https://dc.lft.to/lastmile_qr_scan"}, "lon": -77.04171, "type": "electric_scooter", "fusion_lat": 0.0, "lat": 38.9114965, "name": "845fa87ed1231ae89aecf0b428787646", "fusion_lon": 0.0, "bike_id": "845fa87ed1231ae89aecf0b428787646", "is_disabled": 0, "is_reserved": 0}, {"rental_uris": {"ios": "https://dc.lft.to/lastmile_qr_scan", "android": "https://dc.lft.to/lastmile_qr_scan"}, "lon": -77.03700366666666, "type": "electric_scooter", "fusion_lat": 0.0, "lat": 38.926461, "name": "b683df840b2af9b99b18c89ad1065b38", "fusion_lon": 0.0, "bike_id": "b683df840b2af9b99b18c89ad1065b38", "is_disabled": 0, "is_reserved": 0}, {"rental_uris": {"ios": "https://dc.lft.to/lastmile_qr_scan", "android": "https://dc.lft.to/lastmile_qr_scan"}, "lon": -77.03873266666666, "type": "electric_scooter", "fusion_lat": 0.0, "lat": 38.90281133333333, "name": "fb9ade7919475ae5105e52a9be006c55", "fusion_lon": 0.0, "bike_id": "fb9ade7919475ae5105e52a9be006c55", "is_disabled": 0, "is_reserved": 0}, {"rental_uris": {"ios": "https://dc.lft.to/lastmile_qr_scan", "android": "https://dc.lft.to/lastmile_qr_scan"}, "lon": -77.03190883333333, "type": "electric_scooter", "fusion_lat": 0.0, "lat": 38.887343333333334, "name": "ed4f5216ce964bcce9abece83c03717e", "fusion_lon": 0.0, "bike_id": "ed4f5216ce964bcce9abece83c03717e", "is_disabled": 0, "is_reserved": 0}, {"rental_uris": {"ios": "https://dc.lft.to/lastmile_qr_scan", "android": "https://dc.lft.to/lastmile_qr_scan"}, "lon": -77.013451, "type": "electric_scooter", "fusion_lat": 0.0, "lat": 38.89572033333334, "name": "c536ce27713a052af3f1a38b1643ea8c", "fusion_lon": 0.0, "bike_id": "c536ce27713a052af3f1a38b1643ea8c", "is_disabled": 0, "is_reserved": 0}, {"rental_uris": {"ios": "https://dc.lft.to/lastmile_qr_scan", "android": "https://dc.lft.to/lastmile_qr_scan"}, "lon": -77.02472733333333, "type": "electric_scooter", "fusion_lat": 0.0, "lat": 38.93854983333333, "name": "f5eb4ae9e0cd75d195b6db558fed2c9a", "fusion_lon": 0.0, "bike_id": "f5eb4ae9e0cd75d195b6db558fed2c9a", "is_disabled": 0, "is_reserved": 0}, {"rental_uris": {"ios": "https://dc.lft.to/lastmile_qr_scan", "android": "https://dc.lft.to/lastmile_qr_scan"}, "lon": -77.02649983333333, "type": "electric_scooter", "fusion_lat": 0.0, "lat": 38.90566, "name": "3018ef6055e19175655ece87f341cce6", "fusion_lon": 0.0, "bike_id": "3018ef6055e19175655ece87f341cce6", "is_disabled": 0, "is_reserved": 0}, {"rental_uris": {"ios": "https://dc.lft.to/lastmile_qr_scan", "android": "https://dc.lft.to/lastmile_qr_scan"}, "lon": -77.02761566666666, "type": "electric_scooter", "fusion_lat": 0.0, "lat": 38.915550333333336, "name": "70155a8729562d98c87b05016ada2313", "fusion_lon": 0.0, "bike_id": "70155a8729562d98c87b05016ada2313", "is_disabled": 0, "is_reserved": 0}, {"rental_uris": {"ios": "https://dc.lft.to/lastmile_qr_scan", "android": "https://dc.lft.to/lastmile_qr_scan"}, "lon": -77.02466416666667, "type": "electric_scooter", "fusion_lat": 0.0, "lat": 38.93104866666667, "name": "65ffd8dc2f2ffead943584335726c9d3", "fusion_lon": 0.0, "bike_id": "65ffd8dc2f2ffead943584335726c9d3", "is_disabled": 0, "is_reserved": 0}, {"rental_uris": {"ios": "https://dc.lft.to/lastmile_qr_scan", "android": "https://dc.lft.to/lastmile_qr_scan"}, "lon": -77.00197766666666, "type": "electric_scooter", "fusion_lat": 0.0, "lat": 38.90044016666667, "name": "00f3044b3ea5e521ce248bc90afb0332", "fusion_lon": 0.0, "bike_id": "00f3044b3ea5e521ce248bc90afb0332", "is_disabled": 0, "is_reserved": 0}, {"rental_uris": {"ios": "https://dc.lft.to/lastmile_qr_scan", "android": "https://dc.lft.to/lastmile_qr_scan"}, "lon": -77.1250145, "type": "electric_bike", "fusion_lat": 0.0, "lat": 39.0242075, "name": "8baa1bc7e4d91b5baab5789aa27fd3dc", "fusion_lon": 0.0, "bike_id": "8baa1bc7e4d91b5baab5789aa27fd3dc", "is_disabled": 0, "is_reserved": 0}, {"rental_uris": {"ios": "https://dc.lft.to/lastmile_qr_scan", "android": "https://dc.lft.to/lastmile_qr_scan"}, "lon": -77.0059075, "type": "electric_scooter", "fusion_lat": 0.0, "lat": 38.915684666666664, "name": "1d6d8034987486c91ddf52eda8f1a7d9", "fusion_lon": 0.0, "bike_id": "1d6d8034987486c91ddf52eda8f1a7d9", "is_disabled": 0, "is_reserved": 0}, {"rental_uris": {"ios": "https://dc.lft.to/lastmile_qr_scan", "android": "https://dc.lft.to/lastmile_qr_scan"}, "lon": -77.0469015, "type": "electric_scooter", "fusion_lat": 0.0, "lat": 38.897465833333335, "name": "73e53873b82cc7b1783afeb3ba71c741", "fusion_lon": 0.0, "bike_id": "73e53873b82cc7b1783afeb3ba71c741", "is_disabled": 0, "is_reserved": 0}, {"rental_uris": {"ios": "https://dc.lft.to/lastmile_qr_scan", "android": "https://dc.lft.to/lastmile_qr_scan"}, "lon": -77.00104, "type": "electric_scooter", "fusion_lat": 0.0, "lat": 38.9075945, "name": "2a0b3c3cbba85fc53cebfb18fa44b3a8", "fusion_lon": 0.0, "bike_id": "2a0b3c3cbba85fc53cebfb18fa44b3a8", "is_disabled": 0, "is_reserved": 0}, {"rental_uris": {"ios": "https://dc.lft.to/lastmile_qr_scan", "android": "https://dc.lft.to/lastmile_qr_scan"}, "lon": -77.04807366666667, "type": "electric_bike", "fusion_lat": 0.0, "lat": 38.888168666666665, "name": "3c770f5c4b5d6a17c26ab39b0289163a", "fusion_lon": 0.0, "bike_id": "3c770f5c4b5d6a17c26ab39b0289163a", "is_disabled": 0, "is_reserved": 0}, {"rental_uris": {"ios": "https://dc.lft.to/lastmile_qr_scan", "android": "https://dc.lft.to/lastmile_qr_scan"}, "lon": -77.03458733333333, "type": "electric_scooter", "fusion_lat": 0.0, "lat": 38.91826316666667, "name": "9eb18f0dd862abf86c8a4cbf5b70c998", "fusion_lon": 0.0, "bike_id": "9eb18f0dd862abf86c8a4cbf5b70c998", "is_disabled": 0, "is_reserved": 0}, {"rental_uris": {"ios": "https://dc.lft.to/lastmile_qr_scan", "android": "https://dc.lft.to/lastmile_qr_scan"}, "lon": -77.02958883333334, "type": "electric_scooter", "fusion_lat": 0.0, "lat": 38.9268935, "name": "f13799dd9dd3fd0f5a622d8b015a43c2", "fusion_lon": 0.0, "bike_id": "f13799dd9dd3fd0f5a622d8b015a43c2", "is_disabled": 0, "is_reserved": 0}, {"rental_uris": {"ios": "https://dc.lft.to/lastmile_qr_scan", "android": "https://dc.lft.to/lastmile_qr_scan"}, "lon": -76.96370716666667, "type": "electric_bike", "fusion_lat": 0.0, "lat": 38.9490025, "name": "3d3c3a752a72160d17803f55e3085638", "fusion_lon": 0.0, "bike_id": "3d3c3a752a72160d17803f55e3085638", "is_disabled": 0, "is_reserved": 0}, {"rental_uris": {"ios": "https://dc.lft.to/lastmile_qr_scan", "android": "https://dc.lft.to/lastmile_qr_scan"}, "lon": -77.03223466666667, "type": "electric_scooter", "fusion_lat": 0.0, "lat": 38.92589566666667, "name": "f9022e84cef76491bea14912fdbb545e", "fusion_lon": 0.0, "bike_id": "f9022e84cef76491bea14912fdbb545e", "is_disabled": 0, "is_reserved": 0}, {"rental_uris": {"ios": "https://dc.lft.to/lastmile_qr_scan", "android": "https://dc.lft.to/lastmile_qr_scan"}, "lon": -77.02463466666667, "type": "electric_scooter", "fusion_lat": 0.0, "lat": 38.9383115, "name": "f3eb890e8756813d1da36c575c592906", "fusion_lon": 0.0, "bike_id": "f3eb890e8756813d1da36c575c592906", "is_disabled": 0, "is_reserved": 0}, {"rental_uris": {"ios": "https://dc.lft.to/lastmile_qr_scan", "android": "https://dc.lft.to/lastmile_qr_scan"}, "lon": -77.01098133333333, "type": "electric_scooter", "fusion_lat": 0.0, "lat": 38.903628, "name": "68b3673b6bc90cd8310c4464f7ab2fe8", "fusion_lon": 0.0, "bike_id": "68b3673b6bc90cd8310c4464f7ab2fe8", "is_disabled": 0, "is_reserved": 0}, {"rental_uris": {"ios": "https://dc.lft.to/lastmile_qr_scan", "android": "https://dc.lft.to/lastmile_qr_scan"}, "lon": -77.03695166666667, "type": "electric_scooter", "fusion_lat": 0.0, "lat": 38.93063466666667, "name": "7b32af76946ddf3f1e55855bb9e4f980", "fusion_lon": 0.0, "bike_id": "7b32af76946ddf3f1e55855bb9e4f980", "is_disabled": 0, "is_reserved": 0}, {"rental_uris": {"ios": "https://dc.lft.to/lastmile_qr_scan", "android": "https://dc.lft.to/lastmile_qr_scan"}, "lon": -76.94754733333333, "type": "electric_scooter", "fusion_lat": 0.0, "lat": 38.90055316666667, "name": "996014158f16989798e173a6898afc65", "fusion_lon": 0.0, "bike_id": "996014158f16989798e173a6898afc65", "is_disabled": 0, "is_reserved": 0}, {"rental_uris": {"ios": "https://dc.lft.to/lastmile_qr_scan", "android": "https://dc.lft.to/lastmile_qr_scan"}, "lon": -77.0318785, "type": "electric_scooter", "fusion_lat": 0.0, "lat": 38.9180645, "name": "56395608f101e925669aa3d3a3cb7d22", "fusion_lon": 0.0, "bike_id": "56395608f101e925669aa3d3a3cb7d22", "is_disabled": 0, "is_reserved": 0}, {"rental_uris": {"ios": "https://dc.lft.to/lastmile_qr_scan", "android": "https://dc.lft.to/lastmile_qr_scan"}, "lon": -76.96524366666667, "type": "electric_scooter", "fusion_lat": 0.0, "lat": 38.876308, "name": "4bac32f7f3ec40954eae9add400d2a93", "fusion_lon": 0.0, "bike_id": "4bac32f7f3ec40954eae9add400d2a93", "is_disabled": 0, "is_reserved": 0}, {"rental_uris": {"ios": "https://dc.lft.to/lastmile_qr_scan", "android": "https://dc.lft.to/lastmile_qr_scan"}, "lon": -77.01233183333333, "type": "electric_scooter", "fusion_lat": 0.0, "lat": 38.90043133333333, "name": "d69f75a2f509a12bacc0af9545a11c6f", "fusion_lon": 0.0, "bike_id": "d69f75a2f509a12bacc0af9545a11c6f", "is_disabled": 0, "is_reserved": 0}, {"rental_uris": {"ios": "https://dc.lft.to/lastmile_qr_scan", "android": "https://dc.lft.to/lastmile_qr_scan"}, "lon": -77.037906, "type": "electric_scooter", "fusion_lat": 0.0, "lat": 38.926317833333336, "name": "a75d488eaca2b2b359b4674047fa6f38", "fusion_lon": 0.0, "bike_id": "a75d488eaca2b2b359b4674047fa6f38", "is_disabled": 0, "is_reserved": 0}, {"rental_uris": {"ios": "https://dc.lft.to/lastmile_qr_scan", "android": "https://dc.lft.to/lastmile_qr_scan"}, "lon": -77.01578666666667, "type": "electric_scooter", "fusion_lat": 0.0, "lat": 38.876611, "name": "12786e64dde80d6193fe9e5c71ed8f26", "fusion_lon": 0.0, "bike_id": "12786e64dde80d6193fe9e5c71ed8f26", "is_disabled": 0, "is_reserved": 0}, {"rental_uris": {"ios": "https://dc.lft.to/lastmile_qr_scan", "android": "https://dc.lft.to/lastmile_qr_scan"}, "lon": -77.07774466666666, "type": "electric_scooter", "fusion_lat": 0.0, "lat": 38.9456315, "name": "993defafd62caf17c635743db9008136", "fusion_lon": 0.0, "bike_id": "993defafd62caf17c635743db9008136", "is_disabled": 0, "is_reserved": 0}, {"rental_uris": {"ios": "https://dc.lft.to/lastmile_qr_scan", "android": "https://dc.lft.to/lastmile_qr_scan"}, "lon": -77.0241135, "type": "electric_scooter", "fusion_lat": 0.0, "lat": 38.92184366666667, "name": "5bd2972472ade57dc92cd9a7e8dd3c0b", "fusion_lon": 0.0, "bike_id": "5bd2972472ade57dc92cd9a7e8dd3c0b", "is_disabled": 0, "is_reserved": 0}, {"rental_uris": {"ios": "https://dc.lft.to/lastmile_qr_scan", "android": "https://dc.lft.to/lastmile_qr_scan"}, "lon": -77.03849816666667, "type": "electric_scooter", "fusion_lat": 0.0, "lat": 38.904773666666664, "name": "9fb1e6920536b4a735dfd8fd119c8db7", "fusion_lon": 0.0, "bike_id": "9fb1e6920536b4a735dfd8fd119c8db7", "is_disabled": 0, "is_reserved": 0}, {"rental_uris": {"ios": "https://dc.lft.to/lastmile_qr_scan", "android": "https://dc.lft.to/lastmile_qr_scan"}, "lon": -77.04899916666666, "type": "electric_scooter", "fusion_lat": 0.0, "lat": 38.9037745, "name": "c5f7ca683f758d504bbdd6ea2f70160e", "fusion_lon": 0.0, "bike_id": "c5f7ca683f758d504bbdd6ea2f70160e", "is_disabled": 0, "is_reserved": 0}, {"rental_uris": {"ios": "https://dc.lft.to/lastmile_qr_scan", "android": "https://dc.lft.to/lastmile_qr_scan"}, "lon": -77.03864633333333, "type": "electric_scooter", "fusion_lat": 0.0, "lat": 38.921512166666666, "name": "837097fd7e04ac8b0b8a053209eaedaf", "fusion_lon": 0.0, "bike_id": "837097fd7e04ac8b0b8a053209eaedaf", "is_disabled": 0, "is_reserved": 0}, {"rental_uris": {"ios": "https://dc.lft.to/lastmile_qr_scan", "android": "https://dc.lft.to/lastmile_qr_scan"}, "lon": -76.98953016666667, "type": "electric_scooter", "fusion_lat": 0.0, "lat": 38.90141166666667, "name": "f150fa67f953113ac84bf08a83e3b944", "fusion_lon": 0.0, "bike_id": "f150fa67f953113ac84bf08a83e3b944", "is_disabled": 0, "is_reserved": 0}, {"rental_uris": {"ios": "https://dc.lft.to/lastmile_qr_scan", "android": "https://dc.lft.to/lastmile_qr_scan"}, "lon": -76.9884065, "type": "electric_bike", "fusion_lat": 0.0, "lat": 38.842761833333334, "name": "f2b626dc8ed7ebebe3cf500727c7c50c", "fusion_lon": 0.0, "bike_id": "f2b626dc8ed7ebebe3cf500727c7c50c", "is_disabled": 0, "is_reserved": 0}, {"rental_uris": {"ios": "https://dc.lft.to/lastmile_qr_scan", "android": "https://dc.lft.to/lastmile_qr_scan"}, "lon": -77.04355966666667, "type": "electric_scooter", "fusion_lat": 0.0, "lat": 38.8923185, "name": "9f2b992786cca0c18652d201d91a941c", "fusion_lon": 0.0, "bike_id": "9f2b992786cca0c18652d201d91a941c", "is_disabled": 0, "is_reserved": 0}, {"rental_uris": {"ios": "https://dc.lft.to/lastmile_qr_scan", "android": "https://dc.lft.to/lastmile_qr_scan"},