{"data": {"bikes": [{"name": "dd3472f32f0931804ca179b977227921", "fusion_lat": 0.0, "type": "electric_scooter", "lat": 38.832281333333334, "is_reserved": 0, "is_disabled": 0, "fusion_lon": 0.0, "bike_id": "dd3472f32f0931804ca179b977227921", "lon": -76.9889075, "rental_uris": {"ios": "https://dc.lft.to/lastmile_qr_scan", "android": "https://dc.lft.to/lastmile_qr_scan"}}, {"name": "d14baef19a62fba82664545e34d0b295", "fusion_lat": 0.0, "type": "electric_scooter", "lat": 38.903788166666665, "is_reserved": 0, "is_disabled": 0, "fusion_lon": 0.0, "bike_id": "d14baef19a62fba82664545e34d0b295", "lon": -77.027262, "rental_uris": {"ios": "https://dc.lft.to/lastmile_qr_scan", "android": "https://dc.lft.to/lastmile_qr_scan"}}, {"name": "f851fafad3c0b516496e3e38e63a9f27", "fusion_lat": 0.0, "type": "electric_scooter", "lat": 38.92749333333333, "is_reserved": 0, "is_disabled": 0, "fusion_lon": 0.0, "bike_id": "f851fafad3c0b516496e3e38e63a9f27", "lon": -77.02421783333334, "rental_uris": {"ios": "https://dc.lft.to/lastmile_qr_scan", "android": "https://dc.lft.to/lastmile_qr_scan"}}, {"name": "c1e723544d9af757acb11bd3da46aace", "fusion_lat": 0.0, "type": "electric_bike", "lat": 38.843456, "is_reserved": 0, "is_disabled": 0, "fusion_lon": 0.0, "bike_id": "c1e723544d9af757acb11bd3da46aace", "lon": -77.064013, "rental_uris": {"ios": "https://dc.lft.to/lastmile_qr_scan", "android": "https://dc.lft.to/lastmile_qr_scan"}}, {"name": "863eca580623d473c24874255edda215", "fusion_lat": 0.0, "type": "electric_scooter", "lat": 38.877164666666665, "is_reserved": 0, "is_disabled": 0, "fusion_lon": 0.0, "bike_id": "863eca580623d473c24874255edda215", "lon": -77.01757783333333, "rental_uris": {"ios": "https://dc.lft.to/lastmile_qr_scan", "android": "https://dc.lft.to/lastmile_qr_scan"}}, {"name": "9c790eb9d78c3cb7ea5a65a22b5b8488", "fusion_lat": 0.0, "type": "electric_scooter", "lat": 38.9028865, "is_reserved": 0, "is_disabled": 0, "fusion_lon": 0.0, "bike_id": "9c790eb9d78c3cb7ea5a65a22b5b8488", "lon": -77.04467683333333, "rental_uris": {"ios": "https://dc.lft.to/lastmile_qr_scan", "android": "https://dc.lft.to/lastmile_qr_scan"}}, {"name": "e401d17c29d68743b3fab2b502a1ab3f", "fusion_lat": 0.0, "type": "electric_scooter", "lat": 38.89725716666667, "is_reserved": 0, "is_disabled": 0, "fusion_lon": 0.0, "bike_id": "e401d17c29d68743b3fab2b502a1ab3f", "lon": -77.04337433333333, "rental_uris": {"ios": "https://dc.lft.to/lastmile_qr_scan", "android": "https://dc.lft.to/lastmile_qr_scan"}}, {"name": "7cff63ef033db25a2fea515ba73bab91", "fusion_lat": 0.0, "type": "electric_scooter", "lat": 38.916616833333336, "is_reserved": 0, "is_disabled": 0, "fusion_lon": 0.0, "bike_id": "7cff63ef033db25a2fea515ba73bab91", "lon": -77.041966, "rental_uris": {"ios": "https://dc.lft.to/lastmile_qr_scan", "android": "https://dc.lft.to/lastmile_qr_scan"}}, {"name": "68f890b10a52004a263fe51c0893c5b7", "fusion_lat": 0.0, "type": "electric_scooter", "lat": 38.86246633333333, "is_reserved": 0, "is_disabled": 0, "fusion_lon": 0.0, "bike_id": "68f890b10a52004a263fe51c0893c5b7", "lon": -76.99530816666666, "rental_uris": {"ios": "https://dc.lft.to/lastmile_qr_scan", "android": "https://dc.lft.to/lastmile_qr_scan"}}, {"name": "0eace36174ba23cfb1f0cc838688529f", "fusion_lat": 0.0, "type": "electric_scooter", "lat": 38.91230183333333, "is_reserved": 0, "is_disabled": 0, "fusion_lon": 0.0, "bike_id": "0eace36174ba23cfb1f0cc838688529f", "lon": -77.0319245, "rental_uris": {"ios": "https://dc.lft.to/lastmile_qr_scan", "android": "https://dc.lft.to/lastmile_qr_scan"}}, {"name": "cf9bf0bd26af81577e047aa85bd4ea74", "fusion_lat": 0.0, "type": "electric_scooter", "lat": 38.8763985, "is_reserved": 0, "is_disabled": 0, "fusion_lon": 0.0, "bike_id": "cf9bf0bd26af81577e047aa85bd4ea74", "lon": -77.00565533333334, "rental_uris": {"ios": "https://dc.lft.to/lastmile_qr_scan", "android": "https://dc.lft.to/lastmile_qr_scan"}}, {"name": "262bb842a890975078e6f3bc498ba2c6", "fusion_lat": 0.0, "type": "electric_bike", "lat": 38.999886000000004, "is_reserved": 0, "is_disabled": 0, "fusion_lon": 0.0, "bike_id": "262bb842a890975078e6f3bc498ba2c6", "lon": -77.08004716666667, "rental_uris": {"ios": "https://dc.lft.to/lastmile_qr_scan", "android": "https://dc.lft.to/lastmile_qr_scan"}}, {"name": "ca986742dbc2e373185131ce7503fe31", "fusion_lat": 0.0, "type": "electric_scooter", "lat": 38.90084183333333, "is_reserved": 0, "is_disabled": 0, "fusion_lon": 0.0, "bike_id": "ca986742dbc2e373185131ce7503fe31", "lon": -77.0505405, "rental_uris": {"ios": "https://dc.lft.to/lastmile_qr_scan", "android": "https://dc.lft.to/lastmile_qr_scan"}}, {"name": "654c17956e044d01355a3ec680a3b537", "fusion_lat": 0.0, "type": "electric_scooter", "lat": 38.885029, "is_reserved": 0, "is_disabled": 0, "fusion_lon": 0.0, "bike_id": "654c17956e044d01355a3ec680a3b537", "lon": -77.00568283333334, "rental_uris": {"ios": "https://dc.lft.to/lastmile_qr_scan", "android": "https://dc.lft.to/lastmile_qr_scan"}}, {"name": "ba71658dd490d8387518f1ad8d729e7f", "fusion_lat": 0.0, "type": "electric_scooter", "lat": 38.94316766666667, "is_reserved": 0, "is_disabled": 0, "fusion_lon": 0.0, "bike_id": "ba71658dd490d8387518f1ad8d729e7f", "lon": -77.02477683333333, "rental_uris": {"ios": "https://dc.lft.to/lastmile_qr_scan", "android": "https://dc.lft.to/lastmile_qr_scan"}}, {"name": "2c94d10c08f9befcd77a82d82032263f", "fusion_lat": 0.0, "type": "electric_scooter", "lat": 38.92979716666667, "is_reserved": 0, "is_disabled": 0, "fusion_lon": 0.0, "bike_id": "2c94d10c08f9befcd77a82d82032263f", "lon": -77.01449133333334, "rental_uris": {"ios": "https://dc.lft.to/lastmile_qr_scan", "android": "https://dc.lft.to/lastmile_qr_scan"}}, {"name": "911935191c3bb7b997e295f7625be733", "fusion_lat": 0.0, "type": "electric_bike", "lat": 38.862727, "is_reserved": 0, "is_disabled": 0, "fusion_lon": 0.0, "bike_id": "911935191c3bb7b997e295f7625be733", "lon": -77.05964066666667, "rental_uris": {"ios": "https://dc.lft.to/lastmile_qr_scan", "android": "https://dc.lft.to/lastmile_qr_scan"}}, {"name": "d9931f8d6250ecdb969c27e98522750a", "fusion_lat": 0.0, "type": "electric_scooter", "lat": 38.89172766666667, "is_reserved": 0, "is_disabled": 0, "fusion_lon": 0.0, "bike_id": "d9931f8d6250ecdb969c27e98522750a", "lon": -77.01560616666667, "rental_uris": {"ios": "https://dc.lft.to/lastmile_qr_scan", "android": "https://dc.lft.to/lastmile_qr_scan"}}, {"name": "58c3480465483655405a536f7605d10c", "fusion_lat": 0.0, "type": "electric_scooter", "lat": 38.912661, "is_reserved": 0, "is_disabled": 0, "fusion_lon": 0.0, "bike_id": "58c3480465483655405a536f7605d10c", "lon": -77.03828166666666, "rental_uris": {"ios": "https://dc.lft.to/lastmile_qr_scan", "android": "https://dc.lft.to/lastmile_qr_scan"}}, {"name": "11ead38be7379dab32bbd4ae73bfee9b", "fusion_lat": 0.0, "type": "electric_bike", "lat": 38.839872, "is_reserved": 0, "is_disabled": 0, "fusion_lon": 0.0, "bike_id": "11ead38be7379dab32bbd4ae73bfee9b", "lon": -77.00566333333333, "rental_uris": {"ios": "https://dc.lft.to/lastmile_qr_scan", "android": "https://dc.lft.to/lastmile_qr_scan"}}, {"name": "d946d994ca585f63c5cb333d9aa9f8c1", "fusion_lat": 0.0, "type": "electric_scooter", "lat": 38.9124905, "is_reserved": 0, "is_disabled": 0, "fusion_lon": 0.0, "bike_id": "d946d994ca585f63c5cb333d9aa9f8c1", "lon": -77.03837416666667, "rental_uris": {"ios": "https://dc.lft.to/lastmile_qr_scan", "android": "https://dc.lft.to/lastmile_qr_scan"}}, {"name": "8b19919596ee35b2766f8ac01c978733", "fusion_lat": 0.0, "type": "electric_scooter", "lat": 38.88595866666667, "is_reserved": 0, "is_disabled": 0, "fusion_lon": 0.0, "bike_id": "8b19919596ee35b2766f8ac01c978733", "lon": -77.02200833333333, "rental_uris": {"ios": "https://dc.lft.to/lastmile_qr_scan", "android": "https://dc.lft.to/lastmile_qr_scan"}}, {"name": "083ea530471c9873b243d6108cf12142", "fusion_lat": 0.0, "type": "electric_scooter", "lat": 38.91808983333333, "is_reserved": 0, "is_disabled": 0, "fusion_lon": 0.0, "bike_id": "083ea530471c9873b243d6108cf12142", "lon": -77.027906, "rental_uris": {"ios": "https://dc.lft.to/lastmile_qr_scan", "android": "https://dc.lft.to/lastmile_qr_scan"}}, {"name": "dfba7f2bff69b47717516552b4f222f3", "fusion_lat": 0.0, "type": "electric_scooter", "lat": 38.91255266666667, "is_reserved": 0, "is_disabled": 0, "fusion_lon": 0.0, "bike_id": "dfba7f2bff69b47717516552b4f222f3", "lon": -77.03804916666667, "rental_uris": {"ios": "https://dc.lft.to/lastmile_qr_scan", "android": "https://dc.lft.to/lastmile_qr_scan"}}, {"name": "d3895263f47e458e74567e308342a712", "fusion_lat": 0.0, "type": "electric_scooter", "lat": 38.89906366666666, "is_reserved": 0, "is_disabled": 0, "fusion_lon": 0.0, "bike_id": "d3895263f47e458e74567e308342a712", "lon": -76.93366983333334, "rental_uris": {"ios": "https://dc.lft.to/lastmile_qr_scan", "android": "https://dc.lft.to/lastmile_qr_scan"}}, {"name": "7a82e0c8eaf0994042c1588010a6e838", "fusion_lat": 0.0, "type": "electric_scooter", "lat": 38.901367, "is_reserved": 0, "is_disabled": 0, "fusion_lon": 0.0, "bike_id": "7a82e0c8eaf0994042c1588010a6e838", "lon": -77.04359716666667, "rental_uris": {"ios": "https://dc.lft.to/lastmile_qr_scan", "android": "https://dc.lft.to/lastmile_qr_scan"}}, {"name": "1d20e40e762872f005bc0dc8ca79149b", "fusion_lat": 0.0, "type": "electric_bike", "lat": 38.870839333333336, "is_reserved": 0, "is_disabled": 0, "fusion_lon": 0.0, "bike_id": "1d20e40e762872f005bc0dc8ca79149b", "lon": -77.012112, "rental_uris": {"ios": "https://dc.lft.to/lastmile_qr_scan", "android": "https://dc.lft.to/lastmile_qr_scan"}}, {"name": "387e5209ebc017a593d9e301b2a5dd04", "fusion_lat": 0.0, "type": "electric_scooter", "lat": 38.927219, "is_reserved": 0, "is_disabled": 0, "fusion_lon": 0.0, "bike_id": "387e5209ebc017a593d9e301b2a5dd04", "lon": -77.0056605, "rental_uris": {"ios": "https://dc.lft.to/lastmile_qr_scan", "android": "https://dc.lft.to/lastmile_qr_scan"}}, {"name": "5cdc84ee2f6b68f12a5910129cb8f55d", "fusion_lat": 0.0, "type": "electric_bike", "lat": 38.87526533333333, "is_reserved": 0, "is_disabled": 0, "fusion_lon": 0.0, "bike_id": "5cdc84ee2f6b68f12a5910129cb8f55d", "lon": -77.19907283333333, "rental_uris": {"ios": "https://dc.lft.to/lastmile_qr_scan", "android": "https://dc.lft.to/lastmile_qr_scan"}}, {"name": "4ef386d505ff4973424684ce803d871b", "fusion_lat": 0.0, "type": "electric_scooter", "lat": 38.92372116666667, "is_reserved": 0, "is_disabled": 0, "fusion_lon": 0.0, "bike_id": "4ef386d505ff4973424684ce803d871b", "lon": -77.029903, "rental_uris": {"ios": "https://dc.lft.to/lastmile_qr_scan", "android": "https://dc.lft.to/lastmile_qr_scan"}}, {"name": "254bfd8a331070b5e8aeabc03dad5080", "fusion_lat": 0.0, "type": "electric_bike", "lat": 39.094596833333334, "is_reserved": 0, "is_disabled": 0, "fusion_lon": 0.0, "bike_id": "254bfd8a331070b5e8aeabc03dad5080", "lon": -77.14995983333333, "rental_uris": {"ios": "https://dc.lft.to/lastmile_qr_scan", "android": "https://dc.lft.to/lastmile_qr_scan"}}, {"name": "a4ae6122454150fc57d9208542402aef", "fusion_lat": 0.0, "type": "electric_scooter", "lat": 38.91831616666666, "is_reserved": 0, "is_disabled": 0, "fusion_lon": 0.0, "bike_id": "a4ae6122454150fc57d9208542402aef", "lon": -77.0456095, "rental_uris": {"ios": "https://dc.lft.to/lastmile_qr_scan", "android": "https://dc.lft.to/lastmile_qr_scan"}}, {"name": "40be7dd2c99e2d19e4963c3149c72038", "fusion_lat": 0.0, "type": "electric_scooter", "lat": 38.91720183333334, "is_reserved": 0, "is_disabled": 0, "fusion_lon": 0.0, "bike_id": "40be7dd2c99e2d19e4963c3149c72038", "lon": -77.01867, "rental_uris": {"ios": "https://dc.lft.to/lastmile_qr_scan", "android": "https://dc.lft.to/lastmile_qr_scan"}}, {"name": "7c2ed99ae7c0bee3b0a8d196ce50c9e4", "fusion_lat": 0.0, "type": "electric_bike", "lat": 38.8448165, "is_reserved": 0, "is_disabled": 0, "fusion_lon": 0.0, "bike_id": "7c2ed99ae7c0bee3b0a8d196ce50c9e4", "lon": -76.97217116666667, "rental_uris": {"ios": "https://dc.lft.to/lastmile_qr_scan", "android": "https://dc.lft.to/lastmile_qr_scan"}}, {"name": "2e6563de2ecd418028a4725c701f043f", "fusion_lat": 0.0, "type": "electric_scooter", "lat": 38.917607333333336, "is_reserved": 0, "is_disabled": 0, "fusion_lon": 0.0, "bike_id": "2e6563de2ecd418028a4725c701f043f", "lon": -77.025105, "rental_uris": {"ios": "https://dc.lft.to/lastmile_qr_scan", "android": "https://dc.lft.to/lastmile_qr_scan"}}, {"name": "2c8bff615a6d1cf70025c40619f9078b", "fusion_lat": 0.0, "type": "electric_scooter", "lat": 38.90364666666667, "is_reserved": 0, "is_disabled": 0, "fusion_lon": 0.0, "bike_id": "2c8bff615a6d1cf70025c40619f9078b", "lon": -77.04254716666667, "rental_uris": {"ios": "https://dc.lft.to/lastmile_qr_scan", "android": "https://dc.lft.to/lastmile_qr_scan"}}, {"name": "a9f97d2ea13fded489becc5660e8e7ce", "fusion_lat": 0.0, "type": "electric_scooter", "lat": 38.89240916666667, "is_reserved": 0, "is_disabled": 0, "fusion_lon": 0.0, "bike_id": "a9f97d2ea13fded489becc5660e8e7ce", "lon": -77.03957816666667, "rental_uris": {"ios": "https://dc.lft.to/lastmile_qr_scan", "android": "https://dc.lft.to/lastmile_qr_scan"}}, {"name": "289450ad99d2f01d31bd101c991f5dd6", "fusion_lat": 0.0, "type": "electric_scooter", "lat": 38.897315, "is_reserved": 0, "is_disabled": 0, "fusion_lon": 0.0, "bike_id": "289450ad99d2f01d31bd101c991f5dd6", "lon": -77.046439, "rental_uris": {"ios": "https://dc.lft.to/lastmile_qr_scan", "android": "https://dc.lft.to/lastmile_qr_scan"}}, {"name": "3ffcf7831432595bc1b8b07fdcc974e8", "fusion_lat": 0.0, "type": "electric_bike", "lat": 38.9462685, "is_reserved": 0, "is_disabled": 0, "fusion_lon": 0.0, "bike_id": "3ffcf7831432595bc1b8b07fdcc974e8", "lon": -77.08050933333334, "rental_uris": {"ios": "https://dc.lft.to/lastmile_qr_scan", "android": "https://dc.lft.to/lastmile_qr_scan"}}, {"name": "71a017665e4db2e5bad159cf821f44b4", "fusion_lat": 0.0, "type": "electric_scooter", "lat": 38.957756833333335, "is_reserved": 0, "is_disabled": 0, "fusion_lon": 0.0, "bike_id": "71a017665e4db2e5bad159cf821f44b4", "lon": -77.02754116666667, "rental_uris": {"ios": "https://dc.lft.to/lastmile_qr_scan", "android": "https://dc.lft.to/lastmile_qr_scan"}}, {"name": "da76aef175742f1a63f1499c1588e03c", "fusion_lat": 0.0, "type": "electric_bike", "lat": 38.94260633333333, "is_reserved": 0, "is_disabled": 0, "fusion_lon": 0.0, "bike_id": "da76aef175742f1a63f1499c1588e03c", "lon": -77.0283855, "rental_uris": {"ios": "https://dc.lft.to/lastmile_qr_scan", "android": "https://dc.lft.to/lastmile_qr_scan"}}, {"name": "5de959fa37538fd8605ae3e9bd8f42df", "fusion_lat": 0.0, "type": "electric_scooter", "lat": 38.91249466666667, "is_reserved": 0, "is_disabled": 0, "fusion_lon": 0.0, "bike_id": "5de959fa37538fd8605ae3e9bd8f42df", "lon": -77.03840116666667, "rental_uris": {"ios": "https://dc.lft.to/lastmile_qr_scan", "android": "https://dc.lft.to/lastmile_qr_scan"}}, {"name": "9ac142d530e797a3f1b912aba8cf6735", "fusion_lat": 0.0, "type": "electric_scooter", "lat": 38.902781, "is_reserved": 0, "is_disabled": 0, "fusion_lon": 0.0, "bike_id": "9ac142d530e797a3f1b912aba8cf6735", "lon": -77.062611, "rental_uris": {"ios": "https://dc.lft.to/lastmile_qr_scan", "android": "https://dc.lft.to/lastmile_qr_scan"}}, {"name": "f09c64bdec8a5f60163726dec41c6b4a", "fusion_lat": 0.0, "type": "electric_scooter", "lat": 38.898835166666665, "is_reserved": 0, "is_disabled": 0, "fusion_lon": 0.0, "bike_id": "f09c64bdec8a5f60163726dec41c6b4a", "lon": -77.03279733333333, "rental_uris": {"ios": "https://dc.lft.to/lastmile_qr_scan", "android": "https://dc.lft.to/lastmile_qr_scan"}}, {"name": "1f5a6b8334fcf88ae923a3bf697de31e", "fusion_lat": 0.0, "type": "electric_scooter", "lat": 38.90041083333333, "is_reserved": 0, "is_disabled": 0, "fusion_lon": 0.0, "bike_id": "1f5a6b8334fcf88ae923a3bf697de31e", "lon": -77.0018855, "rental_uris": {"ios": "https://dc.lft.to/lastmile_qr_scan", "android": "https://dc.lft.to/lastmile_qr_scan"}}, {"name": "cd96e246f6aa1d722e4ddeaed7d78daf", "fusion_lat": 0.0, "type": "electric_scooter", "lat": 38.91197183333333, "is_reserved": 0, "is_disabled": 0, "fusion_lon": 0.0, "bike_id": "cd96e246f6aa1d722e4ddeaed7d78daf", "lon": -77.03846266666666, "rental_uris": {"ios": "https://dc.lft.to/lastmile_qr_scan", "android": "https://dc.lft.to/lastmile_qr_scan"}}, {"name": "93f5647e67bbc12886cd7094c8726813", "fusion_lat": 0.0, "type": "electric_scooter", "lat": 38.911243, "is_reserved": 0, "is_disabled": 0, "fusion_lon": 0.0, "bike_id": "93f5647e67bbc12886cd7094c8726813", "lon": -77.02197583333333, "rental_uris": {"ios": "https://dc.lft.to/lastmile_qr_scan", "android": "https://dc.lft.to/lastmile_qr_scan"}}, {"name": "b220f0622d7e93094559e5cc3d5249c4", "fusion_lat": 0.0, "type": "electric_scooter", "lat": 38.900324166666664, "is_reserved": 0, "is_disabled": 0, "fusion_lon": 0.0, "bike_id": "b220f0622d7e93094559e5cc3d5249c4", "lon": -76.99648633333334, "rental_uris": {"ios": "https://dc.lft.to/lastmile_qr_scan", "android": "https://dc.lft.to/lastmile_qr_scan"}}, {"name": "c3b47e4f1a8deb8aeeea87067bc41101", "fusion_lat": 0.0, "type": "electric_scooter", "lat": 38.903366166666665, "is_reserved": 0, "is_disabled": 0, "fusion_lon": 0.0, "bike_id": "c3b47e4f1a8deb8aeeea87067bc41101", "lon": -77.0544465, "rental_uris": {"ios": "https://dc.lft.to/lastmile_qr_scan", "android": "https://dc.lft.to/lastmile_qr_scan"}}, {"name": "ca623efabe33b8971dfae115e12ac25d", "fusion_lat": 0.0, "type": "electric_scooter", "lat": 38.9281235, "is_reserved": 0, "is_disabled": 0, "fusion_lon": 0.0, "bike_id": "ca623efabe33b8971dfae115e12ac25d", "lon": -77.03635133333333, "rental_uris": {"ios": "https://dc.lft.to/lastmile_qr_scan", "android": "https://dc.lft.to/lastmile_qr_scan"}}, {"name": "643a81323ade02d802060d4719887a8a", "fusion_lat": 0.0, "type": "electric_scooter", "lat": 38.878637833333336, "is_reserved": 0, "is_disabled": 0, "fusion_lon": 0.0, "bike_id": "643a81323ade02d802060d4719887a8a", "lon": -76.96525133333333, "rental_uris": {"ios": "https://dc.lft.to/lastmile_qr_scan", "android": "https://dc.lft.to/lastmile_qr_scan"}}, {"name": "f13a94c23be0f7628dc5d03947d4f806", "fusion_lat": 0.0, "type": "electric_scooter", "lat": 38.91803683333333, "is_reserved": 0, "is_disabled": 0, "fusion_lon": 0.0, "bike_id": "f13a94c23be0f7628dc5d03947d4f806", "lon": -77.0249275, "rental_uris": {"ios": "https://dc.lft.to/lastmile_qr_scan", "android": "https://dc.lft.to/lastmile_qr_scan"}}, {"name": "e83e6a8b8ce63b6d1b1d4c5465730bab", "fusion_lat": 0.0, "type": "electric_scooter", "lat": 38.91153633333333, "is_reserved": 0, "is_disabled": 0, "fusion_lon": 0.0, "bike_id": "e83e6a8b8ce63b6d1b1d4c5465730bab", "lon": -77.0319445, "rental_uris": {"ios": "https://dc.lft.to/lastmile_qr_scan", "android": "https://dc.lft.to/lastmile_qr_scan"}}, {"name": "4bcd437b5df9b15a3460d38d49058555", "fusion_lat": 0.0, "type": "electric_scooter", "lat": 38.895164666666666, "is_reserved": 0, "is_disabled": 0, "fusion_lon": 0.0, "bike_id": "4bcd437b5df9b15a3460d38d49058555", "lon": -76.99224983333333, "rental_uris": {"ios": "https://dc.lft.to/lastmile_qr_scan", "android": "https://dc.lft.to/lastmile_qr_scan"}}, {"name": "61133eb0570049ce360bb58b89d11406", "fusion_lat": 0.0, "type": "electric_scooter", "lat": 38.89761383333333, "is_reserved": 0, "is_disabled": 0, "fusion_lon": 0.0, "bike_id": "61133eb0570049ce360bb58b89d11406", "lon": -77.0091665, "rental_uris": {"ios": "https://dc.lft.to/lastmile_qr_scan", "android": "https://dc.lft.to/lastmile_qr_scan"}}, {"name": "ac5ebb29adc5bc7828a08518e0c9a0bf", "fusion_lat": 0.0, "type": "electric_scooter", "lat": 38.9025635, "is_reserved": 0, "is_disabled": 0, "fusion_lon": 0.0, "bike_id": "ac5ebb29adc5bc7828a08518e0c9a0bf", "lon": -77.03467883333333, "rental_uris": {"ios": "https://dc.lft.to/lastmile_qr_scan", "android": "https://dc.lft.to/lastmile_qr_scan"}}, {"name": "1bfc0470c12043f58a64697e1f85b933", "fusion_lat": 0.0, "type": "electric_bike", "lat": 38.89634266666667, "is_reserved": 0, "is_disabled": 0, "fusion_lon": 0.0, "bike_id": "1bfc0470c12043f58a64697e1f85b933", "lon": -77.10453366666667, "rental_uris": {"ios": "https://dc.lft.to/lastmile_qr_scan", "android": "https://dc.lft.to/lastmile_qr_scan"}}, {"name": "a93c8204c0fada75120ae9e2e80abe32", "fusion_lat": 0.0, "type": "electric_scooter", "lat": 38.864147, "is_reserved": 0, "is_disabled": 0, "fusion_lon": 0.0, "bike_id": "a93c8204c0fada75120ae9e2e80abe32", "lon": -76.98040683333333, "rental_uris": {"ios": "https://dc.lft.to/lastmile_qr_scan", "android": "https://dc.lft.to/lastmile_qr_scan"}}, {"name": "57bf1be7cfe66b44ea5aa3aa67f22323", "fusion_lat": 0.0, "type": "electric_scooter", "lat": 38.86820316666667, "is_reserved": 0, "is_disabled": 0, "fusion_lon": 0.0, "bike_id": "57bf1be7cfe66b44ea5aa3aa67f22323", "lon": -76.98617733333333, "rental_uris": {"ios": "https://dc.lft.to/lastmile_qr_scan", "android": "https://dc.lft.to/lastmile_qr_scan"}}, {"name": "9292a0e78d78376a0000cf60f7c5cff6", "fusion_lat": 0.0, "type": "electric_scooter", "lat": 38.92387383333333, "is_reserved": 0, "is_disabled": 0, "fusion_lon": 0.0, "bike_id": "9292a0e78d78376a0000cf60f7c5cff6", "lon": -77.0297765, "rental_uris": {"ios": "https://dc.lft.to/lastmile_qr_scan", "android": "https://dc.lft.to/lastmile_qr_scan"}}, {"name": "ba1366fe230cc0bac0bf984a9e3365b3", "fusion_lat": 0.0, "type": "electric_scooter", "lat": 38.86248716666667, "is_reserved": 0, "is_disabled": 0, "fusion_lon": 0.0, "bike_id": "ba1366fe230cc0bac0bf984a9e3365b3", "lon": -76.99532233333333, "rental_uris": {"ios": "https://dc.lft.to/lastmile_qr_scan", "android": "https://dc.lft.to/lastmile_qr_scan"}}, {"name": "e1de45b16c1f162939d51cd5e493256b", "fusion_lat": 0.0, "type": "electric_scooter", "lat": 38.88512883333333, "is_reserved": 0, "is_disabled": 0, "fusion_lon": 0.0, "bike_id": "e1de45b16c1f162939d51cd5e493256b", "lon": -77.00343133333334, "rental_uris": {"ios": "https://dc.lft.to/lastmile_qr_scan", "android": "https://dc.lft.to/lastmile_qr_scan"}}, {"name": "4714a030a8cb9ce333f2cb75a26726f3", "fusion_lat": 0.0, "type": "electric_scooter", "lat": 38.894014166666665, "is_reserved": 0, "is_disabled": 0, "fusion_lon": 0.0, "bike_id": "4714a030a8cb9ce333f2cb75a26726f3", "lon": -76.94804516666667, "rental_uris": {"ios": "https://dc.lft.to/lastmile_qr_scan", "android": "https://dc.lft.to/lastmile_qr_scan"}}, {"name": "a21b4504538cf01c3f50fcd5a48b7a71", "fusion_lat": 0.0, "type": "electric_bike", "lat": 38.88585033333333, "is_reserved": 0, "is_disabled": 0, "fusion_lon": 0.0, "bike_id": "a21b4504538cf01c3f50fcd5a48b7a71", "lon": -77.103615, "rental_uris": {"ios": "https://dc.lft.to/lastmile_qr_scan", "android": "https://dc.lft.to/lastmile_qr_scan"}}, {"name": "e1c30a22fb3702ee0ab8dd583cb4b33b", "fusion_lat": 0.0, "type": "electric_scooter", "lat": 38.93003, "is_reserved": 0, "is_disabled": 0, "fusion_lon": 0.0, "bike_id": "e1c30a22fb3702ee0ab8dd583cb4b33b", "lon": -77.02306933333334, "rental_uris": {"ios": "https://dc.lft.to/lastmile_qr_scan", "android": "https://dc.lft.to/lastmile_qr_scan"}}, {"name": "5b593dce3c9dab6571f56f1b1f7a5fac", "fusion_lat": 0.0, "type": "electric_scooter", "lat": 38.92349033333333, "is_reserved": 0, "is_disabled": 0, "fusion_lon": 0.0, "bike_id": "5b593dce3c9dab6571f56f1b1f7a5fac", "lon": -77.03424866666667, "rental_uris": {"ios": "https://dc.lft.to/lastmile_qr_scan", "android": "https://dc.lft.to/lastmile_qr_scan"}}, {"name": "af71bd92cf1e183ea8e3100d73f7e730", "fusion_lat": 0.0, "type": "electric_scooter", "lat": 38.901253833333335, "is_reserved": 0, "is_disabled": 0, "fusion_lon": 0.0, "bike_id": "af71bd92cf1e183ea8e3100d73f7e730", "lon": -77.03972066666667, "rental_uris": {"ios": "https://dc.lft.to/lastmile_qr_scan", "android": "https://dc.lft.to/lastmile_qr_scan"}}, {"name": "787d7c5bd81cea09d439a06b33d14609", "fusion_lat": 0.0, "type": "electric_scooter", "lat": 38.9147115, "is_reserved": 0, "is_disabled": 0, "fusion_lon": 0.0, "bike_id": "787d7c5bd81cea09d439a06b33d14609", "lon": -77.01784783333333, "rental_uris": {"ios": "https://dc.lft.to/lastmile_qr_scan", "android": "https://dc.lft.to/lastmile_qr_scan"}}, {"name": "f59352e263c96dc01f0bf45eddae89ec", "fusion_lat": 0.0, "type": "electric_scooter", "lat": 38.923391333333335, "is_reserved": 0, "is_disabled": 0, "fusion_lon": 0.0, "bike_id": "f59352e263c96dc01f0bf45eddae89ec", "lon": -77.05012366666666, "rental_uris": {"ios": "https://dc.lft.to/lastmile_qr_scan", "android": "https://dc.lft.to/lastmile_qr_scan"}}, {"name": "aa6425c944645bc3ed5ad581a1c2cde8", "fusion_lat": 0.0, "type": "electric_scooter", "lat": 38.912138, "is_reserved": 0, "is_disabled": 0, "fusion_lon": 0.0, "bike_id": "aa6425c944645bc3ed5ad581a1c2cde8", "lon": -77.07599566666667, "rental_uris": {"ios": "https://dc.lft.to/lastmile_qr_scan", "android": "https://dc.lft.to/lastmile_qr_scan"}}, {"name": "64b1fd34c39a92ffc0e50ac2e7e2e76c", "fusion_lat": 0.0, "type": "electric_scooter", "lat": 38.894798333333334, "is_reserved": 0, "is_disabled": 0, "fusion_lon": 0.0, "bike_id": "64b1fd34c39a92ffc0e50ac2e7e2e76c", "lon": -76.94869983333334, "rental_uris": {"ios": "https://dc.lft.to/lastmile_qr_scan", "android": "https://dc.lft.to/lastmile_qr_scan"}}, {"name": "dc03af171f786074aa5f58f4745e5298", "fusion_lat": 0.0, "type": "electric_scooter", "lat": 38.91091, "is_reserved": 0, "is_disabled": 0, "fusion_lon": 0.0, "bike_id": "dc03af171f786074aa5f58f4745e5298", "lon": -77.03843966666666, "rental_uris": {"ios": "https://dc.lft.to/lastmile_qr_scan", "android": "https://dc.lft.to/lastmile_qr_scan"}}, {"name": "5d1d9bda7131443762ad3cb9d514e566", "fusion_lat": 0.0, "type": "electric_scooter", "lat": 38.89666233333333, "is_reserved": 0, "is_disabled": 0, "fusion_lon": 0.0, "bike_id": "5d1d9bda7131443762ad3cb9d514e566", "lon": -77.02584283333333, "rental_uris": {"ios": "https://dc.lft.to/lastmile_qr_scan", "android": "https://dc.lft.to/lastmile_qr_scan"}}, {"name": "fa5e50ae905587f5438c95fada33c23d", "fusion_lat": 0.0, "type": "electric_scooter", "lat": 38.889927166666666, "is_reserved": 0, "is_disabled": 0, "fusion_lon": 0.0, "bike_id": "fa5e50ae905587f5438c95fada33c23d", "lon": -76.95413333333333, "rental_uris": {"ios": "https://dc.lft.to/lastmile_qr_scan", "android": "https://dc.lft.to/lastmile_qr_scan"}}, {"name": "13c6e32a6136999e3b4e7b7859888c18", "fusion_lat": 0.0, "type": "electric_scooter", "lat": 38.87496633333333, "is_reserved": 0, "is_disabled": 0, "fusion_lon": 0.0, "bike_id": "13c6e32a6136999e3b4e7b7859888c18", "lon": -76.997939, "rental_uris": {"ios": "https://dc.lft.to/lastmile_qr_scan", "android": "https://dc.lft.to/lastmile_qr_scan"}}, {"name": "8f99584b98736f228614b2d1ee4def3a", "fusion_lat": 0.0, "type": "electric_scooter", "lat": 38.876298, "is_reserved": 0, "is_disabled": 0, "fusion_lon": 0.0, "bike_id": "8f99584b98736f228614b2d1ee4def3a", "lon": -76.96530966666667, "rental_uris": {"ios": "https://dc.lft.to/lastmile_qr_scan", "android": "https://dc.lft.to/lastmile_qr_scan"}}, {"name": "74ee712ee90b3fe11ad98886dff3fb0d", "fusion_lat": 0.0, "type": "electric_scooter", "lat": 38.9026965, "is_reserved": 0, "is_disabled": 0, "fusion_lon": 0.0, "bike_id": "74ee712ee90b3fe11ad98886dff3fb0d", "lon": -77.00322316666667, "rental_uris": {"ios": "https://dc.lft.to/lastmile_qr_scan", "android": "https://dc.lft.to/lastmile_qr_scan"}}, {"name": "c067ba004fb9079b30188b3c5120e6a0", "fusion_lat": 0.0, "type": "electric_bike", "lat": 38.92737566666667, "is_reserved": 0, "is_disabled": 0, "fusion_lon": 0.0, "bike_id": "c067ba004fb9079b30188b3c5120e6a0", "lon": -77.02587866666667, "rental_uris": {"ios": "https://dc.lft.to/lastmile_qr_scan", "android": "https://dc.lft.to/lastmile_qr_scan"}}, {"name": "b576b42e599d9505e34af00412316e38", "fusion_lat": 0.0, "type": "electric_scooter", "lat": 38.922844166666664, "is_reserved": 0, "is_disabled": 0, "fusion_lon": 0.0, "bike_id": "b576b42e599d9505e34af00412316e38", "lon": -77.029793, "rental_uris": {"ios": "https://dc.lft.to/lastmile_qr_scan", "android": "https://dc.lft.to/lastmile_qr_scan"}}, {"name": "ebc87c76e332f41084e3f83b37c011b3", "fusion_lat": 0.0, "type": "electric_scooter", "lat": 38.90616716666667, "is_reserved": 0, "is_disabled": 0, "fusion_lon": 0.0, "bike_id": "ebc87c76e332f41084e3f83b37c011b3", "lon": -77.0060485, "rental_uris": {"ios": "https://dc.lft.to/lastmile_qr_scan", "android": "https://dc.lft.to/lastmile_qr_scan"}}, {"name": "5bcc9181f34500cfaaf9b72c88e3927d", "fusion_lat": 0.0, "type": "electric_scooter", "lat": 38.87081833333333, "is_reserved": 0, "is_disabled": 0, "fusion_lon": 0.0, "bike_id": "5bcc9181f34500cfaaf9b72c88e3927d", "lon": -77.01122483333333, "rental_uris": {"ios": "https://dc.lft.to/lastmile_qr_scan", "android": "https://dc.lft.to/lastmile_qr_scan"}}, {"name": "c191fbd9474e2fa4c5eccc70c2e8288c", "fusion_lat": 0.0, "type": "electric_scooter", "lat": 38.934601, "is_reserved": 0, "is_disabled": 0, "fusion_lon": 0.0, "bike_id": "c191fbd9474e2fa4c5eccc70c2e8288c", "lon": -77.086323, "rental_uris": {"ios": "https://dc.lft.to/lastmile_qr_scan", "android": "https://dc.lft.to/lastmile_qr_scan"}}, {"name": "5066670fca89486faa91cc5611819f76", "fusion_lat": 0.0, "type": "electric_scooter", "lat": 38.90567, "is_reserved": 0, "is_disabled": 0, "fusion_lon": 0.0, "bike_id": "5066670fca89486faa91cc5611819f76", "lon": -77.0572325, "rental_uris": {"ios": "https://dc.lft.to/lastmile_qr_scan", "android": "https://dc.lft.to/lastmile_qr_scan"}}, {"name": "287ce7c6c651536670f358cd38883bfe", "fusion_lat": 0.0, "type": "electric_scooter", "lat": 38.869197, "is_reserved": 0, "is_disabled": 0, "fusion_lon": 0.0, "bike_id": "287ce7c6c651536670f358cd38883bfe", "lon": -76.97500466666666, "rental_uris": {"ios": "https://dc.lft.to/lastmile_qr_scan", "android": "https://dc.lft.to/lastmile_qr_scan"}}, {"name": "6c0044191e80830eb853868f6867e92c", "fusion_lat": 0.0, "type": "electric_scooter", "lat": 38.94338183333333, "is_reserved": 0, "is_disabled": 0, "fusion_lon": 0.0, "bike_id": "6c0044191e80830eb853868f6867e92c", "lon": -77.06053966666667, "rental_uris": {"ios": "https://dc.lft.to/lastmile_qr_scan", "android": "https://dc.lft.to/lastmile_qr_scan"}}, {"name": "28e639db91612a9d10cf74296d000d6e", "fusion_lat": 0.0, "type": "electric_scooter", "lat": 38.895622833333334, "is_reserved": 0, "is_disabled": 0, "fusion_lon": 0.0, "bike_id": "28e639db91612a9d10cf74296d000d6e", "lon": -77.04669533333333, "rental_uris": {"ios": "https://dc.lft.to/lastmile_qr_scan", "android": "https://dc.lft.to/lastmile_qr_scan"}}, {"name": "ed013c9e658ace78fa51192c0ad85571", "fusion_lat": 0.0, "type": "electric_bike", "lat": 38.90536016666667, "is_reserved": 0, "is_disabled": 0, "fusion_lon": 0.0, "bike_id": "ed013c9e658ace78fa51192c0ad85571", "lon": -77.02977983333334, "rental_uris": {"ios": "https://dc.lft.to/lastmile_qr_scan", "android": "https://dc.lft.to/lastmile_qr_scan"}}, {"name": "13762806c1eb9d4b5ae24c8599d5f123", "fusion_lat": 0.0, "type": "electric_scooter", "lat": 38.91136983333333, "is_reserved": 0, "is_disabled": 0, "fusion_lon": 0.0, "bike_id": "13762806c1eb9d4b5ae24c8599d5f123", "lon": -77.04188183333333, "rental_uris": {"ios": "https://dc.lft.to/lastmile_qr_scan", "android": "https://dc.lft.to/lastmile_qr_scan"}}, {"name": "910c5d86723f22e719c7933523621583", "fusion_lat": 0.0, "type": "electric_scooter", "lat": 38.88994683333333, "is_reserved": 0, "is_disabled": 0, "fusion_lon": 0.0, "bike_id": "910c5d86723f22e719c7933523621583", "lon": -76.9924785, "rental_uris": {"ios": "https://dc.lft.to/lastmile_qr_scan", "android": "https://dc.lft.to/lastmile_qr_scan"}}, {"name": "2ee0fcf0fb212481bcb11e36149bea70", "fusion_lat": 0.0, "type": "electric_scooter", "lat": 38.891884166666664, "is_reserved": 0, "is_disabled": 0, "fusion_lon": 0.0, "bike_id": "2ee0fcf0fb212481bcb11e36149bea70", "lon": -77.01581483333334, "rental_uris": {"ios": "https://dc.lft.to/lastmile_qr_scan", "android": "https://dc.lft.to/lastmile_qr_scan"}}, {"name": "90d34cea51297b0e15fed6b8268d4f26", "fusion_lat": 0.0, "type": "electric_scooter", "lat": 38.912908333333334, "is_reserved": 0, "is_disabled": 0, "fusion_lon": 0.0, "bike_id": "90d34cea51297b0e15fed6b8268d4f26", "lon": -77.0616085, "rental_uris": {"ios": "https://dc.lft.to/lastmile_qr_scan", "android": "https://dc.lft.to/lastmile_qr_scan"}}, {"name": "3d30efddc5a39450d95dbc95ecd29386", "fusion_lat": 0.0, "type": "electric_scooter", "lat": 38.9300405, "is_reserved": 0, "is_disabled": 0, "fusion_lon": 0.0, "bike_id": "3d30efddc5a39450d95dbc95ecd29386", "lon": -77.0552205, "rental_uris": {"ios": "https://dc.lft.to/lastmile_qr_scan", "android": "https://dc.lft.to/lastmile_qr_scan"}}, {"name": "f2d81ea4a16c54c524caec4e684c9db2", "fusion_lat": 0.0, "type": "electric_scooter", "lat": 38.942938833333336, "is_reserved": 0, "is_disabled": 0, "fusion_lon": 0.0, "bike_id": "f2d81ea4a16c54c524caec4e684c9db2", "lon": -77.02171066666666, "rental_uris": {"ios": "https://dc.lft.to/lastmile_qr_scan", "android": "https://dc.lft.to/lastmile_qr_scan"}}, {"name": "41cadfd276557b378500f55157a058d3", "fusion_lat": 0.0, "type": "electric_bike", "lat": 38.892131666666664, "is_reserved": 0, "is_disabled": 0, "fusion_lon": 0.0, "bike_id": "41cadfd276557b378500f55157a058d3", "lon": -77.10780566666666, "rental_uris": {"ios": "https://dc.lft.to/lastmile_qr_scan", "android": "https://dc.lft.to/lastmile_qr_scan"}}, {"name": "9dbf1721eee3a238f805bc9787a3a809", "fusion_lat": 0.0, "type": "electric_scooter", "lat": 38.9110075, "is_reserved": 0, "is_disabled": 0, "fusion_lon": 0.0, "bike_id": "9dbf1721eee3a238f805bc9787a3a809", "lon": -77.07352833333333, "rental_uris": {"ios": "https://dc.lft.to/lastmile_qr_scan", "android": "https://dc.lft.to/lastmile_qr_scan"}}, {"name": "0d91e76a6feaa4a82ce3e98f3d146076", "fusion_lat": 0.0, "type": "electric_scooter", "lat": 38.9056245, "is_reserved": 0, "is_disabled": 0, "fusion_lon": 0.0, "bike_id": "0d91e76a6feaa4a82ce3e98f3d146076", "lon": -77.02763466666667, "rental_uris": {"ios": "https://dc.lft.to/lastmile_qr_scan", "android": "https://dc.lft.to/lastmile_qr_scan"}}, {"name": "6b58f7bdcbc6f448a0a454411a53ceb2", "fusion_lat": 0.0, "type": "electric_scooter", "lat": 38.91183633333333, "is_reserved": 0, "is_disabled": 0, "fusion_lon": 0.0, "bike_id": "6b58f7bdcbc6f448a0a454411a53ceb2", "lon": -77.03866, "rental_uris": {"ios": "https://dc.lft.to/lastmile_qr_scan", "android": "https://dc.lft.to/lastmile_qr_scan"}}, {"name": "9dd06d3449dc32bcaaeadc296ec49929", "fusion_lat": 0.0, "type": "electric_scooter", "lat": 38.859209666666665, "is_reserved": 0, "is_disabled": 0, "fusion_lon": 0.0, "bike_id": "9dd06d3449dc32bcaaeadc296ec49929", "lon": -76.989765, "rental_uris": {"ios": "https://dc.lft.to/lastmile_qr_scan", "android": "https://dc.lft.to/lastmile_qr_scan"}}, {"name": "98753a227b737fdbaec394cc964377b4", "fusion_lat": 0.0, "type": "electric_scooter", "lat": 38.957277, "is_reserved": 0, "is_disabled": 0, "fusion_lon": 0.0, "bike_id": "98753a227b737fdbaec394cc964377b4", "lon": -77.02407, "rental_uris": {"ios": "https://dc.lft.to/lastmile_qr_scan", "android": "https://dc.lft.to/lastmile_qr_scan"}}, {"name": "70337760159659bac6eb19530061c20a", "fusion_lat": 0.0, "type": "electric_scooter", "lat": 38.90091866666667, "is_reserved": 0, "is_disabled": 0, "fusion_lon": 0.0, "bike_id": "70337760159659bac6eb19530061c20a", "lon": -77.032062, "rental_uris": {"ios": "https://dc.lft.to/lastmile_qr_scan", "android": "https://dc.lft.to/lastmile_qr_scan"}}, {"name": "6c7bc6249e19d578dc38698cbfce73ea", "fusion_lat": 0.0, "type": "electric_scooter", "lat": 38.872885, "is_reserved": 0, "is_disabled": 0, "fusion_lon": 0.0, "bike_id": "6c7bc6249e19d578dc38698cbfce73ea", "lon": -77.00984366666667, "rental_uris": {"ios": "https://dc.lft.to/lastmile_qr_scan", "android": "https://dc.lft.to/lastmile_qr_scan"}}, {"name": "a6ed4670a4d25b88467d45536254f64f", "fusion_lat": 0.0, "type": "electric_scooter", "lat": 38.883062833333334, "is_reserved": 0, "is_disabled": 0, "fusion_lon": 0.0, "bike_id": "a6ed4670a4d25b88467d45536254f64f", "lon": -77.02376783333334, "rental_uris": {"ios": "https://dc.lft.to/lastmile_qr_scan", "android": "https://dc.lft.to/lastmile_qr_scan"}}, {"name": "816f7b5477549b89ec8ccefc828dae20", "fusion_lat": 0.0, "type": "electric_scooter", "lat": 38.9339375, "is_reserved": 0, "is_disabled": 0, "fusion_lon": 0.0, "bike_id": "816f7b5477549b89ec8ccefc828dae20", "lon": -77.03579966666666, "rental_uris": {"ios": "https://dc.lft.to/lastmile_qr_scan", "android": "https://dc.lft.to/lastmile_qr_scan"}}, {"name": "1ca15bab39bf089b3875bf7518bcd871", "fusion_lat": 0.0, "type": "electric_scooter", "lat": 38.914047, "is_reserved": 0, "is_disabled": 0, "fusion_lon": 0.0, "bike_id": "1ca15bab39bf089b3875bf7518bcd871", "lon": -77.03206783333333, "rental_uris": {"ios": "https://dc.lft.to/lastmile_qr_scan", "android": "https://dc.lft.to/lastmile_qr_scan"}}, {"name": "37e1e636701b5e342dd9af2d87637e31", "fusion_lat": 0.0, "type": "electric_scooter", "lat": 38.90032766666667, "is_reserved": 0, "is_disabled": 0, "fusion_lon": 0.0, "bike_id": "37e1e636701b5e342dd9af2d87637e31", "lon": -77.00632116666667, "rental_uris": {"ios": "https://dc.lft.to/lastmile_qr_scan", "android": "https://dc.lft.to/lastmile_qr_scan"}}, {"name": "976b55650e80a6abee4df865cee70400", "fusion_lat": 0.0, "type": "electric_scooter", "lat": 38.900000666666664, "is_reserved": 0, "is_disabled": 0, "fusion_lon": 0.0, "bike_id": "976b55650e80a6abee4df865cee70400", "lon": -77.0066395, "rental_uris": {"ios": "https://dc.lft.to/lastmile_qr_scan", "android": "https://dc.lft.to/lastmile_qr_scan"}}, {"name": "ee14bdee6e9b0d36e5b8f8cb7817cf36", "fusion_lat": 0.0, "type": "electric_scooter", "lat": 38.917288166666665, "is_reserved": 0, "is_disabled": 0, "fusion_lon": 0.0, "bike_id": "ee14bdee6e9b0d36e5b8f8cb7817cf36", "lon": -77.03204783333334, "rental_uris": {"ios": "https://dc.lft.to/lastmile_qr_scan", "android": "https://dc.lft.to/lastmile_qr_scan"}}, {"name": "901bc9c54b7d0a64ce5fff8a997ceb3c", "fusion_lat": 0.0, "type": "electric_scooter", "lat": 38.92508383333333, "is_reserved": 0, "is_disabled": 0, "fusion_lon": 0.0, "bike_id": "901bc9c54b7d0a64ce5fff8a997ceb3c", "lon": -77.0022735, "rental_uris": {"ios": "https://dc.lft.to/lastmile_qr_scan", "android": "https://dc.lft.to/lastmile_qr_scan"}}, {"name": "2ad62a11010cb798baca5f65ae3067ea", "fusion_lat": 0.0, "type": "electric_scooter", "lat": 38.93253766666667, "is_reserved": 0, "is_disabled": 0, "fusion_lon": 0.0, "bike_id": "2ad62a11010cb798baca5f65ae3067ea", "lon": -77.04001633333333, "rental_uris": {"ios": "https://dc.lft.to/lastmile_qr_scan", "android": "https://dc.lft.to/lastmile_qr_scan"}}, {"name": "e261d3148c24976eedb7f23d25303eb4", "fusion_lat": 0.0, "type": "electric_bike", "lat": 38.949664, "is_reserved": 0, "is_disabled": 0, "fusion_lon": 0.0, "bike_id": "e261d3148c24976eedb7f23d25303eb4", "lon": -76.9728955, "rental_uris": {"ios": "https://dc.lft.to/lastmile_qr_scan", "android": "https://dc.lft.to/lastmile_qr_scan"}}, {"name": "b6b4c4a4ab9b7b8db3d46f50f44b3d81", "fusion_lat": 0.0, "type": "electric_bike", "lat": 38.875516, "is_reserved": 0, "is_disabled": 0, "fusion_lon": 0.0, "bike_id": "b6b4c4a4ab9b7b8db3d46f50f44b3d81", "lon": -76.96753316666667, "rental_uris": {"ios": "https://dc.lft.to/lastmile_qr_scan", "android": "https://dc.lft.to/lastmile_qr_scan"}}, {"name": "412ea293917fc146506a6215aeda3ffb", "fusion_lat": 0.0, "type": "electric_scooter", "lat": 38.912569166666664, "is_reserved": 0, "is_disabled": 0, "fusion_lon": 0.0, "bike_id": "412ea293917fc146506a6215aeda3ffb", "lon": -77.0403145, "rental_uris": {"ios": "https://dc.lft.to/lastmile_qr_scan", "android": "https://dc.lft.to/lastmile_qr_scan"}}, {"name": "beecc1a78e0b2a823be7d4d22e41af60", "fusion_lat": 0.0, "type": "electric_scooter", "lat": 38.900189166666664, "is_reserved": 0, "is_disabled": 0, "fusion_lon": 0.0, "bike_id": "beecc1a78e0b2a823be7d4d22e41af60", "lon": -77.0259485, "rental_uris": {"ios": "https://dc.lft.to/lastmile_qr_scan", "android": "https://dc.lft.to/lastmile_qr_scan"}}, {"name": "343b30c8b32f1578323d25867a00866f", "fusion_lat": 0.0, "type": "electric_scooter", "lat": 38.871856666666666, "is_reserved": 0, "is_disabled": 0, "fusion_lon": 0.0, "bike_id": "343b30c8b32f1578323d25867a00866f", "lon": -77.005959, "rental_uris": {"ios": "https://dc.lft.to/lastmile_qr_scan", "android": "https://dc.lft.to/lastmile_qr_scan"}}, {"name": "b6c42f79165d6585c069fb3a80f8f4d8", "fusion_lat": 0.0, "type": "electric_scooter", "lat": 38.907391, "is_reserved": 0, "is_disabled": 0, "fusion_lon": 0.0, "bike_id": "b6c42f79165d6585c069fb3a80f8f4d8", "lon": -77.04667233333333, "rental_uris": {"ios": "https://dc.lft.to/lastmile_qr_scan", "android": "https://dc.lft.to/lastmile_qr_scan"}}, {"name": "999686e840c238d8093fa8dac3508537", "fusion_lat": 0.0, "type": "electric_scooter", "lat": 38.917106833333335, "is_reserved": 0, "is_disabled": 0, "fusion_lon": 0.0, "bike_id": "999686e840c238d8093fa8dac3508537", "lon": -77.028453, "rental_uris": {"ios": "https://dc.lft.to/lastmile_qr_scan", "android": "https://dc.lft.to/lastmile_qr_scan"}}, {"name": "4283c9779e7921f85ceffbabdae577fb", "fusion_lat": 0.0, "type": "electric_scooter", "lat": 38.9272385, "is_reserved": 0, "is_disabled": 0, "fusion_lon": 0.0, "bike_id": "4283c9779e7921f85ceffbabdae577fb", "lon": -77.02589366666666, "rental_uris": {"ios": "https://dc.lft.to/lastmile_qr_scan", "android": "https://dc.lft.to/lastmile_qr_scan"}}, {"name": "6468497155a0e7f21f0253593a975ed9", "fusion_lat": 0.0, "type": "electric_scooter", "lat": 38.91676783333333, "is_reserved": 0, "is_disabled": 0, "fusion_lon": 0.0, "bike_id": "6468497155a0e7f21f0253593a975ed9", "lon": -77.01582166666667, "rental_uris": {"ios": "https://dc.lft.to/lastmile_qr_scan", "android": "https://dc.lft.to/lastmile_qr_scan"}}, {"name": "c01367d7ea2287af6eb581055f5aa419", "fusion_lat": 0.0, "type": "electric_scooter", "lat": 38.91686383333333, "is_reserved": 0, "is_disabled": 0, "fusion_lon": 0.0, "bike_id": "c01367d7ea2287af6eb581055f5aa419", "lon": -77.03765183333333, "rental_uris": {"ios": "https://dc.lft.to/lastmile_qr_scan", "android": "https://dc.lft.to/lastmile_qr_scan"}}, {"name": "a7867b3598b847d42e20a7e165da6871", "fusion_lat": 0.0, "type": "electric_scooter", "lat": 38.89939833333333, "is_reserved": 0, "is_disabled": 0, "fusion_lon": 0.0, "bike_id": "a7867b3598b847d42e20a7e165da6871", "lon": -76.99480666666666, "rental_uris": {"ios": "https://dc.lft.to/lastmile_qr_scan", "android": "https://dc.lft.to/lastmile_qr_scan"}}, {"name": "e732238a00f749dd26d4a1bd7f5d15bd", "fusion_lat": 0.0, "type": "electric_scooter", "lat": 38.89978883333333, "is_reserved": 0, "is_disabled": 0, "fusion_lon": 0.0, "bike_id": "e732238a00f749dd26d4a1bd7f5d15bd", "lon": -77.03190716666667, "rental_uris": {"ios": "https://dc.lft.to/lastmile_qr_scan", "android": "https://dc.lft.to/lastmile_qr_scan"}}, {"name": "d224e901adf146817851b9c5a8f1588a", "fusion_lat": 0.0, "type": "electric_scooter", "lat": 38.89833383333333, "is_reserved": 0, "is_disabled": 0, "fusion_lon": 0.0, "bike_id": "d224e901adf146817851b9c5a8f1588a", "lon": -76.9464185, "rental_uris": {"ios": "https://dc.lft.to/lastmile_qr_scan", "android": "https://dc.lft.to/lastmile_qr_scan"}}, {"name": "5a26e703ced7b52e39b7e222a699a94c", "fusion_lat": 0.0, "type": "electric_scooter", "lat": 38.898287333333336, "is_reserved": 0, "is_disabled": 0, "fusion_lon": 0.0, "bike_id": "5a26e703ced7b52e39b7e222a699a94c", "lon": -77.00763283333333, "rental_uris": {"ios": "https://dc.lft.to/lastmile_qr_scan", "android": "https://dc.lft.to/lastmile_qr_scan"}}, {"name": "91b800938a30b9206468b2140b771163", "fusion_lat": 0.0, "type": "electric_scooter", "lat": 38.9011595, "is_reserved": 0, "is_disabled": 0, "fusion_lon": 0.0, "bike_id": "91b800938a30b9206468b2140b771163", "lon": -77.02553633333333, "rental_uris": {"ios": "https://dc.lft.to/lastmile_qr_scan", "android": "https://dc.lft.to/lastmile_qr_scan"}}, {"name": "4684154e7be88072723d4c28514633d9", "fusion_lat": 0.0, "type": "electric_scooter", "lat": 38.8972935, "is_reserved": 0, "is_disabled": 0, "fusion_lon": 0.0, "bike_id": "4684154e7be88072723d4c28514633d9", "lon": -77.04758933333333, "rental_uris": {"ios": "https://dc.lft.to/lastmile_qr_scan", "android": "https://dc.lft.to/lastmile_qr_scan"}}, {"name": "24c56e84592ff9370af727b50c3ad049", "fusion_lat": 0.0, "type": "electric_scooter", "lat": 38.9125395, "is_reserved": 0, "is_disabled": 0, "fusion_lon": 0.0, "bike_id": "24c56e84592ff9370af727b50c3ad049", "lon": -77.0076445, "rental_uris": {"ios": "https://dc.lft.to/lastmile_qr_scan", "android": "https://dc.lft.to/lastmile_qr_scan"}}, {"name": "5ec687fa000f934b50d0e5004396d4df", "fusion_lat": 0.0, "type": "electric_scooter", "lat": 38.863678, "is_reserved": 0, "is_disabled": 0, "fusion_lon": 0.0, "bike_id": "5ec687fa000f934b50d0e5004396d4df", "lon": -77.0136055, "rental_uris": {"ios": "https://dc.lft.to/lastmile_qr_scan", "android": "https://dc.lft.to/lastmile_qr_scan"}}, {"name": "fe2f9ad7c1419f9f897764e023a8721e", "fusion_lat": 0.0, "type": "electric_scooter", "lat": 38.927049, "is_reserved": 0, "is_disabled": 0, "fusion_lon": 0.0, "bike_id": "fe2f9ad7c1419f9f897764e023a8721e", "lon": -77.03728966666667, "rental_uris": {"ios": "https://dc.lft.to/lastmile_qr_scan", "android": "https://dc.lft.to/lastmile_qr_scan"}}, {"name": "725b9a4f22aa813a3b9a51869239ee16", "fusion_lat": 0.0, "type": "electric_bike", "lat": 38.92850416666667, "is_reserved": 0, "is_disabled": 0, "fusion_lon": 0.0, "bike_id": "725b9a4f22aa813a3b9a51869239ee16", "lon": -77.10676916666667, "rental_uris": {"ios": "https://dc.lft.to/lastmile_qr_scan", "android": "https://dc.lft.to/lastmile_qr_scan"}}, {"name": "a4515927520adbee2eceaec1f082966a", "fusion_lat": 0.0, "type": "electric_scooter", "lat": 38.89724016666667, "is_reserved": 0, "is_disabled": 0, "fusion_lon": 0.0, "bike_id": "a4515927520adbee2eceaec1f082966a", "lon": -77.0434035, "rental_uris": {"ios": "https://dc.lft.to/lastmile_qr_scan", "android": "https://dc.lft.to/lastmile_qr_scan"}}, {"name": "7938c9821d064b6fa95b84ca9d5e3015", "fusion_lat": 0.0, "type": "electric_scooter", "lat": 38.916872, "is_reserved": 0, "is_disabled": 0, "fusion_lon": 0.0, "bike_id": "7938c9821d064b6fa95b84ca9d5e3015", "lon": -77.01219933333333, "rental_uris": {"ios": "https://dc.lft.to/lastmile_qr_scan", "android": "https://dc.lft.to/lastmile_qr_scan"}}, {"name": "0a8067d0910bea5b453abe123831ee18", "fusion_lat": 0.0, "type": "electric_scooter", "lat": 38.90300216666667, "is_reserved": 0, "is_disabled": 0, "fusion_lon": 0.0, "bike_id": "0a8067d0910bea5b453abe123831ee18", "lon": -77.04273166666667, "rental_uris": {"ios": "https://dc.lft.to/lastmile_qr_scan", "android": "https://dc.lft.to/lastmile_qr_scan"}}, {"name": "3c1297a5093b4bfe240dd18b836cba01", "fusion_lat": 0.0, "type": "electric_scooter", "lat": 38.930623, "is_reserved": 0, "is_disabled": 0, "fusion_lon": 0.0, "bike_id": "3c1297a5093b4bfe240dd18b836cba01", "lon": -77.0232235, "rental_uris": {"ios": "https://dc.lft.to/lastmile_qr_scan", "android": "https://dc.lft.to/lastmile_qr_scan"}}, {"name": "070f05176eeb4483319bf00daa714e71", "fusion_lat": 0.0, "type": "electric_scooter", "lat": 38.890148333333336, "is_reserved": 0, "is_disabled": 0, "fusion_lon": 0.0, "bike_id": "070f05176eeb4483319bf00daa714e71", "lon": -76.93734283333333, "rental_uris": {"ios": "https://dc.lft.to/lastmile_qr_scan", "android": "https://dc.lft.to/lastmile_qr_scan"}}, {"name": "1fd965bfb267e0b08444d6b715234b6e", "fusion_lat": 0.0, "type": "electric_scooter", "lat": 38.91674833333333, "is_reserved": 0, "is_disabled": 0, "fusion_lon": 0.0, "bike_id": "1fd965bfb267e0b08444d6b715234b6e", "lon": -77.02382983333334, "rental_uris": {"ios": "https://dc.lft.to/lastmile_qr_scan", "android": "https://dc.lft.to/lastmile_qr_scan"}}, {"name": "ba8d85ddada63b87e1e69b6f9d0530b1", "fusion_lat": 0.0, "type": "electric_scooter", "lat": 38.905666833333335, "is_reserved": 0, "is_disabled": 0, "fusion_lon": 0.0, "bike_id": "ba8d85ddada63b87e1e69b6f9d0530b1", "lon": -77.00598866666667, "rental_uris": {"ios": "https://dc.lft.to/lastmile_qr_scan", "android": "https://dc.lft.to/lastmile_qr_scan"}}, {"name": "7d679357889b332c6f5ce2b5dcc2400d", "fusion_lat": 0.0, "type": "electric_scooter", "lat": 38.934683166666666, "is_reserved": 0, "is_disabled": 0, "fusion_lon": 0.0, "bike_id": "7d679357889b332c6f5ce2b5dcc2400d", "lon": -77.0285115, "rental_uris": {"ios": "https://dc.lft.to/lastmile_qr_scan", "android": "https://dc.lft.to/lastmile_qr_scan"}}, {"name": "0acb457d6ace043058276c6f29ed859d", "fusion_lat": 0.0, "type": "electric_scooter", "lat": 38.91796983333333, "is_reserved": 0, "is_disabled": 0, "fusion_lon": 0.0, "bike_id": "0acb457d6ace043058276c6f29ed859d", "lon": -77.040128, "rental_uris": {"ios": "https://dc.lft.to/lastmile_qr_scan", "android": "https://dc.lft.to/lastmile_qr_scan"}}, {"name": "88faa4f86ce925163dcca5b0302abc2c", "fusion_lat": 0.0, "type": "electric_scooter", "lat": 38.917027833333336, "is_reserved": 0, "is_disabled": 0, "fusion_lon": 0.0, "bike_id": "88faa4f86ce925163dcca5b0302abc2c", "lon": -77.0313925, "rental_uris": {"ios": "https://dc.lft.to/lastmile_qr_scan", "android": "https://dc.lft.to/lastmile_qr_scan"}}, {"name": "929c7a9185c835be24fcf2ccf6adfe14", "fusion_lat": 0.0, "type": "electric_scooter", "lat": 38.91956866666666, "is_reserved": 0, "is_disabled": 0, "fusion_lon": 0.0, "bike_id": "929c7a9185c835be24fcf2ccf6adfe14", "lon": -77.02512966666667, "rental_uris": {"ios": "https://dc.lft.to/lastmile_qr_scan", "android": "https://dc.lft.to/lastmile_qr_scan"}}, {"name": "a2ee9d9bbfcb97b2f0ba96a2b95a9906", "fusion_lat": 0.0, "type": "electric_scooter", "lat": 38.975039, "is_reserved": 0, "is_disabled": 0, "fusion_lon": 0.0, "bike_id": "a2ee9d9bbfcb97b2f0ba96a2b95a9906", "lon": -77.01724983333334, "rental_uris": {"ios": "https://dc.lft.to/lastmile_qr_scan", "android": "https://dc.lft.to/lastmile_qr_scan"}}, {"name": "2fb45853b951ed3d8f9e1d0807dd888c", "fusion_lat": 0.0, "type": "electric_scooter", "lat": 38.9126435, "is_reserved": 0, "is_disabled": 0, "fusion_lon": 0.0, "bike_id": "2fb45853b951ed3d8f9e1d0807dd888c", "lon": -77.03870766666667, "rental_uris": {"ios": "https://dc.lft.to/lastmile_qr_scan", "android": "https://dc.lft.to/lastmile_qr_scan"}}, {"name": "55832b8f8b184c0cd51868e2118ea298", "fusion_lat": 0.0, "type": "electric_bike", "lat": 38.8524385, "is_reserved": 0, "is_disabled": 0, "fusion_lon": 0.0, "bike_id": "55832b8f8b184c0cd51868e2118ea298", "lon": -77.1142835, "rental_uris": {"ios": "https://dc.lft.to/lastmile_qr_scan", "android": "https://dc.lft.to/lastmile_qr_scan"}}, {"name": "be264af83db74550ccb767217e2ff4e2", "fusion_lat": 0.0, "type": "electric_scooter", "lat": 38.91824616666667, "is_reserved": 0, "is_disabled": 0, "fusion_lon": 0.0, "bike_id": "be264af83db74550ccb767217e2ff4e2", "lon": -77.02709583333333, "rental_uris": {"ios": "https://dc.lft.to/lastmile_qr_scan", "android": "https://dc.lft.to/lastmile_qr_scan"}}, {"name": "09ff3735992a3a673fe1c63886add735", "fusion_lat": 0.0, "type": "electric_scooter", "lat": 38.90727616666667, "is_reserved": 0, "is_disabled": 0, "fusion_lon": 0.0, "bike_id": "09ff3735992a3a673fe1c63886add735", "lon": -77.044975, "rental_uris": {"ios": "https://dc.lft.to/lastmile_qr_scan", "android": "https://dc.lft.to/lastmile_qr_scan"}}, {"name": "43a91a6249c218973f78633d148d87f8", "fusion_lat": 0.0, "type": "electric_bike", "lat": 38.9306315, "is_reserved": 0, "is_disabled": 0, "fusion_lon": 0.0, "bike_id": "43a91a6249c218973f78633d148d87f8", "lon": -77.03189716666667, "rental_uris": {"ios": "https://dc.lft.to/lastmile_qr_scan", "android": "https://dc.lft.to/lastmile_qr_scan"}}, {"name": "f3e0bcb5a7af24b86f11d5db51ffbb2b", "fusion_lat": 0.0, "type": "electric_scooter", "lat": 38.915609833333335, "is_reserved": 0, "is_disabled": 0, "fusion_lon": 0.0, "bike_id": "f3e0bcb5a7af24b86f11d5db51ffbb2b", "lon": -77.01412516666667, "rental_uris": {"ios": "https://dc.lft.to/lastmile_qr_scan", "android": "https://dc.lft.to/lastmile_qr_scan"}}, {"name": "5c6599d1aa25e203ad70e09764690a07", "fusion_lat": 0.0, "type": "electric_scooter", "lat": 38.910276333333336, "is_reserved": 0, "is_disabled": 0, "fusion_lon": 0.0, "bike_id": "5c6599d1aa25e203ad70e09764690a07", "lon": -77.02406233333333, "rental_uris": {"ios": "https://dc.lft.to/lastmile_qr_scan", "android": "https://dc.lft.to/lastmile_qr_scan"}}, {"name": "e64e886c1086a7a5b635cf16dcae980c", "fusion_lat": 0.0, "type": "electric_scooter", "lat": 38.921485833333335, "is_reserved": 0, "is_disabled": 0, "fusion_lon": 0.0, "bike_id": "e64e886c1086a7a5b635cf16dcae980c", "lon": -77.03864, "rental_uris": {"ios": "https://dc.lft.to/lastmile_qr_scan", "android": "https://dc.lft.to/lastmile_qr_scan"}}, {"name": "e197bf7960b28bf6c2c060f4ed7d1bb0", "fusion_lat": 0.0, "type": "electric_scooter", "lat": 38.91646733333333, "is_reserved": 0, "is_disabled": 0, "fusion_lon": 0.0, "bike_id": "e197bf7960b28bf6c2c060f4ed7d1bb0", "lon": -77.01587, "rental_uris": {"ios": "https://dc.lft.to/lastmile_qr_scan", "android": "https://dc.lft.to/lastmile_qr_scan"}}, {"name": "e6a8229019599d3002ad532a09a17ce9", "fusion_lat": 0.0, "type": "electric_scooter", "lat": 38.90958833333333, "is_reserved": 0, "is_disabled": 0, "fusion_lon": 0.0, "bike_id": "e6a8229019599d3002ad532a09a17ce9", "lon": -77.01140816666667, "rental_uris": {"ios": "https://dc.lft.to/lastmile_qr_scan", "android": "https://dc.lft.to/lastmile_qr_scan"}}, {"name": "40229227851e271ff4cc3ddebfa04ff0", "fusion_lat": 0.0, "type": "electric_scooter", "lat": 38.9071715, "is_reserved": 0, "is_disabled": 0, "fusion_lon": 0.0, "bike_id": "40229227851e271ff4cc3ddebfa04ff0", "lon": -77.045025, "rental_uris": {"ios": "https://dc.lft.to/lastmile_qr_scan", "android": "https://dc.lft.to/lastmile_qr_scan"}}, {"name": "671af2908fe18d6752225bf2941d5178", "fusion_lat": 0.0, "type": "electric_bike", "lat": 38.86280816666667, "is_reserved": 0, "is_disabled": 0, "fusion_lon": 0.0, "bike_id": "671af2908fe18d6752225bf2941d5178", "lon": -76.98001516666666, "rental_uris": {"ios": "https://dc.lft.to/lastmile_qr_scan", "android": "https://dc.lft.to/lastmile_qr_scan"}}, {"name": "a9b34be66ef20efde24d49467e910273", "fusion_lat": 0.0, "type": "electric_scooter", "lat": 38.9369785, "is_reserved": 0, "is_disabled": 0, "fusion_lon": 0.0, "bike_id": "a9b34be66ef20efde24d49467e910273", "lon": -77.023996, "rental_uris": {"ios": "https://dc.lft.to/lastmile_qr_scan", "android": "https://dc.lft.to/lastmile_qr_scan"}}, {"name": "dc0e0d652101d1e5f29107044aef1487", "fusion_lat": 0.0, "type": "electric_scooter", "lat": 38.896043, "is_reserved": 0, "is_disabled": 0, "fusion_lon": 0.0, "bike_id": "dc0e0d652101d1e5f29107044aef1487", "lon": -77.0544215, "rental_uris": {"ios": "https://dc.lft.to/lastmile_qr_scan", "android": "https://dc.lft.to/lastmile_qr_scan"}}, {"name": "9b1d597e2d345dd5282fd64bcb2e9ee7", "fusion_lat": 0.0, "type": "electric_scooter", "lat": 38.876552833333335, "is_reserved": 0, "is_disabled": 0, "fusion_lon": 0.0, "bike_id": "9b1d597e2d345dd5282fd64bcb2e9ee7", "lon": -77.00438533333333, "rental_uris": {"ios": "https://dc.lft.to/lastmile_qr_scan", "android": "https://dc.lft.to/lastmile_qr_scan"}}, {"name": "da668cdfd9aa8d0cbcc4a51fe985eb82", "fusion_lat": 0.0, "type": "electric_scooter", "lat": 38.9169305, "is_reserved": 0, "is_disabled": 0, "fusion_lon": 0.0, "bike_id": "da668cdfd9aa8d0cbcc4a51fe985eb82", "lon": -77.018728, "rental_uris": {"ios": "https://dc.lft.to/lastmile_qr_scan", "android": "https://dc.lft.to/lastmile_qr_scan"}}, {"name": "f91b9e974f9cd80e0be5d51045de8c99", "fusion_lat": 0.0, "type": "electric_scooter", "lat": 38.924918, "is_reserved": 0, "is_disabled": 0, "fusion_lon": 0.0, "bike_id": "f91b9e974f9cd80e0be5d51045de8c99", "lon": -77.02710866666666, "rental_uris": {"ios": "https://dc.lft.to/lastmile_qr_scan", "android": "https://dc.lft.to/lastmile_qr_scan"}}, {"name": "9cc81e335ae73e842320b7606540a76a", "fusion_lat": 0.0, "type": "electric_scooter", "lat": 38.895490333333335, "is_reserved": 0, "is_disabled": 0, "fusion_lon": 0.0, "bike_id": "9cc81e335ae73e842320b7606540a76a", "lon": -76.94875583333334, "rental_uris": {"ios": "https://dc.lft.to/lastmile_qr_scan", "android": "https://dc.lft.to/lastmile_qr_scan"}}, {"name": "64ef7a11de3a08e20a56e2b37bed6881", "fusion_lat": 0.0, "type": "electric_scooter", "lat": 38.9176605, "is_reserved": 0, "is_disabled": 0, "fusion_lon": 0.0, "bike_id": "64ef7a11de3a08e20a56e2b37bed6881", "lon": -77.09669266666667, "rental_uris": {"ios": "https://dc.lft.to/lastmile_qr_scan", "android": "https://dc.lft.to/lastmile_qr_scan"}}, {"name": "80404917f37305999faa4bc5e4e4a04f", "fusion_lat": 0.0, "type": "electric_scooter", "lat": 38.93241716666667, "is_reserved": 0, "is_disabled": 0, "fusion_lon": 0.0, "bike_id": "80404917f37305999faa4bc5e4e4a04f", "lon": -77.0385055, "rental_uris": {"ios": "https://dc.lft.to/lastmile_qr_scan", "android": "https://dc.lft.to/lastmile_qr_scan"}}, {"name": "c71a2c104710a7e91ea97949ca41fec1", "fusion_lat": 0.0, "type": "electric_scooter", "lat": 38.896222, "is_reserved": 0, "is_disabled": 0, "fusion_lon": 0.0, "bike_id": "c71a2c104710a7e91ea97949ca41fec1", "lon": -77.04464166666666, "rental_uris": {"ios": "https://dc.lft.to/lastmile_qr_scan", "android": "https://dc.lft.to/lastmile_qr_scan"}}, {"name": "4d9dc790d8b449154a6303529a81d002", "fusion_lat": 0.0, "type": "electric_scooter", "lat": 38.86655583333334, "is_reserved": 0, "is_disabled": 0, "fusion_lon": 0.0, "bike_id": "4d9dc790d8b449154a6303529a81d002", "lon": -76.988853, "rental_uris": {"ios": "https://dc.lft.to/lastmile_qr_scan", "android": "https://dc.lft.to/lastmile_qr_scan"}}, {"name": "24d35b64ee0337556a0beaf03e168164", "fusion_lat": 0.0, "type": "electric_scooter", "lat": 38.912895666666664, "is_reserved": 0, "is_disabled": 0, "fusion_lon": 0.0, "bike_id": "24d35b64ee0337556a0beaf03e168164", "lon": -76.937422, "rental_uris": {"ios": "https://dc.lft.to/lastmile_qr_scan", "android": "https://dc.lft.to/lastmile_qr_scan"}}, {"name": "e1947500cb35299c2ca085559d30ac31", "fusion_lat": 0.0, "type": "electric_scooter", "lat": 38.919746333333336, "is_reserved": 0, "is_disabled": 0, "fusion_lon": 0.0, "bike_id": "e1947500cb35299c2ca085559d30ac31", "lon": -77.02511383333334, "rental_uris": {"ios": "https://dc.lft.to/lastmile_qr_scan", "android": "https://dc.lft.to/lastmile_qr_scan"}}, {"name": "ee4ccffc59d6061c8953373f6b010dc7", "fusion_lat": 0.0, "type": "electric_scooter", "lat": 38.9296305, "is_reserved": 0, "is_disabled": 0, "fusion_lon": 0.0, "bike_id": "ee4ccffc59d6061c8953373f6b010dc7", "lon": -77.041082, "rental_uris": {"ios": "https://dc.lft.to/lastmile_qr_scan", "android": "https://dc.lft.to/lastmile_qr_scan"}}, {"name": "dcaba64ad230ff65d40c455c1dd22c03", "fusion_lat": 0.0, "type": "electric_scooter", "lat": 38.90739816666667, "is_reserved": 0, "is_disabled": 0, "fusion_lon": 0.0, "bike_id": "dcaba64ad230ff65d40c455c1dd22c03", "lon": -77.04662, "rental_uris": {"ios": "https://dc.lft.to/lastmile_qr_scan", "android": "https://dc.lft.to/lastmile_qr_scan"}}, {"name": "22aab649ec11fc995ff70ac1af67eec7", "fusion_lat": 0.0, "type": "electric_scooter", "lat": 38.911068666666665, "is_reserved": 0, "is_disabled": 0, "fusion_lon": 0.0, "bike_id": "22aab649ec11fc995ff70ac1af67eec7", "lon": -77.02461383333333, "rental_uris": {"ios": "https://dc.lft.to/lastmile_qr_scan", "android": "https://dc.lft.to/lastmile_qr_scan"}}, {"name": "f1c97d928510087424d904455bbde0d1", "fusion_lat": 0.0, "type": "electric_scooter", "lat": 38.87580783333333, "is_reserved": 0, "is_disabled": 0, "fusion_lon": 0.0, "bike_id": "f1c97d928510087424d904455bbde0d1", "lon": -77.010587, "rental_uris": {"ios": "https://dc.lft.to/lastmile_qr_scan", "android": "https://dc.lft.to/lastmile_qr_scan"}}, {"name": "19e559ba03efd7ab0e65369809f68198", "fusion_lat": 0.0, "type": "electric_scooter", "lat": 38.9098555, "is_reserved": 0, "is_disabled": 0, "fusion_lon": 0.0, "bike_id": "19e559ba03efd7ab0e65369809f68198", "lon": -77.04258983333334, "rental_uris": {"ios": "https://dc.lft.to/lastmile_qr_scan", "android": "https://dc.lft.to/lastmile_qr_scan"}}, {"name": "eb7a5bc8b7ace9a0088dde82ce4f9025", "fusion_lat": 0.0, "type": "electric_scooter", "lat": 38.894999, "is_reserved": 0, "is_disabled": 0, "fusion_lon": 0.0, "bike_id": "eb7a5bc8b7ace9a0088dde82ce4f9025", "lon": -77.0112215, "rental_uris": {"ios": "https://dc.lft.to/lastmile_qr_scan", "android": "https://dc.lft.to/lastmile_qr_scan"}}, {"name": "b14e754c3f2811ddb037377d61382f4f", "fusion_lat": 0.0, "type": "electric_scooter", "lat": 38.925095666666664, "is_reserved": 0, "is_disabled": 0, "fusion_lon": 0.0, "bike_id": "b14e754c3f2811ddb037377d61382f4f", "lon": -77.00175316666666, "rental_uris": {"ios": "https://dc.lft.to/lastmile_qr_scan", "android": "https://dc.lft.to/lastmile_qr_scan"}}, {"name": "e17c73028127fd8b35f2bcaa12986e38", "fusion_lat": 0.0, "type": "electric_bike", "lat": 38.870686166666665, "is_reserved": 0, "is_disabled": 0, "fusion_lon": 0.0, "bike_id": "e17c73028127fd8b35f2bcaa12986e38", "lon": -77.11070583333333, "rental_uris": {"ios": "https://dc.lft.to/lastmile_qr_scan", "android": "https://dc.lft.to/lastmile_qr_scan"}}, {"name": "3a171ff99ebb8b0119b87243cb7fbeec", "fusion_lat": 0.0, "type": "electric_scooter", "lat": 38.877508666666664, "is_reserved": 0, "is_disabled": 0, "fusion_lon": 0.0, "bike_id": "3a171ff99ebb8b0119b87243cb7fbeec", "lon": -76.97240516666666, "rental_uris": {"ios": "https://dc.lft.to/lastmile_qr_scan", "android": "https://dc.lft.to/lastmile_qr_scan"}}, {"name": "46d5e581a97f60760f811cc06dd570e5", "fusion_lat": 0.0, "type": "electric_scooter", "lat": 38.92367316666667, "is_reserved": 0, "is_disabled": 0, "fusion_lon": 0.0, "bike_id": "46d5e581a97f60760f811cc06dd570e5", "lon": -77.01907583333333, "rental_uris": {"ios": "https://dc.lft.to/lastmile_qr_scan", "android": "https://dc.lft.to/lastmile_qr_scan"}}, {"name": "ff5fc7833dcfebb29d11f07dc7075207", "fusion_lat": 0.0, "type": "electric_scooter", "lat": 38.8899075, "is_reserved": 0, "is_disabled": 0, "fusion_lon": 0.0, "bike_id": "ff5fc7833dcfebb29d11f07dc7075207", "lon": -77.00115, "rental_uris": {"ios": "https://dc.lft.to/lastmile_qr_scan", "android": "https://dc.lft.to/lastmile_qr_scan"}}, {"name": "3211583ba8d8c4abbd487878ffe4714f", "fusion_lat": 0.0, "type": "electric_scooter", "lat": 38.886975666666665, "is_reserved": 0, "is_disabled": 0, "fusion_lon": 0.0, "bike_id": "3211583ba8d8c4abbd487878ffe4714f", "lon": -77.03365066666667, "rental_uris": {"ios": "https://dc.lft.to/lastmile_qr_scan", "android": "https://dc.lft.to/lastmile_qr_scan"}}, {"name": "358e369aeafa0fea60d829f07b5df87a", "fusion_lat": 0.0, "type": "electric_scooter", "lat": 38.94835333333333, "is_reserved": 0, "is_disabled": 0, "fusion_lon": 0.0, "bike_id": "358e369aeafa0fea60d829f07b5df87a", "lon": -77.02553183333333, "rental_uris": {"ios": "https://dc.lft.to/lastmile_qr_scan", "android": "https://dc.lft.to/lastmile_qr_scan"}}, {"name": "ffdf93eb9247cd60e04c14a41d3e4d9a", "fusion_lat": 0.0, "type": "electric_scooter", "lat": 38.910278166666664, "is_reserved": 0, "is_disabled": 0, "fusion_lon": 0.0, "bike_id": "ffdf93eb9247cd60e04c14a41d3e4d9a", "lon": -77.00757766666666, "rental_uris": {"ios": "https://dc.lft.to/lastmile_qr_scan", "android": "https://dc.lft.to/lastmile_qr_scan"}}, {"name": "a677d0f231eb966fa2fbe2824def79f2", "fusion_lat": 0.0, "type": "electric_bike", "lat": 38.869023166666665, "is_reserved": 0, "is_disabled": 0, "fusion_lon": 0.0, "bike_id": "a677d0f231eb966fa2fbe2824def79f2", "lon": -77.1317515, "rental_uris": {"ios": "https://dc.lft.to/lastmile_qr_scan", "android": "https://dc.lft.to/lastmile_qr_scan"}}, {"name": "40327db2a7e628ec73f17caca7146cde", "fusion_lat": 0.0, "type": "electric_scooter", "lat": 38.906966833333335, "is_reserved": 0, "is_disabled": 0, "fusion_lon": 0.0, "bike_id": "40327db2a7e628ec73f17caca7146cde", "lon": -77.02400733333333, "rental_uris": {"ios": "https://dc.lft.to/lastmile_qr_scan", "android": "https://dc.lft.to/lastmile_qr_scan"}}, {"name": "31b58c8f89d0fc8397d03eba27afcba2", "fusion_lat": 0.0, "type": "electric_scooter", "lat": 38.909667, "is_reserved": 0, "is_disabled": 0, "fusion_lon": 0.0, "bike_id": "31b58c8f89d0fc8397d03eba27afcba2", "lon": -77.02175483333333, "rental_uris": {"ios": "https://dc.lft.to/lastmile_qr_scan", "android": "https://dc.lft.to/lastmile_qr_scan"}}, {"name": "891f64a5a28c5eaa6c6240cce0153cef", "fusion_lat": 0.0, "type": "electric_scooter", "lat": 38.84426116666667, "is_reserved": 0, "is_disabled": 0, "fusion_lon": 0.0, "bike_id": "891f64a5a28c5eaa6c6240cce0153cef", "lon": -76.99777883333333, "rental_uris": {"ios": "https://dc.lft.to/lastmile_qr_scan", "android": "https://dc.lft.to/lastmile_qr_scan"}}, {"name": "07c3950e1f24cf2ba79f8e0a6eee9d77", "fusion_lat": 0.0, "type": "electric_scooter", "lat": 38.917600666666665, "is_reserved": 0, "is_disabled": 0, "fusion_lon": 0.0, "bike_id": "07c3950e1f24cf2ba79f8e0a6eee9d77", "lon": -77.0270235, "rental_uris": {"ios": "https://dc.lft.to/lastmile_qr_scan", "android": "https://dc.lft.to/lastmile_qr_scan"}}, {"name": "78583441a59aeb09048058027caf76db", "fusion_lat": 0.0, "type": "electric_bike", "lat": 38.83441066666666, "is_reserved": 0, "is_disabled": 0, "fusion_lon": 0.0, "bike_id": "78583441a59aeb09048058027caf76db", "lon": -77.0082475, "rental_uris": {"ios": "https://dc.lft.to/lastmile_qr_scan", "android": "https://dc.lft.to/lastmile_qr_scan"}}, {"name": "15799611929c2241d644d496fe65de37", "fusion_lat": 0.0, "type": "electric_scooter", "lat": 38.89357233333333, "is_reserved": 0, "is_disabled": 0, "fusion_lon": 0.0, "bike_id": "15799611929c2241d644d496fe65de37", "lon": -76.9498515, "rental_uris": {"ios": "https://dc.lft.to/lastmile_qr_scan", "android": "https://dc.lft.to/lastmile_qr_scan"}}, {"name": "350f6ad92aa51fc576e83ba9bd2a3b1c", "fusion_lat": 0.0, "type": "electric_scooter", "lat": 38.892210166666665, "is_reserved": 0, "is_disabled": 0, "fusion_lon": 0.0, "bike_id": "350f6ad92aa51fc576e83ba9bd2a3b1c", "lon": -77.01372383333333, "rental_uris": {"ios": "https://dc.lft.to/lastmile_qr_scan", "android": "https://dc.lft.to/lastmile_qr_scan"}}, {"name": "6673c4878c0e72dc6a1fbe34b40a10ee", "fusion_lat": 0.0, "type": "electric_scooter", "lat": 38.9104015, "is_reserved": 0, "is_disabled": 0, "fusion_lon": 0.0, "bike_id": "6673c4878c0e72dc6a1fbe34b40a10ee", "lon": -77.04243716666667, "rental_uris": {"ios": "https://dc.lft.to/lastmile_qr_scan", "android": "https://dc.lft.to/lastmile_qr_scan"}}, {"name": "c521d3e089e3a534361289d13d16b651", "fusion_lat": 0.0, "type": "electric_scooter", "lat": 38.90042533333333, "is_reserved": 0, "is_disabled": 0, "fusion_lon": 0.0, "bike_id": "c521d3e089e3a534361289d13d16b651", "lon": -76.98823333333333, "rental_uris": {"ios": "https://dc.lft.to/lastmile_qr_scan", "android": "https://dc.lft.to/lastmile_qr_scan"}}, {"name": "5be35e2f31df04ce94da008ba2cebddc", "fusion_lat": 0.0, "type": "electric_scooter", "lat": 38.9111155, "is_reserved": 0, "is_disabled": 0, "fusion_lon": 0.0, "bike_id": "5be35e2f31df04ce94da008ba2cebddc", "lon": -77.03917933333334, "rental_uris": {"ios": "https://dc.lft.to/lastmile_qr_scan", "android": "https://dc.lft.to/lastmile_qr_scan"}}, {"name": "2479b656b92acacf711f691dd62a75dd", "fusion_lat": 0.0, "type": "electric_scooter", "lat": 38.931496333333335, "is_reserved": 0, "is_disabled": 0, "fusion_lon": 0.0, "bike_id": "2479b656b92acacf711f691dd62a75dd", "lon": -77.0297215, "rental_uris": {"ios": "https://dc.lft.to/lastmile_qr_scan", "android": "https://dc.lft.to/lastmile_qr_scan"}}, {"name": "a167e6052319627f2300625a51958eb8", "fusion_lat": 0.0, "type": "electric_scooter", "lat": 38.9026955, "is_reserved": 0, "is_disabled": 0, "fusion_lon": 0.0, "bike_id": "a167e6052319627f2300625a51958eb8", "lon": -76.98710533333333, "rental_uris": {"ios": "https://dc.lft.to/lastmile_qr_scan", "android": "https://dc.lft.to/lastmile_qr_scan"}}, {"name": "dadf3d7bf5f65b53966d934a2ae1993d", "fusion_lat": 0.0, "type": "electric_bike", "lat": 39.05314516666667, "is_reserved": 0, "is_disabled": 0, "fusion_lon": 0.0, "bike_id": "dadf3d7bf5f65b53966d934a2ae1993d", "lon": -77.047713, "rental_uris": {"ios": "https://dc.lft.to/lastmile_qr_scan", "android": "https://dc.lft.to/lastmile_qr_scan"}}, {"name": "fc4ee68dfbe4a2148a7fae7c9453671b", "fusion_lat": 0.0, "type": "electric_scooter", "lat": 38.86536066666667, "is_reserved": 0, "is_disabled": 0, "fusion_lon": 0.0, "bike_id": "fc4ee68dfbe4a2148a7fae7c9453671b", "lon": -76.98707016666667, "rental_uris": {"ios": "https://dc.lft.to/lastmile_qr_scan", "android": "https://dc.lft.to/lastmile_qr_scan"}}, {"name": "cb8754bc87b138a689e9389a593f3a4e", "fusion_lat": 0.0, "type": "electric_bike", "lat": 39.088586, "is_reserved": 0, "is_disabled": 0, "fusion_lon": 0.0, "bike_id": "cb8754bc87b138a689e9389a593f3a4e", "lon": -77.1783855, "rental_uris": {"ios": "https://dc.lft.to/lastmile_qr_scan", "android": "https://dc.lft.to/lastmile_qr_scan"}}, {"name": "5a90695b57b1d69e98220888083272d0", "fusion_lat": 0.0, "type": "electric_scooter", "lat": 38.9057405, "is_reserved": 0, "is_disabled": 0, "fusion_lon": 0.0, "bike_id": "5a90695b57b1d69e98220888083272d0", "lon": -77.02423033333334, "rental_uris": {"ios": "https://dc.lft.to/lastmile_qr_scan", "android": "https://dc.lft.to/lastmile_qr_scan"}}, {"name": "632d5f215a256094d52754b0dd4bcbd3", "fusion_lat": 0.0, "type": "electric_bike", "lat": 38.93521633333334, "is_reserved": 0, "is_disabled": 0, "fusion_lon": 0.0, "bike_id": "632d5f215a256094d52754b0dd4bcbd3", "lon": -76.95061616666666, "rental_uris": {"ios": "https://dc.lft.to/lastmile_qr_scan", "android": "https://dc.lft.to/lastmile_qr_scan"}}, {"name": "60a0b094dfd5f838327104aafd09efd0", "fusion_lat": 0.0, "type": "electric_scooter", "lat": 38.90263183333333, "is_reserved": 0, "is_disabled": 0, "fusion_lon": 0.0, "bike_id": "60a0b094dfd5f838327104aafd09efd0", "lon": -77.03655066666667, "rental_uris": {"ios": "https://dc.lft.to/lastmile_qr_scan", "android": "https://dc.lft.to/lastmile_qr_scan"}}, {"name": "14088dca954498a306d7461a8908b167", "fusion_lat": 0.0, "type": "electric_scooter", "lat": 38.911144, "is_reserved": 0, "is_disabled": 0, "fusion_lon": 0.0, "bike_id": "14088dca954498a306d7461a8908b167", "lon": -77.002671, "rental_uris": {"ios": "https://dc.lft.to/lastmile_qr_scan", "android": "https://dc.lft.to/lastmile_qr_scan"}}, {"name": "6402c8a57313ca6a2235cf7dda436c31", "fusion_lat": 0.0, "type": "electric_scooter", "lat": 38.86694333333333, "is_reserved": 0, "is_disabled": 0, "fusion_lon": 0.0, "bike_id": "6402c8a57313ca6a2235cf7dda436c31", "lon": -76.98900983333333, "rental_uris": {"ios": "https://dc.lft.to/lastmile_qr_scan", "android": "https://dc.lft.to/lastmile_qr_scan"}}, {"name": "57b6ac60da0edc20dc5e3dc028721a7b", "fusion_lat": 0.0, "type": "electric_bike", "lat": 38.928536333333334, "is_reserved": 0, "is_disabled": 0, "fusion_lon": 0.0, "bike_id": "57b6ac60da0edc20dc5e3dc028721a7b", "lon": -77.22218983333333, "rental_uris": {"ios": "https://dc.lft.to/lastmile_qr_scan", "android": "https://dc.lft.to/lastmile_qr_scan"}}, {"name": "ae3da6de6407708f558548e608fc718e", "fusion_lat": 0.0, "type": "electric_scooter", "lat": 38.905168, "is_reserved": 0, "is_disabled": 0, "fusion_lon": 0.0, "bike_id": "ae3da6de6407708f558548e608fc718e", "lon": -77.0433995, "rental_uris": {"ios": "https://dc.lft.to/lastmile_qr_scan", "android": "https://dc.lft.to/lastmile_qr_scan"}}, {"name": "fd3ee530e882fa26ca46984665e3d5a6", "fusion_lat": 0.0, "type": "electric_scooter", "lat": 38.90651016666666, "is_reserved": 0, "is_disabled": 0, "fusion_lon": 0.0, "bike_id": "fd3ee530e882fa26ca46984665e3d5a6", "lon": -76.98600133333333, "rental_uris": {"ios": "https://dc.lft.to/lastmile_qr_scan", "android": "https://dc.lft.to/lastmile_qr_scan"}}, {"name": "123aaa54ea8f61b61b3cc4ebec00d559", "fusion_lat": 0.0, "type": "electric_scooter", "lat": 38.90266366666667, "is_reserved": 0, "is_disabled": 0, "fusion_lon": 0.0, "bike_id": "123aaa54ea8f61b61b3cc4ebec00d559", "lon": -77.0294955, "rental_uris": {"ios": "https://dc.lft.to/lastmile_qr_scan", "android": "https://dc.lft.to/lastmile_qr_scan"}}, {"name": "7de0185a99ad03a0668ea9629c89abf1", "fusion_lat": 0.0, "type": "electric_scooter", "lat": 38.905697833333335, "is_reserved": 0, "is_disabled": 0, "fusion_lon": 0.0, "bike_id": "7de0185a99ad03a0668ea9629c89abf1", "lon": -77.00875083333334, "rental_uris": {"ios": "https://dc.lft.to/lastmile_qr_scan", "android": "https://dc.lft.to/lastmile_qr_scan"}}, {"name": "91e69a0a987f26b5e3c3e1fc4defd277", "fusion_lat": 0.0, "type": "electric_scooter", "lat": 38.92967, "is_reserved": 0, "is_disabled": 0, "fusion_lon": 0.0, "bike_id": "91e69a0a987f26b5e3c3e1fc4defd277", "lon": -77.00550466666667, "rental_uris": {"ios": "https://dc.lft.to/lastmile_qr_scan", "android": "https://dc.lft.to/lastmile_qr_scan"}}, {"name": "b9a327ca2d5f945d5542dd96f3e1415e", "fusion_lat": 0.0, "type": "electric_scooter", "lat": 38.90310516666667, "is_reserved": 0, "is_disabled": 0, "fusion_lon": 0.0, "bike_id": "b9a327ca2d5f945d5542dd96f3e1415e", "lon": -77.03640833333333, "rental_uris": {"ios": "https://dc.lft.to/lastmile_qr_scan", "android": "https://dc.lft.to/lastmile_qr_scan"}}, {"name": "3d7bf0c7ba3ef14a27951d7ad3869319", "fusion_lat": 0.0, "type": "electric_scooter", "lat": 38.89885066666667, "is_reserved": 0, "is_disabled": 0, "fusion_lon": 0.0, "bike_id": "3d7bf0c7ba3ef14a27951d7ad3869319", "lon": -76.93310383333333, "rental_uris": {"ios": "https://dc.lft.to/lastmile_qr_scan", "android": "https://dc.lft.to/lastmile_qr_scan"}}, {"name": "98e07d28dbc5e95aac0ad70d37f30bee", "fusion_lat": 0.0, "type": "electric_scooter", "lat": 38.91522716666667, "is_reserved": 0, "is_disabled": 0, "fusion_lon": 0.0, "bike_id": "98e07d28dbc5e95aac0ad70d37f30bee", "lon": -77.01418933333333, "rental_uris": {"ios": "https://dc.lft.to/lastmile_qr_scan", "android": "https://dc.lft.to/lastmile_qr_scan"}}, {"name": "8902e515e4d24fb47e1db26f0dd0179f", "fusion_lat": 0.0, "type": "electric_scooter", "lat": 38.922337166666665, "is_reserved": 0, "is_disabled": 0, "fusion_lon": 0.0, "bike_id": "8902e515e4d24fb47e1db26f0dd0179f", "lon": -77.022381, "rental_uris": {"ios": "https://dc.lft.to/lastmile_qr_scan", "android": "https://dc.lft.to/lastmile_qr_scan"}}, {"name": "951ecb232c8efc5bb14eb9faed6b5b2c", "fusion_lat": 0.0, "type": "electric_scooter", "lat": 38.91352833333333, "is_reserved": 0, "is_disabled": 0, "fusion_lon": 0.0, "bike_id": "951ecb232c8efc5bb14eb9faed6b5b2c", "lon": -77.03960266666667, "rental_uris": {"ios": "https://dc.lft.to/lastmile_qr_scan", "android": "https://dc.lft.to/lastmile_qr_scan"}}, {"name": "e89d8147ac8bf09fdb00a975615e4896", "fusion_lat": 0.0, "type": "electric_scooter", "lat": 38.920942333333336, "is_reserved": 0, "is_disabled": 0, "fusion_lon": 0.0, "bike_id": "e89d8147ac8bf09fdb00a975615e4896", "lon": -77.031707, "rental_uris": {"ios": "https://dc.lft.to/lastmile_qr_scan", "android": "https://dc.lft.to/lastmile_qr_scan"}}, {"name": "28a81de0a0ab9af6aec408448011e3a1", "fusion_lat": 0.0, "type": "electric_scooter", "lat": 38.93605066666667, "is_reserved": 0, "is_disabled": 0, "fusion_lon": 0.0, "bike_id": "28a81de0a0ab9af6aec408448011e3a1", "lon": -77.058585, "rental_uris": {"ios": "https://dc.lft.to/lastmile_qr_scan", "android": "https://dc.lft.to/lastmile_qr_scan"}}, {"name": "1658c1eecf543f65a9f3eaafc04f5bd9", "fusion_lat": 0.0, "type": "electric_scooter", "lat": 38.907224, "is_reserved": 0, "is_disabled": 0, "fusion_lon": 0.0, "bike_id": "1658c1eecf543f65a9f3eaafc04f5bd9", "lon": -77.04026683333333, "rental_uris": {"ios": "https://dc.lft.to/lastmile_qr_scan", "android": "https://dc.lft.to/lastmile_qr_scan"}}, {"name": "c565d182b58e8746748b15d24bb16fe9", "fusion_lat": 0.0, "type": "electric_scooter", "lat": 38.898859, "is_reserved": 0, "is_disabled": 0, "fusion_lon": 0.0, "bike_id": "c565d182b58e8746748b15d24bb16fe9", "lon": -76.985731, "rental_uris": {"ios": "https://dc.lft.to/lastmile_qr_scan", "android": "https://dc.lft.to/lastmile_qr_scan"}}, {"name": "46f06560141fb2e4225ee1f97e2ea077", "fusion_lat": 0.0, "type": "electric_scooter", "lat": 38.939620833333336, "is_reserved": 0, "is_disabled": 0, "fusion_lon": 0.0, "bike_id": "46f06560141fb2e4225ee1f97e2ea077", "lon": -77.02748833333334, "rental_uris": {"ios": "https://dc.lft.to/lastmile_qr_scan", "android": "https://dc.lft.to/lastmile_qr_scan"}}, {"name": "424c2ed8074bf0c771ec4ddcc72569eb", "fusion_lat": 0.0, "type": "electric_bike", "lat": 38.9494075, "is_reserved": 0, "is_disabled": 0, "fusion_lon": 0.0, "bike_id": "424c2ed8074bf0c771ec4ddcc72569eb", "lon": -77.07841516666667, "rental_uris": {"ios": "https://dc.lft.to/lastmile_qr_scan", "android": "https://dc.lft.to/lastmile_qr_scan"}}, {"name": "96b71f84d32ad0459d8ca6e29bbbd5cd", "fusion_lat": 0.0, "type": "electric_scooter", "lat": 38.88577, "is_reserved": 0, "is_disabled": 0, "fusion_lon": 0.0, "bike_id": "96b71f84d32ad0459d8ca6e29bbbd5cd", "lon": -76.9949575, "rental_uris": {"ios": "https://dc.lft.to/lastmile_qr_scan", "android": "https://dc.lft.to/lastmile_qr_scan"}}, {"name": "d276922a6a0b43f9c1d6609a1ba6a7f1", "fusion_lat": 0.0, "type": "electric_scooter", "lat": 38.90186666666666, "is_reserved": 0, "is_disabled": 0, "fusion_lon": 0.0, "bike_id": "d276922a6a0b43f9c1d6609a1ba6a7f1", "lon": -77.05021916666666, "rental_uris": {"ios": "https://dc.lft.to/lastmile_qr_scan", "android": "https://dc.lft.to/lastmile_qr_scan"}}, {"name": "c768709773d6303ead0646d32002c7b3", "fusion_lat": 0.0, "type": "electric_scooter", "lat": 38.88352483333333, "is_reserved": 0, "is_disabled": 0, "fusion_lon": 0.0, "bike_id": "c768709773d6303ead0646d32002c7b3", "lon": -77.019582, "rental_uris": {"ios": "https://dc.lft.to/lastmile_qr_scan", "android": "https://dc.lft.to/lastmile_qr_scan"}}, {"name": "5cadc0edb759bc3c548c3d2b334c1010", "fusion_lat": 0.0, "type": "electric_scooter", "lat": 38.906961333333335, "is_reserved": 0, "is_disabled": 0, "fusion_lon": 0.0, "bike_id": "5cadc0edb759bc3c548c3d2b334c1010", "lon": -77.03835016666666, "rental_uris": {"ios": "https://dc.lft.to/lastmile_qr_scan", "android": "https://dc.lft.to/lastmile_qr_scan"}}, {"name": "f7760cc96a3d39cb65983a065710ff1b", "fusion_lat": 0.0, "type": "electric_scooter", "lat": 38.8862865, "is_reserved": 0, "is_disabled": 0, "fusion_lon": 0.0, "bike_id": "f7760cc96a3d39cb65983a065710ff1b", "lon": -77.01530233333334, "rental_uris": {"ios": "https://dc.lft.to/lastmile_qr_scan", "android": "https://dc.lft.to/lastmile_qr_scan"}}, {"name": "62008652dcfdbf22c618f574c2c60da7", "fusion_lat": 0.0, "type": "electric_scooter", "lat": 38.89918516666667, "is_reserved": 0, "is_disabled": 0, "fusion_lon": 0.0, "bike_id": "62008652dcfdbf22c618f574c2c60da7", "lon": -77.03933066666667, "rental_uris": {"ios": "https://dc.lft.to/lastmile_qr_scan", "android": "https://dc.lft.to/lastmile_qr_scan"}}, {"name": "eba4f23a3ecd2c1e57c4b77bbbbf1d1d", "fusion_lat": 0.0, "type": "electric_bike", "lat": 38.83233083333333, "is_reserved": 0, "is_disabled": 0, "fusion_lon": 0.0, "bike_id": "eba4f23a3ecd2c1e57c4b77bbbbf1d1d", "lon": -76.94621916666667, "rental_uris": {"ios": "https://dc.lft.to/lastmile_qr_scan", "android": "https://dc.lft.to/lastmile_qr_scan"}}, {"name": "ba65341d00127d098e1e703ad26f35a5", "fusion_lat": 0.0, "type": "electric_scooter", "lat": 38.90751, "is_reserved": 0, "is_disabled": 0, "fusion_lon": 0.0, "bike_id": "ba65341d00127d098e1e703ad26f35a5", "lon": -77.028076, "rental_uris": {"ios": "https://dc.lft.to/lastmile_qr_scan", "android": "https://dc.lft.to/lastmile_qr_scan"}}, {"name": "54ac167f4c826d71924c23cca097f211", "fusion_lat": 0.0, "type": "electric_scooter", "lat": 38.8972555, "is_reserved": 0, "is_disabled": 0, "fusion_lon": 0.0, "bike_id": "54ac167f4c826d71924c23cca097f211", "lon": -77.04644916666666, "rental_uris": {"ios": "https://dc.lft.to/lastmile_qr_scan", "android": "https://dc.lft.to/lastmile_qr_scan"}}, {"name": "8bfca688c836165c2ec3f51f06e67c8f", "fusion_lat": 0.0, "type": "electric_scooter", "lat": 38.8847155, "is_reserved": 0, "is_disabled": 0, "fusion_lon": 0.0, "bike_id": "8bfca688c836165c2ec3f51f06e67c8f", "lon": -77.021583, "rental_uris": {"ios": "https://dc.lft.to/lastmile_qr_scan", "android": "https://dc.lft.to/lastmile_qr_scan"}}, {"name": "c758ce9ca91f1be793fe4fee03eb06ac", "fusion_lat": 0.0, "type": "electric_scooter", "lat": 38.88423616666667, "is_reserved": 0, "is_disabled": 0, "fusion_lon": 0.0, "bike_id": "c758ce9ca91f1be793fe4fee03eb06ac", "lon": -77.03046383333333, "rental_uris": {"ios": "https://dc.lft.to/lastmile_qr_scan", "android": "https://dc.lft.to/lastmile_qr_scan"}}, {"name": "10dfeee6624f5b1ce988aa9643e99474", "fusion_lat": 0.0, "type": "electric_scooter", "lat": 38.899167, "is_reserved": 0, "is_disabled": 0, "fusion_lon": 0.0, "bike_id": "10dfeee6624f5b1ce988aa9643e99474", "lon": -76.93382066666666, "rental_uris": {"ios": "https://dc.lft.to/lastmile_qr_scan", "android": "https://dc.lft.to/lastmile_qr_scan"}}, {"name": "f12459c3a4306c248ba2080b79d145b7", "fusion_lat": 0.0, "type": "electric_bike", "lat": 38.90449783333333, "is_reserved": 0, "is_disabled": 0, "fusion_lon": 0.0, "bike_id": "f12459c3a4306c248ba2080b79d145b7", "lon": -77.0283045, "rental_uris": {"ios": "https://dc.lft.to/lastmile_qr_scan", "android": "https://dc.lft.to/lastmile_qr_scan"}}, {"name": "867193897cc6d0ce964d8920c6bc509d", "fusion_lat": 0.0, "type": "electric_scooter", "lat": 38.903208666666664, "is_reserved": 0, "is_disabled": 0, "fusion_lon": 0.0, "bike_id": "867193897cc6d0ce964d8920c6bc509d", "lon": -77.051732, "rental_uris": {"ios": "https://dc.lft.to/lastmile_qr_scan", "android": "https://dc.lft.to/lastmile_qr_scan"}}, {"name": "fdf5447d39daf38279f120fc79371ad6", "fusion_lat": 0.0, "type": "electric_scooter", "lat": 38.922010666666665, "is_reserved": 0, "is_disabled": 0, "fusion_lon": 0.0, "bike_id": "fdf5447d39daf38279f120fc79371ad6", "lon": -77.0413195, "rental_uris": {"ios": "https://dc.lft.to/lastmile_qr_scan", "android": "https://dc.lft.to/lastmile_qr_scan"}}, {"name": "33f4a47ac5604ec1545c5a5bffe15f7e", "fusion_lat": 0.0, "type": "electric_bike", "lat": 38.82444366666667, "is_reserved": 0, "is_disabled": 0, "fusion_lon": 0.0, "bike_id": "33f4a47ac5604ec1545c5a5bffe15f7e", "lon": -77.07042133333333, "rental_uris": {"ios": "https://dc.lft.to/lastmile_qr_scan", "android": "https://dc.lft.to/lastmile_qr_scan"}}, {"name": "927abe0f3a6b001872f53d3d64bc28a9", "fusion_lat": 0.0, "type": "electric_scooter", "lat": 38.932482, "is_reserved": 0, "is_disabled": 0, "fusion_lon": 0.0, "bike_id": "927abe0f3a6b001872f53d3d64bc28a9", "lon": -77.0237845, "rental_uris": {"ios": "https://dc.lft.to/lastmile_qr_scan", "android": "https://dc.lft.to/lastmile_qr_scan"}}, {"name": "96e323eafaf48bffd1df89ad25b6ecf9", "fusion_lat": 0.0, "type": "electric_bike", "lat": 38.91849783333333, "is_reserved": 0, "is_disabled": 0, "fusion_lon": 0.0, "bike_id": "96e323eafaf48bffd1df89ad25b6ecf9", "lon": -76.96092833333333, "rental_uris": {"ios": "https://dc.lft.to/lastmile_qr_scan", "android": "https://dc.lft.to/lastmile_qr_scan"}}, {"name": "3b01bf06dc5c5914d75c9583022ea611", "fusion_lat": 0.0, "type": "electric_scooter", "lat": 38.92318183333333, "is_reserved": 0, "is_disabled": 0, "fusion_lon": 0.0, "bike_id": "3b01bf06dc5c5914d75c9583022ea611", "lon": -77.02972783333334, "rental_uris": {"ios": "https://dc.lft.to/lastmile_qr_scan", "android": "https://dc.lft.to/lastmile_qr_scan"}}, {"name": "b6add10640d2a9d6de6c529363cc085a", "fusion_lat": 0.0, "type": "electric_bike", "lat": 38.881301666666666, "is_reserved": 0, "is_disabled": 0, "fusion_lon": 0.0, "bike_id": "b6add10640d2a9d6de6c529363cc085a", "lon": -76.9809285, "rental_uris": {"ios": "https://dc.lft.to/lastmile_qr_scan", "android": "https://dc.lft.to/lastmile_qr_scan"}}, {"name": "6f05473273a4c5d180e547bc421f935d", "fusion_lat": 0.0, "type": "electric_scooter", "lat": 38.8850075, "is_reserved": 0, "is_disabled": 0, "fusion_lon": 0.0, "bike_id": "6f05473273a4c5d180e547bc421f935d", "lon": -77.005672, "rental_uris": {"ios": "https://dc.lft.to/lastmile_qr_scan", "android": "https://dc.lft.to/lastmile_qr_scan"}}, {"name": "3d127bda8cfea42ecf33d7de97be5a19", "fusion_lat": 0.0, "type": "electric_scooter", "lat": 38.89853, "is_reserved": 0, "is_disabled": 0, "fusion_lon": 0.0, "bike_id": "3d127bda8cfea42ecf33d7de97be5a19", "lon": -76.97560083333333, "rental_uris": {"ios": "https://dc.lft.to/lastmile_qr_scan", "android": "https://dc.lft.to/lastmile_qr_scan"}}, {"name": "1fb1a68d582df05dcd7c3a8fb705cf99", "fusion_lat": 0.0, "type": "electric_scooter", "lat": 38.89473566666667, "is_reserved": 0, "is_disabled": 0, "fusion_lon": 0.0, "bike_id": "1fb1a68d582df05dcd7c3a8fb705cf99", "lon": -76.9840085, "rental_uris": {"ios": "https://dc.lft.to/lastmile_qr_scan", "android": "https://dc.lft.to/lastmile_qr_scan"}}, {"name": "9d28480e372b6d31c3c1e502c6a738ed", "fusion_lat": 0.0, "type": "electric_scooter", "lat": 38.883417333333334, "is_reserved": 0, "is_disabled": 0, "fusion_lon": 0.0, "bike_id": "9d28480e372b6d31c3c1e502c6a738ed", "lon": -77.03165666666666, "rental_uris": {"ios": "https://dc.lft.to/lastmile_qr_scan", "android": "https://dc.lft.to/lastmile_qr_scan"}}, {"name": "ee56dffc4a0b8ec736529d4b2499ef96", "fusion_lat": 0.0, "type": "electric_scooter", "lat": 38.865107, "is_reserved": 0, "is_disabled": 0, "fusion_lon": 0.0, "bike_id": "ee56dffc4a0b8ec736529d4b2499ef96", "lon": -76.97341116666666, "rental_uris": {"ios": "https://dc.lft.to/lastmile_qr_scan", "android": "https://dc.lft.to/lastmile_qr_scan"}}, {"name": "3f2d29284ad943f5ef06a0fac465b134", "fusion_lat": 0.0, "type": "electric_scooter", "lat": 38.899144666666665, "is_reserved": 0, "is_disabled": 0, "fusion_lon": 0.0, "bike_id": "3f2d29284ad943f5ef06a0fac465b134", "lon": -76.93380683333334, "rental_uris": {"ios": "https://dc.lft.to/lastmile_qr_scan", "android": "https://dc.lft.to/lastmile_qr_scan"}}, {"name": "ed5fc15da8487911a62e67892ab6dd60", "fusion_lat": 0.0, "type": "electric_bike", "lat": 38.872196, "is_reserved": 0, "is_disabled": 0, "fusion_lon": 0.0, "bike_id": "ed5fc15da8487911a62e67892ab6dd60", "lon": -77.01198683333334, "rental_uris": {"ios": "https://dc.lft.to/lastmile_qr_scan", "android": "https://dc.lft.to/lastmile_qr_scan"}}, {"name": "dc443674bdcda49a5ca6ae30ae3b753e", "fusion_lat": 0.0, "type": "electric_scooter", "lat": 38.90561316666667, "is_reserved": 0, "is_disabled": 0, "fusion_lon": 0.0, "bike_id": "dc443674bdcda49a5ca6ae30ae3b753e", "lon": -77.041522, "rental_uris": {"ios": "https://dc.lft.to/lastmile_qr_scan", "android": "https://dc.lft.to/lastmile_qr_scan"}}, {"name": "8623f6efe11bf4315c23c8e96ea902d9", "fusion_lat": 0.0, "type": "electric_bike", "lat": 38.939685833333336, "is_reserved": 0, "is_disabled": 0, "fusion_lon": 0.0, "bike_id": "8623f6efe11bf4315c23c8e96ea902d9", "lon": -76.98660516666666, "rental_uris": {"ios": "https://dc.lft.to/lastmile_qr_scan", "android": "https://dc.lft.to/lastmile_qr_scan"}}, {"name": "f612c41466fa2dfa50d88735a918bc84", "fusion_lat": 0.0, "type": "electric_scooter", "lat": 38.94306266666667, "is_reserved": 0, "is_disabled": 0, "fusion_lon": 0.0, "bike_id": "f612c41466fa2dfa50d88735a918bc84", "lon": -77.05914166666666, "rental_uris": {"ios": "https://dc.lft.to/lastmile_qr_scan", "android": "https://dc.lft.to/lastmile_qr_scan"}}, {"name": "07cb7b9aa16b182f42385a28302048e9", "fusion_lat": 0.0, "type": "electric_scooter", "lat": 38.876296833333335, "is_reserved": 0, "is_disabled": 0, "fusion_lon": 0.0, "bike_id": "07cb7b9aa16b182f42385a28302048e9", "lon": -77.00839183333333, "rental_uris": {"ios": "https://dc.lft.to/lastmile_qr_scan", "android": "https://dc.lft.to/lastmile_qr_scan"}}, {"name": "a1a134456d25b232ffe08ae246f9c61b", "fusion_lat": 0.0, "type": "electric_bike", "lat": 38.856847, "is_reserved": 0, "is_disabled": 0, "fusion_lon": 0.0, "bike_id": "a1a134456d25b232ffe08ae246f9c61b", "lon": -77.0853815, "rental_uris": {"ios": "https://dc.lft.to/lastmile_qr_scan", "android": "https://dc.lft.to/lastmile_qr_scan"}}, {"name": "127768cae5aa9293b467ac6c0af5ddd3", "fusion_lat": 0.0, "type": "electric_scooter", "lat": 38.924481666666665, "is_reserved": 0, "is_disabled": 0, "fusion_lon": 0.0, "bike_id": "127768cae5aa9293b467ac6c0af5ddd3", "lon": -77.052433, "rental_uris": {"ios": "https://dc.lft.to/lastmile_qr_scan", "android": "https://dc.lft.to/lastmile_qr_scan"}}, {"name": "b918f911e51c767283196208a5d0b263", "fusion_lat": 0.0, "type": "electric_scooter", "lat": 38.918223833333336, "is_reserved": 0, "is_disabled": 0, "fusion_lon": 0.0, "bike_id": "b918f911e51c767283196208a5d0b263", "lon": -77.023877, "rental_uris": {"ios": "https://dc.lft.to/lastmile_qr_scan", "android": "https://dc.lft.to/lastmile_qr_scan"}}, {"name": "e6a537222e99183995250eebc5314005", "fusion_lat": 0.0, "type": "electric_scooter", "lat": 38.916355833333334, "is_reserved": 0, "is_disabled": 0, "fusion_lon": 0.0, "bike_id": "e6a537222e99183995250eebc5314005", "lon": -77.000993, "rental_uris": {"ios": "https://dc.lft.to/lastmile_qr_scan", "android": "https://dc.lft.to/lastmile_qr_scan"}}, {"name": "4385f932439a58de7fe457fa2cc55a0b", "fusion_lat": 0.0, "type": "electric_bike", "lat": 38.812438666666665, "is_reserved": 0, "is_disabled": 0, "fusion_lon": 0.0, "bike_id": "4385f932439a58de7fe457fa2cc55a0b", "lon": -77.11783333333334, "rental_uris": {"ios": "https://dc.lft.to/lastmile_qr_scan", "android": "https://dc.lft.to/lastmile_qr_scan"}}, {"name": "2af23d0ea4cddb79eed773d3a88895e9", "fusion_lat": 0.0, "type": "electric_scooter", "lat": 38.90387333333334, "is_reserved": 0, "is_disabled": 0, "fusion_lon": 0.0, "bike_id": "2af23d0ea4cddb79eed773d3a88895e9", "lon": -77.0345305, "rental_uris": {"ios": "https://dc.lft.to/lastmile_qr_scan", "android": "https://dc.lft.to/lastmile_qr_scan"}}, {"name": "8f79492cf802b20b202724c2d3028217", "fusion_lat": 0.0, "type": "electric_scooter", "lat": 38.88499133333333, "is_reserved": 0, "is_disabled": 0, "fusion_lon": 0.0, "bike_id": "8f79492cf802b20b202724c2d3028217", "lon": -77.02197016666666, "rental_uris": {"ios": "https://dc.lft.to/lastmile_qr_scan", "android": "https://dc.lft.to/lastmile_qr_scan"}}, {"name": "825fd7a2953463fa84706b7d20e456cd", "fusion_lat": 0.0, "type": "electric_bike", "lat": 39.00015633333334, "is_reserved": 0, "is_disabled": 0, "fusion_lon": 0.0, "bike_id": "825fd7a2953463fa84706b7d20e456cd", "lon": -77.01744733333334, "rental_uris": {"ios": "https://dc.lft.to/lastmile_qr_scan", "android": "https://dc.lft.to/lastmile_qr_scan"}}, {"name": "cf29fb06e3148c3af622c859e8527b2e", "fusion_lat": 0.0, "type": "electric_scooter", "lat": 38.9168245, "is_reserved": 0, "is_disabled": 0, "fusion_lon": 0.0, "bike_id": "cf29fb06e3148c3af622c859e8527b2e", "lon": -77.037638, "rental_uris": {"ios": "https://dc.lft.to/lastmile_qr_scan", "android": "https://dc.lft.to/lastmile_qr_scan"}}, {"name": "a1f38be2cb11b9ff27a0619f31c05d14", "fusion_lat": 0.0, "type": "electric_scooter", "lat": 38.930943166666665, "is_reserved": 0, "is_disabled": 0, "fusion_lon": 0.0, "bike_id": "a1f38be2cb11b9ff27a0619f31c05d14", "lon": -77.02447183333334, "rental_uris": {"ios": "https://dc.lft.to/lastmile_qr_scan", "android": "https://dc.lft.to/lastmile_qr_scan"}}, {"name": "88dfc4bbec3c224b3cb294bacd1cc3cb", "fusion_lat": 0.0, "type": "electric_scooter", "lat": 38.93961816666667, "is_reserved": 0, "is_disabled": 0, "fusion_lon": 0.0, "bike_id": "88dfc4bbec3c224b3cb294bacd1cc3cb", "lon": -77.0275255, "rental_uris": {"ios": "https://dc.lft.to/lastmile_qr_scan", "android": "https://dc.lft.to/lastmile_qr_scan"}}, {"name": "8182cc083df264039882bad5486a46d7", "fusion_lat": 0.0, "type": "electric_scooter", "lat": 38.93059616666667, "is_reserved": 0, "is_disabled": 0, "fusion_lon": 0.0, "bike_id": "8182cc083df264039882bad5486a46d7", "lon": -77.0297535, "rental_uris": {"ios": "https://dc.lft.to/lastmile_qr_scan", "android": "https://dc.lft.to/lastmile_qr_scan"}}, {"name": "db018768eebef27f18327d8d67139812", "fusion_lat": 0.0, "type": "electric_scooter", "lat": 38.91010933333333, "is_reserved": 0, "is_disabled": 0, "fusion_lon": 0.0, "bike_id": "db018768eebef27f18327d8d67139812", "lon": -77.027956, "rental_uris": {"ios": "https://dc.lft.to/lastmile_qr_scan", "android": "https://dc.lft.to/lastmile_qr_scan"}}, {"name": "8f6df65bd87da528de68a855e72ab47a", "fusion_lat": 0.0, "type": "electric_scooter", "lat": 38.93103933333333, "is_reserved": 0, "is_disabled": 0, "fusion_lon": 0.0, "bike_id": "8f6df65bd87da528de68a855e72ab47a", "lon": -77.0372365, "rental_uris": {"ios": "https://dc.lft.to/lastmile_qr_scan", "android": "https://dc.lft.to/lastmile_qr_scan"}}, {"name": "c857a73d4a3647b597e95b3589f7403a", "fusion_lat": 0.0, "type": "electric_scooter", "lat": 38.905728833333335, "is_reserved": 0, "is_disabled": 0, "fusion_lon": 0.0, "bike_id": "c857a73d4a3647b597e95b3589f7403a", "lon": -77.02106083333334, "rental_uris": {"ios": "https://dc.lft.to/lastmile_qr_scan", "android": "https://dc.lft.to/lastmile_qr_scan"}}, {"name": "260c2ac94b77fcdcbffb3556da518bf4", "fusion_lat": 0.0, "type": "electric_scooter", "lat": 38.90473316666667, "is_reserved": 0, "is_disabled": 0, "fusion_lon": 0.0, "bike_id": "260c2ac94b77fcdcbffb3556da518bf4", "lon": -77.0281435, "rental_uris": {"ios": "https://dc.lft.to/lastmile_qr_scan", "android": "https://dc.lft.to/lastmile_qr_scan"}}, {"name": "ddd3651d95f0eae4df178f5264cc3a87", "fusion_lat": 0.0, "type": "electric_scooter", "lat": 38.905619333333334, "is_reserved": 0, "is_disabled": 0, "fusion_lon": 0.0, "bike_id": "ddd3651d95f0eae4df178f5264cc3a87", "lon": -77.02800066666667, "rental_uris": {"ios": "https://dc.lft.to/lastmile_qr_scan", "android": "https://dc.lft.to/lastmile_qr_scan"}}, {"name": "9511e23bc43d52b603c510ab64b72714", "fusion_lat": 0.0, "type": "electric_bike", "lat": 38.92863233333333, "is_reserved": 0, "is_disabled": 0, "fusion_lon": 0.0, "bike_id": "9511e23bc43d52b603c510ab64b72714", "lon": -76.96104916666667, "rental_uris": {"ios": "https://dc.lft.to/lastmile_qr_scan", "android": "https://dc.lft.to/lastmile_qr_scan"}}, {"name": "9f8388bcc58ca8b27e1b326dae73f017", "fusion_lat": 0.0, "type": "electric_scooter", "lat": 38.887423166666665, "is_reserved": 0, "is_disabled": 0, "fusion_lon": 0.0, "bike_id": "9f8388bcc58ca8b27e1b326dae73f017", "lon": -77.01540983333334, "rental_uris": {"ios": "https://dc.lft.to/lastmile_qr_scan", "android": "https://dc.lft.to/lastmile_qr_scan"}}, {"name": "c9b91f01392a128bc422cdf0c4d05a42", "fusion_lat": 0.0, "type": "electric_scooter", "lat": 38.862426666666664, "is_reserved": 0, "is_disabled": 0, "fusion_lon": 0.0, "bike_id": "c9b91f01392a128bc422cdf0c4d05a42", "lon": -76.99498833333334, "rental_uris": {"ios": "https://dc.lft.to/lastmile_qr_scan", "android": "https://dc.lft.to/lastmile_qr_scan"}}, {"name": "86b5895d18fb291ed0cde07e3277abe9", "fusion_lat": 0.0, "type": "electric_scooter", "lat": 38.9655975, "is_reserved": 0, "is_disabled": 0, "fusion_lon": 0.0, "bike_id": "86b5895d18fb291ed0cde07e3277abe9", "lon": -77.01621966666667, "rental_uris": {"ios": "https://dc.lft.to/lastmile_qr_scan", "android": "https://dc.lft.to/lastmile_qr_scan"}}, {"name": "8ef4623bd0e66339013d1f02f3826dcd", "fusion_lat": 0.0, "type": "electric_scooter", "lat": 38.94104683333333, "is_reserved": 0, "is_disabled": 0, "fusion_lon": 0.0, "bike_id": "8ef4623bd0e66339013d1f02f3826dcd", "lon": -77.0266505, "rental_uris": {"ios": "https://dc.lft.to/lastmile_qr_scan", "android": "https://dc.lft.to/lastmile_qr_scan"}}, {"name": "37810dd5880071b5670e8a5cc594b4af", "fusion_lat": 0.0, "type": "electric_bike", "lat": 38.84268133333333, "is_reserved": 0, "is_disabled": 0, "fusion_lon": 0.0, "bike_id": "37810dd5880071b5670e8a5cc594b4af", "lon": -76.98847533333333, "rental_uris": {"ios": "https://dc.lft.to/lastmile_qr_scan", "android": "https://dc.lft.to/lastmile_qr_scan"}}, {"name": "0dc721c6736ad7630045af3bc4c20463", "fusion_lat": 0.0, "type": "electric_bike", "lat": 38.9601005, "is_reserved": 0, "is_disabled": 0, "fusion_lon": 0.0, "bike_id": "0dc721c6736ad7630045af3bc4c20463", "lon": -76.9986735, "rental_uris": {"ios": "https://dc.lft.to/lastmile_qr_scan", "android": "https://dc.lft.to/lastmile_qr_scan"}}, {"name": "297cc4e4e3a6c53a27db35057b52adf3", "fusion_lat": 0.0, "type": "electric_scooter", "lat": 38.925798666666665, "is_reserved": 0, "is_disabled": 0, "fusion_lon": 0.0, "bike_id": "297cc4e4e3a6c53a27db35057b52adf3", "lon": -76.99488316666667, "rental_uris": {"ios": "https://dc.lft.to/lastmile_qr_scan", "android": "https://dc.lft.to/lastmile_qr_scan"}}, {"name": "ac9771f90b0f8d50bf94a074fef91d65", "fusion_lat": 0.0, "type": "electric_scooter", "lat": 38.905812833333336, "is_reserved": 0, "is_disabled": 0, "fusion_lon": 0.0, "bike_id": "ac9771f90b0f8d50bf94a074fef91d65", "lon": -77.04876016666667, "rental_uris": {"ios": "https://dc.lft.to/lastmile_qr_scan", "android": "https://dc.lft.to/lastmile_qr_scan"}}, {"name": "8c9a1857dc914733b91c33f8d5be1266", "fusion_lat": 0.0, "type": "electric_scooter", "lat": 38.90566583333333, "is_reserved": 0, "is_disabled": 0, "fusion_lon": 0.0, "bike_id": "8c9a1857dc914733b91c33f8d5be1266", "lon": -77.02186783333333, "rental_uris": {"ios": "https://dc.lft.to/lastmile_qr_scan", "android": "https://dc.lft.to/lastmile_qr_scan"}}, {"name": "ff6646d849f24dbe53850969eaa4d92d", "fusion_lat": 0.0, "type": "electric_scooter", "lat": 38.899987, "is_reserved": 0, "is_disabled": 0, "fusion_lon": 0.0, "bike_id": "ff6646d849f24dbe53850969eaa4d92d", "lon": -77.04580533333333, "rental_uris": {"ios": "https://dc.lft.to/lastmile_qr_scan", "android": "https://dc.lft.to/lastmile_qr_scan"}}, {"name": "51298c3083e78f9759d2dc1cce63f657", "fusion_lat": 0.0, "type": "electric_scooter", "lat": 38.919789, "is_reserved": 0, "is_disabled": 0, "fusion_lon": 0.0, "bike_id": "51298c3083e78f9759d2dc1cce63f657", "lon": -77.03962233333333, "rental_uris": {"ios": "https://dc.lft.to/lastmile_qr_scan", "android": "https://dc.lft.to/lastmile_qr_scan"}}, {"name": "d56074d094d95b75dd003b50714ed297", "fusion_lat": 0.0, "type": "electric_scooter", "lat": 38.921341, "is_reserved": 0, "is_disabled": 0, "fusion_lon": 0.0, "bike_id": "d56074d094d95b75dd003b50714ed297", "lon": -77.02495866666666, "rental_uris": {"ios": "https://dc.lft.to/lastmile_qr_scan", "android": "https://dc.lft.to/lastmile_qr_scan"}}, {"name": "f6ca4745b0a19943f555733ea5e54710", "fusion_lat": 0.0, "type": "electric_scooter", "lat": 38.9282355, "is_reserved": 0, "is_disabled": 0, "fusion_lon": 0.0, "bike_id": "f6ca4745b0a19943f555733ea5e54710", "lon": -77.02258166666667, "rental_uris": {"ios": "https://dc.lft.to/lastmile_qr_scan", "android": "https://dc.lft.to/lastmile_qr_scan"}}, {"name": "0dd4444c4df9df46bb96c96009152c5a", "fusion_lat": 0.0, "type": "electric_bike", "lat": 38.93048783333333, "is_reserved": 0, "is_disabled": 0, "fusion_lon": 0.0, "bike_id": "0dd4444c4df9df46bb96c96009152c5a", "lon": -77.03215833333333, "rental_uris": {"ios": "https://dc.lft.to/lastmile_qr_scan", "android": "https://dc.lft.to/lastmile_qr_scan"}}, {"name": "56db9c91bf48102cdd78ec4f155d5576", "fusion_lat": 0.0, "type": "electric_bike", "lat": 38.87890133333333, "is_reserved": 0, "is_disabled": 0, "fusion_lon": 0.0, "bike_id": "56db9c91bf48102cdd78ec4f155d5576", "lon": -77.10895783333333, "rental_uris": {"ios": "https://dc.lft.to/lastmile_qr_scan", "android": "https://dc.lft.to/lastmile_qr_scan"}}, {"name": "8b88849b25ee3a2aa4cd84a3c2f38e7b", "fusion_lat": 0.0, "type": "electric_scooter", "lat": 38.898318833333335, "is_reserved": 0, "is_disabled": 0, "fusion_lon": 0.0, "bike_id": "8b88849b25ee3a2aa4cd84a3c2f38e7b", "lon": -76.94639883333333, "rental_uris": {"ios": "https://dc.lft.to/lastmile_qr_scan", "android": "https://dc.lft.to/lastmile_qr_scan"}},