{"data": {"bikes": [{"name": "d0e528927743efb45500471fa07e7312", "type": "electric_scooter", "fusion_lon": 0.0, "lon": -76.99808783333333, "is_disabled": 0, "lat": 38.88554516666667, "fusion_lat": 0.0, "is_reserved": 0, "rental_uris": {"android": "https://dc.lft.to/lastmile_qr_scan", "ios": "https://dc.lft.to/lastmile_qr_scan"}, "bike_id": "d0e528927743efb45500471fa07e7312"}, {"name": "915469b873ac74fa23617bd2fdfcd8dd", "type": "electric_scooter", "fusion_lon": 0.0, "lon": -77.03072, "is_disabled": 0, "lat": 38.90264783333333, "fusion_lat": 0.0, "is_reserved": 0, "rental_uris": {"android": "https://dc.lft.to/lastmile_qr_scan", "ios": "https://dc.lft.to/lastmile_qr_scan"}, "bike_id": "915469b873ac74fa23617bd2fdfcd8dd"}, {"name": "07de751709414a3a3cac28a3904ab48d", "type": "electric_scooter", "fusion_lon": 0.0, "lon": -77.04999683333334, "is_disabled": 0, "lat": 38.89231383333333, "fusion_lat": 0.0, "is_reserved": 0, "rental_uris": {"android": "https://dc.lft.to/lastmile_qr_scan", "ios": "https://dc.lft.to/lastmile_qr_scan"}, "bike_id": "07de751709414a3a3cac28a3904ab48d"}, {"name": "6d0e54dd72a8c2fed95add650f091857", "type": "electric_scooter", "fusion_lon": 0.0, "lon": -77.02311733333333, "is_disabled": 0, "lat": 38.91778883333333, "fusion_lat": 0.0, "is_reserved": 0, "rental_uris": {"android": "https://dc.lft.to/lastmile_qr_scan", "ios": "https://dc.lft.to/lastmile_qr_scan"}, "bike_id": "6d0e54dd72a8c2fed95add650f091857"}, {"name": "fe137cc2840e4f3f104a9e96af78b1f2", "type": "electric_scooter", "fusion_lon": 0.0, "lon": -77.0446385, "is_disabled": 0, "lat": 38.915930333333336, "fusion_lat": 0.0, "is_reserved": 0, "rental_uris": {"android": "https://dc.lft.to/lastmile_qr_scan", "ios": "https://dc.lft.to/lastmile_qr_scan"}, "bike_id": "fe137cc2840e4f3f104a9e96af78b1f2"}, {"name": "a338f5973de8bfa8cf39d5dc9509dd28", "type": "electric_scooter", "fusion_lon": 0.0, "lon": -77.02533916666667, "is_disabled": 0, "lat": 38.92059316666667, "fusion_lat": 0.0, "is_reserved": 0, "rental_uris": {"android": "https://dc.lft.to/lastmile_qr_scan", "ios": "https://dc.lft.to/lastmile_qr_scan"}, "bike_id": "a338f5973de8bfa8cf39d5dc9509dd28"}, {"name": "610838e74a1eb67b842c889ee7a95758", "type": "electric_scooter", "fusion_lon": 0.0, "lon": -77.028411, "is_disabled": 0, "lat": 38.89372183333333, "fusion_lat": 0.0, "is_reserved": 0, "rental_uris": {"android": "https://dc.lft.to/lastmile_qr_scan", "ios": "https://dc.lft.to/lastmile_qr_scan"}, "bike_id": "610838e74a1eb67b842c889ee7a95758"}, {"name": "41f8b8031f9bdadc173a98d668cfe628", "type": "electric_scooter", "fusion_lon": 0.0, "lon": -77.03308366666667, "is_disabled": 0, "lat": 38.92745983333333, "fusion_lat": 0.0, "is_reserved": 0, "rental_uris": {"android": "https://dc.lft.to/lastmile_qr_scan", "ios": "https://dc.lft.to/lastmile_qr_scan"}, "bike_id": "41f8b8031f9bdadc173a98d668cfe628"}, {"name": "069473931ec4907e64838689cdfceeb0", "type": "electric_scooter", "fusion_lon": 0.0, "lon": -77.00545116666666, "is_disabled": 0, "lat": 38.90268183333333, "fusion_lat": 0.0, "is_reserved": 0, "rental_uris": {"android": "https://dc.lft.to/lastmile_qr_scan", "ios": "https://dc.lft.to/lastmile_qr_scan"}, "bike_id": "069473931ec4907e64838689cdfceeb0"}, {"name": "ac553eb93c2cc1412b48a78db2ca6be2", "type": "electric_scooter", "fusion_lon": 0.0, "lon": -77.04024383333334, "is_disabled": 0, "lat": 38.924511, "fusion_lat": 0.0, "is_reserved": 0, "rental_uris": {"android": "https://dc.lft.to/lastmile_qr_scan", "ios": "https://dc.lft.to/lastmile_qr_scan"}, "bike_id": "ac553eb93c2cc1412b48a78db2ca6be2"}, {"name": "736cdead0b53d87b43b30de8fd393035", "type": "electric_scooter", "fusion_lon": 0.0, "lon": -77.04712316666667, "is_disabled": 0, "lat": 38.921819166666666, "fusion_lat": 0.0, "is_reserved": 0, "rental_uris": {"android": "https://dc.lft.to/lastmile_qr_scan", "ios": "https://dc.lft.to/lastmile_qr_scan"}, "bike_id": "736cdead0b53d87b43b30de8fd393035"}, {"name": "1523d684cc70f077927c633c8a820ae6", "type": "electric_scooter", "fusion_lon": 0.0, "lon": -77.03981433333334, "is_disabled": 0, "lat": 38.8922265, "fusion_lat": 0.0, "is_reserved": 0, "rental_uris": {"android": "https://dc.lft.to/lastmile_qr_scan", "ios": "https://dc.lft.to/lastmile_qr_scan"}, "bike_id": "1523d684cc70f077927c633c8a820ae6"}, {"name": "77c2c219b2a56db651c560ff7a21ebcb", "type": "electric_scooter", "fusion_lon": 0.0, "lon": -77.03841683333333, "is_disabled": 0, "lat": 38.94192616666667, "fusion_lat": 0.0, "is_reserved": 0, "rental_uris": {"android": "https://dc.lft.to/lastmile_qr_scan", "ios": "https://dc.lft.to/lastmile_qr_scan"}, "bike_id": "77c2c219b2a56db651c560ff7a21ebcb"}, {"name": "7bdd0ce05f677cfd2571b7e8b90b1f08", "type": "electric_scooter", "fusion_lon": 0.0, "lon": -76.97915666666667, "is_disabled": 0, "lat": 38.9245585, "fusion_lat": 0.0, "is_reserved": 0, "rental_uris": {"android": "https://dc.lft.to/lastmile_qr_scan", "ios": "https://dc.lft.to/lastmile_qr_scan"}, "bike_id": "7bdd0ce05f677cfd2571b7e8b90b1f08"}, {"name": "14d53eba949a3b2851e012417e46e3cb", "type": "electric_scooter", "fusion_lon": 0.0, "lon": -77.04049766666667, "is_disabled": 0, "lat": 38.9242945, "fusion_lat": 0.0, "is_reserved": 0, "rental_uris": {"android": "https://dc.lft.to/lastmile_qr_scan", "ios": "https://dc.lft.to/lastmile_qr_scan"}, "bike_id": "14d53eba949a3b2851e012417e46e3cb"}, {"name": "0d6ed1dc33dac0771a15b7601d745d9c", "type": "electric_scooter", "fusion_lon": 0.0, "lon": -76.97436816666666, "is_disabled": 0, "lat": 38.902378666666664, "fusion_lat": 0.0, "is_reserved": 0, "rental_uris": {"android": "https://dc.lft.to/lastmile_qr_scan", "ios": "https://dc.lft.to/lastmile_qr_scan"}, "bike_id": "0d6ed1dc33dac0771a15b7601d745d9c"}, {"name": "06fb58858cef15c0402832d27999cc03", "type": "electric_scooter", "fusion_lon": 0.0, "lon": -77.03406566666666, "is_disabled": 0, "lat": 38.9244025, "fusion_lat": 0.0, "is_reserved": 0, "rental_uris": {"android": "https://dc.lft.to/lastmile_qr_scan", "ios": "https://dc.lft.to/lastmile_qr_scan"}, "bike_id": "06fb58858cef15c0402832d27999cc03"}, {"name": "5c0a37eea9f2bcd7a639143009145078", "type": "electric_scooter", "fusion_lon": 0.0, "lon": -77.0043695, "is_disabled": 0, "lat": 38.87676183333333, "fusion_lat": 0.0, "is_reserved": 0, "rental_uris": {"android": "https://dc.lft.to/lastmile_qr_scan", "ios": "https://dc.lft.to/lastmile_qr_scan"}, "bike_id": "5c0a37eea9f2bcd7a639143009145078"}, {"name": "877493e3f9b68b907b63c0248c0aad33", "type": "electric_scooter", "fusion_lon": 0.0, "lon": -76.9856725, "is_disabled": 0, "lat": 38.86683333333333, "fusion_lat": 0.0, "is_reserved": 0, "rental_uris": {"android": "https://dc.lft.to/lastmile_qr_scan", "ios": "https://dc.lft.to/lastmile_qr_scan"}, "bike_id": "877493e3f9b68b907b63c0248c0aad33"}, {"name": "722a6c6e45cf0dac6aaf3511a9aa6f4b", "type": "electric_scooter", "fusion_lon": 0.0, "lon": -77.04349066666667, "is_disabled": 0, "lat": 38.9056955, "fusion_lat": 0.0, "is_reserved": 0, "rental_uris": {"android": "https://dc.lft.to/lastmile_qr_scan", "ios": "https://dc.lft.to/lastmile_qr_scan"}, "bike_id": "722a6c6e45cf0dac6aaf3511a9aa6f4b"}, {"name": "a434b1950bf405a3b43409bd3e97a95c", "type": "electric_scooter", "fusion_lon": 0.0, "lon": -77.0362995, "is_disabled": 0, "lat": 38.936775, "fusion_lat": 0.0, "is_reserved": 0, "rental_uris": {"android": "https://dc.lft.to/lastmile_qr_scan", "ios": "https://dc.lft.to/lastmile_qr_scan"}, "bike_id": "a434b1950bf405a3b43409bd3e97a95c"}, {"name": "9c9407b9d539b7076c5d24726b2ab57b", "type": "electric_scooter", "fusion_lon": 0.0, "lon": -77.02801, "is_disabled": 0, "lat": 38.93059933333333, "fusion_lat": 0.0, "is_reserved": 0, "rental_uris": {"android": "https://dc.lft.to/lastmile_qr_scan", "ios": "https://dc.lft.to/lastmile_qr_scan"}, "bike_id": "9c9407b9d539b7076c5d24726b2ab57b"}, {"name": "b590876478067c356ed8cb239b46f6dc", "type": "electric_scooter", "fusion_lon": 0.0, "lon": -77.01696666666666, "is_disabled": 0, "lat": 38.902423, "fusion_lat": 0.0, "is_reserved": 0, "rental_uris": {"android": "https://dc.lft.to/lastmile_qr_scan", "ios": "https://dc.lft.to/lastmile_qr_scan"}, "bike_id": "b590876478067c356ed8cb239b46f6dc"}, {"name": "d5cd66228ab44445075657672fe48368", "type": "electric_scooter", "fusion_lon": 0.0, "lon": -77.0009945, "is_disabled": 0, "lat": 38.881221, "fusion_lat": 0.0, "is_reserved": 0, "rental_uris": {"android": "https://dc.lft.to/lastmile_qr_scan", "ios": "https://dc.lft.to/lastmile_qr_scan"}, "bike_id": "d5cd66228ab44445075657672fe48368"}, {"name": "1106efd52373041d6ca7b736b129206f", "type": "electric_bike", "fusion_lon": 0.0, "lon": -77.0539695, "is_disabled": 0, "lat": 38.804508166666665, "fusion_lat": 0.0, "is_reserved": 0, "rental_uris": {"android": "https://dc.lft.to/lastmile_qr_scan", "ios": "https://dc.lft.to/lastmile_qr_scan"}, "bike_id": "1106efd52373041d6ca7b736b129206f"}, {"name": "3f1df9c470b9267baf4a9141fd261d9f", "type": "electric_scooter", "fusion_lon": 0.0, "lon": -76.98094533333334, "is_disabled": 0, "lat": 38.90006266666666, "fusion_lat": 0.0, "is_reserved": 0, "rental_uris": {"android": "https://dc.lft.to/lastmile_qr_scan", "ios": "https://dc.lft.to/lastmile_qr_scan"}, "bike_id": "3f1df9c470b9267baf4a9141fd261d9f"}, {"name": "d9815cf43781b1341f1d93cecf947456", "type": "electric_scooter", "fusion_lon": 0.0, "lon": -77.04520233333334, "is_disabled": 0, "lat": 38.916101833333336, "fusion_lat": 0.0, "is_reserved": 0, "rental_uris": {"android": "https://dc.lft.to/lastmile_qr_scan", "ios": "https://dc.lft.to/lastmile_qr_scan"}, "bike_id": "d9815cf43781b1341f1d93cecf947456"}, {"name": "8d38bec681e9ab194e0c8edd5eb7c25f", "type": "electric_scooter", "fusion_lon": 0.0, "lon": -77.04157, "is_disabled": 0, "lat": 38.89851183333333, "fusion_lat": 0.0, "is_reserved": 0, "rental_uris": {"android": "https://dc.lft.to/lastmile_qr_scan", "ios": "https://dc.lft.to/lastmile_qr_scan"}, "bike_id": "8d38bec681e9ab194e0c8edd5eb7c25f"}, {"name": "25ea36c9a9425d0c0ac0e82f409c196a", "type": "electric_scooter", "fusion_lon": 0.0, "lon": -77.01473966666667, "is_disabled": 0, "lat": 38.926709833333334, "fusion_lat": 0.0, "is_reserved": 0, "rental_uris": {"android": "https://dc.lft.to/lastmile_qr_scan", "ios": "https://dc.lft.to/lastmile_qr_scan"}, "bike_id": "25ea36c9a9425d0c0ac0e82f409c196a"}, {"name": "9dde9680cf66b0e25f82226050b30309", "type": "electric_scooter", "fusion_lon": 0.0, "lon": -76.96708366666667, "is_disabled": 0, "lat": 38.86037116666667, "fusion_lat": 0.0, "is_reserved": 0, "rental_uris": {"android": "https://dc.lft.to/lastmile_qr_scan", "ios": "https://dc.lft.to/lastmile_qr_scan"}, "bike_id": "9dde9680cf66b0e25f82226050b30309"}, {"name": "890b09587afa9453bd828fb5231c458b", "type": "electric_scooter", "fusion_lon": 0.0, "lon": -77.04186616666667, "is_disabled": 0, "lat": 38.892492833333336, "fusion_lat": 0.0, "is_reserved": 0, "rental_uris": {"android": "https://dc.lft.to/lastmile_qr_scan", "ios": "https://dc.lft.to/lastmile_qr_scan"}, "bike_id": "890b09587afa9453bd828fb5231c458b"}, {"name": "85d1d962907fcb927af3ce2bebca6fd2", "type": "electric_scooter", "fusion_lon": 0.0, "lon": -77.03639866666667, "is_disabled": 0, "lat": 38.936449833333334, "fusion_lat": 0.0, "is_reserved": 0, "rental_uris": {"android": "https://dc.lft.to/lastmile_qr_scan", "ios": "https://dc.lft.to/lastmile_qr_scan"}, "bike_id": "85d1d962907fcb927af3ce2bebca6fd2"}, {"name": "88832004521ba85f9439600d1295c010", "type": "electric_scooter", "fusion_lon": 0.0, "lon": -77.07357783333333, "is_disabled": 0, "lat": 38.935654, "fusion_lat": 0.0, "is_reserved": 0, "rental_uris": {"android": "https://dc.lft.to/lastmile_qr_scan", "ios": "https://dc.lft.to/lastmile_qr_scan"}, "bike_id": "88832004521ba85f9439600d1295c010"}, {"name": "c88e9ab0fa5bdc7e499eac82c00a58a2", "type": "electric_scooter", "fusion_lon": 0.0, "lon": -77.09721783333333, "is_disabled": 0, "lat": 38.950990833333336, "fusion_lat": 0.0, "is_reserved": 0, "rental_uris": {"android": "https://dc.lft.to/lastmile_qr_scan", "ios": "https://dc.lft.to/lastmile_qr_scan"}, "bike_id": "c88e9ab0fa5bdc7e499eac82c00a58a2"}, {"name": "0ed5038b99dba396b5b6c1fc397178f7", "type": "electric_scooter", "fusion_lon": 0.0, "lon": -77.00370266666667, "is_disabled": 0, "lat": 38.876411, "fusion_lat": 0.0, "is_reserved": 0, "rental_uris": {"android": "https://dc.lft.to/lastmile_qr_scan", "ios": "https://dc.lft.to/lastmile_qr_scan"}, "bike_id": "0ed5038b99dba396b5b6c1fc397178f7"}, {"name": "3f9cb5b3b863e7f599d5d526377cc86f", "type": "electric_scooter", "fusion_lon": 0.0, "lon": -77.0325525, "is_disabled": 0, "lat": 38.931363833333336, "fusion_lat": 0.0, "is_reserved": 0, "rental_uris": {"android": "https://dc.lft.to/lastmile_qr_scan", "ios": "https://dc.lft.to/lastmile_qr_scan"}, "bike_id": "3f9cb5b3b863e7f599d5d526377cc86f"}, {"name": "ed5579516da674862bcadb75895dea75", "type": "electric_scooter", "fusion_lon": 0.0, "lon": -77.02709883333333, "is_disabled": 0, "lat": 38.907822833333334, "fusion_lat": 0.0, "is_reserved": 0, "rental_uris": {"android": "https://dc.lft.to/lastmile_qr_scan", "ios": "https://dc.lft.to/lastmile_qr_scan"}, "bike_id": "ed5579516da674862bcadb75895dea75"}, {"name": "d65358ce978c3218fa696d203ca3f37a", "type": "electric_scooter", "fusion_lon": 0.0, "lon": -77.0717275, "is_disabled": 0, "lat": 38.907772, "fusion_lat": 0.0, "is_reserved": 0, "rental_uris": {"android": "https://dc.lft.to/lastmile_qr_scan", "ios": "https://dc.lft.to/lastmile_qr_scan"}, "bike_id": "d65358ce978c3218fa696d203ca3f37a"}, {"name": "51e662a4f5e36de76ce0b69eed017141", "type": "electric_scooter", "fusion_lon": 0.0, "lon": -77.00710233333334, "is_disabled": 0, "lat": 38.88489666666667, "fusion_lat": 0.0, "is_reserved": 0, "rental_uris": {"android": "https://dc.lft.to/lastmile_qr_scan", "ios": "https://dc.lft.to/lastmile_qr_scan"}, "bike_id": "51e662a4f5e36de76ce0b69eed017141"}, {"name": "01a2ac97fd20f94a2ef506005fd0b250", "type": "electric_bike", "fusion_lon": 0.0, "lon": -76.9819305, "is_disabled": 0, "lat": 38.98500633333333, "fusion_lat": 0.0, "is_reserved": 0, "rental_uris": {"android": "https://dc.lft.to/lastmile_qr_scan", "ios": "https://dc.lft.to/lastmile_qr_scan"}, "bike_id": "01a2ac97fd20f94a2ef506005fd0b250"}, {"name": "73c8678fe1e7ccc25f86a8c2c7f709c7", "type": "electric_scooter", "fusion_lon": 0.0, "lon": -77.0239195, "is_disabled": 0, "lat": 38.906896333333336, "fusion_lat": 0.0, "is_reserved": 0, "rental_uris": {"android": "https://dc.lft.to/lastmile_qr_scan", "ios": "https://dc.lft.to/lastmile_qr_scan"}, "bike_id": "73c8678fe1e7ccc25f86a8c2c7f709c7"}, {"name": "8cea57cf6f302e3e99098081709fa142", "type": "electric_scooter", "fusion_lon": 0.0, "lon": -77.0043605, "is_disabled": 0, "lat": 38.87706983333333, "fusion_lat": 0.0, "is_reserved": 0, "rental_uris": {"android": "https://dc.lft.to/lastmile_qr_scan", "ios": "https://dc.lft.to/lastmile_qr_scan"}, "bike_id": "8cea57cf6f302e3e99098081709fa142"}, {"name": "000b581bcb772be72defd86716b6b79a", "type": "electric_scooter", "fusion_lon": 0.0, "lon": -77.01752083333334, "is_disabled": 0, "lat": 38.901407666666664, "fusion_lat": 0.0, "is_reserved": 0, "rental_uris": {"android": "https://dc.lft.to/lastmile_qr_scan", "ios": "https://dc.lft.to/lastmile_qr_scan"}, "bike_id": "000b581bcb772be72defd86716b6b79a"}, {"name": "ec5b12323fc03a424edb9fa78829b14e", "type": "electric_scooter", "fusion_lon": 0.0, "lon": -77.031747, "is_disabled": 0, "lat": 38.90354966666666, "fusion_lat": 0.0, "is_reserved": 0, "rental_uris": {"android": "https://dc.lft.to/lastmile_qr_scan", "ios": "https://dc.lft.to/lastmile_qr_scan"}, "bike_id": "ec5b12323fc03a424edb9fa78829b14e"}, {"name": "072413379be70056b8b56473505a9fa9", "type": "electric_scooter", "fusion_lon": 0.0, "lon": -77.0149275, "is_disabled": 0, "lat": 38.917744166666665, "fusion_lat": 0.0, "is_reserved": 0, "rental_uris": {"android": "https://dc.lft.to/lastmile_qr_scan", "ios": "https://dc.lft.to/lastmile_qr_scan"}, "bike_id": "072413379be70056b8b56473505a9fa9"}, {"name": "b122ff7953c8a63ecfa2a315a2d80934", "type": "electric_scooter", "fusion_lon": 0.0, "lon": -77.04152866666666, "is_disabled": 0, "lat": 38.917489833333335, "fusion_lat": 0.0, "is_reserved": 0, "rental_uris": {"android": "https://dc.lft.to/lastmile_qr_scan", "ios": "https://dc.lft.to/lastmile_qr_scan"}, "bike_id": "b122ff7953c8a63ecfa2a315a2d80934"}, {"name": "ce8a0e433aa556f7b5f2864ed1c9f849", "type": "electric_scooter", "fusion_lon": 0.0, "lon": -77.03301983333333, "is_disabled": 0, "lat": 38.956369333333335, "fusion_lat": 0.0, "is_reserved": 0, "rental_uris": {"android": "https://dc.lft.to/lastmile_qr_scan", "ios": "https://dc.lft.to/lastmile_qr_scan"}, "bike_id": "ce8a0e433aa556f7b5f2864ed1c9f849"}, {"name": "3ba4f666dbc4356e61561ee27dff286e", "type": "electric_scooter", "fusion_lon": 0.0, "lon": -77.04711716666667, "is_disabled": 0, "lat": 38.921732666666664, "fusion_lat": 0.0, "is_reserved": 0, "rental_uris": {"android": "https://dc.lft.to/lastmile_qr_scan", "ios": "https://dc.lft.to/lastmile_qr_scan"}, "bike_id": "3ba4f666dbc4356e61561ee27dff286e"}, {"name": "eacf19f7780ebe0c7dd14fb6552563db", "type": "electric_scooter", "fusion_lon": 0.0, "lon": -77.01797766666667, "is_disabled": 0, "lat": 38.913995166666666, "fusion_lat": 0.0, "is_reserved": 0, "rental_uris": {"android": "https://dc.lft.to/lastmile_qr_scan", "ios": "https://dc.lft.to/lastmile_qr_scan"}, "bike_id": "eacf19f7780ebe0c7dd14fb6552563db"}, {"name": "c83606f5c9b4c7930c32ade7bd5e29ac", "type": "electric_scooter", "fusion_lon": 0.0, "lon": -77.00674016666666, "is_disabled": 0, "lat": 38.899928833333334, "fusion_lat": 0.0, "is_reserved": 0, "rental_uris": {"android": "https://dc.lft.to/lastmile_qr_scan", "ios": "https://dc.lft.to/lastmile_qr_scan"}, "bike_id": "c83606f5c9b4c7930c32ade7bd5e29ac"}, {"name": "24567ae125e5f4416ae9e9dd9e6cf8da", "type": "electric_scooter", "fusion_lon": 0.0, "lon": -77.01999716666667, "is_disabled": 0, "lat": 38.91420516666667, "fusion_lat": 0.0, "is_reserved": 0, "rental_uris": {"android": "https://dc.lft.to/lastmile_qr_scan", "ios": "https://dc.lft.to/lastmile_qr_scan"}, "bike_id": "24567ae125e5f4416ae9e9dd9e6cf8da"}, {"name": "92fa6f262d0c00a7be56aadb7630fb59", "type": "electric_scooter", "fusion_lon": 0.0, "lon": -76.99987883333333, "is_disabled": 0, "lat": 38.874849833333336, "fusion_lat": 0.0, "is_reserved": 0, "rental_uris": {"android": "https://dc.lft.to/lastmile_qr_scan", "ios": "https://dc.lft.to/lastmile_qr_scan"}, "bike_id": "92fa6f262d0c00a7be56aadb7630fb59"}, {"name": "9cc76c756390d4e3322103093c1d7a50", "type": "electric_scooter", "fusion_lon": 0.0, "lon": -77.02561983333334, "is_disabled": 0, "lat": 38.941661833333335, "fusion_lat": 0.0, "is_reserved": 0, "rental_uris": {"android": "https://dc.lft.to/lastmile_qr_scan", "ios": "https://dc.lft.to/lastmile_qr_scan"}, "bike_id": "9cc76c756390d4e3322103093c1d7a50"}, {"name": "e725d0df1491bee9acb9886967185198", "type": "electric_scooter", "fusion_lon": 0.0, "lon": -77.0190525, "is_disabled": 0, "lat": 38.9234055, "fusion_lat": 0.0, "is_reserved": 0, "rental_uris": {"android": "https://dc.lft.to/lastmile_qr_scan", "ios": "https://dc.lft.to/lastmile_qr_scan"}, "bike_id": "e725d0df1491bee9acb9886967185198"}, {"name": "c7dd015c3f9225a0fd13e621a397c988", "type": "electric_scooter", "fusion_lon": 0.0, "lon": -76.98075733333333, "is_disabled": 0, "lat": 38.901687833333334, "fusion_lat": 0.0, "is_reserved": 0, "rental_uris": {"android": "https://dc.lft.to/lastmile_qr_scan", "ios": "https://dc.lft.to/lastmile_qr_scan"}, "bike_id": "c7dd015c3f9225a0fd13e621a397c988"}, {"name": "77797c437169c63a5dccb6a590d34009", "type": "electric_scooter", "fusion_lon": 0.0, "lon": -77.04489133333334, "is_disabled": 0, "lat": 38.912756, "fusion_lat": 0.0, "is_reserved": 0, "rental_uris": {"android": "https://dc.lft.to/lastmile_qr_scan", "ios": "https://dc.lft.to/lastmile_qr_scan"}, "bike_id": "77797c437169c63a5dccb6a590d34009"}, {"name": "aecd5dcbe510641e3c6758626f084445", "type": "electric_scooter", "fusion_lon": 0.0, "lon": -76.99488133333334, "is_disabled": 0, "lat": 38.86242633333333, "fusion_lat": 0.0, "is_reserved": 0, "rental_uris": {"android": "https://dc.lft.to/lastmile_qr_scan", "ios": "https://dc.lft.to/lastmile_qr_scan"}, "bike_id": "aecd5dcbe510641e3c6758626f084445"}, {"name": "fc91552a0054446ca3845cc9904fcffb", "type": "electric_scooter", "fusion_lon": 0.0, "lon": -76.9903965, "is_disabled": 0, "lat": 38.863893166666664, "fusion_lat": 0.0, "is_reserved": 0, "rental_uris": {"android": "https://dc.lft.to/lastmile_qr_scan", "ios": "https://dc.lft.to/lastmile_qr_scan"}, "bike_id": "fc91552a0054446ca3845cc9904fcffb"}, {"name": "5de68b7aa9ec78ab67d101099912cc33", "type": "electric_scooter", "fusion_lon": 0.0, "lon": -77.03488083333333, "is_disabled": 0, "lat": 38.909748, "fusion_lat": 0.0, "is_reserved": 0, "rental_uris": {"android": "https://dc.lft.to/lastmile_qr_scan", "ios": "https://dc.lft.to/lastmile_qr_scan"}, "bike_id": "5de68b7aa9ec78ab67d101099912cc33"}, {"name": "f32cab99144288898ae2e8b1dc6bef18", "type": "electric_scooter", "fusion_lon": 0.0, "lon": -77.0384255, "is_disabled": 0, "lat": 38.90273116666667, "fusion_lat": 0.0, "is_reserved": 0, "rental_uris": {"android": "https://dc.lft.to/lastmile_qr_scan", "ios": "https://dc.lft.to/lastmile_qr_scan"}, "bike_id": "f32cab99144288898ae2e8b1dc6bef18"}, {"name": "52184008fbb7dd1c19b92080ed2a2133", "type": "electric_scooter", "fusion_lon": 0.0, "lon": -77.04004483333334, "is_disabled": 0, "lat": 38.896355166666666, "fusion_lat": 0.0, "is_reserved": 0, "rental_uris": {"android": "https://dc.lft.to/lastmile_qr_scan", "ios": "https://dc.lft.to/lastmile_qr_scan"}, "bike_id": "52184008fbb7dd1c19b92080ed2a2133"}, {"name": "13c40a4f612bded2e73c244f211be3ae", "type": "electric_scooter", "fusion_lon": 0.0, "lon": -76.996019, "is_disabled": 0, "lat": 38.92847283333333, "fusion_lat": 0.0, "is_reserved": 0, "rental_uris": {"android": "https://dc.lft.to/lastmile_qr_scan", "ios": "https://dc.lft.to/lastmile_qr_scan"}, "bike_id": "13c40a4f612bded2e73c244f211be3ae"}, {"name": "0809889e068d867e5b922e1d025e5232", "type": "electric_scooter", "fusion_lon": 0.0, "lon": -76.99257283333333, "is_disabled": 0, "lat": 38.898123, "fusion_lat": 0.0, "is_reserved": 0, "rental_uris": {"android": "https://dc.lft.to/lastmile_qr_scan", "ios": "https://dc.lft.to/lastmile_qr_scan"}, "bike_id": "0809889e068d867e5b922e1d025e5232"}, {"name": "2e8ac7b8751105e0b8d06098981875e1", "type": "electric_scooter", "fusion_lon": 0.0, "lon": -77.04697316666666, "is_disabled": 0, "lat": 38.902420666666664, "fusion_lat": 0.0, "is_reserved": 0, "rental_uris": {"android": "https://dc.lft.to/lastmile_qr_scan", "ios": "https://dc.lft.to/lastmile_qr_scan"}, "bike_id": "2e8ac7b8751105e0b8d06098981875e1"}, {"name": "1a6627b10c9e365fa021bc055851d952", "type": "electric_scooter", "fusion_lon": 0.0, "lon": -77.01917733333333, "is_disabled": 0, "lat": 38.877101333333336, "fusion_lat": 0.0, "is_reserved": 0, "rental_uris": {"android": "https://dc.lft.to/lastmile_qr_scan", "ios": "https://dc.lft.to/lastmile_qr_scan"}, "bike_id": "1a6627b10c9e365fa021bc055851d952"}, {"name": "f589a35b9646cb166b218cec3c601b15", "type": "electric_scooter", "fusion_lon": 0.0, "lon": -77.0319075, "is_disabled": 0, "lat": 38.9132605, "fusion_lat": 0.0, "is_reserved": 0, "rental_uris": {"android": "https://dc.lft.to/lastmile_qr_scan", "ios": "https://dc.lft.to/lastmile_qr_scan"}, "bike_id": "f589a35b9646cb166b218cec3c601b15"}, {"name": "ecb269ca188d3a24dce72c45638bf8b8", "type": "electric_scooter", "fusion_lon": 0.0, "lon": -77.02317283333333, "is_disabled": 0, "lat": 38.92781683333333, "fusion_lat": 0.0, "is_reserved": 0, "rental_uris": {"android": "https://dc.lft.to/lastmile_qr_scan", "ios": "https://dc.lft.to/lastmile_qr_scan"}, "bike_id": "ecb269ca188d3a24dce72c45638bf8b8"}, {"name": "ed5b914bc2ffccceb5ca98c19b92a666", "type": "electric_scooter", "fusion_lon": 0.0, "lon": -77.02304966666667, "is_disabled": 0, "lat": 38.9265925, "fusion_lat": 0.0, "is_reserved": 0, "rental_uris": {"android": "https://dc.lft.to/lastmile_qr_scan", "ios": "https://dc.lft.to/lastmile_qr_scan"}, "bike_id": "ed5b914bc2ffccceb5ca98c19b92a666"}, {"name": "47098375f384e72d1117cacdf2bb71c8", "type": "electric_scooter", "fusion_lon": 0.0, "lon": -77.03288283333333, "is_disabled": 0, "lat": 38.9334505, "fusion_lat": 0.0, "is_reserved": 0, "rental_uris": {"android": "https://dc.lft.to/lastmile_qr_scan", "ios": "https://dc.lft.to/lastmile_qr_scan"}, "bike_id": "47098375f384e72d1117cacdf2bb71c8"}, {"name": "b4796671eeb2c7ddfbca4ab819104c99", "type": "electric_bike", "fusion_lon": 0.0, "lon": -76.9876875, "is_disabled": 0, "lat": 38.8576995, "fusion_lat": 0.0, "is_reserved": 0, "rental_uris": {"android": "https://dc.lft.to/lastmile_qr_scan", "ios": "https://dc.lft.to/lastmile_qr_scan"}, "bike_id": "b4796671eeb2c7ddfbca4ab819104c99"}, {"name": "710488ae200e95f0586c60452a1efca6", "type": "electric_scooter", "fusion_lon": 0.0, "lon": -77.05476033333333, "is_disabled": 0, "lat": 38.89733233333333, "fusion_lat": 0.0, "is_reserved": 0, "rental_uris": {"android": "https://dc.lft.to/lastmile_qr_scan", "ios": "https://dc.lft.to/lastmile_qr_scan"}, "bike_id": "710488ae200e95f0586c60452a1efca6"}, {"name": "a38cc62b4063f353818a48b8f9470608", "type": "electric_scooter", "fusion_lon": 0.0, "lon": -76.98019066666667, "is_disabled": 0, "lat": 38.90116833333333, "fusion_lat": 0.0, "is_reserved": 0, "rental_uris": {"android": "https://dc.lft.to/lastmile_qr_scan", "ios": "https://dc.lft.to/lastmile_qr_scan"}, "bike_id": "a38cc62b4063f353818a48b8f9470608"}, {"name": "b2532ba4f7778993ec28c29b37a0ecb5", "type": "electric_scooter", "fusion_lon": 0.0, "lon": -76.95422033333334, "is_disabled": 0, "lat": 38.8899215, "fusion_lat": 0.0, "is_reserved": 0, "rental_uris": {"android": "https://dc.lft.to/lastmile_qr_scan", "ios": "https://dc.lft.to/lastmile_qr_scan"}, "bike_id": "b2532ba4f7778993ec28c29b37a0ecb5"}, {"name": "b9f46e3e2843e2336e6df2e4128fb9ec", "type": "electric_scooter", "fusion_lon": 0.0, "lon": -77.04489683333334, "is_disabled": 0, "lat": 38.90878433333334, "fusion_lat": 0.0, "is_reserved": 0, "rental_uris": {"android": "https://dc.lft.to/lastmile_qr_scan", "ios": "https://dc.lft.to/lastmile_qr_scan"}, "bike_id": "b9f46e3e2843e2336e6df2e4128fb9ec"}, {"name": "9b0ea59daa73552a56ef497bcca08219", "type": "electric_bike", "fusion_lon": 0.0, "lon": -77.0379775, "is_disabled": 0, "lat": 38.99669883333333, "fusion_lat": 0.0, "is_reserved": 0, "rental_uris": {"android": "https://dc.lft.to/lastmile_qr_scan", "ios": "https://dc.lft.to/lastmile_qr_scan"}, "bike_id": "9b0ea59daa73552a56ef497bcca08219"}, {"name": "2c407c492e7e4af65e772c18b5c79eea", "type": "electric_scooter", "fusion_lon": 0.0, "lon": -77.0106715, "is_disabled": 0, "lat": 38.920292, "fusion_lat": 0.0, "is_reserved": 0, "rental_uris": {"android": "https://dc.lft.to/lastmile_qr_scan", "ios": "https://dc.lft.to/lastmile_qr_scan"}, "bike_id": "2c407c492e7e4af65e772c18b5c79eea"}, {"name": "e88fbfb5113c6fa6ad558cddca42782c", "type": "electric_scooter", "fusion_lon": 0.0, "lon": -77.0326465, "is_disabled": 0, "lat": 38.928651, "fusion_lat": 0.0, "is_reserved": 0, "rental_uris": {"android": "https://dc.lft.to/lastmile_qr_scan", "ios": "https://dc.lft.to/lastmile_qr_scan"}, "bike_id": "e88fbfb5113c6fa6ad558cddca42782c"}, {"name": "74f0888a22551d409791ffcfbfcdb4c5", "type": "electric_scooter", "fusion_lon": 0.0, "lon": -77.026944, "is_disabled": 0, "lat": 38.897568, "fusion_lat": 0.0, "is_reserved": 0, "rental_uris": {"android": "https://dc.lft.to/lastmile_qr_scan", "ios": "https://dc.lft.to/lastmile_qr_scan"}, "bike_id": "74f0888a22551d409791ffcfbfcdb4c5"}, {"name": "4b0a8c792ecba98bf21072337f1daa23", "type": "electric_scooter", "fusion_lon": 0.0, "lon": -77.04173383333334, "is_disabled": 0, "lat": 38.90124616666667, "fusion_lat": 0.0, "is_reserved": 0, "rental_uris": {"android": "https://dc.lft.to/lastmile_qr_scan", "ios": "https://dc.lft.to/lastmile_qr_scan"}, "bike_id": "4b0a8c792ecba98bf21072337f1daa23"}, {"name": "5fff985c0e1136c9ec6be70ee7a4347f", "type": "electric_bike", "fusion_lon": 0.0, "lon": -76.96373633333333, "is_disabled": 0, "lat": 38.948978833333335, "fusion_lat": 0.0, "is_reserved": 0, "rental_uris": {"android": "https://dc.lft.to/lastmile_qr_scan", "ios": "https://dc.lft.to/lastmile_qr_scan"}, "bike_id": "5fff985c0e1136c9ec6be70ee7a4347f"}, {"name": "0d8f811f6b648d219fd4d527932a15d4", "type": "electric_scooter", "fusion_lon": 0.0, "lon": -77.04837616666667, "is_disabled": 0, "lat": 38.91847166666667, "fusion_lat": 0.0, "is_reserved": 0, "rental_uris": {"android": "https://dc.lft.to/lastmile_qr_scan", "ios": "https://dc.lft.to/lastmile_qr_scan"}, "bike_id": "0d8f811f6b648d219fd4d527932a15d4"}, {"name": "3b171b9e8fcf2fd81957fa925752f44c", "type": "electric_scooter", "fusion_lon": 0.0, "lon": -77.04351116666666, "is_disabled": 0, "lat": 38.90473016666667, "fusion_lat": 0.0, "is_reserved": 0, "rental_uris": {"android": "https://dc.lft.to/lastmile_qr_scan", "ios": "https://dc.lft.to/lastmile_qr_scan"}, "bike_id": "3b171b9e8fcf2fd81957fa925752f44c"}, {"name": "977c2e45217f8c4c8c4e6b5b1685a77a", "type": "electric_scooter", "fusion_lon": 0.0, "lon": -77.0419575, "is_disabled": 0, "lat": 38.89223366666667, "fusion_lat": 0.0, "is_reserved": 0, "rental_uris": {"android": "https://dc.lft.to/lastmile_qr_scan", "ios": "https://dc.lft.to/lastmile_qr_scan"}, "bike_id": "977c2e45217f8c4c8c4e6b5b1685a77a"}, {"name": "f69ce2bbc83c0fce863c96ab2563289f", "type": "electric_scooter", "fusion_lon": 0.0, "lon": -77.03300466666667, "is_disabled": 0, "lat": 38.924498166666666, "fusion_lat": 0.0, "is_reserved": 0, "rental_uris": {"android": "https://dc.lft.to/lastmile_qr_scan", "ios": "https://dc.lft.to/lastmile_qr_scan"}, "bike_id": "f69ce2bbc83c0fce863c96ab2563289f"}, {"name": "acc69565b0d2868146d4cf08dcf740a9", "type": "electric_scooter", "fusion_lon": 0.0, "lon": -77.0467295, "is_disabled": 0, "lat": 38.8956285, "fusion_lat": 0.0, "is_reserved": 0, "rental_uris": {"android": "https://dc.lft.to/lastmile_qr_scan", "ios": "https://dc.lft.to/lastmile_qr_scan"}, "bike_id": "acc69565b0d2868146d4cf08dcf740a9"}, {"name": "19294b5c45d072526259d6923be049b3", "type": "electric_scooter", "fusion_lon": 0.0, "lon": -77.01949366666666, "is_disabled": 0, "lat": 38.92420366666666, "fusion_lat": 0.0, "is_reserved": 0, "rental_uris": {"android": "https://dc.lft.to/lastmile_qr_scan", "ios": "https://dc.lft.to/lastmile_qr_scan"}, "bike_id": "19294b5c45d072526259d6923be049b3"}, {"name": "0524a6afdbeebff7b5d288e198c43354", "type": "electric_scooter", "fusion_lon": 0.0, "lon": -77.031627, "is_disabled": 0, "lat": 38.89619183333333, "fusion_lat": 0.0, "is_reserved": 0, "rental_uris": {"android": "https://dc.lft.to/lastmile_qr_scan", "ios": "https://dc.lft.to/lastmile_qr_scan"}, "bike_id": "0524a6afdbeebff7b5d288e198c43354"}, {"name": "84d9d4a498eb4ac0aa9f979df251a565", "type": "electric_scooter", "fusion_lon": 0.0, "lon": -77.02680133333334, "is_disabled": 0, "lat": 38.95506783333333, "fusion_lat": 0.0, "is_reserved": 0, "rental_uris": {"android": "https://dc.lft.to/lastmile_qr_scan", "ios": "https://dc.lft.to/lastmile_qr_scan"}, "bike_id": "84d9d4a498eb4ac0aa9f979df251a565"}, {"name": "d7ae8ce8494c48628d790dd5b629370c", "type": "electric_bike", "fusion_lon": 0.0, "lon": -77.2293175, "is_disabled": 0, "lat": 38.931922166666666, "fusion_lat": 0.0, "is_reserved": 0, "rental_uris": {"android": "https://dc.lft.to/lastmile_qr_scan", "ios": "https://dc.lft.to/lastmile_qr_scan"}, "bike_id": "d7ae8ce8494c48628d790dd5b629370c"}, {"name": "dc28e8d1342033de7f1ad92b606ba229", "type": "electric_scooter", "fusion_lon": 0.0, "lon": -77.05110516666667, "is_disabled": 0, "lat": 38.8968365, "fusion_lat": 0.0, "is_reserved": 0, "rental_uris": {"android": "https://dc.lft.to/lastmile_qr_scan", "ios": "https://dc.lft.to/lastmile_qr_scan"}, "bike_id": "dc28e8d1342033de7f1ad92b606ba229"}, {"name": "836783d580e10f136641e87449e02c80", "type": "electric_scooter", "fusion_lon": 0.0, "lon": -77.060978, "is_disabled": 0, "lat": 38.9052615, "fusion_lat": 0.0, "is_reserved": 0, "rental_uris": {"android": "https://dc.lft.to/lastmile_qr_scan", "ios": "https://dc.lft.to/lastmile_qr_scan"}, "bike_id": "836783d580e10f136641e87449e02c80"}, {"name": "db8da71a863d617cae12acdae6b1854a", "type": "electric_scooter", "fusion_lon": 0.0, "lon": -77.011939, "is_disabled": 0, "lat": 38.927646333333335, "fusion_lat": 0.0, "is_reserved": 0, "rental_uris": {"android": "https://dc.lft.to/lastmile_qr_scan", "ios": "https://dc.lft.to/lastmile_qr_scan"}, "bike_id": "db8da71a863d617cae12acdae6b1854a"}, {"name": "6db1fb3a20bdc906b17e1f2e794eb402", "type": "electric_scooter", "fusion_lon": 0.0, "lon": -77.03211616666667, "is_disabled": 0, "lat": 38.91286483333333, "fusion_lat": 0.0, "is_reserved": 0, "rental_uris": {"android": "https://dc.lft.to/lastmile_qr_scan", "ios": "https://dc.lft.to/lastmile_qr_scan"}, "bike_id": "6db1fb3a20bdc906b17e1f2e794eb402"}, {"name": "77ae1b5a1df9a47d8c04949699fefa6e", "type": "electric_scooter", "fusion_lon": 0.0, "lon": -77.02479033333333, "is_disabled": 0, "lat": 38.88294283333333, "fusion_lat": 0.0, "is_reserved": 0, "rental_uris": {"android": "https://dc.lft.to/lastmile_qr_scan", "ios": "https://dc.lft.to/lastmile_qr_scan"}, "bike_id": "77ae1b5a1df9a47d8c04949699fefa6e"}, {"name": "3d7ad952d3b514625214faeaf6a18083", "type": "electric_scooter", "fusion_lon": 0.0, "lon": -77.01597616666666, "is_disabled": 0, "lat": 38.92713033333333, "fusion_lat": 0.0, "is_reserved": 0, "rental_uris": {"android": "https://dc.lft.to/lastmile_qr_scan", "ios": "https://dc.lft.to/lastmile_qr_scan"}, "bike_id": "3d7ad952d3b514625214faeaf6a18083"}, {"name": "48a0d0d8929587fa9d87fc3b6a77f3bf", "type": "electric_scooter", "fusion_lon": 0.0, "lon": -77.03346633333334, "is_disabled": 0, "lat": 38.89250966666667, "fusion_lat": 0.0, "is_reserved": 0, "rental_uris": {"android": "https://dc.lft.to/lastmile_qr_scan", "ios": "https://dc.lft.to/lastmile_qr_scan"}, "bike_id": "48a0d0d8929587fa9d87fc3b6a77f3bf"}, {"name": "68481b3e3efb4ebe9fc036e38371bdd0", "type": "electric_scooter", "fusion_lon": 0.0, "lon": -77.00686366666666, "is_disabled": 0, "lat": 38.899889333333334, "fusion_lat": 0.0, "is_reserved": 0, "rental_uris": {"android": "https://dc.lft.to/lastmile_qr_scan", "ios": "https://dc.lft.to/lastmile_qr_scan"}, "bike_id": "68481b3e3efb4ebe9fc036e38371bdd0"}, {"name": "bcfa70b432d277fac62d728080502ef8", "type": "electric_scooter", "fusion_lon": 0.0, "lon": -77.04354716666667, "is_disabled": 0, "lat": 38.9047355, "fusion_lat": 0.0, "is_reserved": 0, "rental_uris": {"android": "https://dc.lft.to/lastmile_qr_scan", "ios": "https://dc.lft.to/lastmile_qr_scan"}, "bike_id": "bcfa70b432d277fac62d728080502ef8"}, {"name": "b725f12b93bae38e6ea2088b747b262c", "type": "electric_scooter", "fusion_lon": 0.0, "lon": -77.01765766666666, "is_disabled": 0, "lat": 38.87220283333333, "fusion_lat": 0.0, "is_reserved": 0, "rental_uris": {"android": "https://dc.lft.to/lastmile_qr_scan", "ios": "https://dc.lft.to/lastmile_qr_scan"}, "bike_id": "b725f12b93bae38e6ea2088b747b262c"}, {"name": "eb0810b177f2e07e05ada5867adce74d", "type": "electric_scooter", "fusion_lon": 0.0, "lon": -77.03852816666667, "is_disabled": 0, "lat": 38.91665283333333, "fusion_lat": 0.0, "is_reserved": 0, "rental_uris": {"android": "https://dc.lft.to/lastmile_qr_scan", "ios": "https://dc.lft.to/lastmile_qr_scan"}, "bike_id": "eb0810b177f2e07e05ada5867adce74d"}, {"name": "3708e595d6df89d22360de6759d76073", "type": "electric_scooter", "fusion_lon": 0.0, "lon": -77.02414616666667, "is_disabled": 0, "lat": 38.892227, "fusion_lat": 0.0, "is_reserved": 0, "rental_uris": {"android": "https://dc.lft.to/lastmile_qr_scan", "ios": "https://dc.lft.to/lastmile_qr_scan"}, "bike_id": "3708e595d6df89d22360de6759d76073"}, {"name": "ffdfefd74c989ca34b1fad2f610bc5d5", "type": "electric_scooter", "fusion_lon": 0.0, "lon": -77.02725783333334, "is_disabled": 0, "lat": 38.95190566666667, "fusion_lat": 0.0, "is_reserved": 0, "rental_uris": {"android": "https://dc.lft.to/lastmile_qr_scan", "ios": "https://dc.lft.to/lastmile_qr_scan"}, "bike_id": "ffdfefd74c989ca34b1fad2f610bc5d5"}, {"name": "d645b861ff74ab84cc8deb2ae77f603c", "type": "electric_scooter", "fusion_lon": 0.0, "lon": -76.95757683333333, "is_disabled": 0, "lat": 38.88428016666667, "fusion_lat": 0.0, "is_reserved": 0, "rental_uris": {"android": "https://dc.lft.to/lastmile_qr_scan", "ios": "https://dc.lft.to/lastmile_qr_scan"}, "bike_id": "d645b861ff74ab84cc8deb2ae77f603c"}, {"name": "3810e521dab5a7fc1fe78231267f1f4f", "type": "electric_scooter", "fusion_lon": 0.0, "lon": -77.02384433333333, "is_disabled": 0, "lat": 38.909571666666665, "fusion_lat": 0.0, "is_reserved": 0, "rental_uris": {"android": "https://dc.lft.to/lastmile_qr_scan", "ios": "https://dc.lft.to/lastmile_qr_scan"}, "bike_id": "3810e521dab5a7fc1fe78231267f1f4f"}, {"name": "c58d54236e85931076291b2ddab0e7e3", "type": "electric_scooter", "fusion_lon": 0.0, "lon": -77.04027933333333, "is_disabled": 0, "lat": 38.91843516666667, "fusion_lat": 0.0, "is_reserved": 0, "rental_uris": {"android": "https://dc.lft.to/lastmile_qr_scan", "ios": "https://dc.lft.to/lastmile_qr_scan"}, "bike_id": "c58d54236e85931076291b2ddab0e7e3"}, {"name": "83c23f51959c21434ee4462785980541", "type": "electric_scooter", "fusion_lon": 0.0, "lon": -77.03430533333334, "is_disabled": 0, "lat": 38.90282666666667, "fusion_lat": 0.0, "is_reserved": 0, "rental_uris": {"android": "https://dc.lft.to/lastmile_qr_scan", "ios": "https://dc.lft.to/lastmile_qr_scan"}, "bike_id": "83c23f51959c21434ee4462785980541"}, {"name": "3e0e09975ac389937c453d2ef9043ab5", "type": "electric_scooter", "fusion_lon": 0.0, "lon": -77.022518, "is_disabled": 0, "lat": 38.896299, "fusion_lat": 0.0, "is_reserved": 0, "rental_uris": {"android": "https://dc.lft.to/lastmile_qr_scan", "ios": "https://dc.lft.to/lastmile_qr_scan"}, "bike_id": "3e0e09975ac389937c453d2ef9043ab5"}, {"name": "1d569dfe0144a2a601d51f681ec23ce5", "type": "electric_scooter", "fusion_lon": 0.0, "lon": -77.0048645, "is_disabled": 0, "lat": 38.874693, "fusion_lat": 0.0, "is_reserved": 0, "rental_uris": {"android": "https://dc.lft.to/lastmile_qr_scan", "ios": "https://dc.lft.to/lastmile_qr_scan"}, "bike_id": "1d569dfe0144a2a601d51f681ec23ce5"}, {"name": "8b1bee4124476dd185ca5d6482526d5b", "type": "electric_scooter", "fusion_lon": 0.0, "lon": -76.9491935, "is_disabled": 0, "lat": 38.89342933333333, "fusion_lat": 0.0, "is_reserved": 0, "rental_uris": {"android": "https://dc.lft.to/lastmile_qr_scan", "ios": "https://dc.lft.to/lastmile_qr_scan"}, "bike_id": "8b1bee4124476dd185ca5d6482526d5b"}, {"name": "584ec1f8875bcfe290eb58b77f4ae04a", "type": "electric_scooter", "fusion_lon": 0.0, "lon": -77.04525066666666, "is_disabled": 0, "lat": 38.92317766666667, "fusion_lat": 0.0, "is_reserved": 0, "rental_uris": {"android": "https://dc.lft.to/lastmile_qr_scan", "ios": "https://dc.lft.to/lastmile_qr_scan"}, "bike_id": "584ec1f8875bcfe290eb58b77f4ae04a"}, {"name": "fb037161102414bfb57adccbeddfc44f", "type": "electric_scooter", "fusion_lon": 0.0, "lon": -77.07190366666667, "is_disabled": 0, "lat": 38.9090945, "fusion_lat": 0.0, "is_reserved": 0, "rental_uris": {"android": "https://dc.lft.to/lastmile_qr_scan", "ios": "https://dc.lft.to/lastmile_qr_scan"}, "bike_id": "fb037161102414bfb57adccbeddfc44f"}, {"name": "f52670e5ecf6e428f7aa542b56cd0ed2", "type": "electric_scooter", "fusion_lon": 0.0, "lon": -77.032919, "is_disabled": 0, "lat": 38.9235405, "fusion_lat": 0.0, "is_reserved": 0, "rental_uris": {"android": "https://dc.lft.to/lastmile_qr_scan", "ios": "https://dc.lft.to/lastmile_qr_scan"}, "bike_id": "f52670e5ecf6e428f7aa542b56cd0ed2"}, {"name": "1bcb28b1fb51d5cf79fa4674a0ce40a5", "type": "electric_scooter", "fusion_lon": 0.0, "lon": -77.02135516666667, "is_disabled": 0, "lat": 38.92238283333333, "fusion_lat": 0.0, "is_reserved": 0, "rental_uris": {"android": "https://dc.lft.to/lastmile_qr_scan", "ios": "https://dc.lft.to/lastmile_qr_scan"}, "bike_id": "1bcb28b1fb51d5cf79fa4674a0ce40a5"}, {"name": "5f6f2f12c3138d153a6552acac1b1f7d", "type": "electric_scooter", "fusion_lon": 0.0, "lon": -77.0315655, "is_disabled": 0, "lat": 38.915614, "fusion_lat": 0.0, "is_reserved": 0, "rental_uris": {"android": "https://dc.lft.to/lastmile_qr_scan", "ios": "https://dc.lft.to/lastmile_qr_scan"}, "bike_id": "5f6f2f12c3138d153a6552acac1b1f7d"}, {"name": "b77e9a799399be74bdbf0c9d4682e0cf", "type": "electric_scooter", "fusion_lon": 0.0, "lon": -77.02865166666666, "is_disabled": 0, "lat": 38.91699366666667, "fusion_lat": 0.0, "is_reserved": 0, "rental_uris": {"android": "https://dc.lft.to/lastmile_qr_scan", "ios": "https://dc.lft.to/lastmile_qr_scan"}, "bike_id": "b77e9a799399be74bdbf0c9d4682e0cf"}, {"name": "c49a6ebffb1c20c6a8576ac07d45a76d", "type": "electric_scooter", "fusion_lon": 0.0, "lon": -76.94640633333333, "is_disabled": 0, "lat": 38.89860816666667, "fusion_lat": 0.0, "is_reserved": 0, "rental_uris": {"android": "https://dc.lft.to/lastmile_qr_scan", "ios": "https://dc.lft.to/lastmile_qr_scan"}, "bike_id": "c49a6ebffb1c20c6a8576ac07d45a76d"}, {"name": "9346cec540905965964b16d4c447f4f6", "type": "electric_scooter", "fusion_lon": 0.0, "lon": -77.0239335, "is_disabled": 0, "lat": 38.919745166666665, "fusion_lat": 0.0, "is_reserved": 0, "rental_uris": {"android": "https://dc.lft.to/lastmile_qr_scan", "ios": "https://dc.lft.to/lastmile_qr_scan"}, "bike_id": "9346cec540905965964b16d4c447f4f6"}, {"name": "2c9b60eb2bd26942e399a1625beeb37c", "type": "electric_scooter", "fusion_lon": 0.0, "lon": -77.043791, "is_disabled": 0, "lat": 38.89220866666667, "fusion_lat": 0.0, "is_reserved": 0, "rental_uris": {"android": "https://dc.lft.to/lastmile_qr_scan", "ios": "https://dc.lft.to/lastmile_qr_scan"}, "bike_id": "2c9b60eb2bd26942e399a1625beeb37c"}, {"name": "8c5c23bc70520a7938051526deaa4d81", "type": "electric_scooter", "fusion_lon": 0.0, "lon": -77.00225466666667, "is_disabled": 0, "lat": 38.925096, "fusion_lat": 0.0, "is_reserved": 0, "rental_uris": {"android": "https://dc.lft.to/lastmile_qr_scan", "ios": "https://dc.lft.to/lastmile_qr_scan"}, "bike_id": "8c5c23bc70520a7938051526deaa4d81"}, {"name": "6f58d5c90a95a0a9a1d16ffa625dab97", "type": "electric_scooter", "fusion_lon": 0.0, "lon": -76.97171016666667, "is_disabled": 0, "lat": 38.86136316666666, "fusion_lat": 0.0, "is_reserved": 0, "rental_uris": {"android": "https://dc.lft.to/lastmile_qr_scan", "ios": "https://dc.lft.to/lastmile_qr_scan"}, "bike_id": "6f58d5c90a95a0a9a1d16ffa625dab97"}, {"name": "c9f7129af4759817926f51cb8b43706e", "type": "electric_scooter", "fusion_lon": 0.0, "lon": -77.05295516666666, "is_disabled": 0, "lat": 38.905274666666664, "fusion_lat": 0.0, "is_reserved": 0, "rental_uris": {"android": "https://dc.lft.to/lastmile_qr_scan", "ios": "https://dc.lft.to/lastmile_qr_scan"}, "bike_id": "c9f7129af4759817926f51cb8b43706e"}, {"name": "1e2407a2df7b20540653ea9f2c7cfb9b", "type": "electric_scooter", "fusion_lon": 0.0, "lon": -77.02230966666667, "is_disabled": 0, "lat": 38.8922065, "fusion_lat": 0.0, "is_reserved": 0, "rental_uris": {"android": "https://dc.lft.to/lastmile_qr_scan", "ios": "https://dc.lft.to/lastmile_qr_scan"}, "bike_id": "1e2407a2df7b20540653ea9f2c7cfb9b"}, {"name": "462fa339034e5b8499b629b52f4e83c1", "type": "electric_scooter", "fusion_lon": 0.0, "lon": -77.05730816666667, "is_disabled": 0, "lat": 38.9336925, "fusion_lat": 0.0, "is_reserved": 0, "rental_uris": {"android": "https://dc.lft.to/lastmile_qr_scan", "ios": "https://dc.lft.to/lastmile_qr_scan"}, "bike_id": "462fa339034e5b8499b629b52f4e83c1"}, {"name": "6293d47ec87a04df84d8d7d8f0453667", "type": "electric_scooter", "fusion_lon": 0.0, "lon": -77.0262385, "is_disabled": 0, "lat": 38.933401333333336, "fusion_lat": 0.0, "is_reserved": 0, "rental_uris": {"android": "https://dc.lft.to/lastmile_qr_scan", "ios": "https://dc.lft.to/lastmile_qr_scan"}, "bike_id": "6293d47ec87a04df84d8d7d8f0453667"}, {"name": "cf949e4bee0a038492e916b479abcdd4", "type": "electric_scooter", "fusion_lon": 0.0, "lon": -77.0419695, "is_disabled": 0, "lat": 38.921003166666665, "fusion_lat": 0.0, "is_reserved": 0, "rental_uris": {"android": "https://dc.lft.to/lastmile_qr_scan", "ios": "https://dc.lft.to/lastmile_qr_scan"}, "bike_id": "cf949e4bee0a038492e916b479abcdd4"}, {"name": "518fa6c68b38dbd28d4818ecda9f2203", "type": "electric_scooter", "fusion_lon": 0.0, "lon": -77.03209433333333, "is_disabled": 0, "lat": 38.913493, "fusion_lat": 0.0, "is_reserved": 0, "rental_uris": {"android": "https://dc.lft.to/lastmile_qr_scan", "ios": "https://dc.lft.to/lastmile_qr_scan"}, "bike_id": "518fa6c68b38dbd28d4818ecda9f2203"}, {"name": "247f0b6f74e0c96af7c0710d76ebca50", "type": "electric_scooter", "fusion_lon": 0.0, "lon": -77.04474533333334, "is_disabled": 0, "lat": 38.918837333333336, "fusion_lat": 0.0, "is_reserved": 0, "rental_uris": {"android": "https://dc.lft.to/lastmile_qr_scan", "ios": "https://dc.lft.to/lastmile_qr_scan"}, "bike_id": "247f0b6f74e0c96af7c0710d76ebca50"}, {"name": "b49c2b6ced70747d6f11e55bc4017583", "type": "electric_scooter", "fusion_lon": 0.0, "lon": -77.02168116666667, "is_disabled": 0, "lat": 38.905710166666665, "fusion_lat": 0.0, "is_reserved": 0, "rental_uris": {"android": "https://dc.lft.to/lastmile_qr_scan", "ios": "https://dc.lft.to/lastmile_qr_scan"}, "bike_id": "b49c2b6ced70747d6f11e55bc4017583"}, {"name": "c3f17fd07e6252e1de4fbf2025f53321", "type": "electric_bike", "fusion_lon": 0.0, "lon": -77.1252565, "is_disabled": 0, "lat": 39.05635133333333, "fusion_lat": 0.0, "is_reserved": 0, "rental_uris": {"android": "https://dc.lft.to/lastmile_qr_scan", "ios": "https://dc.lft.to/lastmile_qr_scan"}, "bike_id": "c3f17fd07e6252e1de4fbf2025f53321"}, {"name": "7b82058a03dac2dbb1032e943bb1b331", "type": "electric_scooter", "fusion_lon": 0.0, "lon": -77.0416765, "is_disabled": 0, "lat": 38.9181585, "fusion_lat": 0.0, "is_reserved": 0, "rental_uris": {"android": "https://dc.lft.to/lastmile_qr_scan", "ios": "https://dc.lft.to/lastmile_qr_scan"}, "bike_id": "7b82058a03dac2dbb1032e943bb1b331"}, {"name": "5428f8ebf4a2f7416594d509c2e53e01", "type": "electric_scooter", "fusion_lon": 0.0, "lon": -77.02822, "is_disabled": 0, "lat": 38.89861233333333, "fusion_lat": 0.0, "is_reserved": 0, "rental_uris": {"android": "https://dc.lft.to/lastmile_qr_scan", "ios": "https://dc.lft.to/lastmile_qr_scan"}, "bike_id": "5428f8ebf4a2f7416594d509c2e53e01"}, {"name": "b28b64bd5e5c0754d25943c17bcc0ee4", "type": "electric_scooter", "fusion_lon": 0.0, "lon": -77.0376995, "is_disabled": 0, "lat": 38.93571016666667, "fusion_lat": 0.0, "is_reserved": 0, "rental_uris": {"android": "https://dc.lft.to/lastmile_qr_scan", "ios": "https://dc.lft.to/lastmile_qr_scan"}, "bike_id": "b28b64bd5e5c0754d25943c17bcc0ee4"}, {"name": "1d89cdd8bec136a6bc091c2b993dc2ce", "type": "electric_scooter", "fusion_lon": 0.0, "lon": -76.94639183333334, "is_disabled": 0, "lat": 38.89862683333333, "fusion_lat": 0.0, "is_reserved": 0, "rental_uris": {"android": "https://dc.lft.to/lastmile_qr_scan", "ios": "https://dc.lft.to/lastmile_qr_scan"}, "bike_id": "1d89cdd8bec136a6bc091c2b993dc2ce"}, {"name": "583bb7d7d9fde230f29424515e7c2c87", "type": "electric_scooter", "fusion_lon": 0.0, "lon": -76.994806, "is_disabled": 0, "lat": 38.900132, "fusion_lat": 0.0, "is_reserved": 0, "rental_uris": {"android": "https://dc.lft.to/lastmile_qr_scan", "ios": "https://dc.lft.to/lastmile_qr_scan"}, "bike_id": "583bb7d7d9fde230f29424515e7c2c87"}, {"name": "cb10913237fbc280e86130f9fe26ee47", "type": "electric_scooter", "fusion_lon": 0.0, "lon": -77.01358933333333, "is_disabled": 0, "lat": 38.8922045, "fusion_lat": 0.0, "is_reserved": 0, "rental_uris": {"android": "https://dc.lft.to/lastmile_qr_scan", "ios": "https://dc.lft.to/lastmile_qr_scan"}, "bike_id": "cb10913237fbc280e86130f9fe26ee47"}, {"name": "0e4d36a66d68a46eab284e21756ff03e", "type": "electric_scooter", "fusion_lon": 0.0, "lon": -77.039223, "is_disabled": 0, "lat": 38.912664166666666, "fusion_lat": 0.0, "is_reserved": 0, "rental_uris": {"android": "https://dc.lft.to/lastmile_qr_scan", "ios": "https://dc.lft.to/lastmile_qr_scan"}, "bike_id": "0e4d36a66d68a46eab284e21756ff03e"}, {"name": "cee86f1821f9ca9676585c1f99d3dcbb", "type": "electric_scooter", "fusion_lon": 0.0, "lon": -77.00339483333333, "is_disabled": 0, "lat": 38.899209166666665, "fusion_lat": 0.0, "is_reserved": 0, "rental_uris": {"android": "https://dc.lft.to/lastmile_qr_scan", "ios": "https://dc.lft.to/lastmile_qr_scan"}, "bike_id": "cee86f1821f9ca9676585c1f99d3dcbb"}, {"name": "11dd8fb5598ea3d466fdaef1c7f5ee83", "type": "electric_scooter", "fusion_lon": 0.0, "lon": -76.97547266666666, "is_disabled": 0, "lat": 38.903208, "fusion_lat": 0.0, "is_reserved": 0, "rental_uris": {"android": "https://dc.lft.to/lastmile_qr_scan", "ios": "https://dc.lft.to/lastmile_qr_scan"}, "bike_id": "11dd8fb5598ea3d466fdaef1c7f5ee83"}, {"name": "65d436e2a4add174ab1efeeea6f25a73", "type": "electric_scooter", "fusion_lon": 0.0, "lon": -76.986128, "is_disabled": 0, "lat": 38.88267483333333, "fusion_lat": 0.0, "is_reserved": 0, "rental_uris": {"android": "https://dc.lft.to/lastmile_qr_scan", "ios": "https://dc.lft.to/lastmile_qr_scan"}, "bike_id": "65d436e2a4add174ab1efeeea6f25a73"}, {"name": "e78600e3e2f88efee15ef094d6062b7a", "type": "electric_scooter", "fusion_lon": 0.0, "lon": -77.02669216666666, "is_disabled": 0, "lat": 38.92474166666667, "fusion_lat": 0.0, "is_reserved": 0, "rental_uris": {"android": "https://dc.lft.to/lastmile_qr_scan", "ios": "https://dc.lft.to/lastmile_qr_scan"}, "bike_id": "e78600e3e2f88efee15ef094d6062b7a"}, {"name": "fd183bc558af90a2f85877d904f14375", "type": "electric_scooter", "fusion_lon": 0.0, "lon": -77.03846433333334, "is_disabled": 0, "lat": 38.9029545, "fusion_lat": 0.0, "is_reserved": 0, "rental_uris": {"android": "https://dc.lft.to/lastmile_qr_scan", "ios": "https://dc.lft.to/lastmile_qr_scan"}, "bike_id": "fd183bc558af90a2f85877d904f14375"}, {"name": "5b7815e5fc4813ac1d612fdd11b2286c", "type": "electric_scooter", "fusion_lon": 0.0, "lon": -76.9856605, "is_disabled": 0, "lat": 38.8668375, "fusion_lat": 0.0, "is_reserved": 0, "rental_uris": {"android": "https://dc.lft.to/lastmile_qr_scan", "ios": "https://dc.lft.to/lastmile_qr_scan"}, "bike_id": "5b7815e5fc4813ac1d612fdd11b2286c"}, {"name": "ba2d0fd8c7a3b567e57e80f5799c85df", "type": "electric_scooter", "fusion_lon": 0.0, "lon": -77.0274695, "is_disabled": 0, "lat": 38.95405483333333, "fusion_lat": 0.0, "is_reserved": 0, "rental_uris": {"android": "https://dc.lft.to/lastmile_qr_scan", "ios": "https://dc.lft.to/lastmile_qr_scan"}, "bike_id": "ba2d0fd8c7a3b567e57e80f5799c85df"}, {"name": "66d2bd8e313ee0f3c6a24d01618c6981", "type": "electric_scooter", "fusion_lon": 0.0, "lon": -77.03369083333334, "is_disabled": 0, "lat": 38.89791916666667, "fusion_lat": 0.0, "is_reserved": 0, "rental_uris": {"android": "https://dc.lft.to/lastmile_qr_scan", "ios": "https://dc.lft.to/lastmile_qr_scan"}, "bike_id": "66d2bd8e313ee0f3c6a24d01618c6981"}, {"name": "75853cdcd9abf2840c5e98e1bf21db30", "type": "electric_scooter", "fusion_lon": 0.0, "lon": -77.00589466666666, "is_disabled": 0, "lat": 38.9055375, "fusion_lat": 0.0, "is_reserved": 0, "rental_uris": {"android": "https://dc.lft.to/lastmile_qr_scan", "ios": "https://dc.lft.to/lastmile_qr_scan"}, "bike_id": "75853cdcd9abf2840c5e98e1bf21db30"}, {"name": "b5483c758b02b3bda7988d7891b7679e", "type": "electric_bike", "fusion_lon": 0.0, "lon": -76.98087566666666, "is_disabled": 0, "lat": 38.9576455, "fusion_lat": 0.0, "is_reserved": 0, "rental_uris": {"android": "https://dc.lft.to/lastmile_qr_scan", "ios": "https://dc.lft.to/lastmile_qr_scan"}, "bike_id": "b5483c758b02b3bda7988d7891b7679e"}, {"name": "9e4184d2ba08e6eca3668f7f3c9845b0", "type": "electric_scooter", "fusion_lon": 0.0, "lon": -77.04179883333333, "is_disabled": 0, "lat": 38.908458, "fusion_lat": 0.0, "is_reserved": 0, "rental_uris": {"android": "https://dc.lft.to/lastmile_qr_scan", "ios": "https://dc.lft.to/lastmile_qr_scan"}, "bike_id": "9e4184d2ba08e6eca3668f7f3c9845b0"}, {"name": "9c9fc5c45c41cf2ce53d5702965eba87", "type": "electric_scooter", "fusion_lon": 0.0, "lon": -77.02830566666667, "is_disabled": 0, "lat": 38.91707733333333, "fusion_lat": 0.0, "is_reserved": 0, "rental_uris": {"android": "https://dc.lft.to/lastmile_qr_scan", "ios": "https://dc.lft.to/lastmile_qr_scan"}, "bike_id": "9c9fc5c45c41cf2ce53d5702965eba87"}, {"name": "dcadab70688db71017931879fefd10d2", "type": "electric_scooter", "fusion_lon": 0.0, "lon": -77.0209165, "is_disabled": 0, "lat": 38.930089, "fusion_lat": 0.0, "is_reserved": 0, "rental_uris": {"android": "https://dc.lft.to/lastmile_qr_scan", "ios": "https://dc.lft.to/lastmile_qr_scan"}, "bike_id": "dcadab70688db71017931879fefd10d2"}, {"name": "b0d4e773e4d8877f024bf548b2e0cdc4", "type": "electric_scooter", "fusion_lon": 0.0, "lon": -77.04247766666667, "is_disabled": 0, "lat": 38.9222295, "fusion_lat": 0.0, "is_reserved": 0, "rental_uris": {"android": "https://dc.lft.to/lastmile_qr_scan", "ios": "https://dc.lft.to/lastmile_qr_scan"}, "bike_id": "b0d4e773e4d8877f024bf548b2e0cdc4"}, {"name": "d024bc4a93a0a147d192797ec6364da1", "type": "electric_scooter", "fusion_lon": 0.0, "lon": -77.03848633333334, "is_disabled": 0, "lat": 38.912416666666665, "fusion_lat": 0.0, "is_reserved": 0, "rental_uris": {"android": "https://dc.lft.to/lastmile_qr_scan", "ios": "https://dc.lft.to/lastmile_qr_scan"}, "bike_id": "d024bc4a93a0a147d192797ec6364da1"}, {"name": "e8747fb8acb02460b1379f764c864429", "type": "electric_scooter", "fusion_lon": 0.0, "lon": -77.04695516666666, "is_disabled": 0, "lat": 38.8974435, "fusion_lat": 0.0, "is_reserved": 0, "rental_uris": {"android": "https://dc.lft.to/lastmile_qr_scan", "ios": "https://dc.lft.to/lastmile_qr_scan"}, "bike_id": "e8747fb8acb02460b1379f764c864429"}, {"name": "df1684632b22c2dbb4296868a124ad87", "type": "electric_scooter", "fusion_lon": 0.0, "lon": -77.04799433333334, "is_disabled": 0, "lat": 38.892217333333335, "fusion_lat": 0.0, "is_reserved": 0, "rental_uris": {"android": "https://dc.lft.to/lastmile_qr_scan", "ios": "https://dc.lft.to/lastmile_qr_scan"}, "bike_id": "df1684632b22c2dbb4296868a124ad87"}, {"name": "4d5e51e872a2be23588cb1031ed4392a", "type": "electric_bike", "fusion_lon": 0.0, "lon": -76.96901733333333, "is_disabled": 0, "lat": 38.959977, "fusion_lat": 0.0, "is_reserved": 0, "rental_uris": {"android": "https://dc.lft.to/lastmile_qr_scan", "ios": "https://dc.lft.to/lastmile_qr_scan"}, "bike_id": "4d5e51e872a2be23588cb1031ed4392a"}, {"name": "a588c33a871f7504c502fd8ff740535c", "type": "electric_scooter", "fusion_lon": 0.0, "lon": -77.01763516666666, "is_disabled": 0, "lat": 38.9025135, "fusion_lat": 0.0, "is_reserved": 0, "rental_uris": {"android": "https://dc.lft.to/lastmile_qr_scan", "ios": "https://dc.lft.to/lastmile_qr_scan"}, "bike_id": "a588c33a871f7504c502fd8ff740535c"}, {"name": "20fedec216badc3aa2df1bee962ff92d", "type": "electric_scooter", "fusion_lon": 0.0, "lon": -77.0107655, "is_disabled": 0, "lat": 38.909594, "fusion_lat": 0.0, "is_reserved": 0, "rental_uris": {"android": "https://dc.lft.to/lastmile_qr_scan", "ios": "https://dc.lft.to/lastmile_qr_scan"}, "bike_id": "20fedec216badc3aa2df1bee962ff92d"}, {"name": "41ccf2cf4fe899ef84ce5468ac81dd37", "type": "electric_scooter", "fusion_lon": 0.0, "lon": -77.014845, "is_disabled": 0, "lat": 38.91411466666667, "fusion_lat": 0.0, "is_reserved": 0, "rental_uris": {"android": "https://dc.lft.to/lastmile_qr_scan", "ios": "https://dc.lft.to/lastmile_qr_scan"}, "bike_id": "41ccf2cf4fe899ef84ce5468ac81dd37"}, {"name": "f03fc53fc13695a435594bacbf1fb052", "type": "electric_scooter", "fusion_lon": 0.0, "lon": -77.04187483333334, "is_disabled": 0, "lat": 38.906623, "fusion_lat": 0.0, "is_reserved": 0, "rental_uris": {"android": "https://dc.lft.to/lastmile_qr_scan", "ios": "https://dc.lft.to/lastmile_qr_scan"}, "bike_id": "f03fc53fc13695a435594bacbf1fb052"}, {"name": "ce6633b29a5cce48c9f4da59bd6a7949", "type": "electric_bike", "fusion_lon": 0.0, "lon": -76.97258033333334, "is_disabled": 0, "lat": 38.957460833333336, "fusion_lat": 0.0, "is_reserved": 0, "rental_uris": {"android": "https://dc.lft.to/lastmile_qr_scan", "ios": "https://dc.lft.to/lastmile_qr_scan"}, "bike_id": "ce6633b29a5cce48c9f4da59bd6a7949"}, {"name": "d867295fdb0b14507c4f83f9534ff899", "type": "electric_scooter", "fusion_lon": 0.0, "lon": -77.01989716666667, "is_disabled": 0, "lat": 38.88722833333333, "fusion_lat": 0.0, "is_reserved": 0, "rental_uris": {"android": "https://dc.lft.to/lastmile_qr_scan", "ios": "https://dc.lft.to/lastmile_qr_scan"}, "bike_id": "d867295fdb0b14507c4f83f9534ff899"}, {"name": "33cdc83bc2e66ab6ad5322f23bd7c390", "type": "electric_scooter", "fusion_lon": 0.0, "lon": -76.9302705, "is_disabled": 0, "lat": 38.90166816666667, "fusion_lat": 0.0, "is_reserved": 0, "rental_uris": {"android": "https://dc.lft.to/lastmile_qr_scan", "ios": "https://dc.lft.to/lastmile_qr_scan"}, "bike_id": "33cdc83bc2e66ab6ad5322f23bd7c390"}, {"name": "252ba94ebb936fb0580846ec4e1c8396", "type": "electric_scooter", "fusion_lon": 0.0, "lon": -77.083084, "is_disabled": 0, "lat": 38.92849483333333, "fusion_lat": 0.0, "is_reserved": 0, "rental_uris": {"android": "https://dc.lft.to/lastmile_qr_scan", "ios": "https://dc.lft.to/lastmile_qr_scan"}, "bike_id": "252ba94ebb936fb0580846ec4e1c8396"}, {"name": "55c5a7a0a2f1eed5204c45382744a620", "type": "electric_scooter", "fusion_lon": 0.0, "lon": -77.072545, "is_disabled": 0, "lat": 38.90774916666667, "fusion_lat": 0.0, "is_reserved": 0, "rental_uris": {"android": "https://dc.lft.to/lastmile_qr_scan", "ios": "https://dc.lft.to/lastmile_qr_scan"}, "bike_id": "55c5a7a0a2f1eed5204c45382744a620"}, {"name": "cb88f120c587b5a8b553f82b755a8659", "type": "electric_scooter", "fusion_lon": 0.0, "lon": -77.00145283333333, "is_disabled": 0, "lat": 38.87310516666667, "fusion_lat": 0.0, "is_reserved": 0, "rental_uris": {"android": "https://dc.lft.to/lastmile_qr_scan", "ios": "https://dc.lft.to/lastmile_qr_scan"}, "bike_id": "cb88f120c587b5a8b553f82b755a8659"}, {"name": "8eb9763d2e9dd3a4885b94144d87a9c2", "type": "electric_scooter", "fusion_lon": 0.0, "lon": -77.02631616666666, "is_disabled": 0, "lat": 38.89439566666667, "fusion_lat": 0.0, "is_reserved": 0, "rental_uris": {"android": "https://dc.lft.to/lastmile_qr_scan", "ios": "https://dc.lft.to/lastmile_qr_scan"}, "bike_id": "8eb9763d2e9dd3a4885b94144d87a9c2"}, {"name": "425404e6f02ac9631a1e59e928a8c1d5", "type": "electric_scooter", "fusion_lon": 0.0, "lon": -77.038608, "is_disabled": 0, "lat": 38.91776516666667, "fusion_lat": 0.0, "is_reserved": 0, "rental_uris": {"android": "https://dc.lft.to/lastmile_qr_scan", "ios": "https://dc.lft.to/lastmile_qr_scan"}, "bike_id": "425404e6f02ac9631a1e59e928a8c1d5"}, {"name": "55f548952c2bd32146668d15e49f3488", "type": "electric_scooter", "fusion_lon": 0.0, "lon": -77.0321945, "is_disabled": 0, "lat": 38.92592233333333, "fusion_lat": 0.0, "is_reserved": 0, "rental_uris": {"android": "https://dc.lft.to/lastmile_qr_scan", "ios": "https://dc.lft.to/lastmile_qr_scan"}, "bike_id": "55f548952c2bd32146668d15e49f3488"}, {"name": "292d0275e02865cb32425b898eb99b7b", "type": "electric_bike", "fusion_lon": 0.0, "lon": -76.95441366666667, "is_disabled": 0, "lat": 38.9533075, "fusion_lat": 0.0, "is_reserved": 0, "rental_uris": {"android": "https://dc.lft.to/lastmile_qr_scan", "ios": "https://dc.lft.to/lastmile_qr_scan"}, "bike_id": "292d0275e02865cb32425b898eb99b7b"}, {"name": "a84d211184e1834edad53da7607d344b", "type": "electric_scooter", "fusion_lon": 0.0, "lon": -77.02471533333333, "is_disabled": 0, "lat": 38.930978833333334, "fusion_lat": 0.0, "is_reserved": 0, "rental_uris": {"android": "https://dc.lft.to/lastmile_qr_scan", "ios": "https://dc.lft.to/lastmile_qr_scan"}, "bike_id": "a84d211184e1834edad53da7607d344b"}, {"name": "33464734cdf11bdd6ee7a4da7c53497f", "type": "electric_scooter", "fusion_lon": 0.0, "lon": -77.00609583333333, "is_disabled": 0, "lat": 38.871806666666664, "fusion_lat": 0.0, "is_reserved": 0, "rental_uris": {"android": "https://dc.lft.to/lastmile_qr_scan", "ios": "https://dc.lft.to/lastmile_qr_scan"}, "bike_id": "33464734cdf11bdd6ee7a4da7c53497f"}, {"name": "aa6c59e967585cbc3aea695f62ca6a33", "type": "electric_scooter", "fusion_lon": 0.0, "lon": -77.0223985, "is_disabled": 0, "lat": 38.981081833333334, "fusion_lat": 0.0, "is_reserved": 0, "rental_uris": {"android": "https://dc.lft.to/lastmile_qr_scan", "ios": "https://dc.lft.to/lastmile_qr_scan"}, "bike_id": "aa6c59e967585cbc3aea695f62ca6a33"}, {"name": "eff919db354027e7d787ee57a4277733", "type": "electric_bike", "fusion_lon": 0.0, "lon": -76.97235333333333, "is_disabled": 0, "lat": 38.90427066666667, "fusion_lat": 0.0, "is_reserved": 0, "rental_uris": {"android": "https://dc.lft.to/lastmile_qr_scan", "ios": "https://dc.lft.to/lastmile_qr_scan"}, "bike_id": "eff919db354027e7d787ee57a4277733"}, {"name": "68cfa6fef8f68687e1fb6e10e156f243", "type": "electric_scooter", "fusion_lon": 0.0, "lon": -77.0244965, "is_disabled": 0, "lat": 38.900698166666665, "fusion_lat": 0.0, "is_reserved": 0, "rental_uris": {"android": "https://dc.lft.to/lastmile_qr_scan", "ios": "https://dc.lft.to/lastmile_qr_scan"}, "bike_id": "68cfa6fef8f68687e1fb6e10e156f243"}, {"name": "f67333400ad9bb760f3e3f26aa55619f", "type": "electric_bike", "fusion_lon": 0.0, "lon": -76.958364, "is_disabled": 0, "lat": 38.930473666666664, "fusion_lat": 0.0, "is_reserved": 0, "rental_uris": {"android": "https://dc.lft.to/lastmile_qr_scan", "ios": "https://dc.lft.to/lastmile_qr_scan"}, "bike_id": "f67333400ad9bb760f3e3f26aa55619f"}, {"name": "ff4832cbe0edd022bb2dd36f9dedae71", "type": "electric_scooter", "fusion_lon": 0.0, "lon": -77.02830133333333, "is_disabled": 0, "lat": 38.893646, "fusion_lat": 0.0, "is_reserved": 0, "rental_uris": {"android": "https://dc.lft.to/lastmile_qr_scan", "ios": "https://dc.lft.to/lastmile_qr_scan"}, "bike_id": "ff4832cbe0edd022bb2dd36f9dedae71"}, {"name": "bdec10c1a74011e9adadc80b34063464", "type": "electric_scooter", "fusion_lon": 0.0, "lon": -77.03201916666667, "is_disabled": 0, "lat": 38.913531166666665, "fusion_lat": 0.0, "is_reserved": 0, "rental_uris": {"android": "https://dc.lft.to/lastmile_qr_scan", "ios": "https://dc.lft.to/lastmile_qr_scan"}, "bike_id": "bdec10c1a74011e9adadc80b34063464"}, {"name": "d0282be5c10a8386ca22d7e01918fc22", "type": "electric_scooter", "fusion_lon": 0.0, "lon": -77.03228516666667, "is_disabled": 0, "lat": 38.914052166666664, "fusion_lat": 0.0, "is_reserved": 0, "rental_uris": {"android": "https://dc.lft.to/lastmile_qr_scan", "ios": "https://dc.lft.to/lastmile_qr_scan"}, "bike_id": "d0282be5c10a8386ca22d7e01918fc22"}, {"name": "499ec14e8d97446fadfd442d83f24fb2", "type": "electric_bike", "fusion_lon": 0.0, "lon": -77.09965716666666, "is_disabled": 0, "lat": 38.857878666666664, "fusion_lat": 0.0, "is_reserved": 0, "rental_uris": {"android": "https://dc.lft.to/lastmile_qr_scan", "ios": "https://dc.lft.to/lastmile_qr_scan"}, "bike_id": "499ec14e8d97446fadfd442d83f24fb2"}, {"name": "0cd2fe8bc3d1d948115d671616458ad4", "type": "electric_bike", "fusion_lon": 0.0, "lon": -77.04530983333333, "is_disabled": 0, "lat": 39.033051, "fusion_lat": 0.0, "is_reserved": 0, "rental_uris": {"android": "https://dc.lft.to/lastmile_qr_scan", "ios": "https://dc.lft.to/lastmile_qr_scan"}, "bike_id": "0cd2fe8bc3d1d948115d671616458ad4"}, {"name": "833dea7a606a79a0925d4cbd0ce57af8", "type": "electric_scooter", "fusion_lon": 0.0, "lon": -77.04303683333333, "is_disabled": 0, "lat": 38.923288, "fusion_lat": 0.0, "is_reserved": 0, "rental_uris": {"android": "https://dc.lft.to/lastmile_qr_scan", "ios": "https://dc.lft.to/lastmile_qr_scan"}, "bike_id": "833dea7a606a79a0925d4cbd0ce57af8"}, {"name": "270314ddfa2ae238da896f50af342325", "type": "electric_scooter", "fusion_lon": 0.0, "lon": -77.0288765, "is_disabled": 0, "lat": 38.923318, "fusion_lat": 0.0, "is_reserved": 0, "rental_uris": {"android": "https://dc.lft.to/lastmile_qr_scan", "ios": "https://dc.lft.to/lastmile_qr_scan"}, "bike_id": "270314ddfa2ae238da896f50af342325"}, {"name": "52d4bc174fd8f5520d25a91ac188113c", "type": "electric_scooter", "fusion_lon": 0.0, "lon": -77.03263333333334, "is_disabled": 0, "lat": 38.933505333333336, "fusion_lat": 0.0, "is_reserved": 0, "rental_uris": {"android": "https://dc.lft.to/lastmile_qr_scan", "ios": "https://dc.lft.to/lastmile_qr_scan"}, "bike_id": "52d4bc174fd8f5520d25a91ac188113c"}, {"name": "b3456944239d4808151a5afdd6ca6cf1", "type": "electric_scooter", "fusion_lon": 0.0, "lon": -77.02798966666667, "is_disabled": 0, "lat": 38.89929633333333, "fusion_lat": 0.0, "is_reserved": 0, "rental_uris": {"android": "https://dc.lft.to/lastmile_qr_scan", "ios": "https://dc.lft.to/lastmile_qr_scan"}, "bike_id": "b3456944239d4808151a5afdd6ca6cf1"}, {"name": "e9d4b38f3784e8f267da06412ce66003", "type": "electric_scooter", "fusion_lon": 0.0, "lon": -77.02114566666667, "is_disabled": 0, "lat": 38.899849, "fusion_lat": 0.0, "is_reserved": 0, "rental_uris": {"android": "https://dc.lft.to/lastmile_qr_scan", "ios": "https://dc.lft.to/lastmile_qr_scan"}, "bike_id": "e9d4b38f3784e8f267da06412ce66003"}, {"name": "765fb3ff6695903fd9613d868d646104", "type": "electric_scooter", "fusion_lon": 0.0, "lon": -77.04353616666667, "is_disabled": 0, "lat": 38.9056895, "fusion_lat": 0.0, "is_reserved": 0, "rental_uris": {"android": "https://dc.lft.to/lastmile_qr_scan", "ios": "https://dc.lft.to/lastmile_qr_scan"}, "bike_id": "765fb3ff6695903fd9613d868d646104"}, {"name": "13d8056ef2fadb1ae6274ec7a4913e54", "type": "electric_scooter", "fusion_lon": 0.0, "lon": -77.03355516666667, "is_disabled": 0, "lat": 38.9254075, "fusion_lat": 0.0, "is_reserved": 0, "rental_uris": {"android": "https://dc.lft.to/lastmile_qr_scan", "ios": "https://dc.lft.to/lastmile_qr_scan"}, "bike_id": "13d8056ef2fadb1ae6274ec7a4913e54"}, {"name": "88fec933b2424f770f44cf4a408b8030", "type": "electric_scooter", "fusion_lon": 0.0, "lon": -76.97330366666667, "is_disabled": 0, "lat": 38.904112, "fusion_lat": 0.0, "is_reserved": 0, "rental_uris": {"android": "https://dc.lft.to/lastmile_qr_scan", "ios": "https://dc.lft.to/lastmile_qr_scan"}, "bike_id": "88fec933b2424f770f44cf4a408b8030"}, {"name": "a4983496295f248fca40798df6de0dcd", "type": "electric_scooter", "fusion_lon": 0.0, "lon": -77.03250983333334, "is_disabled": 0, "lat": 38.927290166666666, "fusion_lat": 0.0, "is_reserved": 0, "rental_uris": {"android": "https://dc.lft.to/lastmile_qr_scan", "ios": "https://dc.lft.to/lastmile_qr_scan"}, "bike_id": "a4983496295f248fca40798df6de0dcd"}, {"name": "455c84d11ad1498bdd671f1e0db4af42", "type": "electric_scooter", "fusion_lon": 0.0, "lon": -77.0222525, "is_disabled": 0, "lat": 38.901608333333336, "fusion_lat": 0.0, "is_reserved": 0, "rental_uris": {"android": "https://dc.lft.to/lastmile_qr_scan", "ios": "https://dc.lft.to/lastmile_qr_scan"}, "bike_id": "455c84d11ad1498bdd671f1e0db4af42"}, {"name": "fe675bf214a6d4a35192f0cfac5c2e1d", "type": "electric_scooter", "fusion_lon": 0.0, "lon": -77.04449916666667, "is_disabled": 0, "lat": 38.90566833333333, "fusion_lat": 0.0, "is_reserved": 0, "rental_uris": {"android": "https://dc.lft.to/lastmile_qr_scan", "ios": "https://dc.lft.to/lastmile_qr_scan"}, "bike_id": "fe675bf214a6d4a35192f0cfac5c2e1d"}, {"name": "9e3bb46c596112e5217cc643434205c0", "type": "electric_scooter", "fusion_lon": 0.0, "lon": -76.99409816666666, "is_disabled": 0, "lat": 38.877835833333336, "fusion_lat": 0.0, "is_reserved": 0, "rental_uris": {"android": "https://dc.lft.to/lastmile_qr_scan", "ios": "https://dc.lft.to/lastmile_qr_scan"}, "bike_id": "9e3bb46c596112e5217cc643434205c0"}, {"name": "674b1d74b4a92f1e72977c8a0d18937d", "type": "electric_scooter", "fusion_lon": 0.0, "lon": -77.03659066666667, "is_disabled": 0, "lat": 38.9224435, "fusion_lat": 0.0, "is_reserved": 0, "rental_uris": {"android": "https://dc.lft.to/lastmile_qr_scan", "ios": "https://dc.lft.to/lastmile_qr_scan"}, "bike_id": "674b1d74b4a92f1e72977c8a0d18937d"}, {"name": "70b0e26956c33e750e9d10b219c76f2d", "type": "electric_scooter", "fusion_lon": 0.0, "lon": -77.04799866666667, "is_disabled": 0, "lat": 38.89626533333333, "fusion_lat": 0.0, "is_reserved": 0, "rental_uris": {"android": "https://dc.lft.to/lastmile_qr_scan", "ios": "https://dc.lft.to/lastmile_qr_scan"}, "bike_id": "70b0e26956c33e750e9d10b219c76f2d"}, {"name": "aee35415a705edcddfb4390c2c2a356a", "type": "electric_scooter", "fusion_lon": 0.0, "lon": -77.05742016666666, "is_disabled": 0, "lat": 38.933898166666665, "fusion_lat": 0.0, "is_reserved": 0, "rental_uris": {"android": "https://dc.lft.to/lastmile_qr_scan", "ios": "https://dc.lft.to/lastmile_qr_scan"}, "bike_id": "aee35415a705edcddfb4390c2c2a356a"}, {"name": "24bb0e9d445885aa95751553e2c7cc71", "type": "electric_scooter", "fusion_lon": 0.0, "lon": -76.98386533333333, "is_disabled": 0, "lat": 38.866709, "fusion_lat": 0.0, "is_reserved": 0, "rental_uris": {"android": "https://dc.lft.to/lastmile_qr_scan", "ios": "https://dc.lft.to/lastmile_qr_scan"}, "bike_id": "24bb0e9d445885aa95751553e2c7cc71"}, {"name": "155a3d969e70fed92f85a2d314fd21a8", "type": "electric_bike", "fusion_lon": 0.0, "lon": -76.99247616666666, "is_disabled": 0, "lat": 38.79470366666666, "fusion_lat": 0.0, "is_reserved": 0, "rental_uris": {"android": "https://dc.lft.to/lastmile_qr_scan", "ios": "https://dc.lft.to/lastmile_qr_scan"}, "bike_id": "155a3d969e70fed92f85a2d314fd21a8"}, {"name": "172e0f686607d83e72dd23d47a9b4b27", "type": "electric_scooter", "fusion_lon": 0.0, "lon": -77.031312, "is_disabled": 0, "lat": 38.916989666666666, "fusion_lat": 0.0, "is_reserved": 0, "rental_uris": {"android": "https://dc.lft.to/lastmile_qr_scan", "ios": "https://dc.lft.to/lastmile_qr_scan"}, "bike_id": "172e0f686607d83e72dd23d47a9b4b27"}, {"name": "db9e1ca4ca86327036204d9811ceafa4", "type": "electric_scooter", "fusion_lon": 0.0, "lon": -77.02416566666666, "is_disabled": 0, "lat": 38.908503333333336, "fusion_lat": 0.0, "is_reserved": 0, "rental_uris": {"android": "https://dc.lft.to/lastmile_qr_scan", "ios": "https://dc.lft.to/lastmile_qr_scan"}, "bike_id": "db9e1ca4ca86327036204d9811ceafa4"}, {"name": "6792a73ffd7d0b83c2bd3b6dc8cf9f4e", "type": "electric_scooter", "fusion_lon": 0.0, "lon": -77.03987566666666, "is_disabled": 0, "lat": 38.90854383333333, "fusion_lat": 0.0, "is_reserved": 0, "rental_uris": {"android": "https://dc.lft.to/lastmile_qr_scan", "ios": "https://dc.lft.to/lastmile_qr_scan"}, "bike_id": "6792a73ffd7d0b83c2bd3b6dc8cf9f4e"}, {"name": "8034e83138e494fc908987317b7272a9", "type": "electric_scooter", "fusion_lon": 0.0, "lon": -77.02021316666666, "is_disabled": 0, "lat": 38.9216915, "fusion_lat": 0.0, "is_reserved": 0, "rental_uris": {"android": "https://dc.lft.to/lastmile_qr_scan", "ios": "https://dc.lft.to/lastmile_qr_scan"}, "bike_id": "8034e83138e494fc908987317b7272a9"}, {"name": "41acaf817d97ca01fbcbbea1ae6e7607", "type": "electric_scooter", "fusion_lon": 0.0, "lon": -76.98547166666667, "is_disabled": 0, "lat": 38.866875, "fusion_lat": 0.0, "is_reserved": 0, "rental_uris": {"android": "https://dc.lft.to/lastmile_qr_scan", "ios": "https://dc.lft.to/lastmile_qr_scan"}, "bike_id": "41acaf817d97ca01fbcbbea1ae6e7607"}, {"name": "9956d0d869c345ad185e013913ba28b8", "type": "electric_scooter", "fusion_lon": 0.0, "lon": -77.02716516666666, "is_disabled": 0, "lat": 38.916904833333334, "fusion_lat": 0.0, "is_reserved": 0, "rental_uris": {"android": "https://dc.lft.to/lastmile_qr_scan", "ios": "https://dc.lft.to/lastmile_qr_scan"}, "bike_id": "9956d0d869c345ad185e013913ba28b8"}, {"name": "a7f006f7142700126328a0b0e1926905", "type": "electric_scooter", "fusion_lon": 0.0, "lon": -77.00928516666667, "is_disabled": 0, "lat": 38.89605566666667, "fusion_lat": 0.0, "is_reserved": 0, "rental_uris": {"android": "https://dc.lft.to/lastmile_qr_scan", "ios": "https://dc.lft.to/lastmile_qr_scan"}, "bike_id": "a7f006f7142700126328a0b0e1926905"}, {"name": "a4a5c05f824f2f371b2b30e746c4ab01", "type": "electric_bike", "fusion_lon": 0.0, "lon": -77.01425766666667, "is_disabled": 0, "lat": 38.97219283333333, "fusion_lat": 0.0, "is_reserved": 0, "rental_uris": {"android": "https://dc.lft.to/lastmile_qr_scan", "ios": "https://dc.lft.to/lastmile_qr_scan"}, "bike_id": "a4a5c05f824f2f371b2b30e746c4ab01"}, {"name": "0baf7d21f1a19e329f0bcd4f1b7476ab", "type": "electric_scooter", "fusion_lon": 0.0, "lon": -77.07698066666667, "is_disabled": 0, "lat": 38.9438775, "fusion_lat": 0.0, "is_reserved": 0, "rental_uris": {"android": "https://dc.lft.to/lastmile_qr_scan", "ios": "https://dc.lft.to/lastmile_qr_scan"}, "bike_id": "0baf7d21f1a19e329f0bcd4f1b7476ab"}, {"name": "671b966effa6f789b65e016f083004e7", "type": "electric_scooter", "fusion_lon": 0.0, "lon": -77.00176916666666, "is_disabled": 0, "lat": 38.8750005, "fusion_lat": 0.0, "is_reserved": 0, "rental_uris": {"android": "https://dc.lft.to/lastmile_qr_scan", "ios": "https://dc.lft.to/lastmile_qr_scan"}, "bike_id": "671b966effa6f789b65e016f083004e7"}, {"name": "3aba71b46368b8c934fef027b295b675", "type": "electric_scooter", "fusion_lon": 0.0, "lon": -77.03034633333333, "is_disabled": 0, "lat": 38.93123666666666, "fusion_lat": 0.0, "is_reserved": 0, "rental_uris": {"android": "https://dc.lft.to/lastmile_qr_scan", "ios": "https://dc.lft.to/lastmile_qr_scan"}, "bike_id": "3aba71b46368b8c934fef027b295b675"}, {"name": "5d43787698ef6aae6ba27acde68f750d", "type": "electric_scooter", "fusion_lon": 0.0, "lon": -77.0265555, "is_disabled": 0, "lat": 38.9169855, "fusion_lat": 0.0, "is_reserved": 0, "rental_uris": {"android": "https://dc.lft.to/lastmile_qr_scan", "ios": "https://dc.lft.to/lastmile_qr_scan"}, "bike_id": "5d43787698ef6aae6ba27acde68f750d"}, {"name": "1eb9ff4f4daf0b609b73c9922fa152f8", "type": "electric_scooter", "fusion_lon": 0.0, "lon": -76.96682383333334, "is_disabled": 0, "lat": 38.85600566666667, "fusion_lat": 0.0, "is_reserved": 0, "rental_uris": {"android": "https://dc.lft.to/lastmile_qr_scan", "ios": "https://dc.lft.to/lastmile_qr_scan"}, "bike_id": "1eb9ff4f4daf0b609b73c9922fa152f8"}, {"name": "f8b11d51e1170af540405bc29a2c2ce2", "type": "electric_scooter", "fusion_lon": 0.0, "lon": -77.032141, "is_disabled": 0, "lat": 38.91351316666667, "fusion_lat": 0.0, "is_reserved": 0, "rental_uris": {"android": "https://dc.lft.to/lastmile_qr_scan", "ios": "https://dc.lft.to/lastmile_qr_scan"}, "bike_id": "f8b11d51e1170af540405bc29a2c2ce2"}, {"name": "9cdb5340a06dc0b6453a9ab6738b3505", "type": "electric_scooter", "fusion_lon": 0.0, "lon": -77.01200666666666, "is_disabled": 0, "lat": 38.8968485, "fusion_lat": 0.0, "is_reserved": 0, "rental_uris": {"android": "https://dc.lft.to/lastmile_qr_scan", "ios": "https://dc.lft.to/lastmile_qr_scan"}, "bike_id": "9cdb5340a06dc0b6453a9ab6738b3505"}, {"name": "0623eeed95a64fc573e0bf6e67116dfe", "type": "electric_scooter", "fusion_lon": 0.0, "lon": -77.0262295, "is_disabled": 0, "lat": 38.900228166666665, "fusion_lat": 0.0, "is_reserved": 0, "rental_uris": {"android": "https://dc.lft.to/lastmile_qr_scan", "ios": "https://dc.lft.to/lastmile_qr_scan"}, "bike_id": "0623eeed95a64fc573e0bf6e67116dfe"}, {"name": "3d3338b1ad4ebe605dc4e99d13a0e3da", "type": "electric_scooter", "fusion_lon": 0.0, "lon": -77.02291516666666, "is_disabled": 0, "lat": 38.897078, "fusion_lat": 0.0, "is_reserved": 0, "rental_uris": {"android": "https://dc.lft.to/lastmile_qr_scan", "ios": "https://dc.lft.to/lastmile_qr_scan"}, "bike_id": "3d3338b1ad4ebe605dc4e99d13a0e3da"}, {"name": "954c66b42d6cc0533503f8cb262e9036", "type": "electric_scooter", "fusion_lon": 0.0, "lon": -77.00350916666666, "is_disabled": 0, "lat": 38.894631833333335, "fusion_lat": 0.0, "is_reserved": 0, "rental_uris": {"android": "https://dc.lft.to/lastmile_qr_scan", "ios": "https://dc.lft.to/lastmile_qr_scan"}, "bike_id": "954c66b42d6cc0533503f8cb262e9036"}, {"name": "34a7d27dc1773a2104cd8a3497c53f0a", "type": "electric_bike", "fusion_lon": 0.0, "lon": -76.97859866666667, "is_disabled": 0, "lat": 38.84468716666667, "fusion_lat": 0.0, "is_reserved": 0, "rental_uris": {"android": "https://dc.lft.to/lastmile_qr_scan", "ios": "https://dc.lft.to/lastmile_qr_scan"}, "bike_id": "34a7d27dc1773a2104cd8a3497c53f0a"}, {"name": "122d7382f50cdca9f65120c861de4003", "type": "electric_scooter", "fusion_lon": 0.0, "lon": -77.02080633333334, "is_disabled": 0, "lat": 38.90190833333333, "fusion_lat": 0.0, "is_reserved": 0, "rental_uris": {"android": "https://dc.lft.to/lastmile_qr_scan", "ios": "https://dc.lft.to/lastmile_qr_scan"}, "bike_id": "122d7382f50cdca9f65120c861de4003"}, {"name": "d110466d6d4c4720ddf48373c8d5444e", "type": "electric_scooter", "fusion_lon": 0.0, "lon": -77.03561366666666, "is_disabled": 0, "lat": 38.90148966666667, "fusion_lat": 0.0, "is_reserved": 0, "rental_uris": {"android": "https://dc.lft.to/lastmile_qr_scan", "ios": "https://dc.lft.to/lastmile_qr_scan"}, "bike_id": "d110466d6d4c4720ddf48373c8d5444e"}, {"name": "dedda3fca022620c61a9d2e79120411a", "type": "electric_scooter", "fusion_lon": 0.0, "lon": -77.027124, "is_disabled": 0, "lat": 38.906733333333335, "fusion_lat": 0.0, "is_reserved": 0, "rental_uris": {"android": "https://dc.lft.to/lastmile_qr_scan", "ios": "https://dc.lft.to/lastmile_qr_scan"}, "bike_id": "dedda3fca022620c61a9d2e79120411a"}, {"name": "1c7bcfe1d404273729c37188a9b835e2", "type": "electric_scooter", "fusion_lon": 0.0, "lon": -77.05466783333334, "is_disabled": 0, "lat": 38.908683333333336, "fusion_lat": 0.0, "is_reserved": 0, "rental_uris": {"android": "https://dc.lft.to/lastmile_qr_scan", "ios": "https://dc.lft.to/lastmile_qr_scan"}, "bike_id": "1c7bcfe1d404273729c37188a9b835e2"}, {"name": "7452e24aa1f4f45291a234a7a4e710d1", "type": "electric_scooter", "fusion_lon": 0.0, "lon": -77.00417916666666, "is_disabled": 0, "lat": 38.877087833333334, "fusion_lat": 0.0, "is_reserved": 0, "rental_uris": {"android": "https://dc.lft.to/lastmile_qr_scan", "ios": "https://dc.lft.to/lastmile_qr_scan"}, "bike_id": "7452e24aa1f4f45291a234a7a4e710d1"}, {"name": "6640f3b002cadcacfbd8896c01740d28", "type": "electric_scooter", "fusion_lon": 0.0, "lon": -76.979798, "is_disabled": 0, "lat": 38.897444166666666, "fusion_lat": 0.0, "is_reserved": 0, "rental_uris": {"android": "https://dc.lft.to/lastmile_qr_scan", "ios": "https://dc.lft.to/lastmile_qr_scan"}, "bike_id": "6640f3b002cadcacfbd8896c01740d28"}, {"name": "0cd203ac0212e2848e2af30cde13558c", "type": "electric_scooter", "fusion_lon": 0.0, "lon": -77.03628816666667, "is_disabled": 0, "lat": 38.936784333333335, "fusion_lat": 0.0, "is_reserved": 0, "rental_uris": {"android": "https://dc.lft.to/lastmile_qr_scan", "ios": "https://dc.lft.to/lastmile_qr_scan"}, "bike_id": "0cd203ac0212e2848e2af30cde13558c"}, {"name": "868156e09979b315cf9325cc909722b5", "type": "electric_scooter", "fusion_lon": 0.0, "lon": -77.02981133333333, "is_disabled": 0, "lat": 38.899549666666665, "fusion_lat": 0.0, "is_reserved": 0, "rental_uris": {"android": "https://dc.lft.to/lastmile_qr_scan", "ios": "https://dc.lft.to/lastmile_qr_scan"}, "bike_id": "868156e09979b315cf9325cc909722b5"}, {"name": "ad40e0895436da7892c223fa65f048d5", "type": "electric_scooter", "fusion_lon": 0.0, "lon": -77.009276, "is_disabled": 0, "lat": 38.89646466666667, "fusion_lat": 0.0, "is_reserved": 0, "rental_uris": {"android": "https://dc.lft.to/lastmile_qr_scan", "ios": "https://dc.lft.to/lastmile_qr_scan"}, "bike_id": "ad40e0895436da7892c223fa65f048d5"}, {"name": "c75c8b4bb388adf3870d22045b582de9", "type": "electric_scooter", "fusion_lon": 0.0, "lon": -77.05148233333334, "is_disabled": 0, "lat": 38.89754816666667, "fusion_lat": 0.0, "is_reserved": 0, "rental_uris": {"android": "https://dc.lft.to/lastmile_qr_scan", "ios": "https://dc.lft.to/lastmile_qr_scan"}, "bike_id": "c75c8b4bb388adf3870d22045b582de9"}, {"name": "0aaa9b6284c0cc3db4187965020a0c8c", "type": "electric_scooter", "fusion_lon": 0.0, "lon": -77.03428033333333, "is_disabled": 0, "lat": 38.909595, "fusion_lat": 0.0, "is_reserved": 0, "rental_uris": {"android": "https://dc.lft.to/lastmile_qr_scan", "ios": "https://dc.lft.to/lastmile_qr_scan"}, "bike_id": "0aaa9b6284c0cc3db4187965020a0c8c"}, {"name": "dad833b9f40a0553514dc475093aba01", "type": "electric_scooter", "fusion_lon": 0.0, "lon": -77.09162383333333, "is_disabled": 0, "lat": 38.939636, "fusion_lat": 0.0, "is_reserved": 0, "rental_uris": {"android": "https://dc.lft.to/lastmile_qr_scan", "ios": "https://dc.lft.to/lastmile_qr_scan"}, "bike_id": "dad833b9f40a0553514dc475093aba01"}, {"name": "0047dc0fdb024ae2171c284e0ba72ab9", "type": "electric_scooter", "fusion_lon": 0.0, "lon": -76.9857185, "is_disabled": 0, "lat": 38.866796, "fusion_lat": 0.0, "is_reserved": 0, "rental_uris": {"android": "https://dc.lft.to/lastmile_qr_scan", "ios": "https://dc.lft.to/lastmile_qr_scan"}, "bike_id": "0047dc0fdb024ae2171c284e0ba72ab9"}, {"name": "2fce90510d871704e07f4e8f5f9eed5f", "type": "electric_scooter", "fusion_lon": 0.0, "lon": -77.03275783333333, "is_disabled": 0, "lat": 38.94096166666667, "fusion_lat": 0.0, "is_reserved": 0, "rental_uris": {"android": "https://dc.lft.to/lastmile_qr_scan", "ios": "https://dc.lft.to/lastmile_qr_scan"}, "bike_id": "2fce90510d871704e07f4e8f5f9eed5f"}, {"name": "69729110ad73d0bfba758cee4385365c", "type": "electric_scooter", "fusion_lon": 0.0, "lon": -77.04515433333333, "is_disabled": 0, "lat": 38.89222516666667, "fusion_lat": 0.0, "is_reserved": 0, "rental_uris": {"android": "https://dc.lft.to/lastmile_qr_scan", "ios": "https://dc.lft.to/lastmile_qr_scan"}, "bike_id": "69729110ad73d0bfba758cee4385365c"}, {"name": "900ce8c487bf8c6176f700b23cfc92e7", "type": "electric_scooter", "fusion_lon": 0.0, "lon": -77.0220615, "is_disabled": 0, "lat": 38.9158945, "fusion_lat": 0.0, "is_reserved": 0, "rental_uris": {"android": "https://dc.lft.to/lastmile_qr_scan", "ios": "https://dc.lft.to/lastmile_qr_scan"}, "bike_id": "900ce8c487bf8c6176f700b23cfc92e7"}, {"name": "e820530c6512534053246056da1a98a6", "type": "electric_scooter", "fusion_lon": 0.0, "lon": -77.04064583333333, "is_disabled": 0, "lat": 38.93142483333333, "fusion_lat": 0.0, "is_reserved": 0, "rental_uris": {"android": "https://dc.lft.to/lastmile_qr_scan", "ios": "https://dc.lft.to/lastmile_qr_scan"}, "bike_id": "e820530c6512534053246056da1a98a6"}, {"name": "6efa8b982a6e6b122b5205c5992399dc", "type": "electric_scooter", "fusion_lon": 0.0, "lon": -77.03844116666667, "is_disabled": 0, "lat": 38.902757666666666, "fusion_lat": 0.0, "is_reserved": 0, "rental_uris": {"android": "https://dc.lft.to/lastmile_qr_scan", "ios": "https://dc.lft.to/lastmile_qr_scan"}, "bike_id": "6efa8b982a6e6b122b5205c5992399dc"}, {"name": "e05c58dcd147828b82cfea5297ebe4e2", "type": "electric_scooter", "fusion_lon": 0.0, "lon": -77.02175366666667, "is_disabled": 0, "lat": 38.94290483333333, "fusion_lat": 0.0, "is_reserved": 0, "rental_uris": {"android": "https://dc.lft.to/lastmile_qr_scan", "ios": "https://dc.lft.to/lastmile_qr_scan"}, "bike_id": "e05c58dcd147828b82cfea5297ebe4e2"}, {"name": "d4c534be068c0a9a3f58a2657becbb4d", "type": "electric_scooter", "fusion_lon": 0.0, "lon": -77.03201183333333, "is_disabled": 0, "lat": 38.930719333333336, "fusion_lat": 0.0, "is_reserved": 0, "rental_uris": {"android": "https://dc.lft.to/lastmile_qr_scan", "ios": "https://dc.lft.to/lastmile_qr_scan"}, "bike_id": "d4c534be068c0a9a3f58a2657becbb4d"}, {"name": "832af887539b4f7da067ab8cc3f896f1", "type": "electric_scooter", "fusion_lon": 0.0, "lon": -77.041312, "is_disabled": 0, "lat": 38.933538166666665, "fusion_lat": 0.0, "is_reserved": 0, "rental_uris": {"android": "https://dc.lft.to/lastmile_qr_scan", "ios": "https://dc.lft.to/lastmile_qr_scan"}, "bike_id": "832af887539b4f7da067ab8cc3f896f1"}, {"name": "5222ad016d139a3b0f8e4c2772b1a54d", "type": "electric_scooter", "fusion_lon": 0.0, "lon": -77.04697366666667, "is_disabled": 0, "lat": 38.90097166666666, "fusion_lat": 0.0, "is_reserved": 0, "rental_uris": {"android": "https://dc.lft.to/lastmile_qr_scan", "ios": "https://dc.lft.to/lastmile_qr_scan"}, "bike_id": "5222ad016d139a3b0f8e4c2772b1a54d"}, {"name": "0c0ef78ff3f53b44df6ab63067c07675", "type": "electric_scooter", "fusion_lon": 0.0, "lon": -77.02243133333333, "is_disabled": 0, "lat": 38.924688333333336, "fusion_lat": 0.0, "is_reserved": 0, "rental_uris": {"android": "https://dc.lft.to/lastmile_qr_scan", "ios": "https://dc.lft.to/lastmile_qr_scan"}, "bike_id": "0c0ef78ff3f53b44df6ab63067c07675"}, {"name": "dd4f2c6e69dd09c5144c409aeb39f298", "type": "electric_scooter", "fusion_lon": 0.0, "lon": -77.02637716666666, "is_disabled": 0, "lat": 38.89220683333333, "fusion_lat": 0.0, "is_reserved": 0, "rental_uris": {"android": "https://dc.lft.to/lastmile_qr_scan", "ios": "https://dc.lft.to/lastmile_qr_scan"}, "bike_id": "dd4f2c6e69dd09c5144c409aeb39f298"}, {"name": "8fe7050a9d54fb05885d6bdb80765927", "type": "electric_scooter", "fusion_lon": 0.0, "lon": -77.04518116666667, "is_disabled": 0, "lat": 38.892214333333335, "fusion_lat": 0.0, "is_reserved": 0, "rental_uris": {"android": "https://dc.lft.to/lastmile_qr_scan", "ios": "https://dc.lft.to/lastmile_qr_scan"}, "bike_id": "8fe7050a9d54fb05885d6bdb80765927"}, {"name": "e6c7bb23314a59eb6d9290881dfa87f8", "type": "electric_scooter", "fusion_lon": 0.0, "lon": -76.98340333333333, "is_disabled": 0, "lat": 38.86564833333333, "fusion_lat": 0.0, "is_reserved": 0, "rental_uris": {"android": "https://dc.lft.to/lastmile_qr_scan", "ios": "https://dc.lft.to/lastmile_qr_scan"}, "bike_id": "e6c7bb23314a59eb6d9290881dfa87f8"}, {"name": "eb0f33f7005d15c67a8b1bff3d17be44", "type": "electric_bike", "fusion_lon": 0.0, "lon": -77.12973233333334, "is_disabled": 0, "lat": 38.7998735, "fusion_lat": 0.0, "is_reserved": 0, "rental_uris": {"android": "https://dc.lft.to/lastmile_qr_scan", "ios": "https://dc.lft.to/lastmile_qr_scan"}, "bike_id": "eb0f33f7005d15c67a8b1bff3d17be44"}, {"name": "32f8abda75564e17b2d3840f17eb880d", "type": "electric_scooter", "fusion_lon": 0.0, "lon": -77.02346566666667, "is_disabled": 0, "lat": 38.93177583333333, "fusion_lat": 0.0, "is_reserved": 0, "rental_uris": {"android": "https://dc.lft.to/lastmile_qr_scan", "ios": "https://dc.lft.to/lastmile_qr_scan"}, "bike_id": "32f8abda75564e17b2d3840f17eb880d"}, {"name": "e154c9c114fbfdedefcadda05f18cd95", "type": "electric_bike", "fusion_lon": 0.0, "lon": -76.9527475, "is_disabled": 0, "lat": 38.889325666666664, "fusion_lat": 0.0, "is_reserved": 0, "rental_uris": {"android": "https://dc.lft.to/lastmile_qr_scan", "ios": "https://dc.lft.to/lastmile_qr_scan"}, "bike_id": "e154c9c114fbfdedefcadda05f18cd95"}, {"name": "e7d85b17192eba3c9fcab1ff0c877955", "type": "electric_scooter", "fusion_lon": 0.0, "lon": -77.04678983333334, "is_disabled": 0, "lat": 38.899012166666665, "fusion_lat": 0.0, "is_reserved": 0, "rental_uris": {"android": "https://dc.lft.to/lastmile_qr_scan", "ios": "https://dc.lft.to/lastmile_qr_scan"}, "bike_id": "e7d85b17192eba3c9fcab1ff0c877955"}, {"name": "621e7e04ca7647937296d1aa6d400730", "type": "electric_scooter", "fusion_lon": 0.0, "lon": -77.02693733333334, "is_disabled": 0, "lat": 38.90684983333333, "fusion_lat": 0.0, "is_reserved": 0, "rental_uris": {"android": "https://dc.lft.to/lastmile_qr_scan", "ios": "https://dc.lft.to/lastmile_qr_scan"}, "bike_id": "621e7e04ca7647937296d1aa6d400730"}, {"name": "b2acb6b1af24b3a8f706d1ffc45eab64", "type": "electric_scooter", "fusion_lon": 0.0, "lon": -77.01202433333333, "is_disabled": 0, "lat": 38.91921816666667, "fusion_lat": 0.0, "is_reserved": 0, "rental_uris": {"android": "https://dc.lft.to/lastmile_qr_scan", "ios": "https://dc.lft.to/lastmile_qr_scan"}, "bike_id": "b2acb6b1af24b3a8f706d1ffc45eab64"}, {"name": "b214f2da3a75f6f98d6001c4a2f236c0", "type": "electric_scooter", "fusion_lon": 0.0, "lon": -77.01998233333333, "is_disabled": 0, "lat": 38.91579383333333, "fusion_lat": 0.0, "is_reserved": 0, "rental_uris": {"android": "https://dc.lft.to/lastmile_qr_scan", "ios": "https://dc.lft.to/lastmile_qr_scan"}, "bike_id": "b214f2da3a75f6f98d6001c4a2f236c0"}, {"name": "84fc17fe1d21c3fee640b269dd3d008b", "type": "electric_scooter", "fusion_lon": 0.0, "lon": -77.04796516666667, "is_disabled": 0, "lat": 38.899527666666664, "fusion_lat": 0.0, "is_reserved": 0, "rental_uris": {"android": "https://dc.lft.to/lastmile_qr_scan", "ios": "https://dc.lft.to/lastmile_qr_scan"}, "bike_id": "84fc17fe1d21c3fee640b269dd3d008b"}, {"name": "db21c80284a5979313b04b39e3785e53", "type": "electric_scooter", "fusion_lon": 0.0, "lon": -76.93076783333333, "is_disabled": 0, "lat": 38.901642, "fusion_lat": 0.0, "is_reserved": 0, "rental_uris": {"android": "https://dc.lft.to/lastmile_qr_scan", "ios": "https://dc.lft.to/lastmile_qr_scan"}, "bike_id": "db21c80284a5979313b04b39e3785e53"}, {"name": "d7069d7ef4e7947a4095a4b9a1ac68f9", "type": "electric_scooter", "fusion_lon": 0.0, "lon": -77.01759783333334, "is_disabled": 0, "lat": 38.902535666666665, "fusion_lat": 0.0, "is_reserved": 0, "rental_uris": {"android": "https://dc.lft.to/lastmile_qr_scan", "ios": "https://dc.lft.to/lastmile_qr_scan"}, "bike_id": "d7069d7ef4e7947a4095a4b9a1ac68f9"}, {"name": "a960edc661c530eed71844fe291a0016", "type": "electric_bike", "fusion_lon": 0.0, "lon": -77.08017466666666, "is_disabled": 0, "lat": 38.94983583333333, "fusion_lat": 0.0, "is_reserved": 0, "rental_uris": {"android": "https://dc.lft.to/lastmile_qr_scan", "ios": "https://dc.lft.to/lastmile_qr_scan"}, "bike_id": "a960edc661c530eed71844fe291a0016"}, {"name": "2c99baaa14a06c986ce20f7af2ee7639", "type": "electric_scooter", "fusion_lon": 0.0, "lon": -77.02846, "is_disabled": 0, "lat": 38.91710966666667, "fusion_lat": 0.0, "is_reserved": 0, "rental_uris": {"android": "https://dc.lft.to/lastmile_qr_scan", "ios": "https://dc.lft.to/lastmile_qr_scan"}, "bike_id": "2c99baaa14a06c986ce20f7af2ee7639"}, {"name": "9efaaf3bd4e890a1f480cd68e2ff4be2", "type": "electric_scooter", "fusion_lon": 0.0, "lon": -77.01328416666666, "is_disabled": 0, "lat": 38.900711, "fusion_lat": 0.0, "is_reserved": 0, "rental_uris": {"android": "https://dc.lft.to/lastmile_qr_scan", "ios": "https://dc.lft.to/lastmile_qr_scan"}, "bike_id": "9efaaf3bd4e890a1f480cd68e2ff4be2"}, {"name": "36c0819bc5a793e7f39d71f140eeafda", "type": "electric_bike", "fusion_lon": 0.0, "lon": -77.00771266666666, "is_disabled": 0, "lat": 38.897896, "fusion_lat": 0.0, "is_reserved": 0, "rental_uris": {"android": "https://dc.lft.to/lastmile_qr_scan", "ios": "https://dc.lft.to/lastmile_qr_scan"}, "bike_id": "36c0819bc5a793e7f39d71f140eeafda"}, {"name": "bfb419c8c187be99babe3b38a97583da", "type": "electric_bike", "fusion_lon": 0.0, "lon": -77.05002866666666, "is_disabled": 0, "lat": 38.83769516666667, "fusion_lat": 0.0, "is_reserved": 0, "rental_uris": {"android": "https://dc.lft.to/lastmile_qr_scan", "ios": "https://dc.lft.to/lastmile_qr_scan"}, "bike_id": "bfb419c8c187be99babe3b38a97583da"}, {"name": "dab9f1fd907a0a6e10d3fdb88126bc31", "type": "electric_scooter", "fusion_lon": 0.0, "lon": -77.02693816666667, "is_disabled": 0, "lat": 38.94982983333333, "fusion_lat": 0.0, "is_reserved": 0, "rental_uris": {"android": "https://dc.lft.to/lastmile_qr_scan", "ios": "https://dc.lft.to/lastmile_qr_scan"}, "bike_id": "dab9f1fd907a0a6e10d3fdb88126bc31"}, {"name": "5cd29c49194d751f1a55f49e43dfb321", "type": "electric_scooter", "fusion_lon": 0.0, "lon": -77.05148383333334, "is_disabled": 0, "lat": 38.906809833333334, "fusion_lat": 0.0, "is_reserved": 0, "rental_uris": {"android": "https://dc.lft.to/lastmile_qr_scan", "ios": "https://dc.lft.to/lastmile_qr_scan"}, "bike_id": "5cd29c49194d751f1a55f49e43dfb321"}, {"name": "fd630ecefa2ee271ed1011818baa8058", "type": "electric_scooter", "fusion_lon": 0.0, "lon": -77.03511333333333, "is_disabled": 0, "lat": 38.92148266666667, "fusion_lat": 0.0, "is_reserved": 0, "rental_uris": {"android": "https://dc.lft.to/lastmile_qr_scan", "ios": "https://dc.lft.to/lastmile_qr_scan"}, "bike_id": "fd630ecefa2ee271ed1011818baa8058"}, {"name": "3ef117e2cb36d9188837c948354ff080", "type": "electric_scooter", "fusion_lon": 0.0, "lon": -76.98375183333333, "is_disabled": 0, "lat": 38.906489, "fusion_lat": 0.0, "is_reserved": 0, "rental_uris": {"android": "https://dc.lft.to/lastmile_qr_scan", "ios": "https://dc.lft.to/lastmile_qr_scan"}, "bike_id": "3ef117e2cb36d9188837c948354ff080"}, {"name": "08487090af4b9a81f5e0989cfbc9ebd0", "type": "electric_scooter", "fusion_lon": 0.0, "lon": -76.98657516666667, "is_disabled": 0, "lat": 38.858075, "fusion_lat": 0.0, "is_reserved": 0, "rental_uris": {"android": "https://dc.lft.to/lastmile_qr_scan", "ios": "https://dc.lft.to/lastmile_qr_scan"}, "bike_id": "08487090af4b9a81f5e0989cfbc9ebd0"}, {"name": "f22fce35d26bcf6274561cf1490eabcd", "type": "electric_scooter", "fusion_lon": 0.0, "lon": -77.01982616666666, "is_disabled": 0, "lat": 38.91517916666667, "fusion_lat": 0.0, "is_reserved": 0, "rental_uris": {"android": "https://dc.lft.to/lastmile_qr_scan", "ios": "https://dc.lft.to/lastmile_qr_scan"}, "bike_id": "f22fce35d26bcf6274561cf1490eabcd"}, {"name": "4f330b197a058f5559feeef246718439", "type": "electric_bike", "fusion_lon": 0.0, "lon": -77.07883283333334, "is_disabled": 0, "lat": 38.84254883333333, "fusion_lat": 0.0, "is_reserved": 0, "rental_uris": {"android": "https://dc.lft.to/lastmile_qr_scan", "ios": "https://dc.lft.to/lastmile_qr_scan"}, "bike_id": "4f330b197a058f5559feeef246718439"}, {"name": "b4923b8e645fdb8b76c7786b7c11bccb", "type": "electric_scooter", "fusion_lon": 0.0, "lon": -77.06124283333334, "is_disabled": 0, "lat": 38.904957, "fusion_lat": 0.0, "is_reserved": 0, "rental_uris": {"android": "https://dc.lft.to/lastmile_qr_scan", "ios": "https://dc.lft.to/lastmile_qr_scan"}, "bike_id": "b4923b8e645fdb8b76c7786b7c11bccb"}, {"name": "43915157bf5096c8e90c244abb1d250e", "type": "electric_scooter", "fusion_lon": 0.0, "lon": -77.0221615, "is_disabled": 0, "lat": 38.91269966666667, "fusion_lat": 0.0, "is_reserved": 0, "rental_uris": {"android": "https://dc.lft.to/lastmile_qr_scan", "ios": "https://dc.lft.to/lastmile_qr_scan"}, "bike_id": "43915157bf5096c8e90c244abb1d250e"}, {"name": "e381943782879f127ec534226b956acd", "type": "electric_scooter", "fusion_lon": 0.0, "lon": -77.0317675, "is_disabled": 0, "lat": 38.91755216666667, "fusion_lat": 0.0, "is_reserved": 0, "rental_uris": {"android": "https://dc.lft.to/lastmile_qr_scan", "ios": "https://dc.lft.to/lastmile_qr_scan"}, "bike_id": "e381943782879f127ec534226b956acd"}, {"name": "da7ae0ad32b05d6bbf56950020651712", "type": "electric_scooter", "fusion_lon": 0.0, "lon": -77.02981916666667, "is_disabled": 0, "lat": 38.94606816666667, "fusion_lat": 0.0, "is_reserved": 0, "rental_uris": {"android": "https://dc.lft.to/lastmile_qr_scan", "ios": "https://dc.lft.to/lastmile_qr_scan"}, "bike_id": "da7ae0ad32b05d6bbf56950020651712"}, {"name": "a748e9dffcae835deae6d818d1853bf2", "type": "electric_scooter", "fusion_lon": 0.0, "lon": -77.04277166666667, "is_disabled": 0, "lat": 38.90746216666667, "fusion_lat": 0.0, "is_reserved": 0, "rental_uris": {"android": "https://dc.lft.to/lastmile_qr_scan", "ios": "https://dc.lft.to/lastmile_qr_scan"}, "bike_id": "a748e9dffcae835deae6d818d1853bf2"}, {"name": "e05696cb35e88c264a5f446501df57cb", "type": "electric_scooter", "fusion_lon": 0.0, "lon": -77.03560683333333, "is_disabled": 0, "lat": 38.927012, "fusion_lat": 0.0, "is_reserved": 0, "rental_uris": {"android": "https://dc.lft.to/lastmile_qr_scan", "ios": "https://dc.lft.to/lastmile_qr_scan"}, "bike_id": "e05696cb35e88c264a5f446501df57cb"}, {"name": "28d560958d77c57c84c8f1d146d7ae8c", "type": "electric_scooter", "fusion_lon": 0.0, "lon": -77.05131333333334, "is_disabled": 0, "lat": 38.92521083333333, "fusion_lat": 0.0, "is_reserved": 0, "rental_uris": {"android": "https://dc.lft.to/lastmile_qr_scan", "ios": "https://dc.lft.to/lastmile_qr_scan"}, "bike_id": "28d560958d77c57c84c8f1d146d7ae8c"}, {"name": "4ac523d34b4e8bf95d6703755f6407c4", "type": "electric_scooter", "fusion_lon": 0.0, "lon": -77.00940583333333, "is_disabled": 0, "lat": 38.905709333333334, "fusion_lat": 0.0, "is_reserved": 0, "rental_uris": {"android": "https://dc.lft.to/lastmile_qr_scan", "ios": "https://dc.lft.to/lastmile_qr_scan"}, "bike_id": "4ac523d34b4e8bf95d6703755f6407c4"}, {"name": "4cdcb00a277b3edaec759f3e49927afc", "type": "electric_bike", "fusion_lon": 0.0, "lon": -77.01825116666667, "is_disabled": 0, "lat": 38.908156166666664, "fusion_lat": 0.0, "is_reserved": 0, "rental_uris": {"android": "https://dc.lft.to/lastmile_qr_scan", "ios": "https://dc.lft.to/lastmile_qr_scan"}, "bike_id": "4cdcb00a277b3edaec759f3e49927afc"}, {"name": "7bd7caea5de281c7362071cc81a24411", "type": "electric_scooter", "fusion_lon": 0.0, "lon": -77.02489583333333, "is_disabled": 0, "lat": 38.938431666666666, "fusion_lat": 0.0, "is_reserved": 0, "rental_uris": {"android": "https://dc.lft.to/lastmile_qr_scan", "ios": "https://dc.lft.to/lastmile_qr_scan"}, "bike_id": "7bd7caea5de281c7362071cc81a24411"}, {"name": "c443d6642d953ab56041aa26a1bd9cd2", "type": "electric_scooter", "fusion_lon": 0.0, "lon": -76.98319983333333, "is_disabled": 0, "lat": 38.90442316666667, "fusion_lat": 0.0, "is_reserved": 0, "rental_uris": {"android": "https://dc.lft.to/lastmile_qr_scan", "ios": "https://dc.lft.to/lastmile_qr_scan"}, "bike_id": "c443d6642d953ab56041aa26a1bd9cd2"}, {"name": "4ffdfad27d0a3d2e95ccf07bcc5c940a", "type": "electric_scooter", "fusion_lon": 0.0, "lon": -77.07725616666667, "is_disabled": 0, "lat": 38.94109266666667, "fusion_lat": 0.0, "is_reserved": 0, "rental_uris": {"android": "https://dc.lft.to/lastmile_qr_scan", "ios": "https://dc.lft.to/lastmile_qr_scan"}, "bike_id": "4ffdfad27d0a3d2e95ccf07bcc5c940a"}, {"name": "e73eab2152fbc5d574e5cd85129fde2b", "type": "electric_scooter", "fusion_lon": 0.0, "lon": -77.0057035, "is_disabled": 0, "lat": 38.876621666666665, "fusion_lat": 0.0, "is_reserved": 0, "rental_uris": {"android": "https://dc.lft.to/lastmile_qr_scan", "ios": "https://dc.lft.to/lastmile_qr_scan"}, "bike_id": "e73eab2152fbc5d574e5cd85129fde2b"}, {"name": "c174673fb19200f1aac710270048398e", "type": "electric_scooter", "fusion_lon": 0.0, "lon": -77.00338616666667, "is_disabled": 0, "lat": 38.89463766666667, "fusion_lat": 0.0, "is_reserved": 0, "rental_uris": {"android": "https://dc.lft.to/lastmile_qr_scan", "ios": "https://dc.lft.to/lastmile_qr_scan"}, "bike_id": "c174673fb19200f1aac710270048398e"}, {"name": "b96e303b5fb0158eed29fc5bfcd9e23c", "type": "electric_scooter", "fusion_lon": 0.0, "lon": -77.02280633333334, "is_disabled": 0, "lat": 38.914153666666664, "fusion_lat": 0.0, "is_reserved": 0, "rental_uris": {"android": "https://dc.lft.to/lastmile_qr_scan", "ios": "https://dc.lft.to/lastmile_qr_scan"}, "bike_id": "b96e303b5fb0158eed29fc5bfcd9e23c"}, {"name": "da4814070512dda00c041a2ea7340422", "type": "electric_scooter", "fusion_lon": 0.0, "lon": -77.00211466666667, "is_disabled": 0, "lat": 38.89521633333333, "fusion_lat": 0.0, "is_reserved": 0, "rental_uris": {"android": "https://dc.lft.to/lastmile_qr_scan", "ios": "https://dc.lft.to/lastmile_qr_scan"}, "bike_id": "da4814070512dda00c041a2ea7340422"}, {"name": "02dc6c590c436f34fa4280b99229369f", "type": "electric_scooter", "fusion_lon": 0.0, "lon": -77.01939066666667, "is_disabled": 0, "lat": 38.94705033333334, "fusion_lat": 0.0, "is_reserved": 0, "rental_uris": {"android": "https://dc.lft.to/lastmile_qr_scan", "ios": "https://dc.lft.to/lastmile_qr_scan"}, "bike_id": "02dc6c590c436f34fa4280b99229369f"}, {"name": "97ba068f0e337b8f82e0b378ee3e3a68", "type": "electric_scooter", "fusion_lon": 0.0, "lon": -77.03848716666667, "is_disabled": 0, "lat": 38.90985666666667, "fusion_lat": 0.0, "is_reserved": 0, "rental_uris": {"android": "https://dc.lft.to/lastmile_qr_scan", "ios": "https://dc.lft.to/lastmile_qr_scan"}, "bike_id": "97ba068f0e337b8f82e0b378ee3e3a68"}, {"name": "2621588d58560d58d92a84318ae1558d", "type": "electric_scooter", "fusion_lon": 0.0, "lon": -77.03664283333333, "is_disabled": 0, "lat": 38.91136733333333, "fusion_lat": 0.0, "is_reserved": 0, "rental_uris": {"android": "https://dc.lft.to/lastmile_qr_scan", "ios": "https://dc.lft.to/lastmile_qr_scan"},