{"data": {"bikes": [{"is_reserved": 0, "type": "electric_scooter", "bike_id": "500fe7c7bc9f148f9297b86986e2872b", "lat": 38.931849666666665, "lon": -77.0367645, "rental_uris": {"android": "https://dc.lft.to/lastmile_qr_scan", "ios": "https://dc.lft.to/lastmile_qr_scan"}, "is_disabled": 0, "fusion_lat": 0.0, "name": "500fe7c7bc9f148f9297b86986e2872b", "fusion_lon": 0.0}, {"is_reserved": 0, "type": "electric_scooter", "bike_id": "24af7dcdc73e9a51bee02ed429e54f9a", "lat": 38.89236866666667, "lon": -77.04872866666666, "rental_uris": {"android": "https://dc.lft.to/lastmile_qr_scan", "ios": "https://dc.lft.to/lastmile_qr_scan"}, "is_disabled": 0, "fusion_lat": 0.0, "name": "24af7dcdc73e9a51bee02ed429e54f9a", "fusion_lon": 0.0}, {"is_reserved": 0, "type": "electric_scooter", "bike_id": "ed73a0220d509120c0752bd6f89a8d62", "lat": 38.92423633333333, "lon": -77.01948966666667, "rental_uris": {"android": "https://dc.lft.to/lastmile_qr_scan", "ios": "https://dc.lft.to/lastmile_qr_scan"}, "is_disabled": 0, "fusion_lat": 0.0, "name": "ed73a0220d509120c0752bd6f89a8d62", "fusion_lon": 0.0}, {"is_reserved": 0, "type": "electric_scooter", "bike_id": "e46ca9531617c549baa0fe1cdc063474", "lat": 38.92344083333333, "lon": -77.01891233333333, "rental_uris": {"android": "https://dc.lft.to/lastmile_qr_scan", "ios": "https://dc.lft.to/lastmile_qr_scan"}, "is_disabled": 0, "fusion_lat": 0.0, "name": "e46ca9531617c549baa0fe1cdc063474", "fusion_lon": 0.0}, {"is_reserved": 0, "type": "electric_scooter", "bike_id": "8c4db8a6b7236771a8fd9d3cb4fd6e23", "lat": 38.91353733333333, "lon": -77.04350116666667, "rental_uris": {"android": "https://dc.lft.to/lastmile_qr_scan", "ios": "https://dc.lft.to/lastmile_qr_scan"}, "is_disabled": 0, "fusion_lat": 0.0, "name": "8c4db8a6b7236771a8fd9d3cb4fd6e23", "fusion_lon": 0.0}, {"is_reserved": 0, "type": "electric_bike", "bike_id": "85a7b15ca6e985bba977fb6effff46b6", "lat": 38.9993685, "lon": -77.05133833333333, "rental_uris": {"android": "https://dc.lft.to/lastmile_qr_scan", "ios": "https://dc.lft.to/lastmile_qr_scan"}, "is_disabled": 0, "fusion_lat": 0.0, "name": "85a7b15ca6e985bba977fb6effff46b6", "fusion_lon": 0.0}, {"is_reserved": 0, "type": "electric_scooter", "bike_id": "6deffbd5d3d3ad91cfff39eddd80a8f9", "lat": 38.91805516666667, "lon": -77.0318685, "rental_uris": {"android": "https://dc.lft.to/lastmile_qr_scan", "ios": "https://dc.lft.to/lastmile_qr_scan"}, "is_disabled": 0, "fusion_lat": 0.0, "name": "6deffbd5d3d3ad91cfff39eddd80a8f9", "fusion_lon": 0.0}, {"is_reserved": 0, "type": "electric_scooter", "bike_id": "995c515c2d95b9d9c11d507e7f253351", "lat": 38.90705416666667, "lon": -77.03448633333333, "rental_uris": {"android": "https://dc.lft.to/lastmile_qr_scan", "ios": "https://dc.lft.to/lastmile_qr_scan"}, "is_disabled": 0, "fusion_lat": 0.0, "name": "995c515c2d95b9d9c11d507e7f253351", "fusion_lon": 0.0}, {"is_reserved": 0, "type": "electric_scooter", "bike_id": "0fa3715fe54e48153c44521522a058c6", "lat": 38.898353166666666, "lon": -76.94647266666666, "rental_uris": {"android": "https://dc.lft.to/lastmile_qr_scan", "ios": "https://dc.lft.to/lastmile_qr_scan"}, "is_disabled": 0, "fusion_lat": 0.0, "name": "0fa3715fe54e48153c44521522a058c6", "fusion_lon": 0.0}, {"is_reserved": 0, "type": "electric_scooter", "bike_id": "e7b3a3ac62501f14b4d756d8be6f9d1f", "lat": 38.9389315, "lon": -77.03260933333334, "rental_uris": {"android": "https://dc.lft.to/lastmile_qr_scan", "ios": "https://dc.lft.to/lastmile_qr_scan"}, "is_disabled": 0, "fusion_lat": 0.0, "name": "e7b3a3ac62501f14b4d756d8be6f9d1f", "fusion_lon": 0.0}, {"is_reserved": 0, "type": "electric_scooter", "bike_id": "0e7c0bb3bd6868321bc07e6aca933b9f", "lat": 38.852237333333335, "lon": -76.99422983333334, "rental_uris": {"android": "https://dc.lft.to/lastmile_qr_scan", "ios": "https://dc.lft.to/lastmile_qr_scan"}, "is_disabled": 0, "fusion_lat": 0.0, "name": "0e7c0bb3bd6868321bc07e6aca933b9f", "fusion_lon": 0.0}, {"is_reserved": 0, "type": "electric_scooter", "bike_id": "5d96e7435516dd0f9e7cdece6d14cc83", "lat": 38.899109833333334, "lon": -76.93362133333333, "rental_uris": {"android": "https://dc.lft.to/lastmile_qr_scan", "ios": "https://dc.lft.to/lastmile_qr_scan"}, "is_disabled": 0, "fusion_lat": 0.0, "name": "5d96e7435516dd0f9e7cdece6d14cc83", "fusion_lon": 0.0}, {"is_reserved": 0, "type": "electric_scooter", "bike_id": "e5e4931d6a52b7fe410cc048a9226734", "lat": 38.946599, "lon": -77.03285533333333, "rental_uris": {"android": "https://dc.lft.to/lastmile_qr_scan", "ios": "https://dc.lft.to/lastmile_qr_scan"}, "is_disabled": 0, "fusion_lat": 0.0, "name": "e5e4931d6a52b7fe410cc048a9226734", "fusion_lon": 0.0}, {"is_reserved": 0, "type": "electric_scooter", "bike_id": "eb1461c77285bf56218cc3cccbda3678", "lat": 38.90530066666667, "lon": -77.06213833333334, "rental_uris": {"android": "https://dc.lft.to/lastmile_qr_scan", "ios": "https://dc.lft.to/lastmile_qr_scan"}, "is_disabled": 0, "fusion_lat": 0.0, "name": "eb1461c77285bf56218cc3cccbda3678", "fusion_lon": 0.0}, {"is_reserved": 0, "type": "electric_scooter", "bike_id": "0a1f291f8f2f984f97267fa0e6f61c2a", "lat": 38.907444166666664, "lon": -77.00501383333334, "rental_uris": {"android": "https://dc.lft.to/lastmile_qr_scan", "ios": "https://dc.lft.to/lastmile_qr_scan"}, "is_disabled": 0, "fusion_lat": 0.0, "name": "0a1f291f8f2f984f97267fa0e6f61c2a", "fusion_lon": 0.0}, {"is_reserved": 0, "type": "electric_scooter", "bike_id": "7b5a4224e051f658d2879e0d447b9dfe", "lat": 38.92428916666667, "lon": -77.04046966666667, "rental_uris": {"android": "https://dc.lft.to/lastmile_qr_scan", "ios": "https://dc.lft.to/lastmile_qr_scan"}, "is_disabled": 0, "fusion_lat": 0.0, "name": "7b5a4224e051f658d2879e0d447b9dfe", "fusion_lon": 0.0}, {"is_reserved": 0, "type": "electric_scooter", "bike_id": "ba5085eb409d5fcfb5b8f524f68f3520", "lat": 38.87971733333333, "lon": -76.99360766666666, "rental_uris": {"android": "https://dc.lft.to/lastmile_qr_scan", "ios": "https://dc.lft.to/lastmile_qr_scan"}, "is_disabled": 0, "fusion_lat": 0.0, "name": "ba5085eb409d5fcfb5b8f524f68f3520", "fusion_lon": 0.0}, {"is_reserved": 0, "type": "electric_scooter", "bike_id": "07dc507ca40ffe60e232fd6e0f6734a5", "lat": 38.9050375, "lon": -77.02944633333334, "rental_uris": {"android": "https://dc.lft.to/lastmile_qr_scan", "ios": "https://dc.lft.to/lastmile_qr_scan"}, "is_disabled": 0, "fusion_lat": 0.0, "name": "07dc507ca40ffe60e232fd6e0f6734a5", "fusion_lon": 0.0}, {"is_reserved": 0, "type": "electric_scooter", "bike_id": "8d3d9470ffb88f81f460fdb6ec08978f", "lat": 38.9039995, "lon": -77.04203733333334, "rental_uris": {"android": "https://dc.lft.to/lastmile_qr_scan", "ios": "https://dc.lft.to/lastmile_qr_scan"}, "is_disabled": 0, "fusion_lat": 0.0, "name": "8d3d9470ffb88f81f460fdb6ec08978f", "fusion_lon": 0.0}, {"is_reserved": 0, "type": "electric_scooter", "bike_id": "6b2e31df6447cc074fb5863806876eb7", "lat": 38.90855033333333, "lon": -77.010179, "rental_uris": {"android": "https://dc.lft.to/lastmile_qr_scan", "ios": "https://dc.lft.to/lastmile_qr_scan"}, "is_disabled": 0, "fusion_lat": 0.0, "name": "6b2e31df6447cc074fb5863806876eb7", "fusion_lon": 0.0}, {"is_reserved": 0, "type": "electric_scooter", "bike_id": "cb430ddf9eb50b20fea6346795a3597c", "lat": 38.91777716666667, "lon": -77.0409435, "rental_uris": {"android": "https://dc.lft.to/lastmile_qr_scan", "ios": "https://dc.lft.to/lastmile_qr_scan"}, "is_disabled": 0, "fusion_lat": 0.0, "name": "cb430ddf9eb50b20fea6346795a3597c", "fusion_lon": 0.0}, {"is_reserved": 0, "type": "electric_scooter", "bike_id": "650a36569663e350bf6706a25f5fec6c", "lat": 38.910513, "lon": -77.04078716666666, "rental_uris": {"android": "https://dc.lft.to/lastmile_qr_scan", "ios": "https://dc.lft.to/lastmile_qr_scan"}, "is_disabled": 0, "fusion_lat": 0.0, "name": "650a36569663e350bf6706a25f5fec6c", "fusion_lon": 0.0}, {"is_reserved": 0, "type": "electric_scooter", "bike_id": "683fd2778d8c87537f1a66d6a086277b", "lat": 38.90687883333333, "lon": -77.015397, "rental_uris": {"android": "https://dc.lft.to/lastmile_qr_scan", "ios": "https://dc.lft.to/lastmile_qr_scan"}, "is_disabled": 0, "fusion_lat": 0.0, "name": "683fd2778d8c87537f1a66d6a086277b", "fusion_lon": 0.0}, {"is_reserved": 0, "type": "electric_scooter", "bike_id": "e96991cf0fd1ca94e18ec5231e484795", "lat": 38.8997175, "lon": -77.04482116666667, "rental_uris": {"android": "https://dc.lft.to/lastmile_qr_scan", "ios": "https://dc.lft.to/lastmile_qr_scan"}, "is_disabled": 0, "fusion_lat": 0.0, "name": "e96991cf0fd1ca94e18ec5231e484795", "fusion_lon": 0.0}, {"is_reserved": 0, "type": "electric_scooter", "bike_id": "1135d5b627610fade027fdcbd95df673", "lat": 38.92608283333333, "lon": -77.021696, "rental_uris": {"android": "https://dc.lft.to/lastmile_qr_scan", "ios": "https://dc.lft.to/lastmile_qr_scan"}, "is_disabled": 0, "fusion_lat": 0.0, "name": "1135d5b627610fade027fdcbd95df673", "fusion_lon": 0.0}, {"is_reserved": 0, "type": "electric_scooter", "bike_id": "c67db7ea917808e84825fde6f8b95519", "lat": 38.904127, "lon": -76.97328983333334, "rental_uris": {"android": "https://dc.lft.to/lastmile_qr_scan", "ios": "https://dc.lft.to/lastmile_qr_scan"}, "is_disabled": 0, "fusion_lat": 0.0, "name": "c67db7ea917808e84825fde6f8b95519", "fusion_lon": 0.0}, {"is_reserved": 0, "type": "electric_scooter", "bike_id": "98f23759b93ff3f636bea2903699d72a", "lat": 38.91709383333333, "lon": -77.03470566666667, "rental_uris": {"android": "https://dc.lft.to/lastmile_qr_scan", "ios": "https://dc.lft.to/lastmile_qr_scan"}, "is_disabled": 0, "fusion_lat": 0.0, "name": "98f23759b93ff3f636bea2903699d72a", "fusion_lon": 0.0}, {"is_reserved": 0, "type": "electric_scooter", "bike_id": "e3ecd49612215c381e6b1b76ab272c76", "lat": 38.92603483333333, "lon": -77.021505, "rental_uris": {"android": "https://dc.lft.to/lastmile_qr_scan", "ios": "https://dc.lft.to/lastmile_qr_scan"}, "is_disabled": 0, "fusion_lat": 0.0, "name": "e3ecd49612215c381e6b1b76ab272c76", "fusion_lon": 0.0}, {"is_reserved": 0, "type": "electric_bike", "bike_id": "2b095cf016a9fa09053d9362dffd46ae", "lat": 38.88155783333333, "lon": -77.027374, "rental_uris": {"android": "https://dc.lft.to/lastmile_qr_scan", "ios": "https://dc.lft.to/lastmile_qr_scan"}, "is_disabled": 0, "fusion_lat": 0.0, "name": "2b095cf016a9fa09053d9362dffd46ae", "fusion_lon": 0.0}, {"is_reserved": 0, "type": "electric_scooter", "bike_id": "2b8e69f2ba693b281accb06850ae53fa", "lat": 38.860239166666666, "lon": -76.9700055, "rental_uris": {"android": "https://dc.lft.to/lastmile_qr_scan", "ios": "https://dc.lft.to/lastmile_qr_scan"}, "is_disabled": 0, "fusion_lat": 0.0, "name": "2b8e69f2ba693b281accb06850ae53fa", "fusion_lon": 0.0}, {"is_reserved": 0, "type": "electric_scooter", "bike_id": "171621b3899cc409a463e046a4569f9f", "lat": 38.91602116666667, "lon": -77.02124966666666, "rental_uris": {"android": "https://dc.lft.to/lastmile_qr_scan", "ios": "https://dc.lft.to/lastmile_qr_scan"}, "is_disabled": 0, "fusion_lat": 0.0, "name": "171621b3899cc409a463e046a4569f9f", "fusion_lon": 0.0}, {"is_reserved": 0, "type": "electric_scooter", "bike_id": "45597a53a656f91ecae469ec9291ff76", "lat": 38.916779, "lon": -77.0321465, "rental_uris": {"android": "https://dc.lft.to/lastmile_qr_scan", "ios": "https://dc.lft.to/lastmile_qr_scan"}, "is_disabled": 0, "fusion_lat": 0.0, "name": "45597a53a656f91ecae469ec9291ff76", "fusion_lon": 0.0}, {"is_reserved": 0, "type": "electric_bike", "bike_id": "8987e77aca8f26b2224c5c5204767e5f", "lat": 38.92783516666667, "lon": -76.99906816666666, "rental_uris": {"android": "https://dc.lft.to/lastmile_qr_scan", "ios": "https://dc.lft.to/lastmile_qr_scan"}, "is_disabled": 0, "fusion_lat": 0.0, "name": "8987e77aca8f26b2224c5c5204767e5f", "fusion_lon": 0.0}, {"is_reserved": 0, "type": "electric_scooter", "bike_id": "09097c0ca819122dc31131a7a2d7b664", "lat": 38.90651233333333, "lon": -77.07560983333333, "rental_uris": {"android": "https://dc.lft.to/lastmile_qr_scan", "ios": "https://dc.lft.to/lastmile_qr_scan"}, "is_disabled": 0, "fusion_lat": 0.0, "name": "09097c0ca819122dc31131a7a2d7b664", "fusion_lon": 0.0}, {"is_reserved": 0, "type": "electric_scooter", "bike_id": "420a23730bb252029ebc4e5870756997", "lat": 38.90734616666667, "lon": -77.03299783333334, "rental_uris": {"android": "https://dc.lft.to/lastmile_qr_scan", "ios": "https://dc.lft.to/lastmile_qr_scan"}, "is_disabled": 0, "fusion_lat": 0.0, "name": "420a23730bb252029ebc4e5870756997", "fusion_lon": 0.0}, {"is_reserved": 0, "type": "electric_scooter", "bike_id": "e14ebde19669ceeb40ce7130574dd12d", "lat": 38.944417666666666, "lon": -77.06350616666667, "rental_uris": {"android": "https://dc.lft.to/lastmile_qr_scan", "ios": "https://dc.lft.to/lastmile_qr_scan"}, "is_disabled": 0, "fusion_lat": 0.0, "name": "e14ebde19669ceeb40ce7130574dd12d", "fusion_lon": 0.0}, {"is_reserved": 0, "type": "electric_scooter", "bike_id": "7a4c4b64e9e9c447b3b5d0b3e14addfc", "lat": 38.9245145, "lon": -77.03284383333333, "rental_uris": {"android": "https://dc.lft.to/lastmile_qr_scan", "ios": "https://dc.lft.to/lastmile_qr_scan"}, "is_disabled": 0, "fusion_lat": 0.0, "name": "7a4c4b64e9e9c447b3b5d0b3e14addfc", "fusion_lon": 0.0}, {"is_reserved": 0, "type": "electric_scooter", "bike_id": "186be8e5040041df50290990e35d0880", "lat": 38.92775833333334, "lon": -77.02803166666666, "rental_uris": {"android": "https://dc.lft.to/lastmile_qr_scan", "ios": "https://dc.lft.to/lastmile_qr_scan"}, "is_disabled": 0, "fusion_lat": 0.0, "name": "186be8e5040041df50290990e35d0880", "fusion_lon": 0.0}, {"is_reserved": 0, "type": "electric_scooter", "bike_id": "9df1d6385552e36b190448f239b3f943", "lat": 38.9224325, "lon": -77.0424425, "rental_uris": {"android": "https://dc.lft.to/lastmile_qr_scan", "ios": "https://dc.lft.to/lastmile_qr_scan"}, "is_disabled": 0, "fusion_lat": 0.0, "name": "9df1d6385552e36b190448f239b3f943", "fusion_lon": 0.0}, {"is_reserved": 0, "type": "electric_scooter", "bike_id": "b399ea06e79b073aa4e3f86f338667da", "lat": 38.933602, "lon": -77.0571995, "rental_uris": {"android": "https://dc.lft.to/lastmile_qr_scan", "ios": "https://dc.lft.to/lastmile_qr_scan"}, "is_disabled": 0, "fusion_lat": 0.0, "name": "b399ea06e79b073aa4e3f86f338667da", "fusion_lon": 0.0}, {"is_reserved": 0, "type": "electric_bike", "bike_id": "2f21567b9128806df749827b8a51a2fb", "lat": 38.917071666666665, "lon": -77.05718716666667, "rental_uris": {"android": "https://dc.lft.to/lastmile_qr_scan", "ios": "https://dc.lft.to/lastmile_qr_scan"}, "is_disabled": 0, "fusion_lat": 0.0, "name": "2f21567b9128806df749827b8a51a2fb", "fusion_lon": 0.0}, {"is_reserved": 0, "type": "electric_scooter", "bike_id": "847248a002564c7518775540edc31fbf", "lat": 38.87960916666667, "lon": -77.02369283333333, "rental_uris": {"android": "https://dc.lft.to/lastmile_qr_scan", "ios": "https://dc.lft.to/lastmile_qr_scan"}, "is_disabled": 0, "fusion_lat": 0.0, "name": "847248a002564c7518775540edc31fbf", "fusion_lon": 0.0}, {"is_reserved": 0, "type": "electric_scooter", "bike_id": "64b02adc052d1d93cd8471d9b404475c", "lat": 38.9112805, "lon": -77.0219735, "rental_uris": {"android": "https://dc.lft.to/lastmile_qr_scan", "ios": "https://dc.lft.to/lastmile_qr_scan"}, "is_disabled": 0, "fusion_lat": 0.0, "name": "64b02adc052d1d93cd8471d9b404475c", "fusion_lon": 0.0}, {"is_reserved": 0, "type": "electric_scooter", "bike_id": "0ac5a7f132d6a74dcaf760273b98cca9", "lat": 38.904352833333334, "lon": -77.02433383333333, "rental_uris": {"android": "https://dc.lft.to/lastmile_qr_scan", "ios": "https://dc.lft.to/lastmile_qr_scan"}, "is_disabled": 0, "fusion_lat": 0.0, "name": "0ac5a7f132d6a74dcaf760273b98cca9", "fusion_lon": 0.0}, {"is_reserved": 0, "type": "electric_bike", "bike_id": "34d30b04854295f8990351976d589b6f", "lat": 38.90181916666667, "lon": -77.0344725, "rental_uris": {"android": "https://dc.lft.to/lastmile_qr_scan", "ios": "https://dc.lft.to/lastmile_qr_scan"}, "is_disabled": 0, "fusion_lat": 0.0, "name": "34d30b04854295f8990351976d589b6f", "fusion_lon": 0.0}, {"is_reserved": 0, "type": "electric_scooter", "bike_id": "475cadf06dd76508ff6a0ce12680c0e9", "lat": 38.9242075, "lon": -77.0200435, "rental_uris": {"android": "https://dc.lft.to/lastmile_qr_scan", "ios": "https://dc.lft.to/lastmile_qr_scan"}, "is_disabled": 0, "fusion_lat": 0.0, "name": "475cadf06dd76508ff6a0ce12680c0e9", "fusion_lon": 0.0}, {"is_reserved": 0, "type": "electric_scooter", "bike_id": "0268d64e07df892b583ffa1f743d833e", "lat": 38.939578833333336, "lon": -77.027541, "rental_uris": {"android": "https://dc.lft.to/lastmile_qr_scan", "ios": "https://dc.lft.to/lastmile_qr_scan"}, "is_disabled": 0, "fusion_lat": 0.0, "name": "0268d64e07df892b583ffa1f743d833e", "fusion_lon": 0.0}, {"is_reserved": 0, "type": "electric_scooter", "bike_id": "f83006270a5b3ff039c71d1d0ba60211", "lat": 38.90803666666667, "lon": -77.04222683333333, "rental_uris": {"android": "https://dc.lft.to/lastmile_qr_scan", "ios": "https://dc.lft.to/lastmile_qr_scan"}, "is_disabled": 0, "fusion_lat": 0.0, "name": "f83006270a5b3ff039c71d1d0ba60211", "fusion_lon": 0.0}, {"is_reserved": 0, "type": "electric_scooter", "bike_id": "53a51cac06f139aa26ab282c7132cdde", "lat": 38.8874015, "lon": -77.0239345, "rental_uris": {"android": "https://dc.lft.to/lastmile_qr_scan", "ios": "https://dc.lft.to/lastmile_qr_scan"}, "is_disabled": 0, "fusion_lat": 0.0, "name": "53a51cac06f139aa26ab282c7132cdde", "fusion_lon": 0.0}, {"is_reserved": 0, "type": "electric_scooter", "bike_id": "086f2d4652ee0e8d654215e58c8cef59", "lat": 38.919657, "lon": -77.02224083333333, "rental_uris": {"android": "https://dc.lft.to/lastmile_qr_scan", "ios": "https://dc.lft.to/lastmile_qr_scan"}, "is_disabled": 0, "fusion_lat": 0.0, "name": "086f2d4652ee0e8d654215e58c8cef59", "fusion_lon": 0.0}, {"is_reserved": 0, "type": "electric_scooter", "bike_id": "f12576125390d9cbda5e36bede1a7333", "lat": 38.91492366666667, "lon": -77.01990933333333, "rental_uris": {"android": "https://dc.lft.to/lastmile_qr_scan", "ios": "https://dc.lft.to/lastmile_qr_scan"}, "is_disabled": 0, "fusion_lat": 0.0, "name": "f12576125390d9cbda5e36bede1a7333", "fusion_lon": 0.0}, {"is_reserved": 0, "type": "electric_scooter", "bike_id": "e49f742430e816dc56566fdd61ffb204", "lat": 38.911002, "lon": -77.02197533333333, "rental_uris": {"android": "https://dc.lft.to/lastmile_qr_scan", "ios": "https://dc.lft.to/lastmile_qr_scan"}, "is_disabled": 0, "fusion_lat": 0.0, "name": "e49f742430e816dc56566fdd61ffb204", "fusion_lon": 0.0}, {"is_reserved": 0, "type": "electric_scooter", "bike_id": "3aa446bebf95d15eb2ff4e2664bd7ad4", "lat": 38.90260466666667, "lon": -77.00331166666666, "rental_uris": {"android": "https://dc.lft.to/lastmile_qr_scan", "ios": "https://dc.lft.to/lastmile_qr_scan"}, "is_disabled": 0, "fusion_lat": 0.0, "name": "3aa446bebf95d15eb2ff4e2664bd7ad4", "fusion_lon": 0.0}, {"is_reserved": 0, "type": "electric_scooter", "bike_id": "9b505c99dedbc42aee631288ace6c712", "lat": 38.937184333333335, "lon": -77.03262683333334, "rental_uris": {"android": "https://dc.lft.to/lastmile_qr_scan", "ios": "https://dc.lft.to/lastmile_qr_scan"}, "is_disabled": 0, "fusion_lat": 0.0, "name": "9b505c99dedbc42aee631288ace6c712", "fusion_lon": 0.0}, {"is_reserved": 0, "type": "electric_scooter", "bike_id": "9629ea925df90ba70bc4c2dc0cce908b", "lat": 38.93223866666666, "lon": -77.0282425, "rental_uris": {"android": "https://dc.lft.to/lastmile_qr_scan", "ios": "https://dc.lft.to/lastmile_qr_scan"}, "is_disabled": 0, "fusion_lat": 0.0, "name": "9629ea925df90ba70bc4c2dc0cce908b", "fusion_lon": 0.0}, {"is_reserved": 0, "type": "electric_scooter", "bike_id": "442a91ec07963511102b2a7544e8be59", "lat": 38.918175, "lon": -77.0330495, "rental_uris": {"android": "https://dc.lft.to/lastmile_qr_scan", "ios": "https://dc.lft.to/lastmile_qr_scan"}, "is_disabled": 0, "fusion_lat": 0.0, "name": "442a91ec07963511102b2a7544e8be59", "fusion_lon": 0.0}, {"is_reserved": 0, "type": "electric_bike", "bike_id": "1430f6c7617c84f217ed9ad4d8e35c55", "lat": 38.89132216666667, "lon": -77.18290816666666, "rental_uris": {"android": "https://dc.lft.to/lastmile_qr_scan", "ios": "https://dc.lft.to/lastmile_qr_scan"}, "is_disabled": 0, "fusion_lat": 0.0, "name": "1430f6c7617c84f217ed9ad4d8e35c55", "fusion_lon": 0.0}, {"is_reserved": 0, "type": "electric_scooter", "bike_id": "03f375f0993377565599ac2b010c7849", "lat": 38.920496166666666, "lon": -77.04196616666667, "rental_uris": {"android": "https://dc.lft.to/lastmile_qr_scan", "ios": "https://dc.lft.to/lastmile_qr_scan"}, "is_disabled": 0, "fusion_lat": 0.0, "name": "03f375f0993377565599ac2b010c7849", "fusion_lon": 0.0}, {"is_reserved": 0, "type": "electric_scooter", "bike_id": "7f537cb168e1fb22971f9bd8cd2ab90e", "lat": 38.92043066666667, "lon": -77.048225, "rental_uris": {"android": "https://dc.lft.to/lastmile_qr_scan", "ios": "https://dc.lft.to/lastmile_qr_scan"}, "is_disabled": 0, "fusion_lat": 0.0, "name": "7f537cb168e1fb22971f9bd8cd2ab90e", "fusion_lon": 0.0}, {"is_reserved": 0, "type": "electric_scooter", "bike_id": "f2b24ed0f0adee48f085d9778651f403", "lat": 38.909835666666666, "lon": -77.045164, "rental_uris": {"android": "https://dc.lft.to/lastmile_qr_scan", "ios": "https://dc.lft.to/lastmile_qr_scan"}, "is_disabled": 0, "fusion_lat": 0.0, "name": "f2b24ed0f0adee48f085d9778651f403", "fusion_lon": 0.0}, {"is_reserved": 0, "type": "electric_scooter", "bike_id": "c40aa0516ef1e8cb9ff68f5db51eb8e6", "lat": 38.914204833333336, "lon": -77.0318225, "rental_uris": {"android": "https://dc.lft.to/lastmile_qr_scan", "ios": "https://dc.lft.to/lastmile_qr_scan"}, "is_disabled": 0, "fusion_lat": 0.0, "name": "c40aa0516ef1e8cb9ff68f5db51eb8e6", "fusion_lon": 0.0}, {"is_reserved": 0, "type": "electric_scooter", "bike_id": "5e3b860dd983de98ce973303562f8ddd", "lat": 38.9192075, "lon": -77.04808233333333, "rental_uris": {"android": "https://dc.lft.to/lastmile_qr_scan", "ios": "https://dc.lft.to/lastmile_qr_scan"}, "is_disabled": 0, "fusion_lat": 0.0, "name": "5e3b860dd983de98ce973303562f8ddd", "fusion_lon": 0.0}, {"is_reserved": 0, "type": "electric_scooter", "bike_id": "7a2f815e5b1b1cc28c7c82dc3bf6924f", "lat": 38.944205333333336, "lon": -77.06322983333334, "rental_uris": {"android": "https://dc.lft.to/lastmile_qr_scan", "ios": "https://dc.lft.to/lastmile_qr_scan"}, "is_disabled": 0, "fusion_lat": 0.0, "name": "7a2f815e5b1b1cc28c7c82dc3bf6924f", "fusion_lon": 0.0}, {"is_reserved": 0, "type": "electric_scooter", "bike_id": "00ee8346ddf010ccfd755e744d322b46", "lat": 38.916790166666665, "lon": -77.023927, "rental_uris": {"android": "https://dc.lft.to/lastmile_qr_scan", "ios": "https://dc.lft.to/lastmile_qr_scan"}, "is_disabled": 0, "fusion_lat": 0.0, "name": "00ee8346ddf010ccfd755e744d322b46", "fusion_lon": 0.0}, {"is_reserved": 0, "type": "electric_scooter", "bike_id": "794f6c0cc056799065979edc343b33c0", "lat": 38.90566, "lon": -77.00582783333333, "rental_uris": {"android": "https://dc.lft.to/lastmile_qr_scan", "ios": "https://dc.lft.to/lastmile_qr_scan"}, "is_disabled": 0, "fusion_lat": 0.0, "name": "794f6c0cc056799065979edc343b33c0", "fusion_lon": 0.0}, {"is_reserved": 0, "type": "electric_scooter", "bike_id": "3481a13b6dc805e588c3c7c2e3d1a6ba", "lat": 38.85328533333333, "lon": -76.98001883333333, "rental_uris": {"android": "https://dc.lft.to/lastmile_qr_scan", "ios": "https://dc.lft.to/lastmile_qr_scan"}, "is_disabled": 0, "fusion_lat": 0.0, "name": "3481a13b6dc805e588c3c7c2e3d1a6ba", "fusion_lon": 0.0}, {"is_reserved": 0, "type": "electric_scooter", "bike_id": "80fb5091bb2f143787baffbfd42d5b4b", "lat": 38.8922235, "lon": -77.03179383333334, "rental_uris": {"android": "https://dc.lft.to/lastmile_qr_scan", "ios": "https://dc.lft.to/lastmile_qr_scan"}, "is_disabled": 0, "fusion_lat": 0.0, "name": "80fb5091bb2f143787baffbfd42d5b4b", "fusion_lon": 0.0}, {"is_reserved": 0, "type": "electric_scooter", "bike_id": "88dd3aa5652959c076d43b5b4b25a595", "lat": 38.9067375, "lon": -77.00921883333334, "rental_uris": {"android": "https://dc.lft.to/lastmile_qr_scan", "ios": "https://dc.lft.to/lastmile_qr_scan"}, "is_disabled": 0, "fusion_lat": 0.0, "name": "88dd3aa5652959c076d43b5b4b25a595", "fusion_lon": 0.0}, {"is_reserved": 0, "type": "electric_scooter", "bike_id": "e7d40e2b69505dfe86d0d9d442c9fea1", "lat": 38.935949, "lon": -77.05860316666667, "rental_uris": {"android": "https://dc.lft.to/lastmile_qr_scan", "ios": "https://dc.lft.to/lastmile_qr_scan"}, "is_disabled": 0, "fusion_lat": 0.0, "name": "e7d40e2b69505dfe86d0d9d442c9fea1", "fusion_lon": 0.0}, {"is_reserved": 0, "type": "electric_scooter", "bike_id": "efd7981d575d1fbee95d0245f83acafd", "lat": 38.892208, "lon": -77.03106383333333, "rental_uris": {"android": "https://dc.lft.to/lastmile_qr_scan", "ios": "https://dc.lft.to/lastmile_qr_scan"}, "is_disabled": 0, "fusion_lat": 0.0, "name": "efd7981d575d1fbee95d0245f83acafd", "fusion_lon": 0.0}, {"is_reserved": 0, "type": "electric_scooter", "bike_id": "05a245e975060a62900cf27c93fe9ecc", "lat": 38.92993383333334, "lon": -77.05510266666667, "rental_uris": {"android": "https://dc.lft.to/lastmile_qr_scan", "ios": "https://dc.lft.to/lastmile_qr_scan"}, "is_disabled": 0, "fusion_lat": 0.0, "name": "05a245e975060a62900cf27c93fe9ecc", "fusion_lon": 0.0}, {"is_reserved": 0, "type": "electric_scooter", "bike_id": "c88d0f0be5bd25cc16f7ccebccdb8bb4", "lat": 38.90033966666667, "lon": -77.025763, "rental_uris": {"android": "https://dc.lft.to/lastmile_qr_scan", "ios": "https://dc.lft.to/lastmile_qr_scan"}, "is_disabled": 0, "fusion_lat": 0.0, "name": "c88d0f0be5bd25cc16f7ccebccdb8bb4", "fusion_lon": 0.0}, {"is_reserved": 0, "type": "electric_bike", "bike_id": "dc50469fb6cbf84161d0a409a3e1277b", "lat": 38.86449, "lon": -76.98992233333334, "rental_uris": {"android": "https://dc.lft.to/lastmile_qr_scan", "ios": "https://dc.lft.to/lastmile_qr_scan"}, "is_disabled": 0, "fusion_lat": 0.0, "name": "dc50469fb6cbf84161d0a409a3e1277b", "fusion_lon": 0.0}, {"is_reserved": 0, "type": "electric_scooter", "bike_id": "187ff618eb651e45fb06efd81ffd4687", "lat": 38.90189633333333, "lon": -77.04888466666667, "rental_uris": {"android": "https://dc.lft.to/lastmile_qr_scan", "ios": "https://dc.lft.to/lastmile_qr_scan"}, "is_disabled": 0, "fusion_lat": 0.0, "name": "187ff618eb651e45fb06efd81ffd4687", "fusion_lon": 0.0}, {"is_reserved": 0, "type": "electric_scooter", "bike_id": "8178b332993c168d50461bdd3ac32dc8", "lat": 38.917475, "lon": -77.02789583333333, "rental_uris": {"android": "https://dc.lft.to/lastmile_qr_scan", "ios": "https://dc.lft.to/lastmile_qr_scan"}, "is_disabled": 0, "fusion_lat": 0.0, "name": "8178b332993c168d50461bdd3ac32dc8", "fusion_lon": 0.0}, {"is_reserved": 0, "type": "electric_scooter", "bike_id": "a64a573c02f665ecb03d73afa49f5cbf", "lat": 38.928358, "lon": -77.05515783333334, "rental_uris": {"android": "https://dc.lft.to/lastmile_qr_scan", "ios": "https://dc.lft.to/lastmile_qr_scan"}, "is_disabled": 0, "fusion_lat": 0.0, "name": "a64a573c02f665ecb03d73afa49f5cbf", "fusion_lon": 0.0}, {"is_reserved": 0, "type": "electric_scooter", "bike_id": "3015785a9f37feaf152322537e81fa26", "lat": 38.8918875, "lon": -76.99851216666667, "rental_uris": {"android": "https://dc.lft.to/lastmile_qr_scan", "ios": "https://dc.lft.to/lastmile_qr_scan"}, "is_disabled": 0, "fusion_lat": 0.0, "name": "3015785a9f37feaf152322537e81fa26", "fusion_lon": 0.0}, {"is_reserved": 0, "type": "electric_scooter", "bike_id": "6e949d11fed9bc6afdcc3b19138df5b0", "lat": 38.9040045, "lon": -77.06297366666666, "rental_uris": {"android": "https://dc.lft.to/lastmile_qr_scan", "ios": "https://dc.lft.to/lastmile_qr_scan"}, "is_disabled": 0, "fusion_lat": 0.0, "name": "6e949d11fed9bc6afdcc3b19138df5b0", "fusion_lon": 0.0}, {"is_reserved": 0, "type": "electric_scooter", "bike_id": "5af87459e0fdf5325e985f5b691482f3", "lat": 38.92432433333333, "lon": -77.00316433333333, "rental_uris": {"android": "https://dc.lft.to/lastmile_qr_scan", "ios": "https://dc.lft.to/lastmile_qr_scan"}, "is_disabled": 0, "fusion_lat": 0.0, "name": "5af87459e0fdf5325e985f5b691482f3", "fusion_lon": 0.0}, {"is_reserved": 0, "type": "electric_scooter", "bike_id": "29709b7c4fe27a40182d1210104cee88", "lat": 38.898692, "lon": -76.94665233333333, "rental_uris": {"android": "https://dc.lft.to/lastmile_qr_scan", "ios": "https://dc.lft.to/lastmile_qr_scan"}, "is_disabled": 0, "fusion_lat": 0.0, "name": "29709b7c4fe27a40182d1210104cee88", "fusion_lon": 0.0}, {"is_reserved": 0, "type": "electric_scooter", "bike_id": "4315fca0b2bde326991d90b74c0a69a1", "lat": 38.9170535, "lon": -77.0284675, "rental_uris": {"android": "https://dc.lft.to/lastmile_qr_scan", "ios": "https://dc.lft.to/lastmile_qr_scan"}, "is_disabled": 0, "fusion_lat": 0.0, "name": "4315fca0b2bde326991d90b74c0a69a1", "fusion_lon": 0.0}, {"is_reserved": 0, "type": "electric_scooter", "bike_id": "2519ae34ddb2d691faa360dc310c3ebf", "lat": 38.92864316666667, "lon": -77.01373466666666, "rental_uris": {"android": "https://dc.lft.to/lastmile_qr_scan", "ios": "https://dc.lft.to/lastmile_qr_scan"}, "is_disabled": 0, "fusion_lat": 0.0, "name": "2519ae34ddb2d691faa360dc310c3ebf", "fusion_lon": 0.0}, {"is_reserved": 0, "type": "electric_scooter", "bike_id": "3b203bbb5a021c5e97203ebabae2b39a", "lat": 38.90731783333333, "lon": -77.01681316666667, "rental_uris": {"android": "https://dc.lft.to/lastmile_qr_scan", "ios": "https://dc.lft.to/lastmile_qr_scan"}, "is_disabled": 0, "fusion_lat": 0.0, "name": "3b203bbb5a021c5e97203ebabae2b39a", "fusion_lon": 0.0}, {"is_reserved": 0, "type": "electric_scooter", "bike_id": "44704b8dbc1472dd524de821c5e2adad", "lat": 38.892263666666665, "lon": -77.04349433333333, "rental_uris": {"android": "https://dc.lft.to/lastmile_qr_scan", "ios": "https://dc.lft.to/lastmile_qr_scan"}, "is_disabled": 0, "fusion_lat": 0.0, "name": "44704b8dbc1472dd524de821c5e2adad", "fusion_lon": 0.0}, {"is_reserved": 0, "type": "electric_scooter", "bike_id": "27f543052950913dbe9f24a9e2c06f6d", "lat": 38.884781333333336, "lon": -77.02339933333333, "rental_uris": {"android": "https://dc.lft.to/lastmile_qr_scan", "ios": "https://dc.lft.to/lastmile_qr_scan"}, "is_disabled": 0, "fusion_lat": 0.0, "name": "27f543052950913dbe9f24a9e2c06f6d", "fusion_lon": 0.0}, {"is_reserved": 0, "type": "electric_scooter", "bike_id": "4b477f7b76ce5371ffacd843d2bd7a0c", "lat": 38.897310833333336, "lon": -76.99509166666667, "rental_uris": {"android": "https://dc.lft.to/lastmile_qr_scan", "ios": "https://dc.lft.to/lastmile_qr_scan"}, "is_disabled": 0, "fusion_lat": 0.0, "name": "4b477f7b76ce5371ffacd843d2bd7a0c", "fusion_lon": 0.0}, {"is_reserved": 0, "type": "electric_scooter", "bike_id": "535043c614639e4f3e20dc63aff7d830", "lat": 38.91644933333333, "lon": -77.03204466666666, "rental_uris": {"android": "https://dc.lft.to/lastmile_qr_scan", "ios": "https://dc.lft.to/lastmile_qr_scan"}, "is_disabled": 0, "fusion_lat": 0.0, "name": "535043c614639e4f3e20dc63aff7d830", "fusion_lon": 0.0}, {"is_reserved": 0, "type": "electric_scooter", "bike_id": "2a599e7d4f477eeaa2449fb1fa947d14", "lat": 38.915778333333336, "lon": -76.98385383333333, "rental_uris": {"android": "https://dc.lft.to/lastmile_qr_scan", "ios": "https://dc.lft.to/lastmile_qr_scan"}, "is_disabled": 0, "fusion_lat": 0.0, "name": "2a599e7d4f477eeaa2449fb1fa947d14", "fusion_lon": 0.0}, {"is_reserved": 0, "type": "electric_scooter", "bike_id": "e62b824c904cfc65e244e7125422e3be", "lat": 38.916481166666664, "lon": -77.03197883333333, "rental_uris": {"android": "https://dc.lft.to/lastmile_qr_scan", "ios": "https://dc.lft.to/lastmile_qr_scan"}, "is_disabled": 0, "fusion_lat": 0.0, "name": "e62b824c904cfc65e244e7125422e3be", "fusion_lon": 0.0}, {"is_reserved": 0, "type": "electric_scooter", "bike_id": "1604d4d727ee4310395ecc47653d54ee", "lat": 38.944539, "lon": -77.0280035, "rental_uris": {"android": "https://dc.lft.to/lastmile_qr_scan", "ios": "https://dc.lft.to/lastmile_qr_scan"}, "is_disabled": 0, "fusion_lat": 0.0, "name": "1604d4d727ee4310395ecc47653d54ee", "fusion_lon": 0.0}, {"is_reserved": 0, "type": "electric_bike", "bike_id": "739493a93e4fdbd32122febaadf8c0bd", "lat": 38.830317, "lon": -77.08374883333333, "rental_uris": {"android": "https://dc.lft.to/lastmile_qr_scan", "ios": "https://dc.lft.to/lastmile_qr_scan"}, "is_disabled": 0, "fusion_lat": 0.0, "name": "739493a93e4fdbd32122febaadf8c0bd", "fusion_lon": 0.0}, {"is_reserved": 0, "type": "electric_scooter", "bike_id": "d9807ba6a1f818bb77f4060a339c4241", "lat": 38.92513983333333, "lon": -77.02282383333333, "rental_uris": {"android": "https://dc.lft.to/lastmile_qr_scan", "ios": "https://dc.lft.to/lastmile_qr_scan"}, "is_disabled": 0, "fusion_lat": 0.0, "name": "d9807ba6a1f818bb77f4060a339c4241", "fusion_lon": 0.0}, {"is_reserved": 0, "type": "electric_scooter", "bike_id": "1c66b92334909fafc42a812343c8fab8", "lat": 38.9290655, "lon": -77.02485433333334, "rental_uris": {"android": "https://dc.lft.to/lastmile_qr_scan", "ios": "https://dc.lft.to/lastmile_qr_scan"}, "is_disabled": 0, "fusion_lat": 0.0, "name": "1c66b92334909fafc42a812343c8fab8", "fusion_lon": 0.0}, {"is_reserved": 0, "type": "electric_bike", "bike_id": "596fe0bc33a821e971320a9baa8c0629", "lat": 38.85780916666667, "lon": -76.98746133333333, "rental_uris": {"android": "https://dc.lft.to/lastmile_qr_scan", "ios": "https://dc.lft.to/lastmile_qr_scan"}, "is_disabled": 0, "fusion_lat": 0.0, "name": "596fe0bc33a821e971320a9baa8c0629", "fusion_lon": 0.0}, {"is_reserved": 0, "type": "electric_bike", "bike_id": "ef8c46eecccee2d9bfb5053eee87a7d6", "lat": 38.88418133333333, "lon": -76.95758216666667, "rental_uris": {"android": "https://dc.lft.to/lastmile_qr_scan", "ios": "https://dc.lft.to/lastmile_qr_scan"}, "is_disabled": 0, "fusion_lat": 0.0, "name": "ef8c46eecccee2d9bfb5053eee87a7d6", "fusion_lon": 0.0}, {"is_reserved": 0, "type": "electric_scooter", "bike_id": "f8104a30fa5f5aa5cd9b3407ef5a08f4", "lat": 38.88324466666667, "lon": -77.00950166666667, "rental_uris": {"android": "https://dc.lft.to/lastmile_qr_scan", "ios": "https://dc.lft.to/lastmile_qr_scan"}, "is_disabled": 0, "fusion_lat": 0.0, "name": "f8104a30fa5f5aa5cd9b3407ef5a08f4", "fusion_lon": 0.0}, {"is_reserved": 0, "type": "electric_scooter", "bike_id": "c2923cd451be2cdd673ea236c665d457", "lat": 38.901777, "lon": -77.0034125, "rental_uris": {"android": "https://dc.lft.to/lastmile_qr_scan", "ios": "https://dc.lft.to/lastmile_qr_scan"}, "is_disabled": 0, "fusion_lat": 0.0, "name": "c2923cd451be2cdd673ea236c665d457", "fusion_lon": 0.0}, {"is_reserved": 0, "type": "electric_scooter", "bike_id": "602fb3b255a49f83ce82c58f0816f4c2", "lat": 38.9372025, "lon": -77.03262133333334, "rental_uris": {"android": "https://dc.lft.to/lastmile_qr_scan", "ios": "https://dc.lft.to/lastmile_qr_scan"}, "is_disabled": 0, "fusion_lat": 0.0, "name": "602fb3b255a49f83ce82c58f0816f4c2", "fusion_lon": 0.0}, {"is_reserved": 0, "type": "electric_scooter", "bike_id": "26901720d1166d6bb6738fed02739347", "lat": 38.91820516666667, "lon": -77.03254516666667, "rental_uris": {"android": "https://dc.lft.to/lastmile_qr_scan", "ios": "https://dc.lft.to/lastmile_qr_scan"}, "is_disabled": 0, "fusion_lat": 0.0, "name": "26901720d1166d6bb6738fed02739347", "fusion_lon": 0.0}, {"is_reserved": 0, "type": "electric_scooter", "bike_id": "b4e7dd806155e9b2738225ee9798376a", "lat": 38.96410266666667, "lon": -77.03276966666667, "rental_uris": {"android": "https://dc.lft.to/lastmile_qr_scan", "ios": "https://dc.lft.to/lastmile_qr_scan"}, "is_disabled": 0, "fusion_lat": 0.0, "name": "b4e7dd806155e9b2738225ee9798376a", "fusion_lon": 0.0}, {"is_reserved": 0, "type": "electric_scooter", "bike_id": "3a15d0136ae8c07a389ea4d312a96de8", "lat": 38.92976516666667, "lon": -77.054999, "rental_uris": {"android": "https://dc.lft.to/lastmile_qr_scan", "ios": "https://dc.lft.to/lastmile_qr_scan"}, "is_disabled": 0, "fusion_lat": 0.0, "name": "3a15d0136ae8c07a389ea4d312a96de8", "fusion_lon": 0.0}, {"is_reserved": 0, "type": "electric_bike", "bike_id": "655b0a0cea2514a102cf0bb9b156e19d", "lat": 38.7839655, "lon": -77.12060433333333, "rental_uris": {"android": "https://dc.lft.to/lastmile_qr_scan", "ios": "https://dc.lft.to/lastmile_qr_scan"}, "is_disabled": 0, "fusion_lat": 0.0, "name": "655b0a0cea2514a102cf0bb9b156e19d", "fusion_lon": 0.0}, {"is_reserved": 0, "type": "electric_scooter", "bike_id": "45fc591af7e26b62a6a0ed96fd2a46b0", "lat": 38.920728833333335, "lon": -77.04548633333333, "rental_uris": {"android": "https://dc.lft.to/lastmile_qr_scan", "ios": "https://dc.lft.to/lastmile_qr_scan"}, "is_disabled": 0, "fusion_lat": 0.0, "name": "45fc591af7e26b62a6a0ed96fd2a46b0", "fusion_lon": 0.0}, {"is_reserved": 0, "type": "electric_scooter", "bike_id": "b89956d4b23bad0c5434b6409c807fb9", "lat": 38.900158166666664, "lon": -76.996229, "rental_uris": {"android": "https://dc.lft.to/lastmile_qr_scan", "ios": "https://dc.lft.to/lastmile_qr_scan"}, "is_disabled": 0, "fusion_lat": 0.0, "name": "b89956d4b23bad0c5434b6409c807fb9", "fusion_lon": 0.0}, {"is_reserved": 0, "type": "electric_scooter", "bike_id": "cc5055b4ca90e518e1cec648044d3959", "lat": 38.900149666666664, "lon": -76.99624466666667, "rental_uris": {"android": "https://dc.lft.to/lastmile_qr_scan", "ios": "https://dc.lft.to/lastmile_qr_scan"}, "is_disabled": 0, "fusion_lat": 0.0, "name": "cc5055b4ca90e518e1cec648044d3959", "fusion_lon": 0.0}, {"is_reserved": 0, "type": "electric_scooter", "bike_id": "5f1e3e500f077089d46488e01fe61095", "lat": 38.94440983333333, "lon": -77.06348366666667, "rental_uris": {"android": "https://dc.lft.to/lastmile_qr_scan", "ios": "https://dc.lft.to/lastmile_qr_scan"}, "is_disabled": 0, "fusion_lat": 0.0, "name": "5f1e3e500f077089d46488e01fe61095", "fusion_lon": 0.0}, {"is_reserved": 0, "type": "electric_scooter", "bike_id": "32455d8fc57064e80226fea26197805b", "lat": 38.91707983333333, "lon": -77.03865133333333, "rental_uris": {"android": "https://dc.lft.to/lastmile_qr_scan", "ios": "https://dc.lft.to/lastmile_qr_scan"}, "is_disabled": 0, "fusion_lat": 0.0, "name": "32455d8fc57064e80226fea26197805b", "fusion_lon": 0.0}, {"is_reserved": 0, "type": "electric_scooter", "bike_id": "87cb3c392cb4de4bbda600c16e089dba", "lat": 38.90867516666667, "lon": -77.03468933333333, "rental_uris": {"android": "https://dc.lft.to/lastmile_qr_scan", "ios": "https://dc.lft.to/lastmile_qr_scan"}, "is_disabled": 0, "fusion_lat": 0.0, "name": "87cb3c392cb4de4bbda600c16e089dba", "fusion_lon": 0.0}, {"is_reserved": 0, "type": "electric_bike", "bike_id": "0a29480f0b42b84c4e44cff24fc7859f", "lat": 38.894583833333336, "lon": -77.19132583333334, "rental_uris": {"android": "https://dc.lft.to/lastmile_qr_scan", "ios": "https://dc.lft.to/lastmile_qr_scan"}, "is_disabled": 0, "fusion_lat": 0.0, "name": "0a29480f0b42b84c4e44cff24fc7859f", "fusion_lon": 0.0}, {"is_reserved": 0, "type": "electric_scooter", "bike_id": "9fb770c84ec2ddb731625dcf386c7b41", "lat": 38.90154866666666, "lon": -77.04185633333333, "rental_uris": {"android": "https://dc.lft.to/lastmile_qr_scan", "ios": "https://dc.lft.to/lastmile_qr_scan"}, "is_disabled": 0, "fusion_lat": 0.0, "name": "9fb770c84ec2ddb731625dcf386c7b41", "fusion_lon": 0.0}, {"is_reserved": 0, "type": "electric_scooter", "bike_id": "59fe19f7de811f0c25b90121d96a20e4", "lat": 38.89742733333333, "lon": -77.02003216666667, "rental_uris": {"android": "https://dc.lft.to/lastmile_qr_scan", "ios": "https://dc.lft.to/lastmile_qr_scan"}, "is_disabled": 0, "fusion_lat": 0.0, "name": "59fe19f7de811f0c25b90121d96a20e4", "fusion_lon": 0.0}, {"is_reserved": 0, "type": "electric_scooter", "bike_id": "9d0edb5b283279413dffb8c8fe702866", "lat": 38.905892, "lon": -76.950499, "rental_uris": {"android": "https://dc.lft.to/lastmile_qr_scan", "ios": "https://dc.lft.to/lastmile_qr_scan"}, "is_disabled": 0, "fusion_lat": 0.0, "name": "9d0edb5b283279413dffb8c8fe702866", "fusion_lon": 0.0}, {"is_reserved": 0, "type": "electric_scooter", "bike_id": "0239b625517aadfb9f4e9a04c7d75889", "lat": 38.8838565, "lon": -76.93042533333333, "rental_uris": {"android": "https://dc.lft.to/lastmile_qr_scan", "ios": "https://dc.lft.to/lastmile_qr_scan"}, "is_disabled": 0, "fusion_lat": 0.0, "name": "0239b625517aadfb9f4e9a04c7d75889", "fusion_lon": 0.0}, {"is_reserved": 0, "type": "electric_scooter", "bike_id": "69b3e6b7ee5602a74d8139abbb4f32eb", "lat": 38.932146, "lon": -77.03887366666666, "rental_uris": {"android": "https://dc.lft.to/lastmile_qr_scan", "ios": "https://dc.lft.to/lastmile_qr_scan"}, "is_disabled": 0, "fusion_lat": 0.0, "name": "69b3e6b7ee5602a74d8139abbb4f32eb", "fusion_lon": 0.0}, {"is_reserved": 0, "type": "electric_scooter", "bike_id": "86d61e3566c8788f48d7b5a5ddae869e", "lat": 38.91754133333333, "lon": -77.0407585, "rental_uris": {"android": "https://dc.lft.to/lastmile_qr_scan", "ios": "https://dc.lft.to/lastmile_qr_scan"}, "is_disabled": 0, "fusion_lat": 0.0, "name": "86d61e3566c8788f48d7b5a5ddae869e", "fusion_lon": 0.0}, {"is_reserved": 0, "type": "electric_scooter", "bike_id": "f08163ffe84160b6875da6e3ce8981f2", "lat": 38.92495566666667, "lon": -77.021264, "rental_uris": {"android": "https://dc.lft.to/lastmile_qr_scan", "ios": "https://dc.lft.to/lastmile_qr_scan"}, "is_disabled": 0, "fusion_lat": 0.0, "name": "f08163ffe84160b6875da6e3ce8981f2", "fusion_lon": 0.0}, {"is_reserved": 0, "type": "electric_scooter", "bike_id": "0d4f1432ef390f1936dbc5b4011de464", "lat": 38.908323833333334, "lon": -77.04345566666667, "rental_uris": {"android": "https://dc.lft.to/lastmile_qr_scan", "ios": "https://dc.lft.to/lastmile_qr_scan"}, "is_disabled": 0, "fusion_lat": 0.0, "name": "0d4f1432ef390f1936dbc5b4011de464", "fusion_lon": 0.0}, {"is_reserved": 0, "type": "electric_bike", "bike_id": "ca9b84ebc399dedb7303a807109501b5", "lat": 38.92455966666667, "lon": -77.0191805, "rental_uris": {"android": "https://dc.lft.to/lastmile_qr_scan", "ios": "https://dc.lft.to/lastmile_qr_scan"}, "is_disabled": 0, "fusion_lat": 0.0, "name": "ca9b84ebc399dedb7303a807109501b5", "fusion_lon": 0.0}, {"is_reserved": 0, "type": "electric_scooter", "bike_id": "c815973bf2787dc8016ebf2a18d2181f", "lat": 38.9026835, "lon": -77.03385433333334, "rental_uris": {"android": "https://dc.lft.to/lastmile_qr_scan", "ios": "https://dc.lft.to/lastmile_qr_scan"}, "is_disabled": 0, "fusion_lat": 0.0, "name": "c815973bf2787dc8016ebf2a18d2181f", "fusion_lon": 0.0}, {"is_reserved": 0, "type": "electric_scooter", "bike_id": "51e3afefd8218d82f1f84b7ddf0c9072", "lat": 38.9205705, "lon": -77.04177683333333, "rental_uris": {"android": "https://dc.lft.to/lastmile_qr_scan", "ios": "https://dc.lft.to/lastmile_qr_scan"}, "is_disabled": 0, "fusion_lat": 0.0, "name": "51e3afefd8218d82f1f84b7ddf0c9072", "fusion_lon": 0.0}, {"is_reserved": 0, "type": "electric_bike", "bike_id": "df3bc9ee509a100381d31bec60097a92", "lat": 39.0858915, "lon": -77.12252433333333, "rental_uris": {"android": "https://dc.lft.to/lastmile_qr_scan", "ios": "https://dc.lft.to/lastmile_qr_scan"}, "is_disabled": 0, "fusion_lat": 0.0, "name": "df3bc9ee509a100381d31bec60097a92", "fusion_lon": 0.0}, {"is_reserved": 0, "type": "electric_scooter", "bike_id": "445a108a018efad53d85904210cef909", "lat": 38.907758666666666, "lon": -77.04511783333334, "rental_uris": {"android": "https://dc.lft.to/lastmile_qr_scan", "ios": "https://dc.lft.to/lastmile_qr_scan"}, "is_disabled": 0, "fusion_lat": 0.0, "name": "445a108a018efad53d85904210cef909", "fusion_lon": 0.0}, {"is_reserved": 0, "type": "electric_scooter", "bike_id": "2bcfa6fd4f794a87c412f7d15bd72ba1", "lat": 38.91478983333333, "lon": -77.03183533333333, "rental_uris": {"android": "https://dc.lft.to/lastmile_qr_scan", "ios": "https://dc.lft.to/lastmile_qr_scan"}, "is_disabled": 0, "fusion_lat": 0.0, "name": "2bcfa6fd4f794a87c412f7d15bd72ba1", "fusion_lon": 0.0}, {"is_reserved": 0, "type": "electric_scooter", "bike_id": "661dc97a6e8a89a2faf9b1fbb7dfba7f", "lat": 38.8967405, "lon": -77.00518333333333, "rental_uris": {"android": "https://dc.lft.to/lastmile_qr_scan", "ios": "https://dc.lft.to/lastmile_qr_scan"}, "is_disabled": 0, "fusion_lat": 0.0, "name": "661dc97a6e8a89a2faf9b1fbb7dfba7f", "fusion_lon": 0.0}, {"is_reserved": 0, "type": "electric_scooter", "bike_id": "23548578b631bacfcdd504fc6a7ac59c", "lat": 38.88730666666667, "lon": -77.02826, "rental_uris": {"android": "https://dc.lft.to/lastmile_qr_scan", "ios": "https://dc.lft.to/lastmile_qr_scan"}, "is_disabled": 0, "fusion_lat": 0.0, "name": "23548578b631bacfcdd504fc6a7ac59c", "fusion_lon": 0.0}, {"is_reserved": 0, "type": "electric_bike", "bike_id": "09df276bfd2c0370c58ee7548d79fbfd", "lat": 38.880131666666664, "lon": -77.10952066666667, "rental_uris": {"android": "https://dc.lft.to/lastmile_qr_scan", "ios": "https://dc.lft.to/lastmile_qr_scan"}, "is_disabled": 0, "fusion_lat": 0.0, "name": "09df276bfd2c0370c58ee7548d79fbfd", "fusion_lon": 0.0}, {"is_reserved": 0, "type": "electric_scooter", "bike_id": "8a7293487b6f78fcf625807bafbb3e12", "lat": 38.91809716666667, "lon": -77.02698666666667, "rental_uris": {"android": "https://dc.lft.to/lastmile_qr_scan", "ios": "https://dc.lft.to/lastmile_qr_scan"}, "is_disabled": 0, "fusion_lat": 0.0, "name": "8a7293487b6f78fcf625807bafbb3e12", "fusion_lon": 0.0}, {"is_reserved": 0, "type": "electric_scooter", "bike_id": "8389be88af88fca1fbfdf14ff799fbfe", "lat": 38.88338616666667, "lon": -76.94284716666667, "rental_uris": {"android": "https://dc.lft.to/lastmile_qr_scan", "ios": "https://dc.lft.to/lastmile_qr_scan"}, "is_disabled": 0, "fusion_lat": 0.0, "name": "8389be88af88fca1fbfdf14ff799fbfe", "fusion_lon": 0.0}, {"is_reserved": 0, "type": "electric_scooter", "bike_id": "f7623e67bf9bb885a21a0cc31db552d3", "lat": 38.88418433333333, "lon": -77.025821, "rental_uris": {"android": "https://dc.lft.to/lastmile_qr_scan", "ios": "https://dc.lft.to/lastmile_qr_scan"}, "is_disabled": 0, "fusion_lat": 0.0, "name": "f7623e67bf9bb885a21a0cc31db552d3", "fusion_lon": 0.0}, {"is_reserved": 0, "type": "electric_scooter", "bike_id": "f64029ed2e3b35df358f9221c6c57a13", "lat": 38.892541, "lon": -76.9948385, "rental_uris": {"android": "https://dc.lft.to/lastmile_qr_scan", "ios": "https://dc.lft.to/lastmile_qr_scan"}, "is_disabled": 0, "fusion_lat": 0.0, "name": "f64029ed2e3b35df358f9221c6c57a13", "fusion_lon": 0.0}, {"is_reserved": 0, "type": "electric_scooter", "bike_id": "f78d6bc3d61d7437e72e65801c7cef66", "lat": 38.90901516666667, "lon": -77.04280883333334, "rental_uris": {"android": "https://dc.lft.to/lastmile_qr_scan", "ios": "https://dc.lft.to/lastmile_qr_scan"}, "is_disabled": 0, "fusion_lat": 0.0, "name": "f78d6bc3d61d7437e72e65801c7cef66", "fusion_lon": 0.0}, {"is_reserved": 0, "type": "electric_scooter", "bike_id": "9997908f270e5abc39ebe73f55201821", "lat": 38.88493316666667, "lon": -77.007134, "rental_uris": {"android": "https://dc.lft.to/lastmile_qr_scan", "ios": "https://dc.lft.to/lastmile_qr_scan"}, "is_disabled": 0, "fusion_lat": 0.0, "name": "9997908f270e5abc39ebe73f55201821", "fusion_lon": 0.0}, {"is_reserved": 0, "type": "electric_scooter", "bike_id": "63d82fd5186a59c737afe2cbc7b39f51", "lat": 38.92448533333334, "lon": -77.0339995, "rental_uris": {"android": "https://dc.lft.to/lastmile_qr_scan", "ios": "https://dc.lft.to/lastmile_qr_scan"}, "is_disabled": 0, "fusion_lat": 0.0, "name": "63d82fd5186a59c737afe2cbc7b39f51", "fusion_lon": 0.0}, {"is_reserved": 0, "type": "electric_scooter", "bike_id": "74feac4185c1b09e7998d3b9fba334bb", "lat": 38.8922645, "lon": -77.02795766666667, "rental_uris": {"android": "https://dc.lft.to/lastmile_qr_scan", "ios": "https://dc.lft.to/lastmile_qr_scan"}, "is_disabled": 0, "fusion_lat": 0.0, "name": "74feac4185c1b09e7998d3b9fba334bb", "fusion_lon": 0.0}, {"is_reserved": 0, "type": "electric_scooter", "bike_id": "e8af23e6ce10f1a50fb3df3af438479b", "lat": 38.91261733333333, "lon": -77.0281375, "rental_uris": {"android": "https://dc.lft.to/lastmile_qr_scan", "ios": "https://dc.lft.to/lastmile_qr_scan"}, "is_disabled": 0, "fusion_lat": 0.0, "name": "e8af23e6ce10f1a50fb3df3af438479b", "fusion_lon": 0.0}, {"is_reserved": 0, "type": "electric_scooter", "bike_id": "5a62a7d7859f503af95e1f32475bcf91", "lat": 38.89218966666667, "lon": -77.03302616666667, "rental_uris": {"android": "https://dc.lft.to/lastmile_qr_scan", "ios": "https://dc.lft.to/lastmile_qr_scan"}, "is_disabled": 0, "fusion_lat": 0.0, "name": "5a62a7d7859f503af95e1f32475bcf91", "fusion_lon": 0.0}, {"is_reserved": 0, "type": "electric_scooter", "bike_id": "70c2d6599b2eaf58ed24a1b4632a01cb", "lat": 38.9068635, "lon": -77.06262633333333, "rental_uris": {"android": "https://dc.lft.to/lastmile_qr_scan", "ios": "https://dc.lft.to/lastmile_qr_scan"}, "is_disabled": 0, "fusion_lat": 0.0, "name": "70c2d6599b2eaf58ed24a1b4632a01cb", "fusion_lon": 0.0}, {"is_reserved": 0, "type": "electric_scooter", "bike_id": "371befae151c59d9aa88911e68c5e875", "lat": 38.90293166666667, "lon": -77.02277066666667, "rental_uris": {"android": "https://dc.lft.to/lastmile_qr_scan", "ios": "https://dc.lft.to/lastmile_qr_scan"}, "is_disabled": 0, "fusion_lat": 0.0, "name": "371befae151c59d9aa88911e68c5e875", "fusion_lon": 0.0}, {"is_reserved": 0, "type": "electric_scooter", "bike_id": "f6c74c5936a971955b16d8958d915422", "lat": 38.88614066666667, "lon": -76.99653983333333, "rental_uris": {"android": "https://dc.lft.to/lastmile_qr_scan", "ios": "https://dc.lft.to/lastmile_qr_scan"}, "is_disabled": 0, "fusion_lat": 0.0, "name": "f6c74c5936a971955b16d8958d915422", "fusion_lon": 0.0}, {"is_reserved": 0, "type": "electric_scooter", "bike_id": "dc01cb839dc5e495c02c041172b8037d", "lat": 38.925792333333334, "lon": -76.99489783333334, "rental_uris": {"android": "https://dc.lft.to/lastmile_qr_scan", "ios": "https://dc.lft.to/lastmile_qr_scan"}, "is_disabled": 0, "fusion_lat": 0.0, "name": "dc01cb839dc5e495c02c041172b8037d", "fusion_lon": 0.0}, {"is_reserved": 0, "type": "electric_scooter", "bike_id": "6accdef94225d67af3f6924e7a63510a", "lat": 38.91275616666667, "lon": -77.031654, "rental_uris": {"android": "https://dc.lft.to/lastmile_qr_scan", "ios": "https://dc.lft.to/lastmile_qr_scan"}, "is_disabled": 0, "fusion_lat": 0.0, "name": "6accdef94225d67af3f6924e7a63510a", "fusion_lon": 0.0}, {"is_reserved": 0, "type": "electric_bike", "bike_id": "17cfb836275d841487a7a3b705081598", "lat": 39.03813483333333, "lon": -77.0422285, "rental_uris": {"android": "https://dc.lft.to/lastmile_qr_scan", "ios": "https://dc.lft.to/lastmile_qr_scan"}, "is_disabled": 0, "fusion_lat": 0.0, "name": "17cfb836275d841487a7a3b705081598", "fusion_lon": 0.0}, {"is_reserved": 0, "type": "electric_scooter", "bike_id": "7cf111970c00301e759fe7ea967afc05", "lat": 38.8844135, "lon": -76.9576685, "rental_uris": {"android": "https://dc.lft.to/lastmile_qr_scan", "ios": "https://dc.lft.to/lastmile_qr_scan"}, "is_disabled": 0, "fusion_lat": 0.0, "name": "7cf111970c00301e759fe7ea967afc05", "fusion_lon": 0.0}, {"is_reserved": 0, "type": "electric_bike", "bike_id": "d81e0f0642be7db9ec3e347962272c9c", "lat": 38.9595365, "lon": -77.01985566666667, "rental_uris": {"android": "https://dc.lft.to/lastmile_qr_scan", "ios": "https://dc.lft.to/lastmile_qr_scan"}, "is_disabled": 0, "fusion_lat": 0.0, "name": "d81e0f0642be7db9ec3e347962272c9c", "fusion_lon": 0.0}, {"is_reserved": 0, "type": "electric_scooter", "bike_id": "c7ae4c044ef09235c60c057f9769ca38", "lat": 38.896803, "lon": -77.00517383333333, "rental_uris": {"android": "https://dc.lft.to/lastmile_qr_scan", "ios": "https://dc.lft.to/lastmile_qr_scan"}, "is_disabled": 0, "fusion_lat": 0.0, "name": "c7ae4c044ef09235c60c057f9769ca38", "fusion_lon": 0.0}, {"is_reserved": 0, "type": "electric_scooter", "bike_id": "77191f3a24fd4e7cba748e4587510a25", "lat": 38.919290833333335, "lon": -77.03421033333333, "rental_uris": {"android": "https://dc.lft.to/lastmile_qr_scan", "ios": "https://dc.lft.to/lastmile_qr_scan"}, "is_disabled": 0, "fusion_lat": 0.0, "name": "77191f3a24fd4e7cba748e4587510a25", "fusion_lon": 0.0}, {"is_reserved": 0, "type": "electric_scooter", "bike_id": "617ee7fc1e055d7e81e550d34fe5cfdc", "lat": 38.904920833333335, "lon": -77.03227766666667, "rental_uris": {"android": "https://dc.lft.to/lastmile_qr_scan", "ios": "https://dc.lft.to/lastmile_qr_scan"}, "is_disabled": 0, "fusion_lat": 0.0, "name": "617ee7fc1e055d7e81e550d34fe5cfdc", "fusion_lon": 0.0}, {"is_reserved": 0, "type": "electric_scooter", "bike_id": "d58d79c3b14b6699e5e4825a7d33933f", "lat": 38.937185666666664, "lon": -77.032639, "rental_uris": {"android": "https://dc.lft.to/lastmile_qr_scan", "ios": "https://dc.lft.to/lastmile_qr_scan"}, "is_disabled": 0, "fusion_lat": 0.0, "name": "d58d79c3b14b6699e5e4825a7d33933f", "fusion_lon": 0.0}, {"is_reserved": 0, "type": "electric_scooter", "bike_id": "8c0385d57c4fc9e4783b5ef5d79c1ec5", "lat": 38.8861075, "lon": -76.98815933333333, "rental_uris": {"android": "https://dc.lft.to/lastmile_qr_scan", "ios": "https://dc.lft.to/lastmile_qr_scan"}, "is_disabled": 0, "fusion_lat": 0.0, "name": "8c0385d57c4fc9e4783b5ef5d79c1ec5", "fusion_lon": 0.0}, {"is_reserved": 0, "type": "electric_scooter", "bike_id": "67bb5cdd4f298707dce88af93b47c1bb", "lat": 38.862444333333336, "lon": -76.99488433333333, "rental_uris": {"android": "https://dc.lft.to/lastmile_qr_scan", "ios": "https://dc.lft.to/lastmile_qr_scan"}, "is_disabled": 0, "fusion_lat": 0.0, "name": "67bb5cdd4f298707dce88af93b47c1bb", "fusion_lon": 0.0}, {"is_reserved": 0, "type": "electric_scooter", "bike_id": "61ebce568b3abd49b6ea15640c167047", "lat": 38.924605166666666, "lon": -77.05224616666666, "rental_uris": {"android": "https://dc.lft.to/lastmile_qr_scan", "ios": "https://dc.lft.to/lastmile_qr_scan"}, "is_disabled": 0, "fusion_lat": 0.0, "name": "61ebce568b3abd49b6ea15640c167047", "fusion_lon": 0.0}, {"is_reserved": 0, "type": "electric_scooter", "bike_id": "abb727a05f26c1f80c43a1d15bb8b180", "lat": 38.928402166666665, "lon": -77.00600233333333, "rental_uris": {"android": "https://dc.lft.to/lastmile_qr_scan", "ios": "https://dc.lft.to/lastmile_qr_scan"}, "is_disabled": 0, "fusion_lat": 0.0, "name": "abb727a05f26c1f80c43a1d15bb8b180", "fusion_lon": 0.0}, {"is_reserved": 0, "type": "electric_scooter", "bike_id": "f9202802797f130d77c2350fd588354c", "lat": 38.896133, "lon": -77.0440265, "rental_uris": {"android": "https://dc.lft.to/lastmile_qr_scan", "ios": "https://dc.lft.to/lastmile_qr_scan"}, "is_disabled": 0, "fusion_lat": 0.0, "name": "f9202802797f130d77c2350fd588354c", "fusion_lon": 0.0}, {"is_reserved": 0, "type": "electric_scooter", "bike_id": "b34990528e689d4d31bf98df8f21cb42", "lat": 38.89968433333333, "lon": -77.016077, "rental_uris": {"android": "https://dc.lft.to/lastmile_qr_scan", "ios": "https://dc.lft.to/lastmile_qr_scan"}, "is_disabled": 0, "fusion_lat": 0.0, "name": "b34990528e689d4d31bf98df8f21cb42", "fusion_lon": 0.0}, {"is_reserved": 0, "type": "electric_bike", "bike_id": "c4aa43adddd5309581c71fbe1339ba25", "lat": 38.833, "lon": -77.08410566666667, "rental_uris": {"android": "https://dc.lft.to/lastmile_qr_scan", "ios": "https://dc.lft.to/lastmile_qr_scan"}, "is_disabled": 0, "fusion_lat": 0.0, "name": "c4aa43adddd5309581c71fbe1339ba25", "fusion_lon": 0.0}, {"is_reserved": 0, "type": "electric_scooter", "bike_id": "49af340a9e1443d1f13695f33f6caaec", "lat": 38.91007583333333, "lon": -77.02197633333333, "rental_uris": {"android": "https://dc.lft.to/lastmile_qr_scan", "ios": "https://dc.lft.to/lastmile_qr_scan"}, "is_disabled": 0, "fusion_lat": 0.0, "name": "49af340a9e1443d1f13695f33f6caaec", "fusion_lon": 0.0}, {"is_reserved": 0, "type": "electric_scooter", "bike_id": "079472f6c257e49f0e4460a6049e38b4", "lat": 38.926013833333336, "lon": -77.02155383333333, "rental_uris": {"android": "https://dc.lft.to/lastmile_qr_scan", "ios": "https://dc.lft.to/lastmile_qr_scan"}, "is_disabled": 0, "fusion_lat": 0.0, "name": "079472f6c257e49f0e4460a6049e38b4", "fusion_lon": 0.0}, {"is_reserved": 0, "type": "electric_scooter", "bike_id": "a43052cfc3f24c1f0c3a63f0a3603de7", "lat": 38.91564733333333, "lon": -77.03089166666666, "rental_uris": {"android": "https://dc.lft.to/lastmile_qr_scan", "ios": "https://dc.lft.to/lastmile_qr_scan"}, "is_disabled": 0, "fusion_lat": 0.0, "name": "a43052cfc3f24c1f0c3a63f0a3603de7", "fusion_lon": 0.0}, {"is_reserved": 0, "type": "electric_scooter", "bike_id": "90d157f458b57590c707cadb60dea9a9", "lat": 38.9126285, "lon": -77.02852433333334, "rental_uris": {"android": "https://dc.lft.to/lastmile_qr_scan", "ios": "https://dc.lft.to/lastmile_qr_scan"}, "is_disabled": 0, "fusion_lat": 0.0, "name": "90d157f458b57590c707cadb60dea9a9", "fusion_lon": 0.0}, {"is_reserved": 0, "type": "electric_scooter", "bike_id": "7d63676f59bd2ea0cb9b1a9ca2a01bab", "lat": 38.960347666666664, "lon": -77.024261, "rental_uris": {"android": "https://dc.lft.to/lastmile_qr_scan", "ios": "https://dc.lft.to/lastmile_qr_scan"}, "is_disabled": 0, "fusion_lat": 0.0, "name": "7d63676f59bd2ea0cb9b1a9ca2a01bab", "fusion_lon": 0.0}, {"is_reserved": 0, "type": "electric_scooter", "bike_id": "8dac981b78e26cb150ae58282c9a933a", "lat": 38.89829016666667, "lon": -76.94650733333333, "rental_uris": {"android": "https://dc.lft.to/lastmile_qr_scan", "ios": "https://dc.lft.to/lastmile_qr_scan"}, "is_disabled": 0, "fusion_lat": 0.0, "name": "8dac981b78e26cb150ae58282c9a933a", "fusion_lon": 0.0}, {"is_reserved": 0, "type": "electric_scooter", "bike_id": "4268bef66b440feaf6308953d2c2dad2", "lat": 38.93636216666667, "lon": -77.073006, "rental_uris": {"android": "https://dc.lft.to/lastmile_qr_scan", "ios": "https://dc.lft.to/lastmile_qr_scan"}, "is_disabled": 0, "fusion_lat": 0.0, "name": "4268bef66b440feaf6308953d2c2dad2", "fusion_lon": 0.0}, {"is_reserved": 0, "type": "electric_scooter", "bike_id": "9ce33a02fed1a062cb6d03a2ce01fa89", "lat": 38.917544166666666, "lon": -77.01464666666666, "rental_uris": {"android": "https://dc.lft.to/lastmile_qr_scan", "ios": "https://dc.lft.to/lastmile_qr_scan"}, "is_disabled": 0, "fusion_lat": 0.0, "name": "9ce33a02fed1a062cb6d03a2ce01fa89", "fusion_lon": 0.0}, {"is_reserved": 0, "type": "electric_scooter", "bike_id": "e96b63f62f3ba2f9d747a951d4a153da", "lat": 38.899676666666664, "lon": -77.0448165, "rental_uris": {"android": "https://dc.lft.to/lastmile_qr_scan", "ios": "https://dc.lft.to/lastmile_qr_scan"}, "is_disabled": 0, "fusion_lat": 0.0, "name": "e96b63f62f3ba2f9d747a951d4a153da", "fusion_lon": 0.0}, {"is_reserved": 0, "type": "electric_scooter", "bike_id": "10b162e4e96727b607d8bb8c5593fc6a", "lat": 38.838052, "lon": -76.99849433333333, "rental_uris": {"android": "https://dc.lft.to/lastmile_qr_scan", "ios": "https://dc.lft.to/lastmile_qr_scan"}, "is_disabled": 0, "fusion_lat": 0.0, "name": "10b162e4e96727b607d8bb8c5593fc6a", "fusion_lon": 0.0}, {"is_reserved": 0, "type": "electric_scooter", "bike_id": "7ffa47fd4274450d7df9a7d01f81efa6", "lat": 38.929113666666666, "lon": -77.03260933333334, "rental_uris": {"android": "https://dc.lft.to/lastmile_qr_scan", "ios": "https://dc.lft.to/lastmile_qr_scan"}, "is_disabled": 0, "fusion_lat": 0.0, "name": "7ffa47fd4274450d7df9a7d01f81efa6", "fusion_lon": 0.0}, {"is_reserved": 0, "type": "electric_bike", "bike_id": "de6d2fa48ecba1e39053c7f3f8017e94", "lat": 38.863332, "lon": -76.98724083333333, "rental_uris": {"android": "https://dc.lft.to/lastmile_qr_scan", "ios": "https://dc.lft.to/lastmile_qr_scan"}, "is_disabled": 0, "fusion_lat": 0.0, "name": "de6d2fa48ecba1e39053c7f3f8017e94", "fusion_lon": 0.0}, {"is_reserved": 0, "type": "electric_scooter", "bike_id": "4228e7c848d1f1690b159e5eae687572", "lat": 38.91763183333333, "lon": -77.00360066666667, "rental_uris": {"android": "https://dc.lft.to/lastmile_qr_scan", "ios": "https://dc.lft.to/lastmile_qr_scan"}, "is_disabled": 0, "fusion_lat": 0.0, "name": "4228e7c848d1f1690b159e5eae687572", "fusion_lon": 0.0}, {"is_reserved": 0, "type": "electric_scooter", "bike_id": "b6cf9fcb2d43eb75566b9e5491336319", "lat": 38.900178833333335, "lon": -76.991656, "rental_uris": {"android": "https://dc.lft.to/lastmile_qr_scan", "ios": "https://dc.lft.to/lastmile_qr_scan"}, "is_disabled": 0, "fusion_lat": 0.0, "name": "b6cf9fcb2d43eb75566b9e5491336319", "fusion_lon": 0.0}, {"is_reserved": 0, "type": "electric_scooter", "bike_id": "deddcf927a48e36562ebb3059f1efb14", "lat": 38.92854283333333, "lon": -77.0363565, "rental_uris": {"android": "https://dc.lft.to/lastmile_qr_scan", "ios": "https://dc.lft.to/lastmile_qr_scan"}, "is_disabled": 0, "fusion_lat": 0.0, "name": "deddcf927a48e36562ebb3059f1efb14", "fusion_lon": 0.0}, {"is_reserved": 0, "type": "electric_bike", "bike_id": "936371e6c4087ef73fa0076363f50904", "lat": 39.000028666666665, "lon": -76.9180485, "rental_uris": {"android": "https://dc.lft.to/lastmile_qr_scan", "ios": "https://dc.lft.to/lastmile_qr_scan"}, "is_disabled": 0, "fusion_lat": 0.0, "name": "936371e6c4087ef73fa0076363f50904", "fusion_lon": 0.0}, {"is_reserved": 0, "type": "electric_scooter", "bike_id": "aaab2222a2b66a0a4f154e0733930550", "lat": 38.918843, "lon": -77.0417335, "rental_uris": {"android": "https://dc.lft.to/lastmile_qr_scan", "ios": "https://dc.lft.to/lastmile_qr_scan"}, "is_disabled": 0, "fusion_lat": 0.0, "name": "aaab2222a2b66a0a4f154e0733930550", "fusion_lon": 0.0}, {"is_reserved": 0, "type": "electric_scooter", "bike_id": "9b5d7927652c02bb0cb91671740e85b4", "lat": 38.917205333333335, "lon": -77.03836466666667, "rental_uris": {"android": "https://dc.lft.to/lastmile_qr_scan", "ios": "https://dc.lft.to/lastmile_qr_scan"}, "is_disabled": 0, "fusion_lat": 0.0, "name": "9b5d7927652c02bb0cb91671740e85b4", "fusion_lon": 0.0}, {"is_reserved": 0, "type": "electric_bike", "bike_id": "af9a4c05d8adfcd89e830b7334845e59", "lat": 39.010979166666665, "lon": -77.0495585, "rental_uris": {"android": "https://dc.lft.to/lastmile_qr_scan", "ios": "https://dc.lft.to/lastmile_qr_scan"}, "is_disabled": 0, "fusion_lat": 0.0, "name": "af9a4c05d8adfcd89e830b7334845e59", "fusion_lon": 0.0}, {"is_reserved": 0, "type": "electric_scooter", "bike_id": "bc6d21027805afe5f849ba750c1563e2", "lat": 38.91991933333333, "lon": -76.97303416666666, "rental_uris": {"android": "https://dc.lft.to/lastmile_qr_scan", "ios": "https://dc.lft.to/lastmile_qr_scan"}, "is_disabled": 0, "fusion_lat": 0.0, "name": "bc6d21027805afe5f849ba750c1563e2", "fusion_lon": 0.0}, {"is_reserved": 0, "type": "electric_scooter", "bike_id": "adb3b3e9e7e1ef8eafd4241a66f6b2e0", "lat": 38.89324466666667, "lon": -77.02950516666667, "rental_uris": {"android": "https://dc.lft.to/lastmile_qr_scan", "ios": "https://dc.lft.to/lastmile_qr_scan"}, "is_disabled": 0, "fusion_lat": 0.0, "name": "adb3b3e9e7e1ef8eafd4241a66f6b2e0", "fusion_lon": 0.0}, {"is_reserved": 0, "type": "electric_scooter", "bike_id": "7aee1cbfaeaaa00f746dcb667630ec3b", "lat": 38.938204, "lon": -77.0242145, "rental_uris": {"android": "https://dc.lft.to/lastmile_qr_scan", "ios": "https://dc.lft.to/lastmile_qr_scan"}, "is_disabled": 0, "fusion_lat": 0.0, "name": "7aee1cbfaeaaa00f746dcb667630ec3b", "fusion_lon": 0.0}, {"is_reserved": 0, "type": "electric_scooter", "bike_id": "f857d7c904c6bcd5a261d36474a7716a", "lat": 38.932000333333335, "lon": -76.99612416666666, "rental_uris": {"android": "https://dc.lft.to/lastmile_qr_scan", "ios": "https://dc.lft.to/lastmile_qr_scan"}, "is_disabled": 0, "fusion_lat": 0.0, "name": "f857d7c904c6bcd5a261d36474a7716a", "fusion_lon": 0.0}, {"is_reserved": 0, "type": "electric_scooter", "bike_id": "a608fdbd02957dcf63081fba53324489", "lat": 38.90187566666667, "lon": -77.001178, "rental_uris": {"android": "https://dc.lft.to/lastmile_qr_scan", "ios": "https://dc.lft.to/lastmile_qr_scan"}, "is_disabled": 0, "fusion_lat": 0.0, "name": "a608fdbd02957dcf63081fba53324489", "fusion_lon": 0.0}, {"is_reserved": 0, "type": "electric_bike", "bike_id": "0c47e7c06dea8c7555a8b086b9ddbf40", "lat": 38.8381405, "lon": -77.09520066666667, "rental_uris": {"android": "https://dc.lft.to/lastmile_qr_scan", "ios": "https://dc.lft.to/lastmile_qr_scan"}, "is_disabled": 0, "fusion_lat": 0.0, "name": "0c47e7c06dea8c7555a8b086b9ddbf40", "fusion_lon": 0.0}, {"is_reserved": 0, "type": "electric_bike", "bike_id": "ccec982ffdd178ffebdd6a3a765aea6f", "lat": 38.84035133333333, "lon": -76.97616833333333, "rental_uris": {"android": "https://dc.lft.to/lastmile_qr_scan", "ios": "https://dc.lft.to/lastmile_qr_scan"}, "is_disabled": 0, "fusion_lat": 0.0, "name": "ccec982ffdd178ffebdd6a3a765aea6f", "fusion_lon": 0.0}, {"is_reserved": 0, "type": "electric_scooter", "bike_id": "ee38c8920571e77decf5f75d0231a45f", "lat": 38.902629166666664, "lon": -77.02733683333334, "rental_uris": {"android": "https://dc.lft.to/lastmile_qr_scan", "ios": "https://dc.lft.to/lastmile_qr_scan"}, "is_disabled": 0, "fusion_lat": 0.0, "name": "ee38c8920571e77decf5f75d0231a45f", "fusion_lon": 0.0}, {"is_reserved": 0, "type": "electric_scooter", "bike_id": "5243c3eb026ffb1513c94017bc3c0855", "lat": 38.93662883333333, "lon": -77.0549245, "rental_uris": {"android": "https://dc.lft.to/lastmile_qr_scan", "ios": "https://dc.lft.to/lastmile_qr_scan"}, "is_disabled": 0, "fusion_lat": 0.0, "name": "5243c3eb026ffb1513c94017bc3c0855", "fusion_lon": 0.0}, {"is_reserved": 0, "type": "electric_scooter", "bike_id": "b8cd94ae540bb25b4b46e49b8bbf6de8", "lat": 38.935066, "lon": -77.020046, "rental_uris": {"android": "https://dc.lft.to/lastmile_qr_scan", "ios": "https://dc.lft.to/lastmile_qr_scan"}, "is_disabled": 0, "fusion_lat": 0.0, "name": "b8cd94ae540bb25b4b46e49b8bbf6de8", "fusion_lon": 0.0}, {"is_reserved": 0, "type": "electric_scooter", "bike_id": "dfcbfaa63b7249c36fc09bc4b0da65c8", "lat": 38.91713466666667, "lon": -77.03904766666666, "rental_uris": {"android": "https://dc.lft.to/lastmile_qr_scan", "ios": "https://dc.lft.to/lastmile_qr_scan"}, "is_disabled": 0, "fusion_lat": 0.0, "name": "dfcbfaa63b7249c36fc09bc4b0da65c8", "fusion_lon": 0.0}, {"is_reserved": 0, "type": "electric_scooter", "bike_id": "b6537d1d79cf43e70ff0da8b4e2cb705", "lat": 38.9148835, "lon": -77.009764, "rental_uris": {"android": "https://dc.lft.to/lastmile_qr_scan", "ios": "https://dc.lft.to/lastmile_qr_scan"}, "is_disabled": 0, "fusion_lat": 0.0, "name": "b6537d1d79cf43e70ff0da8b4e2cb705", "fusion_lon": 0.0}, {"is_reserved": 0, "type": "electric_scooter", "bike_id": "4fd7a96af5be0fb289e1cd6a3677d972", "lat": 38.901439, "lon": -77.03207633333334, "rental_uris": {"android": "https://dc.lft.to/lastmile_qr_scan", "ios": "https://dc.lft.to/lastmile_qr_scan"}, "is_disabled": 0, "fusion_lat": 0.0, "name": "4fd7a96af5be0fb289e1cd6a3677d972", "fusion_lon": 0.0}, {"is_reserved": 0, "type": "electric_scooter", "bike_id": "706e223df7ff37526459d285c93f15ac", "lat": 38.919428, "lon": -77.041683, "rental_uris": {"android": "https://dc.lft.to/lastmile_qr_scan", "ios": "https://dc.lft.to/lastmile_qr_scan"}, "is_disabled": 0, "fusion_lat": 0.0, "name": "706e223df7ff37526459d285c93f15ac", "fusion_lon": 0.0}, {"is_reserved": 0, "type": "electric_scooter", "bike_id": "a5ddde47b661cf33cb4675e32b6eb6d8", "lat": 38.89225116666667, "lon": -77.02619183333333, "rental_uris": {"android": "https://dc.lft.to/lastmile_qr_scan", "ios": "https://dc.lft.to/lastmile_qr_scan"}, "is_disabled": 0, "fusion_lat": 0.0, "name": "a5ddde47b661cf33cb4675e32b6eb6d8", "fusion_lon": 0.0}, {"is_reserved": 0, "type": "electric_scooter", "bike_id": "8163471d9c15d3d3482e04a7c0357dad", "lat": 38.89565116666667, "lon": -77.02973683333333, "rental_uris": {"android": "https://dc.lft.to/lastmile_qr_scan", "ios": "https://dc.lft.to/lastmile_qr_scan"}, "is_disabled": 0, "fusion_lat": 0.0, "name": "8163471d9c15d3d3482e04a7c0357dad", "fusion_lon": 0.0}, {"is_reserved": 0, "type": "electric_scooter", "bike_id": "e66216e5a83c83f37a2e048ffd6e9e1e", "lat": 38.91429216666667, "lon": -77.032036, "rental_uris": {"android": "https://dc.lft.to/lastmile_qr_scan", "ios": "https://dc.lft.to/lastmile_qr_scan"}, "is_disabled": 0, "fusion_lat": 0.0, "name": "e66216e5a83c83f37a2e048ffd6e9e1e", "fusion_lon": 0.0}, {"is_reserved": 0, "type": "electric_scooter", "bike_id": "02518dfda9b0237b801912bf61c706cb", "lat": 38.928044, "lon": -77.0232165, "rental_uris": {"android": "https://dc.lft.to/lastmile_qr_scan", "ios": "https://dc.lft.to/lastmile_qr_scan"}, "is_disabled": 0, "fusion_lat": 0.0, "name": "02518dfda9b0237b801912bf61c706cb", "fusion_lon": 0.0}, {"is_reserved": 0, "type": "electric_scooter", "bike_id": "98155aefd764500b40950e170bb54e71", "lat": 38.8696835, "lon": -77.01117816666667, "rental_uris": {"android": "https://dc.lft.to/lastmile_qr_scan", "ios": "https://dc.lft.to/lastmile_qr_scan"}, "is_disabled": 0, "fusion_lat": 0.0, "name": "98155aefd764500b40950e170bb54e71", "fusion_lon": 0.0}, {"is_reserved": 0, "type": "electric_scooter", "bike_id": "48445ddb7b4555b6bf500cbd645a6d01", "lat": 38.9196295, "lon": -77.02380766666667, "rental_uris": {"android": "https://dc.lft.to/lastmile_qr_scan", "ios": "https://dc.lft.to/lastmile_qr_scan"}, "is_disabled": 0, "fusion_lat": 0.0, "name": "48445ddb7b4555b6bf500cbd645a6d01", "fusion_lon": 0.0}, {"is_reserved": 0, "type": "electric_scooter", "bike_id": "4c28e282085235c629586c09f4db0cf6", "lat": 38.918026833333336, "lon": -77.03187666666666, "rental_uris": {"android": "https://dc.lft.to/lastmile_qr_scan", "ios": "https://dc.lft.to/lastmile_qr_scan"}, "is_disabled": 0, "fusion_lat": 0.0, "name": "4c28e282085235c629586c09f4db0cf6", "fusion_lon": 0.0}, {"is_reserved": 0, "type": "electric_scooter", "bike_id": "a4d2c6ae33d8e1efb149961b57d135b5", "lat": 38.900903666666665, "lon": -77.04941966666667, "rental_uris": {"android": "https://dc.lft.to/lastmile_qr_scan", "ios": "https://dc.lft.to/lastmile_qr_scan"}, "is_disabled": 0, "fusion_lat": 0.0, "name": "a4d2c6ae33d8e1efb149961b57d135b5", "fusion_lon": 0.0}, {"is_reserved": 0, "type": "electric_scooter", "bike_id": "055f11327420b34b2642773a5c66ecef", "lat": 38.883827333333336, "lon": -76.99519583333333, "rental_uris": {"android": "https://dc.lft.to/lastmile_qr_scan", "ios": "https://dc.lft.to/lastmile_qr_scan"}, "is_disabled": 0, "fusion_lat": 0.0, "name": "055f11327420b34b2642773a5c66ecef", "fusion_lon": 0.0}, {"is_reserved": 0, "type": "electric_bike", "bike_id": "7d0e593923885fdaa3fbf4f788aeb37f", "lat": 38.8839305, "lon": -76.95444966666666, "rental_uris": {"android": "https://dc.lft.to/lastmile_qr_scan", "ios": "https://dc.lft.to/lastmile_qr_scan"}, "is_disabled": 0, "fusion_lat": 0.0, "name": "7d0e593923885fdaa3fbf4f788aeb37f", "fusion_lon": 0.0}, {"is_reserved": 0, "type": "electric_scooter", "bike_id": "d6f4e3f13a17bfd712b58216f458c80d", "lat": 38.927299, "lon": -77.0206745, "rental_uris": {"android": "https://dc.lft.to/lastmile_qr_scan", "ios": "https://dc.lft.to/lastmile_qr_scan"}, "is_disabled": 0, "fusion_lat": 0.0, "name": "d6f4e3f13a17bfd712b58216f458c80d", "fusion_lon": 0.0}, {"is_reserved": 0, "type": "electric_scooter", "bike_id": "7b557cc389d111fea40588b900fe8d11", "lat": 38.90531716666667, "lon": -77.025959, "rental_uris": {"android": "https://dc.lft.to/lastmile_qr_scan", "ios": "https://dc.lft.to/lastmile_qr_scan"}, "is_disabled": 0, "fusion_lat": 0.0, "name": "7b557cc389d111fea40588b900fe8d11", "fusion_lon": 0.0}, {"is_reserved": 0, "type": "electric_scooter", "bike_id": "9836fb50f81a38808cc1074a161dbaa8", "lat": 38.91130783333333, "lon": -77.021943, "rental_uris": {"android": "https://dc.lft.to/lastmile_qr_scan", "ios": "https://dc.lft.to/lastmile_qr_scan"}, "is_disabled": 0, "fusion_lat": 0.0, "name": "9836fb50f81a38808cc1074a161dbaa8", "fusion_lon": 0.0}, {"is_reserved": 0, "type": "electric_scooter", "bike_id": "e9f6c54302fca088aa9a1bcf568aaae3", "lat": 38.90525366666667, "lon": -77.0584085, "rental_uris": {"android": "https://dc.lft.to/lastmile_qr_scan", "ios": "https://dc.lft.to/lastmile_qr_scan"}, "is_disabled": 0, "fusion_lat": 0.0, "name": "e9f6c54302fca088aa9a1bcf568aaae3", "fusion_lon": 0.0}, {"is_reserved": 0, "type": "electric_bike", "bike_id": "cf54812bb2af46039d9c9703b24aca0c", "lat": 38.8234185, "lon": -77.05820416666667, "rental_uris": {"android": "https://dc.lft.to/lastmile_qr_scan", "ios": "https://dc.lft.to/lastmile_qr_scan"}, "is_disabled": 0, "fusion_lat": 0.0, "name": "cf54812bb2af46039d9c9703b24aca0c", "fusion_lon": 0.0}, {"is_reserved": 0, "type": "electric_scooter", "bike_id": "4bb15eca93fb91a710eae7e4b521f1b4", "lat": 38.9335985, "lon": -77.02414866666666, "rental_uris": {"android": "https://dc.lft.to/lastmile_qr_scan", "ios": "https://dc.lft.to/lastmile_qr_scan"}, "is_disabled": 0, "fusion_lat": 0.0, "name": "4bb15eca93fb91a710eae7e4b521f1b4", "fusion_lon": 0.0}, {"is_reserved": 0, "type": "electric_bike", "bike_id": "ed271c5ce3e71f1308997fe8b42bf5de", "lat": 38.83880816666667, "lon": -76.94758766666666, "rental_uris": {"android": "https://dc.lft.to/lastmile_qr_scan", "ios": "https://dc.lft.to/lastmile_qr_scan"}, "is_disabled": 0, "fusion_lat": 0.0, "name": "ed271c5ce3e71f1308997fe8b42bf5de", "fusion_lon": 0.0}, {"is_reserved": 0, "type": "electric_scooter", "bike_id": "e808226e751947b0b2852d322be5d226", "lat": 38.944946333333334, "lon": -77.007363, "rental_uris": {"android": "https://dc.lft.to/lastmile_qr_scan", "ios": "https://dc.lft.to/lastmile_qr_scan"}, "is_disabled": 0, "fusion_lat": 0.0, "name": "e808226e751947b0b2852d322be5d226", "fusion_lon": 0.0}, {"is_reserved": 0, "type": "electric_scooter", "bike_id": "db40ffd3e78c131bef6ca1ba0b4c38d0", "lat": 38.9050195, "lon": -77.04183433333333, "rental_uris": {"android": "https://dc.lft.to/lastmile_qr_scan", "ios": "https://dc.lft.to/lastmile_qr_scan"}, "is_disabled": 0, "fusion_lat": 0.0, "name": "db40ffd3e78c131bef6ca1ba0b4c38d0", "fusion_lon": 0.0}, {"is_reserved": 0, "type": "electric_bike", "bike_id": "bf5f1ccb019219b0e9dbfee62ed4e208", "lat": 38.9742695, "lon": -77.0126095, "rental_uris": {"android": "https://dc.lft.to/lastmile_qr_scan", "ios": "https://dc.lft.to/lastmile_qr_scan"}, "is_disabled": 0, "fusion_lat": 0.0, "name": "bf5f1ccb019219b0e9dbfee62ed4e208", "fusion_lon": 0.0}, {"is_reserved": 0, "type": "electric_scooter", "bike_id": "05b7594a5b24826f4f37783ea87e0b54", "lat": 38.90083283333333, "lon": -77.04762283333334, "rental_uris": {"android": "https://dc.lft.to/lastmile_qr_scan", "ios": "https://dc.lft.to/lastmile_qr_scan"}, "is_disabled": 0, "fusion_lat": 0.0, "name": "05b7594a5b24826f4f37783ea87e0b54", "fusion_lon": 0.0}, {"is_reserved": 0, "type": "electric_scooter", "bike_id": "fad61cc6127674665eb53c5a7d46fc1f", "lat": 38.92541516666667, "lon": -77.02979066666667, "rental_uris": {"android": "https://dc.lft.to/lastmile_qr_scan", "ios": "https://dc.lft.to/lastmile_qr_scan"}, "is_disabled": 0, "fusion_lat": 0.0, "name": "fad61cc6127674665eb53c5a7d46fc1f", "fusion_lon": 0.0}, {"is_reserved": 0, "type": "electric_scooter", "bike_id": "2b6aea8d7c60d15cd085f37906e0a383", "lat": 38.912748, "lon": -77.0015595, "rental_uris": {"android": "https://dc.lft.to/lastmile_qr_scan", "ios": "https://dc.lft.to/lastmile_qr_scan"}, "is_disabled": 0, "fusion_lat": 0.0, "name": "2b6aea8d7c60d15cd085f37906e0a383", "fusion_lon": 0.0}, {"is_reserved": 0, "type": "electric_scooter", "bike_id": "1865173d7a0f778da0553ed52abde796", "lat": 38.915678166666666, "lon": -77.021151, "rental_uris": {"android": "https://dc.lft.to/lastmile_qr_scan", "ios": "https://dc.lft.to/lastmile_qr_scan"}, "is_disabled": 0, "fusion_lat": 0.0, "name": "1865173d7a0f778da0553ed52abde796", "fusion_lon": 0.0}, {"is_reserved": 0, "type": "electric_scooter", "bike_id": "36a67973b1914415b70710e2cf60ee32", "lat": 38.932147666666665, "lon": -77.037536, "rental_uris": {"android": "https://dc.lft.to/lastmile_qr_scan", "ios": "https://dc.lft.to/lastmile_qr_scan"}, "is_disabled": 0, "fusion_lat": 0.0, "name": "36a67973b1914415b70710e2cf60ee32", "fusion_lon": 0.0}, {"is_reserved": 0, "type": "electric_scooter", "bike_id": "a64daba08d4b5c22fbf4918a0cc7dd4b", "lat": 38.927160666666666, "lon": -77.040409, "rental_uris": {"android": "https://dc.lft.to/lastmile_qr_scan", "ios": "https://dc.lft.to/lastmile_qr_scan"}, "is_disabled": 0, "fusion_lat": 0.0, "name": "a64daba08d4b5c22fbf4918a0cc7dd4b", "fusion_lon": 0.0}, {"is_reserved": 0, "type": "electric_scooter", "bike_id": "28411eee664bfd5d068da2962f64d6c4", "lat": 38.94195783333333, "lon": -77.02342233333333, "rental_uris": {"android": "https://dc.lft.to/lastmile_qr_scan", "ios": "https://dc.lft.to/lastmile_qr_scan"}, "is_disabled": 0, "fusion_lat": 0.0, "name": "28411eee664bfd5d068da2962f64d6c4", "fusion_lon": 0.0}, {"is_reserved": 0, "type": "electric_scooter", "bike_id": "4a6990234166f19ef2d7dc36b1246f31", "lat": 38.92460483333333, "lon": -77.008883, "rental_uris": {"android": "https://dc.lft.to/lastmile_qr_scan", "ios": "https://dc.lft.to/lastmile_qr_scan"}, "is_disabled": 0, "fusion_lat": 0.0, "name": "4a6990234166f19ef2d7dc36b1246f31", "fusion_lon": 0.0}, {"is_reserved": 0, "type": "electric_scooter", "bike_id": "4ce4816b82086a697daae1e225f96b29", "lat": 38.899757666666666, "lon": -77.03166466666667, "rental_uris": {"android": "https://dc.lft.to/lastmile_qr_scan", "ios": "https://dc.lft.to/lastmile_qr_scan"}, "is_disabled": 0, "fusion_lat": 0.0, "name": "4ce4816b82086a697daae1e225f96b29", "fusion_lon": 0.0}, {"is_reserved": 0, "type": "electric_scooter", "bike_id": "b6d79c451968961a0dd7f8af6b72a5f5", "lat": 38.87726216666667, "lon": -77.01761616666667, "rental_uris": {"android": "https://dc.lft.to/lastmile_qr_scan", "ios": "https://dc.lft.to/lastmile_qr_scan"}, "is_disabled": 0, "fusion_lat": 0.0, "name": "b6d79c451968961a0dd7f8af6b72a5f5", "fusion_lon": 0.0}, {"is_reserved": 0, "type": "electric_scooter", "bike_id": "933614251f08127e5088aa4c5e1d96fe", "lat": 38.90677816666667, "lon": -77.07508183333333, "rental_uris": {"android": "https://dc.lft.to/lastmile_qr_scan", "ios": "https://dc.lft.to/lastmile_qr_scan"}, "is_disabled": 0, "fusion_lat": 0.0, "name": "933614251f08127e5088aa4c5e1d96fe", "fusion_lon": 0.0}, {"is_reserved": 0, "type": "electric_scooter", "bike_id": "7d750fd77cba20e2df096339238ac244", "lat": 38.924498, "lon": -77.00003433333333, "rental_uris": {"android": "https://dc.lft.to/lastmile_qr_scan", "ios": "https://dc.lft.to/lastmile_qr_scan"}, "is_disabled": 0, "fusion_lat": 0.0, "name": "7d750fd77cba20e2df096339238ac244", "fusion_lon": 0.0}, {"is_reserved": 0, "type": "electric_scooter", "bike_id": "c9edf984f02c9ad62b8ae07f3bfa995e", "lat": 38.8934945, "lon": -77.01163416666667, "rental_uris": {"android": "https://dc.lft.to/lastmile_qr_scan", "ios": "https://dc.lft.to/lastmile_qr_scan"}, "is_disabled": 0, "fusion_lat": 0.0, "name": "c9edf984f02c9ad62b8ae07f3bfa995e", "fusion_lon": 0.0}, {"is_reserved": 0, "type": "electric_scooter", "bike_id": "25bfa08af1910696ea171903f1b114fd", "lat": 38.929845, "lon": -77.05500966666666, "rental_uris": {"android": "https://dc.lft.to/lastmile_qr_scan", "ios": "https://dc.lft.to/lastmile_qr_scan"}, "is_disabled": 0, "fusion_lat": 0.0, "name": "25bfa08af1910696ea171903f1b114fd", "fusion_lon": 0.0}, {"is_reserved": 0, "type": "electric_scooter", "bike_id": "4ff690f31aaed3add2664d763c8599a9", "lat": 38.91658416666667, "lon": -77.02249316666666, "rental_uris": {"android": "https://dc.lft.to/lastmile_qr_scan", "ios": "https://dc.lft.to/lastmile_qr_scan"}, "is_disabled": 0, "fusion_lat": 0.0, "name": "4ff690f31aaed3add2664d763c8599a9", "fusion_lon": 0.0}, {"is_reserved": 0, "type": "electric_scooter", "bike_id": "09533bfd6e4a71b63c5025c9679cc986", "lat": 38.90559733333333, "lon": -77.0652235, "rental_uris": {"android": "https://dc.lft.to/lastmile_qr_scan", "ios": "https://dc.lft.to/lastmile_qr_scan"}, "is_disabled": 0, "fusion_lat": 0.0, "name": "09533bfd6e4a71b63c5025c9679cc986", "fusion_lon": 0.0}, {"is_reserved": 0, "type": "electric_scooter", "bike_id": "2d7d0604ad7f4d6c7ea29013f4f7dcd5", "lat": 38.892266666666664, "lon": -77.04159233333333, "rental_uris": {"android": "https://dc.lft.to/lastmile_qr_scan", "ios": "https://dc.lft.to/lastmile_qr_scan"}, "is_disabled": 0, "fusion_lat": 0.0, "name": "2d7d0604ad7f4d6c7ea29013f4f7dcd5", "fusion_lon": 0.0}, {"is_reserved": 0, "type": "electric_scooter", "bike_id": "b29b0712925b8683abaa7bb66a0da166", "lat": 38.897507833333336, "lon": -77.0076925, "rental_uris": {"android": "https://dc.lft.to/lastmile_qr_scan", "ios": "https://dc.lft.to/lastmile_qr_scan"}, "is_disabled": 0, "fusion_lat": 0.0, "name": "b29b0712925b8683abaa7bb66a0da166", "fusion_lon": 0.0}, {"is_reserved": 0, "type": "electric_scooter", "bike_id": "e32752e39e9795e3182975adeac21e36", "lat": 38.92806683333333, "lon": -77.03622316666667, "rental_uris": {"android": "https://dc.lft.to/lastmile_qr_scan", "ios": "https://dc.lft.to/lastmile_qr_scan"}, "is_disabled": 0, "fusion_lat": 0.0, "name": "e32752e39e9795e3182975adeac21e36", "fusion_lon": 0.0}, {"is_reserved": 0, "type": "electric_scooter", "bike_id": "d3c5c413e134d5968de653379deadcad", "lat": 38.931935833333334, "lon": -77.03831583333333, "rental_uris": {"android": "https://dc.lft.to/lastmile_qr_scan", "ios": "https://dc.lft.to/lastmile_qr_scan"}, "is_disabled": 0, "fusion_lat": 0.0, "name": "d3c5c413e134d5968de653379deadcad", "fusion_lon": 0.0}, {"is_reserved": 0, "type": "electric_scooter", "bike_id": "399acb18833a392b6fbf7411a7776222", "lat": 38.90967633333333, "lon": -77.0144015, "rental_uris": {"android": "https://dc.lft.to/lastmile_qr_scan", "ios": "https://dc.lft.to/lastmile_qr_scan"}, "is_disabled": 0, "fusion_lat": 0.0, "name": "399acb18833a392b6fbf7411a7776222", "fusion_lon": 0.0}, {"is_reserved": 0, "type": "electric_scooter", "bike_id": "b9bc6b694495724720ff9e0b3b924d3c", "lat": 38.924047, "lon": -76.95143016666667, "rental_uris": {"android": "https://dc.lft.to/lastmile_qr_scan", "ios": "https://dc.lft.to/lastmile_qr_scan"}, "is_disabled": 0, "fusion_lat": 0.0, "name": "b9bc6b694495724720ff9e0b3b924d3c", "fusion_lon": 0.0}, {"is_reserved": 0, "type": "electric_scooter", "bike_id": "7db86958fc3fbf09c010b1542a67716a", "lat": 38.910635166666665, "lon": -77.02189416666667, "rental_uris": {"android": "https://dc.lft.to/lastmile_qr_scan", "ios": "https://dc.lft.to/lastmile_qr_scan"}, "is_disabled": 0, "fusion_lat": 0.0, "name": "7db86958fc3fbf09c010b1542a67716a", "fusion_lon": 0.0}, {"is_reserved": 0, "type": "electric_scooter", "bike_id": "c67fe531d373ac044faf47defe61a260", "lat": 38.896213, "lon": -77.02625716666667, "rental_uris": {"android": "https://dc.lft.to/lastmile_qr_scan", "ios": "https://dc.lft.to/lastmile_qr_scan"}, "is_disabled": 0, "fusion_lat": 0.0, "name": "c67fe531d373ac044faf47defe61a260", "fusion_lon": 0.0}, {"is_reserved": 0, "type": "electric_scooter", "bike_id": "32f4e2318e9cc4a7e9e39d7573043952", "lat": 38.9000235, "lon": -77.02896116666666, "rental_uris": {"android": "https://dc.lft.to/lastmile_qr_scan", "ios": "https://dc.lft.to/lastmile_qr_scan"}, "is_disabled": 0, "fusion_lat": 0.0, "name": "32f4e2318e9cc4a7e9e39d7573043952", "fusion_lon": 0.0}, {"is_reserved": 0, "type": "electric_bike", "bike_id": "02da2a0e29d9188e887f7bee1fecdafe", "lat": 38.881219333333334, "lon": -77.0166665, "rental_uris": {"android": "https://dc.lft.to/lastmile_qr_scan", "ios": "https://dc.lft.to/lastmile_qr_scan"}, "is_disabled": 0, "fusion_lat": 0.0, "name": "02da2a0e29d9188e887f7bee1fecdafe", "fusion_lon": 0.0}, {"is_reserved": 0, "type": "electric_scooter", "bike_id": "2dcb48f4e69d9d470b2512eda26e5c83", "lat": 38.909633666666664, "lon": -77.021323, "rental_uris": {"android": "https://dc.lft.to/lastmile_qr_scan", "ios": "https://dc.lft.to/lastmile_qr_scan"}, "is_disabled": 0, "fusion_lat": 0.0, "name": "2dcb48f4e69d9d470b2512eda26e5c83", "fusion_lon": 0.0}, {"is_reserved": 0, "type": "electric_scooter", "bike_id": "3c5d5a552f5cb1659bc413c753d2e4cb", "lat": 38.89631266666667, "lon": -77.00208116666667, "rental_uris": {"android": "https://dc.lft.to/lastmile_qr_scan", "ios": "https://dc.lft.to/lastmile_qr_scan"}, "is_disabled": 0, "fusion_lat": 0.0, "name": "3c5d5a552f5cb1659bc413c753d2e4cb", "fusion_lon": 0.0}, {"is_reserved": 0, "type": "electric_bike", "bike_id": "e23d92ac758c7bbec9207ce9f47e18e4", "lat": 38.914158666666665, "lon": -77.0048235, "rental_uris": {"android": "https://dc.lft.to/lastmile_qr_scan", "ios": "https://dc.lft.to/lastmile_qr_scan"}, "is_disabled": 0, "fusion_lat": 0.0, "name": "e23d92ac758c7bbec9207ce9f47e18e4", "fusion_lon": 0.0}, {"is_reserved": 0, "type": "electric_scooter", "bike_id": "b00ddc52d7437d4245ba05a3b7499876", "lat": 38.89879416666667, "lon": -77.04873983333333, "rental_uris": {"android": "https://dc.lft.to/lastmile_qr_scan", "ios": "https://dc.lft.to/lastmile_qr_scan"}, "is_disabled": 0, "fusion_lat": 0.0, "name": "b00ddc52d7437d4245ba05a3b7499876", "fusion_lon": 0.0}, {"is_reserved": 0, "type": "electric_scooter", "bike_id": "4e627fef3d71a1d54cec019b1376a93c", "lat": 38.90618833333333, "lon": -77.02001566666667, "rental_uris": {"android": "https://dc.lft.to/lastmile_qr_scan", "ios": "https://dc.lft.to/lastmile_qr_scan"}, "is_disabled": 0, "fusion_lat": 0.0, "name": "4e627fef3d71a1d54cec019b1376a93c", "fusion_lon": 0.0}, {"is_reserved": 0, "type": "electric_scooter", "bike_id": "ef59f32bbd0cb20f47a4a7bd2f43a11d", "lat": 38.92614316666667, "lon": -77.02160683333334, "rental_uris": {"android": "https://dc.lft.to/lastmile_qr_scan", "ios": "https://dc.lft.to/lastmile_qr_scan"}, "is_disabled": 0, "fusion_lat": 0.0, "name": "ef59f32bbd0cb20f47a4a7bd2f43a11d", "fusion_lon": 0.0}, {"is_reserved": 0, "type": "electric_scooter", "bike_id": "e4644ad9643625e86ef7736689df0a62", "lat": 38.900816166666665, "lon": -77.04872616666667, "rental_uris": {"android": "https://dc.lft.to/lastmile_qr_scan", "ios": "https://dc.lft.to/lastmile_qr_scan"}, "is_disabled": 0, "fusion_lat": 0.0, "name": "e4644ad9643625e86ef7736689df0a62", "fusion_lon": 0.0}, {"is_reserved": 0, "type": "electric_bike", "bike_id": "51d6f85b0eda5cdb3acbbc393c2921f8", "lat": 38.84538, "lon": -77.07637516666666, "rental_uris": {"android": "https://dc.lft.to/lastmile_qr_scan", "ios": "https://dc.lft.to/lastmile_qr_scan"}, "is_disabled": 0, "fusion_lat": 0.0, "name": "51d6f85b0eda5cdb3acbbc393c2921f8", "fusion_lon": 0.0}, {"is_reserved": 0, "type": "electric_bike", "bike_id": "54b6d7f0f098dcc09bab29861f7794c3", "lat": 38.9415565, "lon": -77.00192133333333, "rental_uris": {"android": "https://dc.lft.to/lastmile_qr_scan", "ios": "https://dc.lft.to/lastmile_qr_scan"}, "is_disabled": 0, "fusion_lat": 0.0, "name": "54b6d7f0f098dcc09bab29861f7794c3", "fusion_lon": 0.0}, {"is_reserved": 0, "type": "electric_scooter", "bike_id": "04ce47f758be2816345acbc5d89225a1", "lat": 38.92695416666667, "lon": -77.02578716666666, "rental_uris": {"android": "https://dc.lft.to/lastmile_qr_scan", "ios": "https://dc.lft.to/lastmile_qr_scan"}, "is_disabled": 0, "fusion_lat": 0.0, "name": "04ce47f758be2816345acbc5d89225a1", "fusion_lon": 0.0}, {"is_reserved": 0, "type": "electric_scooter", "bike_id": "63dc5cb4772ce338dcd4bd901b15546f", "lat": 38.8967965, "lon": -77.05043816666667, "rental_uris": {"android": "https://dc.lft.to/lastmile_qr_scan", "ios": "https://dc.lft.to/lastmile_qr_scan"}, "is_disabled": 0, "fusion_lat": 0.0, "name": "63dc5cb4772ce338dcd4bd901b15546f", "fusion_lon": 0.0}, {"is_reserved": 0, "type": "electric_bike", "bike_id": "504cc892d9e5faae44dc66a764cd9a03", "lat": 38.882453166666664, "lon": -76.9625905, "rental_uris": {"android": "https://dc.lft.to/lastmile_qr_scan", "ios": "https://dc.lft.to/lastmile_qr_scan"}, "is_disabled": 0, "fusion_lat": 0.0, "name": "504cc892d9e5faae44dc66a764cd9a03", "fusion_lon": 0.0}, {"is_reserved": 0, "type": "electric_scooter", "bike_id": "167953206b4a2d88a48705c7cef419a0", "lat": 38.897085, "lon": -77.004972, "rental_uris": {"android": "https://dc.lft.to/lastmile_qr_scan", "ios": "https://dc.lft.to/lastmile_qr_scan"}, "is_disabled": 0, "fusion_lat": 0.0, "name": "167953206b4a2d88a48705c7cef419a0", "fusion_lon": 0.0}, {"is_reserved": 0, "type": "electric_scooter", "bike_id": "b2a3d4eec6a212ae1c31c57dcd331b88", "lat": 38.925999833333336, "lon": -77.02487333333333, "rental_uris": {"android": "https://dc.lft.to/lastmile_qr_scan", "ios": "https://dc.lft.to/lastmile_qr_scan"}, "is_disabled": 0, "fusion_lat": 0.0, "name": "b2a3d4eec6a212ae1c31c57dcd331b88", "fusion_lon": 0.0}, {"is_reserved": 0, "type": "electric_bike", "bike_id": "7ae12ef05d64cb10cab90960845e6b33", "lat": 38.913734, "lon": -77.03207933333333, "rental_uris": {"android": "https://dc.lft.to/lastmile_qr_scan", "ios": "https://dc.lft.to/lastmile_qr_scan"}, "is_disabled": 0, "fusion_lat": 0.0, "name": "7ae12ef05d64cb10cab90960845e6b33", "fusion_lon": 0.0}, {"is_reserved": 0, "type": "electric_scooter", "bike_id": "a0a28bb5499516162993925b653d968d", "lat": 38.9187385, "lon": -77.03564483333334, "rental_uris": {"android": "https://dc.lft.to/lastmile_qr_scan", "ios": "https://dc.lft.to/lastmile_qr_scan"}, "is_disabled": 0, "fusion_lat": 0.0, "name": "a0a28bb5499516162993925b653d968d", "fusion_lon": 0.0}, {"is_reserved": 0, "type": "electric_scooter", "bike_id": "9dec9c49f1a07634cdae283151fa2c5d", "lat": 38.88728283333333, "lon": -76.98377066666667, "rental_uris": {"android": "https://dc.lft.to/lastmile_qr_scan", "ios": "https://dc.lft.to/lastmile_qr_scan"}, "is_disabled": 0, "fusion_lat": 0.0, "name": "9dec9c49f1a07634cdae283151fa2c5d", "fusion_lon": 0.0}, {"is_reserved": 0, "type": "electric_bike", "bike_id": "2c363d4214c97a58d0ba699fd55ecb34", "lat": 38.884063833333336, "lon": -76.98967133333333, "rental_uris": {"android": "https://dc.lft.to/lastmile_qr_scan", "ios": "https://dc.lft.to/lastmile_qr_scan"}, "is_disabled": 0, "fusion_lat": 0.0, "name": "2c363d4214c97a58d0ba699fd55ecb34", "fusion_lon": 0.0}, {"is_reserved": 0, "type": "electric_scooter", "bike_id": "a923d5cbe10edcbc12b6ca5a54e00de1", "lat": 38.908014, "lon": -77.047812, "rental_uris": {"android": "https://dc.lft.to/lastmile_qr_scan", "ios": "https://dc.lft.to/lastmile_qr_scan"}, "is_disabled": 0, "fusion_lat": 0.0, "name": "a923d5cbe10edcbc12b6ca5a54e00de1", "fusion_lon": 0.0}, {"is_reserved": 0, "type": "electric_scooter", "bike_id": "018e77c9533077b6577bb69e5f2a1e4a", "lat": 38.909748666666665, "lon": -77.007712, "rental_uris": {"android": "https://dc.lft.to/lastmile_qr_scan", "ios": "https://dc.lft.to/lastmile_qr_scan"}, "is_disabled": 0, "fusion_lat": 0.0, "name": "018e77c9533077b6577bb69e5f2a1e4a", "fusion_lon": 0.0}, {"is_reserved": 0, "type": "electric_scooter", "bike_id": "dd79483665e6b221ce6ff586dd241b0b", "lat": 38.92588516666667, "lon": -77.03763733333334, "rental_uris": {"android": "https://dc.lft.to/lastmile_qr_scan", "ios": "https://dc.lft.to/lastmile_qr_scan"}, "is_disabled": 0, "fusion_lat": 0.0, "name": "dd79483665e6b221ce6ff586dd241b0b", "fusion_lon": 0.0}, {"is_reserved": 0, "type": "electric_scooter", "bike_id": "dc00dfe1b65bc9b1c00f91eb1db56345", "lat": 38.89449416666667, "lon": -77.04535366666667, "rental_uris": {"android": "https://dc.lft.to/lastmile_qr_scan", "ios": "https://dc.lft.to/lastmile_qr_scan"}, "is_disabled": 0, "fusion_lat": 0.0, "name": "dc00dfe1b65bc9b1c00f91eb1db56345", "fusion_lon": 0.0}, {"is_reserved": 0, "type": "electric_scooter", "bike_id": "b3676d8f604c273fc65ef0ed40fc60d2", "lat": 38.90890366666667, "lon": -77.02181616666667, "rental_uris": {"android": "https://dc.lft.to/lastmile_qr_scan", "ios": "https://dc.lft.to/lastmile_qr_scan"}, "is_disabled": 0, "fusion_lat": 0.0, "name": "b3676d8f604c273fc65ef0ed40fc60d2", "fusion_lon": 0.0}, {"is_reserved": 0, "type": "electric_scooter", "bike_id": "4040efe2d565612463d5cb1d4d6898ca", "lat": 38.92779916666667, "lon": -77.0541145, "rental_uris": {"android": "https://dc.lft.to/lastmile_qr_scan", "ios": "https://dc.lft.to/lastmile_qr_scan"}, "is_disabled": 0, "fusion_lat": 0.0, "name": "4040efe2d565612463d5cb1d4d6898ca", "fusion_lon": 0.0}, {"is_reserved": 0, "type": "electric_scooter", "bike_id": "fc49a4656e2c37f6711a58b75815c084", "lat": 38.92503216666667, "lon": -77.05223633333334, "rental_uris": {"android": "https://dc.lft.to/lastmile_qr_scan", "ios": "https://dc.lft.to/lastmile_qr_scan"}, "is_disabled": 0, "fusion_lat": 0.0, "name": "fc49a4656e2c37f6711a58b75815c084", "fusion_lon": 0.0}, {"is_reserved": 0, "type": "electric_scooter", "bike_id": "f14b63e775a0d1f78ad25e2e14502c96", "lat": 38.929715333333334, "lon": -77.02341216666666, "rental_uris": {"android": "https://dc.lft.to/lastmile_qr_scan", "ios": "https://dc.lft.to/lastmile_qr_scan"}, "is_disabled": 0, "fusion_lat": 0.0, "name": "f14b63e775a0d1f78ad25e2e14502c96", "fusion_lon": 0.0}, {"is_reserved": 0, "type": "electric_scooter", "bike_id": "55712cd8ac15b98a168000bd48734785", "lat": 38.94729733333333, "lon": -77.02464483333333, "rental_uris": {"android": "https://dc.lft.to/lastmile_qr_scan", "ios": "https://dc.lft.to/lastmile_qr_scan"}, "is_disabled": 0, "fusion_lat": 0.0, "name": "55712cd8ac15b98a168000bd48734785", "fusion_lon": 0.0}, {"is_reserved": 0, "type": "electric_scooter", "bike_id": "cef7a717db4a1475a906907428ab4342", "lat": 38.92568516666667, "lon": -76.9700475, "rental_uris": {"android": "https://dc.lft.to/lastmile_qr_scan", "ios": "https://dc.lft.to/lastmile_qr_scan"}, "is_disabled": 0, "fusion_lat": 0.0, "name": "cef7a717db4a1475a906907428ab4342", "fusion_lon": 0.0}, {"is_reserved": 0, "type": "electric_scooter", "bike_id": "2661f560771519400bb1aac04fb25622", "lat": 38.90875616666667, "lon": -77.02174, "rental_uris": {"android": "https://dc.lft.to/lastmile_qr_scan", "ios": "https://dc.lft.to/lastmile_qr_scan"}, "is_disabled": 0, "fusion_lat": 0.0, "name": "2661f560771519400bb1aac04fb25622", "fusion_lon": 0.0}, {"is_reserved": 0, "type": "electric_scooter", "bike_id": "a2c7015b6f4e51d1f060f01508b90996", "lat": 38.900139333333335, "lon": -76.996907, "rental_uris": {"android": "https://dc.lft.to/lastmile_qr_scan", "ios": "https://dc.lft.to/lastmile_qr_scan"}, "is_disabled": 0, "fusion_lat": 0.0, "name": "a2c7015b6f4e51d1f060f01508b90996", "fusion_lon": 0.0}, {"is_reserved": 0, "type": "electric_bike", "bike_id": "c27f9b771628db0be5cabb2295c62f0b", "lat": 38.8875555, "lon": -77.08919216666666, "rental_uris": {"android": "https://dc.lft.to/lastmile_qr_scan", "ios": "https://dc.lft.to/lastmile_qr_scan"}, "is_disabled": 0, "fusion_lat": 0.0, "name": "c27f9b771628db0be5cabb2295c62f0b", "fusion_lon": 0.0}, {"is_reserved": 0, "type": "electric_scooter", "bike_id": "4da492646ab4ebb9fb05f98e09448665", "lat": 38.926181166666666, "lon": -77.05704983333334, "rental_uris": {"android": "https://dc.lft.to/lastmile_qr_scan", "ios": "https://dc.lft.to/lastmile_qr_scan"}, "is_disabled": 0, "fusion_lat": 0.0, "name": "4da492646ab4ebb9fb05f98e09448665", "fusion_lon": 0.0}, {"is_reserved": 0, "type": "electric_scooter", "bike_id": "38b6ba53463be597eecb5b112ce72ce6", "lat": 38.91220666666667, "lon": -77.075893, "rental_uris": {"android": "https://dc.lft.to/lastmile_qr_scan", "ios": "https://dc.lft.to/lastmile_qr_scan"}, "is_disabled": 0, "fusion_lat": 0.0, "name": "38b6ba53463be597eecb5b112ce72ce6", "fusion_lon": 0.0}, {"is_reserved": 0, "type": "electric_scooter", "bike_id": "a6337b66ffa74ec0ef9d8a70f463cffe", "lat": 38.9216025, "lon": -77.03352666666666, "rental_uris": {"android": "https://dc.lft.to/lastmile_qr_scan", "ios": "https://dc.lft.to/lastmile_qr_scan"}, "is_disabled": 0, "fusion_lat": 0.0, "name": "a6337b66ffa74ec0ef9d8a70f463cffe", "fusion_lon": 0.0}, {"is_reserved": 0, "type": "electric_bike", "bike_id": "8a95f62fb8411ef681929a8c78416a0d", "lat": 38.80258416666667, "lon": -77.121689, "rental_uris": {"android": "https://dc.lft.to/lastmile_qr_scan", "ios": "https://dc.lft.to/lastmile_qr_scan"}, "is_disabled": 0, "fusion_lat": 0.0, "name": "8a95f62fb8411ef681929a8c78416a0d", "fusion_lon": 0.0}, {"is_reserved": 0, "type": "electric_scooter", "bike_id": "a03cfafbe90b1fec607095a21f7c957f", "lat": 38.926681, "lon": -77.030214, "rental_uris": {"android": "https://dc.lft.to/lastmile_qr_scan", "ios": "https://dc.lft.to/lastmile_qr_scan"}, "is_disabled": 0, "fusion_lat": 0.0, "name": "a03cfafbe90b1fec607095a21f7c957f", "fusion_lon": 0.0}, {"is_reserved": 0, "type": "electric_scooter", "bike_id": "d9203f64868f40956e26dd3f10f25ec0", "lat": 38.91642016666667, "lon": -77.02099183333333, "rental_uris": {"android": "https://dc.lft.to/lastmile_qr_scan", "ios": "https://dc.lft.to/lastmile_qr_scan"}, "is_disabled": 0, "fusion_lat": 0.0, "name": "d9203f64868f40956e26dd3f10f25ec0", "fusion_lon": 0.0}, {"is_reserved": 0, "type": "electric_scooter", "bike_id": "b0f860ab24c5437add31f63bc6b47f79", "lat": 38.920611, "lon": -77.025089, "rental_uris": {"android": "https://dc.lft.to/lastmile_qr_scan", "ios": "https://dc.lft.to/lastmile_qr_scan"}, "is_disabled": 0, "fusion_lat": 0.0, "name": "b0f860ab24c5437add31f63bc6b47f79", "fusion_lon": 0.0}, {"is_reserved": 0, "type": "electric_scooter", "bike_id": "60681ff9513cc261c25eb26abb42b311", "lat": 38.946515, "lon": -77.064759, "rental_uris": {"android": "https://dc.lft.to/lastmile_qr_scan", "ios": "https://dc.lft.to/lastmile_qr_scan"}, "is_disabled": 0, "fusion_lat": 0.0, "name": "60681ff9513cc261c25eb26abb42b311", "fusion_lon": 0.0}, {"is_reserved": 0, "type": "electric_scooter", "bike_id": "3e056aed4e12fe21109eacfbf388541a", "lat": 38.94514783333333, "lon": -77.033643, "rental_uris": {"android": "https://dc.lft.to/lastmile_qr_scan", "ios": "https://dc.lft.to/lastmile_qr_scan"}, "is_disabled": 0, "fusion_lat": 0.0, "name": "3e056aed4e12fe21109eacfbf388541a", "fusion_lon": 0.0}, {"is_reserved": 0, "type": "electric_scooter", "bike_id": "baaa40e9eedeeb365c8d40ee155939fc", "lat": 38.916303, "lon": -77.031872, "rental_uris": {"android": "https://dc.lft.to/lastmile_qr_scan", "ios": "https://dc.lft.to/lastmile_qr_scan"}, "is_disabled": 0, "fusion_lat": 0.0, "name": "baaa40e9eedeeb365c8d40ee155939fc", "fusion_lon": 0.0}, {"is_reserved": 0, "type": "electric_scooter", "bike_id": "28f96c5037e531b4b86b8ec6ab03738e", "lat": 38.91614383333334, "lon": -77.02223383333333, "rental_uris": {"android": "https://dc.lft.to/lastmile_qr_scan", "ios": "https://dc.lft.to/lastmile_qr_scan"}, "is_disabled": 0, "fusion_lat": 0.0, "name": "28f96c5037e531b4b86b8ec6ab03738e", "fusion_lon": 0.0}, {"is_reserved": 0, "type": "electric_scooter", "bike_id": "8f2274a442df42d74af664f7e4c95951", "lat": 38.9388245, "lon": -77.03280033333333, "rental_uris": {"android": "https://dc.lft.to/lastmile_qr_scan", "ios": "https://dc.lft.to/lastmile_qr_scan"}, "is_disabled": 0, "fusion_lat": 0.0, "name": "8f2274a442df42d74af664f7e4c95951", "fusion_lon": 0.0}, {"is_reserved": 0, "type": "electric_scooter", "bike_id": "ae6f731988f47c99e8f75b090cc6b14a", "lat": 38.90020333333333, "lon": -76.9916565, "rental_uris": {"android": "https://dc.lft.to/lastmile_qr_scan", "ios": "https://dc.lft.to/lastmile_qr_scan"}, "is_disabled": 0, "fusion_lat": 0.0, "name": "ae6f731988f47c99e8f75b090cc6b14a", "fusion_lon": 0.0}, {"is_reserved": 0, "type": "electric_scooter", "bike_id": "383a15dcdf8a68047d555af87ccd15c6", "lat": 38.88727266666667, "lon": -77.02820783333334, "rental_uris": {"android": "https://dc.lft.to/lastmile_qr_scan", "ios": "https://dc.lft.to/lastmile_qr_scan"}, "is_disabled": 0, "fusion_lat": 0.0, "name": "383a15dcdf8a68047d555af87ccd15c6", "fusion_lon": 0.0}, {"is_reserved": 0, "type": "electric_scooter", "bike_id": "fc046af2900abd6e9cd590c54194786e", "lat": 38.93067683333334, "lon": -77.039392, "rental_uris": {"android": "https://dc.lft.to/lastmile_qr_scan", "ios": "https://dc.lft.to/lastmile_qr_scan"}, "is_disabled": 0, "fusion_lat": 0.0, "name": "fc046af2900abd6e9cd590c54194786e", "fusion_lon": 0.0}, {"is_reserved": 0, "type": "electric_scooter", "bike_id": "832a6303db674a8ebd020398a1c936e6", "lat": 38.932838333333336, "lon": -77.0393625, "rental_uris": {"android": "https://dc.lft.to/lastmile_qr_scan", "ios": "https://dc.lft.to/lastmile_qr_scan"}, "is_disabled": 0, "fusion_lat": 0.0, "name": "832a6303db674a8ebd020398a1c936e6", "fusion_lon": 0.0}, {"is_reserved": 0, "type": "electric_scooter", "bike_id": "34aeca8a6b27761a4d9e81be9f6ea4f1", "lat": 38.934090166666664, "lon": -77.045437, "rental_uris": {"android": "https://dc.lft.to/lastmile_qr_scan", "ios": "https://dc.lft.to/lastmile_qr_scan"}, "is_disabled": 0, "fusion_lat": 0.0, "name": "34aeca8a6b27761a4d9e81be9f6ea4f1", "fusion_lon": 0.0},