{"data": {"bikes": [{"rental_uris": {"android": "https://dc.lft.to/lastmile_qr_scan", "ios": "https://dc.lft.to/lastmile_qr_scan"}, "lon": -77.03143366666667, "name": "f0a882750441a362f31e1f464b3d7ac5", "fusion_lon": 0.0, "bike_id": "f0a882750441a362f31e1f464b3d7ac5", "is_reserved": 0, "type": "electric_scooter", "lat": 38.941731, "fusion_lat": 0.0, "is_disabled": 0}, {"rental_uris": {"android": "https://dc.lft.to/lastmile_qr_scan", "ios": "https://dc.lft.to/lastmile_qr_scan"}, "lon": -77.02401033333334, "name": "7c45c52ec86a0d30091caa386b509bc5", "fusion_lon": 0.0, "bike_id": "7c45c52ec86a0d30091caa386b509bc5", "is_reserved": 0, "type": "electric_scooter", "lat": 38.9370515, "fusion_lat": 0.0, "is_disabled": 0}, {"rental_uris": {"android": "https://dc.lft.to/lastmile_qr_scan", "ios": "https://dc.lft.to/lastmile_qr_scan"}, "lon": -77.0467365, "name": "3bbfd0bb6fa55b9d28e32e95901dac1f", "fusion_lon": 0.0, "bike_id": "3bbfd0bb6fa55b9d28e32e95901dac1f", "is_reserved": 0, "type": "electric_scooter", "lat": 38.902013, "fusion_lat": 0.0, "is_disabled": 0}, {"rental_uris": {"android": "https://dc.lft.to/lastmile_qr_scan", "ios": "https://dc.lft.to/lastmile_qr_scan"}, "lon": -76.93480016666666, "name": "25537b5edcad9736c174ccfdc59ff13f", "fusion_lon": 0.0, "bike_id": "25537b5edcad9736c174ccfdc59ff13f", "is_reserved": 0, "type": "electric_scooter", "lat": 38.907376166666666, "fusion_lat": 0.0, "is_disabled": 0}, {"rental_uris": {"android": "https://dc.lft.to/lastmile_qr_scan", "ios": "https://dc.lft.to/lastmile_qr_scan"}, "lon": -77.03828483333334, "name": "a37441f1c72b8c3e29160fb871fde2a0", "fusion_lon": 0.0, "bike_id": "a37441f1c72b8c3e29160fb871fde2a0", "is_reserved": 0, "type": "electric_scooter", "lat": 38.911922, "fusion_lat": 0.0, "is_disabled": 0}, {"rental_uris": {"android": "https://dc.lft.to/lastmile_qr_scan", "ios": "https://dc.lft.to/lastmile_qr_scan"}, "lon": -77.012207, "name": "bb20b1fcc085912ce1cb2a656959f0ce", "fusion_lon": 0.0, "bike_id": "bb20b1fcc085912ce1cb2a656959f0ce", "is_reserved": 0, "type": "electric_scooter", "lat": 38.903837333333335, "fusion_lat": 0.0, "is_disabled": 0}, {"rental_uris": {"android": "https://dc.lft.to/lastmile_qr_scan", "ios": "https://dc.lft.to/lastmile_qr_scan"}, "lon": -77.03527183333334, "name": "80630a1efc507764c10bd095fec7f1c8", "fusion_lon": 0.0, "bike_id": "80630a1efc507764c10bd095fec7f1c8", "is_reserved": 0, "type": "electric_scooter", "lat": 38.92402383333334, "fusion_lat": 0.0, "is_disabled": 0}, {"rental_uris": {"android": "https://dc.lft.to/lastmile_qr_scan", "ios": "https://dc.lft.to/lastmile_qr_scan"}, "lon": -77.00763883333333, "name": "d814ebc847cccf5d2932d2c3df86d0e2", "fusion_lon": 0.0, "bike_id": "d814ebc847cccf5d2932d2c3df86d0e2", "is_reserved": 0, "type": "electric_bike", "lat": 38.98130966666667, "fusion_lat": 0.0, "is_disabled": 0}, {"rental_uris": {"android": "https://dc.lft.to/lastmile_qr_scan", "ios": "https://dc.lft.to/lastmile_qr_scan"}, "lon": -77.01950133333334, "name": "9d8ab7339d69aab7a882243b3ac9abd9", "fusion_lon": 0.0, "bike_id": "9d8ab7339d69aab7a882243b3ac9abd9", "is_reserved": 0, "type": "electric_scooter", "lat": 38.923665666666665, "fusion_lat": 0.0, "is_disabled": 0}, {"rental_uris": {"android": "https://dc.lft.to/lastmile_qr_scan", "ios": "https://dc.lft.to/lastmile_qr_scan"}, "lon": -77.019925, "name": "5ad7e20fdd2060fbe53a4a8fee3cee70", "fusion_lon": 0.0, "bike_id": "5ad7e20fdd2060fbe53a4a8fee3cee70", "is_reserved": 0, "type": "electric_scooter", "lat": 38.904942, "fusion_lat": 0.0, "is_disabled": 0}, {"rental_uris": {"android": "https://dc.lft.to/lastmile_qr_scan", "ios": "https://dc.lft.to/lastmile_qr_scan"}, "lon": -77.05991183333333, "name": "28fc2724665be458cb2c6d7fb743569e", "fusion_lon": 0.0, "bike_id": "28fc2724665be458cb2c6d7fb743569e", "is_reserved": 0, "type": "electric_scooter", "lat": 38.92711033333333, "fusion_lat": 0.0, "is_disabled": 0}, {"rental_uris": {"android": "https://dc.lft.to/lastmile_qr_scan", "ios": "https://dc.lft.to/lastmile_qr_scan"}, "lon": -77.03787433333333, "name": "12b513ae8db7e99766c787dfa823efb3", "fusion_lon": 0.0, "bike_id": "12b513ae8db7e99766c787dfa823efb3", "is_reserved": 0, "type": "electric_scooter", "lat": 38.933138666666665, "fusion_lat": 0.0, "is_disabled": 0}, {"rental_uris": {"android": "https://dc.lft.to/lastmile_qr_scan", "ios": "https://dc.lft.to/lastmile_qr_scan"}, "lon": -77.0269265, "name": "7a23e03f1778d12873aaf7ac00ab99a1", "fusion_lon": 0.0, "bike_id": "7a23e03f1778d12873aaf7ac00ab99a1", "is_reserved": 0, "type": "electric_scooter", "lat": 38.92466833333334, "fusion_lat": 0.0, "is_disabled": 0}, {"rental_uris": {"android": "https://dc.lft.to/lastmile_qr_scan", "ios": "https://dc.lft.to/lastmile_qr_scan"}, "lon": -77.04448783333333, "name": "e672f34df1e02f2a108223335dd74d69", "fusion_lon": 0.0, "bike_id": "e672f34df1e02f2a108223335dd74d69", "is_reserved": 0, "type": "electric_scooter", "lat": 38.934941, "fusion_lat": 0.0, "is_disabled": 0}, {"rental_uris": {"android": "https://dc.lft.to/lastmile_qr_scan", "ios": "https://dc.lft.to/lastmile_qr_scan"}, "lon": -77.00348466666667, "name": "3c87b5929c99cb1b4727e591e1a6c42c", "fusion_lon": 0.0, "bike_id": "3c87b5929c99cb1b4727e591e1a6c42c", "is_reserved": 0, "type": "electric_scooter", "lat": 38.886012, "fusion_lat": 0.0, "is_disabled": 0}, {"rental_uris": {"android": "https://dc.lft.to/lastmile_qr_scan", "ios": "https://dc.lft.to/lastmile_qr_scan"}, "lon": -76.98832616666667, "name": "ce6d1de52e5ad1bf06308d42abc946d4", "fusion_lon": 0.0, "bike_id": "ce6d1de52e5ad1bf06308d42abc946d4", "is_reserved": 0, "type": "electric_scooter", "lat": 38.8988495, "fusion_lat": 0.0, "is_disabled": 0}, {"rental_uris": {"android": "https://dc.lft.to/lastmile_qr_scan", "ios": "https://dc.lft.to/lastmile_qr_scan"}, "lon": -77.023893, "name": "41675c18c10a8f037d686f4176f10281", "fusion_lon": 0.0, "bike_id": "41675c18c10a8f037d686f4176f10281", "is_reserved": 0, "type": "electric_scooter", "lat": 38.920730666666664, "fusion_lat": 0.0, "is_disabled": 0}, {"rental_uris": {"android": "https://dc.lft.to/lastmile_qr_scan", "ios": "https://dc.lft.to/lastmile_qr_scan"}, "lon": -77.02487916666666, "name": "30dfdfdd9ae73e17f56fb440a2931dc6", "fusion_lon": 0.0, "bike_id": "30dfdfdd9ae73e17f56fb440a2931dc6", "is_reserved": 0, "type": "electric_scooter", "lat": 38.928447, "fusion_lat": 0.0, "is_disabled": 0}, {"rental_uris": {"android": "https://dc.lft.to/lastmile_qr_scan", "ios": "https://dc.lft.to/lastmile_qr_scan"}, "lon": -77.03361033333333, "name": "bd8cfedc469ab85eb5c972da9cc8fac1", "fusion_lon": 0.0, "bike_id": "bd8cfedc469ab85eb5c972da9cc8fac1", "is_reserved": 0, "type": "electric_scooter", "lat": 38.989879, "fusion_lat": 0.0, "is_disabled": 0}, {"rental_uris": {"android": "https://dc.lft.to/lastmile_qr_scan", "ios": "https://dc.lft.to/lastmile_qr_scan"}, "lon": -77.02503183333333, "name": "f0e786c726594af94de68ad404e81fa3", "fusion_lon": 0.0, "bike_id": "f0e786c726594af94de68ad404e81fa3", "is_reserved": 0, "type": "electric_scooter", "lat": 38.926385333333336, "fusion_lat": 0.0, "is_disabled": 0}, {"rental_uris": {"android": "https://dc.lft.to/lastmile_qr_scan", "ios": "https://dc.lft.to/lastmile_qr_scan"}, "lon": -76.992674, "name": "5ec340be71c881d5e4985d602f5ec5f6", "fusion_lon": 0.0, "bike_id": "5ec340be71c881d5e4985d602f5ec5f6", "is_reserved": 0, "type": "electric_scooter", "lat": 38.897793, "fusion_lat": 0.0, "is_disabled": 0}, {"rental_uris": {"android": "https://dc.lft.to/lastmile_qr_scan", "ios": "https://dc.lft.to/lastmile_qr_scan"}, "lon": -76.97694716666666, "name": "c8f91fbf9baa9b87d32875ad6e4eb699", "fusion_lon": 0.0, "bike_id": "c8f91fbf9baa9b87d32875ad6e4eb699", "is_reserved": 0, "type": "electric_scooter", "lat": 38.898853833333334, "fusion_lat": 0.0, "is_disabled": 0}, {"rental_uris": {"android": "https://dc.lft.to/lastmile_qr_scan", "ios": "https://dc.lft.to/lastmile_qr_scan"}, "lon": -77.04138283333333, "name": "1e50002c26a972adb8eede33f79ece9e", "fusion_lon": 0.0, "bike_id": "1e50002c26a972adb8eede33f79ece9e", "is_reserved": 0, "type": "electric_scooter", "lat": 38.895712333333336, "fusion_lat": 0.0, "is_disabled": 0}, {"rental_uris": {"android": "https://dc.lft.to/lastmile_qr_scan", "ios": "https://dc.lft.to/lastmile_qr_scan"}, "lon": -77.0060565, "name": "db0f851826a2599bfed4aeb3a428d29f", "fusion_lon": 0.0, "bike_id": "db0f851826a2599bfed4aeb3a428d29f", "is_reserved": 0, "type": "electric_scooter", "lat": 38.9055745, "fusion_lat": 0.0, "is_disabled": 0}, {"rental_uris": {"android": "https://dc.lft.to/lastmile_qr_scan", "ios": "https://dc.lft.to/lastmile_qr_scan"}, "lon": -76.983762, "name": "2124785abbc11638ab30986f8e094158", "fusion_lon": 0.0, "bike_id": "2124785abbc11638ab30986f8e094158", "is_reserved": 0, "type": "electric_scooter", "lat": 38.887262166666666, "fusion_lat": 0.0, "is_disabled": 0}, {"rental_uris": {"android": "https://dc.lft.to/lastmile_qr_scan", "ios": "https://dc.lft.to/lastmile_qr_scan"}, "lon": -77.02351516666667, "name": "0c803a442e2d975fe1a488c2837aa4e2", "fusion_lon": 0.0, "bike_id": "0c803a442e2d975fe1a488c2837aa4e2", "is_reserved": 0, "type": "electric_scooter", "lat": 38.9156115, "fusion_lat": 0.0, "is_disabled": 0}, {"rental_uris": {"android": "https://dc.lft.to/lastmile_qr_scan", "ios": "https://dc.lft.to/lastmile_qr_scan"}, "lon": -77.02110316666666, "name": "fff083f58e3c618718c476e94b46ca14", "fusion_lon": 0.0, "bike_id": "fff083f58e3c618718c476e94b46ca14", "is_reserved": 0, "type": "electric_scooter", "lat": 38.92751916666667, "fusion_lat": 0.0, "is_disabled": 0}, {"rental_uris": {"android": "https://dc.lft.to/lastmile_qr_scan", "ios": "https://dc.lft.to/lastmile_qr_scan"}, "lon": -77.06301366666666, "name": "9a900fac4725e54d8453d61efd41d139", "fusion_lon": 0.0, "bike_id": "9a900fac4725e54d8453d61efd41d139", "is_reserved": 0, "type": "electric_bike", "lat": 38.90602666666667, "fusion_lat": 0.0, "is_disabled": 0}, {"rental_uris": {"android": "https://dc.lft.to/lastmile_qr_scan", "ios": "https://dc.lft.to/lastmile_qr_scan"}, "lon": -77.01961666666666, "name": "56cad92018ad9aeb2a3ace597245f576", "fusion_lon": 0.0, "bike_id": "56cad92018ad9aeb2a3ace597245f576", "is_reserved": 0, "type": "electric_scooter", "lat": 38.92323833333333, "fusion_lat": 0.0, "is_disabled": 0}, {"rental_uris": {"android": "https://dc.lft.to/lastmile_qr_scan", "ios": "https://dc.lft.to/lastmile_qr_scan"}, "lon": -77.0316655, "name": "01596377a24623e98a315a13f8fdafcf", "fusion_lon": 0.0, "bike_id": "01596377a24623e98a315a13f8fdafcf", "is_reserved": 0, "type": "electric_scooter", "lat": 38.91412483333333, "fusion_lat": 0.0, "is_disabled": 0}, {"rental_uris": {"android": "https://dc.lft.to/lastmile_qr_scan", "ios": "https://dc.lft.to/lastmile_qr_scan"}, "lon": -77.0321245, "name": "86e29ecb3b4a6a46e017d4354d365031", "fusion_lon": 0.0, "bike_id": "86e29ecb3b4a6a46e017d4354d365031", "is_reserved": 0, "type": "electric_scooter", "lat": 38.915108000000004, "fusion_lat": 0.0, "is_disabled": 0}, {"rental_uris": {"android": "https://dc.lft.to/lastmile_qr_scan", "ios": "https://dc.lft.to/lastmile_qr_scan"}, "lon": -77.043513, "name": "ebfe870b870716cd68cb0983a745d11c", "fusion_lon": 0.0, "bike_id": "ebfe870b870716cd68cb0983a745d11c", "is_reserved": 0, "type": "electric_scooter", "lat": 38.90116533333333, "fusion_lat": 0.0, "is_disabled": 0}, {"rental_uris": {"android": "https://dc.lft.to/lastmile_qr_scan", "ios": "https://dc.lft.to/lastmile_qr_scan"}, "lon": -77.03550433333334, "name": "474f81aa40d73771ad752b4a206d6738", "fusion_lon": 0.0, "bike_id": "474f81aa40d73771ad752b4a206d6738", "is_reserved": 0, "type": "electric_scooter", "lat": 38.918783, "fusion_lat": 0.0, "is_disabled": 0}, {"rental_uris": {"android": "https://dc.lft.to/lastmile_qr_scan", "ios": "https://dc.lft.to/lastmile_qr_scan"}, "lon": -77.0453195, "name": "af943496570344139f3524bee5b65257", "fusion_lon": 0.0, "bike_id": "af943496570344139f3524bee5b65257", "is_reserved": 0, "type": "electric_scooter", "lat": 38.89444983333333, "fusion_lat": 0.0, "is_disabled": 0}, {"rental_uris": {"android": "https://dc.lft.to/lastmile_qr_scan", "ios": "https://dc.lft.to/lastmile_qr_scan"}, "lon": -77.05330566666666, "name": "0c51efb1963411e3ac4f2894796aa087", "fusion_lon": 0.0, "bike_id": "0c51efb1963411e3ac4f2894796aa087", "is_reserved": 0, "type": "electric_scooter", "lat": 38.906417, "fusion_lat": 0.0, "is_disabled": 0}, {"rental_uris": {"android": "https://dc.lft.to/lastmile_qr_scan", "ios": "https://dc.lft.to/lastmile_qr_scan"}, "lon": -77.02508383333333, "name": "481f7c7afd88728584a1bc0782c0f8b2", "fusion_lon": 0.0, "bike_id": "481f7c7afd88728584a1bc0782c0f8b2", "is_reserved": 0, "type": "electric_scooter", "lat": 38.903989333333335, "fusion_lat": 0.0, "is_disabled": 0}, {"rental_uris": {"android": "https://dc.lft.to/lastmile_qr_scan", "ios": "https://dc.lft.to/lastmile_qr_scan"}, "lon": -77.0331555, "name": "ddfb957266c52daf1a8a7e01d8345a5c", "fusion_lon": 0.0, "bike_id": "ddfb957266c52daf1a8a7e01d8345a5c", "is_reserved": 0, "type": "electric_scooter", "lat": 38.919859, "fusion_lat": 0.0, "is_disabled": 0}, {"rental_uris": {"android": "https://dc.lft.to/lastmile_qr_scan", "ios": "https://dc.lft.to/lastmile_qr_scan"}, "lon": -77.03155516666666, "name": "c0b04dfaa30e3060a435d2a99717da1d", "fusion_lon": 0.0, "bike_id": "c0b04dfaa30e3060a435d2a99717da1d", "is_reserved": 0, "type": "electric_scooter", "lat": 38.920205333333335, "fusion_lat": 0.0, "is_disabled": 0}, {"rental_uris": {"android": "https://dc.lft.to/lastmile_qr_scan", "ios": "https://dc.lft.to/lastmile_qr_scan"}, "lon": -77.00746916666667, "name": "348652314b7097833eafb919d8e19a9c", "fusion_lon": 0.0, "bike_id": "348652314b7097833eafb919d8e19a9c", "is_reserved": 0, "type": "electric_bike", "lat": 38.835446166666664, "fusion_lat": 0.0, "is_disabled": 0}, {"rental_uris": {"android": "https://dc.lft.to/lastmile_qr_scan", "ios": "https://dc.lft.to/lastmile_qr_scan"}, "lon": -77.00209383333333, "name": "357408736216a2b9e3588b7968ff55e3", "fusion_lon": 0.0, "bike_id": "357408736216a2b9e3588b7968ff55e3", "is_reserved": 0, "type": "electric_scooter", "lat": 38.90024316666667, "fusion_lat": 0.0, "is_disabled": 0}, {"rental_uris": {"android": "https://dc.lft.to/lastmile_qr_scan", "ios": "https://dc.lft.to/lastmile_qr_scan"}, "lon": -77.04153716666667, "name": "2ba105a341afd177b7933a2eb524df9d", "fusion_lon": 0.0, "bike_id": "2ba105a341afd177b7933a2eb524df9d", "is_reserved": 0, "type": "electric_scooter", "lat": 38.9049515, "fusion_lat": 0.0, "is_disabled": 0}, {"rental_uris": {"android": "https://dc.lft.to/lastmile_qr_scan", "ios": "https://dc.lft.to/lastmile_qr_scan"}, "lon": -77.02370583333334, "name": "6b52635aca59cd7d1f4af2d8540f527d", "fusion_lon": 0.0, "bike_id": "6b52635aca59cd7d1f4af2d8540f527d", "is_reserved": 0, "type": "electric_scooter", "lat": 38.9019665, "fusion_lat": 0.0, "is_disabled": 0}, {"rental_uris": {"android": "https://dc.lft.to/lastmile_qr_scan", "ios": "https://dc.lft.to/lastmile_qr_scan"}, "lon": -77.02359466666667, "name": "b19c9bb5d1d59488411d1742a23aca18", "fusion_lon": 0.0, "bike_id": "b19c9bb5d1d59488411d1742a23aca18", "is_reserved": 0, "type": "electric_scooter", "lat": 38.9086815, "fusion_lat": 0.0, "is_disabled": 0}, {"rental_uris": {"android": "https://dc.lft.to/lastmile_qr_scan", "ios": "https://dc.lft.to/lastmile_qr_scan"}, "lon": -77.03200083333333, "name": "e07f2eb4aff46f4b0546f7ca129b5d09", "fusion_lon": 0.0, "bike_id": "e07f2eb4aff46f4b0546f7ca129b5d09", "is_reserved": 0, "type": "electric_scooter", "lat": 38.893563666666665, "fusion_lat": 0.0, "is_disabled": 0}, {"rental_uris": {"android": "https://dc.lft.to/lastmile_qr_scan", "ios": "https://dc.lft.to/lastmile_qr_scan"}, "lon": -77.0268535, "name": "571fe6979e918b075c7923255c68ad9f", "fusion_lon": 0.0, "bike_id": "571fe6979e918b075c7923255c68ad9f", "is_reserved": 0, "type": "electric_scooter", "lat": 38.89800116666667, "fusion_lat": 0.0, "is_disabled": 0}, {"rental_uris": {"android": "https://dc.lft.to/lastmile_qr_scan", "ios": "https://dc.lft.to/lastmile_qr_scan"}, "lon": -77.04185316666667, "name": "ebbe99c381e6051fc5f36fbbe1b1be6a", "fusion_lon": 0.0, "bike_id": "ebbe99c381e6051fc5f36fbbe1b1be6a", "is_reserved": 0, "type": "electric_scooter", "lat": 38.902619666666666, "fusion_lat": 0.0, "is_disabled": 0}, {"rental_uris": {"android": "https://dc.lft.to/lastmile_qr_scan", "ios": "https://dc.lft.to/lastmile_qr_scan"}, "lon": -77.03187533333333, "name": "f614a81d33abeab36749d982cf5022ca", "fusion_lon": 0.0, "bike_id": "f614a81d33abeab36749d982cf5022ca", "is_reserved": 0, "type": "electric_scooter", "lat": 38.92482283333333, "fusion_lat": 0.0, "is_disabled": 0}, {"rental_uris": {"android": "https://dc.lft.to/lastmile_qr_scan", "ios": "https://dc.lft.to/lastmile_qr_scan"}, "lon": -77.02197616666666, "name": "67b759975cf3604c17f782bcfe48d52e", "fusion_lon": 0.0, "bike_id": "67b759975cf3604c17f782bcfe48d52e", "is_reserved": 0, "type": "electric_scooter", "lat": 38.917850333333334, "fusion_lat": 0.0, "is_disabled": 0}, {"rental_uris": {"android": "https://dc.lft.to/lastmile_qr_scan", "ios": "https://dc.lft.to/lastmile_qr_scan"}, "lon": -77.01877183333333, "name": "8e393aceda25552441b2899a9e4d6313", "fusion_lon": 0.0, "bike_id": "8e393aceda25552441b2899a9e4d6313", "is_reserved": 0, "type": "electric_scooter", "lat": 38.951000666666665, "fusion_lat": 0.0, "is_disabled": 0}, {"rental_uris": {"android": "https://dc.lft.to/lastmile_qr_scan", "ios": "https://dc.lft.to/lastmile_qr_scan"}, "lon": -77.02613883333333, "name": "435b9343caf19d2e82d4fe9454eb5ed1", "fusion_lon": 0.0, "bike_id": "435b9343caf19d2e82d4fe9454eb5ed1", "is_reserved": 0, "type": "electric_scooter", "lat": 38.90010066666667, "fusion_lat": 0.0, "is_disabled": 0}, {"rental_uris": {"android": "https://dc.lft.to/lastmile_qr_scan", "ios": "https://dc.lft.to/lastmile_qr_scan"}, "lon": -77.00584533333334, "name": "bb8d2668ce04ca1515bd5f8da9c7246d", "fusion_lon": 0.0, "bike_id": "bb8d2668ce04ca1515bd5f8da9c7246d", "is_reserved": 0, "type": "electric_scooter", "lat": 38.87957733333333, "fusion_lat": 0.0, "is_disabled": 0}, {"rental_uris": {"android": "https://dc.lft.to/lastmile_qr_scan", "ios": "https://dc.lft.to/lastmile_qr_scan"}, "lon": -76.9994785, "name": "987953fcb668b164c1c694746c61f6a9", "fusion_lon": 0.0, "bike_id": "987953fcb668b164c1c694746c61f6a9", "is_reserved": 0, "type": "electric_scooter", "lat": 38.92352133333333, "fusion_lat": 0.0, "is_disabled": 0}, {"rental_uris": {"android": "https://dc.lft.to/lastmile_qr_scan", "ios": "https://dc.lft.to/lastmile_qr_scan"}, "lon": -77.0401285, "name": "544b9589c147810edd6cc502f8123214", "fusion_lon": 0.0, "bike_id": "544b9589c147810edd6cc502f8123214", "is_reserved": 0, "type": "electric_scooter", "lat": 38.917996333333335, "fusion_lat": 0.0, "is_disabled": 0}, {"rental_uris": {"android": "https://dc.lft.to/lastmile_qr_scan", "ios": "https://dc.lft.to/lastmile_qr_scan"}, "lon": -77.023944, "name": "c025cbfc06896636762135956770ad98", "fusion_lon": 0.0, "bike_id": "c025cbfc06896636762135956770ad98", "is_reserved": 0, "type": "electric_scooter", "lat": 38.9370585, "fusion_lat": 0.0, "is_disabled": 0}, {"rental_uris": {"android": "https://dc.lft.to/lastmile_qr_scan", "ios": "https://dc.lft.to/lastmile_qr_scan"}, "lon": -77.03159983333333, "name": "8aaa151b9e8d9c9aedb96f94355b6e67", "fusion_lon": 0.0, "bike_id": "8aaa151b9e8d9c9aedb96f94355b6e67", "is_reserved": 0, "type": "electric_scooter", "lat": 38.89975883333334, "fusion_lat": 0.0, "is_disabled": 0}, {"rental_uris": {"android": "https://dc.lft.to/lastmile_qr_scan", "ios": "https://dc.lft.to/lastmile_qr_scan"}, "lon": -77.03772916666667, "name": "a2e492999ccdd9d6688519670a80284e", "fusion_lon": 0.0, "bike_id": "a2e492999ccdd9d6688519670a80284e", "is_reserved": 0, "type": "electric_scooter", "lat": 38.91682683333333, "fusion_lat": 0.0, "is_disabled": 0}, {"rental_uris": {"android": "https://dc.lft.to/lastmile_qr_scan", "ios": "https://dc.lft.to/lastmile_qr_scan"}, "lon": -77.00074016666667, "name": "18322e91946586f8bc17cdf4da29584e", "fusion_lon": 0.0, "bike_id": "18322e91946586f8bc17cdf4da29584e", "is_reserved": 0, "type": "electric_scooter", "lat": 38.89992683333333, "fusion_lat": 0.0, "is_disabled": 0}, {"rental_uris": {"android": "https://dc.lft.to/lastmile_qr_scan", "ios": "https://dc.lft.to/lastmile_qr_scan"}, "lon": -77.0116575, "name": "a1d922f4ae515f21305e0bd9093ab615", "fusion_lon": 0.0, "bike_id": "a1d922f4ae515f21305e0bd9093ab615", "is_reserved": 0, "type": "electric_scooter", "lat": 38.893524, "fusion_lat": 0.0, "is_disabled": 0}, {"rental_uris": {"android": "https://dc.lft.to/lastmile_qr_scan", "ios": "https://dc.lft.to/lastmile_qr_scan"}, "lon": -77.01796383333334, "name": "85aefb97b001b7d79709cc652ea5ea0e", "fusion_lon": 0.0, "bike_id": "85aefb97b001b7d79709cc652ea5ea0e", "is_reserved": 0, "type": "electric_scooter", "lat": 38.921304, "fusion_lat": 0.0, "is_disabled": 0}, {"rental_uris": {"android": "https://dc.lft.to/lastmile_qr_scan", "ios": "https://dc.lft.to/lastmile_qr_scan"}, "lon": -77.031672, "name": "b47cdb25e446eea2aeaf57bdd22a8fd1", "fusion_lon": 0.0, "bike_id": "b47cdb25e446eea2aeaf57bdd22a8fd1", "is_reserved": 0, "type": "electric_scooter", "lat": 38.9169715, "fusion_lat": 0.0, "is_disabled": 0}, {"rental_uris": {"android": "https://dc.lft.to/lastmile_qr_scan", "ios": "https://dc.lft.to/lastmile_qr_scan"}, "lon": -76.99905716666666, "name": "8a76445b8edd798805dc4119ba473fac", "fusion_lon": 0.0, "bike_id": "8a76445b8edd798805dc4119ba473fac", "is_reserved": 0, "type": "electric_scooter", "lat": 38.92833816666667, "fusion_lat": 0.0, "is_disabled": 0}, {"rental_uris": {"android": "https://dc.lft.to/lastmile_qr_scan", "ios": "https://dc.lft.to/lastmile_qr_scan"}, "lon": -77.0259245, "name": "b57e8fa8203a356611d5c8aa82c47791", "fusion_lon": 0.0, "bike_id": "b57e8fa8203a356611d5c8aa82c47791", "is_reserved": 0, "type": "electric_scooter", "lat": 38.91691316666667, "fusion_lat": 0.0, "is_disabled": 0}, {"rental_uris": {"android": "https://dc.lft.to/lastmile_qr_scan", "ios": "https://dc.lft.to/lastmile_qr_scan"}, "lon": -77.05035716666667, "name": "c5c5ba390cf119b4ab3f9989ebc37490", "fusion_lon": 0.0, "bike_id": "c5c5ba390cf119b4ab3f9989ebc37490", "is_reserved": 0, "type": "electric_bike", "lat": 39.038942666666664, "fusion_lat": 0.0, "is_disabled": 0}, {"rental_uris": {"android": "https://dc.lft.to/lastmile_qr_scan", "ios": "https://dc.lft.to/lastmile_qr_scan"}, "lon": -76.99677583333333, "name": "53439e471a188d63362c3a12890a1b08", "fusion_lon": 0.0, "bike_id": "53439e471a188d63362c3a12890a1b08", "is_reserved": 0, "type": "electric_scooter", "lat": 38.88721483333333, "fusion_lat": 0.0, "is_disabled": 0}, {"rental_uris": {"android": "https://dc.lft.to/lastmile_qr_scan", "ios": "https://dc.lft.to/lastmile_qr_scan"}, "lon": -77.02519133333334, "name": "328860728263d9d6cb3bd7c3e8a615a8", "fusion_lon": 0.0, "bike_id": "328860728263d9d6cb3bd7c3e8a615a8", "is_reserved": 0, "type": "electric_scooter", "lat": 38.920699166666665, "fusion_lat": 0.0, "is_disabled": 0}, {"rental_uris": {"android": "https://dc.lft.to/lastmile_qr_scan", "ios": "https://dc.lft.to/lastmile_qr_scan"}, "lon": -77.03243433333333, "name": "043ae268717281eed02ca1c2b83bbd6a", "fusion_lon": 0.0, "bike_id": "043ae268717281eed02ca1c2b83bbd6a", "is_reserved": 0, "type": "electric_scooter", "lat": 38.93751183333333, "fusion_lat": 0.0, "is_disabled": 0}, {"rental_uris": {"android": "https://dc.lft.to/lastmile_qr_scan", "ios": "https://dc.lft.to/lastmile_qr_scan"}, "lon": -77.02696466666667, "name": "a31704ff0b39dc139b0ba93051b84284", "fusion_lon": 0.0, "bike_id": "a31704ff0b39dc139b0ba93051b84284", "is_reserved": 0, "type": "electric_scooter", "lat": 38.902438, "fusion_lat": 0.0, "is_disabled": 0}, {"rental_uris": {"android": "https://dc.lft.to/lastmile_qr_scan", "ios": "https://dc.lft.to/lastmile_qr_scan"}, "lon": -77.01947483333333, "name": "ec2afb9a9f3171c4ebad159edfb63647", "fusion_lon": 0.0, "bike_id": "ec2afb9a9f3171c4ebad159edfb63647", "is_reserved": 0, "type": "electric_scooter", "lat": 38.922519333333334, "fusion_lat": 0.0, "is_disabled": 0}, {"rental_uris": {"android": "https://dc.lft.to/lastmile_qr_scan", "ios": "https://dc.lft.to/lastmile_qr_scan"}, "lon": -77.04147366666666, "name": "c49d4a7aa85a56e6f54be75079bc960d", "fusion_lon": 0.0, "bike_id": "c49d4a7aa85a56e6f54be75079bc960d", "is_reserved": 0, "type": "electric_scooter", "lat": 38.94709016666667, "fusion_lat": 0.0, "is_disabled": 0}, {"rental_uris": {"android": "https://dc.lft.to/lastmile_qr_scan", "ios": "https://dc.lft.to/lastmile_qr_scan"}, "lon": -77.0195635, "name": "cc54aac1ea2a1bbe017fb0b84811b9f5", "fusion_lon": 0.0, "bike_id": "cc54aac1ea2a1bbe017fb0b84811b9f5", "is_reserved": 0, "type": "electric_scooter", "lat": 38.92322733333334, "fusion_lat": 0.0, "is_disabled": 0}, {"rental_uris": {"android": "https://dc.lft.to/lastmile_qr_scan", "ios": "https://dc.lft.to/lastmile_qr_scan"}, "lon": -77.05053716666667, "name": "0c544ac98c7a27649e9a3131367dd5a1", "fusion_lon": 0.0, "bike_id": "0c544ac98c7a27649e9a3131367dd5a1", "is_reserved": 0, "type": "electric_scooter", "lat": 38.925175333333335, "fusion_lat": 0.0, "is_disabled": 0}, {"rental_uris": {"android": "https://dc.lft.to/lastmile_qr_scan", "ios": "https://dc.lft.to/lastmile_qr_scan"}, "lon": -77.032894, "name": "e6917f0a8da214fd55d4cd96536a07d0", "fusion_lon": 0.0, "bike_id": "e6917f0a8da214fd55d4cd96536a07d0", "is_reserved": 0, "type": "electric_scooter", "lat": 38.92041183333333, "fusion_lat": 0.0, "is_disabled": 0}, {"rental_uris": {"android": "https://dc.lft.to/lastmile_qr_scan", "ios": "https://dc.lft.to/lastmile_qr_scan"}, "lon": -77.028254, "name": "51823374091736f7007f679a30721a59", "fusion_lon": 0.0, "bike_id": "51823374091736f7007f679a30721a59", "is_reserved": 0, "type": "electric_scooter", "lat": 38.898366833333334, "fusion_lat": 0.0, "is_disabled": 0}, {"rental_uris": {"android": "https://dc.lft.to/lastmile_qr_scan", "ios": "https://dc.lft.to/lastmile_qr_scan"}, "lon": -77.0831945, "name": "6d2878bcbbfb77fd7a8d9b6055af0f05", "fusion_lon": 0.0, "bike_id": "6d2878bcbbfb77fd7a8d9b6055af0f05", "is_reserved": 0, "type": "electric_bike", "lat": 38.85433333333334, "fusion_lat": 0.0, "is_disabled": 0}, {"rental_uris": {"android": "https://dc.lft.to/lastmile_qr_scan", "ios": "https://dc.lft.to/lastmile_qr_scan"}, "lon": -77.0232175, "name": "fe20bdfe017f20ee7372682d108aea17", "fusion_lon": 0.0, "bike_id": "fe20bdfe017f20ee7372682d108aea17", "is_reserved": 0, "type": "electric_scooter", "lat": 38.92077483333333, "fusion_lat": 0.0, "is_disabled": 0}, {"rental_uris": {"android": "https://dc.lft.to/lastmile_qr_scan", "ios": "https://dc.lft.to/lastmile_qr_scan"}, "lon": -76.98286566666667, "name": "f038d8d9700dad9120911dbdf39a04a4", "fusion_lon": 0.0, "bike_id": "f038d8d9700dad9120911dbdf39a04a4", "is_reserved": 0, "type": "electric_scooter", "lat": 38.866372, "fusion_lat": 0.0, "is_disabled": 0}, {"rental_uris": {"android": "https://dc.lft.to/lastmile_qr_scan", "ios": "https://dc.lft.to/lastmile_qr_scan"}, "lon": -77.02841966666666, "name": "0fafe7c46083cc16ca0d663aefafd10f", "fusion_lon": 0.0, "bike_id": "0fafe7c46083cc16ca0d663aefafd10f", "is_reserved": 0, "type": "electric_scooter", "lat": 38.9326885, "fusion_lat": 0.0, "is_disabled": 0}, {"rental_uris": {"android": "https://dc.lft.to/lastmile_qr_scan", "ios": "https://dc.lft.to/lastmile_qr_scan"}, "lon": -77.04137533333333, "name": "7b4ce0a283cf77fc2b8e8ae46e18bec2", "fusion_lon": 0.0, "bike_id": "7b4ce0a283cf77fc2b8e8ae46e18bec2", "is_reserved": 0, "type": "electric_scooter", "lat": 38.92126833333333, "fusion_lat": 0.0, "is_disabled": 0}, {"rental_uris": {"android": "https://dc.lft.to/lastmile_qr_scan", "ios": "https://dc.lft.to/lastmile_qr_scan"}, "lon": -77.0032895, "name": "848aeaba8829622d488cd410db9beeb3", "fusion_lon": 0.0, "bike_id": "848aeaba8829622d488cd410db9beeb3", "is_reserved": 0, "type": "electric_scooter", "lat": 38.89351583333333, "fusion_lat": 0.0, "is_disabled": 0}, {"rental_uris": {"android": "https://dc.lft.to/lastmile_qr_scan", "ios": "https://dc.lft.to/lastmile_qr_scan"}, "lon": -76.929723, "name": "1d9046d45e9e8f48cd0db34306288bc7", "fusion_lon": 0.0, "bike_id": "1d9046d45e9e8f48cd0db34306288bc7", "is_reserved": 0, "type": "electric_scooter", "lat": 38.89612533333333, "fusion_lat": 0.0, "is_disabled": 0}, {"rental_uris": {"android": "https://dc.lft.to/lastmile_qr_scan", "ios": "https://dc.lft.to/lastmile_qr_scan"}, "lon": -77.0206105, "name": "84ec5a1e1c6c335d9790a1a18eee94ed", "fusion_lon": 0.0, "bike_id": "84ec5a1e1c6c335d9790a1a18eee94ed", "is_reserved": 0, "type": "electric_scooter", "lat": 38.957441, "fusion_lat": 0.0, "is_disabled": 0}, {"rental_uris": {"android": "https://dc.lft.to/lastmile_qr_scan", "ios": "https://dc.lft.to/lastmile_qr_scan"}, "lon": -76.9883335, "name": "dcab8f25b7dccc988eb2de451d21eb78", "fusion_lon": 0.0, "bike_id": "dcab8f25b7dccc988eb2de451d21eb78", "is_reserved": 0, "type": "electric_scooter", "lat": 38.90026916666667, "fusion_lat": 0.0, "is_disabled": 0}, {"rental_uris": {"android": "https://dc.lft.to/lastmile_qr_scan", "ios": "https://dc.lft.to/lastmile_qr_scan"}, "lon": -77.03549633333333, "name": "2a912576749817d00136a81f6f00b8f7", "fusion_lon": 0.0, "bike_id": "2a912576749817d00136a81f6f00b8f7", "is_reserved": 0, "type": "electric_scooter", "lat": 38.927190333333336, "fusion_lat": 0.0, "is_disabled": 0}, {"rental_uris": {"android": "https://dc.lft.to/lastmile_qr_scan", "ios": "https://dc.lft.to/lastmile_qr_scan"}, "lon": -77.009044, "name": "5ab32eb8a15e78cb9208954115e85113", "fusion_lon": 0.0, "bike_id": "5ab32eb8a15e78cb9208954115e85113", "is_reserved": 0, "type": "electric_scooter", "lat": 38.96998683333333, "fusion_lat": 0.0, "is_disabled": 0}, {"rental_uris": {"android": "https://dc.lft.to/lastmile_qr_scan", "ios": "https://dc.lft.to/lastmile_qr_scan"}, "lon": -77.016223, "name": "2a6d1fbcb037618f682646c6231c0ef8", "fusion_lon": 0.0, "bike_id": "2a6d1fbcb037618f682646c6231c0ef8", "is_reserved": 0, "type": "electric_scooter", "lat": 38.88126533333333, "fusion_lat": 0.0, "is_disabled": 0}, {"rental_uris": {"android": "https://dc.lft.to/lastmile_qr_scan", "ios": "https://dc.lft.to/lastmile_qr_scan"}, "lon": -77.03632933333333, "name": "337d5cfd650c9e6aee7220d5c45c0091", "fusion_lon": 0.0, "bike_id": "337d5cfd650c9e6aee7220d5c45c0091", "is_reserved": 0, "type": "electric_scooter", "lat": 38.903547333333336, "fusion_lat": 0.0, "is_disabled": 0}, {"rental_uris": {"android": "https://dc.lft.to/lastmile_qr_scan", "ios": "https://dc.lft.to/lastmile_qr_scan"}, "lon": -77.03639616666666, "name": "55874d835ba189e1dca5093b74ecad2a", "fusion_lon": 0.0, "bike_id": "55874d835ba189e1dca5093b74ecad2a", "is_reserved": 0, "type": "electric_scooter", "lat": 38.905535, "fusion_lat": 0.0, "is_disabled": 0}, {"rental_uris": {"android": "https://dc.lft.to/lastmile_qr_scan", "ios": "https://dc.lft.to/lastmile_qr_scan"}, "lon": -77.04051433333333, "name": "fbd84234cc6f495e4b96751fb015cd35", "fusion_lon": 0.0, "bike_id": "fbd84234cc6f495e4b96751fb015cd35", "is_reserved": 0, "type": "electric_scooter", "lat": 38.89881116666667, "fusion_lat": 0.0, "is_disabled": 0}, {"rental_uris": {"android": "https://dc.lft.to/lastmile_qr_scan", "ios": "https://dc.lft.to/lastmile_qr_scan"}, "lon": -77.02368716666666, "name": "b3a57d63aac3b21acc741269b61ec69b", "fusion_lon": 0.0, "bike_id": "b3a57d63aac3b21acc741269b61ec69b", "is_reserved": 0, "type": "electric_scooter", "lat": 38.901937833333335, "fusion_lat": 0.0, "is_disabled": 0}, {"rental_uris": {"android": "https://dc.lft.to/lastmile_qr_scan", "ios": "https://dc.lft.to/lastmile_qr_scan"}, "lon": -77.0429055, "name": "892f39450690bfc7c407108834854d80", "fusion_lon": 0.0, "bike_id": "892f39450690bfc7c407108834854d80", "is_reserved": 0, "type": "electric_scooter", "lat": 38.92259216666667, "fusion_lat": 0.0, "is_disabled": 0}, {"rental_uris": {"android": "https://dc.lft.to/lastmile_qr_scan", "ios": "https://dc.lft.to/lastmile_qr_scan"}, "lon": -76.99371616666667, "name": "409d1ba3874e7e95d2cfc27a1f787230", "fusion_lon": 0.0, "bike_id": "409d1ba3874e7e95d2cfc27a1f787230", "is_reserved": 0, "type": "electric_scooter", "lat": 38.910190166666666, "fusion_lat": 0.0, "is_disabled": 0}, {"rental_uris": {"android": "https://dc.lft.to/lastmile_qr_scan", "ios": "https://dc.lft.to/lastmile_qr_scan"}, "lon": -77.0298535, "name": "ee328d5c64c21b5bf6d019c0f4aa9380", "fusion_lon": 0.0, "bike_id": "ee328d5c64c21b5bf6d019c0f4aa9380", "is_reserved": 0, "type": "electric_scooter", "lat": 38.8955515, "fusion_lat": 0.0, "is_disabled": 0}, {"rental_uris": {"android": "https://dc.lft.to/lastmile_qr_scan", "ios": "https://dc.lft.to/lastmile_qr_scan"}, "lon": -77.03073666666667, "name": "06639cd39a4164402df5f52ff7d964ff", "fusion_lon": 0.0, "bike_id": "06639cd39a4164402df5f52ff7d964ff", "is_reserved": 0, "type": "electric_scooter", "lat": 38.920302666666664, "fusion_lat": 0.0, "is_disabled": 0}, {"rental_uris": {"android": "https://dc.lft.to/lastmile_qr_scan", "ios": "https://dc.lft.to/lastmile_qr_scan"}, "lon": -77.02007683333333, "name": "793db7e5c0683163665039ebfee9a0ad", "fusion_lon": 0.0, "bike_id": "793db7e5c0683163665039ebfee9a0ad", "is_reserved": 0, "type": "electric_scooter", "lat": 38.92415483333333, "fusion_lat": 0.0, "is_disabled": 0}, {"rental_uris": {"android": "https://dc.lft.to/lastmile_qr_scan", "ios": "https://dc.lft.to/lastmile_qr_scan"}, "lon": -77.00363766666666, "name": "f5aeb36d95e9a78ccd5088a3b699d9d0", "fusion_lon": 0.0, "bike_id": "f5aeb36d95e9a78ccd5088a3b699d9d0", "is_reserved": 0, "type": "electric_scooter", "lat": 38.908598, "fusion_lat": 0.0, "is_disabled": 0}, {"rental_uris": {"android": "https://dc.lft.to/lastmile_qr_scan", "ios": "https://dc.lft.to/lastmile_qr_scan"}, "lon": -77.03650066666667, "name": "f67fc231bdaf8b2a7c1b07b48a3ea031", "fusion_lon": 0.0, "bike_id": "f67fc231bdaf8b2a7c1b07b48a3ea031", "is_reserved": 0, "type": "electric_scooter", "lat": 38.923851166666665, "fusion_lat": 0.0, "is_disabled": 0}, {"rental_uris": {"android": "https://dc.lft.to/lastmile_qr_scan", "ios": "https://dc.lft.to/lastmile_qr_scan"}, "lon": -77.0203075, "name": "88bbb370798de4d7f83c3340c52e0cc5", "fusion_lon": 0.0, "bike_id": "88bbb370798de4d7f83c3340c52e0cc5", "is_reserved": 0, "type": "electric_scooter", "lat": 38.922017, "fusion_lat": 0.0, "is_disabled": 0}, {"rental_uris": {"android": "https://dc.lft.to/lastmile_qr_scan", "ios": "https://dc.lft.to/lastmile_qr_scan"}, "lon": -77.04611616666666, "name": "b2bba7ebe38f1f04075a2fc2284df080", "fusion_lon": 0.0, "bike_id": "b2bba7ebe38f1f04075a2fc2284df080", "is_reserved": 0, "type": "electric_scooter", "lat": 38.898283, "fusion_lat": 0.0, "is_disabled": 0}, {"rental_uris": {"android": "https://dc.lft.to/lastmile_qr_scan", "ios": "https://dc.lft.to/lastmile_qr_scan"}, "lon": -77.0372655, "name": "a32dc131884b4ca0dee47eee1eaf172d", "fusion_lon": 0.0, "bike_id": "a32dc131884b4ca0dee47eee1eaf172d", "is_reserved": 0, "type": "electric_scooter", "lat": 38.917103833333336, "fusion_lat": 0.0, "is_disabled": 0}, {"rental_uris": {"android": "https://dc.lft.to/lastmile_qr_scan", "ios": "https://dc.lft.to/lastmile_qr_scan"}, "lon": -77.0239055, "name": "c4d026b7b791278f9607b25218eaa6f3", "fusion_lon": 0.0, "bike_id": "c4d026b7b791278f9607b25218eaa6f3", "is_reserved": 0, "type": "electric_scooter", "lat": 38.92071416666667, "fusion_lat": 0.0, "is_disabled": 0}, {"rental_uris": {"android": "https://dc.lft.to/lastmile_qr_scan", "ios": "https://dc.lft.to/lastmile_qr_scan"}, "lon": -76.99630783333333, "name": "1dffc4b5d8deaa6031f547cb22a77b01", "fusion_lon": 0.0, "bike_id": "1dffc4b5d8deaa6031f547cb22a77b01", "is_reserved": 0, "type": "electric_scooter", "lat": 38.881293666666664, "fusion_lat": 0.0, "is_disabled": 0}, {"rental_uris": {"android": "https://dc.lft.to/lastmile_qr_scan", "ios": "https://dc.lft.to/lastmile_qr_scan"}, "lon": -76.98416016666667, "name": "9cf6dbb4585be0a74a206818479593c1", "fusion_lon": 0.0, "bike_id": "9cf6dbb4585be0a74a206818479593c1", "is_reserved": 0, "type": "electric_scooter", "lat": 38.87994316666666, "fusion_lat": 0.0, "is_disabled": 0}, {"rental_uris": {"android": "https://dc.lft.to/lastmile_qr_scan", "ios": "https://dc.lft.to/lastmile_qr_scan"}, "lon": -77.001912, "name": "6948ffa6720629aad5fdc91ba1a5b421", "fusion_lon": 0.0, "bike_id": "6948ffa6720629aad5fdc91ba1a5b421", "is_reserved": 0, "type": "electric_scooter", "lat": 38.883134166666665, "fusion_lat": 0.0, "is_disabled": 0}, {"rental_uris": {"android": "https://dc.lft.to/lastmile_qr_scan", "ios": "https://dc.lft.to/lastmile_qr_scan"}, "lon": -77.026675, "name": "469847746e86b9ab75e953bf5b40b61f", "fusion_lon": 0.0, "bike_id": "469847746e86b9ab75e953bf5b40b61f", "is_reserved": 0, "type": "electric_scooter", "lat": 38.938615666666664, "fusion_lat": 0.0, "is_disabled": 0}, {"rental_uris": {"android": "https://dc.lft.to/lastmile_qr_scan", "ios": "https://dc.lft.to/lastmile_qr_scan"}, "lon": -76.97832766666667, "name": "2f69eb881bb4f9d2cc8efc7de7f68c9d", "fusion_lon": 0.0, "bike_id": "2f69eb881bb4f9d2cc8efc7de7f68c9d", "is_reserved": 0, "type": "electric_scooter", "lat": 38.8991465, "fusion_lat": 0.0, "is_disabled": 0}, {"rental_uris": {"android": "https://dc.lft.to/lastmile_qr_scan", "ios": "https://dc.lft.to/lastmile_qr_scan"}, "lon": -77.026161, "name": "e8c89669dcbabafb0c3c3d7a23d330bb", "fusion_lon": 0.0, "bike_id": "e8c89669dcbabafb0c3c3d7a23d330bb", "is_reserved": 0, "type": "electric_scooter", "lat": 38.94824783333333, "fusion_lat": 0.0, "is_disabled": 0}, {"rental_uris": {"android": "https://dc.lft.to/lastmile_qr_scan", "ios": "https://dc.lft.to/lastmile_qr_scan"}, "lon": -77.0107305, "name": "b1a149cdd7243ac859c48f7e7fa1a1f6", "fusion_lon": 0.0, "bike_id": "b1a149cdd7243ac859c48f7e7fa1a1f6", "is_reserved": 0, "type": "electric_scooter", "lat": 38.917063, "fusion_lat": 0.0, "is_disabled": 0}, {"rental_uris": {"android": "https://dc.lft.to/lastmile_qr_scan", "ios": "https://dc.lft.to/lastmile_qr_scan"}, "lon": -77.028575, "name": "8c74a09a1f2c915cdf0ecfe369ef8ab6", "fusion_lon": 0.0, "bike_id": "8c74a09a1f2c915cdf0ecfe369ef8ab6", "is_reserved": 0, "type": "electric_scooter", "lat": 38.90142216666667, "fusion_lat": 0.0, "is_disabled": 0}, {"rental_uris": {"android": "https://dc.lft.to/lastmile_qr_scan", "ios": "https://dc.lft.to/lastmile_qr_scan"}, "lon": -77.0116795, "name": "4e28f80528fee9f28223aebe6fda70c0", "fusion_lon": 0.0, "bike_id": "4e28f80528fee9f28223aebe6fda70c0", "is_reserved": 0, "type": "electric_scooter", "lat": 38.893489333333335, "fusion_lat": 0.0, "is_disabled": 0}, {"rental_uris": {"android": "https://dc.lft.to/lastmile_qr_scan", "ios": "https://dc.lft.to/lastmile_qr_scan"}, "lon": -77.10651633333333, "name": "4aa6bd444e84a64e9dc925b82c951974", "fusion_lon": 0.0, "bike_id": "4aa6bd444e84a64e9dc925b82c951974", "is_reserved": 0, "type": "electric_bike", "lat": 38.96458483333333, "fusion_lat": 0.0, "is_disabled": 0}, {"rental_uris": {"android": "https://dc.lft.to/lastmile_qr_scan", "ios": "https://dc.lft.to/lastmile_qr_scan"}, "lon": -77.01898166666666, "name": "335d1e806e148e1341051bb1c7d30e78", "fusion_lon": 0.0, "bike_id": "335d1e806e148e1341051bb1c7d30e78", "is_reserved": 0, "type": "electric_scooter", "lat": 38.9233595, "fusion_lat": 0.0, "is_disabled": 0}, {"rental_uris": {"android": "https://dc.lft.to/lastmile_qr_scan", "ios": "https://dc.lft.to/lastmile_qr_scan"}, "lon": -76.9960995, "name": "edadf5bac4d7c7f65b9bd3b6272ae1fa", "fusion_lon": 0.0, "bike_id": "edadf5bac4d7c7f65b9bd3b6272ae1fa", "is_reserved": 0, "type": "electric_scooter", "lat": 38.899740333333334, "fusion_lat": 0.0, "is_disabled": 0}, {"rental_uris": {"android": "https://dc.lft.to/lastmile_qr_scan", "ios": "https://dc.lft.to/lastmile_qr_scan"}, "lon": -76.9753055, "name": "f174c32e8a05a824665042c9a3280871", "fusion_lon": 0.0, "bike_id": "f174c32e8a05a824665042c9a3280871", "is_reserved": 0, "type": "electric_scooter", "lat": 38.92225116666667, "fusion_lat": 0.0, "is_disabled": 0}, {"rental_uris": {"android": "https://dc.lft.to/lastmile_qr_scan", "ios": "https://dc.lft.to/lastmile_qr_scan"}, "lon": -77.0006295, "name": "21e62ece301d8b28d25430372027a591", "fusion_lon": 0.0, "bike_id": "21e62ece301d8b28d25430372027a591", "is_reserved": 0, "type": "electric_scooter", "lat": 38.879582, "fusion_lat": 0.0, "is_disabled": 0}, {"rental_uris": {"android": "https://dc.lft.to/lastmile_qr_scan", "ios": "https://dc.lft.to/lastmile_qr_scan"}, "lon": -77.014152, "name": "52e5499ef73d967f793fbf4f3016aafd", "fusion_lon": 0.0, "bike_id": "52e5499ef73d967f793fbf4f3016aafd", "is_reserved": 0, "type": "electric_scooter", "lat": 38.928548666666664, "fusion_lat": 0.0, "is_disabled": 0}, {"rental_uris": {"android": "https://dc.lft.to/lastmile_qr_scan", "ios": "https://dc.lft.to/lastmile_qr_scan"}, "lon": -77.05033583333334, "name": "6563d3f736cbe0dff7c59a09c1847cc7", "fusion_lon": 0.0, "bike_id": "6563d3f736cbe0dff7c59a09c1847cc7", "is_reserved": 0, "type": "electric_bike", "lat": 38.999357, "fusion_lat": 0.0, "is_disabled": 0}, {"rental_uris": {"android": "https://dc.lft.to/lastmile_qr_scan", "ios": "https://dc.lft.to/lastmile_qr_scan"}, "lon": -77.0276325, "name": "849529a21630fb9e553f065a3c860480", "fusion_lon": 0.0, "bike_id": "849529a21630fb9e553f065a3c860480", "is_reserved": 0, "type": "electric_scooter", "lat": 38.9639395, "fusion_lat": 0.0, "is_disabled": 0}, {"rental_uris": {"android": "https://dc.lft.to/lastmile_qr_scan", "ios": "https://dc.lft.to/lastmile_qr_scan"}, "lon": -77.04385233333333, "name": "5adcd9bf7bae2ad795d8624b9284b5cb", "fusion_lon": 0.0, "bike_id": "5adcd9bf7bae2ad795d8624b9284b5cb", "is_reserved": 0, "type": "electric_scooter", "lat": 38.901311, "fusion_lat": 0.0, "is_disabled": 0}, {"rental_uris": {"android": "https://dc.lft.to/lastmile_qr_scan", "ios": "https://dc.lft.to/lastmile_qr_scan"}, "lon": -76.91925066666667, "name": "9f0937173c843283e5fd40a2d923700b", "fusion_lon": 0.0, "bike_id": "9f0937173c843283e5fd40a2d923700b", "is_reserved": 0, "type": "electric_scooter", "lat": 38.890865166666664, "fusion_lat": 0.0, "is_disabled": 0}, {"rental_uris": {"android": "https://dc.lft.to/lastmile_qr_scan", "ios": "https://dc.lft.to/lastmile_qr_scan"}, "lon": -76.98388533333333, "name": "f35d66731d3b40eaad31bbef8b480d67", "fusion_lon": 0.0, "bike_id": "f35d66731d3b40eaad31bbef8b480d67", "is_reserved": 0, "type": "electric_scooter", "lat": 38.915818, "fusion_lat": 0.0, "is_disabled": 0}, {"rental_uris": {"android": "https://dc.lft.to/lastmile_qr_scan", "ios": "https://dc.lft.to/lastmile_qr_scan"}, "lon": -77.03271716666667, "name": "6d8ac4782aa1b69eb6a29cc2b61eb591", "fusion_lon": 0.0, "bike_id": "6d8ac4782aa1b69eb6a29cc2b61eb591", "is_reserved": 0, "type": "electric_scooter", "lat": 38.8988835, "fusion_lat": 0.0, "is_disabled": 0}, {"rental_uris": {"android": "https://dc.lft.to/lastmile_qr_scan", "ios": "https://dc.lft.to/lastmile_qr_scan"}, "lon": -77.02948233333333, "name": "e61d98c6a1589e02352099c0d081213c", "fusion_lon": 0.0, "bike_id": "e61d98c6a1589e02352099c0d081213c", "is_reserved": 0, "type": "electric_scooter", "lat": 38.9168285, "fusion_lat": 0.0, "is_disabled": 0}, {"rental_uris": {"android": "https://dc.lft.to/lastmile_qr_scan", "ios": "https://dc.lft.to/lastmile_qr_scan"}, "lon": -77.014991, "name": "ebb293b4b08dcb0316d4f759bea1acdc", "fusion_lon": 0.0, "bike_id": "ebb293b4b08dcb0316d4f759bea1acdc", "is_reserved": 0, "type": "electric_scooter", "lat": 38.92670283333333, "fusion_lat": 0.0, "is_disabled": 0}, {"rental_uris": {"android": "https://dc.lft.to/lastmile_qr_scan", "ios": "https://dc.lft.to/lastmile_qr_scan"}, "lon": -77.0501385, "name": "159f3cbcca31a7153173fb51812f22cc", "fusion_lon": 0.0, "bike_id": "159f3cbcca31a7153173fb51812f22cc", "is_reserved": 0, "type": "electric_scooter", "lat": 38.9066145, "fusion_lat": 0.0, "is_disabled": 0}, {"rental_uris": {"android": "https://dc.lft.to/lastmile_qr_scan", "ios": "https://dc.lft.to/lastmile_qr_scan"}, "lon": -77.03339033333333, "name": "c7800128f3c4f8677b73b78f5383dc63", "fusion_lon": 0.0, "bike_id": "c7800128f3c4f8677b73b78f5383dc63", "is_reserved": 0, "type": "electric_scooter", "lat": 38.89223783333333, "fusion_lat": 0.0, "is_disabled": 0}, {"rental_uris": {"android": "https://dc.lft.to/lastmile_qr_scan", "ios": "https://dc.lft.to/lastmile_qr_scan"}, "lon": -77.05172583333334, "name": "ecc3dfc604f85e450fedf3d096005922", "fusion_lon": 0.0, "bike_id": "ecc3dfc604f85e450fedf3d096005922", "is_reserved": 0, "type": "electric_scooter", "lat": 38.9237265, "fusion_lat": 0.0, "is_disabled": 0}, {"rental_uris": {"android": "https://dc.lft.to/lastmile_qr_scan", "ios": "https://dc.lft.to/lastmile_qr_scan"}, "lon": -77.0033315, "name": "6518c36c480e7fa50824d05b6ca868b2", "fusion_lon": 0.0, "bike_id": "6518c36c480e7fa50824d05b6ca868b2", "is_reserved": 0, "type": "electric_scooter", "lat": 38.893574666666666, "fusion_lat": 0.0, "is_disabled": 0}, {"rental_uris": {"android": "https://dc.lft.to/lastmile_qr_scan", "ios": "https://dc.lft.to/lastmile_qr_scan"}, "lon": -76.9973365, "name": "2e6fe2732266feb7f6a56872e6114b9b", "fusion_lon": 0.0, "bike_id": "2e6fe2732266feb7f6a56872e6114b9b", "is_reserved": 0, "type": "electric_bike", "lat": 39.042336166666665, "fusion_lat": 0.0, "is_disabled": 0}, {"rental_uris": {"android": "https://dc.lft.to/lastmile_qr_scan", "ios": "https://dc.lft.to/lastmile_qr_scan"}, "lon": -76.9959585, "name": "759cfa39a0f1b8493bfa8cce9d0ee0de", "fusion_lon": 0.0, "bike_id": "759cfa39a0f1b8493bfa8cce9d0ee0de", "is_reserved": 0, "type": "electric_bike", "lat": 38.97335733333333, "fusion_lat": 0.0, "is_disabled": 0}, {"rental_uris": {"android": "https://dc.lft.to/lastmile_qr_scan", "ios": "https://dc.lft.to/lastmile_qr_scan"}, "lon": -77.02513633333334, "name": "4d3dd9524ceeecc7467edb7cd93c6a35", "fusion_lon": 0.0, "bike_id": "4d3dd9524ceeecc7467edb7cd93c6a35", "is_reserved": 0, "type": "electric_scooter", "lat": 38.898214333333335, "fusion_lat": 0.0, "is_disabled": 0}, {"rental_uris": {"android": "https://dc.lft.to/lastmile_qr_scan", "ios": "https://dc.lft.to/lastmile_qr_scan"}, "lon": -77.03662683333333, "name": "452fa7052520f9f219b5d1255caed2d9", "fusion_lon": 0.0, "bike_id": "452fa7052520f9f219b5d1255caed2d9", "is_reserved": 0, "type": "electric_scooter", "lat": 38.91868383333333, "fusion_lat": 0.0, "is_disabled": 0}, {"rental_uris": {"android": "https://dc.lft.to/lastmile_qr_scan", "ios": "https://dc.lft.to/lastmile_qr_scan"}, "lon": -77.01863916666667, "name": "00a85c7f93fa028694928f07df754329", "fusion_lon": 0.0, "bike_id": "00a85c7f93fa028694928f07df754329", "is_reserved": 0, "type": "electric_scooter", "lat": 38.97366666666667, "fusion_lat": 0.0, "is_disabled": 0}, {"rental_uris": {"android": "https://dc.lft.to/lastmile_qr_scan", "ios": "https://dc.lft.to/lastmile_qr_scan"}, "lon": -77.015968, "name": "85bf852e5bc01dca05eca89242a0df81", "fusion_lon": 0.0, "bike_id": "85bf852e5bc01dca05eca89242a0df81", "is_reserved": 0, "type": "electric_scooter", "lat": 38.95212033333333, "fusion_lat": 0.0, "is_disabled": 0}, {"rental_uris": {"android": "https://dc.lft.to/lastmile_qr_scan", "ios": "https://dc.lft.to/lastmile_qr_scan"}, "lon": -77.0390205, "name": "9978d1ae96b4d6d9c84190991b7978a2", "fusion_lon": 0.0, "bike_id": "9978d1ae96b4d6d9c84190991b7978a2", "is_reserved": 0, "type": "electric_scooter", "lat": 38.913988, "fusion_lat": 0.0, "is_disabled": 0}, {"rental_uris": {"android": "https://dc.lft.to/lastmile_qr_scan", "ios": "https://dc.lft.to/lastmile_qr_scan"}, "lon": -77.0377525, "name": "1f3e592491db5f73415db48e774a7340", "fusion_lon": 0.0, "bike_id": "1f3e592491db5f73415db48e774a7340", "is_reserved": 0, "type": "electric_scooter", "lat": 38.9296905, "fusion_lat": 0.0, "is_disabled": 0}, {"rental_uris": {"android": "https://dc.lft.to/lastmile_qr_scan", "ios": "https://dc.lft.to/lastmile_qr_scan"}, "lon": -77.0461545, "name": "d01ceb452206d30aecf59b6da430b293", "fusion_lon": 0.0, "bike_id": "d01ceb452206d30aecf59b6da430b293", "is_reserved": 0, "type": "electric_bike", "lat": 38.91520283333333, "fusion_lat": 0.0, "is_disabled": 0}, {"rental_uris": {"android": "https://dc.lft.to/lastmile_qr_scan", "ios": "https://dc.lft.to/lastmile_qr_scan"}, "lon": -76.995581, "name": "df2273eb56720f5fb516215900d7c368", "fusion_lon": 0.0, "bike_id": "df2273eb56720f5fb516215900d7c368", "is_reserved": 0, "type": "electric_scooter", "lat": 38.920241833333336, "fusion_lat": 0.0, "is_disabled": 0}, {"rental_uris": {"android": "https://dc.lft.to/lastmile_qr_scan", "ios": "https://dc.lft.to/lastmile_qr_scan"}, "lon": -77.0521765, "name": "cf63ad7b27e5014b43618672bc4d6328", "fusion_lon": 0.0, "bike_id": "cf63ad7b27e5014b43618672bc4d6328", "is_reserved": 0, "type": "electric_scooter", "lat": 38.92447416666667, "fusion_lat": 0.0, "is_disabled": 0}, {"rental_uris": {"android": "https://dc.lft.to/lastmile_qr_scan", "ios": "https://dc.lft.to/lastmile_qr_scan"}, "lon": -77.016251, "name": "ec34553b0ec51e600b7879e81471d816", "fusion_lon": 0.0, "bike_id": "ec34553b0ec51e600b7879e81471d816", "is_reserved": 0, "type": "electric_scooter", "lat": 38.896196833333335, "fusion_lat": 0.0, "is_disabled": 0}, {"rental_uris": {"android": "https://dc.lft.to/lastmile_qr_scan", "ios": "https://dc.lft.to/lastmile_qr_scan"}, "lon": -76.98427916666667, "name": "efb1482a49285c56f03bfb18011a9796", "fusion_lon": 0.0, "bike_id": "efb1482a49285c56f03bfb18011a9796", "is_reserved": 0, "type": "electric_scooter", "lat": 38.9204965, "fusion_lat": 0.0, "is_disabled": 0}, {"rental_uris": {"android": "https://dc.lft.to/lastmile_qr_scan", "ios": "https://dc.lft.to/lastmile_qr_scan"}, "lon": -77.046818, "name": "e04a1baa49f7d3c86cbb29ef85f8b598", "fusion_lon": 0.0, "bike_id": "e04a1baa49f7d3c86cbb29ef85f8b598", "is_reserved": 0, "type": "electric_scooter", "lat": 38.901316, "fusion_lat": 0.0, "is_disabled": 0}, {"rental_uris": {"android": "https://dc.lft.to/lastmile_qr_scan", "ios": "https://dc.lft.to/lastmile_qr_scan"}, "lon": -77.05919066666667, "name": "91d603434a8417fb9d67f57999cee01e", "fusion_lon": 0.0, "bike_id": "91d603434a8417fb9d67f57999cee01e", "is_reserved": 0, "type": "electric_scooter", "lat": 38.911179833333335, "fusion_lat": 0.0, "is_disabled": 0}, {"rental_uris": {"android": "https://dc.lft.to/lastmile_qr_scan", "ios": "https://dc.lft.to/lastmile_qr_scan"}, "lon": -76.98290883333334, "name": "0f1c95516f57327d53ce09b8bfc3de2d", "fusion_lon": 0.0, "bike_id": "0f1c95516f57327d53ce09b8bfc3de2d", "is_reserved": 0, "type": "electric_scooter", "lat": 38.895463166666666, "fusion_lat": 0.0, "is_disabled": 0}, {"rental_uris": {"android": "https://dc.lft.to/lastmile_qr_scan", "ios": "https://dc.lft.to/lastmile_qr_scan"}, "lon": -77.0127715, "name": "b2e25303dd0ace2ac117232767f9db4e", "fusion_lon": 0.0, "bike_id": "b2e25303dd0ace2ac117232767f9db4e", "is_reserved": 0, "type": "electric_scooter", "lat": 38.9565205, "fusion_lat": 0.0, "is_disabled": 0}, {"rental_uris": {"android": "https://dc.lft.to/lastmile_qr_scan", "ios": "https://dc.lft.to/lastmile_qr_scan"}, "lon": -77.01209, "name": "239edba1c88ea53944e4f869807eeef6", "fusion_lon": 0.0, "bike_id": "239edba1c88ea53944e4f869807eeef6", "is_reserved": 0, "type": "electric_scooter", "lat": 38.897794, "fusion_lat": 0.0, "is_disabled": 0}, {"rental_uris": {"android": "https://dc.lft.to/lastmile_qr_scan", "ios": "https://dc.lft.to/lastmile_qr_scan"}, "lon": -77.01872233333333, "name": "a2d336631f9688435938ba441c5f4794", "fusion_lon": 0.0, "bike_id": "a2d336631f9688435938ba441c5f4794", "is_reserved": 0, "type": "electric_scooter", "lat": 38.89745716666667, "fusion_lat": 0.0, "is_disabled": 0}, {"rental_uris": {"android": "https://dc.lft.to/lastmile_qr_scan", "ios": "https://dc.lft.to/lastmile_qr_scan"}, "lon": -77.03841433333334, "name": "e279f255230b4fb2d5125f67de53ef12", "fusion_lon": 0.0, "bike_id": "e279f255230b4fb2d5125f67de53ef12", "is_reserved": 0, "type": "electric_scooter", "lat": 38.902499166666665, "fusion_lat": 0.0, "is_disabled": 0}, {"rental_uris": {"android": "https://dc.lft.to/lastmile_qr_scan", "ios": "https://dc.lft.to/lastmile_qr_scan"}, "lon": -77.01688766666666, "name": "e65214a42a0b29ddcc12a91c8096f1cd", "fusion_lon": 0.0, "bike_id": "e65214a42a0b29ddcc12a91c8096f1cd", "is_reserved": 0, "type": "electric_scooter", "lat": 38.881220166666665, "fusion_lat": 0.0, "is_disabled": 0}, {"rental_uris": {"android": "https://dc.lft.to/lastmile_qr_scan", "ios": "https://dc.lft.to/lastmile_qr_scan"}, "lon": -77.02218733333333, "name": "c04eb0a579a5a9e02ec48beaf4f9cdf1", "fusion_lon": 0.0, "bike_id": "c04eb0a579a5a9e02ec48beaf4f9cdf1", "is_reserved": 0, "type": "electric_scooter", "lat": 38.93389416666667, "fusion_lat": 0.0, "is_disabled": 0}, {"rental_uris": {"android": "https://dc.lft.to/lastmile_qr_scan", "ios": "https://dc.lft.to/lastmile_qr_scan"}, "lon": -76.97622233333334, "name": "d9a3ba8f949c6e8a63ff79dd5a41086a", "fusion_lon": 0.0, "bike_id": "d9a3ba8f949c6e8a63ff79dd5a41086a", "is_reserved": 0, "type": "electric_bike", "lat": 38.84033266666667, "fusion_lat": 0.0, "is_disabled": 0}, {"rental_uris": {"android": "https://dc.lft.to/lastmile_qr_scan", "ios": "https://dc.lft.to/lastmile_qr_scan"}, "lon": -77.00209533333333, "name": "2aeb02df55b5e22ef55ec9f415084bb7", "fusion_lon": 0.0, "bike_id": "2aeb02df55b5e22ef55ec9f415084bb7", "is_reserved": 0, "type": "electric_scooter", "lat": 38.90728566666667, "fusion_lat": 0.0, "is_disabled": 0}, {"rental_uris": {"android": "https://dc.lft.to/lastmile_qr_scan", "ios": "https://dc.lft.to/lastmile_qr_scan"}, "lon": -77.04228083333334, "name": "0ab5611559a5986f862048ee123cbfff", "fusion_lon": 0.0, "bike_id": "0ab5611559a5986f862048ee123cbfff", "is_reserved": 0, "type": "electric_scooter", "lat": 38.921784333333335, "fusion_lat": 0.0, "is_disabled": 0}, {"rental_uris": {"android": "https://dc.lft.to/lastmile_qr_scan", "ios": "https://dc.lft.to/lastmile_qr_scan"}, "lon": -77.02679016666667, "name": "b0e61b255ebf3db95257b6990f314e9a", "fusion_lon": 0.0, "bike_id": "b0e61b255ebf3db95257b6990f314e9a", "is_reserved": 0, "type": "electric_scooter", "lat": 38.91702183333334, "fusion_lat": 0.0, "is_disabled": 0}, {"rental_uris": {"android": "https://dc.lft.to/lastmile_qr_scan", "ios": "https://dc.lft.to/lastmile_qr_scan"}, "lon": -77.02507616666666, "name": "a3225f9d4a5be6d35ef71f8adbd4ff73", "fusion_lon": 0.0, "bike_id": "a3225f9d4a5be6d35ef71f8adbd4ff73", "is_reserved": 0, "type": "electric_scooter", "lat": 38.940256, "fusion_lat": 0.0, "is_disabled": 0}, {"rental_uris": {"android": "https://dc.lft.to/lastmile_qr_scan", "ios": "https://dc.lft.to/lastmile_qr_scan"}, "lon": -77.0415305, "name": "292a28ad17abb4551c8ae62771b09b10", "fusion_lon": 0.0, "bike_id": "292a28ad17abb4551c8ae62771b09b10", "is_reserved": 0, "type": "electric_scooter", "lat": 38.91622233333333, "fusion_lat": 0.0, "is_disabled": 0}, {"rental_uris": {"android": "https://dc.lft.to/lastmile_qr_scan", "ios": "https://dc.lft.to/lastmile_qr_scan"}, "lon": -77.03293083333334, "name": "f465d5d0563dae221b45b320f71f17ef", "fusion_lon": 0.0, "bike_id": "f465d5d0563dae221b45b320f71f17ef", "is_reserved": 0, "type": "electric_scooter", "lat": 38.928113, "fusion_lat": 0.0, "is_disabled": 0}, {"rental_uris": {"android": "https://dc.lft.to/lastmile_qr_scan", "ios": "https://dc.lft.to/lastmile_qr_scan"}, "lon": -77.0432655, "name": "c2ac6ee4d0c4ff3efc9f6f3adb438ad4", "fusion_lon": 0.0, "bike_id": "c2ac6ee4d0c4ff3efc9f6f3adb438ad4", "is_reserved": 0, "type": "electric_scooter", "lat": 38.90815, "fusion_lat": 0.0, "is_disabled": 0}, {"rental_uris": {"android": "https://dc.lft.to/lastmile_qr_scan", "ios": "https://dc.lft.to/lastmile_qr_scan"}, "lon": -77.0432355, "name": "7ffd24430ac63bc33d4cb87300e4f6bb", "fusion_lon": 0.0, "bike_id": "7ffd24430ac63bc33d4cb87300e4f6bb", "is_reserved": 0, "type": "electric_scooter", "lat": 38.92345133333333, "fusion_lat": 0.0, "is_disabled": 0}, {"rental_uris": {"android": "https://dc.lft.to/lastmile_qr_scan", "ios": "https://dc.lft.to/lastmile_qr_scan"}, "lon": -76.98831933333334, "name": "8b1e39dcd8a1260ec9dee8fd1a8ee10c", "fusion_lon": 0.0, "bike_id": "8b1e39dcd8a1260ec9dee8fd1a8ee10c", "is_reserved": 0, "type": "electric_scooter", "lat": 38.8988235, "fusion_lat": 0.0, "is_disabled": 0}, {"rental_uris": {"android": "https://dc.lft.to/lastmile_qr_scan", "ios": "https://dc.lft.to/lastmile_qr_scan"}, "lon": -77.01944733333333, "name": "0f2610f158ca2be8a8f5fdd21fe5a257", "fusion_lon": 0.0, "bike_id": "0f2610f158ca2be8a8f5fdd21fe5a257", "is_reserved": 0, "type": "electric_scooter", "lat": 38.924166, "fusion_lat": 0.0, "is_disabled": 0}, {"rental_uris": {"android": "https://dc.lft.to/lastmile_qr_scan", "ios": "https://dc.lft.to/lastmile_qr_scan"}, "lon": -77.02960616666667, "name": "b0517469dc39622719d4ec86461240e5", "fusion_lon": 0.0, "bike_id": "b0517469dc39622719d4ec86461240e5", "is_reserved": 0, "type": "electric_scooter", "lat": 38.904937333333336, "fusion_lat": 0.0, "is_disabled": 0}, {"rental_uris": {"android": "https://dc.lft.to/lastmile_qr_scan", "ios": "https://dc.lft.to/lastmile_qr_scan"}, "lon": -76.983331, "name": "8294e629b01aa3424cbc0ee421cd4112", "fusion_lon": 0.0, "bike_id": "8294e629b01aa3424cbc0ee421cd4112", "is_reserved": 0, "type": "electric_scooter", "lat": 38.89540566666667, "fusion_lat": 0.0, "is_disabled": 0}, {"rental_uris": {"android": "https://dc.lft.to/lastmile_qr_scan", "ios": "https://dc.lft.to/lastmile_qr_scan"}, "lon": -77.03530966666666, "name": "12996451fe04549c39722af60dd09765", "fusion_lon": 0.0, "bike_id": "12996451fe04549c39722af60dd09765", "is_reserved": 0, "type": "electric_scooter", "lat": 38.910303666666664, "fusion_lat": 0.0, "is_disabled": 0}, {"rental_uris": {"android": "https://dc.lft.to/lastmile_qr_scan", "ios": "https://dc.lft.to/lastmile_qr_scan"}, "lon": -77.02793183333333, "name": "43201bb85ad308ae8e9b3e5ff16e0bd2", "fusion_lon": 0.0, "bike_id": "43201bb85ad308ae8e9b3e5ff16e0bd2", "is_reserved": 0, "type": "electric_scooter", "lat": 38.90715616666667, "fusion_lat": 0.0, "is_disabled": 0}, {"rental_uris": {"android": "https://dc.lft.to/lastmile_qr_scan", "ios": "https://dc.lft.to/lastmile_qr_scan"}, "lon": -77.0201795, "name": "300571c5a917b97a819b640076fc333a", "fusion_lon": 0.0, "bike_id": "300571c5a917b97a819b640076fc333a", "is_reserved": 0, "type": "electric_scooter", "lat": 38.92439866666667, "fusion_lat": 0.0, "is_disabled": 0}, {"rental_uris": {"android": "https://dc.lft.to/lastmile_qr_scan", "ios": "https://dc.lft.to/lastmile_qr_scan"}, "lon": -77.05864266666667, "name": "e8c6996a6f52be91946470febbd589ea", "fusion_lon": 0.0, "bike_id": "e8c6996a6f52be91946470febbd589ea", "is_reserved": 0, "type": "electric_scooter", "lat": 38.90437, "fusion_lat": 0.0, "is_disabled": 0}, {"rental_uris": {"android": "https://dc.lft.to/lastmile_qr_scan", "ios": "https://dc.lft.to/lastmile_qr_scan"}, "lon": -77.0271145, "name": "af1059549a4e8620f62137162075aa23", "fusion_lon": 0.0, "bike_id": "af1059549a4e8620f62137162075aa23", "is_reserved": 0, "type": "electric_scooter", "lat": 38.900686, "fusion_lat": 0.0, "is_disabled": 0}, {"rental_uris": {"android": "https://dc.lft.to/lastmile_qr_scan", "ios": "https://dc.lft.to/lastmile_qr_scan"}, "lon": -77.02829566666666, "name": "5acd438604812a52d2f060c66c87156b", "fusion_lon": 0.0, "bike_id": "5acd438604812a52d2f060c66c87156b", "is_reserved": 0, "type": "electric_scooter", "lat": 38.931892500000004, "fusion_lat": 0.0, "is_disabled": 0}, {"rental_uris": {"android": "https://dc.lft.to/lastmile_qr_scan", "ios": "https://dc.lft.to/lastmile_qr_scan"}, "lon": -77.02403866666667, "name": "b6b08e459cb8d5fb9f68c32508ae6570", "fusion_lon": 0.0, "bike_id": "b6b08e459cb8d5fb9f68c32508ae6570", "is_reserved": 0, "type": "electric_scooter", "lat": 38.90695133333333, "fusion_lat": 0.0, "is_disabled": 0}, {"rental_uris": {"android": "https://dc.lft.to/lastmile_qr_scan", "ios": "https://dc.lft.to/lastmile_qr_scan"}, "lon": -77.03606583333334, "name": "ec60659d41dba2d4b979f674b2c8e553", "fusion_lon": 0.0, "bike_id": "ec60659d41dba2d4b979f674b2c8e553", "is_reserved": 0, "type": "electric_scooter", "lat": 38.96676716666666, "fusion_lat": 0.0, "is_disabled": 0}, {"rental_uris": {"android": "https://dc.lft.to/lastmile_qr_scan", "ios": "https://dc.lft.to/lastmile_qr_scan"}, "lon": -77.02372966666667, "name": "0d66fa5b4dce7b003c92c1a2af910a5a", "fusion_lon": 0.0, "bike_id": "0d66fa5b4dce7b003c92c1a2af910a5a", "is_reserved": 0, "type": "electric_scooter", "lat": 38.901883833333336, "fusion_lat": 0.0, "is_disabled": 0}, {"rental_uris": {"android": "https://dc.lft.to/lastmile_qr_scan", "ios": "https://dc.lft.to/lastmile_qr_scan"}, "lon": -76.97000316666667, "name": "63acd9596dc77a603da15f5f7b210ec3", "fusion_lon": 0.0, "bike_id": "63acd9596dc77a603da15f5f7b210ec3", "is_reserved": 0, "type": "electric_scooter", "lat": 38.86017833333333, "fusion_lat": 0.0, "is_disabled": 0}, {"rental_uris": {"android": "https://dc.lft.to/lastmile_qr_scan", "ios": "https://dc.lft.to/lastmile_qr_scan"}, "lon": -77.01753716666667, "name": "981bcb5b9dada0ac0871f28214473b42", "fusion_lon": 0.0, "bike_id": "981bcb5b9dada0ac0871f28214473b42", "is_reserved": 0, "type": "electric_scooter", "lat": 38.91355166666666, "fusion_lat": 0.0, "is_disabled": 0}, {"rental_uris": {"android": "https://dc.lft.to/lastmile_qr_scan", "ios": "https://dc.lft.to/lastmile_qr_scan"}, "lon": -77.02553266666666, "name": "2a3cdd04aec0e3776cb238b42ad93a1f", "fusion_lon": 0.0, "bike_id": "2a3cdd04aec0e3776cb238b42ad93a1f", "is_reserved": 0, "type": "electric_scooter", "lat": 38.916317666666664, "fusion_lat": 0.0, "is_disabled": 0}, {"rental_uris": {"android": "https://dc.lft.to/lastmile_qr_scan", "ios": "https://dc.lft.to/lastmile_qr_scan"}, "lon": -76.97347733333334, "name": "8305c6a0c16c6246c31083452be68abd", "fusion_lon": 0.0, "bike_id": "8305c6a0c16c6246c31083452be68abd", "is_reserved": 0, "type": "electric_scooter", "lat": 38.9040095, "fusion_lat": 0.0, "is_disabled": 0}, {"rental_uris": {"android": "https://dc.lft.to/lastmile_qr_scan", "ios": "https://dc.lft.to/lastmile_qr_scan"}, "lon": -77.0126145, "name": "a33b80ba8e9d6c6f8ab4b1932e80dc74", "fusion_lon": 0.0, "bike_id": "a33b80ba8e9d6c6f8ab4b1932e80dc74", "is_reserved": 0, "type": "electric_scooter", "lat": 38.95178116666666, "fusion_lat": 0.0, "is_disabled": 0}, {"rental_uris": {"android": "https://dc.lft.to/lastmile_qr_scan", "ios": "https://dc.lft.to/lastmile_qr_scan"}, "lon": -77.03099383333333, "name": "b098db828b5549b132d9ed3b23aec7ae", "fusion_lon": 0.0, "bike_id": "b098db828b5549b132d9ed3b23aec7ae", "is_reserved": 0, "type": "electric_scooter", "lat": 38.914142166666664, "fusion_lat": 0.0, "is_disabled": 0}, {"rental_uris": {"android": "https://dc.lft.to/lastmile_qr_scan", "ios": "https://dc.lft.to/lastmile_qr_scan"}, "lon": -76.9277325, "name": "a91a881fa19de5454e02b1c084e5f7e1", "fusion_lon": 0.0, "bike_id": "a91a881fa19de5454e02b1c084e5f7e1", "is_reserved": 0, "type": "electric_scooter", "lat": 38.8953635, "fusion_lat": 0.0, "is_disabled": 0}, {"rental_uris": {"android": "https://dc.lft.to/lastmile_qr_scan", "ios": "https://dc.lft.to/lastmile_qr_scan"}, "lon": -76.98333650000001, "name": "7abdd9be53206f57feece7c5d14babd4", "fusion_lon": 0.0, "bike_id": "7abdd9be53206f57feece7c5d14babd4", "is_reserved": 0, "type": "electric_scooter", "lat": 38.8953995, "fusion_lat": 0.0, "is_disabled": 0}, {"rental_uris": {"android": "https://dc.lft.to/lastmile_qr_scan", "ios": "https://dc.lft.to/lastmile_qr_scan"}, "lon": -77.0408215, "name": "ee0b71afa45a6304bd33e75bf185d21c", "fusion_lon": 0.0, "bike_id": "ee0b71afa45a6304bd33e75bf185d21c", "is_reserved": 0, "type": "electric_scooter", "lat": 38.92390733333333, "fusion_lat": 0.0, "is_disabled": 0}, {"rental_uris": {"android": "https://dc.lft.to/lastmile_qr_scan", "ios": "https://dc.lft.to/lastmile_qr_scan"}, "lon": -77.01946833333334, "name": "cc9dfe480633adaadfb0e915f6ec4871", "fusion_lon": 0.0, "bike_id": "cc9dfe480633adaadfb0e915f6ec4871", "is_reserved": 0, "type": "electric_scooter", "lat": 38.924202, "fusion_lat": 0.0, "is_disabled": 0}, {"rental_uris": {"android": "https://dc.lft.to/lastmile_qr_scan", "ios": "https://dc.lft.to/lastmile_qr_scan"}, "lon": -77.02714083333333, "name": "0a775372b845d869353ee3f3c6483080", "fusion_lon": 0.0, "bike_id": "0a775372b845d869353ee3f3c6483080", "is_reserved": 0, "type": "electric_scooter", "lat": 38.9248095, "fusion_lat": 0.0, "is_disabled": 0}, {"rental_uris": {"android": "https://dc.lft.to/lastmile_qr_scan", "ios": "https://dc.lft.to/lastmile_qr_scan"}, "lon": -77.02314866666667, "name": "42e9ce5c68d1f0a7028bae6903bde875", "fusion_lon": 0.0, "bike_id": "42e9ce5c68d1f0a7028bae6903bde875", "is_reserved": 0, "type": "electric_scooter", "lat": 38.9207025, "fusion_lat": 0.0, "is_disabled": 0}, {"rental_uris": {"android": "https://dc.lft.to/lastmile_qr_scan", "ios": "https://dc.lft.to/lastmile_qr_scan"}, "lon": -77.029741, "name": "7cf37e685ce16f5a1c7842cacff56c96", "fusion_lon": 0.0, "bike_id": "7cf37e685ce16f5a1c7842cacff56c96", "is_reserved": 0, "type": "electric_scooter", "lat": 38.905744, "fusion_lat": 0.0, "is_disabled": 0}, {"rental_uris": {"android": "https://dc.lft.to/lastmile_qr_scan", "ios": "https://dc.lft.to/lastmile_qr_scan"}, "lon": -77.02971416666666, "name": "7213f9c53c425cd126c7b41e8d42aecd", "fusion_lon": 0.0, "bike_id": "7213f9c53c425cd126c7b41e8d42aecd", "is_reserved": 0, "type": "electric_scooter", "lat": 38.923155, "fusion_lat": 0.0, "is_disabled": 0}, {"rental_uris": {"android": "https://dc.lft.to/lastmile_qr_scan", "ios": "https://dc.lft.to/lastmile_qr_scan"}, "lon": -77.04189116666667, "name": "515b282167952fffae35e52ad8f30c32", "fusion_lon": 0.0, "bike_id": "515b282167952fffae35e52ad8f30c32", "is_reserved": 0, "type": "electric_scooter", "lat": 38.902669833333334, "fusion_lat": 0.0, "is_disabled": 0}, {"rental_uris": {"android": "https://dc.lft.to/lastmile_qr_scan", "ios": "https://dc.lft.to/lastmile_qr_scan"}, "lon": -77.00069616666667, "name": "c646a0c103479701e84903860d3a936d", "fusion_lon": 0.0, "bike_id": "c646a0c103479701e84903860d3a936d", "is_reserved": 0, "type": "electric_scooter", "lat": 38.875111, "fusion_lat": 0.0, "is_disabled": 0}, {"rental_uris": {"android": "https://dc.lft.to/lastmile_qr_scan", "ios": "https://dc.lft.to/lastmile_qr_scan"}, "lon": -77.02756716666667, "name": "9f8e6d14806fdd5cd78b08633fdc51ee", "fusion_lon": 0.0, "bike_id": "9f8e6d14806fdd5cd78b08633fdc51ee", "is_reserved": 0, "type": "electric_scooter", "lat": 38.939535, "fusion_lat": 0.0, "is_disabled": 0}, {"rental_uris": {"android": "https://dc.lft.to/lastmile_qr_scan", "ios": "https://dc.lft.to/lastmile_qr_scan"}, "lon": -76.99847983333333, "name": "bf5f4f27838124d887a097255a8b5182", "fusion_lon": 0.0, "bike_id": "bf5f4f27838124d887a097255a8b5182", "is_reserved": 0, "type": "electric_scooter", "lat": 38.896222, "fusion_lat": 0.0, "is_disabled": 0}, {"rental_uris": {"android": "https://dc.lft.to/lastmile_qr_scan", "ios": "https://dc.lft.to/lastmile_qr_scan"}, "lon": -77.01957283333333, "name": "f015dbee0c49c67cb8a59e504915320c", "fusion_lon": 0.0, "bike_id": "f015dbee0c49c67cb8a59e504915320c", "is_reserved": 0, "type": "electric_scooter", "lat": 38.92326833333333, "fusion_lat": 0.0, "is_disabled": 0}, {"rental_uris": {"android": "https://dc.lft.to/lastmile_qr_scan", "ios": "https://dc.lft.to/lastmile_qr_scan"}, "lon": -77.01990483333333, "name": "d9a40d7004e51ccbf14b2d088c8abf46", "fusion_lon": 0.0, "bike_id": "d9a40d7004e51ccbf14b2d088c8abf46", "is_reserved": 0, "type": "electric_scooter", "lat": 38.875713833333336, "fusion_lat": 0.0, "is_disabled": 0}, {"rental_uris": {"android": "https://dc.lft.to/lastmile_qr_scan", "ios": "https://dc.lft.to/lastmile_qr_scan"}, "lon": -77.0239885, "name": "28cf14b734d0dd47421fca7ed93ba0b9", "fusion_lon": 0.0, "bike_id": "28cf14b734d0dd47421fca7ed93ba0b9", "is_reserved": 0, "type": "electric_scooter", "lat": 38.90975066666667, "fusion_lat": 0.0, "is_disabled": 0}, {"rental_uris": {"android": "https://dc.lft.to/lastmile_qr_scan", "ios": "https://dc.lft.to/lastmile_qr_scan"}, "lon": -77.0033675, "name": "54203d5035293932353ea173063c60cd", "fusion_lon": 0.0, "bike_id": "54203d5035293932353ea173063c60cd", "is_reserved": 0, "type": "electric_scooter", "lat": 38.91889666666667, "fusion_lat": 0.0, "is_disabled": 0}, {"rental_uris": {"android": "https://dc.lft.to/lastmile_qr_scan", "ios": "https://dc.lft.to/lastmile_qr_scan"}, "lon": -77.02491233333333, "name": "3a230fe5e5719768527e5888a72139d5", "fusion_lon": 0.0, "bike_id": "3a230fe5e5719768527e5888a72139d5", "is_reserved": 0, "type": "electric_scooter", "lat": 38.923931333333336, "fusion_lat": 0.0, "is_disabled": 0}, {"rental_uris": {"android": "https://dc.lft.to/lastmile_qr_scan", "ios": "https://dc.lft.to/lastmile_qr_scan"}, "lon": -77.057186, "name": "9fb34f2e421bd275e54a0f8400ce75e1", "fusion_lon": 0.0, "bike_id": "9fb34f2e421bd275e54a0f8400ce75e1", "is_reserved": 0, "type": "electric_bike", "lat": 38.91702433333333, "fusion_lat": 0.0, "is_disabled": 0}, {"rental_uris": {"android": "https://dc.lft.to/lastmile_qr_scan", "ios": "https://dc.lft.to/lastmile_qr_scan"}, "lon": -77.019955, "name": "35b2ac5d25ba4f84c32cb5459edc3411", "fusion_lon": 0.0, "bike_id": "35b2ac5d25ba4f84c32cb5459edc3411", "is_reserved": 0, "type": "electric_scooter", "lat": 38.914922, "fusion_lat": 0.0, "is_disabled": 0}, {"rental_uris": {"android": "https://dc.lft.to/lastmile_qr_scan", "ios": "https://dc.lft.to/lastmile_qr_scan"}, "lon": -77.042668, "name": "79991c15d336c82668bc336e894afcd3", "fusion_lon": 0.0, "bike_id": "79991c15d336c82668bc336e894afcd3", "is_reserved": 0, "type": "electric_scooter", "lat": 38.907776, "fusion_lat": 0.0, "is_disabled": 0}, {"rental_uris": {"android": "https://dc.lft.to/lastmile_qr_scan", "ios": "https://dc.lft.to/lastmile_qr_scan"}, "lon": -76.99771016666666, "name": "ae33c7a854c0f67a7968719c3817cf87", "fusion_lon": 0.0, "bike_id": "ae33c7a854c0f67a7968719c3817cf87", "is_reserved": 0, "type": "electric_bike", "lat": 38.9227965, "fusion_lat": 0.0, "is_disabled": 0}, {"rental_uris": {"android": "https://dc.lft.to/lastmile_qr_scan", "ios": "https://dc.lft.to/lastmile_qr_scan"}, "lon": -77.04490433333333, "name": "7d97d6f5b79338d0fd22f1af1f73ab0c", "fusion_lon": 0.0, "bike_id": "7d97d6f5b79338d0fd22f1af1f73ab0c", "is_reserved": 0, "type": "electric_scooter", "lat": 38.907205833333336, "fusion_lat": 0.0, "is_disabled": 0}, {"rental_uris": {"android": "https://dc.lft.to/lastmile_qr_scan", "ios": "https://dc.lft.to/lastmile_qr_scan"}, "lon": -76.98410283333334, "name": "73a43a641b14444bb14a81d748bee145", "fusion_lon": 0.0, "bike_id": "73a43a641b14444bb14a81d748bee145", "is_reserved": 0, "type": "electric_scooter", "lat": 38.8798555, "fusion_lat": 0.0, "is_disabled": 0}, {"rental_uris": {"android": "https://dc.lft.to/lastmile_qr_scan", "ios": "https://dc.lft.to/lastmile_qr_scan"}, "lon": -77.07624866666667, "name": "abf90057d88e394c856dd4ea1222af2d", "fusion_lon": 0.0, "bike_id": "abf90057d88e394c856dd4ea1222af2d", "is_reserved": 0, "type": "electric_bike", "lat": 38.906103333333334, "fusion_lat": 0.0, "is_disabled": 0}, {"rental_uris": {"android": "https://dc.lft.to/lastmile_qr_scan", "ios": "https://dc.lft.to/lastmile_qr_scan"}, "lon": -77.04872633333333, "name": "6a7416777d76dd4182f927476e68c65e", "fusion_lon": 0.0, "bike_id": "6a7416777d76dd4182f927476e68c65e", "is_reserved": 0, "type": "electric_scooter", "lat": 38.915550333333336, "fusion_lat": 0.0, "is_disabled": 0}, {"rental_uris": {"android": "https://dc.lft.to/lastmile_qr_scan", "ios": "https://dc.lft.to/lastmile_qr_scan"}, "lon": -77.02486783333333, "name": "d7171cf9c08f34b77f9bb579d240f0ad", "fusion_lon": 0.0, "bike_id": "d7171cf9c08f34b77f9bb579d240f0ad", "is_reserved": 0, "type": "electric_scooter", "lat": 38.901772333333334, "fusion_lat": 0.0, "is_disabled": 0}, {"rental_uris": {"android": "https://dc.lft.to/lastmile_qr_scan", "ios": "https://dc.lft.to/lastmile_qr_scan"}, "lon": -77.022023, "name": "dff95cb7d27fdd3105f99ff28f94177e", "fusion_lon": 0.0, "bike_id": "dff95cb7d27fdd3105f99ff28f94177e", "is_reserved": 0, "type": "electric_scooter", "lat": 38.92105166666666, "fusion_lat": 0.0, "is_disabled": 0}, {"rental_uris": {"android": "https://dc.lft.to/lastmile_qr_scan", "ios": "https://dc.lft.to/lastmile_qr_scan"}, "lon": -77.00419433333333, "name": "4748312c71dc0ccff1fcc12517edfba6", "fusion_lon": 0.0, "bike_id": "4748312c71dc0ccff1fcc12517edfba6", "is_reserved": 0, "type": "electric_bike", "lat": 38.876493333333336, "fusion_lat": 0.0, "is_disabled": 0}, {"rental_uris": {"android": "https://dc.lft.to/lastmile_qr_scan", "ios": "https://dc.lft.to/lastmile_qr_scan"}, "lon": -77.0462095, "name": "9f2786a1e1343bad8d1bd6e6f947f13f", "fusion_lon": 0.0, "bike_id": "9f2786a1e1343bad8d1bd6e6f947f13f", "is_reserved": 0, "type": "electric_scooter", "lat": 38.89604383333333, "fusion_lat": 0.0, "is_disabled": 0}, {"rental_uris": {"android": "https://dc.lft.to/lastmile_qr_scan", "ios": "https://dc.lft.to/lastmile_qr_scan"}, "lon": -77.03198833333333, "name": "94ddabc9b2d40f606bd7733a17afc4dc", "fusion_lon": 0.0, "bike_id": "94ddabc9b2d40f606bd7733a17afc4dc", "is_reserved": 0, "type": "electric_scooter", "lat": 38.893152, "fusion_lat": 0.0, "is_disabled": 0}, {"rental_uris": {"android": "https://dc.lft.to/lastmile_qr_scan", "ios": "https://dc.lft.to/lastmile_qr_scan"}, "lon": -76.99069833333333, "name": "f5302d9acbcd0f84ba3325ff9070e51e", "fusion_lon": 0.0, "bike_id": "f5302d9acbcd0f84ba3325ff9070e51e", "is_reserved": 0, "type": "electric_bike", "lat": 38.942602, "fusion_lat": 0.0, "is_disabled": 0}, {"rental_uris": {"android": "https://dc.lft.to/lastmile_qr_scan", "ios": "https://dc.lft.to/lastmile_qr_scan"}, "lon": -76.98819166666667, "name": "2e217a64bdce4c600ccd449c67b2b027", "fusion_lon": 0.0, "bike_id": "2e217a64bdce4c600ccd449c67b2b027", "is_reserved": 0, "type": "electric_scooter", "lat": 38.90030216666667, "fusion_lat": 0.0, "is_disabled": 0}, {"rental_uris": {"android": "https://dc.lft.to/lastmile_qr_scan", "ios": "https://dc.lft.to/lastmile_qr_scan"}, "lon": -76.979559, "name": "d2f946552c8be08a2221943e7d9eb931", "fusion_lon": 0.0, "bike_id": "d2f946552c8be08a2221943e7d9eb931", "is_reserved": 0, "type": "electric_bike", "lat": 38.92035216666667, "fusion_lat": 0.0, "is_disabled": 0}, {"rental_uris": {"android": "https://dc.lft.to/lastmile_qr_scan", "ios": "https://dc.lft.to/lastmile_qr_scan"}, "lon": -77.03172933333333, "name": "6fd9cb251d6438e25e41ac75689564c8", "fusion_lon": 0.0, "bike_id": "6fd9cb251d6438e25e41ac75689564c8", "is_reserved": 0, "type": "electric_scooter", "lat": 38.91811233333333, "fusion_lat": 0.0, "is_disabled": 0}, {"rental_uris": {"android": "https://dc.lft.to/lastmile_qr_scan", "ios": "https://dc.lft.to/lastmile_qr_scan"}, "lon": -76.9971, "name": "973f4a6ca22e2291ccce3c252bfc5e6b", "fusion_lon": 0.0, "bike_id": "973f4a6ca22e2291ccce3c252bfc5e6b", "is_reserved": 0, "type": "electric_scooter", "lat": 38.89468383333333, "fusion_lat": 0.0, "is_disabled": 0}, {"rental_uris": {"android": "https://dc.lft.to/lastmile_qr_scan", "ios": "https://dc.lft.to/lastmile_qr_scan"}, "lon": -77.029884, "name": "806a6593f35b2bae5427a4c9515a0ab6", "fusion_lon": 0.0, "bike_id": "806a6593f35b2bae5427a4c9515a0ab6", "is_reserved": 0, "type": "electric_scooter", "lat": 38.897444, "fusion_lat": 0.0, "is_disabled": 0}, {"rental_uris": {"android": "https://dc.lft.to/lastmile_qr_scan", "ios": "https://dc.lft.to/lastmile_qr_scan"}, "lon": -77.00342566666667, "name": "6c92e92b2b732d2554ef75d4e301f72e", "fusion_lon": 0.0, "bike_id": "6c92e92b2b732d2554ef75d4e301f72e", "is_reserved": 0, "type": "electric_scooter", "lat": 38.887386166666666, "fusion_lat": 0.0, "is_disabled": 0}, {"rental_uris": {"android": "https://dc.lft.to/lastmile_qr_scan", "ios": "https://dc.lft.to/lastmile_qr_scan"}, "lon": -77.02147583333333, "name": "6182d216c19e781829d00622c445300a", "fusion_lon": 0.0, "bike_id": "6182d216c19e781829d00622c445300a", "is_reserved": 0, "type": "electric_scooter", "lat": 38.89408933333333, "fusion_lat": 0.0, "is_disabled": 0}, {"rental_uris": {"android": "https://dc.lft.to/lastmile_qr_scan", "ios": "https://dc.lft.to/lastmile_qr_scan"}, "lon": -77.0002045, "name": "128a704a1db08bc68b21a177ff72e5c5", "fusion_lon": 0.0, "bike_id": "128a704a1db08bc68b21a177ff72e5c5", "is_reserved": 0, "type": "electric_scooter", "lat": 38.9590785, "fusion_lat": 0.0, "is_disabled": 0}, {"rental_uris": {"android": "https://dc.lft.to/lastmile_qr_scan", "ios": "https://dc.lft.to/lastmile_qr_scan"}, "lon": -77.03561516666667, "name": "516408ca579fa1310a3aace68edcdb87", "fusion_lon": 0.0, "bike_id": "516408ca579fa1310a3aace68edcdb87", "is_reserved": 0, "type": "electric_scooter", "lat": 38.920788, "fusion_lat": 0.0, "is_disabled": 0}, {"rental_uris": {"android": "https://dc.lft.to/lastmile_qr_scan", "ios": "https://dc.lft.to/lastmile_qr_scan"}, "lon": -77.04487366666666, "name": "f248176673911159bfd135f923ac6a90", "fusion_lon": 0.0, "bike_id": "f248176673911159bfd135f923ac6a90", "is_reserved": 0, "type": "electric_scooter", "lat": 38.91612416666667, "fusion_lat": 0.0, "is_disabled": 0}, {"rental_uris": {"android": "https://dc.lft.to/lastmile_qr_scan", "ios": "https://dc.lft.to/lastmile_qr_scan"}, "lon": -76.9932545, "name": "074a773e759fd74233923c09cca6ea2c", "fusion_lon": 0.0, "bike_id": "074a773e759fd74233923c09cca6ea2c", "is_reserved": 0, "type": "electric_scooter", "lat": 38.87655083333333, "fusion_lat": 0.0, "is_disabled": 0}, {"rental_uris": {"android": "https://dc.lft.to/lastmile_qr_scan", "ios": "https://dc.lft.to/lastmile_qr_scan"}, "lon": -77.022867, "name": "a58703703cc3c0a7f3275fbbfefafc3e", "fusion_lon": 0.0, "bike_id": "a58703703cc3c0a7f3275fbbfefafc3e", "is_reserved": 0, "type": "electric_scooter", "lat": 38.91153633333333, "fusion_lat": 0.0, "is_disabled": 0}, {"rental_uris": {"android": "https://dc.lft.to/lastmile_qr_scan", "ios": "https://dc.lft.to/lastmile_qr_scan"}, "lon": -76.97327416666667, "name": "9faf08792808914b473194f1ee158d85", "fusion_lon": 0.0, "bike_id": "9faf08792808914b473194f1ee158d85", "is_reserved": 0, "type": "electric_scooter", "lat": 38.904055666666665, "fusion_lat": 0.0, "is_disabled": 0}, {"rental_uris": {"android": "https://dc.lft.to/lastmile_qr_scan", "ios": "https://dc.lft.to/lastmile_qr_scan"}, "lon": -76.95834816666667, "name": "c327bfcd6bd0fb595139a9425c293d36", "fusion_lon": 0.0, "bike_id": "c327bfcd6bd0fb595139a9425c293d36", "is_reserved": 0, "type": "electric_scooter", "lat": 38.930448166666665, "fusion_lat": 0.0, "is_disabled": 0}, {"rental_uris": {"android": "https://dc.lft.to/lastmile_qr_scan", "ios": "https://dc.lft.to/lastmile_qr_scan"}, "lon": -77.04612883333333, "name": "eb66ac2abe652c15f8d911df8d5aac37", "fusion_lon": 0.0, "bike_id": "eb66ac2abe652c15f8d911df8d5aac37", "is_reserved": 0, "type": "electric_scooter", "lat": 38.904424166666665, "fusion_lat": 0.0, "is_disabled": 0}, {"rental_uris": {"android": "https://dc.lft.to/lastmile_qr_scan", "ios": "https://dc.lft.to/lastmile_qr_scan"}, "lon": -77.03653266666667, "name": "e246871326e1e18be294979cae976ea1", "fusion_lon": 0.0, "bike_id": "e246871326e1e18be294979cae976ea1", "is_reserved": 0, "type": "electric_scooter", "lat": 38.921369, "fusion_lat": 0.0, "is_disabled": 0}, {"rental_uris": {"android": "https://dc.lft.to/lastmile_qr_scan", "ios": "https://dc.lft.to/lastmile_qr_scan"}, "lon": -77.02404483333333, "name": "33027caf30d443eb884b39850a76ecd3", "fusion_lon": 0.0, "bike_id": "33027caf30d443eb884b39850a76ecd3", "is_reserved": 0, "type": "electric_scooter", "lat": 38.956966333333334, "fusion_lat": 0.0, "is_disabled": 0}, {"rental_uris": {"android": "https://dc.lft.to/lastmile_qr_scan", "ios": "https://dc.lft.to/lastmile_qr_scan"}, "lon": -76.94156266666667, "name": "d2272914399bcf4c74059cbfc53dcfdc", "fusion_lon": 0.0, "bike_id": "d2272914399bcf4c74059cbfc53dcfdc", "is_reserved": 0, "type": "electric_bike", "lat": 38.90829316666667, "fusion_lat": 0.0, "is_disabled": 0}, {"rental_uris": {"android": "https://dc.lft.to/lastmile_qr_scan", "ios": "https://dc.lft.to/lastmile_qr_scan"}, "lon": -77.0072425, "name": "649c5dafd618dff5dd273fbe369d8f35", "fusion_lon": 0.0, "bike_id": "649c5dafd618dff5dd273fbe369d8f35", "is_reserved": 0, "type": "electric_scooter", "lat": 38.911972666666664, "fusion_lat": 0.0, "is_disabled": 0}, {"rental_uris": {"android": "https://dc.lft.to/lastmile_qr_scan", "ios": "https://dc.lft.to/lastmile_qr_scan"}, "lon": -76.98105983333333, "name": "00dc4fab5e7f0fe56e90b2297cf2f670", "fusion_lon": 0.0, "bike_id": "00dc4fab5e7f0fe56e90b2297cf2f670", "is_reserved": 0, "type": "electric_scooter", "lat": 38.90411683333333, "fusion_lat": 0.0, "is_disabled": 0}, {"rental_uris": {"android": "https://dc.lft.to/lastmile_qr_scan", "ios": "https://dc.lft.to/lastmile_qr_scan"}, "lon": -77.02712266666667, "name": "96d74b1379c375f9ee4388707e142b23", "fusion_lon": 0.0, "bike_id": "96d74b1379c375f9ee4388707e142b23", "is_reserved": 0, "type": "electric_scooter", "lat": 38.89919783333333, "fusion_lat": 0.0, "is_disabled": 0}, {"rental_uris": {"android": "https://dc.lft.to/lastmile_qr_scan", "ios": "https://dc.lft.to/lastmile_qr_scan"}, "lon": -77.0257, "name": "5252c5b212c503c3b5bf5fa397cb92fe", "fusion_lon": 0.0, "bike_id": "5252c5b212c503c3b5bf5fa397cb92fe", "is_reserved": 0, "type": "electric_scooter", "lat": 38.904392, "fusion_lat": 0.0, "is_disabled": 0}, {"rental_uris": {"android": "https://dc.lft.to/lastmile_qr_scan", "ios": "https://dc.lft.to/lastmile_qr_scan"}, "lon": -77.00795133333334, "name": "e0afcc935306c2c366cffe8c1c50f297", "fusion_lon": 0.0, "bike_id": "e0afcc935306c2c366cffe8c1c50f297", "is_reserved": 0, "type": "electric_scooter", "lat": 38.90714466666667, "fusion_lat": 0.0, "is_disabled": 0}, {"rental_uris": {"android": "https://dc.lft.to/lastmile_qr_scan", "ios": "https://dc.lft.to/lastmile_qr_scan"}, "lon": -77.0462535, "name": "4f95b626bcf6274f410f11d50fa025d4", "fusion_lon": 0.0, "bike_id": "4f95b626bcf6274f410f11d50fa025d4", "is_reserved": 0, "type": "electric_scooter", "lat": 38.92330033333333, "fusion_lat": 0.0, "is_disabled": 0}, {"rental_uris": {"android": "https://dc.lft.to/lastmile_qr_scan", "ios": "https://dc.lft.to/lastmile_qr_scan"}, "lon": -77.02625766666667, "name": "f837055c792c549f412efa8f9b221f9c", "fusion_lon": 0.0, "bike_id": "f837055c792c549f412efa8f9b221f9c", "is_reserved": 0, "type": "electric_scooter", "lat": 38.88386366666667, "fusion_lat": 0.0, "is_disabled": 0}, {"rental_uris": {"android": "https://dc.lft.to/lastmile_qr_scan", "ios": "https://dc.lft.to/lastmile_qr_scan"}, "lon": -77.05215166666666, "name": "896914d1b5cc4a3c17a04a7fad253a35", "fusion_lon": 0.0, "bike_id": "896914d1b5cc4a3c17a04a7fad253a35", "is_reserved": 0, "type": "electric_scooter", "lat": 38.92477, "fusion_lat": 0.0, "is_disabled": 0}, {"rental_uris": {"android": "https://dc.lft.to/lastmile_qr_scan", "ios": "https://dc.lft.to/lastmile_qr_scan"}, "lon": -77.00903283333334, "name": "8a35225bae9edcf531094612e14d496f", "fusion_lon": 0.0, "bike_id": "8a35225bae9edcf531094612e14d496f", "is_reserved": 0, "type": "electric_scooter", "lat": 38.897940166666665, "fusion_lat": 0.0, "is_disabled": 0}, {"rental_uris": {"android": "https://dc.lft.to/lastmile_qr_scan", "ios": "https://dc.lft.to/lastmile_qr_scan"}, "lon": -77.02655666666666, "name": "30fe290f7dc72294a7db72233a9066a3", "fusion_lon": 0.0, "bike_id": "30fe290f7dc72294a7db72233a9066a3", "is_reserved": 0, "type": "electric_scooter", "lat": 38.92212083333333, "fusion_lat": 0.0, "is_disabled": 0}, {"rental_uris": {"android": "https://dc.lft.to/lastmile_qr_scan", "ios": "https://dc.lft.to/lastmile_qr_scan"}, "lon": -77.02208833333333, "name": "34cbb012642b9e21a931944c482a822f", "fusion_lon": 0.0, "bike_id": "34cbb012642b9e21a931944c482a822f", "is_reserved": 0, "type": "electric_scooter", "lat": 38.912512666666665, "fusion_lat": 0.0, "is_disabled": 0}, {"rental_uris": {"android": "https://dc.lft.to/lastmile_qr_scan", "ios": "https://dc.lft.to/lastmile_qr_scan"}, "lon": -77.02299816666667, "name": "1524f60526eb9e9eb6f89eb2326cf83a", "fusion_lon": 0.0, "bike_id": "1524f60526eb9e9eb6f89eb2326cf83a", "is_reserved": 0, "type": "electric_scooter", "lat": 38.91956016666666, "fusion_lat": 0.0, "is_disabled": 0}, {"rental_uris": {"android": "https://dc.lft.to/lastmile_qr_scan", "ios": "https://dc.lft.to/lastmile_qr_scan"}, "lon": -77.032014, "name": "411ab84c188143dc801d23b21b26e870", "fusion_lon": 0.0, "bike_id": "411ab84c188143dc801d23b21b26e870", "is_reserved": 0, "type": "electric_scooter", "lat": 38.916604, "fusion_lat": 0.0, "is_disabled": 0}, {"rental_uris": {"android": "https://dc.lft.to/lastmile_qr_scan", "ios": "https://dc.lft.to/lastmile_qr_scan"}, "lon": -76.99320583333333, "name": "7225e7eab4f0505c8d2b26af19695907", "fusion_lon": 0.0, "bike_id": "7225e7eab4f0505c8d2b26af19695907", "is_reserved": 0, "type": "electric_scooter", "lat": 38.87656366666667, "fusion_lat": 0.0, "is_disabled": 0}, {"rental_uris": {"android": "https://dc.lft.to/lastmile_qr_scan", "ios": "https://dc.lft.to/lastmile_qr_scan"}, "lon": -76.99676683333334, "name": "f25e0d20f24c975194158b93ee3ff9b1", "fusion_lon": 0.0, "bike_id": "f25e0d20f24c975194158b93ee3ff9b1", "is_reserved": 0, "type": "electric_scooter", "lat": 38.8851135, "fusion_lat": 0.0, "is_disabled": 0}, {"rental_uris": {"android": "https://dc.lft.to/lastmile_qr_scan", "ios": "https://dc.lft.to/lastmile_qr_scan"}, "lon": -77.02641283333334, "name": "42216b5312c1a3a8cd48282fadc5220e", "fusion_lon": 0.0, "bike_id": "42216b5312c1a3a8cd48282fadc5220e", "is_reserved": 0, "type": "electric_scooter", "lat": 38.982239666666665, "fusion_lat": 0.0, "is_disabled": 0}, {"rental_uris": {"android": "https://dc.lft.to/lastmile_qr_scan", "ios": "https://dc.lft.to/lastmile_qr_scan"}, "lon": -77.06318233333333, "name": "e71de811a95dccaa85b7e6b264f8bc15", "fusion_lon": 0.0, "bike_id": "e71de811a95dccaa85b7e6b264f8bc15", "is_reserved": 0, "type": "electric_scooter", "lat": 38.944122666666665, "fusion_lat": 0.0, "is_disabled": 0}, {"rental_uris": {"android": "https://dc.lft.to/lastmile_qr_scan", "ios": "https://dc.lft.to/lastmile_qr_scan"}, "lon": -77.0173105, "name": "367a3a88f1140135a65984b62a211abd", "fusion_lon": 0.0, "bike_id": "367a3a88f1140135a65984b62a211abd", "is_reserved": 0, "type": "electric_scooter", "lat": 38.89221833333333, "fusion_lat": 0.0, "is_disabled": 0}, {"rental_uris": {"android": "https://dc.lft.to/lastmile_qr_scan", "ios": "https://dc.lft.to/lastmile_qr_scan"}, "lon": -77.029591, "name": "4cdb582153173b0c65a1d82034253892", "fusion_lon": 0.0, "bike_id": "4cdb582153173b0c65a1d82034253892", "is_reserved": 0, "type": "electric_scooter", "lat": 38.917169333333334, "fusion_lat": 0.0, "is_disabled": 0}, {"rental_uris": {"android": "https://dc.lft.to/lastmile_qr_scan", "ios": "https://dc.lft.to/lastmile_qr_scan"}, "lon": -77.06628616666667, "name": "2e29a6a51e865f66329bbc81c7d58fa7", "fusion_lon": 0.0, "bike_id": "2e29a6a51e865f66329bbc81c7d58fa7", "is_reserved": 0, "type": "electric_scooter", "lat": 38.911778, "fusion_lat": 0.0, "is_disabled": 0}, {"rental_uris": {"android": "https://dc.lft.to/lastmile_qr_scan", "ios": "https://dc.lft.to/lastmile_qr_scan"}, "lon": -77.07347666666666, "name": "3a344168078d19b0568e7ff29d419089", "fusion_lon": 0.0, "bike_id": "3a344168078d19b0568e7ff29d419089", "is_reserved": 0, "type": "electric_scooter", "lat": 38.91103016666667, "fusion_lat": 0.0, "is_disabled": 0}, {"rental_uris": {"android": "https://dc.lft.to/lastmile_qr_scan", "ios": "https://dc.lft.to/lastmile_qr_scan"}, "lon": -77.03196183333333, "name": "e46d451e0318a7a06771e2238f83d721", "fusion_lon": 0.0, "bike_id": "e46d451e0318a7a06771e2238f83d721", "is_reserved": 0, "type": "electric_scooter", "lat": 38.911334, "fusion_lat": 0.0, "is_disabled": 0}, {"rental_uris": {"android": "https://dc.lft.to/lastmile_qr_scan", "ios": "https://dc.lft.to/lastmile_qr_scan"}, "lon": -77.01215783333333, "name": "d6a954d934edf8769c903e411a010678", "fusion_lon": 0.0, "bike_id": "d6a954d934edf8769c903e411a010678", "is_reserved": 0, "type": "electric_scooter", "lat": 38.90025816666667, "fusion_lat": 0.0, "is_disabled": 0}, {"rental_uris": {"android": "https://dc.lft.to/lastmile_qr_scan", "ios": "https://dc.lft.to/lastmile_qr_scan"}, "lon": -77.04613, "name": "0c1184a1ea8a7b6acc4d66e997d3d00f", "fusion_lon": 0.0, "bike_id": "0c1184a1ea8a7b6acc4d66e997d3d00f", "is_reserved": 0, "type": "electric_scooter", "lat": 38.898035166666666, "fusion_lat": 0.0, "is_disabled": 0}, {"rental_uris": {"android": "https://dc.lft.to/lastmile_qr_scan", "ios": "https://dc.lft.to/lastmile_qr_scan"}, "lon": -77.04125316666666, "name": "0f47c37bcae66d81b2d8f798d3283368", "fusion_lon": 0.0, "bike_id": "0f47c37bcae66d81b2d8f798d3283368", "is_reserved": 0, "type": "electric_scooter", "lat": 38.93466983333333, "fusion_lat": 0.0, "is_disabled": 0}, {"rental_uris": {"android": "https://dc.lft.to/lastmile_qr_scan", "ios": "https://dc.lft.to/lastmile_qr_scan"}, "lon": -77.006073, "name": "20bc3fc1fe7bcfd0c5195a5f7cf76f82", "fusion_lon": 0.0, "bike_id": "20bc3fc1fe7bcfd0c5195a5f7cf76f82", "is_reserved": 0, "type": "electric_scooter", "lat": 38.8717885, "fusion_lat": 0.0, "is_disabled": 0}, {"rental_uris": {"android": "https://dc.lft.to/lastmile_qr_scan", "ios": "https://dc.lft.to/lastmile_qr_scan"}, "lon": -77.05147883333333, "name": "d09ff992ec37caedbd31d8ec3e4ccec1", "fusion_lon": 0.0, "bike_id": "d09ff992ec37caedbd31d8ec3e4ccec1", "is_reserved": 0, "type": "electric_scooter", "lat": 38.8964245, "fusion_lat": 0.0, "is_disabled": 0}, {"rental_uris": {"android": "https://dc.lft.to/lastmile_qr_scan", "ios": "https://dc.lft.to/lastmile_qr_scan"}, "lon": -77.04335316666666, "name": "cfc66eebc97bcc73d2d16f499cca4ca8", "fusion_lon": 0.0, "bike_id": "cfc66eebc97bcc73d2d16f499cca4ca8", "is_reserved": 0, "type": "electric_scooter", "lat": 38.902982333333334, "fusion_lat": 0.0, "is_disabled": 0}, {"rental_uris": {"android": "https://dc.lft.to/lastmile_qr_scan", "ios": "https://dc.lft.to/lastmile_qr_scan"}, "lon": -76.97994983333334, "name": "bdfb7acb8e649d9beaea42056ab2bc7e", "fusion_lon": 0.0, "bike_id": "bdfb7acb8e649d9beaea42056ab2bc7e", "is_reserved": 0, "type": "electric_scooter", "lat": 38.900928666666665, "fusion_lat": 0.0, "is_disabled": 0}, {"rental_uris": {"android": "https://dc.lft.to/lastmile_qr_scan", "ios": "https://dc.lft.to/lastmile_qr_scan"}, "lon": -77.07245033333334, "name": "f04bc6e54f50f8e58872c1921f1fbc72", "fusion_lon": 0.0, "bike_id": "f04bc6e54f50f8e58872c1921f1fbc72", "is_reserved": 0, "type": "electric_scooter", "lat": 38.93960233333333, "fusion_lat": 0.0, "is_disabled": 0}, {"rental_uris": {"android": "https://dc.lft.to/lastmile_qr_scan", "ios": "https://dc.lft.to/lastmile_qr_scan"}, "lon": -77.02329616666667, "name": "c5ae2d99beda1450d8c6e10e8c4dce34", "fusion_lon": 0.0, "bike_id": "c5ae2d99beda1450d8c6e10e8c4dce34", "is_reserved": 0, "type": "electric_scooter", "lat": 38.92226216666667, "fusion_lat": 0.0, "is_disabled": 0}, {"rental_uris": {"android": "https://dc.lft.to/lastmile_qr_scan", "ios": "https://dc.lft.to/lastmile_qr_scan"}, "lon": -77.03763266666667, "name": "bd77cc98c58bea4546ad167da9078eec", "fusion_lon": 0.0, "bike_id": "bd77cc98c58bea4546ad167da9078eec", "is_reserved": 0, "type": "electric_scooter", "lat": 38.907763333333335, "fusion_lat": 0.0, "is_disabled": 0}, {"rental_uris": {"android": "https://dc.lft.to/lastmile_qr_scan", "ios": "https://dc.lft.to/lastmile_qr_scan"}, "lon": -77.01907583333333, "name": "c6714484c5ee930c55dca7febe3ae146", "fusion_lon": 0.0, "bike_id": "c6714484c5ee930c55dca7febe3ae146", "is_reserved": 0, "type": "electric_scooter", "lat": 38.91414016666667, "fusion_lat": 0.0, "is_disabled": 0}, {"rental_uris": {"android": "https://dc.lft.to/lastmile_qr_scan", "ios": "https://dc.lft.to/lastmile_qr_scan"}, "lon": -76.937337, "name": "d1ecd9f621ea7beb6a75f09e6e766e6a", "fusion_lon": 0.0, "bike_id": "d1ecd9f621ea7beb6a75f09e6e766e6a", "is_reserved": 0, "type": "electric_scooter", "lat": 38.89009733333333, "fusion_lat": 0.0, "is_disabled": 0}, {"rental_uris": {"android": "https://dc.lft.to/lastmile_qr_scan", "ios": "https://dc.lft.to/lastmile_qr_scan"}, "lon": -77.009835, "name": "94d57e3404f273f60c6ec91b0d46f6fe", "fusion_lon": 0.0, "bike_id": "94d57e3404f273f60c6ec91b0d46f6fe", "is_reserved": 0, "type": "electric_scooter", "lat": 38.87283883333333, "fusion_lat": 0.0, "is_disabled": 0}, {"rental_uris": {"android": "https://dc.lft.to/lastmile_qr_scan", "ios": "https://dc.lft.to/lastmile_qr_scan"}, "lon": -77.02202433333333, "name": "bd893e97b66d08ed5b20a5fa69683738", "fusion_lon": 0.0, "bike_id": "bd893e97b66d08ed5b20a5fa69683738", "is_reserved": 0, "type": "electric_scooter", "lat": 38.918902833333334, "fusion_lat": 0.0, "is_disabled": 0}, {"rental_uris": {"android": "https://dc.lft.to/lastmile_qr_scan", "ios": "https://dc.lft.to/lastmile_qr_scan"}, "lon": -77.04593233333334, "name": "9d6bf70fae3c695b4667a080fa5675c7", "fusion_lon": 0.0, "bike_id": "9d6bf70fae3c695b4667a080fa5675c7", "is_reserved": 0, "type": "electric_scooter", "lat": 38.902434, "fusion_lat": 0.0, "is_disabled": 0}, {"rental_uris": {"android": "https://dc.lft.to/lastmile_qr_scan", "ios": "https://dc.lft.to/lastmile_qr_scan"}, "lon": -77.03370833333334, "name": "d90b4cbd776781135de5fb8c25f903a3", "fusion_lon": 0.0, "bike_id": "d90b4cbd776781135de5fb8c25f903a3", "is_reserved": 0, "type": "electric_scooter", "lat": 38.897345, "fusion_lat": 0.0, "is_disabled": 0}, {"rental_uris": {"android": "https://dc.lft.to/lastmile_qr_scan", "ios": "https://dc.lft.to/lastmile_qr_scan"}, "lon": -77.022764, "name": "12cb70e2298738d8cad5bc3adbbf9b5b", "fusion_lon": 0.0, "bike_id": "12cb70e2298738d8cad5bc3adbbf9b5b", "is_reserved": 0, "type": "electric_scooter", "lat": 38.87835966666667, "fusion_lat": 0.0, "is_disabled": 0}, {"rental_uris": {"android": "https://dc.lft.to/lastmile_qr_scan", "ios": "https://dc.lft.to/lastmile_qr_scan"}, "lon": -77.05077183333333, "name": "d49767e0fd38dabb75ce4d1d8522972f", "fusion_lon": 0.0, "bike_id": "d49767e0fd38dabb75ce4d1d8522972f", "is_reserved": 0, "type": "electric_scooter", "lat": 38.9018405, "fusion_lat": 0.0, "is_disabled": 0}, {"rental_uris": {"android": "https://dc.lft.to/lastmile_qr_scan", "ios": "https://dc.lft.to/lastmile_qr_scan"}, "lon": -77.030808, "name": "6e6f92eb82d4f6b412abf53b1d721ce5", "fusion_lon": 0.0, "bike_id": "6e6f92eb82d4f6b412abf53b1d721ce5", "is_reserved": 0, "type": "electric_scooter", "lat": 38.927712166666666, "fusion_lat": 0.0, "is_disabled": 0}, {"rental_uris": {"android": "https://dc.lft.to/lastmile_qr_scan", "ios": "https://dc.lft.to/lastmile_qr_scan"}, "lon": -77.05295666666666, "name": "7f8c7a0b9e772d9bae956090ea255bfd", "fusion_lon": 0.0, "bike_id": "7f8c7a0b9e772d9bae956090ea255bfd", "is_reserved": 0, "type": "electric_scooter", "lat": 38.916949833333334, "fusion_lat": 0.0, "is_disabled": 0}, {"rental_uris": {"android": "https://dc.lft.to/lastmile_qr_scan", "ios": "https://dc.lft.to/lastmile_qr_scan"}, "lon": -77.01725766666667, "name": "2a9c145e722a86aaedaa82ec8d12a269", "fusion_lon": 0.0, "bike_id": "2a9c145e722a86aaedaa82ec8d12a269", "is_reserved": 0, "type": "electric_scooter", "lat": 38.892191833333335, "fusion_lat": 0.0, "is_disabled": 0}, {"rental_uris": {"android": "https://dc.lft.to/lastmile_qr_scan", "ios": "https://dc.lft.to/lastmile_qr_scan"}, "lon": -77.003392, "name": "7069c8b16daf94cee35a4cf2de052832", "fusion_lon": 0.0, "bike_id": "7069c8b16daf94cee35a4cf2de052832", "is_reserved": 0, "type": "electric_scooter", "lat": 38.8936125, "fusion_lat": 0.0, "is_disabled": 0}, {"rental_uris": {"android": "https://dc.lft.to/lastmile_qr_scan", "ios": "https://dc.lft.to/lastmile_qr_scan"}, "lon": -77.071598, "name": "4c43924dab68abe702280df9d58c3bfb", "fusion_lon": 0.0, "bike_id": "4c43924dab68abe702280df9d58c3bfb", "is_reserved": 0, "type": "electric_bike", "lat": 38.90868366666667, "fusion_lat": 0.0, "is_disabled": 0}, {"rental_uris": {"android": "https://dc.lft.to/lastmile_qr_scan", "ios": "https://dc.lft.to/lastmile_qr_scan"}, "lon": -76.951456, "name": "d2275647305751e25f3bbe52cdad4285", "fusion_lon": 0.0, "bike_id": "d2275647305751e25f3bbe52cdad4285", "is_reserved": 0, "type": "electric_bike", "lat": 39.084297, "fusion_lat": 0.0, "is_disabled": 0}, {"rental_uris": {"android": "https://dc.lft.to/lastmile_qr_scan", "ios": "https://dc.lft.to/lastmile_qr_scan"}, "lon": -77.0223875, "name": "f81698d82fc53ba4ba9d49c9038ef4c0", "fusion_lon": 0.0, "bike_id": "f81698d82fc53ba4ba9d49c9038ef4c0", "is_reserved": 0, "type": "electric_scooter", "lat": 38.92423016666667, "fusion_lat": 0.0, "is_disabled": 0}, {"rental_uris": {"android": "https://dc.lft.to/lastmile_qr_scan", "ios": "https://dc.lft.to/lastmile_qr_scan"}, "lon": -77.03204233333334, "name": "7bc575505d493609af91e6b26fbec965", "fusion_lon": 0.0, "bike_id": "7bc575505d493609af91e6b26fbec965", "is_reserved": 0, "type": "electric_scooter", "lat": 38.907329, "fusion_lat": 0.0, "is_disabled": 0}, {"rental_uris": {"android": "https://dc.lft.to/lastmile_qr_scan", "ios": "https://dc.lft.to/lastmile_qr_scan"}, "lon": -76.93675333333333, "name": "ce253bee58f8d0615260845b0d99d79d", "fusion_lon": 0.0, "bike_id": "ce253bee58f8d0615260845b0d99d79d", "is_reserved": 0, "type": "electric_scooter", "lat": 38.88655933333333, "fusion_lat": 0.0, "is_disabled": 0}, {"rental_uris": {"android": "https://dc.lft.to/lastmile_qr_scan", "ios": "https://dc.lft.to/lastmile_qr_scan"}, "lon": -77.02391733333333, "name": "77f4bb91cc55a114ae2bb1beeba72d06", "fusion_lon": 0.0, "bike_id": "77f4bb91cc55a114ae2bb1beeba72d06", "is_reserved": 0, "type": "electric_scooter", "lat": 38.90978616666666, "fusion_lat": 0.0, "is_disabled": 0}, {"rental_uris": {"android": "https://dc.lft.to/lastmile_qr_scan", "ios": "https://dc.lft.to/lastmile_qr_scan"}, "lon": -77.043603, "name": "8c7be14a554c35698f0a2de57d35371b", "fusion_lon": 0.0, "bike_id": "8c7be14a554c35698f0a2de57d35371b", "is_reserved": 0, "type": "electric_scooter", "lat": 38.906476166666664, "fusion_lat": 0.0, "is_disabled": 0}, {"rental_uris": {"android": "https://dc.lft.to/lastmile_qr_scan", "ios": "https://dc.lft.to/lastmile_qr_scan"}, "lon": -77.02157533333333, "name": "4d435c966d201825697e9da80d8008f3", "fusion_lon": 0.0, "bike_id": "4d435c966d201825697e9da80d8008f3", "is_reserved": 0, "type": "electric_scooter", "lat": 38.924464666666665, "fusion_lat": 0.0, "is_disabled": 0}, {"rental_uris": {"android": "https://dc.lft.to/lastmile_qr_scan", "ios": "https://dc.lft.to/lastmile_qr_scan"}, "lon": -77.017653, "name": "9cb06b3f397cae7b55f0ccb652dd87a7", "fusion_lon": 0.0, "bike_id": "9cb06b3f397cae7b55f0ccb652dd87a7", "is_reserved": 0, "type": "electric_scooter", "lat": 38.90274466666666, "fusion_lat": 0.0, "is_disabled": 0}, {"rental_uris": {"android": "https://dc.lft.to/lastmile_qr_scan", "ios": "https://dc.lft.to/lastmile_qr_scan"}, "lon": -76.98060666666666, "name": "474c4558daeefc8a35b2844a54836c9e", "fusion_lon": 0.0, "bike_id": "474c4558daeefc8a35b2844a54836c9e", "is_reserved": 0, "type": "electric_scooter", "lat": 38.864984, "fusion_lat": 0.0, "is_disabled": 0}, {"rental_uris": {"android": "https://dc.lft.to/lastmile_qr_scan", "ios": "https://dc.lft.to/lastmile_qr_scan"}, "lon": -77.04019616666666, "name": "ddfcb2fef812dfc5ef4889896de6bd71", "fusion_lon": 0.0, "bike_id": "ddfcb2fef812dfc5ef4889896de6bd71", "is_reserved": 0, "type": "electric_scooter", "lat": 38.90523016666667, "fusion_lat": 0.0, "is_disabled": 0}, {"rental_uris": {"android": "https://dc.lft.to/lastmile_qr_scan", "ios": "https://dc.lft.to/lastmile_qr_scan"}, "lon": -77.025764, "name": "52cbc9adcb00f0289aa625da43fdf16b", "fusion_lon": 0.0, "bike_id": "52cbc9adcb00f0289aa625da43fdf16b", "is_reserved": 0, "type": "electric_scooter", "lat": 38.92058266666667, "fusion_lat": 0.0, "is_disabled": 0}, {"rental_uris": {"android": "https://dc.lft.to/lastmile_qr_scan", "ios": "https://dc.lft.to/lastmile_qr_scan"},