{"data": {"bikes": [{"rental_uris": {"ios": "https://dc.lft.to/lastmile_qr_scan", "android": "https://dc.lft.to/lastmile_qr_scan"}, "lon": -77.04803633333333, "type": "electric_scooter", "fusion_lat": 0.0, "lat": 38.916411333333336, "name": "05ceea0e5bfc2261b377af86ca2f9793", "fusion_lon": 0.0, "bike_id": "05ceea0e5bfc2261b377af86ca2f9793", "is_disabled": 0, "is_reserved": 0}, {"rental_uris": {"ios": "https://dc.lft.to/lastmile_qr_scan", "android": "https://dc.lft.to/lastmile_qr_scan"}, "lon": -77.0021415, "type": "electric_scooter", "fusion_lat": 0.0, "lat": 38.9110355, "name": "1e9fe61e86f0c77fd825effe9a0ebdbd", "fusion_lon": 0.0, "bike_id": "1e9fe61e86f0c77fd825effe9a0ebdbd", "is_disabled": 0, "is_reserved": 0}, {"rental_uris": {"ios": "https://dc.lft.to/lastmile_qr_scan", "android": "https://dc.lft.to/lastmile_qr_scan"}, "lon": -77.0318645, "type": "electric_scooter", "fusion_lat": 0.0, "lat": 38.91338, "name": "1803b98f2a181480a9f301fb58f1211b", "fusion_lon": 0.0, "bike_id": "1803b98f2a181480a9f301fb58f1211b", "is_disabled": 0, "is_reserved": 0}, {"rental_uris": {"ios": "https://dc.lft.to/lastmile_qr_scan", "android": "https://dc.lft.to/lastmile_qr_scan"}, "lon": -76.99758616666666, "type": "electric_scooter", "fusion_lat": 0.0, "lat": 38.921971666666664, "name": "d3a84f9b605f7cb69a57d08cd5b69683", "fusion_lon": 0.0, "bike_id": "d3a84f9b605f7cb69a57d08cd5b69683", "is_disabled": 0, "is_reserved": 0}, {"rental_uris": {"ios": "https://dc.lft.to/lastmile_qr_scan", "android": "https://dc.lft.to/lastmile_qr_scan"}, "lon": -77.0177625, "type": "electric_scooter", "fusion_lat": 0.0, "lat": 38.90396233333333, "name": "c546a65a15038c484edb878b52261742", "fusion_lon": 0.0, "bike_id": "c546a65a15038c484edb878b52261742", "is_disabled": 0, "is_reserved": 0}, {"rental_uris": {"ios": "https://dc.lft.to/lastmile_qr_scan", "android": "https://dc.lft.to/lastmile_qr_scan"}, "lon": -77.0318855, "type": "electric_scooter", "fusion_lat": 0.0, "lat": 38.914881666666666, "name": "c6357bdec848bf2fed0570f66866801e", "fusion_lon": 0.0, "bike_id": "c6357bdec848bf2fed0570f66866801e", "is_disabled": 0, "is_reserved": 0}, {"rental_uris": {"ios": "https://dc.lft.to/lastmile_qr_scan", "android": "https://dc.lft.to/lastmile_qr_scan"}, "lon": -77.0120515, "type": "electric_scooter", "fusion_lat": 0.0, "lat": 38.91562716666667, "name": "b3f5510e09a167fb78679c724a0af596", "fusion_lon": 0.0, "bike_id": "b3f5510e09a167fb78679c724a0af596", "is_disabled": 0, "is_reserved": 0}, {"rental_uris": {"ios": "https://dc.lft.to/lastmile_qr_scan", "android": "https://dc.lft.to/lastmile_qr_scan"}, "lon": -77.05740466666667, "type": "electric_scooter", "fusion_lat": 0.0, "lat": 38.93398116666667, "name": "71c9e98469ab8dd762bb8ee2db759454", "fusion_lon": 0.0, "bike_id": "71c9e98469ab8dd762bb8ee2db759454", "is_disabled": 0, "is_reserved": 0}, {"rental_uris": {"ios": "https://dc.lft.to/lastmile_qr_scan", "android": "https://dc.lft.to/lastmile_qr_scan"}, "lon": -77.0260995, "type": "electric_scooter", "fusion_lat": 0.0, "lat": 38.91707983333333, "name": "83453a49582a37a2195dd860890d0370", "fusion_lon": 0.0, "bike_id": "83453a49582a37a2195dd860890d0370", "is_disabled": 0, "is_reserved": 0}, {"rental_uris": {"ios": "https://dc.lft.to/lastmile_qr_scan", "android": "https://dc.lft.to/lastmile_qr_scan"}, "lon": -77.032736, "type": "electric_scooter", "fusion_lat": 0.0, "lat": 38.930916, "name": "9c7417fd13fb097a8250ad24060bd19a", "fusion_lon": 0.0, "bike_id": "9c7417fd13fb097a8250ad24060bd19a", "is_disabled": 0, "is_reserved": 0}, {"rental_uris": {"ios": "https://dc.lft.to/lastmile_qr_scan", "android": "https://dc.lft.to/lastmile_qr_scan"}, "lon": -77.11521783333333, "type": "electric_bike", "fusion_lat": 0.0, "lat": 38.8549125, "name": "fc1b7266bed62d25dd4f059175f88efa", "fusion_lon": 0.0, "bike_id": "fc1b7266bed62d25dd4f059175f88efa", "is_disabled": 0, "is_reserved": 0}, {"rental_uris": {"ios": "https://dc.lft.to/lastmile_qr_scan", "android": "https://dc.lft.to/lastmile_qr_scan"}, "lon": -77.03202933333333, "type": "electric_scooter", "fusion_lat": 0.0, "lat": 38.88573133333333, "name": "6a26f37a6547966eec398ff3e5b7b0c3", "fusion_lon": 0.0, "bike_id": "6a26f37a6547966eec398ff3e5b7b0c3", "is_disabled": 0, "is_reserved": 0}, {"rental_uris": {"ios": "https://dc.lft.to/lastmile_qr_scan", "android": "https://dc.lft.to/lastmile_qr_scan"}, "lon": -77.03444983333333, "type": "electric_scooter", "fusion_lat": 0.0, "lat": 38.91802416666667, "name": "54688bd831c103aee461b7ce07a34e31", "fusion_lon": 0.0, "bike_id": "54688bd831c103aee461b7ce07a34e31", "is_disabled": 0, "is_reserved": 0}, {"rental_uris": {"ios": "https://dc.lft.to/lastmile_qr_scan", "android": "https://dc.lft.to/lastmile_qr_scan"}, "lon": -77.040914, "type": "electric_scooter", "fusion_lat": 0.0, "lat": 38.917328833333336, "name": "d484c44ae82cf686ccaf878a28797b11", "fusion_lon": 0.0, "bike_id": "d484c44ae82cf686ccaf878a28797b11", "is_disabled": 0, "is_reserved": 0}, {"rental_uris": {"ios": "https://dc.lft.to/lastmile_qr_scan", "android": "https://dc.lft.to/lastmile_qr_scan"}, "lon": -77.13595633333334, "type": "electric_bike", "fusion_lat": 0.0, "lat": 39.053453, "name": "c150f9cd51bb783ded9fb80682fa29b0", "fusion_lon": 0.0, "bike_id": "c150f9cd51bb783ded9fb80682fa29b0", "is_disabled": 0, "is_reserved": 0}, {"rental_uris": {"ios": "https://dc.lft.to/lastmile_qr_scan", "android": "https://dc.lft.to/lastmile_qr_scan"}, "lon": -77.03339216666667, "type": "electric_scooter", "fusion_lat": 0.0, "lat": 38.919201666666666, "name": "886882d38973e89009cae114a2f2fb19", "fusion_lon": 0.0, "bike_id": "886882d38973e89009cae114a2f2fb19", "is_disabled": 0, "is_reserved": 0}, {"rental_uris": {"ios": "https://dc.lft.to/lastmile_qr_scan", "android": "https://dc.lft.to/lastmile_qr_scan"}, "lon": -77.01256733333334, "type": "electric_scooter", "fusion_lat": 0.0, "lat": 38.8996735, "name": "c4fdcedbf52b5942d51b25ed785aeeeb", "fusion_lon": 0.0, "bike_id": "c4fdcedbf52b5942d51b25ed785aeeeb", "is_disabled": 0, "is_reserved": 0}, {"rental_uris": {"ios": "https://dc.lft.to/lastmile_qr_scan", "android": "https://dc.lft.to/lastmile_qr_scan"}, "lon": -76.99000683333334, "type": "electric_scooter", "fusion_lat": 0.0, "lat": 38.86506466666667, "name": "091ba088b6f59450970aad43facbf406", "fusion_lon": 0.0, "bike_id": "091ba088b6f59450970aad43facbf406", "is_disabled": 0, "is_reserved": 0}, {"rental_uris": {"ios": "https://dc.lft.to/lastmile_qr_scan", "android": "https://dc.lft.to/lastmile_qr_scan"}, "lon": -77.0242045, "type": "electric_scooter", "fusion_lat": 0.0, "lat": 38.90580633333333, "name": "7ffc3480d38b91e5a40b26490a43b69a", "fusion_lon": 0.0, "bike_id": "7ffc3480d38b91e5a40b26490a43b69a", "is_disabled": 0, "is_reserved": 0}, {"rental_uris": {"ios": "https://dc.lft.to/lastmile_qr_scan", "android": "https://dc.lft.to/lastmile_qr_scan"}, "lon": -76.9977755, "type": "electric_scooter", "fusion_lat": 0.0, "lat": 38.844239, "name": "8dcb671aff11c66796430c28bdc5c175", "fusion_lon": 0.0, "bike_id": "8dcb671aff11c66796430c28bdc5c175", "is_disabled": 0, "is_reserved": 0}, {"rental_uris": {"ios": "https://dc.lft.to/lastmile_qr_scan", "android": "https://dc.lft.to/lastmile_qr_scan"}, "lon": -76.99948066666667, "type": "electric_bike", "fusion_lat": 0.0, "lat": 38.9234435, "name": "42b8d1ed9dd60ece618278036c1e155a", "fusion_lon": 0.0, "bike_id": "42b8d1ed9dd60ece618278036c1e155a", "is_disabled": 0, "is_reserved": 0}, {"rental_uris": {"ios": "https://dc.lft.to/lastmile_qr_scan", "android": "https://dc.lft.to/lastmile_qr_scan"}, "lon": -76.99759, "type": "electric_scooter", "fusion_lat": 0.0, "lat": 38.92197566666667, "name": "7f076e4f4360b3fa0441ae62b9a03a0e", "fusion_lon": 0.0, "bike_id": "7f076e4f4360b3fa0441ae62b9a03a0e", "is_disabled": 0, "is_reserved": 0}, {"rental_uris": {"ios": "https://dc.lft.to/lastmile_qr_scan", "android": "https://dc.lft.to/lastmile_qr_scan"}, "lon": -77.0661185, "type": "electric_scooter", "fusion_lat": 0.0, "lat": 38.905296, "name": "71426b4979c674219a4a09f13738c254", "fusion_lon": 0.0, "bike_id": "71426b4979c674219a4a09f13738c254", "is_disabled": 0, "is_reserved": 0}, {"rental_uris": {"ios": "https://dc.lft.to/lastmile_qr_scan", "android": "https://dc.lft.to/lastmile_qr_scan"}, "lon": -77.04985316666667, "type": "electric_scooter", "fusion_lat": 0.0, "lat": 38.89605533333334, "name": "27d8f79507b7a1340a1c2c0a96bcb13f", "fusion_lon": 0.0, "bike_id": "27d8f79507b7a1340a1c2c0a96bcb13f", "is_disabled": 0, "is_reserved": 0}, {"rental_uris": {"ios": "https://dc.lft.to/lastmile_qr_scan", "android": "https://dc.lft.to/lastmile_qr_scan"}, "lon": -77.06675266666667, "type": "electric_scooter", "fusion_lat": 0.0, "lat": 38.914032166666665, "name": "8f124dc7689d9384cf4c04300848e810", "fusion_lon": 0.0, "bike_id": "8f124dc7689d9384cf4c04300848e810", "is_disabled": 0, "is_reserved": 0}, {"rental_uris": {"ios": "https://dc.lft.to/lastmile_qr_scan", "android": "https://dc.lft.to/lastmile_qr_scan"}, "lon": -77.03693683333333, "type": "electric_scooter", "fusion_lat": 0.0, "lat": 38.92755666666667, "name": "34ae5c92156f1a55e3fe49ed99fac060", "fusion_lon": 0.0, "bike_id": "34ae5c92156f1a55e3fe49ed99fac060", "is_disabled": 0, "is_reserved": 0}, {"rental_uris": {"ios": "https://dc.lft.to/lastmile_qr_scan", "android": "https://dc.lft.to/lastmile_qr_scan"}, "lon": -77.01514516666667, "type": "electric_scooter", "fusion_lat": 0.0, "lat": 38.872738166666664, "name": "80b0163245510f331a2f3132e2d81f7a", "fusion_lon": 0.0, "bike_id": "80b0163245510f331a2f3132e2d81f7a", "is_disabled": 0, "is_reserved": 0}, {"rental_uris": {"ios": "https://dc.lft.to/lastmile_qr_scan", "android": "https://dc.lft.to/lastmile_qr_scan"}, "lon": -77.0331655, "type": "electric_scooter", "fusion_lat": 0.0, "lat": 38.92881666666667, "name": "b708d41c9fbd0ed01e1c4667d6abe78a", "fusion_lon": 0.0, "bike_id": "b708d41c9fbd0ed01e1c4667d6abe78a", "is_disabled": 0, "is_reserved": 0}, {"rental_uris": {"ios": "https://dc.lft.to/lastmile_qr_scan", "android": "https://dc.lft.to/lastmile_qr_scan"}, "lon": -77.024221, "type": "electric_scooter", "fusion_lat": 0.0, "lat": 38.89512933333334, "name": "85aa0a202c36c2cd18730f77cb25943b", "fusion_lon": 0.0, "bike_id": "85aa0a202c36c2cd18730f77cb25943b", "is_disabled": 0, "is_reserved": 0}, {"rental_uris": {"ios": "https://dc.lft.to/lastmile_qr_scan", "android": "https://dc.lft.to/lastmile_qr_scan"}, "lon": -76.93869716666667, "type": "electric_scooter", "fusion_lat": 0.0, "lat": 38.90083583333333, "name": "1b29442524f650f4b1feff6de7e99e0f", "fusion_lon": 0.0, "bike_id": "1b29442524f650f4b1feff6de7e99e0f", "is_disabled": 0, "is_reserved": 0}, {"rental_uris": {"ios": "https://dc.lft.to/lastmile_qr_scan", "android": "https://dc.lft.to/lastmile_qr_scan"}, "lon": -77.01224516666667, "type": "electric_scooter", "fusion_lat": 0.0, "lat": 38.900404, "name": "22875f7b753d31e6b761d89177367aa2", "fusion_lon": 0.0, "bike_id": "22875f7b753d31e6b761d89177367aa2", "is_disabled": 0, "is_reserved": 0}, {"rental_uris": {"ios": "https://dc.lft.to/lastmile_qr_scan", "android": "https://dc.lft.to/lastmile_qr_scan"}, "lon": -76.98656283333334, "type": "electric_scooter", "fusion_lat": 0.0, "lat": 38.858059, "name": "986903e0a74033b78884ee0af8ca6cfa", "fusion_lon": 0.0, "bike_id": "986903e0a74033b78884ee0af8ca6cfa", "is_disabled": 0, "is_reserved": 0}, {"rental_uris": {"ios": "https://dc.lft.to/lastmile_qr_scan", "android": "https://dc.lft.to/lastmile_qr_scan"}, "lon": -77.044958, "type": "electric_scooter", "fusion_lat": 0.0, "lat": 38.900086333333334, "name": "4a6ee07d8998841e2008c4fe496b5cf7", "fusion_lon": 0.0, "bike_id": "4a6ee07d8998841e2008c4fe496b5cf7", "is_disabled": 0, "is_reserved": 0}, {"rental_uris": {"ios": "https://dc.lft.to/lastmile_qr_scan", "android": "https://dc.lft.to/lastmile_qr_scan"}, "lon": -76.9967065, "type": "electric_scooter", "fusion_lat": 0.0, "lat": 38.910164, "name": "1ceb743c05da18b3e0739d9a7d472540", "fusion_lon": 0.0, "bike_id": "1ceb743c05da18b3e0739d9a7d472540", "is_disabled": 0, "is_reserved": 0}, {"rental_uris": {"ios": "https://dc.lft.to/lastmile_qr_scan", "android": "https://dc.lft.to/lastmile_qr_scan"}, "lon": -77.02811383333334, "type": "electric_scooter", "fusion_lat": 0.0, "lat": 38.88179483333333, "name": "c87deb2eabfbf5fd8224d7e5e9b5283a", "fusion_lon": 0.0, "bike_id": "c87deb2eabfbf5fd8224d7e5e9b5283a", "is_disabled": 0, "is_reserved": 0}, {"rental_uris": {"ios": "https://dc.lft.to/lastmile_qr_scan", "android": "https://dc.lft.to/lastmile_qr_scan"}, "lon": -77.02493183333333, "type": "electric_scooter", "fusion_lat": 0.0, "lat": 38.91808066666667, "name": "950ed992765c01fcd5aaea295add3d50", "fusion_lon": 0.0, "bike_id": "950ed992765c01fcd5aaea295add3d50", "is_disabled": 0, "is_reserved": 0}, {"rental_uris": {"ios": "https://dc.lft.to/lastmile_qr_scan", "android": "https://dc.lft.to/lastmile_qr_scan"}, "lon": -77.03342716666667, "type": "electric_scooter", "fusion_lat": 0.0, "lat": 38.92883666666667, "name": "80d2571d5860159a2348ca1d8c4d4604", "fusion_lon": 0.0, "bike_id": "80d2571d5860159a2348ca1d8c4d4604", "is_disabled": 0, "is_reserved": 0}, {"rental_uris": {"ios": "https://dc.lft.to/lastmile_qr_scan", "android": "https://dc.lft.to/lastmile_qr_scan"}, "lon": -76.99558166666667, "type": "electric_scooter", "fusion_lat": 0.0, "lat": 38.92880683333333, "name": "1f4a0de00a2a6818437da34d2efb92b4", "fusion_lon": 0.0, "bike_id": "1f4a0de00a2a6818437da34d2efb92b4", "is_disabled": 0, "is_reserved": 0}, {"rental_uris": {"ios": "https://dc.lft.to/lastmile_qr_scan", "android": "https://dc.lft.to/lastmile_qr_scan"}, "lon": -77.04413833333334, "type": "electric_scooter", "fusion_lat": 0.0, "lat": 38.91312633333333, "name": "f5fd293de0af29271c9f0aa48ea0b126", "fusion_lon": 0.0, "bike_id": "f5fd293de0af29271c9f0aa48ea0b126", "is_disabled": 0, "is_reserved": 0}, {"rental_uris": {"ios": "https://dc.lft.to/lastmile_qr_scan", "android": "https://dc.lft.to/lastmile_qr_scan"}, "lon": -77.040305, "type": "electric_scooter", "fusion_lat": 0.0, "lat": 38.923685166666665, "name": "95387960bfaea3a0e69f82f23d583aca", "fusion_lon": 0.0, "bike_id": "95387960bfaea3a0e69f82f23d583aca", "is_disabled": 0, "is_reserved": 0}, {"rental_uris": {"ios": "https://dc.lft.to/lastmile_qr_scan", "android": "https://dc.lft.to/lastmile_qr_scan"}, "lon": -77.03331, "type": "electric_scooter", "fusion_lat": 0.0, "lat": 38.89847233333333, "name": "39293f9181c10d0009279dad0923e6a6", "fusion_lon": 0.0, "bike_id": "39293f9181c10d0009279dad0923e6a6", "is_disabled": 0, "is_reserved": 0}, {"rental_uris": {"ios": "https://dc.lft.to/lastmile_qr_scan", "android": "https://dc.lft.to/lastmile_qr_scan"}, "lon": -77.040629, "type": "electric_scooter", "fusion_lat": 0.0, "lat": 38.92413233333333, "name": "41e064e9899935cec69a421ad3ab46e3", "fusion_lon": 0.0, "bike_id": "41e064e9899935cec69a421ad3ab46e3", "is_disabled": 0, "is_reserved": 0}, {"rental_uris": {"ios": "https://dc.lft.to/lastmile_qr_scan", "android": "https://dc.lft.to/lastmile_qr_scan"}, "lon": -77.01316033333333, "type": "electric_scooter", "fusion_lat": 0.0, "lat": 38.8973905, "name": "2183bb0d219bd1e28dc91f1615bc623b", "fusion_lon": 0.0, "bike_id": "2183bb0d219bd1e28dc91f1615bc623b", "is_disabled": 0, "is_reserved": 0}, {"rental_uris": {"ios": "https://dc.lft.to/lastmile_qr_scan", "android": "https://dc.lft.to/lastmile_qr_scan"}, "lon": -77.02322016666666, "type": "electric_scooter", "fusion_lat": 0.0, "lat": 38.893936833333335, "name": "04b14b7838f36f9ef83409111264650a", "fusion_lon": 0.0, "bike_id": "04b14b7838f36f9ef83409111264650a", "is_disabled": 0, "is_reserved": 0}, {"rental_uris": {"ios": "https://dc.lft.to/lastmile_qr_scan", "android": "https://dc.lft.to/lastmile_qr_scan"}, "lon": -77.02204233333333, "type": "electric_scooter", "fusion_lat": 0.0, "lat": 38.909730833333334, "name": "64aa3087ee83d2e6f283611810be5d8f", "fusion_lon": 0.0, "bike_id": "64aa3087ee83d2e6f283611810be5d8f", "is_disabled": 0, "is_reserved": 0}, {"rental_uris": {"ios": "https://dc.lft.to/lastmile_qr_scan", "android": "https://dc.lft.to/lastmile_qr_scan"}, "lon": -77.02679, "type": "electric_scooter", "fusion_lat": 0.0, "lat": 38.89518233333333, "name": "1e869fd7c4ee946c0464d514946bd837", "fusion_lon": 0.0, "bike_id": "1e869fd7c4ee946c0464d514946bd837", "is_disabled": 0, "is_reserved": 0}, {"rental_uris": {"ios": "https://dc.lft.to/lastmile_qr_scan", "android": "https://dc.lft.to/lastmile_qr_scan"}, "lon": -77.053839, "type": "electric_scooter", "fusion_lat": 0.0, "lat": 38.93538, "name": "9261d9d18ee7f8e11d006ec7d3129701", "fusion_lon": 0.0, "bike_id": "9261d9d18ee7f8e11d006ec7d3129701", "is_disabled": 0, "is_reserved": 0}, {"rental_uris": {"ios": "https://dc.lft.to/lastmile_qr_scan", "android": "https://dc.lft.to/lastmile_qr_scan"}, "lon": -77.0913725, "type": "electric_bike", "fusion_lat": 0.0, "lat": 38.8041855, "name": "9709349d0aea4b8c1b8a9bd35003eab9", "fusion_lon": 0.0, "bike_id": "9709349d0aea4b8c1b8a9bd35003eab9", "is_disabled": 0, "is_reserved": 0}, {"rental_uris": {"ios": "https://dc.lft.to/lastmile_qr_scan", "android": "https://dc.lft.to/lastmile_qr_scan"}, "lon": -76.95241966666667, "type": "electric_bike", "fusion_lat": 0.0, "lat": 38.90702983333333, "name": "f61cd10ce619f47c2f0e12dddf4ff30f", "fusion_lon": 0.0, "bike_id": "f61cd10ce619f47c2f0e12dddf4ff30f", "is_disabled": 0, "is_reserved": 0}, {"rental_uris": {"ios": "https://dc.lft.to/lastmile_qr_scan", "android": "https://dc.lft.to/lastmile_qr_scan"}, "lon": -76.98011816666667, "type": "electric_bike", "fusion_lat": 0.0, "lat": 38.90000666666667, "name": "216d300a34fe5153f5e36cc19a5c1bf4", "fusion_lon": 0.0, "bike_id": "216d300a34fe5153f5e36cc19a5c1bf4", "is_disabled": 0, "is_reserved": 0}, {"rental_uris": {"ios": "https://dc.lft.to/lastmile_qr_scan", "android": "https://dc.lft.to/lastmile_qr_scan"}, "lon": -77.05522583333334, "type": "electric_scooter", "fusion_lat": 0.0, "lat": 38.897294333333335, "name": "5d8ca635277c7d3d4f105af3353cda07", "fusion_lon": 0.0, "bike_id": "5d8ca635277c7d3d4f105af3353cda07", "is_disabled": 0, "is_reserved": 0}, {"rental_uris": {"ios": "https://dc.lft.to/lastmile_qr_scan", "android": "https://dc.lft.to/lastmile_qr_scan"}, "lon": -76.93242466666666, "type": "electric_scooter", "fusion_lat": 0.0, "lat": 38.894065, "name": "c296b5bd250157d6b9c3ca07ea155719", "fusion_lon": 0.0, "bike_id": "c296b5bd250157d6b9c3ca07ea155719", "is_disabled": 0, "is_reserved": 0}, {"rental_uris": {"ios": "https://dc.lft.to/lastmile_qr_scan", "android": "https://dc.lft.to/lastmile_qr_scan"}, "lon": -77.03166833333333, "type": "electric_scooter", "fusion_lat": 0.0, "lat": 38.89763116666666, "name": "f178d9716bb2b174f0b0249aa5c1e8d3", "fusion_lon": 0.0, "bike_id": "f178d9716bb2b174f0b0249aa5c1e8d3", "is_disabled": 0, "is_reserved": 0}, {"rental_uris": {"ios": "https://dc.lft.to/lastmile_qr_scan", "android": "https://dc.lft.to/lastmile_qr_scan"}, "lon": -77.04824, "type": "electric_scooter", "fusion_lat": 0.0, "lat": 38.907969333333334, "name": "22a453ec730c7b26e9378985b43d7fc2", "fusion_lon": 0.0, "bike_id": "22a453ec730c7b26e9378985b43d7fc2", "is_disabled": 0, "is_reserved": 0}, {"rental_uris": {"ios": "https://dc.lft.to/lastmile_qr_scan", "android": "https://dc.lft.to/lastmile_qr_scan"}, "lon": -77.04646516666666, "type": "electric_scooter", "fusion_lat": 0.0, "lat": 38.906678, "name": "53304a991be7cd891448d939a30b9d5e", "fusion_lon": 0.0, "bike_id": "53304a991be7cd891448d939a30b9d5e", "is_disabled": 0, "is_reserved": 0}, {"rental_uris": {"ios": "https://dc.lft.to/lastmile_qr_scan", "android": "https://dc.lft.to/lastmile_qr_scan"}, "lon": -77.04644383333333, "type": "electric_bike", "fusion_lat": 0.0, "lat": 38.8521205, "name": "553e8fdb21e4b27c335ca53e7c0cca7e", "fusion_lon": 0.0, "bike_id": "553e8fdb21e4b27c335ca53e7c0cca7e", "is_disabled": 0, "is_reserved": 0}, {"rental_uris": {"ios": "https://dc.lft.to/lastmile_qr_scan", "android": "https://dc.lft.to/lastmile_qr_scan"}, "lon": -77.05523183333334, "type": "electric_scooter", "fusion_lat": 0.0, "lat": 38.89727766666667, "name": "48aa0ba2883284ae221c49958ec6be96", "fusion_lon": 0.0, "bike_id": "48aa0ba2883284ae221c49958ec6be96", "is_disabled": 0, "is_reserved": 0}, {"rental_uris": {"ios": "https://dc.lft.to/lastmile_qr_scan", "android": "https://dc.lft.to/lastmile_qr_scan"}, "lon": -77.0585905, "type": "electric_scooter", "fusion_lat": 0.0, "lat": 38.936094833333335, "name": "bdcbc125363a7cb17b14c759d7d2a2cf", "fusion_lon": 0.0, "bike_id": "bdcbc125363a7cb17b14c759d7d2a2cf", "is_disabled": 0, "is_reserved": 0}, {"rental_uris": {"ios": "https://dc.lft.to/lastmile_qr_scan", "android": "https://dc.lft.to/lastmile_qr_scan"}, "lon": -77.03073566666667, "type": "electric_scooter", "fusion_lat": 0.0, "lat": 38.89963516666667, "name": "6822bfb7faa7f53596876203ec930b8f", "fusion_lon": 0.0, "bike_id": "6822bfb7faa7f53596876203ec930b8f", "is_disabled": 0, "is_reserved": 0}, {"rental_uris": {"ios": "https://dc.lft.to/lastmile_qr_scan", "android": "https://dc.lft.to/lastmile_qr_scan"}, "lon": -76.99063766666667, "type": "electric_scooter", "fusion_lat": 0.0, "lat": 38.8635205, "name": "5b764d8f5b0c8e3cd7408409ad7c0907", "fusion_lon": 0.0, "bike_id": "5b764d8f5b0c8e3cd7408409ad7c0907", "is_disabled": 0, "is_reserved": 0}, {"rental_uris": {"ios": "https://dc.lft.to/lastmile_qr_scan", "android": "https://dc.lft.to/lastmile_qr_scan"}, "lon": -77.02450983333334, "type": "electric_scooter", "fusion_lat": 0.0, "lat": 38.91841633333333, "name": "9636bd1f8520a2e72f8c1eabed045ec8", "fusion_lon": 0.0, "bike_id": "9636bd1f8520a2e72f8c1eabed045ec8", "is_disabled": 0, "is_reserved": 0}, {"rental_uris": {"ios": "https://dc.lft.to/lastmile_qr_scan", "android": "https://dc.lft.to/lastmile_qr_scan"}, "lon": -77.04675316666666, "type": "electric_scooter", "fusion_lat": 0.0, "lat": 38.905189, "name": "2c84810dfde817e56585b377ec81993e", "fusion_lon": 0.0, "bike_id": "2c84810dfde817e56585b377ec81993e", "is_disabled": 0, "is_reserved": 0}, {"rental_uris": {"ios": "https://dc.lft.to/lastmile_qr_scan", "android": "https://dc.lft.to/lastmile_qr_scan"}, "lon": -77.01283083333334, "type": "electric_bike", "fusion_lat": 0.0, "lat": 39.00378633333333, "name": "cd744552e285f71d22894d0a28ca61ad", "fusion_lon": 0.0, "bike_id": "cd744552e285f71d22894d0a28ca61ad", "is_disabled": 0, "is_reserved": 0}, {"rental_uris": {"ios": "https://dc.lft.to/lastmile_qr_scan", "android": "https://dc.lft.to/lastmile_qr_scan"}, "lon": -77.03871966666667, "type": "electric_scooter", "fusion_lat": 0.0, "lat": 38.9040265, "name": "4d83c7073bc6c4b19ff26031a63f2c07", "fusion_lon": 0.0, "bike_id": "4d83c7073bc6c4b19ff26031a63f2c07", "is_disabled": 0, "is_reserved": 0}, {"rental_uris": {"ios": "https://dc.lft.to/lastmile_qr_scan", "android": "https://dc.lft.to/lastmile_qr_scan"}, "lon": -77.00137183333334, "type": "electric_bike", "fusion_lat": 0.0, "lat": 38.958726666666664, "name": "5bca7963bfbc8f9f3d1f4bc4426e349f", "fusion_lon": 0.0, "bike_id": "5bca7963bfbc8f9f3d1f4bc4426e349f", "is_disabled": 0, "is_reserved": 0}, {"rental_uris": {"ios": "https://dc.lft.to/lastmile_qr_scan", "android": "https://dc.lft.to/lastmile_qr_scan"}, "lon": -77.01507266666667, "type": "electric_scooter", "fusion_lat": 0.0, "lat": 38.87213216666667, "name": "c2bc9c97ecc1da748f42ac23c54ae58f", "fusion_lon": 0.0, "bike_id": "c2bc9c97ecc1da748f42ac23c54ae58f", "is_disabled": 0, "is_reserved": 0}, {"rental_uris": {"ios": "https://dc.lft.to/lastmile_qr_scan", "android": "https://dc.lft.to/lastmile_qr_scan"}, "lon": -77.02613783333334, "type": "electric_scooter", "fusion_lat": 0.0, "lat": 38.9171605, "name": "b65b469036fae957a27aa996435d743b", "fusion_lon": 0.0, "bike_id": "b65b469036fae957a27aa996435d743b", "is_disabled": 0, "is_reserved": 0}, {"rental_uris": {"ios": "https://dc.lft.to/lastmile_qr_scan", "android": "https://dc.lft.to/lastmile_qr_scan"}, "lon": -77.00196916666667, "type": "electric_scooter", "fusion_lat": 0.0, "lat": 38.8999085, "name": "724107f00b3597f12ea770aaf4b49358", "fusion_lon": 0.0, "bike_id": "724107f00b3597f12ea770aaf4b49358", "is_disabled": 0, "is_reserved": 0}, {"rental_uris": {"ios": "https://dc.lft.to/lastmile_qr_scan", "android": "https://dc.lft.to/lastmile_qr_scan"}, "lon": -77.03203933333333, "type": "electric_scooter", "fusion_lat": 0.0, "lat": 38.893508833333335, "name": "06063ce6bd8620985975a581876356e7", "fusion_lon": 0.0, "bike_id": "06063ce6bd8620985975a581876356e7", "is_disabled": 0, "is_reserved": 0}, {"rental_uris": {"ios": "https://dc.lft.to/lastmile_qr_scan", "android": "https://dc.lft.to/lastmile_qr_scan"}, "lon": -77.01434316666666, "type": "electric_scooter", "fusion_lat": 0.0, "lat": 38.92989933333333, "name": "c56dcfb07fbd69e942c1b1da5a8da93f", "fusion_lon": 0.0, "bike_id": "c56dcfb07fbd69e942c1b1da5a8da93f", "is_disabled": 0, "is_reserved": 0}, {"rental_uris": {"ios": "https://dc.lft.to/lastmile_qr_scan", "android": "https://dc.lft.to/lastmile_qr_scan"}, "lon": -77.067552, "type": "electric_scooter", "fusion_lat": 0.0, "lat": 38.903652, "name": "3d597c222cedf37b50bd4a9c394a1bcc", "fusion_lon": 0.0, "bike_id": "3d597c222cedf37b50bd4a9c394a1bcc", "is_disabled": 0, "is_reserved": 0}, {"rental_uris": {"ios": "https://dc.lft.to/lastmile_qr_scan", "android": "https://dc.lft.to/lastmile_qr_scan"}, "lon": -77.0220035, "type": "electric_scooter", "fusion_lat": 0.0, "lat": 38.894852, "name": "ded3e58d03de3c2927252fcd18e8e913", "fusion_lon": 0.0, "bike_id": "ded3e58d03de3c2927252fcd18e8e913", "is_disabled": 0, "is_reserved": 0}, {"rental_uris": {"ios": "https://dc.lft.to/lastmile_qr_scan", "android": "https://dc.lft.to/lastmile_qr_scan"}, "lon": -76.94890883333333, "type": "electric_scooter", "fusion_lat": 0.0, "lat": 38.8952915, "name": "d7ab4872709f8cfdc25a71878b02474f", "fusion_lon": 0.0, "bike_id": "d7ab4872709f8cfdc25a71878b02474f", "is_disabled": 0, "is_reserved": 0}, {"rental_uris": {"ios": "https://dc.lft.to/lastmile_qr_scan", "android": "https://dc.lft.to/lastmile_qr_scan"}, "lon": -76.985722, "type": "electric_scooter", "fusion_lat": 0.0, "lat": 38.85584766666667, "name": "e5c78def0569e084ebf1d700d39ec9f8", "fusion_lon": 0.0, "bike_id": "e5c78def0569e084ebf1d700d39ec9f8", "is_disabled": 0, "is_reserved": 0}, {"rental_uris": {"ios": "https://dc.lft.to/lastmile_qr_scan", "android": "https://dc.lft.to/lastmile_qr_scan"}, "lon": -77.05500083333334, "type": "electric_scooter", "fusion_lat": 0.0, "lat": 38.9297335, "name": "84beff3fd1bf17c91108d1f050d45d65", "fusion_lon": 0.0, "bike_id": "84beff3fd1bf17c91108d1f050d45d65", "is_disabled": 0, "is_reserved": 0}, {"rental_uris": {"ios": "https://dc.lft.to/lastmile_qr_scan", "android": "https://dc.lft.to/lastmile_qr_scan"}, "lon": -77.07066316666666, "type": "electric_scooter", "fusion_lat": 0.0, "lat": 38.952181, "name": "0b5a716add06c685a822f087e6f9e16c", "fusion_lon": 0.0, "bike_id": "0b5a716add06c685a822f087e6f9e16c", "is_disabled": 0, "is_reserved": 0}, {"rental_uris": {"ios": "https://dc.lft.to/lastmile_qr_scan", "android": "https://dc.lft.to/lastmile_qr_scan"}, "lon": -77.007394, "type": "electric_scooter", "fusion_lat": 0.0, "lat": 38.90351716666667, "name": "c687710c05b072bdd57e219b62475134", "fusion_lon": 0.0, "bike_id": "c687710c05b072bdd57e219b62475134", "is_disabled": 0, "is_reserved": 0}, {"rental_uris": {"ios": "https://dc.lft.to/lastmile_qr_scan", "android": "https://dc.lft.to/lastmile_qr_scan"}, "lon": -77.02034783333333, "type": "electric_scooter", "fusion_lat": 0.0, "lat": 38.92412266666667, "name": "bc5a55a5b567e1554162ec0029dd2568", "fusion_lon": 0.0, "bike_id": "bc5a55a5b567e1554162ec0029dd2568", "is_disabled": 0, "is_reserved": 0}, {"rental_uris": {"ios": "https://dc.lft.to/lastmile_qr_scan", "android": "https://dc.lft.to/lastmile_qr_scan"}, "lon": -77.04490316666667, "type": "electric_scooter", "fusion_lat": 0.0, "lat": 38.91956483333333, "name": "fd770c5f76e899ee2e382386c834a050", "fusion_lon": 0.0, "bike_id": "fd770c5f76e899ee2e382386c834a050", "is_disabled": 0, "is_reserved": 0}, {"rental_uris": {"ios": "https://dc.lft.to/lastmile_qr_scan", "android": "https://dc.lft.to/lastmile_qr_scan"}, "lon": -77.041919, "type": "electric_scooter", "fusion_lat": 0.0, "lat": 38.903310166666664, "name": "992c8b7b06a7272244fc125675d92403", "fusion_lon": 0.0, "bike_id": "992c8b7b06a7272244fc125675d92403", "is_disabled": 0, "is_reserved": 0}, {"rental_uris": {"ios": "https://dc.lft.to/lastmile_qr_scan", "android": "https://dc.lft.to/lastmile_qr_scan"}, "lon": -77.02728966666666, "type": "electric_scooter", "fusion_lat": 0.0, "lat": 38.9273065, "name": "67bbc85ff704080d28260cbb91dabb04", "fusion_lon": 0.0, "bike_id": "67bbc85ff704080d28260cbb91dabb04", "is_disabled": 0, "is_reserved": 0}, {"rental_uris": {"ios": "https://dc.lft.to/lastmile_qr_scan", "android": "https://dc.lft.to/lastmile_qr_scan"}, "lon": -77.02843666666666, "type": "electric_scooter", "fusion_lat": 0.0, "lat": 38.89633516666667, "name": "7988252c7ec5efd004dd1bf085473066", "fusion_lon": 0.0, "bike_id": "7988252c7ec5efd004dd1bf085473066", "is_disabled": 0, "is_reserved": 0}, {"rental_uris": {"ios": "https://dc.lft.to/lastmile_qr_scan", "android": "https://dc.lft.to/lastmile_qr_scan"}, "lon": -77.04717316666667, "type": "electric_scooter", "fusion_lat": 0.0, "lat": 38.92237933333333, "name": "05375afc5f305daaba945d26a210e0c3", "fusion_lon": 0.0, "bike_id": "05375afc5f305daaba945d26a210e0c3", "is_disabled": 0, "is_reserved": 0}, {"rental_uris": {"ios": "https://dc.lft.to/lastmile_qr_scan", "android": "https://dc.lft.to/lastmile_qr_scan"}, "lon": -76.989981, "type": "electric_scooter", "fusion_lat": 0.0, "lat": 38.865058166666664, "name": "55da626e471f1b250d87dc184e35d0cc", "fusion_lon": 0.0, "bike_id": "55da626e471f1b250d87dc184e35d0cc", "is_disabled": 0, "is_reserved": 0}, {"rental_uris": {"ios": "https://dc.lft.to/lastmile_qr_scan", "android": "https://dc.lft.to/lastmile_qr_scan"}, "lon": -77.01947133333333, "type": "electric_scooter", "fusion_lat": 0.0, "lat": 38.92419733333333, "name": "56a73377cd15bc66b9b6db23071a5e8d", "fusion_lon": 0.0, "bike_id": "56a73377cd15bc66b9b6db23071a5e8d", "is_disabled": 0, "is_reserved": 0}, {"rental_uris": {"ios": "https://dc.lft.to/lastmile_qr_scan", "android": "https://dc.lft.to/lastmile_qr_scan"}, "lon": -77.00864566666667, "type": "electric_bike", "fusion_lat": 0.0, "lat": 38.82730633333333, "name": "129d351d3527766f48daf3489cd73c1a", "fusion_lon": 0.0, "bike_id": "129d351d3527766f48daf3489cd73c1a", "is_disabled": 0, "is_reserved": 0}, {"rental_uris": {"ios": "https://dc.lft.to/lastmile_qr_scan", "android": "https://dc.lft.to/lastmile_qr_scan"}, "lon": -77.03366233333334, "type": "electric_scooter", "fusion_lat": 0.0, "lat": 38.887476, "name": "21014ce298df84505047a3975191e219", "fusion_lon": 0.0, "bike_id": "21014ce298df84505047a3975191e219", "is_disabled": 0, "is_reserved": 0}, {"rental_uris": {"ios": "https://dc.lft.to/lastmile_qr_scan", "android": "https://dc.lft.to/lastmile_qr_scan"}, "lon": -77.03840933333333, "type": "electric_scooter", "fusion_lat": 0.0, "lat": 38.915677, "name": "b085fcbbdc460dbaf4916828e86f3dfb", "fusion_lon": 0.0, "bike_id": "b085fcbbdc460dbaf4916828e86f3dfb", "is_disabled": 0, "is_reserved": 0}, {"rental_uris": {"ios": "https://dc.lft.to/lastmile_qr_scan", "android": "https://dc.lft.to/lastmile_qr_scan"}, "lon": -77.07279916666667, "type": "electric_scooter", "fusion_lat": 0.0, "lat": 38.9606725, "name": "47b394c884722d1d9ef6ccb439c66a9b", "fusion_lon": 0.0, "bike_id": "47b394c884722d1d9ef6ccb439c66a9b", "is_disabled": 0, "is_reserved": 0}, {"rental_uris": {"ios": "https://dc.lft.to/lastmile_qr_scan", "android": "https://dc.lft.to/lastmile_qr_scan"}, "lon": -77.01997233333333, "type": "electric_scooter", "fusion_lat": 0.0, "lat": 38.877490333333334, "name": "c1d648365c30d9ae11971c44cdc75bea", "fusion_lon": 0.0, "bike_id": "c1d648365c30d9ae11971c44cdc75bea", "is_disabled": 0, "is_reserved": 0}, {"rental_uris": {"ios": "https://dc.lft.to/lastmile_qr_scan", "android": "https://dc.lft.to/lastmile_qr_scan"}, "lon": -77.0340375, "type": "electric_scooter", "fusion_lat": 0.0, "lat": 38.906250166666666, "name": "ab5eecbfe3cb2d252fff72613fd2148f", "fusion_lon": 0.0, "bike_id": "ab5eecbfe3cb2d252fff72613fd2148f", "is_disabled": 0, "is_reserved": 0}, {"rental_uris": {"ios": "https://dc.lft.to/lastmile_qr_scan", "android": "https://dc.lft.to/lastmile_qr_scan"}, "lon": -77.01074516666667, "type": "electric_bike", "fusion_lat": 0.0, "lat": 38.9565375, "name": "38bf5227b22906da291ecb56cb160ffc", "fusion_lon": 0.0, "bike_id": "38bf5227b22906da291ecb56cb160ffc", "is_disabled": 0, "is_reserved": 0}, {"rental_uris": {"ios": "https://dc.lft.to/lastmile_qr_scan", "android": "https://dc.lft.to/lastmile_qr_scan"}, "lon": -76.998483, "type": "electric_scooter", "fusion_lat": 0.0, "lat": 38.89491533333333, "name": "919a577ddb9df767454b7ca3b2aa441d", "fusion_lon": 0.0, "bike_id": "919a577ddb9df767454b7ca3b2aa441d", "is_disabled": 0, "is_reserved": 0}, {"rental_uris": {"ios": "https://dc.lft.to/lastmile_qr_scan", "android": "https://dc.lft.to/lastmile_qr_scan"}, "lon": -77.03067216666666, "type": "electric_scooter", "fusion_lat": 0.0, "lat": 38.90567183333334, "name": "abaf72235da8705b9820700acee0111c", "fusion_lon": 0.0, "bike_id": "abaf72235da8705b9820700acee0111c", "is_disabled": 0, "is_reserved": 0}, {"rental_uris": {"ios": "https://dc.lft.to/lastmile_qr_scan", "android": "https://dc.lft.to/lastmile_qr_scan"}, "lon": -77.04459983333334, "type": "electric_scooter", "fusion_lat": 0.0, "lat": 38.9096045, "name": "c4763db64925cc217fc6a3c46e7726b3", "fusion_lon": 0.0, "bike_id": "c4763db64925cc217fc6a3c46e7726b3", "is_disabled": 0, "is_reserved": 0}, {"rental_uris": {"ios": "https://dc.lft.to/lastmile_qr_scan", "android": "https://dc.lft.to/lastmile_qr_scan"}, "lon": -77.0445705, "type": "electric_scooter", "fusion_lat": 0.0, "lat": 38.919592, "name": "f8fbafcdd30ceac56ff819006f075e67", "fusion_lon": 0.0, "bike_id": "f8fbafcdd30ceac56ff819006f075e67", "is_disabled": 0, "is_reserved": 0}, {"rental_uris": {"ios": "https://dc.lft.to/lastmile_qr_scan", "android": "https://dc.lft.to/lastmile_qr_scan"}, "lon": -77.0378975, "type": "electric_scooter", "fusion_lat": 0.0, "lat": 38.9262765, "name": "fb34c6c2fb962c73420122f9de4806b5", "fusion_lon": 0.0, "bike_id": "fb34c6c2fb962c73420122f9de4806b5", "is_disabled": 0, "is_reserved": 0}, {"rental_uris": {"ios": "https://dc.lft.to/lastmile_qr_scan", "android": "https://dc.lft.to/lastmile_qr_scan"}, "lon": -77.03200366666667, "type": "electric_scooter", "fusion_lat": 0.0, "lat": 38.912986, "name": "489a2e1aee70611e1e99f544ef24ffc6", "fusion_lon": 0.0, "bike_id": "489a2e1aee70611e1e99f544ef24ffc6", "is_disabled": 0, "is_reserved": 0}, {"rental_uris": {"ios": "https://dc.lft.to/lastmile_qr_scan", "android": "https://dc.lft.to/lastmile_qr_scan"}, "lon": -77.05560883333334, "type": "electric_scooter", "fusion_lat": 0.0, "lat": 38.930411, "name": "d742c46670c26d4e1c7a87dcc278e81b", "fusion_lon": 0.0, "bike_id": "d742c46670c26d4e1c7a87dcc278e81b", "is_disabled": 0, "is_reserved": 0}, {"rental_uris": {"ios": "https://dc.lft.to/lastmile_qr_scan", "android": "https://dc.lft.to/lastmile_qr_scan"}, "lon": -77.027986, "type": "electric_scooter", "fusion_lat": 0.0, "lat": 38.92319616666666, "name": "71e02e4ce825cd950428ac9714e37c26", "fusion_lon": 0.0, "bike_id": "71e02e4ce825cd950428ac9714e37c26", "is_disabled": 0, "is_reserved": 0}, {"rental_uris": {"ios": "https://dc.lft.to/lastmile_qr_scan", "android": "https://dc.lft.to/lastmile_qr_scan"}, "lon": -76.98802483333333, "type": "electric_bike", "fusion_lat": 0.0, "lat": 38.86370933333333, "name": "fb24524c5f58adad7dcad9caefb1f86a", "fusion_lon": 0.0, "bike_id": "fb24524c5f58adad7dcad9caefb1f86a", "is_disabled": 0, "is_reserved": 0}, {"rental_uris": {"ios": "https://dc.lft.to/lastmile_qr_scan", "android": "https://dc.lft.to/lastmile_qr_scan"}, "lon": -77.00264, "type": "electric_scooter", "fusion_lat": 0.0, "lat": 38.89898183333333, "name": "74b88b77dc08db33348a6e52b8c65536", "fusion_lon": 0.0, "bike_id": "74b88b77dc08db33348a6e52b8c65536", "is_disabled": 0, "is_reserved": 0}, {"rental_uris": {"ios": "https://dc.lft.to/lastmile_qr_scan", "android": "https://dc.lft.to/lastmile_qr_scan"}, "lon": -77.029712, "type": "electric_scooter", "fusion_lat": 0.0, "lat": 38.923345833333336, "name": "1c57b7e2e1d30655b7f1a30147273c73", "fusion_lon": 0.0, "bike_id": "1c57b7e2e1d30655b7f1a30147273c73", "is_disabled": 0, "is_reserved": 0}, {"rental_uris": {"ios": "https://dc.lft.to/lastmile_qr_scan", "android": "https://dc.lft.to/lastmile_qr_scan"}, "lon": -77.04672683333334, "type": "electric_scooter", "fusion_lat": 0.0, "lat": 38.920568833333334, "name": "b9e2f7d90f268f13229227151a1ac931", "fusion_lon": 0.0, "bike_id": "b9e2f7d90f268f13229227151a1ac931", "is_disabled": 0, "is_reserved": 0}, {"rental_uris": {"ios": "https://dc.lft.to/lastmile_qr_scan", "android": "https://dc.lft.to/lastmile_qr_scan"}, "lon": -77.0059165, "type": "electric_scooter", "fusion_lat": 0.0, "lat": 38.91566666666667, "name": "b64f12356ef4c1287c407507ab578fe4", "fusion_lon": 0.0, "bike_id": "b64f12356ef4c1287c407507ab578fe4", "is_disabled": 0, "is_reserved": 0}, {"rental_uris": {"ios": "https://dc.lft.to/lastmile_qr_scan", "android": "https://dc.lft.to/lastmile_qr_scan"}, "lon": -77.02343816666666, "type": "electric_scooter", "fusion_lat": 0.0, "lat": 38.9620755, "name": "917f9bb2e6dbde6fc0147a9633e01b22", "fusion_lon": 0.0, "bike_id": "917f9bb2e6dbde6fc0147a9633e01b22", "is_disabled": 0, "is_reserved": 0}, {"rental_uris": {"ios": "https://dc.lft.to/lastmile_qr_scan", "android": "https://dc.lft.to/lastmile_qr_scan"}, "lon": -77.04154283333334, "type": "electric_scooter", "fusion_lat": 0.0, "lat": 38.91918916666667, "name": "34acf42cbb948b55f9ba55da77560c07", "fusion_lon": 0.0, "bike_id": "34acf42cbb948b55f9ba55da77560c07", "is_disabled": 0, "is_reserved": 0}, {"rental_uris": {"ios": "https://dc.lft.to/lastmile_qr_scan", "android": "https://dc.lft.to/lastmile_qr_scan"}, "lon": -77.04169333333333, "type": "electric_scooter", "fusion_lat": 0.0, "lat": 38.915322, "name": "7a43e27d2d0652ed1e29e8372752e112", "fusion_lon": 0.0, "bike_id": "7a43e27d2d0652ed1e29e8372752e112", "is_disabled": 0, "is_reserved": 0}, {"rental_uris": {"ios": "https://dc.lft.to/lastmile_qr_scan", "android": "https://dc.lft.to/lastmile_qr_scan"}, "lon": -77.12503416666667, "type": "electric_bike", "fusion_lat": 0.0, "lat": 39.0241765, "name": "d81d05f0a636653fc01a65e4e81d1fea", "fusion_lon": 0.0, "bike_id": "d81d05f0a636653fc01a65e4e81d1fea", "is_disabled": 0, "is_reserved": 0}, {"rental_uris": {"ios": "https://dc.lft.to/lastmile_qr_scan", "android": "https://dc.lft.to/lastmile_qr_scan"}, "lon": -77.036355, "type": "electric_scooter", "fusion_lat": 0.0, "lat": 38.932768333333335, "name": "90ad3189551b8368f81fb0bbc8251163", "fusion_lon": 0.0, "bike_id": "90ad3189551b8368f81fb0bbc8251163", "is_disabled": 0, "is_reserved": 0}, {"rental_uris": {"ios": "https://dc.lft.to/lastmile_qr_scan", "android": "https://dc.lft.to/lastmile_qr_scan"}, "lon": -77.12899733333333, "type": "electric_bike", "fusion_lat": 0.0, "lat": 38.86376833333333, "name": "ec7c00f565a17aba34b98281fd9b094f", "fusion_lon": 0.0, "bike_id": "ec7c00f565a17aba34b98281fd9b094f", "is_disabled": 0, "is_reserved": 0}, {"rental_uris": {"ios": "https://dc.lft.to/lastmile_qr_scan", "android": "https://dc.lft.to/lastmile_qr_scan"}, "lon": -76.989054, "type": "electric_scooter", "fusion_lat": 0.0, "lat": 38.900117333333334, "name": "5046e15ac5c014f492a1ff32f21af8b1", "fusion_lon": 0.0, "bike_id": "5046e15ac5c014f492a1ff32f21af8b1", "is_disabled": 0, "is_reserved": 0}, {"rental_uris": {"ios": "https://dc.lft.to/lastmile_qr_scan", "android": "https://dc.lft.to/lastmile_qr_scan"}, "lon": -77.02390683333333, "type": "electric_scooter", "fusion_lat": 0.0, "lat": 38.9159315, "name": "3aa55f33d5dcf91cb2f129107de03ac2", "fusion_lon": 0.0, "bike_id": "3aa55f33d5dcf91cb2f129107de03ac2", "is_disabled": 0, "is_reserved": 0}, {"rental_uris": {"ios": "https://dc.lft.to/lastmile_qr_scan", "android": "https://dc.lft.to/lastmile_qr_scan"}, "lon": -76.99797866666667, "type": "electric_scooter", "fusion_lat": 0.0, "lat": 38.90857916666667, "name": "741a27171969a0aae66153e39399a657", "fusion_lon": 0.0, "bike_id": "741a27171969a0aae66153e39399a657", "is_disabled": 0, "is_reserved": 0}, {"rental_uris": {"ios": "https://dc.lft.to/lastmile_qr_scan", "android": "https://dc.lft.to/lastmile_qr_scan"}, "lon": -77.03792333333334, "type": "electric_scooter", "fusion_lat": 0.0, "lat": 38.905525833333336, "name": "47a8fad58a3ca73021fd36302a8fbe9f", "fusion_lon": 0.0, "bike_id": "47a8fad58a3ca73021fd36302a8fbe9f", "is_disabled": 0, "is_reserved": 0}, {"rental_uris": {"ios": "https://dc.lft.to/lastmile_qr_scan", "android": "https://dc.lft.to/lastmile_qr_scan"}, "lon": -77.00195333333333, "type": "electric_bike", "fusion_lat": 0.0, "lat": 38.917507666666666, "name": "fbefcc8367108dcd3eb29f51c7e332dc", "fusion_lon": 0.0, "bike_id": "fbefcc8367108dcd3eb29f51c7e332dc", "is_disabled": 0, "is_reserved": 0}, {"rental_uris": {"ios": "https://dc.lft.to/lastmile_qr_scan", "android": "https://dc.lft.to/lastmile_qr_scan"}, "lon": -77.0320505, "type": "electric_scooter", "fusion_lat": 0.0, "lat": 38.92469633333333, "name": "9241abbfaa4e48b71c0fbf94654de012", "fusion_lon": 0.0, "bike_id": "9241abbfaa4e48b71c0fbf94654de012", "is_disabled": 0, "is_reserved": 0}, {"rental_uris": {"ios": "https://dc.lft.to/lastmile_qr_scan", "android": "https://dc.lft.to/lastmile_qr_scan"}, "lon": -77.0321775, "type": "electric_scooter", "fusion_lat": 0.0, "lat": 38.91135583333333, "name": "4ad225a57680ead1d89149e530a92ba7", "fusion_lon": 0.0, "bike_id": "4ad225a57680ead1d89149e530a92ba7", "is_disabled": 0, "is_reserved": 0}, {"rental_uris": {"ios": "https://dc.lft.to/lastmile_qr_scan", "android": "https://dc.lft.to/lastmile_qr_scan"}, "lon": -77.02459183333333, "type": "electric_scooter", "fusion_lat": 0.0, "lat": 38.936311, "name": "d451ef61cb59f7e9d0ab8dd98b9c0846", "fusion_lon": 0.0, "bike_id": "d451ef61cb59f7e9d0ab8dd98b9c0846", "is_disabled": 0, "is_reserved": 0}, {"rental_uris": {"ios": "https://dc.lft.to/lastmile_qr_scan", "android": "https://dc.lft.to/lastmile_qr_scan"}, "lon": -77.0177945, "type": "electric_scooter", "fusion_lat": 0.0, "lat": 38.90399016666667, "name": "60b3a53346b56987336bc7619ca21585", "fusion_lon": 0.0, "bike_id": "60b3a53346b56987336bc7619ca21585", "is_disabled": 0, "is_reserved": 0}, {"rental_uris": {"ios": "https://dc.lft.to/lastmile_qr_scan", "android": "https://dc.lft.to/lastmile_qr_scan"}, "lon": -77.05300783333334, "type": "electric_scooter", "fusion_lat": 0.0, "lat": 38.9278725, "name": "40952df76c1ebe70eaa8159f3d56c0ec", "fusion_lon": 0.0, "bike_id": "40952df76c1ebe70eaa8159f3d56c0ec", "is_disabled": 0, "is_reserved": 0}, {"rental_uris": {"ios": "https://dc.lft.to/lastmile_qr_scan", "android": "https://dc.lft.to/lastmile_qr_scan"}, "lon": -77.02952783333333, "type": "electric_scooter", "fusion_lat": 0.0, "lat": 38.915868, "name": "ff56f36a2895b9ace5019db837def102", "fusion_lon": 0.0, "bike_id": "ff56f36a2895b9ace5019db837def102", "is_disabled": 0, "is_reserved": 0}, {"rental_uris": {"ios": "https://dc.lft.to/lastmile_qr_scan", "android": "https://dc.lft.to/lastmile_qr_scan"}, "lon": -77.03175683333333, "type": "electric_scooter", "fusion_lat": 0.0, "lat": 38.913233166666664, "name": "6c55486a55325e66955b1b5f1b38c529", "fusion_lon": 0.0, "bike_id": "6c55486a55325e66955b1b5f1b38c529", "is_disabled": 0, "is_reserved": 0}, {"rental_uris": {"ios": "https://dc.lft.to/lastmile_qr_scan", "android": "https://dc.lft.to/lastmile_qr_scan"}, "lon": -77.04870316666667, "type": "electric_scooter", "fusion_lat": 0.0, "lat": 38.903751, "name": "a73b53d207dca86518c8444c0c757511", "fusion_lon": 0.0, "bike_id": "a73b53d207dca86518c8444c0c757511", "is_disabled": 0, "is_reserved": 0}, {"rental_uris": {"ios": "https://dc.lft.to/lastmile_qr_scan", "android": "https://dc.lft.to/lastmile_qr_scan"}, "lon": -77.04725366666666, "type": "electric_scooter", "fusion_lat": 0.0, "lat": 38.902145833333336, "name": "19d4a3e815ffcf86640eb55ee182b56b", "fusion_lon": 0.0, "bike_id": "19d4a3e815ffcf86640eb55ee182b56b", "is_disabled": 0, "is_reserved": 0}, {"rental_uris": {"ios": "https://dc.lft.to/lastmile_qr_scan", "android": "https://dc.lft.to/lastmile_qr_scan"}, "lon": -77.10505183333333, "type": "electric_bike", "fusion_lat": 0.0, "lat": 38.92848083333333, "name": "f2b004c9f01e89e9e62d29a39c75188c", "fusion_lon": 0.0, "bike_id": "f2b004c9f01e89e9e62d29a39c75188c", "is_disabled": 0, "is_reserved": 0}, {"rental_uris": {"ios": "https://dc.lft.to/lastmile_qr_scan", "android": "https://dc.lft.to/lastmile_qr_scan"}, "lon": -76.96867683333333, "type": "electric_scooter", "fusion_lat": 0.0, "lat": 38.86059766666666, "name": "4e42f1fc7c8c4b65bce5fc34264a6476", "fusion_lon": 0.0, "bike_id": "4e42f1fc7c8c4b65bce5fc34264a6476", "is_disabled": 0, "is_reserved": 0}, {"rental_uris": {"ios": "https://dc.lft.to/lastmile_qr_scan", "android": "https://dc.lft.to/lastmile_qr_scan"}, "lon": -77.01535816666667, "type": "electric_scooter", "fusion_lat": 0.0, "lat": 38.887397166666666, "name": "d946c2c2520a0106c686e5cefc3fd9b0", "fusion_lon": 0.0, "bike_id": "d946c2c2520a0106c686e5cefc3fd9b0", "is_disabled": 0, "is_reserved": 0}, {"rental_uris": {"ios": "https://dc.lft.to/lastmile_qr_scan", "android": "https://dc.lft.to/lastmile_qr_scan"}, "lon": -77.00670516666666, "type": "electric_scooter", "fusion_lat": 0.0, "lat": 38.90010433333333, "name": "99038113321a040731aefad28d823aa6", "fusion_lon": 0.0, "bike_id": "99038113321a040731aefad28d823aa6", "is_disabled": 0, "is_reserved": 0}, {"rental_uris": {"ios": "https://dc.lft.to/lastmile_qr_scan", "android": "https://dc.lft.to/lastmile_qr_scan"}, "lon": -77.0412735, "type": "electric_scooter", "fusion_lat": 0.0, "lat": 38.92431883333333, "name": "57c944aacdcfbb7a173559e789d45fd5", "fusion_lon": 0.0, "bike_id": "57c944aacdcfbb7a173559e789d45fd5", "is_disabled": 0, "is_reserved": 0}, {"rental_uris": {"ios": "https://dc.lft.to/lastmile_qr_scan", "android": "https://dc.lft.to/lastmile_qr_scan"}, "lon": -77.05363033333333, "type": "electric_scooter", "fusion_lat": 0.0, "lat": 38.927066333333336, "name": "d4a26a4ccabaaa4d41b6ff8597b5b5af", "fusion_lon": 0.0, "bike_id": "d4a26a4ccabaaa4d41b6ff8597b5b5af", "is_disabled": 0, "is_reserved": 0}, {"rental_uris": {"ios": "https://dc.lft.to/lastmile_qr_scan", "android": "https://dc.lft.to/lastmile_qr_scan"}, "lon": -77.08943383333333, "type": "electric_bike", "fusion_lat": 0.0, "lat": 38.841058333333336, "name": "4b11ba04803ba2bc36939555cd2da0da", "fusion_lon": 0.0, "bike_id": "4b11ba04803ba2bc36939555cd2da0da", "is_disabled": 0, "is_reserved": 0}, {"rental_uris": {"ios": "https://dc.lft.to/lastmile_qr_scan", "android": "https://dc.lft.to/lastmile_qr_scan"}, "lon": -77.0029165, "type": "electric_scooter", "fusion_lat": 0.0, "lat": 38.8973995, "name": "9e0d3105e5072ea311d3c7ea632671f9", "fusion_lon": 0.0, "bike_id": "9e0d3105e5072ea311d3c7ea632671f9", "is_disabled": 0, "is_reserved": 0}, {"rental_uris": {"ios": "https://dc.lft.to/lastmile_qr_scan", "android": "https://dc.lft.to/lastmile_qr_scan"}, "lon": -76.95757816666666, "type": "electric_scooter", "fusion_lat": 0.0, "lat": 38.884254166666665, "name": "d29ae83f81ff634313a77f62fdf08b9c", "fusion_lon": 0.0, "bike_id": "d29ae83f81ff634313a77f62fdf08b9c", "is_disabled": 0, "is_reserved": 0}, {"rental_uris": {"ios": "https://dc.lft.to/lastmile_qr_scan", "android": "https://dc.lft.to/lastmile_qr_scan"}, "lon": -76.9945925, "type": "electric_scooter", "fusion_lat": 0.0, "lat": 38.85162966666667, "name": "a171805aeba144b46e9b2454e6b4daba", "fusion_lon": 0.0, "bike_id": "a171805aeba144b46e9b2454e6b4daba", "is_disabled": 0, "is_reserved": 0}, {"rental_uris": {"ios": "https://dc.lft.to/lastmile_qr_scan", "android": "https://dc.lft.to/lastmile_qr_scan"}, "lon": -77.035656, "type": "electric_scooter", "fusion_lat": 0.0, "lat": 38.939767333333336, "name": "b96cee155d5d606aa65fd30edea182c0", "fusion_lon": 0.0, "bike_id": "b96cee155d5d606aa65fd30edea182c0", "is_disabled": 0, "is_reserved": 0}, {"rental_uris": {"ios": "https://dc.lft.to/lastmile_qr_scan", "android": "https://dc.lft.to/lastmile_qr_scan"}, "lon": -77.02964, "type": "electric_scooter", "fusion_lat": 0.0, "lat": 38.91719583333333, "name": "5060ae6affa984a64de64f2d6ea1a6ab", "fusion_lon": 0.0, "bike_id": "5060ae6affa984a64de64f2d6ea1a6ab", "is_disabled": 0, "is_reserved": 0}, {"rental_uris": {"ios": "https://dc.lft.to/lastmile_qr_scan", "android": "https://dc.lft.to/lastmile_qr_scan"}, "lon": -76.98749316666667, "type": "electric_scooter", "fusion_lat": 0.0, "lat": 38.91020283333334, "name": "9d77a50b6a7937c838d93f5b217aedf4", "fusion_lon": 0.0, "bike_id": "9d77a50b6a7937c838d93f5b217aedf4", "is_disabled": 0, "is_reserved": 0}, {"rental_uris": {"ios": "https://dc.lft.to/lastmile_qr_scan", "android": "https://dc.lft.to/lastmile_qr_scan"}, "lon": -77.08049833333334, "type": "electric_bike", "fusion_lat": 0.0, "lat": 38.84842416666667, "name": "81c81f4c7a3d89a9b9caee3588a2644a", "fusion_lon": 0.0, "bike_id": "81c81f4c7a3d89a9b9caee3588a2644a", "is_disabled": 0, "is_reserved": 0}, {"rental_uris": {"ios": "https://dc.lft.to/lastmile_qr_scan", "android": "https://dc.lft.to/lastmile_qr_scan"}, "lon": -76.974133, "type": "electric_scooter", "fusion_lat": 0.0, "lat": 38.90239833333333, "name": "944db4e618b522309acf91715397223c", "fusion_lon": 0.0, "bike_id": "944db4e618b522309acf91715397223c", "is_disabled": 0, "is_reserved": 0}, {"rental_uris": {"ios": "https://dc.lft.to/lastmile_qr_scan", "android": "https://dc.lft.to/lastmile_qr_scan"}, "lon": -77.03411883333334, "type": "electric_scooter", "fusion_lat": 0.0, "lat": 38.92424316666666, "name": "a6eac70472ee4e671b6df6ad6d8c0a64", "fusion_lon": 0.0, "bike_id": "a6eac70472ee4e671b6df6ad6d8c0a64", "is_disabled": 0, "is_reserved": 0}, {"rental_uris": {"ios": "https://dc.lft.to/lastmile_qr_scan", "android": "https://dc.lft.to/lastmile_qr_scan"}, "lon": -77.039582, "type": "electric_scooter", "fusion_lat": 0.0, "lat": 38.90122133333333, "name": "72eb773fdfcbeb40b07336370d2aef6f", "fusion_lon": 0.0, "bike_id": "72eb773fdfcbeb40b07336370d2aef6f", "is_disabled": 0, "is_reserved": 0}, {"rental_uris": {"ios": "https://dc.lft.to/lastmile_qr_scan", "android": "https://dc.lft.to/lastmile_qr_scan"}, "lon": -76.93960766666666, "type": "electric_scooter", "fusion_lat": 0.0, "lat": 38.89969883333333, "name": "adeb03e4a944da2db4501468aeaddd2a", "fusion_lon": 0.0, "bike_id": "adeb03e4a944da2db4501468aeaddd2a", "is_disabled": 0, "is_reserved": 0}, {"rental_uris": {"ios": "https://dc.lft.to/lastmile_qr_scan", "android": "https://dc.lft.to/lastmile_qr_scan"}, "lon": -77.05992883333333, "type": "electric_scooter", "fusion_lat": 0.0, "lat": 38.905144, "name": "1d1c8e9d1da7362cb8eb7bf3c8620a63", "fusion_lon": 0.0, "bike_id": "1d1c8e9d1da7362cb8eb7bf3c8620a63", "is_disabled": 0, "is_reserved": 0}, {"rental_uris": {"ios": "https://dc.lft.to/lastmile_qr_scan", "android": "https://dc.lft.to/lastmile_qr_scan"}, "lon": -77.05546533333333, "type": "electric_scooter", "fusion_lat": 0.0, "lat": 38.925284, "name": "4641e3f377eaa98f9ae0b65f58ad6580", "fusion_lon": 0.0, "bike_id": "4641e3f377eaa98f9ae0b65f58ad6580", "is_disabled": 0, "is_reserved": 0}, {"rental_uris": {"ios": "https://dc.lft.to/lastmile_qr_scan", "android": "https://dc.lft.to/lastmile_qr_scan"}, "lon": -76.928781, "type": "electric_scooter", "fusion_lat": 0.0, "lat": 38.88443183333333, "name": "2cdff077a035d8b26f742ea2ede807ab", "fusion_lon": 0.0, "bike_id": "2cdff077a035d8b26f742ea2ede807ab", "is_disabled": 0, "is_reserved": 0}, {"rental_uris": {"ios": "https://dc.lft.to/lastmile_qr_scan", "android": "https://dc.lft.to/lastmile_qr_scan"}, "lon": -77.04865183333334, "type": "electric_scooter", "fusion_lat": 0.0, "lat": 38.89222866666667, "name": "a3e9edd0e651cb57a8d4c19984574615", "fusion_lon": 0.0, "bike_id": "a3e9edd0e651cb57a8d4c19984574615", "is_disabled": 0, "is_reserved": 0}, {"rental_uris": {"ios": "https://dc.lft.to/lastmile_qr_scan", "android": "https://dc.lft.to/lastmile_qr_scan"}, "lon": -76.9388395, "type": "electric_scooter", "fusion_lat": 0.0, "lat": 38.89103633333333, "name": "a74649602e4bc0fdc792b0b11af66923", "fusion_lon": 0.0, "bike_id": "a74649602e4bc0fdc792b0b11af66923", "is_disabled": 0, "is_reserved": 0}, {"rental_uris": {"ios": "https://dc.lft.to/lastmile_qr_scan", "android": "https://dc.lft.to/lastmile_qr_scan"}, "lon": -76.9951935, "type": "electric_scooter", "fusion_lat": 0.0, "lat": 38.86260683333333, "name": "44677e0e95e1efffaffc21fe98c371bd", "fusion_lon": 0.0, "bike_id": "44677e0e95e1efffaffc21fe98c371bd", "is_disabled": 0, "is_reserved": 0}, {"rental_uris": {"ios": "https://dc.lft.to/lastmile_qr_scan", "android": "https://dc.lft.to/lastmile_qr_scan"}, "lon": -76.98606216666667, "type": "electric_scooter", "fusion_lat": 0.0, "lat": 38.87832733333333, "name": "2afa79fe45571e7fe3f56733fa4b41ad", "fusion_lon": 0.0, "bike_id": "2afa79fe45571e7fe3f56733fa4b41ad", "is_disabled": 0, "is_reserved": 0}, {"rental_uris": {"ios": "https://dc.lft.to/lastmile_qr_scan", "android": "https://dc.lft.to/lastmile_qr_scan"}, "lon": -77.02297383333334, "type": "electric_scooter", "fusion_lat": 0.0, "lat": 38.915511, "name": "031ad2fddba9371a0c4d1b788c421e5e", "fusion_lon": 0.0, "bike_id": "031ad2fddba9371a0c4d1b788c421e5e", "is_disabled": 0, "is_reserved": 0}, {"rental_uris": {"ios": "https://dc.lft.to/lastmile_qr_scan", "android": "https://dc.lft.to/lastmile_qr_scan"}, "lon": -76.95676433333334, "type": "electric_bike", "fusion_lat": 0.0, "lat": 38.947306166666664, "name": "b68dc8a0b08a965483122dd1fc41345e", "fusion_lon": 0.0, "bike_id": "b68dc8a0b08a965483122dd1fc41345e", "is_disabled": 0, "is_reserved": 0}, {"rental_uris": {"ios": "https://dc.lft.to/lastmile_qr_scan", "android": "https://dc.lft.to/lastmile_qr_scan"}, "lon": -77.0156775, "type": "electric_bike", "fusion_lat": 0.0, "lat": 38.939481, "name": "7704474acab14b0969a373d32b8181cc", "fusion_lon": 0.0, "bike_id": "7704474acab14b0969a373d32b8181cc", "is_disabled": 0, "is_reserved": 0}, {"rental_uris": {"ios": "https://dc.lft.to/lastmile_qr_scan", "android": "https://dc.lft.to/lastmile_qr_scan"}, "lon": -77.02526566666667, "type": "electric_scooter", "fusion_lat": 0.0, "lat": 38.94301183333334, "name": "93ae5436492cdf6ef4bdb9f07d82a65f", "fusion_lon": 0.0, "bike_id": "93ae5436492cdf6ef4bdb9f07d82a65f", "is_disabled": 0, "is_reserved": 0}, {"rental_uris": {"ios": "https://dc.lft.to/lastmile_qr_scan", "android": "https://dc.lft.to/lastmile_qr_scan"}, "lon": -77.003328, "type": "electric_scooter", "fusion_lat": 0.0, "lat": 38.90725, "name": "d02cf89930c01d5f4624fd165dc26a7d", "fusion_lon": 0.0, "bike_id": "d02cf89930c01d5f4624fd165dc26a7d", "is_disabled": 0, "is_reserved": 0}, {"rental_uris": {"ios": "https://dc.lft.to/lastmile_qr_scan", "android": "https://dc.lft.to/lastmile_qr_scan"}, "lon": -77.02639783333333, "type": "electric_scooter", "fusion_lat": 0.0, "lat": 38.93037416666667, "name": "5c6c594c5245e6532d9016d9b9b2a5b3", "fusion_lon": 0.0, "bike_id": "5c6c594c5245e6532d9016d9b9b2a5b3", "is_disabled": 0, "is_reserved": 0}, {"rental_uris": {"ios": "https://dc.lft.to/lastmile_qr_scan", "android": "https://dc.lft.to/lastmile_qr_scan"}, "lon": -77.04047833333334, "type": "electric_scooter", "fusion_lat": 0.0, "lat": 38.924633, "name": "21122b09bd3e3a50625879f024bb3ec0", "fusion_lon": 0.0, "bike_id": "21122b09bd3e3a50625879f024bb3ec0", "is_disabled": 0, "is_reserved": 0}, {"rental_uris": {"ios": "https://dc.lft.to/lastmile_qr_scan", "android": "https://dc.lft.to/lastmile_qr_scan"}, "lon": -77.04621033333333, "type": "electric_scooter", "fusion_lat": 0.0, "lat": 38.9163305, "name": "609fe6aafb342f68366079acdcd5224e", "fusion_lon": 0.0, "bike_id": "609fe6aafb342f68366079acdcd5224e", "is_disabled": 0, "is_reserved": 0}, {"rental_uris": {"ios": "https://dc.lft.to/lastmile_qr_scan", "android": "https://dc.lft.to/lastmile_qr_scan"}, "lon": -77.07255233333333, "type": "electric_scooter", "fusion_lat": 0.0, "lat": 38.93371783333333, "name": "9ad107f3133d84ecd0b371ff8662ba80", "fusion_lon": 0.0, "bike_id": "9ad107f3133d84ecd0b371ff8662ba80", "is_disabled": 0, "is_reserved": 0}, {"rental_uris": {"ios": "https://dc.lft.to/lastmile_qr_scan", "android": "https://dc.lft.to/lastmile_qr_scan"}, "lon": -77.07213083333333, "type": "electric_scooter", "fusion_lat": 0.0, "lat": 38.93474783333333, "name": "b9db786d2190a0d30ca5392e12393d28", "fusion_lon": 0.0, "bike_id": "b9db786d2190a0d30ca5392e12393d28", "is_disabled": 0, "is_reserved": 0}, {"rental_uris": {"ios": "https://dc.lft.to/lastmile_qr_scan", "android": "https://dc.lft.to/lastmile_qr_scan"}, "lon": -77.02611216666666, "type": "electric_scooter", "fusion_lat": 0.0, "lat": 38.9167395, "name": "9dbaabe757a07ce3eda5e9a8964cda3d", "fusion_lon": 0.0, "bike_id": "9dbaabe757a07ce3eda5e9a8964cda3d", "is_disabled": 0, "is_reserved": 0}, {"rental_uris": {"ios": "https://dc.lft.to/lastmile_qr_scan", "android": "https://dc.lft.to/lastmile_qr_scan"}, "lon": -77.05920883333333, "type": "electric_scooter", "fusion_lat": 0.0, "lat": 38.9044945, "name": "2ad4757fc457e9f4e2d5dde3f660b135", "fusion_lon": 0.0, "bike_id": "2ad4757fc457e9f4e2d5dde3f660b135", "is_disabled": 0, "is_reserved": 0}, {"rental_uris": {"ios": "https://dc.lft.to/lastmile_qr_scan", "android": "https://dc.lft.to/lastmile_qr_scan"}, "lon": -76.980247, "type": "electric_scooter", "fusion_lat": 0.0, "lat": 38.887702833333336, "name": "dd50be5853ce5617ec6853a519bd5902", "fusion_lon": 0.0, "bike_id": "dd50be5853ce5617ec6853a519bd5902", "is_disabled": 0, "is_reserved": 0}, {"rental_uris": {"ios": "https://dc.lft.to/lastmile_qr_scan", "android": "https://dc.lft.to/lastmile_qr_scan"}, "lon": -77.046536, "type": "electric_scooter", "fusion_lat": 0.0, "lat": 38.89227316666667, "name": "174a4086724ea81a23ff770a0d9ffd44", "fusion_lon": 0.0, "bike_id": "174a4086724ea81a23ff770a0d9ffd44", "is_disabled": 0, "is_reserved": 0}, {"rental_uris": {"ios": "https://dc.lft.to/lastmile_qr_scan", "android": "https://dc.lft.to/lastmile_qr_scan"}, "lon": -77.01746783333333, "type": "electric_scooter", "fusion_lat": 0.0, "lat": 38.88598133333333, "name": "9947489d4fd677d8bf8eb73057933f49", "fusion_lon": 0.0, "bike_id": "9947489d4fd677d8bf8eb73057933f49", "is_disabled": 0, "is_reserved": 0}, {"rental_uris": {"ios": "https://dc.lft.to/lastmile_qr_scan", "android": "https://dc.lft.to/lastmile_qr_scan"}, "lon": -77.00979283333334, "type": "electric_scooter", "fusion_lat": 0.0, "lat": 38.914088, "name": "0203c51bfbed7108119466ccd7fd9e11", "fusion_lon": 0.0, "bike_id": "0203c51bfbed7108119466ccd7fd9e11", "is_disabled": 0, "is_reserved": 0}, {"rental_uris": {"ios": "https://dc.lft.to/lastmile_qr_scan", "android": "https://dc.lft.to/lastmile_qr_scan"}, "lon": -77.02582183333334, "type": "electric_scooter", "fusion_lat": 0.0, "lat": 38.916383333333336, "name": "e81edc2028284b7e0c4f1ff2bc7178a3", "fusion_lon": 0.0, "bike_id": "e81edc2028284b7e0c4f1ff2bc7178a3", "is_disabled": 0, "is_reserved": 0}, {"rental_uris": {"ios": "https://dc.lft.to/lastmile_qr_scan", "android": "https://dc.lft.to/lastmile_qr_scan"}, "lon": -77.00703916666667, "type": "electric_scooter", "fusion_lat": 0.0, "lat": 38.87143866666667, "name": "d73f0322343577301b36b4b8db72f699", "fusion_lon": 0.0, "bike_id": "d73f0322343577301b36b4b8db72f699", "is_disabled": 0, "is_reserved": 0}, {"rental_uris": {"ios": "https://dc.lft.to/lastmile_qr_scan", "android": "https://dc.lft.to/lastmile_qr_scan"}, "lon": -76.91652883333333, "type": "electric_bike", "fusion_lat": 0.0, "lat": 38.86857466666667, "name": "ae652174f753b34c27abca42ff9e0d04", "fusion_lon": 0.0, "bike_id": "ae652174f753b34c27abca42ff9e0d04", "is_disabled": 0, "is_reserved": 0}, {"rental_uris": {"ios": "https://dc.lft.to/lastmile_qr_scan", "android": "https://dc.lft.to/lastmile_qr_scan"}, "lon": -77.07150933333334, "type": "electric_bike", "fusion_lat": 0.0, "lat": 38.92990983333333, "name": "ad7478163cfe2bec8c5b06ed09a1a4bd", "fusion_lon": 0.0, "bike_id": "ad7478163cfe2bec8c5b06ed09a1a4bd", "is_disabled": 0, "is_reserved": 0}, {"rental_uris": {"ios": "https://dc.lft.to/lastmile_qr_scan", "android": "https://dc.lft.to/lastmile_qr_scan"}, "lon": -77.03248316666667, "type": "electric_scooter", "fusion_lat": 0.0, "lat": 38.932420666666665, "name": "62e5c0a11ed5150d9637268cb4891b8b", "fusion_lon": 0.0, "bike_id": "62e5c0a11ed5150d9637268cb4891b8b", "is_disabled": 0, "is_reserved": 0}, {"rental_uris": {"ios": "https://dc.lft.to/lastmile_qr_scan", "android": "https://dc.lft.to/lastmile_qr_scan"}, "lon": -76.94855566666666, "type": "electric_scooter", "fusion_lat": 0.0, "lat": 38.895879, "name": "deb8530362c13d39cdbd657e126befb1", "fusion_lon": 0.0, "bike_id": "deb8530362c13d39cdbd657e126befb1", "is_disabled": 0, "is_reserved": 0}, {"rental_uris": {"ios": "https://dc.lft.to/lastmile_qr_scan", "android": "https://dc.lft.to/lastmile_qr_scan"}, "lon": -77.1623745, "type": "electric_bike", "fusion_lat": 0.0, "lat": 38.886514166666664, "name": "2f92655c90d99d6f820ea5e45baf1628", "fusion_lon": 0.0, "bike_id": "2f92655c90d99d6f820ea5e45baf1628", "is_disabled": 0, "is_reserved": 0}, {"rental_uris": {"ios": "https://dc.lft.to/lastmile_qr_scan", "android": "https://dc.lft.to/lastmile_qr_scan"}, "lon": -77.02511966666667, "type": "electric_scooter", "fusion_lat": 0.0, "lat": 38.90151316666667, "name": "329292200caf8939d63adb6b3cea260d", "fusion_lon": 0.0, "bike_id": "329292200caf8939d63adb6b3cea260d", "is_disabled": 0, "is_reserved": 0}, {"rental_uris": {"ios": "https://dc.lft.to/lastmile_qr_scan", "android": "https://dc.lft.to/lastmile_qr_scan"}, "lon": -77.0448085, "type": "electric_scooter", "fusion_lat": 0.0, "lat": 38.91920533333333, "name": "c2622f409648df45ad4f571444ae08f6", "fusion_lon": 0.0, "bike_id": "c2622f409648df45ad4f571444ae08f6", "is_disabled": 0, "is_reserved": 0}, {"rental_uris": {"ios": "https://dc.lft.to/lastmile_qr_scan", "android": "https://dc.lft.to/lastmile_qr_scan"}, "lon": -77.0652095, "type": "electric_scooter", "fusion_lat": 0.0, "lat": 38.905327666666665, "name": "dc586f94e79a177c1402d676df1734fc", "fusion_lon": 0.0, "bike_id": "dc586f94e79a177c1402d676df1734fc", "is_disabled": 0, "is_reserved": 0}, {"rental_uris": {"ios": "https://dc.lft.to/lastmile_qr_scan", "android": "https://dc.lft.to/lastmile_qr_scan"}, "lon": -76.99037083333333, "type": "electric_scooter", "fusion_lat": 0.0, "lat": 38.858732, "name": "e9835e9b3c538c2c0825d9664bc84a6d", "fusion_lon": 0.0, "bike_id": "e9835e9b3c538c2c0825d9664bc84a6d", "is_disabled": 0, "is_reserved": 0}, {"rental_uris": {"ios": "https://dc.lft.to/lastmile_qr_scan", "android": "https://dc.lft.to/lastmile_qr_scan"}, "lon": -77.08217266666666, "type": "electric_bike", "fusion_lat": 0.0, "lat": 38.9219345, "name": "b767301aa2ca26e3dda26df16cbc40f2", "fusion_lon": 0.0, "bike_id": "b767301aa2ca26e3dda26df16cbc40f2", "is_disabled": 0, "is_reserved": 0}, {"rental_uris": {"ios": "https://dc.lft.to/lastmile_qr_scan", "android": "https://dc.lft.to/lastmile_qr_scan"}, "lon": -76.97607933333333, "type": "electric_bike", "fusion_lat": 0.0, "lat": 38.913124833333335, "name": "973c45667202cb2afe866913ff1d6846", "fusion_lon": 0.0, "bike_id": "973c45667202cb2afe866913ff1d6846", "is_disabled": 0, "is_reserved": 0}, {"rental_uris": {"ios": "https://dc.lft.to/lastmile_qr_scan", "android": "https://dc.lft.to/lastmile_qr_scan"}, "lon": -77.0244005, "type": "electric_scooter", "fusion_lat": 0.0, "lat": 38.918387, "name": "d612a1d592990a3d339e17ded3e98327", "fusion_lon": 0.0, "bike_id": "d612a1d592990a3d339e17ded3e98327", "is_disabled": 0, "is_reserved": 0}, {"rental_uris": {"ios": "https://dc.lft.to/lastmile_qr_scan", "android": "https://dc.lft.to/lastmile_qr_scan"}, "lon": -77.02978583333334, "type": "electric_scooter", "fusion_lat": 0.0, "lat": 38.923184, "name": "13144163e5b68fb0dc2d4c8e17c0e5f8", "fusion_lon": 0.0, "bike_id": "13144163e5b68fb0dc2d4c8e17c0e5f8", "is_disabled": 0, "is_reserved": 0}, {"rental_uris": {"ios": "https://dc.lft.to/lastmile_qr_scan", "android": "https://dc.lft.to/lastmile_qr_scan"}, "lon": -77.04384883333333, "type": "electric_scooter", "fusion_lat": 0.0, "lat": 38.92275683333333, "name": "880a8f224fada859ca0f21ec1732a298", "fusion_lon": 0.0, "bike_id": "880a8f224fada859ca0f21ec1732a298", "is_disabled": 0, "is_reserved": 0}, {"rental_uris": {"ios": "https://dc.lft.to/lastmile_qr_scan", "android": "https://dc.lft.to/lastmile_qr_scan"}, "lon": -77.09346033333334, "type": "electric_bike", "fusion_lat": 0.0, "lat": 38.80655183333333, "name": "03386271f20fb992af4ec3c48b6d84ea", "fusion_lon": 0.0, "bike_id": "03386271f20fb992af4ec3c48b6d84ea", "is_disabled": 0, "is_reserved": 0}, {"rental_uris": {"ios": "https://dc.lft.to/lastmile_qr_scan", "android": "https://dc.lft.to/lastmile_qr_scan"}, "lon": -77.06694783333333, "type": "electric_scooter", "fusion_lat": 0.0, "lat": 38.909751, "name": "482f612ff1bcdf5d5b2b77bb0aabe086", "fusion_lon": 0.0, "bike_id": "482f612ff1bcdf5d5b2b77bb0aabe086", "is_disabled": 0, "is_reserved": 0}, {"rental_uris": {"ios": "https://dc.lft.to/lastmile_qr_scan", "android": "https://dc.lft.to/lastmile_qr_scan"}, "lon": -77.00272666666666, "type": "electric_bike", "fusion_lat": 0.0, "lat": 38.911614, "name": "c3ea030ff91579f9f26a4c9b885ebdb6", "fusion_lon": 0.0, "bike_id": "c3ea030ff91579f9f26a4c9b885ebdb6", "is_disabled": 0, "is_reserved": 0}, {"rental_uris": {"ios": "https://dc.lft.to/lastmile_qr_scan", "android": "https://dc.lft.to/lastmile_qr_scan"}, "lon": -77.04708616666667, "type": "electric_scooter", "fusion_lat": 0.0, "lat": 38.908565, "name": "e0a9d660e959f9ff51fc4fd0526bd329", "fusion_lon": 0.0, "bike_id": "e0a9d660e959f9ff51fc4fd0526bd329", "is_disabled": 0, "is_reserved": 0}, {"rental_uris": {"ios": "https://dc.lft.to/lastmile_qr_scan", "android": "https://dc.lft.to/lastmile_qr_scan"}, "lon": -76.98176633333334, "type": "electric_scooter", "fusion_lat": 0.0, "lat": 38.876989, "name": "32680dc9e49f54f38c36db65c4f18415", "fusion_lon": 0.0, "bike_id": "32680dc9e49f54f38c36db65c4f18415", "is_disabled": 0, "is_reserved": 0}, {"rental_uris": {"ios": "https://dc.lft.to/lastmile_qr_scan", "android": "https://dc.lft.to/lastmile_qr_scan"}, "lon": -77.01678466666667, "type": "electric_bike", "fusion_lat": 0.0, "lat": 38.881362833333334, "name": "b516ebf0f682ced77dc5fa17020c5e47", "fusion_lon": 0.0, "bike_id": "b516ebf0f682ced77dc5fa17020c5e47", "is_disabled": 0, "is_reserved": 0}, {"rental_uris": {"ios": "https://dc.lft.to/lastmile_qr_scan", "android": "https://dc.lft.to/lastmile_qr_scan"}, "lon": -77.032112, "type": "electric_scooter", "fusion_lat": 0.0, "lat": 38.903763833333336, "name": "051b9c438d130e64897df0bd0b08f725", "fusion_lon": 0.0, "bike_id": "051b9c438d130e64897df0bd0b08f725", "is_disabled": 0, "is_reserved": 0}, {"rental_uris": {"ios": "https://dc.lft.to/lastmile_qr_scan", "android": "https://dc.lft.to/lastmile_qr_scan"}, "lon": -76.90438816666666, "type": "electric_bike", "fusion_lat": 0.0, "lat": 38.8978055, "name": "92f19770ecae8b7b07a2c7dd3ed6fa49", "fusion_lon": 0.0, "bike_id": "92f19770ecae8b7b07a2c7dd3ed6fa49", "is_disabled": 0, "is_reserved": 0}, {"rental_uris": {"ios": "https://dc.lft.to/lastmile_qr_scan", "android": "https://dc.lft.to/lastmile_qr_scan"}, "lon": -77.0120905, "type": "electric_scooter", "fusion_lat": 0.0, "lat": 38.9152425, "name": "af644ec4ba761dcfe3ae948c097fb03e", "fusion_lon": 0.0, "bike_id": "af644ec4ba761dcfe3ae948c097fb03e", "is_disabled": 0, "is_reserved": 0}, {"rental_uris": {"ios": "https://dc.lft.to/lastmile_qr_scan", "android": "https://dc.lft.to/lastmile_qr_scan"}, "lon": -77.05004116666667, "type": "electric_scooter", "fusion_lat": 0.0, "lat": 38.90057566666667, "name": "80aa07ceb3af18d5c1c23b0eb0837835", "fusion_lon": 0.0, "bike_id": "80aa07ceb3af18d5c1c23b0eb0837835", "is_disabled": 0, "is_reserved": 0}, {"rental_uris": {"ios": "https://dc.lft.to/lastmile_qr_scan", "android": "https://dc.lft.to/lastmile_qr_scan"}, "lon": -77.02218083333334, "type": "electric_scooter", "fusion_lat": 0.0, "lat": 38.9126555, "name": "cb09119fb47a7019abf347792df27c31", "fusion_lon": 0.0, "bike_id": "cb09119fb47a7019abf347792df27c31", "is_disabled": 0, "is_reserved": 0}, {"rental_uris": {"ios": "https://dc.lft.to/lastmile_qr_scan", "android": "https://dc.lft.to/lastmile_qr_scan"}, "lon": -77.04201483333334, "type": "electric_scooter", "fusion_lat": 0.0, "lat": 38.92104916666667, "name": "68dc2e8f823a5f39fbb443d7bdfa06aa", "fusion_lon": 0.0, "bike_id": "68dc2e8f823a5f39fbb443d7bdfa06aa", "is_disabled": 0, "is_reserved": 0}, {"rental_uris": {"ios": "https://dc.lft.to/lastmile_qr_scan", "android": "https://dc.lft.to/lastmile_qr_scan"}, "lon": -77.032982, "type": "electric_scooter", "fusion_lat": 0.0, "lat": 38.91603816666667, "name": "52a985362069727178138daa0d82c549", "fusion_lon": 0.0, "bike_id": "52a985362069727178138daa0d82c549", "is_disabled": 0, "is_reserved": 0}, {"rental_uris": {"ios": "https://dc.lft.to/lastmile_qr_scan", "android": "https://dc.lft.to/lastmile_qr_scan"}, "lon": -77.02203666666666, "type": "electric_scooter", "fusion_lat": 0.0, "lat": 38.9148725, "name": "8e22b0249e5d2ead786d884aca6a3532", "fusion_lon": 0.0, "bike_id": "8e22b0249e5d2ead786d884aca6a3532", "is_disabled": 0, "is_reserved": 0}, {"rental_uris": {"ios": "https://dc.lft.to/lastmile_qr_scan", "android": "https://dc.lft.to/lastmile_qr_scan"}, "lon": -77.025898, "type": "electric_scooter", "fusion_lat": 0.0, "lat": 38.90489316666667, "name": "2bcbbe294108030e9daeed80b6c82da0", "fusion_lon": 0.0, "bike_id": "2bcbbe294108030e9daeed80b6c82da0", "is_disabled": 0, "is_reserved": 0}, {"rental_uris": {"ios": "https://dc.lft.to/lastmile_qr_scan", "android": "https://dc.lft.to/lastmile_qr_scan"}, "lon": -77.02607766666667, "type": "electric_scooter", "fusion_lat": 0.0, "lat": 38.919920166666664, "name": "9b40fc533b1def105de7139d4c596803", "fusion_lon": 0.0, "bike_id": "9b40fc533b1def105de7139d4c596803", "is_disabled": 0, "is_reserved": 0}, {"rental_uris": {"ios": "https://dc.lft.to/lastmile_qr_scan", "android": "https://dc.lft.to/lastmile_qr_scan"}, "lon": -77.00705516666666, "type": "electric_scooter", "fusion_lat": 0.0, "lat": 38.87894683333333, "name": "62c55a6d94cf91f30ff4374b6e24743b", "fusion_lon": 0.0, "bike_id": "62c55a6d94cf91f30ff4374b6e24743b", "is_disabled": 0, "is_reserved": 0}, {"rental_uris": {"ios": "https://dc.lft.to/lastmile_qr_scan", "android": "https://dc.lft.to/lastmile_qr_scan"}, "lon": -76.99061033333334, "type": "electric_scooter", "fusion_lat": 0.0, "lat": 38.863485, "name": "b22f9ccdbea62dde7047b9aa8896a6dd", "fusion_lon": 0.0, "bike_id": "b22f9ccdbea62dde7047b9aa8896a6dd", "is_disabled": 0, "is_reserved": 0}, {"rental_uris": {"ios": "https://dc.lft.to/lastmile_qr_scan", "android": "https://dc.lft.to/lastmile_qr_scan"}, "lon": -77.04838766666667, "type": "electric_scooter", "fusion_lat": 0.0, "lat": 38.92035033333333, "name": "9df744f825cacb74aab908fcac9115b2", "fusion_lon": 0.0, "bike_id": "9df744f825cacb74aab908fcac9115b2", "is_disabled": 0, "is_reserved": 0}, {"rental_uris": {"ios": "https://dc.lft.to/lastmile_qr_scan", "android": "https://dc.lft.to/lastmile_qr_scan"}, "lon": -77.04163716666666, "type": "electric_scooter", "fusion_lat": 0.0, "lat": 38.915125333333336, "name": "452644e5fae05f18c0de633a0daed047", "fusion_lon": 0.0, "bike_id": "452644e5fae05f18c0de633a0daed047", "is_disabled": 0, "is_reserved": 0}, {"rental_uris": {"ios": "https://dc.lft.to/lastmile_qr_scan", "android": "https://dc.lft.to/lastmile_qr_scan"}, "lon": -77.00560166666666, "type": "electric_scooter", "fusion_lat": 0.0, "lat": 38.871742166666664, "name": "e2be27f7f873d612d8feeb4a20917917", "fusion_lon": 0.0, "bike_id": "e2be27f7f873d612d8feeb4a20917917", "is_disabled": 0, "is_reserved": 0}, {"rental_uris": {"ios": "https://dc.lft.to/lastmile_qr_scan", "android": "https://dc.lft.to/lastmile_qr_scan"}, "lon": -77.04445933333334, "type": "electric_scooter", "fusion_lat": 0.0, "lat": 38.918717, "name": "96245e0ca93e7ca33de900262be3af7e", "fusion_lon": 0.0, "bike_id": "96245e0ca93e7ca33de900262be3af7e", "is_disabled": 0, "is_reserved": 0}, {"rental_uris": {"ios": "https://dc.lft.to/lastmile_qr_scan", "android": "https://dc.lft.to/lastmile_qr_scan"}, "lon": -77.04004566666667, "type": "electric_scooter", "fusion_lat": 0.0, "lat": 38.918128333333335, "name": "a5a003441f751b4458204cca9e1a31c5", "fusion_lon": 0.0, "bike_id": "a5a003441f751b4458204cca9e1a31c5", "is_disabled": 0, "is_reserved": 0}, {"rental_uris": {"ios": "https://dc.lft.to/lastmile_qr_scan", "android": "https://dc.lft.to/lastmile_qr_scan"}, "lon": -77.04370416666667, "type": "electric_scooter", "fusion_lat": 0.0, "lat": 38.920931, "name": "ff4aec3ab06b1b9960cce7b458683c6f", "fusion_lon": 0.0, "bike_id": "ff4aec3ab06b1b9960cce7b458683c6f", "is_disabled": 0, "is_reserved": 0}, {"rental_uris": {"ios": "https://dc.lft.to/lastmile_qr_scan", "android": "https://dc.lft.to/lastmile_qr_scan"}, "lon": -77.10965566666667, "type": "electric_bike", "fusion_lat": 0.0, "lat": 38.813024, "name": "caca3212d3fdba604c86d0074d897a13", "fusion_lon": 0.0, "bike_id": "caca3212d3fdba604c86d0074d897a13", "is_disabled": 0, "is_reserved": 0}, {"rental_uris": {"ios": "https://dc.lft.to/lastmile_qr_scan", "android": "https://dc.lft.to/lastmile_qr_scan"}, "lon": -76.9733215, "type": "electric_scooter", "fusion_lat": 0.0, "lat": 38.904798166666666, "name": "3b687a5e3cfecddb4e32fb6409b12dbb", "fusion_lon": 0.0, "bike_id": "3b687a5e3cfecddb4e32fb6409b12dbb", "is_disabled": 0, "is_reserved": 0}, {"rental_uris": {"ios": "https://dc.lft.to/lastmile_qr_scan", "android": "https://dc.lft.to/lastmile_qr_scan"}, "lon": -76.99153316666667, "type": "electric_scooter", "fusion_lat": 0.0, "lat": 38.893448166666666, "name": "dbff9d45a029a03de18a5c1005dfb177", "fusion_lon": 0.0, "bike_id": "dbff9d45a029a03de18a5c1005dfb177", "is_disabled": 0, "is_reserved": 0}, {"rental_uris": {"ios": "https://dc.lft.to/lastmile_qr_scan", "android": "https://dc.lft.to/lastmile_qr_scan"}, "lon": -77.05798633333333, "type": "electric_scooter", "fusion_lat": 0.0, "lat": 38.9029165, "name": "d0c78ca69eff25b4782e64b0594b4d50", "fusion_lon": 0.0, "bike_id": "d0c78ca69eff25b4782e64b0594b4d50", "is_disabled": 0, "is_reserved": 0}, {"rental_uris": {"ios": "https://dc.lft.to/lastmile_qr_scan", "android": "https://dc.lft.to/lastmile_qr_scan"}, "lon": -77.02230016666667, "type": "electric_scooter", "fusion_lat": 0.0, "lat": 38.914268166666666, "name": "26446d40983632f4a69949ca418b5f44", "fusion_lon": 0.0, "bike_id": "26446d40983632f4a69949ca418b5f44", "is_disabled": 0, "is_reserved": 0}, {"rental_uris": {"ios": "https://dc.lft.to/lastmile_qr_scan", "android": "https://dc.lft.to/lastmile_qr_scan"}, "lon": -76.96505566666667, "type": "electric_scooter", "fusion_lat": 0.0, "lat": 38.87648933333333, "name": "c7862bb7af0a3b2ad3f668c3683b1881", "fusion_lon": 0.0, "bike_id": "c7862bb7af0a3b2ad3f668c3683b1881", "is_disabled": 0, "is_reserved": 0}, {"rental_uris": {"ios": "https://dc.lft.to/lastmile_qr_scan", "android": "https://dc.lft.to/lastmile_qr_scan"}, "lon": -76.95751766666666, "type": "electric_scooter", "fusion_lat": 0.0, "lat": 38.8843575, "name": "dce3881b50152de9272154b85b48e0a1", "fusion_lon": 0.0, "bike_id": "dce3881b50152de9272154b85b48e0a1", "is_disabled": 0, "is_reserved": 0}, {"rental_uris": {"ios": "https://dc.lft.to/lastmile_qr_scan", "android": "https://dc.lft.to/lastmile_qr_scan"}, "lon": -77.015438, "type": "electric_scooter", "fusion_lat": 0.0, "lat": 38.89200066666667, "name": "453978f01f7d6beeb8daa13247cad1a8", "fusion_lon": 0.0, "bike_id": "453978f01f7d6beeb8daa13247cad1a8", "is_disabled": 0, "is_reserved": 0}, {"rental_uris": {"ios": "https://dc.lft.to/lastmile_qr_scan", "android": "https://dc.lft.to/lastmile_qr_scan"}, "lon": -77.15265183333334, "type": "electric_bike", "fusion_lat": 0.0, "lat": 39.10566133333333, "name": "6d148b040e0f2a781874ff950b45df5c", "fusion_lon": 0.0, "bike_id": "6d148b040e0f2a781874ff950b45df5c", "is_disabled": 0, "is_reserved": 0}, {"rental_uris": {"ios": "https://dc.lft.to/lastmile_qr_scan", "android": "https://dc.lft.to/lastmile_qr_scan"}, "lon": -76.9832645, "type": "electric_scooter", "fusion_lat": 0.0, "lat": 38.86172166666667, "name": "5f64b08055987da2cb0b5879705bbb07", "fusion_lon": 0.0, "bike_id": "5f64b08055987da2cb0b5879705bbb07", "is_disabled": 0, "is_reserved": 0}, {"rental_uris": {"ios": "https://dc.lft.to/lastmile_qr_scan", "android": "https://dc.lft.to/lastmile_qr_scan"}, "lon": -76.99615333333334, "type": "electric_scooter", "fusion_lat": 0.0, "lat": 38.884399, "name": "7eaeb05fb0835b218aaaa7cedfef97b7", "fusion_lon": 0.0, "bike_id": "7eaeb05fb0835b218aaaa7cedfef97b7", "is_disabled": 0, "is_reserved": 0}, {"rental_uris": {"ios": "https://dc.lft.to/lastmile_qr_scan", "android": "https://dc.lft.to/lastmile_qr_scan"}, "lon": -76.93792983333333, "type": "electric_scooter", "fusion_lat": 0.0, "lat": 38.89085866666667, "name": "81aec8eb2d7e5f1d151d07a9822e15f8", "fusion_lon": 0.0, "bike_id": "81aec8eb2d7e5f1d151d07a9822e15f8", "is_disabled": 0, "is_reserved": 0}, {"rental_uris": {"ios": "https://dc.lft.to/lastmile_qr_scan", "android": "https://dc.lft.to/lastmile_qr_scan"}, "lon": -77.03905016666667, "type": "electric_scooter", "fusion_lat": 0.0, "lat": 38.9221465, "name": "3dd066fda6de81c1a13ca6ed6204c7ed", "fusion_lon": 0.0, "bike_id": "3dd066fda6de81c1a13ca6ed6204c7ed", "is_disabled": 0, "is_reserved": 0}, {"rental_uris": {"ios": "https://dc.lft.to/lastmile_qr_scan", "android": "https://dc.lft.to/lastmile_qr_scan"}, "lon": -77.02197516666666, "type": "electric_scooter", "fusion_lat": 0.0, "lat": 38.89703133333333, "name": "82fb3b5cb844da01128a8c0bf93ea3d0", "fusion_lon": 0.0, "bike_id": "82fb3b5cb844da01128a8c0bf93ea3d0", "is_disabled": 0, "is_reserved": 0}, {"rental_uris": {"ios": "https://dc.lft.to/lastmile_qr_scan", "android": "https://dc.lft.to/lastmile_qr_scan"}, "lon": -77.025027, "type": "electric_scooter", "fusion_lat": 0.0, "lat": 38.880305666666665, "name": "ead03716eb8f256ef6b2d2eb04007172", "fusion_lon": 0.0, "bike_id": "ead03716eb8f256ef6b2d2eb04007172", "is_disabled": 0, "is_reserved": 0}, {"rental_uris": {"ios": "https://dc.lft.to/lastmile_qr_scan", "android": "https://dc.lft.to/lastmile_qr_scan"}, "lon": -77.03631716666666, "type": "electric_scooter", "fusion_lat": 0.0, "lat": 38.9285385, "name": "eb27b7aadfed8488472bebb5885a8e44", "fusion_lon": 0.0, "bike_id": "eb27b7aadfed8488472bebb5885a8e44", "is_disabled": 0, "is_reserved": 0}, {"rental_uris": {"ios": "https://dc.lft.to/lastmile_qr_scan", "android": "https://dc.lft.to/lastmile_qr_scan"}, "lon": -77.01133283333333, "type": "electric_scooter", "fusion_lat": 0.0, "lat": 38.907296, "name": "d3f1a50623cafec3c7d3f6435d7821d0", "fusion_lon": 0.0, "bike_id": "d3f1a50623cafec3c7d3f6435d7821d0", "is_disabled": 0, "is_reserved": 0}, {"rental_uris": {"ios": "https://dc.lft.to/lastmile_qr_scan", "android": "https://dc.lft.to/lastmile_qr_scan"}, "lon": -77.02975116666667, "type": "electric_scooter", "fusion_lat": 0.0, "lat": 38.92461766666667, "name": "7784585b36b8e144309b3ae540125aa3", "fusion_lon": 0.0, "bike_id": "7784585b36b8e144309b3ae540125aa3", "is_disabled": 0, "is_reserved": 0}, {"rental_uris": {"ios": "https://dc.lft.to/lastmile_qr_scan", "android": "https://dc.lft.to/lastmile_qr_scan"}, "lon": -77.006314, "type": "electric_scooter", "fusion_lat": 0.0, "lat": 38.829275333333335, "name": "9684144597abdb26bc5d84f5e979092e", "fusion_lon": 0.0, "bike_id": "9684144597abdb26bc5d84f5e979092e", "is_disabled": 0, "is_reserved": 0}, {"rental_uris": {"ios": "https://dc.lft.to/lastmile_qr_scan", "android": "https://dc.lft.to/lastmile_qr_scan"}, "lon": -77.02379233333333, "type": "electric_scooter", "fusion_lat": 0.0, "lat": 38.90302283333333, "name": "e8b1d25ddc336a1ed33cb2c423dd3553", "fusion_lon": 0.0, "bike_id": "e8b1d25ddc336a1ed33cb2c423dd3553", "is_disabled": 0, "is_reserved": 0}, {"rental_uris": {"ios": "https://dc.lft.to/lastmile_qr_scan", "android": "https://dc.lft.to/lastmile_qr_scan"}, "lon": -77.05677933333334, "type": "electric_scooter", "fusion_lat": 0.0, "lat": 38.923350666666664, "name": "81cee92d63881e2797b487034f7d250f", "fusion_lon": 0.0, "bike_id": "81cee92d63881e2797b487034f7d250f", "is_disabled": 0, "is_reserved": 0}, {"rental_uris": {"ios": "https://dc.lft.to/lastmile_qr_scan", "android": "https://dc.lft.to/lastmile_qr_scan"}, "lon": -77.019278, "type": "electric_scooter", "fusion_lat": 0.0, "lat": 38.95688916666667, "name": "be64ca339b9e80fc4e1ac74062069876", "fusion_lon": 0.0, "bike_id": "be64ca339b9e80fc4e1ac74062069876", "is_disabled": 0, "is_reserved": 0}, {"rental_uris": {"ios": "https://dc.lft.to/lastmile_qr_scan", "android": "https://dc.lft.to/lastmile_qr_scan"}, "lon": -76.988842, "type": "electric_scooter", "fusion_lat": 0.0, "lat": 38.86657533333333, "name": "ebeca202bbf65990cfe33e2f2619352f", "fusion_lon": 0.0, "bike_id": "ebeca202bbf65990cfe33e2f2619352f", "is_disabled": 0, "is_reserved": 0}, {"rental_uris": {"ios": "https://dc.lft.to/lastmile_qr_scan", "android": "https://dc.lft.to/lastmile_qr_scan"}, "lon": -76.9499995, "type": "electric_scooter", "fusion_lat": 0.0, "lat": 38.8936985, "name": "75bbd7818afe86bc7d4ba9432eb4e2a5", "fusion_lon": 0.0, "bike_id": "75bbd7818afe86bc7d4ba9432eb4e2a5", "is_disabled": 0, "is_reserved": 0}, {"rental_uris": {"ios": "https://dc.lft.to/lastmile_qr_scan", "android": "https://dc.lft.to/lastmile_qr_scan"}, "lon": -77.03216966666666, "type": "electric_scooter", "fusion_lat": 0.0, "lat": 38.912684, "name": "4bd47580e2690466a766f705affe5e84", "fusion_lon": 0.0, "bike_id": "4bd47580e2690466a766f705affe5e84", "is_disabled": 0, "is_reserved": 0}, {"rental_uris": {"ios": "https://dc.lft.to/lastmile_qr_scan", "android": "https://dc.lft.to/lastmile_qr_scan"}, "lon": -77.02002866666666, "type": "electric_scooter", "fusion_lat": 0.0, "lat": 38.9191015, "name": "f355553dd4f1f97d510b94228977e1b7", "fusion_lon": 0.0, "bike_id": "f355553dd4f1f97d510b94228977e1b7", "is_disabled": 0, "is_reserved": 0}, {"rental_uris": {"ios": "https://dc.lft.to/lastmile_qr_scan", "android": "https://dc.lft.to/lastmile_qr_scan"}, "lon": -77.032681, "type": "electric_scooter", "fusion_lat": 0.0, "lat": 38.9309755, "name": "ccf223dbaf0abe2337112ff24a8b0cb5", "fusion_lon": 0.0, "bike_id": "ccf223dbaf0abe2337112ff24a8b0cb5", "is_disabled": 0, "is_reserved": 0}, {"rental_uris": {"ios": "https://dc.lft.to/lastmile_qr_scan", "android": "https://dc.lft.to/lastmile_qr_scan"}, "lon": -77.02604683333334, "type": "electric_scooter", "fusion_lat": 0.0, "lat": 38.905559, "name": "19421eab47a3fe9d1e432c21a108f539", "fusion_lon": 0.0, "bike_id": "19421eab47a3fe9d1e432c21a108f539", "is_disabled": 0, "is_reserved": 0}, {"rental_uris": {"ios": "https://dc.lft.to/lastmile_qr_scan", "android": "https://dc.lft.to/lastmile_qr_scan"}, "lon": -77.03212283333333, "type": "electric_scooter", "fusion_lat": 0.0, "lat": 38.92004416666666, "name": "0153c6c8da01635bf38cc98e05806b19", "fusion_lon": 0.0, "bike_id": "0153c6c8da01635bf38cc98e05806b19", "is_disabled": 0, "is_reserved": 0}, {"rental_uris": {"ios": "https://dc.lft.to/lastmile_qr_scan", "android": "https://dc.lft.to/lastmile_qr_scan"}, "lon": -77.01631616666667, "type": "electric_scooter", "fusion_lat": 0.0, "lat": 38.929401, "name": "3cba6f45319854abfc540ea3b81eee56", "fusion_lon": 0.0, "bike_id": "3cba6f45319854abfc540ea3b81eee56", "is_disabled": 0, "is_reserved": 0}, {"rental_uris": {"ios": "https://dc.lft.to/lastmile_qr_scan", "android": "https://dc.lft.to/lastmile_qr_scan"}, "lon": -77.03319416666666, "type": "electric_scooter", "fusion_lat": 0.0, "lat": 38.89890583333333, "name": "e2b443fc0cac05a3cd9b1e0fd43480e8", "fusion_lon": 0.0, "bike_id": "e2b443fc0cac05a3cd9b1e0fd43480e8", "is_disabled": 0, "is_reserved": 0}, {"rental_uris": {"ios": "https://dc.lft.to/lastmile_qr_scan", "android": "https://dc.lft.to/lastmile_qr_scan"}, "lon": -77.04123716666666, "type": "electric_scooter", "fusion_lat": 0.0, "lat": 38.918924833333335, "name": "935b5977080120a2727a62c2d2c69d37", "fusion_lon": 0.0, "bike_id": "935b5977080120a2727a62c2d2c69d37", "is_disabled": 0, "is_reserved": 0}, {"rental_uris": {"ios": "https://dc.lft.to/lastmile_qr_scan", "android": "https://dc.lft.to/lastmile_qr_scan"}, "lon": -76.97986933333334, "type": "electric_bike", "fusion_lat": 0.0, "lat": 38.877513, "name": "91b60203878957065127dccfbf049b36", "fusion_lon": 0.0, "bike_id": "91b60203878957065127dccfbf049b36", "is_disabled": 0, "is_reserved": 0}, {"rental_uris": {"ios": "https://dc.lft.to/lastmile_qr_scan", "android": "https://dc.lft.to/lastmile_qr_scan"}, "lon": -77.360952, "type": "electric_bike", "fusion_lat": 0.0, "lat": 38.9395075, "name": "7e3f7d7ccbe7a670bfe8a8a186ca7a9d", "fusion_lon": 0.0, "bike_id": "7e3f7d7ccbe7a670bfe8a8a186ca7a9d", "is_disabled": 0, "is_reserved": 0}, {"rental_uris": {"ios": "https://dc.lft.to/lastmile_qr_scan", "android": "https://dc.lft.to/lastmile_qr_scan"}, "lon": -77.0210105, "type": "electric_scooter", "fusion_lat": 0.0, "lat": 38.9100935, "name": "5ade5e00c4f903978758ca219251b560", "fusion_lon": 0.0, "bike_id": "5ade5e00c4f903978758ca219251b560", "is_disabled": 0, "is_reserved": 0}, {"rental_uris": {"ios": "https://dc.lft.to/lastmile_qr_scan", "android": "https://dc.lft.to/lastmile_qr_scan"}, "lon": -77.032925, "type": "electric_scooter", "fusion_lat": 0.0, "lat": 38.9221215, "name": "391e48dd3bae1b4f88b9b13abda68523", "fusion_lon": 0.0, "bike_id": "391e48dd3bae1b4f88b9b13abda68523", "is_disabled": 0, "is_reserved": 0}, {"rental_uris": {"ios": "https://dc.lft.to/lastmile_qr_scan", "android": "https://dc.lft.to/lastmile_qr_scan"}, "lon": -77.03973016666667, "type": "electric_scooter", "fusion_lat": 0.0, "lat": 38.90010683333333, "name": "34cc18201d04d8e0015f132311cc89b2", "fusion_lon": 0.0, "bike_id": "34cc18201d04d8e0015f132311cc89b2", "is_disabled": 0, "is_reserved": 0}, {"rental_uris": {"ios": "https://dc.lft.to/lastmile_qr_scan", "android": "https://dc.lft.to/lastmile_qr_scan"}, "lon": -77.03486916666667, "type": "electric_scooter", "fusion_lat": 0.0, "lat": 38.918909, "name": "e20a58797a27896c92ce784b69dedcd2", "fusion_lon": 0.0, "bike_id": "e20a58797a27896c92ce784b69dedcd2", "is_disabled": 0, "is_reserved": 0}, {"rental_uris": {"ios": "https://dc.lft.to/lastmile_qr_scan", "android": "https://dc.lft.to/lastmile_qr_scan"}, "lon": -77.0320865, "type": "electric_scooter", "fusion_lat": 0.0, "lat": 38.91470316666667, "name": "78441f7b21391e3fc97a90e46a2bbc94", "fusion_lon": 0.0, "bike_id": "78441f7b21391e3fc97a90e46a2bbc94", "is_disabled": 0, "is_reserved": 0}, {"rental_uris": {"ios": "https://dc.lft.to/lastmile_qr_scan", "android": "https://dc.lft.to/lastmile_qr_scan"}, "lon": -77.04485416666667, "type": "electric_scooter", "fusion_lat": 0.0, "lat": 38.9066815, "name": "98da555bc5c19adbd0de116971a5453a", "fusion_lon": 0.0, "bike_id": "98da555bc5c19adbd0de116971a5453a", "is_disabled": 0, "is_reserved": 0}, {"rental_uris": {"ios": "https://dc.lft.to/lastmile_qr_scan", "android": "https://dc.lft.to/lastmile_qr_scan"}, "lon": -76.978211, "type": "electric_scooter", "fusion_lat": 0.0, "lat": 38.8951595, "name": "5a4916aa434ddaee509cdd2daac346e6", "fusion_lon": 0.0, "bike_id": "5a4916aa434ddaee509cdd2daac346e6", "is_disabled": 0, "is_reserved": 0}, {"rental_uris": {"ios": "https://dc.lft.to/lastmile_qr_scan", "android": "https://dc.lft.to/lastmile_qr_scan"}, "lon": -77.01705983333333, "type": "electric_scooter", "fusion_lat": 0.0, "lat": 38.90222983333334, "name": "59c5b79404844eb3688f0273b4f4a147", "fusion_lon": 0.0, "bike_id": "59c5b79404844eb3688f0273b4f4a147", "is_disabled": 0, "is_reserved": 0}, {"rental_uris": {"ios": "https://dc.lft.to/lastmile_qr_scan", "android": "https://dc.lft.to/lastmile_qr_scan"}, "lon": -77.0174615, "type": "electric_scooter", "fusion_lat": 0.0, "lat": 38.905554, "name": "eb89bb6a2c8dc0a24fe1e28ec2d672bc", "fusion_lon": 0.0, "bike_id": "eb89bb6a2c8dc0a24fe1e28ec2d672bc", "is_disabled": 0, "is_reserved": 0}, {"rental_uris": {"ios": "https://dc.lft.to/lastmile_qr_scan", "android": "https://dc.lft.to/lastmile_qr_scan"}, "lon": -77.01659816666667, "type": "electric_scooter", "fusion_lat": 0.0, "lat": 38.913946333333335, "name": "57d6dd6c85de5e80a65c9be54073978f", "fusion_lon": 0.0, "bike_id": "57d6dd6c85de5e80a65c9be54073978f", "is_disabled": 0, "is_reserved": 0}, {"rental_uris": {"ios": "https://dc.lft.to/lastmile_qr_scan", "android": "https://dc.lft.to/lastmile_qr_scan"}, "lon": -77.0318395, "type": "electric_scooter", "fusion_lat": 0.0, "lat": 38.91720683333333, "name": "710d1d2c513fa961624ce101cf1c6012", "fusion_lon": 0.0, "bike_id": "710d1d2c513fa961624ce101cf1c6012", "is_disabled": 0, "is_reserved": 0}, {"rental_uris": {"ios": "https://dc.lft.to/lastmile_qr_scan", "android": "https://dc.lft.to/lastmile_qr_scan"}, "lon": -77.0185555, "type": "electric_bike", "fusion_lat": 0.0, "lat": 38.91493916666667, "name": "45d4ebb2f34d25613cdfe561dd0dcaed", "fusion_lon": 0.0, "bike_id": "45d4ebb2f34d25613cdfe561dd0dcaed", "is_disabled": 0, "is_reserved": 0}, {"rental_uris": {"ios": "https://dc.lft.to/lastmile_qr_scan", "android": "https://dc.lft.to/lastmile_qr_scan"}, "lon": -77.0257745, "type": "electric_scooter", "fusion_lat": 0.0, "lat": 38.899493166666666, "name": "871154a33575a4c03ed9e2b6f0e451cf", "fusion_lon": 0.0, "bike_id": "871154a33575a4c03ed9e2b6f0e451cf", "is_disabled": 0, "is_reserved": 0}, {"rental_uris": {"ios": "https://dc.lft.to/lastmile_qr_scan", "android": "https://dc.lft.to/lastmile_qr_scan"}, "lon": -76.99018066666666, "type": "electric_scooter", "fusion_lat": 0.0, "lat": 38.858673833333334, "name": "3f4766b5ce6671de86e9ad81b72a03cf", "fusion_lon": 0.0, "bike_id": "3f4766b5ce6671de86e9ad81b72a03cf", "is_disabled": 0, "is_reserved": 0}, {"rental_uris": {"ios": "https://dc.lft.to/lastmile_qr_scan", "android": "https://dc.lft.to/lastmile_qr_scan"}, "lon": -77.182899, "type": "electric_bike", "fusion_lat": 0.0, "lat": 38.883492, "name": "7d53cba6d52e6777c73e71bde2ea36e1", "fusion_lon": 0.0, "bike_id": "7d53cba6d52e6777c73e71bde2ea36e1", "is_disabled": 0, "is_reserved": 0}, {"rental_uris": {"ios": "https://dc.lft.to/lastmile_qr_scan", "android": "https://dc.lft.to/lastmile_qr_scan"}, "lon": -77.04122866666667, "type": "electric_scooter", "fusion_lat": 0.0, "lat": 38.92233083333333, "name": "b739be86def30079da304735512c4b04", "fusion_lon": 0.0, "bike_id": "b739be86def30079da304735512c4b04", "is_disabled": 0, "is_reserved": 0}, {"rental_uris": {"ios": "https://dc.lft.to/lastmile_qr_scan", "android": "https://dc.lft.to/lastmile_qr_scan"}, "lon": -77.0618695, "type": "electric_scooter", "fusion_lat": 0.0, "lat": 38.90247466666667, "name": "0b42bcfb9c92f9b1dc9ab243c795372f", "fusion_lon": 0.0, "bike_id": "0b42bcfb9c92f9b1dc9ab243c795372f", "is_disabled": 0, "is_reserved": 0}, {"rental_uris": {"ios": "https://dc.lft.to/lastmile_qr_scan", "android": "https://dc.lft.to/lastmile_qr_scan"}, "lon": -76.94996033333334, "type": "electric_scooter", "fusion_lat": 0.0, "lat": 38.89371516666667, "name": "49003005e9ac9eebc7eebdc955ed139f", "fusion_lon": 0.0, "bike_id": "49003005e9ac9eebc7eebdc955ed139f", "is_disabled": 0, "is_reserved": 0}, {"rental_uris": {"ios": "https://dc.lft.to/lastmile_qr_scan", "android": "https://dc.lft.to/lastmile_qr_scan"}, "lon": -77.059069, "type": "electric_scooter", "fusion_lat": 0.0, "lat": 38.936082666666664, "name": "57be15c53d865459960546574962c5d7", "fusion_lon": 0.0, "bike_id": "57be15c53d865459960546574962c5d7", "is_disabled": 0, "is_reserved": 0}, {"rental_uris": {"ios": "https://dc.lft.to/lastmile_qr_scan", "android": "https://dc.lft.to/lastmile_qr_scan"}, "lon": -77.08265683333333, "type": "electric_scooter", "fusion_lat": 0.0, "lat": 38.9303835, "name": "3d2ed360b728f69e8d2a9d052b94e6ce", "fusion_lon": 0.0, "bike_id": "3d2ed360b728f69e8d2a9d052b94e6ce", "is_disabled": 0, "is_reserved": 0}, {"rental_uris": {"ios": "https://dc.lft.to/lastmile_qr_scan", "android": "https://dc.lft.to/lastmile_qr_scan"}, "lon": -77.03310266666666, "type": "electric_scooter", "fusion_lat": 0.0, "lat": 38.901417, "name": "5a59f560805b041a732fb655c1e35dec", "fusion_lon": 0.0, "bike_id": "5a59f560805b041a732fb655c1e35dec", "is_disabled": 0, "is_reserved": 0}, {"rental_uris": {"ios": "https://dc.lft.to/lastmile_qr_scan", "android": "https://dc.lft.to/lastmile_qr_scan"}, "lon": -77.03328816666667, "type": "electric_scooter", "fusion_lat": 0.0, "lat": 38.9015005, "name": "f21f085d5ed809eb811c3a19ba5517d9", "fusion_lon": 0.0, "bike_id": "f21f085d5ed809eb811c3a19ba5517d9", "is_disabled": 0, "is_reserved": 0}, {"rental_uris": {"ios": "https://dc.lft.to/lastmile_qr_scan", "android": "https://dc.lft.to/lastmile_qr_scan"}, "lon": -76.99546616666666, "type": "electric_scooter", "fusion_lat": 0.0, "lat": 38.90028816666667, "name": "da494e1e694c6dc4eef6b339b8cba09a", "fusion_lon": 0.0, "bike_id": "da494e1e694c6dc4eef6b339b8cba09a", "is_disabled": 0, "is_reserved": 0}, {"rental_uris": {"ios": "https://dc.lft.to/lastmile_qr_scan", "android": "https://dc.lft.to/lastmile_qr_scan"}, "lon": -77.04104016666666, "type": "electric_scooter", "fusion_lat": 0.0, "lat": 38.91855066666667, "name": "319ca4290a02a7d50772db692289e3b8", "fusion_lon": 0.0, "bike_id": "319ca4290a02a7d50772db692289e3b8", "is_disabled": 0, "is_reserved": 0}, {"rental_uris": {"ios": "https://dc.lft.to/lastmile_qr_scan", "android": "https://dc.lft.to/lastmile_qr_scan"}, "lon": -77.02240133333333, "type": "electric_scooter", "fusion_lat": 0.0, "lat": 38.915510166666664, "name": "f6601f193ae8ee300ff3f2213e3210f6", "fusion_lon": 0.0, "bike_id": "f6601f193ae8ee300ff3f2213e3210f6", "is_disabled": 0, "is_reserved": 0}, {"rental_uris": {"ios": "https://dc.lft.to/lastmile_qr_scan", "android": "https://dc.lft.to/lastmile_qr_scan"}, "lon": -77.0853965, "type": "electric_bike", "fusion_lat": 0.0, "lat": 38.856199, "name": "06ff56d778597f6cf64c236dedcc66cb", "fusion_lon": 0.0, "bike_id": "06ff56d778597f6cf64c236dedcc66cb", "is_disabled": 0, "is_reserved": 0}, {"rental_uris": {"ios": "https://dc.lft.to/lastmile_qr_scan", "android": "https://dc.lft.to/lastmile_qr_scan"}, "lon": -77.00662633333333, "type": "electric_scooter", "fusion_lat": 0.0, "lat": 38.87465566666667, "name": "5c1030c11c43257238efbb67f44a7387", "fusion_lon": 0.0, "bike_id": "5c1030c11c43257238efbb67f44a7387", "is_disabled": 0, "is_reserved": 0}, {"rental_uris": {"ios": "https://dc.lft.to/lastmile_qr_scan", "android": "https://dc.lft.to/lastmile_qr_scan"}, "lon": -77.06339216666667, "type": "electric_scooter", "fusion_lat": 0.0, "lat": 38.90287266666667, "name": "13dbc73f06d417bf52bc13ccbf3be900", "fusion_lon": 0.0, "bike_id": "13dbc73f06d417bf52bc13ccbf3be900", "is_disabled": 0, "is_reserved": 0}, {"rental_uris": {"ios": "https://dc.lft.to/lastmile_qr_scan", "android": "https://dc.lft.to/lastmile_qr_scan"}, "lon": -77.02979483333333, "type": "electric_scooter", "fusion_lat": 0.0, "lat": 38.9622865, "name": "1985bbab69772b4d2988b42d5bb69652", "fusion_lon": 0.0, "bike_id": "1985bbab69772b4d2988b42d5bb69652", "is_disabled": 0, "is_reserved": 0}, {"rental_uris": {"ios": "https://dc.lft.to/lastmile_qr_scan", "android": "https://dc.lft.to/lastmile_qr_scan"}, "lon": -77.02202583333333, "type": "electric_scooter", "fusion_lat": 0.0, "lat": 38.894817833333335, "name": "647f6e88f40f1c1830792ce5177ceb3c", "fusion_lon": 0.0, "bike_id": "647f6e88f40f1c1830792ce5177ceb3c", "is_disabled": 0, "is_reserved": 0}, {"rental_uris": {"ios": "https://dc.lft.to/lastmile_qr_scan", "android": "https://dc.lft.to/lastmile_qr_scan"}, "lon": -77.02098633333334, "type": "electric_scooter", "fusion_lat": 0.0, "lat": 38.887397166666666, "name": "45cfe7e5976af5d2e877a388688d56f6", "fusion_lon": 0.0, "bike_id": "45cfe7e5976af5d2e877a388688d56f6", "is_disabled": 0, "is_reserved": 0}, {"rental_uris": {"ios": "https://dc.lft.to/lastmile_qr_scan", "android": "https://dc.lft.to/lastmile_qr_scan"}, "lon": -76.98839833333334, "type": "electric_scooter", "fusion_lat": 0.0, "lat": 38.89464816666667, "name": "c50aeff7776d8235a5036682bcfe9b2d", "fusion_lon": 0.0, "bike_id": "c50aeff7776d8235a5036682bcfe9b2d", "is_disabled": 0, "is_reserved": 0}, {"rental_uris": {"ios": "https://dc.lft.to/lastmile_qr_scan", "android": "https://dc.lft.to/lastmile_qr_scan"}, "lon": -77.03191616666666, "type": "electric_scooter", "fusion_lat": 0.0, "lat": 38.917569, "name": "d9de1dc5fbc7c55159bde13f939834c9", "fusion_lon": 0.0, "bike_id": "d9de1dc5fbc7c55159bde13f939834c9", "is_disabled": 0, "is_reserved": 0}, {"rental_uris": {"ios": "https://dc.lft.to/lastmile_qr_scan", "android": "https://dc.lft.to/lastmile_qr_scan"}, "lon": -77.03130666666667, "type": "electric_scooter", "fusion_lat": 0.0, "lat": 38.923712, "name": "76ec6fc76afa59719855edc148bf9c0f", "fusion_lon": 0.0, "bike_id": "76ec6fc76afa59719855edc148bf9c0f", "is_disabled": 0, "is_reserved": 0}, {"rental_uris": {"ios": "https://dc.lft.to/lastmile_qr_scan", "android": "https://dc.lft.to/lastmile_qr_scan"}, "lon": -77.02652083333334, "type": "electric_scooter", "fusion_lat": 0.0, "lat": 38.938649166666664, "name": "0b80425ff5b9d696745070c186bf0fec", "fusion_lon": 0.0, "bike_id": "0b80425ff5b9d696745070c186bf0fec", "is_disabled": 0, "is_reserved": 0}, {"rental_uris": {"ios": "https://dc.lft.to/lastmile_qr_scan", "android": "https://dc.lft.to/lastmile_qr_scan"}, "lon": -77.01697433333334, "type": "electric_scooter", "fusion_lat": 0.0, "lat": 38.920143, "name": "b2cc564324a6899e93fc3c72769ccb29", "fusion_lon": 0.0, "bike_id": "b2cc564324a6899e93fc3c72769ccb29", "is_disabled": 0, "is_reserved": 0}, {"rental_uris": {"ios": "https://dc.lft.to/lastmile_qr_scan", "android": "https://dc.lft.to/lastmile_qr_scan"}, "lon": -77.01301466666666, "type": "electric_scooter", "fusion_lat": 0.0, "lat": 38.900535166666664, "name": "f3894c8138ebc3d7e0c456a1236dc292", "fusion_lon": 0.0, "bike_id": "f3894c8138ebc3d7e0c456a1236dc292", "is_disabled": 0, "is_reserved": 0}, {"rental_uris": {"ios": "https://dc.lft.to/lastmile_qr_scan", "android": "https://dc.lft.to/lastmile_qr_scan"}, "lon": -76.99984116666667, "type": "electric_scooter", "fusion_lat": 0.0, "lat": 38.9082035, "name": "7538022a041d8013ebebf5d7d9e45e53", "fusion_lon": 0.0, "bike_id": "7538022a041d8013ebebf5d7d9e45e53", "is_disabled": 0, "is_reserved": 0}, {"rental_uris": {"ios": "https://dc.lft.to/lastmile_qr_scan", "android": "https://dc.lft.to/lastmile_qr_scan"}, "lon": -77.045558, "type": "electric_scooter", "fusion_lat": 0.0, "lat": 38.91779966666667, "name": "e592b309aa34d6b2822e2bb0b7df2cf1", "fusion_lon": 0.0, "bike_id": "e592b309aa34d6b2822e2bb0b7df2cf1", "is_disabled": 0, "is_reserved": 0}, {"rental_uris": {"ios": "https://dc.lft.to/lastmile_qr_scan", "android": "https://dc.lft.to/lastmile_qr_scan"}, "lon": -77.033473, "type": "electric_scooter", "fusion_lat": 0.0, "lat": 38.928854333333334, "name": "0e54673a44f81ea60e677ff5665f7d27", "fusion_lon": 0.0, "bike_id": "0e54673a44f81ea60e677ff5665f7d27", "is_disabled": 0, "is_reserved": 0}, {"rental_uris": {"ios": "https://dc.lft.to/lastmile_qr_scan", "android": "https://dc.lft.to/lastmile_qr_scan"}, "lon": -77.02493916666667, "type": "electric_scooter", "fusion_lat": 0.0, "lat": 38.91807283333333, "name": "45f63dbabcefb75d93aaa8ce9b85068e", "fusion_lon": 0.0, "bike_id": "45f63dbabcefb75d93aaa8ce9b85068e", "is_disabled": 0, "is_reserved": 0}, {"rental_uris": {"ios": "https://dc.lft.to/lastmile_qr_scan", "android": "https://dc.lft.to/lastmile_qr_scan"}, "lon": -77.03217266666667, "type": "electric_scooter", "fusion_lat": 0.0, "lat": 38.9140585, "name": "9adc94171245b1368195dc51c679b154", "fusion_lon": 0.0, "bike_id": "9adc94171245b1368195dc51c679b154", "is_disabled": 0, "is_reserved": 0}, {"rental_uris": {"ios": "https://dc.lft.to/lastmile_qr_scan", "android": "https://dc.lft.to/lastmile_qr_scan"},