{"data": {"bikes": [{"lon": -76.95777516666666, "name": "eb083eda9b66c053e82ef552ed7931d0", "is_disabled": 0, "type": "electric_scooter", "is_reserved": 0, "fusion_lon": 0.0, "lat": 38.88357383333334, "rental_uris": {"ios": "https://dc.lft.to/lastmile_qr_scan", "android": "https://dc.lft.to/lastmile_qr_scan"}, "bike_id": "eb083eda9b66c053e82ef552ed7931d0", "fusion_lat": 0.0}, {"lon": -77.046621, "name": "640a4f7a187c33715ee5360aa9025b5c", "is_disabled": 0, "type": "electric_scooter", "is_reserved": 0, "fusion_lon": 0.0, "lat": 38.90009933333333, "rental_uris": {"ios": "https://dc.lft.to/lastmile_qr_scan", "android": "https://dc.lft.to/lastmile_qr_scan"}, "bike_id": "640a4f7a187c33715ee5360aa9025b5c", "fusion_lat": 0.0}, {"lon": -77.00573916666667, "name": "b54447700fa46c33c2d49fbe2c212950", "is_disabled": 0, "type": "electric_scooter", "is_reserved": 0, "fusion_lon": 0.0, "lat": 38.882015333333335, "rental_uris": {"ios": "https://dc.lft.to/lastmile_qr_scan", "android": "https://dc.lft.to/lastmile_qr_scan"}, "bike_id": "b54447700fa46c33c2d49fbe2c212950", "fusion_lat": 0.0}, {"lon": -77.02796133333334, "name": "0923b68946e68d525fbe868cdf44fe28", "is_disabled": 0, "type": "electric_scooter", "is_reserved": 0, "fusion_lon": 0.0, "lat": 38.94178433333333, "rental_uris": {"ios": "https://dc.lft.to/lastmile_qr_scan", "android": "https://dc.lft.to/lastmile_qr_scan"}, "bike_id": "0923b68946e68d525fbe868cdf44fe28", "fusion_lat": 0.0}, {"lon": -77.00707833333334, "name": "361096da5e0de98bc326ce14599fce39", "is_disabled": 0, "type": "electric_scooter", "is_reserved": 0, "fusion_lon": 0.0, "lat": 38.9073125, "rental_uris": {"ios": "https://dc.lft.to/lastmile_qr_scan", "android": "https://dc.lft.to/lastmile_qr_scan"}, "bike_id": "361096da5e0de98bc326ce14599fce39", "fusion_lat": 0.0}, {"lon": -77.02225366666667, "name": "697833dbf0a269f089974a199dee59e3", "is_disabled": 0, "type": "electric_scooter", "is_reserved": 0, "fusion_lon": 0.0, "lat": 38.924791666666664, "rental_uris": {"ios": "https://dc.lft.to/lastmile_qr_scan", "android": "https://dc.lft.to/lastmile_qr_scan"}, "bike_id": "697833dbf0a269f089974a199dee59e3", "fusion_lat": 0.0}, {"lon": -77.0326125, "name": "e8da221a5748f5fc4eabb3bbe932d2c0", "is_disabled": 0, "type": "electric_scooter", "is_reserved": 0, "fusion_lon": 0.0, "lat": 38.92882133333333, "rental_uris": {"ios": "https://dc.lft.to/lastmile_qr_scan", "android": "https://dc.lft.to/lastmile_qr_scan"}, "bike_id": "e8da221a5748f5fc4eabb3bbe932d2c0", "fusion_lat": 0.0}, {"lon": -77.01774883333333, "name": "cee847e97e2d4822786f958ebbc81147", "is_disabled": 0, "type": "electric_scooter", "is_reserved": 0, "fusion_lon": 0.0, "lat": 38.92110683333333, "rental_uris": {"ios": "https://dc.lft.to/lastmile_qr_scan", "android": "https://dc.lft.to/lastmile_qr_scan"}, "bike_id": "cee847e97e2d4822786f958ebbc81147", "fusion_lat": 0.0}, {"lon": -77.03803633333334, "name": "c1b3b564a89007faa95a32f76f284b76", "is_disabled": 0, "type": "electric_scooter", "is_reserved": 0, "fusion_lon": 0.0, "lat": 38.93021483333333, "rental_uris": {"ios": "https://dc.lft.to/lastmile_qr_scan", "android": "https://dc.lft.to/lastmile_qr_scan"}, "bike_id": "c1b3b564a89007faa95a32f76f284b76", "fusion_lat": 0.0}, {"lon": -77.0385135, "name": "45386b5be8b1be53db80f6080dd40d5a", "is_disabled": 0, "type": "electric_scooter", "is_reserved": 0, "fusion_lon": 0.0, "lat": 38.90970733333333, "rental_uris": {"ios": "https://dc.lft.to/lastmile_qr_scan", "android": "https://dc.lft.to/lastmile_qr_scan"}, "bike_id": "45386b5be8b1be53db80f6080dd40d5a", "fusion_lat": 0.0}, {"lon": -76.93593416666667, "name": "2853d094f4c5148b838beaab4a80815d", "is_disabled": 0, "type": "electric_scooter", "is_reserved": 0, "fusion_lon": 0.0, "lat": 38.909474833333334, "rental_uris": {"ios": "https://dc.lft.to/lastmile_qr_scan", "android": "https://dc.lft.to/lastmile_qr_scan"}, "bike_id": "2853d094f4c5148b838beaab4a80815d", "fusion_lat": 0.0}, {"lon": -76.951656, "name": "cdbc5a7f14d09813c7c53a37a62d34b2", "is_disabled": 0, "type": "electric_bike", "is_reserved": 0, "fusion_lon": 0.0, "lat": 39.084315333333336, "rental_uris": {"ios": "https://dc.lft.to/lastmile_qr_scan", "android": "https://dc.lft.to/lastmile_qr_scan"}, "bike_id": "cdbc5a7f14d09813c7c53a37a62d34b2", "fusion_lat": 0.0}, {"lon": -77.04296216666667, "name": "e580031259d21911c858a40ddcc80a3f", "is_disabled": 0, "type": "electric_scooter", "is_reserved": 0, "fusion_lon": 0.0, "lat": 38.922596666666664, "rental_uris": {"ios": "https://dc.lft.to/lastmile_qr_scan", "android": "https://dc.lft.to/lastmile_qr_scan"}, "bike_id": "e580031259d21911c858a40ddcc80a3f", "fusion_lat": 0.0}, {"lon": -76.98092583333333, "name": "fa80f1e7319631807ad7c9b528626002", "is_disabled": 0, "type": "electric_scooter", "is_reserved": 0, "fusion_lon": 0.0, "lat": 38.896051666666665, "rental_uris": {"ios": "https://dc.lft.to/lastmile_qr_scan", "android": "https://dc.lft.to/lastmile_qr_scan"}, "bike_id": "fa80f1e7319631807ad7c9b528626002", "fusion_lat": 0.0}, {"lon": -77.0266595, "name": "8872558ae96768718952a16d66394424", "is_disabled": 0, "type": "electric_scooter", "is_reserved": 0, "fusion_lon": 0.0, "lat": 38.88110066666667, "rental_uris": {"ios": "https://dc.lft.to/lastmile_qr_scan", "android": "https://dc.lft.to/lastmile_qr_scan"}, "bike_id": "8872558ae96768718952a16d66394424", "fusion_lat": 0.0}, {"lon": -77.03047633333334, "name": "cac96674dad866969b50ff90b25df4e6", "is_disabled": 0, "type": "electric_scooter", "is_reserved": 0, "fusion_lon": 0.0, "lat": 38.90983333333333, "rental_uris": {"ios": "https://dc.lft.to/lastmile_qr_scan", "android": "https://dc.lft.to/lastmile_qr_scan"}, "bike_id": "cac96674dad866969b50ff90b25df4e6", "fusion_lat": 0.0}, {"lon": -76.9836055, "name": "a7378c5efd99cd5623029e54f6849e4c", "is_disabled": 0, "type": "electric_scooter", "is_reserved": 0, "fusion_lon": 0.0, "lat": 38.887311, "rental_uris": {"ios": "https://dc.lft.to/lastmile_qr_scan", "android": "https://dc.lft.to/lastmile_qr_scan"}, "bike_id": "a7378c5efd99cd5623029e54f6849e4c", "fusion_lat": 0.0}, {"lon": -77.005414, "name": "93483c16e8d54306479eb07f5cda1b10", "is_disabled": 0, "type": "electric_scooter", "is_reserved": 0, "fusion_lon": 0.0, "lat": 38.87545983333333, "rental_uris": {"ios": "https://dc.lft.to/lastmile_qr_scan", "android": "https://dc.lft.to/lastmile_qr_scan"}, "bike_id": "93483c16e8d54306479eb07f5cda1b10", "fusion_lat": 0.0}, {"lon": -77.02736883333333, "name": "ebe4d19871107393c48987b961b7799c", "is_disabled": 0, "type": "electric_scooter", "is_reserved": 0, "fusion_lon": 0.0, "lat": 38.928282333333335, "rental_uris": {"ios": "https://dc.lft.to/lastmile_qr_scan", "android": "https://dc.lft.to/lastmile_qr_scan"}, "bike_id": "ebe4d19871107393c48987b961b7799c", "fusion_lat": 0.0}, {"lon": -77.08126966666667, "name": "937acfc4f82e4b1b9e96586bdd298b58", "is_disabled": 0, "type": "electric_scooter", "is_reserved": 0, "fusion_lon": 0.0, "lat": 38.90964366666667, "rental_uris": {"ios": "https://dc.lft.to/lastmile_qr_scan", "android": "https://dc.lft.to/lastmile_qr_scan"}, "bike_id": "937acfc4f82e4b1b9e96586bdd298b58", "fusion_lat": 0.0}, {"lon": -77.01221116666666, "name": "aaf44b1dcb4745f66b3722e6b7b4b804", "is_disabled": 0, "type": "electric_scooter", "is_reserved": 0, "fusion_lon": 0.0, "lat": 38.92513616666667, "rental_uris": {"ios": "https://dc.lft.to/lastmile_qr_scan", "android": "https://dc.lft.to/lastmile_qr_scan"}, "bike_id": "aaf44b1dcb4745f66b3722e6b7b4b804", "fusion_lat": 0.0}, {"lon": -77.0440795, "name": "679dbd2099e4a79022e8f46e92f804e3", "is_disabled": 0, "type": "electric_scooter", "is_reserved": 0, "fusion_lon": 0.0, "lat": 38.929513666666665, "rental_uris": {"ios": "https://dc.lft.to/lastmile_qr_scan", "android": "https://dc.lft.to/lastmile_qr_scan"}, "bike_id": "679dbd2099e4a79022e8f46e92f804e3", "fusion_lat": 0.0}, {"lon": -76.98629083333333, "name": "b21ee32ef29d839b3d5a60c8fffbcadb", "is_disabled": 0, "type": "electric_scooter", "is_reserved": 0, "fusion_lon": 0.0, "lat": 38.905866, "rental_uris": {"ios": "https://dc.lft.to/lastmile_qr_scan", "android": "https://dc.lft.to/lastmile_qr_scan"}, "bike_id": "b21ee32ef29d839b3d5a60c8fffbcadb", "fusion_lat": 0.0}, {"lon": -76.96543483333333, "name": "0c8defd689bb1597ca3fb332a9ebe638", "is_disabled": 0, "type": "electric_scooter", "is_reserved": 0, "fusion_lon": 0.0, "lat": 38.87885816666667, "rental_uris": {"ios": "https://dc.lft.to/lastmile_qr_scan", "android": "https://dc.lft.to/lastmile_qr_scan"}, "bike_id": "0c8defd689bb1597ca3fb332a9ebe638", "fusion_lat": 0.0}, {"lon": -77.022258, "name": "a5b94c42a2b721c18987cdbd77f87bc3", "is_disabled": 0, "type": "electric_scooter", "is_reserved": 0, "fusion_lon": 0.0, "lat": 38.914077166666665, "rental_uris": {"ios": "https://dc.lft.to/lastmile_qr_scan", "android": "https://dc.lft.to/lastmile_qr_scan"}, "bike_id": "a5b94c42a2b721c18987cdbd77f87bc3", "fusion_lat": 0.0}, {"lon": -77.02157533333333, "name": "3cd2a5e0c9184d998ea8981cab7185a0", "is_disabled": 0, "type": "electric_scooter", "is_reserved": 0, "fusion_lon": 0.0, "lat": 38.897358, "rental_uris": {"ios": "https://dc.lft.to/lastmile_qr_scan", "android": "https://dc.lft.to/lastmile_qr_scan"}, "bike_id": "3cd2a5e0c9184d998ea8981cab7185a0", "fusion_lat": 0.0}, {"lon": -77.00213083333334, "name": "f236ec04c2a8b2343c9414e570443301", "is_disabled": 0, "type": "electric_scooter", "is_reserved": 0, "fusion_lon": 0.0, "lat": 38.9012665, "rental_uris": {"ios": "https://dc.lft.to/lastmile_qr_scan", "android": "https://dc.lft.to/lastmile_qr_scan"}, "bike_id": "f236ec04c2a8b2343c9414e570443301", "fusion_lat": 0.0}, {"lon": -77.01915566666666, "name": "9a169784814fcab56646a5a8dbf0d772", "is_disabled": 0, "type": "electric_scooter", "is_reserved": 0, "fusion_lon": 0.0, "lat": 38.92947083333333, "rental_uris": {"ios": "https://dc.lft.to/lastmile_qr_scan", "android": "https://dc.lft.to/lastmile_qr_scan"}, "bike_id": "9a169784814fcab56646a5a8dbf0d772", "fusion_lat": 0.0}, {"lon": -77.04699566666666, "name": "9302a0b7ded59e2d954f372c2b0570ee", "is_disabled": 0, "type": "electric_scooter", "is_reserved": 0, "fusion_lon": 0.0, "lat": 38.921604333333335, "rental_uris": {"ios": "https://dc.lft.to/lastmile_qr_scan", "android": "https://dc.lft.to/lastmile_qr_scan"}, "bike_id": "9302a0b7ded59e2d954f372c2b0570ee", "fusion_lat": 0.0}, {"lon": -77.02187216666667, "name": "2bb224ab2b4c1c72cdb6b19e70a74313", "is_disabled": 0, "type": "electric_scooter", "is_reserved": 0, "fusion_lon": 0.0, "lat": 38.916600333333335, "rental_uris": {"ios": "https://dc.lft.to/lastmile_qr_scan", "android": "https://dc.lft.to/lastmile_qr_scan"}, "bike_id": "2bb224ab2b4c1c72cdb6b19e70a74313", "fusion_lat": 0.0}, {"lon": -77.05426133333333, "name": "2d80b746aba501ef5ab26e641933a78c", "is_disabled": 0, "type": "electric_scooter", "is_reserved": 0, "fusion_lon": 0.0, "lat": 38.923529333333335, "rental_uris": {"ios": "https://dc.lft.to/lastmile_qr_scan", "android": "https://dc.lft.to/lastmile_qr_scan"}, "bike_id": "2d80b746aba501ef5ab26e641933a78c", "fusion_lat": 0.0}, {"lon": -77.02211483333333, "name": "cff185fd079b8fb8e3a282d47b19d4f8", "is_disabled": 0, "type": "electric_scooter", "is_reserved": 0, "fusion_lon": 0.0, "lat": 38.930056666666665, "rental_uris": {"ios": "https://dc.lft.to/lastmile_qr_scan", "android": "https://dc.lft.to/lastmile_qr_scan"}, "bike_id": "cff185fd079b8fb8e3a282d47b19d4f8", "fusion_lat": 0.0}, {"lon": -77.03348616666666, "name": "fc82f0aadea9e174774473d9c0f3b0b0", "is_disabled": 0, "type": "electric_scooter", "is_reserved": 0, "fusion_lon": 0.0, "lat": 38.903291333333335, "rental_uris": {"ios": "https://dc.lft.to/lastmile_qr_scan", "android": "https://dc.lft.to/lastmile_qr_scan"}, "bike_id": "fc82f0aadea9e174774473d9c0f3b0b0", "fusion_lat": 0.0}, {"lon": -77.052357, "name": "b5bed642ce75d8572d0d14b2ef121416", "is_disabled": 0, "type": "electric_scooter", "is_reserved": 0, "fusion_lon": 0.0, "lat": 38.9246775, "rental_uris": {"ios": "https://dc.lft.to/lastmile_qr_scan", "android": "https://dc.lft.to/lastmile_qr_scan"}, "bike_id": "b5bed642ce75d8572d0d14b2ef121416", "fusion_lat": 0.0}, {"lon": -77.01858883333334, "name": "6486308ba110d6f8d938104016f145bd", "is_disabled": 0, "type": "electric_scooter", "is_reserved": 0, "fusion_lon": 0.0, "lat": 38.90095383333333, "rental_uris": {"ios": "https://dc.lft.to/lastmile_qr_scan", "android": "https://dc.lft.to/lastmile_qr_scan"}, "bike_id": "6486308ba110d6f8d938104016f145bd", "fusion_lat": 0.0}, {"lon": -76.99805483333333, "name": "00ecf61caa9cbe2061db6f9b37294646", "is_disabled": 0, "type": "electric_scooter", "is_reserved": 0, "fusion_lon": 0.0, "lat": 38.896092833333334, "rental_uris": {"ios": "https://dc.lft.to/lastmile_qr_scan", "android": "https://dc.lft.to/lastmile_qr_scan"}, "bike_id": "00ecf61caa9cbe2061db6f9b37294646", "fusion_lat": 0.0}, {"lon": -77.00801533333333, "name": "c1abbf9d2eaa4b349fdc77d49611a140", "is_disabled": 0, "type": "electric_scooter", "is_reserved": 0, "fusion_lon": 0.0, "lat": 38.89717433333333, "rental_uris": {"ios": "https://dc.lft.to/lastmile_qr_scan", "android": "https://dc.lft.to/lastmile_qr_scan"}, "bike_id": "c1abbf9d2eaa4b349fdc77d49611a140", "fusion_lat": 0.0}, {"lon": -77.04125166666667, "name": "0bf9043aecaf3d6b242679344faec107", "is_disabled": 0, "type": "electric_scooter", "is_reserved": 0, "fusion_lon": 0.0, "lat": 38.92122166666667, "rental_uris": {"ios": "https://dc.lft.to/lastmile_qr_scan", "android": "https://dc.lft.to/lastmile_qr_scan"}, "bike_id": "0bf9043aecaf3d6b242679344faec107", "fusion_lat": 0.0}, {"lon": -77.00060383333333, "name": "fe1e974894f9f0f65bff2a089017ac55", "is_disabled": 0, "type": "electric_scooter", "is_reserved": 0, "fusion_lon": 0.0, "lat": 38.875306333333334, "rental_uris": {"ios": "https://dc.lft.to/lastmile_qr_scan", "android": "https://dc.lft.to/lastmile_qr_scan"}, "bike_id": "fe1e974894f9f0f65bff2a089017ac55", "fusion_lat": 0.0}, {"lon": -77.02191816666667, "name": "294353f4a4017e68b51bd8a726a8c66c", "is_disabled": 0, "type": "electric_scooter", "is_reserved": 0, "fusion_lon": 0.0, "lat": 38.91482116666667, "rental_uris": {"ios": "https://dc.lft.to/lastmile_qr_scan", "android": "https://dc.lft.to/lastmile_qr_scan"}, "bike_id": "294353f4a4017e68b51bd8a726a8c66c", "fusion_lat": 0.0}, {"lon": -77.07139066666667, "name": "e768f7f7006ebfc5c01cd3455fc203b5", "is_disabled": 0, "type": "electric_scooter", "is_reserved": 0, "fusion_lon": 0.0, "lat": 38.90872566666667, "rental_uris": {"ios": "https://dc.lft.to/lastmile_qr_scan", "android": "https://dc.lft.to/lastmile_qr_scan"}, "bike_id": "e768f7f7006ebfc5c01cd3455fc203b5", "fusion_lat": 0.0}, {"lon": -77.01617416666667, "name": "9e275303548460b7e7685906d7faf5f4", "is_disabled": 0, "type": "electric_scooter", "is_reserved": 0, "fusion_lon": 0.0, "lat": 38.912721166666664, "rental_uris": {"ios": "https://dc.lft.to/lastmile_qr_scan", "android": "https://dc.lft.to/lastmile_qr_scan"}, "bike_id": "9e275303548460b7e7685906d7faf5f4", "fusion_lat": 0.0}, {"lon": -77.03387516666666, "name": "b3a110e09aeaf9edf728c33a802f8fd3", "is_disabled": 0, "type": "electric_scooter", "is_reserved": 0, "fusion_lon": 0.0, "lat": 38.924653, "rental_uris": {"ios": "https://dc.lft.to/lastmile_qr_scan", "android": "https://dc.lft.to/lastmile_qr_scan"}, "bike_id": "b3a110e09aeaf9edf728c33a802f8fd3", "fusion_lat": 0.0}, {"lon": -76.91802816666667, "name": "85b0f510a268bb917317649b1d445e5b", "is_disabled": 0, "type": "electric_bike", "is_reserved": 0, "fusion_lon": 0.0, "lat": 39.00003566666667, "rental_uris": {"ios": "https://dc.lft.to/lastmile_qr_scan", "android": "https://dc.lft.to/lastmile_qr_scan"}, "bike_id": "85b0f510a268bb917317649b1d445e5b", "fusion_lat": 0.0}, {"lon": -76.92945133333333, "name": "8b2f8831e29d91c2e1c78431e4382768", "is_disabled": 0, "type": "electric_scooter", "is_reserved": 0, "fusion_lon": 0.0, "lat": 38.90346616666667, "rental_uris": {"ios": "https://dc.lft.to/lastmile_qr_scan", "android": "https://dc.lft.to/lastmile_qr_scan"}, "bike_id": "8b2f8831e29d91c2e1c78431e4382768", "fusion_lat": 0.0}, {"lon": -77.06601966666666, "name": "e3545fe6ac4660f6099ce2cb99cea70b", "is_disabled": 0, "type": "electric_scooter", "is_reserved": 0, "fusion_lon": 0.0, "lat": 38.912253666666665, "rental_uris": {"ios": "https://dc.lft.to/lastmile_qr_scan", "android": "https://dc.lft.to/lastmile_qr_scan"}, "bike_id": "e3545fe6ac4660f6099ce2cb99cea70b", "fusion_lat": 0.0}, {"lon": -77.017935, "name": "d6ec9dfc020ec3412b931520838af4f3", "is_disabled": 0, "type": "electric_scooter", "is_reserved": 0, "fusion_lon": 0.0, "lat": 38.9199165, "rental_uris": {"ios": "https://dc.lft.to/lastmile_qr_scan", "android": "https://dc.lft.to/lastmile_qr_scan"}, "bike_id": "d6ec9dfc020ec3412b931520838af4f3", "fusion_lat": 0.0}, {"lon": -76.9976225, "name": "ba86ed8853d52681ef974cba81e13fd1", "is_disabled": 0, "type": "electric_scooter", "is_reserved": 0, "fusion_lon": 0.0, "lat": 38.88121783333333, "rental_uris": {"ios": "https://dc.lft.to/lastmile_qr_scan", "android": "https://dc.lft.to/lastmile_qr_scan"}, "bike_id": "ba86ed8853d52681ef974cba81e13fd1", "fusion_lat": 0.0}, {"lon": -77.00954983333334, "name": "8724a152413427d8cbe5fe99f8a72917", "is_disabled": 0, "type": "electric_scooter", "is_reserved": 0, "fusion_lon": 0.0, "lat": 38.876318, "rental_uris": {"ios": "https://dc.lft.to/lastmile_qr_scan", "android": "https://dc.lft.to/lastmile_qr_scan"}, "bike_id": "8724a152413427d8cbe5fe99f8a72917", "fusion_lat": 0.0}, {"lon": -77.0068505, "name": "281a0cc0fbc8a4db7d93de72bb95709e", "is_disabled": 0, "type": "electric_scooter", "is_reserved": 0, "fusion_lon": 0.0, "lat": 38.8717235, "rental_uris": {"ios": "https://dc.lft.to/lastmile_qr_scan", "android": "https://dc.lft.to/lastmile_qr_scan"}, "bike_id": "281a0cc0fbc8a4db7d93de72bb95709e", "fusion_lat": 0.0}, {"lon": -77.017679, "name": "fb748838b1f1f98840ecc0c31f4b960e", "is_disabled": 0, "type": "electric_scooter", "is_reserved": 0, "fusion_lon": 0.0, "lat": 38.88139833333334, "rental_uris": {"ios": "https://dc.lft.to/lastmile_qr_scan", "android": "https://dc.lft.to/lastmile_qr_scan"}, "bike_id": "fb748838b1f1f98840ecc0c31f4b960e", "fusion_lat": 0.0}, {"lon": -76.985398, "name": "b992cf02a1a2cf901c096a578d9808cb", "is_disabled": 0, "type": "electric_scooter", "is_reserved": 0, "fusion_lon": 0.0, "lat": 38.88551833333333, "rental_uris": {"ios": "https://dc.lft.to/lastmile_qr_scan", "android": "https://dc.lft.to/lastmile_qr_scan"}, "bike_id": "b992cf02a1a2cf901c096a578d9808cb", "fusion_lat": 0.0}, {"lon": -77.057622, "name": "b22490c2e01f9e289b22fdf74a252bff", "is_disabled": 0, "type": "electric_scooter", "is_reserved": 0, "fusion_lon": 0.0, "lat": 38.92494416666667, "rental_uris": {"ios": "https://dc.lft.to/lastmile_qr_scan", "android": "https://dc.lft.to/lastmile_qr_scan"}, "bike_id": "b22490c2e01f9e289b22fdf74a252bff", "fusion_lat": 0.0}, {"lon": -77.0364475, "name": "e317595bb6aa53f8f6544b63157db1a7", "is_disabled": 0, "type": "electric_scooter", "is_reserved": 0, "fusion_lon": 0.0, "lat": 38.91872816666667, "rental_uris": {"ios": "https://dc.lft.to/lastmile_qr_scan", "android": "https://dc.lft.to/lastmile_qr_scan"}, "bike_id": "e317595bb6aa53f8f6544b63157db1a7", "fusion_lat": 0.0}, {"lon": -77.022674, "name": "51e8edef14d092ff920ffbc4a56cebfd", "is_disabled": 0, "type": "electric_scooter", "is_reserved": 0, "fusion_lon": 0.0, "lat": 38.897179333333334, "rental_uris": {"ios": "https://dc.lft.to/lastmile_qr_scan", "android": "https://dc.lft.to/lastmile_qr_scan"}, "bike_id": "51e8edef14d092ff920ffbc4a56cebfd", "fusion_lat": 0.0}, {"lon": -77.02309683333333, "name": "c74599d48dc4da038fa4ffbb33f8282f", "is_disabled": 0, "type": "electric_scooter", "is_reserved": 0, "fusion_lon": 0.0, "lat": 38.90780766666666, "rental_uris": {"ios": "https://dc.lft.to/lastmile_qr_scan", "android": "https://dc.lft.to/lastmile_qr_scan"}, "bike_id": "c74599d48dc4da038fa4ffbb33f8282f", "fusion_lat": 0.0}, {"lon": -76.93394933333333, "name": "de8328e27f133920e557e3e09dc85e69", "is_disabled": 0, "type": "electric_scooter", "is_reserved": 0, "fusion_lon": 0.0, "lat": 38.899076666666666, "rental_uris": {"ios": "https://dc.lft.to/lastmile_qr_scan", "android": "https://dc.lft.to/lastmile_qr_scan"}, "bike_id": "de8328e27f133920e557e3e09dc85e69", "fusion_lat": 0.0}, {"lon": -77.0658805, "name": "a499f68743bb8085f59659a995d63621", "is_disabled": 0, "type": "electric_scooter", "is_reserved": 0, "fusion_lon": 0.0, "lat": 38.9121575, "rental_uris": {"ios": "https://dc.lft.to/lastmile_qr_scan", "android": "https://dc.lft.to/lastmile_qr_scan"}, "bike_id": "a499f68743bb8085f59659a995d63621", "fusion_lat": 0.0}, {"lon": -77.04084383333333, "name": "dc1a5a92852d6f67fbbdab06f76822a0", "is_disabled": 0, "type": "electric_scooter", "is_reserved": 0, "fusion_lon": 0.0, "lat": 38.90549883333333, "rental_uris": {"ios": "https://dc.lft.to/lastmile_qr_scan", "android": "https://dc.lft.to/lastmile_qr_scan"}, "bike_id": "dc1a5a92852d6f67fbbdab06f76822a0", "fusion_lat": 0.0}, {"lon": -77.07101016666667, "name": "6046f06db7903bf8f84e7182b8bd70fa", "is_disabled": 0, "type": "electric_scooter", "is_reserved": 0, "fusion_lon": 0.0, "lat": 38.908606666666664, "rental_uris": {"ios": "https://dc.lft.to/lastmile_qr_scan", "android": "https://dc.lft.to/lastmile_qr_scan"}, "bike_id": "6046f06db7903bf8f84e7182b8bd70fa", "fusion_lat": 0.0}, {"lon": -77.01153683333334, "name": "3521e0f385c340c99a8a800910dbe889", "is_disabled": 0, "type": "electric_bike", "is_reserved": 0, "fusion_lon": 0.0, "lat": 38.911739, "rental_uris": {"ios": "https://dc.lft.to/lastmile_qr_scan", "android": "https://dc.lft.to/lastmile_qr_scan"}, "bike_id": "3521e0f385c340c99a8a800910dbe889", "fusion_lat": 0.0}, {"lon": -77.04134866666666, "name": "3739925063df4dd4269b992a17dd871c", "is_disabled": 0, "type": "electric_scooter", "is_reserved": 0, "fusion_lon": 0.0, "lat": 38.921876166666664, "rental_uris": {"ios": "https://dc.lft.to/lastmile_qr_scan", "android": "https://dc.lft.to/lastmile_qr_scan"}, "bike_id": "3739925063df4dd4269b992a17dd871c", "fusion_lat": 0.0}, {"lon": -77.040826, "name": "839a6d63765664a781ad60f83cfad55f", "is_disabled": 0, "type": "electric_scooter", "is_reserved": 0, "fusion_lon": 0.0, "lat": 38.89740033333333, "rental_uris": {"ios": "https://dc.lft.to/lastmile_qr_scan", "android": "https://dc.lft.to/lastmile_qr_scan"}, "bike_id": "839a6d63765664a781ad60f83cfad55f", "fusion_lat": 0.0}, {"lon": -77.0101365, "name": "80bb946fd5a59934ecfa30f1f4bcd6f8", "is_disabled": 0, "type": "electric_scooter", "is_reserved": 0, "fusion_lon": 0.0, "lat": 38.914091, "rental_uris": {"ios": "https://dc.lft.to/lastmile_qr_scan", "android": "https://dc.lft.to/lastmile_qr_scan"}, "bike_id": "80bb946fd5a59934ecfa30f1f4bcd6f8", "fusion_lat": 0.0}, {"lon": -76.9415775, "name": "7b2a28fe93c458070e093cf555cc15ee", "is_disabled": 0, "type": "electric_bike", "is_reserved": 0, "fusion_lon": 0.0, "lat": 38.865526833333334, "rental_uris": {"ios": "https://dc.lft.to/lastmile_qr_scan", "android": "https://dc.lft.to/lastmile_qr_scan"}, "bike_id": "7b2a28fe93c458070e093cf555cc15ee", "fusion_lat": 0.0}, {"lon": -77.02169083333334, "name": "5519736d0cf2bb0c223a658f399c1b71", "is_disabled": 0, "type": "electric_scooter", "is_reserved": 0, "fusion_lon": 0.0, "lat": 38.926134166666664, "rental_uris": {"ios": "https://dc.lft.to/lastmile_qr_scan", "android": "https://dc.lft.to/lastmile_qr_scan"}, "bike_id": "5519736d0cf2bb0c223a658f399c1b71", "fusion_lat": 0.0}, {"lon": -77.08491416666666, "name": "d41729277d634d696790efb41b610429", "is_disabled": 0, "type": "electric_scooter", "is_reserved": 0, "fusion_lon": 0.0, "lat": 38.958902333333334, "rental_uris": {"ios": "https://dc.lft.to/lastmile_qr_scan", "android": "https://dc.lft.to/lastmile_qr_scan"}, "bike_id": "d41729277d634d696790efb41b610429", "fusion_lat": 0.0}, {"lon": -77.02053333333333, "name": "290b0cbfe9a7fd61487fae01c067e4f4", "is_disabled": 0, "type": "electric_scooter", "is_reserved": 0, "fusion_lon": 0.0, "lat": 38.92175183333333, "rental_uris": {"ios": "https://dc.lft.to/lastmile_qr_scan", "android": "https://dc.lft.to/lastmile_qr_scan"}, "bike_id": "290b0cbfe9a7fd61487fae01c067e4f4", "fusion_lat": 0.0}, {"lon": -77.02851116666666, "name": "f98849be7f793ac7cf4c697435070993", "is_disabled": 0, "type": "electric_scooter", "is_reserved": 0, "fusion_lon": 0.0, "lat": 38.93521533333333, "rental_uris": {"ios": "https://dc.lft.to/lastmile_qr_scan", "android": "https://dc.lft.to/lastmile_qr_scan"}, "bike_id": "f98849be7f793ac7cf4c697435070993", "fusion_lat": 0.0}, {"lon": -77.0218815, "name": "8abd1d443352fc6afa25f30bc4a10b5e", "is_disabled": 0, "type": "electric_scooter", "is_reserved": 0, "fusion_lon": 0.0, "lat": 38.91434783333333, "rental_uris": {"ios": "https://dc.lft.to/lastmile_qr_scan", "android": "https://dc.lft.to/lastmile_qr_scan"}, "bike_id": "8abd1d443352fc6afa25f30bc4a10b5e", "fusion_lat": 0.0}, {"lon": -77.01837266666666, "name": "9106d66d81919b7cb7b85bd89d9d599a", "is_disabled": 0, "type": "electric_scooter", "is_reserved": 0, "fusion_lon": 0.0, "lat": 38.903942, "rental_uris": {"ios": "https://dc.lft.to/lastmile_qr_scan", "android": "https://dc.lft.to/lastmile_qr_scan"}, "bike_id": "9106d66d81919b7cb7b85bd89d9d599a", "fusion_lat": 0.0}, {"lon": -77.04128583333333, "name": "38cc117a33a48177fad1885c5315321d", "is_disabled": 0, "type": "electric_scooter", "is_reserved": 0, "fusion_lon": 0.0, "lat": 38.91889616666667, "rental_uris": {"ios": "https://dc.lft.to/lastmile_qr_scan", "android": "https://dc.lft.to/lastmile_qr_scan"}, "bike_id": "38cc117a33a48177fad1885c5315321d", "fusion_lat": 0.0}, {"lon": -77.03281783333334, "name": "9fda4b73143a599142537e053e3e5370", "is_disabled": 0, "type": "electric_scooter", "is_reserved": 0, "fusion_lon": 0.0, "lat": 38.928421166666666, "rental_uris": {"ios": "https://dc.lft.to/lastmile_qr_scan", "android": "https://dc.lft.to/lastmile_qr_scan"}, "bike_id": "9fda4b73143a599142537e053e3e5370", "fusion_lat": 0.0}, {"lon": -77.02206083333333, "name": "9bc230f4ad527bbc439d5e988cded69a", "is_disabled": 0, "type": "electric_scooter", "is_reserved": 0, "fusion_lon": 0.0, "lat": 38.910051, "rental_uris": {"ios": "https://dc.lft.to/lastmile_qr_scan", "android": "https://dc.lft.to/lastmile_qr_scan"}, "bike_id": "9bc230f4ad527bbc439d5e988cded69a", "fusion_lat": 0.0}, {"lon": -77.02723283333333, "name": "52c2f1efbaaf16fb928b74c83c88fb1e", "is_disabled": 0, "type": "electric_scooter", "is_reserved": 0, "fusion_lon": 0.0, "lat": 38.89996516666667, "rental_uris": {"ios": "https://dc.lft.to/lastmile_qr_scan", "android": "https://dc.lft.to/lastmile_qr_scan"}, "bike_id": "52c2f1efbaaf16fb928b74c83c88fb1e", "fusion_lat": 0.0}, {"lon": -77.04043716666666, "name": "56bbdb7368302c32bcd4fe3daa24977c", "is_disabled": 0, "type": "electric_scooter", "is_reserved": 0, "fusion_lon": 0.0, "lat": 38.901523833333336, "rental_uris": {"ios": "https://dc.lft.to/lastmile_qr_scan", "android": "https://dc.lft.to/lastmile_qr_scan"}, "bike_id": "56bbdb7368302c32bcd4fe3daa24977c", "fusion_lat": 0.0}, {"lon": -77.04700633333333, "name": "b3f8e982fbc72742434bb32e6d6aa4b8", "is_disabled": 0, "type": "electric_scooter", "is_reserved": 0, "fusion_lon": 0.0, "lat": 38.921586166666664, "rental_uris": {"ios": "https://dc.lft.to/lastmile_qr_scan", "android": "https://dc.lft.to/lastmile_qr_scan"}, "bike_id": "b3f8e982fbc72742434bb32e6d6aa4b8", "fusion_lat": 0.0}, {"lon": -77.023731, "name": "0b96f7e3a7f03925482ac1a76de7284b", "is_disabled": 0, "type": "electric_scooter", "is_reserved": 0, "fusion_lon": 0.0, "lat": 38.92055366666666, "rental_uris": {"ios": "https://dc.lft.to/lastmile_qr_scan", "android": "https://dc.lft.to/lastmile_qr_scan"}, "bike_id": "0b96f7e3a7f03925482ac1a76de7284b", "fusion_lat": 0.0}, {"lon": -77.0018125, "name": "f30821635363b8ade5e953b60ffac403", "is_disabled": 0, "type": "electric_scooter", "is_reserved": 0, "fusion_lon": 0.0, "lat": 38.888673833333335, "rental_uris": {"ios": "https://dc.lft.to/lastmile_qr_scan", "android": "https://dc.lft.to/lastmile_qr_scan"}, "bike_id": "f30821635363b8ade5e953b60ffac403", "fusion_lat": 0.0}, {"lon": -76.99851883333334, "name": "e831d932407fff7bd14bba7b4e1970c4", "is_disabled": 0, "type": "electric_scooter", "is_reserved": 0, "fusion_lon": 0.0, "lat": 38.900006, "rental_uris": {"ios": "https://dc.lft.to/lastmile_qr_scan", "android": "https://dc.lft.to/lastmile_qr_scan"}, "bike_id": "e831d932407fff7bd14bba7b4e1970c4", "fusion_lat": 0.0}, {"lon": -77.02194733333333, "name": "2732cb784fad3aec3930cee08b4daa8d", "is_disabled": 0, "type": "electric_scooter", "is_reserved": 0, "fusion_lon": 0.0, "lat": 38.887124, "rental_uris": {"ios": "https://dc.lft.to/lastmile_qr_scan", "android": "https://dc.lft.to/lastmile_qr_scan"}, "bike_id": "2732cb784fad3aec3930cee08b4daa8d", "fusion_lat": 0.0}, {"lon": -77.02951666666667, "name": "28e51b8c53a3de20e05758125de85def", "is_disabled": 0, "type": "electric_scooter", "is_reserved": 0, "fusion_lon": 0.0, "lat": 38.92771, "rental_uris": {"ios": "https://dc.lft.to/lastmile_qr_scan", "android": "https://dc.lft.to/lastmile_qr_scan"}, "bike_id": "28e51b8c53a3de20e05758125de85def", "fusion_lat": 0.0}, {"lon": -76.98547416666666, "name": "90ca1153ccbbd5d289ae0c1d81624dac", "is_disabled": 0, "type": "electric_scooter", "is_reserved": 0, "fusion_lon": 0.0, "lat": 38.91486316666666, "rental_uris": {"ios": "https://dc.lft.to/lastmile_qr_scan", "android": "https://dc.lft.to/lastmile_qr_scan"}, "bike_id": "90ca1153ccbbd5d289ae0c1d81624dac", "fusion_lat": 0.0}, {"lon": -77.05887216666666, "name": "ac9c641aff199e7ff15948d23b7e4638", "is_disabled": 0, "type": "electric_scooter", "is_reserved": 0, "fusion_lon": 0.0, "lat": 38.935616333333336, "rental_uris": {"ios": "https://dc.lft.to/lastmile_qr_scan", "android": "https://dc.lft.to/lastmile_qr_scan"}, "bike_id": "ac9c641aff199e7ff15948d23b7e4638", "fusion_lat": 0.0}, {"lon": -77.02955833333333, "name": "0eefc7b7fb84ee73f5bf58ababeb7237", "is_disabled": 0, "type": "electric_scooter", "is_reserved": 0, "fusion_lon": 0.0, "lat": 38.916843666666665, "rental_uris": {"ios": "https://dc.lft.to/lastmile_qr_scan", "android": "https://dc.lft.to/lastmile_qr_scan"}, "bike_id": "0eefc7b7fb84ee73f5bf58ababeb7237", "fusion_lat": 0.0}, {"lon": -77.03470316666667, "name": "cdfacf32341a8ded86110a3e81514c7d", "is_disabled": 0, "type": "electric_scooter", "is_reserved": 0, "fusion_lon": 0.0, "lat": 38.90959266666667, "rental_uris": {"ios": "https://dc.lft.to/lastmile_qr_scan", "android": "https://dc.lft.to/lastmile_qr_scan"}, "bike_id": "cdfacf32341a8ded86110a3e81514c7d", "fusion_lat": 0.0}, {"lon": -77.026406, "name": "f8e1c1f93ffb8806ad10f10c8f526850", "is_disabled": 0, "type": "electric_scooter", "is_reserved": 0, "fusion_lon": 0.0, "lat": 38.91103366666667, "rental_uris": {"ios": "https://dc.lft.to/lastmile_qr_scan", "android": "https://dc.lft.to/lastmile_qr_scan"}, "bike_id": "f8e1c1f93ffb8806ad10f10c8f526850", "fusion_lat": 0.0}, {"lon": -77.02231133333333, "name": "a81c8653df792c62550768c3f41fb5d2", "is_disabled": 0, "type": "electric_scooter", "is_reserved": 0, "fusion_lon": 0.0, "lat": 38.9247915, "rental_uris": {"ios": "https://dc.lft.to/lastmile_qr_scan", "android": "https://dc.lft.to/lastmile_qr_scan"}, "bike_id": "a81c8653df792c62550768c3f41fb5d2", "fusion_lat": 0.0}, {"lon": -77.00577683333333, "name": "438b15c8be4b548e258ff93c50c5bef8", "is_disabled": 0, "type": "electric_scooter", "is_reserved": 0, "fusion_lon": 0.0, "lat": 38.87207566666667, "rental_uris": {"ios": "https://dc.lft.to/lastmile_qr_scan", "android": "https://dc.lft.to/lastmile_qr_scan"}, "bike_id": "438b15c8be4b548e258ff93c50c5bef8", "fusion_lat": 0.0}, {"lon": -77.0028015, "name": "5cbc59761b7842a1d9afc7cb0cc86199", "is_disabled": 0, "type": "electric_scooter", "is_reserved": 0, "fusion_lon": 0.0, "lat": 38.8919545, "rental_uris": {"ios": "https://dc.lft.to/lastmile_qr_scan", "android": "https://dc.lft.to/lastmile_qr_scan"}, "bike_id": "5cbc59761b7842a1d9afc7cb0cc86199", "fusion_lat": 0.0}, {"lon": -77.04998333333333, "name": "9ce47efdfc2921565d310cd8e02620c2", "is_disabled": 0, "type": "electric_scooter", "is_reserved": 0, "fusion_lon": 0.0, "lat": 38.892300166666665, "rental_uris": {"ios": "https://dc.lft.to/lastmile_qr_scan", "android": "https://dc.lft.to/lastmile_qr_scan"}, "bike_id": "9ce47efdfc2921565d310cd8e02620c2", "fusion_lat": 0.0}, {"lon": -77.03188483333334, "name": "77ab858ddcd1fe13a82beab63bb7428c", "is_disabled": 0, "type": "electric_scooter", "is_reserved": 0, "fusion_lon": 0.0, "lat": 38.8923195, "rental_uris": {"ios": "https://dc.lft.to/lastmile_qr_scan", "android": "https://dc.lft.to/lastmile_qr_scan"}, "bike_id": "77ab858ddcd1fe13a82beab63bb7428c", "fusion_lat": 0.0}, {"lon": -77.02539216666666, "name": "0e88a6beb63b435af3eb2d6e729b8a8a", "is_disabled": 0, "type": "electric_scooter", "is_reserved": 0, "fusion_lon": 0.0, "lat": 38.892189333333334, "rental_uris": {"ios": "https://dc.lft.to/lastmile_qr_scan", "android": "https://dc.lft.to/lastmile_qr_scan"}, "bike_id": "0e88a6beb63b435af3eb2d6e729b8a8a", "fusion_lat": 0.0}, {"lon": -77.06877683333333, "name": "81105d35e157fb95c610f8bc9ae81e7c", "is_disabled": 0, "type": "electric_scooter", "is_reserved": 0, "fusion_lon": 0.0, "lat": 38.90515033333333, "rental_uris": {"ios": "https://dc.lft.to/lastmile_qr_scan", "android": "https://dc.lft.to/lastmile_qr_scan"}, "bike_id": "81105d35e157fb95c610f8bc9ae81e7c", "fusion_lat": 0.0}, {"lon": -77.05509733333334, "name": "f962c30215112af3a4ad4607886da94f", "is_disabled": 0, "type": "electric_scooter", "is_reserved": 0, "fusion_lon": 0.0, "lat": 38.89760966666667, "rental_uris": {"ios": "https://dc.lft.to/lastmile_qr_scan", "android": "https://dc.lft.to/lastmile_qr_scan"}, "bike_id": "f962c30215112af3a4ad4607886da94f", "fusion_lat": 0.0}, {"lon": -76.99613933333333, "name": "ad063c4ee0d483ee79fcb51e79ab4b18", "is_disabled": 0, "type": "electric_scooter", "is_reserved": 0, "fusion_lon": 0.0, "lat": 38.901404, "rental_uris": {"ios": "https://dc.lft.to/lastmile_qr_scan", "android": "https://dc.lft.to/lastmile_qr_scan"}, "bike_id": "ad063c4ee0d483ee79fcb51e79ab4b18", "fusion_lat": 0.0}, {"lon": -77.02810716666667, "name": "0c2995918712726a23b861493f264dbc", "is_disabled": 0, "type": "electric_scooter", "is_reserved": 0, "fusion_lon": 0.0, "lat": 38.92243033333333, "rental_uris": {"ios": "https://dc.lft.to/lastmile_qr_scan", "android": "https://dc.lft.to/lastmile_qr_scan"}, "bike_id": "0c2995918712726a23b861493f264dbc", "fusion_lat": 0.0}, {"lon": -77.02455183333333, "name": "d1cd7d5c92f1d573fdf5eaa32b34fd9b", "is_disabled": 0, "type": "electric_scooter", "is_reserved": 0, "fusion_lon": 0.0, "lat": 38.937415, "rental_uris": {"ios": "https://dc.lft.to/lastmile_qr_scan", "android": "https://dc.lft.to/lastmile_qr_scan"}, "bike_id": "d1cd7d5c92f1d573fdf5eaa32b34fd9b", "fusion_lat": 0.0}, {"lon": -77.04620716666666, "name": "d5e46a8037238633c8072e6fa677d5d3", "is_disabled": 0, "type": "electric_scooter", "is_reserved": 0, "fusion_lon": 0.0, "lat": 38.9234235, "rental_uris": {"ios": "https://dc.lft.to/lastmile_qr_scan", "android": "https://dc.lft.to/lastmile_qr_scan"}, "bike_id": "d5e46a8037238633c8072e6fa677d5d3", "fusion_lat": 0.0}, {"lon": -77.080476, "name": "8848afcb86834cb6fbd87edb950bb42a", "is_disabled": 0, "type": "electric_scooter", "is_reserved": 0, "fusion_lon": 0.0, "lat": 38.94872633333333, "rental_uris": {"ios": "https://dc.lft.to/lastmile_qr_scan", "android": "https://dc.lft.to/lastmile_qr_scan"}, "bike_id": "8848afcb86834cb6fbd87edb950bb42a", "fusion_lat": 0.0}, {"lon": -77.0271975, "name": "c2a71c20c3488389d3c29dfaba310636", "is_disabled": 0, "type": "electric_scooter", "is_reserved": 0, "fusion_lon": 0.0, "lat": 38.91887416666667, "rental_uris": {"ios": "https://dc.lft.to/lastmile_qr_scan", "android": "https://dc.lft.to/lastmile_qr_scan"}, "bike_id": "c2a71c20c3488389d3c29dfaba310636", "fusion_lat": 0.0}, {"lon": -77.0395235, "name": "98d5ce7cba53ec889405faab054b1698", "is_disabled": 0, "type": "electric_scooter", "is_reserved": 0, "fusion_lon": 0.0, "lat": 38.89741766666667, "rental_uris": {"ios": "https://dc.lft.to/lastmile_qr_scan", "android": "https://dc.lft.to/lastmile_qr_scan"}, "bike_id": "98d5ce7cba53ec889405faab054b1698", "fusion_lat": 0.0}, {"lon": -77.01514733333333, "name": "0e77141f400f2f834c729c35e2fd7a4e", "is_disabled": 0, "type": "electric_scooter", "is_reserved": 0, "fusion_lon": 0.0, "lat": 38.91004383333333, "rental_uris": {"ios": "https://dc.lft.to/lastmile_qr_scan", "android": "https://dc.lft.to/lastmile_qr_scan"}, "bike_id": "0e77141f400f2f834c729c35e2fd7a4e", "fusion_lat": 0.0}, {"lon": -77.07918783333334, "name": "6f1be48a6f632cb0fdb3f79ee093be67", "is_disabled": 0, "type": "electric_bike", "is_reserved": 0, "fusion_lon": 0.0, "lat": 38.838261833333334, "rental_uris": {"ios": "https://dc.lft.to/lastmile_qr_scan", "android": "https://dc.lft.to/lastmile_qr_scan"}, "bike_id": "6f1be48a6f632cb0fdb3f79ee093be67", "fusion_lat": 0.0}, {"lon": -77.04515516666666, "name": "d627d25038294aa30b5a4a0e3b54c7bb", "is_disabled": 0, "type": "electric_scooter", "is_reserved": 0, "fusion_lon": 0.0, "lat": 38.91603166666667, "rental_uris": {"ios": "https://dc.lft.to/lastmile_qr_scan", "android": "https://dc.lft.to/lastmile_qr_scan"}, "bike_id": "d627d25038294aa30b5a4a0e3b54c7bb", "fusion_lat": 0.0}, {"lon": -77.003631, "name": "4bd3fd9024b454cb30735fe28ec0ab1f", "is_disabled": 0, "type": "electric_scooter", "is_reserved": 0, "fusion_lon": 0.0, "lat": 38.911070333333335, "rental_uris": {"ios": "https://dc.lft.to/lastmile_qr_scan", "android": "https://dc.lft.to/lastmile_qr_scan"}, "bike_id": "4bd3fd9024b454cb30735fe28ec0ab1f", "fusion_lat": 0.0}, {"lon": -77.01190983333333, "name": "7f7f2b3ffcb5c57324dd67c6712a023f", "is_disabled": 0, "type": "electric_scooter", "is_reserved": 0, "fusion_lon": 0.0, "lat": 38.9169085, "rental_uris": {"ios": "https://dc.lft.to/lastmile_qr_scan", "android": "https://dc.lft.to/lastmile_qr_scan"}, "bike_id": "7f7f2b3ffcb5c57324dd67c6712a023f", "fusion_lat": 0.0}, {"lon": -77.02761083333333, "name": "e6c607fac819cbcf62f970b662341548", "is_disabled": 0, "type": "electric_scooter", "is_reserved": 0, "fusion_lon": 0.0, "lat": 38.927663833333334, "rental_uris": {"ios": "https://dc.lft.to/lastmile_qr_scan", "android": "https://dc.lft.to/lastmile_qr_scan"}, "bike_id": "e6c607fac819cbcf62f970b662341548", "fusion_lat": 0.0}, {"lon": -77.01457116666667, "name": "7b5fd617a3f2472069a4ff07fa3a0800", "is_disabled": 0, "type": "electric_scooter", "is_reserved": 0, "fusion_lon": 0.0, "lat": 38.9581355, "rental_uris": {"ios": "https://dc.lft.to/lastmile_qr_scan", "android": "https://dc.lft.to/lastmile_qr_scan"}, "bike_id": "7b5fd617a3f2472069a4ff07fa3a0800", "fusion_lat": 0.0}, {"lon": -77.11322866666667, "name": "ef92b3cecb935d43b1202fb35b9025d3", "is_disabled": 0, "type": "electric_bike", "is_reserved": 0, "fusion_lon": 0.0, "lat": 38.83146883333333, "rental_uris": {"ios": "https://dc.lft.to/lastmile_qr_scan", "android": "https://dc.lft.to/lastmile_qr_scan"}, "bike_id": "ef92b3cecb935d43b1202fb35b9025d3", "fusion_lat": 0.0}, {"lon": -77.0489975, "name": "da15198ca6ba385d79614637768232b0", "is_disabled": 0, "type": "electric_scooter", "is_reserved": 0, "fusion_lon": 0.0, "lat": 38.90060583333333, "rental_uris": {"ios": "https://dc.lft.to/lastmile_qr_scan", "android": "https://dc.lft.to/lastmile_qr_scan"}, "bike_id": "da15198ca6ba385d79614637768232b0", "fusion_lat": 0.0}, {"lon": -77.04516, "name": "f7f10763d103e3b5a2d8afe07ea03d23", "is_disabled": 0, "type": "electric_scooter", "is_reserved": 0, "fusion_lon": 0.0, "lat": 38.91967966666667, "rental_uris": {"ios": "https://dc.lft.to/lastmile_qr_scan", "android": "https://dc.lft.to/lastmile_qr_scan"}, "bike_id": "f7f10763d103e3b5a2d8afe07ea03d23", "fusion_lat": 0.0}, {"lon": -77.03758483333333, "name": "44df514031cee246431c41b5a831f60e", "is_disabled": 0, "type": "electric_scooter", "is_reserved": 0, "fusion_lon": 0.0, "lat": 38.911184666666664, "rental_uris": {"ios": "https://dc.lft.to/lastmile_qr_scan", "android": "https://dc.lft.to/lastmile_qr_scan"}, "bike_id": "44df514031cee246431c41b5a831f60e", "fusion_lat": 0.0}, {"lon": -77.0417555, "name": "039ff251106c4c62d352e339e4894b43", "is_disabled": 0, "type": "electric_scooter", "is_reserved": 0, "fusion_lon": 0.0, "lat": 38.906426333333336, "rental_uris": {"ios": "https://dc.lft.to/lastmile_qr_scan", "android": "https://dc.lft.to/lastmile_qr_scan"}, "bike_id": "039ff251106c4c62d352e339e4894b43", "fusion_lat": 0.0}, {"lon": -77.03241733333333, "name": "457e2cc8d994958a554632a0523f0fc4", "is_disabled": 0, "type": "electric_scooter", "is_reserved": 0, "fusion_lon": 0.0, "lat": 38.929937833333334, "rental_uris": {"ios": "https://dc.lft.to/lastmile_qr_scan", "android": "https://dc.lft.to/lastmile_qr_scan"}, "bike_id": "457e2cc8d994958a554632a0523f0fc4", "fusion_lat": 0.0}, {"lon": -77.23179166666667, "name": "b6690b382c0d41ea941ed0708b2e99ea", "is_disabled": 0, "type": "electric_bike", "is_reserved": 0, "fusion_lon": 0.0, "lat": 38.92891083333333, "rental_uris": {"ios": "https://dc.lft.to/lastmile_qr_scan", "android": "https://dc.lft.to/lastmile_qr_scan"}, "bike_id": "b6690b382c0d41ea941ed0708b2e99ea", "fusion_lat": 0.0}, {"lon": -77.02141683333333, "name": "3504ff1fdc968ccd3858ced8fee66e1b", "is_disabled": 0, "type": "electric_scooter", "is_reserved": 0, "fusion_lon": 0.0, "lat": 38.9330425, "rental_uris": {"ios": "https://dc.lft.to/lastmile_qr_scan", "android": "https://dc.lft.to/lastmile_qr_scan"}, "bike_id": "3504ff1fdc968ccd3858ced8fee66e1b", "fusion_lat": 0.0}, {"lon": -76.94663783333333, "name": "979e44d6514a76aa2564d0b660311906", "is_disabled": 0, "type": "electric_scooter", "is_reserved": 0, "fusion_lon": 0.0, "lat": 38.898680166666665, "rental_uris": {"ios": "https://dc.lft.to/lastmile_qr_scan", "android": "https://dc.lft.to/lastmile_qr_scan"}, "bike_id": "979e44d6514a76aa2564d0b660311906", "fusion_lat": 0.0}, {"lon": -77.01746033333333, "name": "27c216640ad9dae522ffa77867502a0e", "is_disabled": 0, "type": "electric_scooter", "is_reserved": 0, "fusion_lon": 0.0, "lat": 38.883272166666664, "rental_uris": {"ios": "https://dc.lft.to/lastmile_qr_scan", "android": "https://dc.lft.to/lastmile_qr_scan"}, "bike_id": "27c216640ad9dae522ffa77867502a0e", "fusion_lat": 0.0}, {"lon": -77.0214305, "name": "ed77c5d7955ca92f7a724fcdb2d89fb9", "is_disabled": 0, "type": "electric_scooter", "is_reserved": 0, "fusion_lon": 0.0, "lat": 38.92367433333333, "rental_uris": {"ios": "https://dc.lft.to/lastmile_qr_scan", "android": "https://dc.lft.to/lastmile_qr_scan"}, "bike_id": "ed77c5d7955ca92f7a724fcdb2d89fb9", "fusion_lat": 0.0}, {"lon": -77.0154925, "name": "ad05a18e92987bdab84f5f5dc983822b", "is_disabled": 0, "type": "electric_scooter", "is_reserved": 0, "fusion_lon": 0.0, "lat": 38.891760166666664, "rental_uris": {"ios": "https://dc.lft.to/lastmile_qr_scan", "android": "https://dc.lft.to/lastmile_qr_scan"}, "bike_id": "ad05a18e92987bdab84f5f5dc983822b", "fusion_lat": 0.0}, {"lon": -77.042971, "name": "eb85e019aaf77cb7c097ddbe9b43ccfe", "is_disabled": 0, "type": "electric_bike", "is_reserved": 0, "fusion_lon": 0.0, "lat": 39.03425083333333, "rental_uris": {"ios": "https://dc.lft.to/lastmile_qr_scan", "android": "https://dc.lft.to/lastmile_qr_scan"}, "bike_id": "eb85e019aaf77cb7c097ddbe9b43ccfe", "fusion_lat": 0.0}, {"lon": -77.00136733333333, "name": "6b463281d9f1c5fa408716b6647665b7", "is_disabled": 0, "type": "electric_scooter", "is_reserved": 0, "fusion_lon": 0.0, "lat": 38.8737625, "rental_uris": {"ios": "https://dc.lft.to/lastmile_qr_scan", "android": "https://dc.lft.to/lastmile_qr_scan"}, "bike_id": "6b463281d9f1c5fa408716b6647665b7", "fusion_lat": 0.0}, {"lon": -77.0541095, "name": "a14b4b5b854af38bac8d201bd6d61c12", "is_disabled": 0, "type": "electric_scooter", "is_reserved": 0, "fusion_lon": 0.0, "lat": 38.89860683333333, "rental_uris": {"ios": "https://dc.lft.to/lastmile_qr_scan", "android": "https://dc.lft.to/lastmile_qr_scan"}, "bike_id": "a14b4b5b854af38bac8d201bd6d61c12", "fusion_lat": 0.0}, {"lon": -77.00227283333334, "name": "e9c3b3a1c1917a4dd88698e310e231d0", "is_disabled": 0, "type": "electric_scooter", "is_reserved": 0, "fusion_lon": 0.0, "lat": 38.89198, "rental_uris": {"ios": "https://dc.lft.to/lastmile_qr_scan", "android": "https://dc.lft.to/lastmile_qr_scan"}, "bike_id": "e9c3b3a1c1917a4dd88698e310e231d0", "fusion_lat": 0.0}, {"lon": -77.0259685, "name": "a40252a8433ab81052a2610852c5cc50", "is_disabled": 0, "type": "electric_scooter", "is_reserved": 0, "fusion_lon": 0.0, "lat": 38.89618983333333, "rental_uris": {"ios": "https://dc.lft.to/lastmile_qr_scan", "android": "https://dc.lft.to/lastmile_qr_scan"}, "bike_id": "a40252a8433ab81052a2610852c5cc50", "fusion_lat": 0.0}, {"lon": -77.04265433333333, "name": "79a2796f03d3cff6dbf9f1bcf0429921", "is_disabled": 0, "type": "electric_scooter", "is_reserved": 0, "fusion_lon": 0.0, "lat": 38.922707, "rental_uris": {"ios": "https://dc.lft.to/lastmile_qr_scan", "android": "https://dc.lft.to/lastmile_qr_scan"}, "bike_id": "79a2796f03d3cff6dbf9f1bcf0429921", "fusion_lat": 0.0}, {"lon": -77.06463583333333, "name": "524fde70297f7963c079a057bee2ed31", "is_disabled": 0, "type": "electric_scooter", "is_reserved": 0, "fusion_lon": 0.0, "lat": 38.910469, "rental_uris": {"ios": "https://dc.lft.to/lastmile_qr_scan", "android": "https://dc.lft.to/lastmile_qr_scan"}, "bike_id": "524fde70297f7963c079a057bee2ed31", "fusion_lat": 0.0}, {"lon": -77.02591533333333, "name": "a235d39d38c55cf751426091f5f0b9bd", "is_disabled": 0, "type": "electric_scooter", "is_reserved": 0, "fusion_lon": 0.0, "lat": 38.926158666666666, "rental_uris": {"ios": "https://dc.lft.to/lastmile_qr_scan", "android": "https://dc.lft.to/lastmile_qr_scan"}, "bike_id": "a235d39d38c55cf751426091f5f0b9bd", "fusion_lat": 0.0}, {"lon": -77.02077983333334, "name": "ecbd3bb24cee39d0739dc556d5e7b307", "is_disabled": 0, "type": "electric_scooter", "is_reserved": 0, "fusion_lon": 0.0, "lat": 38.952555333333336, "rental_uris": {"ios": "https://dc.lft.to/lastmile_qr_scan", "android": "https://dc.lft.to/lastmile_qr_scan"}, "bike_id": "ecbd3bb24cee39d0739dc556d5e7b307", "fusion_lat": 0.0}, {"lon": -76.95203683333334, "name": "8f35a6728273e2e8a50e017028737f33", "is_disabled": 0, "type": "electric_bike", "is_reserved": 0, "fusion_lon": 0.0, "lat": 38.891132666666664, "rental_uris": {"ios": "https://dc.lft.to/lastmile_qr_scan", "android": "https://dc.lft.to/lastmile_qr_scan"}, "bike_id": "8f35a6728273e2e8a50e017028737f33", "fusion_lat": 0.0}, {"lon": -76.99861866666667, "name": "2f46f8c7371f9f22d89a132577ce5a2c", "is_disabled": 0, "type": "electric_scooter", "is_reserved": 0, "fusion_lon": 0.0, "lat": 38.9025765, "rental_uris": {"ios": "https://dc.lft.to/lastmile_qr_scan", "android": "https://dc.lft.to/lastmile_qr_scan"}, "bike_id": "2f46f8c7371f9f22d89a132577ce5a2c", "fusion_lat": 0.0}, {"lon": -77.041007, "name": "3daef9d4e12eae4c136b6f73a634ab66", "is_disabled": 0, "type": "electric_scooter", "is_reserved": 0, "fusion_lon": 0.0, "lat": 38.9177745, "rental_uris": {"ios": "https://dc.lft.to/lastmile_qr_scan", "android": "https://dc.lft.to/lastmile_qr_scan"}, "bike_id": "3daef9d4e12eae4c136b6f73a634ab66", "fusion_lat": 0.0}, {"lon": -76.9911825, "name": "eba044f5f5ba3225290a3ec21a7f0664", "is_disabled": 0, "type": "electric_scooter", "is_reserved": 0, "fusion_lon": 0.0, "lat": 38.9003195, "rental_uris": {"ios": "https://dc.lft.to/lastmile_qr_scan", "android": "https://dc.lft.to/lastmile_qr_scan"}, "bike_id": "eba044f5f5ba3225290a3ec21a7f0664", "fusion_lat": 0.0}, {"lon": -77.033885, "name": "7b13bcb275b0f4772c29e51b6632328f", "is_disabled": 0, "type": "electric_scooter", "is_reserved": 0, "fusion_lon": 0.0, "lat": 38.92161766666667, "rental_uris": {"ios": "https://dc.lft.to/lastmile_qr_scan", "android": "https://dc.lft.to/lastmile_qr_scan"}, "bike_id": "7b13bcb275b0f4772c29e51b6632328f", "fusion_lat": 0.0}, {"lon": -77.02477016666667, "name": "35bb600ea9667d8d5c23944d5686057f", "is_disabled": 0, "type": "electric_scooter", "is_reserved": 0, "fusion_lon": 0.0, "lat": 38.931018333333334, "rental_uris": {"ios": "https://dc.lft.to/lastmile_qr_scan", "android": "https://dc.lft.to/lastmile_qr_scan"}, "bike_id": "35bb600ea9667d8d5c23944d5686057f", "fusion_lat": 0.0}, {"lon": -77.00792683333333, "name": "39251cad1fb3ecfa59dd1be8aa01523b", "is_disabled": 0, "type": "electric_scooter", "is_reserved": 0, "fusion_lon": 0.0, "lat": 38.896731833333334, "rental_uris": {"ios": "https://dc.lft.to/lastmile_qr_scan", "android": "https://dc.lft.to/lastmile_qr_scan"}, "bike_id": "39251cad1fb3ecfa59dd1be8aa01523b", "fusion_lat": 0.0}, {"lon": -77.02386866666667, "name": "9d64319521535963d172474be19806a1", "is_disabled": 0, "type": "electric_scooter", "is_reserved": 0, "fusion_lon": 0.0, "lat": 38.9526905, "rental_uris": {"ios": "https://dc.lft.to/lastmile_qr_scan", "android": "https://dc.lft.to/lastmile_qr_scan"}, "bike_id": "9d64319521535963d172474be19806a1", "fusion_lat": 0.0}, {"lon": -77.02017883333333, "name": "98a354b56d6bb74c84b6d3b980c6853b", "is_disabled": 0, "type": "electric_scooter", "is_reserved": 0, "fusion_lon": 0.0, "lat": 38.924270666666665, "rental_uris": {"ios": "https://dc.lft.to/lastmile_qr_scan", "android": "https://dc.lft.to/lastmile_qr_scan"}, "bike_id": "98a354b56d6bb74c84b6d3b980c6853b", "fusion_lat": 0.0}, {"lon": -77.002113, "name": "2636672640ddb3ebaea7c2f88962c8af", "is_disabled": 0, "type": "electric_scooter", "is_reserved": 0, "fusion_lon": 0.0, "lat": 38.9087925, "rental_uris": {"ios": "https://dc.lft.to/lastmile_qr_scan", "android": "https://dc.lft.to/lastmile_qr_scan"}, "bike_id": "2636672640ddb3ebaea7c2f88962c8af", "fusion_lat": 0.0}, {"lon": -77.00072966666667, "name": "7347b09d13ab72b7d934015a9b1e921e", "is_disabled": 0, "type": "electric_scooter", "is_reserved": 0, "fusion_lon": 0.0, "lat": 38.87545133333333, "rental_uris": {"ios": "https://dc.lft.to/lastmile_qr_scan", "android": "https://dc.lft.to/lastmile_qr_scan"}, "bike_id": "7347b09d13ab72b7d934015a9b1e921e", "fusion_lat": 0.0}, {"lon": -77.0215495, "name": "88ce4177c8096685a48c5ad072f1cd07", "is_disabled": 0, "type": "electric_scooter", "is_reserved": 0, "fusion_lon": 0.0, "lat": 38.92602216666667, "rental_uris": {"ios": "https://dc.lft.to/lastmile_qr_scan", "android": "https://dc.lft.to/lastmile_qr_scan"}, "bike_id": "88ce4177c8096685a48c5ad072f1cd07", "fusion_lat": 0.0}, {"lon": -77.042283, "name": "8ac8d27003961940a5dc6d961ef2e78c", "is_disabled": 0, "type": "electric_scooter", "is_reserved": 0, "fusion_lon": 0.0, "lat": 38.933932166666665, "rental_uris": {"ios": "https://dc.lft.to/lastmile_qr_scan", "android": "https://dc.lft.to/lastmile_qr_scan"}, "bike_id": "8ac8d27003961940a5dc6d961ef2e78c", "fusion_lat": 0.0}, {"lon": -76.9265725, "name": "9db5f76c563f4eaf68f26eef0d7f111f", "is_disabled": 0, "type": "electric_scooter", "is_reserved": 0, "fusion_lon": 0.0, "lat": 38.89545733333333, "rental_uris": {"ios": "https://dc.lft.to/lastmile_qr_scan", "android": "https://dc.lft.to/lastmile_qr_scan"}, "bike_id": "9db5f76c563f4eaf68f26eef0d7f111f", "fusion_lat": 0.0}, {"lon": -77.04010533333333, "name": "77a0326b049f15b65ad764140031111e", "is_disabled": 0, "type": "electric_scooter", "is_reserved": 0, "fusion_lon": 0.0, "lat": 38.93426133333333, "rental_uris": {"ios": "https://dc.lft.to/lastmile_qr_scan", "android": "https://dc.lft.to/lastmile_qr_scan"}, "bike_id": "77a0326b049f15b65ad764140031111e", "fusion_lat": 0.0}, {"lon": -77.02344333333333, "name": "d6d952cf7e1ed75f3b3636a94ef0b168", "is_disabled": 0, "type": "electric_scooter", "is_reserved": 0, "fusion_lon": 0.0, "lat": 38.91776866666667, "rental_uris": {"ios": "https://dc.lft.to/lastmile_qr_scan", "android": "https://dc.lft.to/lastmile_qr_scan"}, "bike_id": "d6d952cf7e1ed75f3b3636a94ef0b168", "fusion_lat": 0.0}, {"lon": -77.01952333333334, "name": "58c9d8d7a7e329ce103a0810079b345f", "is_disabled": 0, "type": "electric_scooter", "is_reserved": 0, "fusion_lon": 0.0, "lat": 38.922466, "rental_uris": {"ios": "https://dc.lft.to/lastmile_qr_scan", "android": "https://dc.lft.to/lastmile_qr_scan"}, "bike_id": "58c9d8d7a7e329ce103a0810079b345f", "fusion_lat": 0.0}, {"lon": -77.0549445, "name": "58712f071d7fde83c431ef1b9aaa43fb", "is_disabled": 0, "type": "electric_scooter", "is_reserved": 0, "fusion_lon": 0.0, "lat": 38.908443, "rental_uris": {"ios": "https://dc.lft.to/lastmile_qr_scan", "android": "https://dc.lft.to/lastmile_qr_scan"}, "bike_id": "58712f071d7fde83c431ef1b9aaa43fb", "fusion_lat": 0.0}, {"lon": -77.04315283333334, "name": "1c3f2d7f34f1cd6c0a692ea315b21d12", "is_disabled": 0, "type": "electric_scooter", "is_reserved": 0, "fusion_lon": 0.0, "lat": 38.901346, "rental_uris": {"ios": "https://dc.lft.to/lastmile_qr_scan", "android": "https://dc.lft.to/lastmile_qr_scan"}, "bike_id": "1c3f2d7f34f1cd6c0a692ea315b21d12", "fusion_lat": 0.0}, {"lon": -77.03022166666666, "name": "21222779f9c96051f697c169f990bc2b", "is_disabled": 0, "type": "electric_scooter", "is_reserved": 0, "fusion_lon": 0.0, "lat": 38.89832116666667, "rental_uris": {"ios": "https://dc.lft.to/lastmile_qr_scan", "android": "https://dc.lft.to/lastmile_qr_scan"}, "bike_id": "21222779f9c96051f697c169f990bc2b", "fusion_lat": 0.0}, {"lon": -77.03181366666666, "name": "cdc9440611f1de125a7123130b24e97f", "is_disabled": 0, "type": "electric_scooter", "is_reserved": 0, "fusion_lon": 0.0, "lat": 38.912626833333334, "rental_uris": {"ios": "https://dc.lft.to/lastmile_qr_scan", "android": "https://dc.lft.to/lastmile_qr_scan"}, "bike_id": "cdc9440611f1de125a7123130b24e97f", "fusion_lat": 0.0}, {"lon": -77.09618866666666, "name": "71d374d77f12316670c9ca82683c0d22", "is_disabled": 0, "type": "electric_bike", "is_reserved": 0, "fusion_lon": 0.0, "lat": 38.9743935, "rental_uris": {"ios": "https://dc.lft.to/lastmile_qr_scan", "android": "https://dc.lft.to/lastmile_qr_scan"}, "bike_id": "71d374d77f12316670c9ca82683c0d22", "fusion_lat": 0.0}, {"lon": -77.00927016666667, "name": "9f61dfbd91bf7ebf89b57629083dcc69", "is_disabled": 0, "type": "electric_scooter", "is_reserved": 0, "fusion_lon": 0.0, "lat": 38.918702, "rental_uris": {"ios": "https://dc.lft.to/lastmile_qr_scan", "android": "https://dc.lft.to/lastmile_qr_scan"}, "bike_id": "9f61dfbd91bf7ebf89b57629083dcc69", "fusion_lat": 0.0}, {"lon": -77.03554333333334, "name": "0a28bf4a434ec4ab9bcf56f7cd98c857", "is_disabled": 0, "type": "electric_scooter", "is_reserved": 0, "fusion_lon": 0.0, "lat": 38.904702, "rental_uris": {"ios": "https://dc.lft.to/lastmile_qr_scan", "android": "https://dc.lft.to/lastmile_qr_scan"}, "bike_id": "0a28bf4a434ec4ab9bcf56f7cd98c857", "fusion_lat": 0.0}, {"lon": -77.00583466666667, "name": "6bbf53a2c638523e686c9bc95a844523", "is_disabled": 0, "type": "electric_scooter", "is_reserved": 0, "fusion_lon": 0.0, "lat": 38.87212916666667, "rental_uris": {"ios": "https://dc.lft.to/lastmile_qr_scan", "android": "https://dc.lft.to/lastmile_qr_scan"}, "bike_id": "6bbf53a2c638523e686c9bc95a844523", "fusion_lat": 0.0}, {"lon": -77.09525116666667, "name": "edfd825f07196df268b97dde54ecddbd", "is_disabled": 0, "type": "electric_bike", "is_reserved": 0, "fusion_lon": 0.0, "lat": 38.8381165, "rental_uris": {"ios": "https://dc.lft.to/lastmile_qr_scan", "android": "https://dc.lft.to/lastmile_qr_scan"}, "bike_id": "edfd825f07196df268b97dde54ecddbd", "fusion_lat": 0.0}, {"lon": -77.08330333333333, "name": "558908f51835c3d2f42d1adb9b3b9d8e", "is_disabled": 0, "type": "electric_scooter", "is_reserved": 0, "fusion_lon": 0.0, "lat": 38.936051, "rental_uris": {"ios": "https://dc.lft.to/lastmile_qr_scan", "android": "https://dc.lft.to/lastmile_qr_scan"}, "bike_id": "558908f51835c3d2f42d1adb9b3b9d8e", "fusion_lat": 0.0}, {"lon": -77.005675, "name": "caabc16475e8aa15f888d49a4357cbd5", "is_disabled": 0, "type": "electric_scooter", "is_reserved": 0, "fusion_lon": 0.0, "lat": 38.885045, "rental_uris": {"ios": "https://dc.lft.to/lastmile_qr_scan", "android": "https://dc.lft.to/lastmile_qr_scan"}, "bike_id": "caabc16475e8aa15f888d49a4357cbd5", "fusion_lat": 0.0}, {"lon": -76.93008466666667, "name": "411d4f1d63f309c3ef8b7bfec1d2747e", "is_disabled": 0, "type": "electric_scooter", "is_reserved": 0, "fusion_lon": 0.0, "lat": 38.907128666666665, "rental_uris": {"ios": "https://dc.lft.to/lastmile_qr_scan", "android": "https://dc.lft.to/lastmile_qr_scan"}, "bike_id": "411d4f1d63f309c3ef8b7bfec1d2747e", "fusion_lat": 0.0}, {"lon": -77.0202715, "name": "c8ab7d5121017a602428c0c4b04fa20a", "is_disabled": 0, "type": "electric_scooter", "is_reserved": 0, "fusion_lon": 0.0, "lat": 38.92127133333334, "rental_uris": {"ios": "https://dc.lft.to/lastmile_qr_scan", "android": "https://dc.lft.to/lastmile_qr_scan"}, "bike_id": "c8ab7d5121017a602428c0c4b04fa20a", "fusion_lat": 0.0}, {"lon": -77.02830866666666, "name": "ce3492661960bcefa0a6d0c237c52a13", "is_disabled": 0, "type": "electric_scooter", "is_reserved": 0, "fusion_lon": 0.0, "lat": 38.92226733333333, "rental_uris": {"ios": "https://dc.lft.to/lastmile_qr_scan", "android": "https://dc.lft.to/lastmile_qr_scan"}, "bike_id": "ce3492661960bcefa0a6d0c237c52a13", "fusion_lat": 0.0}, {"lon": -77.020111, "name": "a880684fa3c107af277e21be6d522595", "is_disabled": 0, "type": "electric_scooter", "is_reserved": 0, "fusion_lon": 0.0, "lat": 38.900906, "rental_uris": {"ios": "https://dc.lft.to/lastmile_qr_scan", "android": "https://dc.lft.to/lastmile_qr_scan"}, "bike_id": "a880684fa3c107af277e21be6d522595", "fusion_lat": 0.0}, {"lon": -77.03287583333334, "name": "0b5ef8274a5336706913ccf2c984d9f0", "is_disabled": 0, "type": "electric_scooter", "is_reserved": 0, "fusion_lon": 0.0, "lat": 38.93539533333333, "rental_uris": {"ios": "https://dc.lft.to/lastmile_qr_scan", "android": "https://dc.lft.to/lastmile_qr_scan"}, "bike_id": "0b5ef8274a5336706913ccf2c984d9f0", "fusion_lat": 0.0}, {"lon": -77.0211825, "name": "b753b8942d60112d93d840293b6594cd", "is_disabled": 0, "type": "electric_scooter", "is_reserved": 0, "fusion_lon": 0.0, "lat": 38.917369666666666, "rental_uris": {"ios": "https://dc.lft.to/lastmile_qr_scan", "android": "https://dc.lft.to/lastmile_qr_scan"}, "bike_id": "b753b8942d60112d93d840293b6594cd", "fusion_lat": 0.0}, {"lon": -77.03088866666667, "name": "7c2ed1761ae485935ec6839bd44eee0a", "is_disabled": 0, "type": "electric_scooter", "is_reserved": 0, "fusion_lon": 0.0, "lat": 38.932758666666665, "rental_uris": {"ios": "https://dc.lft.to/lastmile_qr_scan", "android": "https://dc.lft.to/lastmile_qr_scan"}, "bike_id": "7c2ed1761ae485935ec6839bd44eee0a", "fusion_lat": 0.0}, {"lon": -77.0433375, "name": "ca5fe9163d8b79444b0fd26528c400ac", "is_disabled": 0, "type": "electric_scooter", "is_reserved": 0, "fusion_lon": 0.0, "lat": 38.897297333333334, "rental_uris": {"ios": "https://dc.lft.to/lastmile_qr_scan", "android": "https://dc.lft.to/lastmile_qr_scan"}, "bike_id": "ca5fe9163d8b79444b0fd26528c400ac", "fusion_lat": 0.0}, {"lon": -77.0096275, "name": "1a07a673f39ee1d92023ca6585407e42", "is_disabled": 0, "type": "electric_scooter", "is_reserved": 0, "fusion_lon": 0.0, "lat": 38.8763195, "rental_uris": {"ios": "https://dc.lft.to/lastmile_qr_scan", "android": "https://dc.lft.to/lastmile_qr_scan"}, "bike_id": "1a07a673f39ee1d92023ca6585407e42", "fusion_lat": 0.0}, {"lon": -77.00302016666667, "name": "4d5bdd66c70ca94e7333247db484bb50", "is_disabled": 0, "type": "electric_scooter", "is_reserved": 0, "fusion_lon": 0.0, "lat": 38.876631, "rental_uris": {"ios": "https://dc.lft.to/lastmile_qr_scan", "android": "https://dc.lft.to/lastmile_qr_scan"}, "bike_id": "4d5bdd66c70ca94e7333247db484bb50", "fusion_lat": 0.0}, {"lon": -77.0216995, "name": "e5094db3795220172d3482fd2c9e3b1b", "is_disabled": 0, "type": "electric_bike", "is_reserved": 0, "fusion_lon": 0.0, "lat": 38.95739616666667, "rental_uris": {"ios": "https://dc.lft.to/lastmile_qr_scan", "android": "https://dc.lft.to/lastmile_qr_scan"}, "bike_id": "e5094db3795220172d3482fd2c9e3b1b", "fusion_lat": 0.0}, {"lon": -76.98199866666667, "name": "5b1b8415e8c26e55651fbfed21a33677", "is_disabled": 0, "type": "electric_bike", "is_reserved": 0, "fusion_lon": 0.0, "lat": 38.985051, "rental_uris": {"ios": "https://dc.lft.to/lastmile_qr_scan", "android": "https://dc.lft.to/lastmile_qr_scan"}, "bike_id": "5b1b8415e8c26e55651fbfed21a33677", "fusion_lat": 0.0}, {"lon": -77.0075635, "name": "3c623e3f404515c63e7b54b491c5a1b9", "is_disabled": 0, "type": "electric_scooter", "is_reserved": 0, "fusion_lon": 0.0, "lat": 38.8983005, "rental_uris": {"ios": "https://dc.lft.to/lastmile_qr_scan", "android": "https://dc.lft.to/lastmile_qr_scan"}, "bike_id": "3c623e3f404515c63e7b54b491c5a1b9", "fusion_lat": 0.0}, {"lon": -77.0006985, "name": "cdd985bf0e28af2d804fea9fe3bf7687", "is_disabled": 0, "type": "electric_scooter", "is_reserved": 0, "fusion_lon": 0.0, "lat": 38.88774, "rental_uris": {"ios": "https://dc.lft.to/lastmile_qr_scan", "android": "https://dc.lft.to/lastmile_qr_scan"}, "bike_id": "cdd985bf0e28af2d804fea9fe3bf7687", "fusion_lat": 0.0}, {"lon": -77.02061366666666, "name": "425a5baefb4910bed904943a7b918982", "is_disabled": 0, "type": "electric_scooter", "is_reserved": 0, "fusion_lon": 0.0, "lat": 38.923574333333335, "rental_uris": {"ios": "https://dc.lft.to/lastmile_qr_scan", "android": "https://dc.lft.to/lastmile_qr_scan"}, "bike_id": "425a5baefb4910bed904943a7b918982", "fusion_lat": 0.0}, {"lon": -77.02126333333334, "name": "83fdaf4c2a1133c6e4bfac5208c3c431", "is_disabled": 0, "type": "electric_scooter", "is_reserved": 0, "fusion_lon": 0.0, "lat": 38.92394683333333, "rental_uris": {"ios": "https://dc.lft.to/lastmile_qr_scan", "android": "https://dc.lft.to/lastmile_qr_scan"}, "bike_id": "83fdaf4c2a1133c6e4bfac5208c3c431", "fusion_lat": 0.0}, {"lon": -77.0017695, "name": "020601efa1749fa9d154693465948ca8", "is_disabled": 0, "type": "electric_scooter", "is_reserved": 0, "fusion_lon": 0.0, "lat": 38.94067483333333, "rental_uris": {"ios": "https://dc.lft.to/lastmile_qr_scan", "android": "https://dc.lft.to/lastmile_qr_scan"}, "bike_id": "020601efa1749fa9d154693465948ca8", "fusion_lat": 0.0}, {"lon": -77.02036966666667, "name": "06fc7567d0298658dd0b2e845ed541f4", "is_disabled": 0, "type": "electric_scooter", "is_reserved": 0, "fusion_lon": 0.0, "lat": 38.924353833333335, "rental_uris": {"ios": "https://dc.lft.to/lastmile_qr_scan", "android": "https://dc.lft.to/lastmile_qr_scan"}, "bike_id": "06fc7567d0298658dd0b2e845ed541f4", "fusion_lat": 0.0}, {"lon": -76.98422316666667, "name": "4e62e1a1bd4f3a16da2520cf42dd23b0", "is_disabled": 0, "type": "electric_bike", "is_reserved": 0, "fusion_lon": 0.0, "lat": 38.91003216666667, "rental_uris": {"ios": "https://dc.lft.to/lastmile_qr_scan", "android": "https://dc.lft.to/lastmile_qr_scan"}, "bike_id": "4e62e1a1bd4f3a16da2520cf42dd23b0", "fusion_lat": 0.0}, {"lon": -77.0407995, "name": "a544ee027dfd3b02202765715bd84866", "is_disabled": 0, "type": "electric_scooter", "is_reserved": 0, "fusion_lon": 0.0, "lat": 38.9205155, "rental_uris": {"ios": "https://dc.lft.to/lastmile_qr_scan", "android": "https://dc.lft.to/lastmile_qr_scan"}, "bike_id": "a544ee027dfd3b02202765715bd84866", "fusion_lat": 0.0}, {"lon": -76.99861, "name": "040cb2681330ee42e81881c8342bc88c", "is_disabled": 0, "type": "electric_scooter", "is_reserved": 0, "fusion_lon": 0.0, "lat": 38.90256933333333, "rental_uris": {"ios": "https://dc.lft.to/lastmile_qr_scan", "android": "https://dc.lft.to/lastmile_qr_scan"}, "bike_id": "040cb2681330ee42e81881c8342bc88c", "fusion_lat": 0.0}, {"lon": -77.03211466666667, "name": "22e51752d8f90e0e394e910194afda70", "is_disabled": 0, "type": "electric_scooter", "is_reserved": 0, "fusion_lon": 0.0, "lat": 38.89839666666666, "rental_uris": {"ios": "https://dc.lft.to/lastmile_qr_scan", "android": "https://dc.lft.to/lastmile_qr_scan"}, "bike_id": "22e51752d8f90e0e394e910194afda70", "fusion_lat": 0.0}, {"lon": -77.02077533333333, "name": "868b399030331306a9df2c739df91bf4", "is_disabled": 0, "type": "electric_scooter", "is_reserved": 0, "fusion_lon": 0.0, "lat": 38.90077183333333, "rental_uris": {"ios": "https://dc.lft.to/lastmile_qr_scan", "android": "https://dc.lft.to/lastmile_qr_scan"}, "bike_id": "868b399030331306a9df2c739df91bf4", "fusion_lat": 0.0}, {"lon": -77.03971633333333, "name": "d8460dbb33825889da4741dd73463c86", "is_disabled": 0, "type": "electric_scooter", "is_reserved": 0, "fusion_lon": 0.0, "lat": 38.9022055, "rental_uris": {"ios": "https://dc.lft.to/lastmile_qr_scan", "android": "https://dc.lft.to/lastmile_qr_scan"}, "bike_id": "d8460dbb33825889da4741dd73463c86", "fusion_lat": 0.0}, {"lon": -77.0351955, "name": "53a06a4f528cb681a5a10271a04db7c7", "is_disabled": 0, "type": "electric_scooter", "is_reserved": 0, "fusion_lon": 0.0, "lat": 38.92235133333333, "rental_uris": {"ios": "https://dc.lft.to/lastmile_qr_scan", "android": "https://dc.lft.to/lastmile_qr_scan"}, "bike_id": "53a06a4f528cb681a5a10271a04db7c7", "fusion_lat": 0.0}, {"lon": -77.02265116666666, "name": "9d21432b419c109f8447ba9f98e49b59", "is_disabled": 0, "type": "electric_scooter", "is_reserved": 0, "fusion_lon": 0.0, "lat": 38.9164765, "rental_uris": {"ios": "https://dc.lft.to/lastmile_qr_scan", "android": "https://dc.lft.to/lastmile_qr_scan"}, "bike_id": "9d21432b419c109f8447ba9f98e49b59", "fusion_lat": 0.0}, {"lon": -77.03483683333333, "name": "79b65dda9bf8579138193064f0ae3209", "is_disabled": 0, "type": "electric_scooter", "is_reserved": 0, "fusion_lon": 0.0, "lat": 38.928649166666666, "rental_uris": {"ios": "https://dc.lft.to/lastmile_qr_scan", "android": "https://dc.lft.to/lastmile_qr_scan"}, "bike_id": "79b65dda9bf8579138193064f0ae3209", "fusion_lat": 0.0}, {"lon": -76.91723283333333, "name": "7d76baa92491870d8b94189340232cad", "is_disabled": 0, "type": "electric_bike", "is_reserved": 0, "fusion_lon": 0.0, "lat": 38.88024983333333, "rental_uris": {"ios": "https://dc.lft.to/lastmile_qr_scan", "android": "https://dc.lft.to/lastmile_qr_scan"}, "bike_id": "7d76baa92491870d8b94189340232cad", "fusion_lat": 0.0}, {"lon": -77.02787216666667, "name": "6c367c6a88f45107cc263c6428efb698", "is_disabled": 0, "type": "electric_scooter", "is_reserved": 0, "fusion_lon": 0.0, "lat": 38.955315166666665, "rental_uris": {"ios": "https://dc.lft.to/lastmile_qr_scan", "android": "https://dc.lft.to/lastmile_qr_scan"}, "bike_id": "6c367c6a88f45107cc263c6428efb698", "fusion_lat": 0.0}, {"lon": -77.00492683333333, "name": "5e39fbf1b6782223991beaf2390546ae", "is_disabled": 0, "type": "electric_scooter", "is_reserved": 0, "fusion_lon": 0.0, "lat": 38.916952333333334, "rental_uris": {"ios": "https://dc.lft.to/lastmile_qr_scan", "android": "https://dc.lft.to/lastmile_qr_scan"}, "bike_id": "5e39fbf1b6782223991beaf2390546ae", "fusion_lat": 0.0}, {"lon": -77.07234283333334, "name": "e6fec76f8aac115f91dc7ebe7dfbf7ca", "is_disabled": 0, "type": "electric_scooter", "is_reserved": 0, "fusion_lon": 0.0, "lat": 38.91358983333333, "rental_uris": {"ios": "https://dc.lft.to/lastmile_qr_scan", "android": "https://dc.lft.to/lastmile_qr_scan"}, "bike_id": "e6fec76f8aac115f91dc7ebe7dfbf7ca", "fusion_lat": 0.0}, {"lon": -77.020638, "name": "5d9d921c11ce0372a807be03dfd617eb", "is_disabled": 0, "type": "electric_scooter", "is_reserved": 0, "fusion_lon": 0.0, "lat": 38.92369383333333, "rental_uris": {"ios": "https://dc.lft.to/lastmile_qr_scan", "android": "https://dc.lft.to/lastmile_qr_scan"}, "bike_id": "5d9d921c11ce0372a807be03dfd617eb", "fusion_lat": 0.0}, {"lon": -76.94854033333333, "name": "4bfbafa92fb2beb142ed48699d9d910c", "is_disabled": 0, "type": "electric_scooter", "is_reserved": 0, "fusion_lon": 0.0, "lat": 38.89607733333333, "rental_uris": {"ios": "https://dc.lft.to/lastmile_qr_scan", "android": "https://dc.lft.to/lastmile_qr_scan"}, "bike_id": "4bfbafa92fb2beb142ed48699d9d910c", "fusion_lat": 0.0}, {"lon": -76.97305633333333, "name": "6c81ccc74836b576c50b26a7a8200720", "is_disabled": 0, "type": "electric_scooter", "is_reserved": 0, "fusion_lon": 0.0, "lat": 38.9198545, "rental_uris": {"ios": "https://dc.lft.to/lastmile_qr_scan", "android": "https://dc.lft.to/lastmile_qr_scan"}, "bike_id": "6c81ccc74836b576c50b26a7a8200720", "fusion_lat": 0.0}, {"lon": -77.005374, "name": "72373922b328c53ba5afe18012600510", "is_disabled": 0, "type": "electric_scooter", "is_reserved": 0, "fusion_lon": 0.0, "lat": 38.8754525, "rental_uris": {"ios": "https://dc.lft.to/lastmile_qr_scan", "android": "https://dc.lft.to/lastmile_qr_scan"}, "bike_id": "72373922b328c53ba5afe18012600510", "fusion_lat": 0.0}, {"lon": -77.0174885, "name": "216da82243bfd38f72b3c2259dc22b18", "is_disabled": 0, "type": "electric_scooter", "is_reserved": 0, "fusion_lon": 0.0, "lat": 38.876965166666665, "rental_uris": {"ios": "https://dc.lft.to/lastmile_qr_scan", "android": "https://dc.lft.to/lastmile_qr_scan"}, "bike_id": "216da82243bfd38f72b3c2259dc22b18", "fusion_lat": 0.0}, {"lon": -77.039665, "name": "180a2ea56cacac7ff68dd26df94913b2", "is_disabled": 0, "type": "electric_scooter", "is_reserved": 0, "fusion_lon": 0.0, "lat": 38.90222883333333, "rental_uris": {"ios": "https://dc.lft.to/lastmile_qr_scan", "android": "https://dc.lft.to/lastmile_qr_scan"}, "bike_id": "180a2ea56cacac7ff68dd26df94913b2", "fusion_lat": 0.0}, {"lon": -77.03140716666667, "name": "ea1f289a18f98d681635b05c872a7315", "is_disabled": 0, "type": "electric_scooter", "is_reserved": 0, "fusion_lon": 0.0, "lat": 38.94196866666667, "rental_uris": {"ios": "https://dc.lft.to/lastmile_qr_scan", "android": "https://dc.lft.to/lastmile_qr_scan"}, "bike_id": "ea1f289a18f98d681635b05c872a7315", "fusion_lat": 0.0}, {"lon": -77.0076165, "name": "123cea1fc3a05d5834f525ebe37c1fad", "is_disabled": 0, "type": "electric_bike", "is_reserved": 0, "fusion_lon": 0.0, "lat": 38.871103833333336, "rental_uris": {"ios": "https://dc.lft.to/lastmile_qr_scan", "android": "https://dc.lft.to/lastmile_qr_scan"}, "bike_id": "123cea1fc3a05d5834f525ebe37c1fad", "fusion_lat": 0.0}, {"lon": -77.00138416666667, "name": "2c72c1c6d1805cccd60da86f8c754348", "is_disabled": 0, "type": "electric_bike", "is_reserved": 0, "fusion_lon": 0.0, "lat": 38.9950055, "rental_uris": {"ios": "https://dc.lft.to/lastmile_qr_scan", "android": "https://dc.lft.to/lastmile_qr_scan"}, "bike_id": "2c72c1c6d1805cccd60da86f8c754348", "fusion_lat": 0.0}, {"lon": -77.01632866666667, "name": "1be16ed038551071bbcefb098a38327a", "is_disabled": 0, "type": "electric_bike", "is_reserved": 0, "fusion_lon": 0.0, "lat": 38.90320666666667, "rental_uris": {"ios": "https://dc.lft.to/lastmile_qr_scan", "android": "https://dc.lft.to/lastmile_qr_scan"}, "bike_id": "1be16ed038551071bbcefb098a38327a", "fusion_lat": 0.0}, {"lon": -77.02708483333333, "name": "b8450e997caa9d952fc3c193f0ce18eb", "is_disabled": 0, "type": "electric_scooter", "is_reserved": 0, "fusion_lon": 0.0, "lat": 38.904434, "rental_uris": {"ios": "https://dc.lft.to/lastmile_qr_scan", "android": "https://dc.lft.to/lastmile_qr_scan"}, "bike_id": "b8450e997caa9d952fc3c193f0ce18eb", "fusion_lat": 0.0}, {"lon": -76.99564083333334, "name": "ac287c1ccd497a8d98ab27710898077d", "is_disabled": 0, "type": "electric_bike", "is_reserved": 0, "fusion_lon": 0.0, "lat": 38.93982483333333, "rental_uris": {"ios": "https://dc.lft.to/lastmile_qr_scan", "android": "https://dc.lft.to/lastmile_qr_scan"}, "bike_id": "ac287c1ccd497a8d98ab27710898077d", "fusion_lat": 0.0}, {"lon": -77.04726583333333, "name": "e2c62c303ae6a3a503f7c08c1c77a2a6", "is_disabled": 0, "type": "electric_scooter", "is_reserved": 0, "fusion_lon": 0.0, "lat": 38.899654, "rental_uris": {"ios": "https://dc.lft.to/lastmile_qr_scan", "android": "https://dc.lft.to/lastmile_qr_scan"}, "bike_id": "e2c62c303ae6a3a503f7c08c1c77a2a6", "fusion_lat": 0.0}, {"lon": -77.02171916666667, "name": "8e604e1fe8c377c3f71be92bd7687333", "is_disabled": 0, "type": "electric_scooter", "is_reserved": 0, "fusion_lon": 0.0, "lat": 38.92640383333333, "rental_uris": {"ios": "https://dc.lft.to/lastmile_qr_scan", "android": "https://dc.lft.to/lastmile_qr_scan"}, "bike_id": "8e604e1fe8c377c3f71be92bd7687333", "fusion_lat": 0.0}, {"lon": -76.90302133333333, "name": "dbde26b1217d1f48936ebea08007b7f2", "is_disabled": 0, "type": "electric_bike", "is_reserved": 0, "fusion_lon": 0.0, "lat": 39.00290916666667, "rental_uris": {"ios": "https://dc.lft.to/lastmile_qr_scan", "android": "https://dc.lft.to/lastmile_qr_scan"}, "bike_id": "dbde26b1217d1f48936ebea08007b7f2", "fusion_lat": 0.0}, {"lon": -77.04660666666666, "name": "77a2bb1cefda4464091e426f8e0e72dc", "is_disabled": 0, "type": "electric_scooter", "is_reserved": 0, "fusion_lon": 0.0, "lat": 38.892560833333334, "rental_uris": {"ios": "https://dc.lft.to/lastmile_qr_scan", "android": "https://dc.lft.to/lastmile_qr_scan"}, "bike_id": "77a2bb1cefda4464091e426f8e0e72dc", "fusion_lat": 0.0}, {"lon": -77.00521366666666, "name": "9f55affc6410d8659fdca2d606927d33", "is_disabled": 0, "type": "electric_scooter", "is_reserved": 0, "fusion_lon": 0.0, "lat": 38.874716166666666, "rental_uris": {"ios": "https://dc.lft.to/lastmile_qr_scan", "android": "https://dc.lft.to/lastmile_qr_scan"}, "bike_id": "9f55affc6410d8659fdca2d606927d33", "fusion_lat": 0.0}, {"lon": -77.02710383333333, "name": "bd34526645e392e737bf63ee17ffd609", "is_disabled": 0, "type": "electric_scooter", "is_reserved": 0, "fusion_lon": 0.0, "lat": 38.897630666666664, "rental_uris": {"ios": "https://dc.lft.to/lastmile_qr_scan", "android": "https://dc.lft.to/lastmile_qr_scan"}, "bike_id": "bd34526645e392e737bf63ee17ffd609", "fusion_lat": 0.0}, {"lon": -77.06992166666667, "name": "461b290aa87a08c2fe6a3c661c352566", "is_disabled": 0, "type": "electric_scooter", "is_reserved": 0, "fusion_lon": 0.0, "lat": 38.90779166666667, "rental_uris": {"ios": "https://dc.lft.to/lastmile_qr_scan", "android": "https://dc.lft.to/lastmile_qr_scan"}, "bike_id": "461b290aa87a08c2fe6a3c661c352566", "fusion_lat": 0.0}, {"lon": -77.02200733333333, "name": "56af53ab3a00ad03f9f6948543637250", "is_disabled": 0, "type": "electric_scooter", "is_reserved": 0, "fusion_lon": 0.0, "lat": 38.91048166666667, "rental_uris": {"ios": "https://dc.lft.to/lastmile_qr_scan", "android": "https://dc.lft.to/lastmile_qr_scan"}, "bike_id": "56af53ab3a00ad03f9f6948543637250", "fusion_lat": 0.0}, {"lon": -77.0187545, "name": "33708b1962c3e48e0261679d78d104f7", "is_disabled": 0, "type": "electric_scooter", "is_reserved": 0, "fusion_lon": 0.0, "lat": 38.920200666666666, "rental_uris": {"ios": "https://dc.lft.to/lastmile_qr_scan", "android": "https://dc.lft.to/lastmile_qr_scan"}, "bike_id": "33708b1962c3e48e0261679d78d104f7", "fusion_lat": 0.0}, {"lon": -76.9371705, "name": "28d21d98c0c6656457cfea8e2688b24d", "is_disabled": 0, "type": "electric_scooter", "is_reserved": 0, "fusion_lon": 0.0, "lat": 38.8885505, "rental_uris": {"ios": "https://dc.lft.to/lastmile_qr_scan", "android": "https://dc.lft.to/lastmile_qr_scan"}, "bike_id": "28d21d98c0c6656457cfea8e2688b24d", "fusion_lat": 0.0}, {"lon": -77.00386566666667, "name": "f09601af80df4fb4b4ff1ab29775640d", "is_disabled": 0, "type": "electric_scooter", "is_reserved": 0, "fusion_lon": 0.0, "lat": 38.8763465, "rental_uris": {"ios": "https://dc.lft.to/lastmile_qr_scan", "android": "https://dc.lft.to/lastmile_qr_scan"}, "bike_id": "f09601af80df4fb4b4ff1ab29775640d", "fusion_lat": 0.0}, {"lon": -77.03463466666666, "name": "f24a3b4f63e77df55d3bd9ea241062f9", "is_disabled": 0, "type": "electric_scooter", "is_reserved": 0, "fusion_lon": 0.0, "lat": 38.908604, "rental_uris": {"ios": "https://dc.lft.to/lastmile_qr_scan", "android": "https://dc.lft.to/lastmile_qr_scan"}, "bike_id": "f24a3b4f63e77df55d3bd9ea241062f9", "fusion_lat": 0.0}, {"lon": -77.02392316666666, "name": "72cefd573b1f927d185e4cff8ae322f6", "is_disabled": 0, "type": "electric_scooter", "is_reserved": 0, "fusion_lon": 0.0, "lat": 38.894186, "rental_uris": {"ios": "https://dc.lft.to/lastmile_qr_scan", "android": "https://dc.lft.to/lastmile_qr_scan"}, "bike_id": "72cefd573b1f927d185e4cff8ae322f6", "fusion_lat": 0.0}, {"lon": -77.0091915, "name": "e0d51e58d7a94659817b1bd9ae846555", "is_disabled": 0, "type": "electric_scooter", "is_reserved": 0, "fusion_lon": 0.0, "lat": 38.92339583333333, "rental_uris": {"ios": "https://dc.lft.to/lastmile_qr_scan", "android": "https://dc.lft.to/lastmile_qr_scan"}, "bike_id": "e0d51e58d7a94659817b1bd9ae846555", "fusion_lat": 0.0}, {"lon": -77.02442183333334, "name": "49f389e1a2d8de9e7efc1b3e5626cdc0", "is_disabled": 0, "type": "electric_scooter", "is_reserved": 0, "fusion_lon": 0.0, "lat": 38.933590333333335, "rental_uris": {"ios": "https://dc.lft.to/lastmile_qr_scan", "android": "https://dc.lft.to/lastmile_qr_scan"}, "bike_id": "49f389e1a2d8de9e7efc1b3e5626cdc0", "fusion_lat": 0.0}, {"lon": -77.0639915, "name": "5f85930f674fd337bf92d8ccc3150343", "is_disabled": 0, "type": "electric_scooter", "is_reserved": 0, "fusion_lon": 0.0, "lat": 38.94440566666667, "rental_uris": {"ios": "https://dc.lft.to/lastmile_qr_scan", "android": "https://dc.lft.to/lastmile_qr_scan"}, "bike_id": "5f85930f674fd337bf92d8ccc3150343", "fusion_lat": 0.0}, {"lon": -77.0346755, "name": "f2c151fae713fd47331f80bfb47b3edf", "is_disabled": 0, "type": "electric_scooter", "is_reserved": 0, "fusion_lon": 0.0, "lat": 38.91666466666667, "rental_uris": {"ios": "https://dc.lft.to/lastmile_qr_scan", "android": "https://dc.lft.to/lastmile_qr_scan"}, "bike_id": "f2c151fae713fd47331f80bfb47b3edf", "fusion_lat": 0.0}, {"lon": -77.029758, "name": "083c635f8a7e666c8776fbfaed4d5236", "is_disabled": 0, "type": "electric_scooter", "is_reserved": 0, "fusion_lon": 0.0, "lat": 38.916819, "rental_uris": {"ios": "https://dc.lft.to/lastmile_qr_scan", "android": "https://dc.lft.to/lastmile_qr_scan"}, "bike_id": "083c635f8a7e666c8776fbfaed4d5236", "fusion_lat": 0.0}, {"lon": -77.0400695, "name": "7dca50638a5f47f501e6be5745ff95a4", "is_disabled": 0, "type": "electric_scooter", "is_reserved": 0, "fusion_lon": 0.0, "lat": 38.9026215, "rental_uris": {"ios": "https://dc.lft.to/lastmile_qr_scan", "android": "https://dc.lft.to/lastmile_qr_scan"}, "bike_id": "7dca50638a5f47f501e6be5745ff95a4", "fusion_lat": 0.0}, {"lon": -77.05697016666667, "name": "57a81cc7ccd27ffae9748495bfc351ab", "is_disabled": 0, "type": "electric_scooter", "is_reserved": 0, "fusion_lon": 0.0, "lat": 38.90602333333333, "rental_uris": {"ios": "https://dc.lft.to/lastmile_qr_scan", "android": "https://dc.lft.to/lastmile_qr_scan"}, "bike_id": "57a81cc7ccd27ffae9748495bfc351ab", "fusion_lat": 0.0}, {"lon": -77.01906933333333, "name": "e67430cc16f4c9568b5b310b68e8580c", "is_disabled": 0, "type": "electric_scooter", "is_reserved": 0, "fusion_lon": 0.0, "lat": 38.92336616666667, "rental_uris": {"ios": "https://dc.lft.to/lastmile_qr_scan", "android": "https://dc.lft.to/lastmile_qr_scan"}, "bike_id": "e67430cc16f4c9568b5b310b68e8580c", "fusion_lat": 0.0}, {"lon": -77.02700783333333, "name": "a627afe69d5a75c0851621582e8eaa29", "is_disabled": 0, "type": "electric_scooter", "is_reserved": 0, "fusion_lon": 0.0, "lat": 38.9057645, "rental_uris": {"ios": "https://dc.lft.to/lastmile_qr_scan", "android": "https://dc.lft.to/lastmile_qr_scan"}, "bike_id": "a627afe69d5a75c0851621582e8eaa29", "fusion_lat": 0.0}, {"lon": -77.03206466666667, "name": "1b77a6f641a57402a18b7735c3e9a884", "is_disabled": 0, "type": "electric_scooter", "is_reserved": 0, "fusion_lon": 0.0, "lat": 38.91634966666667, "rental_uris": {"ios": "https://dc.lft.to/lastmile_qr_scan", "android": "https://dc.lft.to/lastmile_qr_scan"}, "bike_id": "1b77a6f641a57402a18b7735c3e9a884", "fusion_lat": 0.0}, {"lon": -77.0244505, "name": "af782c7714d2e45d258b6ef5a04c0883", "is_disabled": 0, "type": "electric_scooter", "is_reserved": 0, "fusion_lon": 0.0, "lat": 38.90726216666667, "rental_uris": {"ios": "https://dc.lft.to/lastmile_qr_scan", "android": "https://dc.lft.to/lastmile_qr_scan"}, "bike_id": "af782c7714d2e45d258b6ef5a04c0883", "fusion_lat": 0.0}, {"lon": -77.03171716666667, "name": "a07be20b7f37304599c5edf6542f421b", "is_disabled": 0, "type": "electric_scooter", "is_reserved": 0, "fusion_lon": 0.0, "lat": 38.89218483333333, "rental_uris": {"ios": "https://dc.lft.to/lastmile_qr_scan", "android": "https://dc.lft.to/lastmile_qr_scan"}, "bike_id": "a07be20b7f37304599c5edf6542f421b", "fusion_lat": 0.0}, {"lon": -77.041527, "name": "30f5e60b2872b5df0e62c564c70a550e", "is_disabled": 0, "type": "electric_scooter", "is_reserved": 0, "fusion_lon": 0.0, "lat": 38.918108333333336, "rental_uris": {"ios": "https://dc.lft.to/lastmile_qr_scan", "android": "https://dc.lft.to/lastmile_qr_scan"}, "bike_id": "30f5e60b2872b5df0e62c564c70a550e", "fusion_lat": 0.0}, {"lon": -76.98788616666667, "name": "34168001e82c8f6aca7703bc0a004bb9", "is_disabled": 0, "type": "electric_bike", "is_reserved": 0, "fusion_lon": 0.0, "lat": 38.84470566666667, "rental_uris": {"ios": "https://dc.lft.to/lastmile_qr_scan", "android": "https://dc.lft.to/lastmile_qr_scan"}, "bike_id": "34168001e82c8f6aca7703bc0a004bb9", "fusion_lat": 0.0}, {"lon": -77.04865833333334, "name": "ccbfebf8a383e8bcf982e9aa0b00b9f2", "is_disabled": 0, "type": "electric_scooter", "is_reserved": 0, "fusion_lon": 0.0, "lat": 38.900084, "rental_uris": {"ios": "https://dc.lft.to/lastmile_qr_scan", "android": "https://dc.lft.to/lastmile_qr_scan"}, "bike_id": "ccbfebf8a383e8bcf982e9aa0b00b9f2", "fusion_lat": 0.0}, {"lon": -76.96105383333334, "name": "1b59e79380d44c312397d6b6e64340fe", "is_disabled": 0, "type": "electric_scooter", "is_reserved": 0, "fusion_lon": 0.0, "lat": 38.89205883333333, "rental_uris": {"ios": "https://dc.lft.to/lastmile_qr_scan", "android": "https://dc.lft.to/lastmile_qr_scan"}, "bike_id": "1b59e79380d44c312397d6b6e64340fe", "fusion_lat": 0.0}, {"lon": -77.021642, "name": "319813df696a8f1f213a55e7dc2d577e", "is_disabled": 0, "type": "electric_scooter", "is_reserved": 0, "fusion_lon": 0.0, "lat": 38.9245695, "rental_uris": {"ios": "https://dc.lft.to/lastmile_qr_scan", "android": "https://dc.lft.to/lastmile_qr_scan"}, "bike_id": "319813df696a8f1f213a55e7dc2d577e", "fusion_lat": 0.0}, {"lon": -76.983843, "name": "5c149869028c1e2ff533f3c4de8f37af", "is_disabled": 0, "type": "electric_scooter", "is_reserved": 0, "fusion_lon": 0.0, "lat": 38.90642483333333, "rental_uris": {"ios": "https://dc.lft.to/lastmile_qr_scan", "android": "https://dc.lft.to/lastmile_qr_scan"}, "bike_id": "5c149869028c1e2ff533f3c4de8f37af", "fusion_lat": 0.0}, {"lon": -76.986058, "name": "7b79408387402075f6b65c1187e33529", "is_disabled": 0, "type": "electric_scooter", "is_reserved": 0, "fusion_lon": 0.0, "lat": 38.90656516666667, "rental_uris": {"ios": "https://dc.lft.to/lastmile_qr_scan", "android": "https://dc.lft.to/lastmile_qr_scan"}, "bike_id": "7b79408387402075f6b65c1187e33529", "fusion_lat": 0.0}, {"lon": -77.02548866666666, "name": "c7d8b0827d2ab61dc514753c8f921ce0", "is_disabled": 0, "type": "electric_scooter", "is_reserved": 0, "fusion_lon": 0.0, "lat": 38.92243916666666, "rental_uris": {"ios": "https://dc.lft.to/lastmile_qr_scan", "android": "https://dc.lft.to/lastmile_qr_scan"}, "bike_id": "c7d8b0827d2ab61dc514753c8f921ce0", "fusion_lat": 0.0}, {"lon": -77.033024, "name": "610a4a942ae5387e1b9a79fbf32e32ed", "is_disabled": 0, "type": "electric_scooter", "is_reserved": 0, "fusion_lon": 0.0, "lat": 38.898865666666666, "rental_uris": {"ios": "https://dc.lft.to/lastmile_qr_scan", "android": "https://dc.lft.to/lastmile_qr_scan"}, "bike_id": "610a4a942ae5387e1b9a79fbf32e32ed", "fusion_lat": 0.0}, {"lon": -77.02208783333333, "name": "8a6530a142dec0e354b77580fdaae684", "is_disabled": 0, "type": "electric_scooter", "is_reserved": 0, "fusion_lon": 0.0, "lat": 38.924706, "rental_uris": {"ios": "https://dc.lft.to/lastmile_qr_scan", "android": "https://dc.lft.to/lastmile_qr_scan"}, "bike_id": "8a6530a142dec0e354b77580fdaae684", "fusion_lat": 0.0}, {"lon": -76.99794416666667, "name": "1238976c680c2375f83572cc084c182a", "is_disabled": 0, "type": "electric_bike", "is_reserved": 0, "fusion_lon": 0.0, "lat": 38.99809616666667, "rental_uris": {"ios": "https://dc.lft.to/lastmile_qr_scan", "android": "https://dc.lft.to/lastmile_qr_scan"}, "bike_id": "1238976c680c2375f83572cc084c182a", "fusion_lat": 0.0}, {"lon": -77.042645, "name": "fcdfb17b05bf9d257d06dd994bba37ec", "is_disabled": 0, "type": "electric_scooter", "is_reserved": 0, "fusion_lon": 0.0, "lat": 38.908368833333334, "rental_uris": {"ios": "https://dc.lft.to/lastmile_qr_scan", "android": "https://dc.lft.to/lastmile_qr_scan"}, "bike_id": "fcdfb17b05bf9d257d06dd994bba37ec", "fusion_lat": 0.0}, {"lon": -77.02116216666667, "name": "ba26b0ac18ad78883aa8ad55f4d380a7", "is_disabled": 0, "type": "electric_scooter", "is_reserved": 0, "fusion_lon": 0.0, "lat": 38.9278385, "rental_uris": {"ios": "https://dc.lft.to/lastmile_qr_scan", "android": "https://dc.lft.to/lastmile_qr_scan"}, "bike_id": "ba26b0ac18ad78883aa8ad55f4d380a7", "fusion_lat": 0.0}, {"lon": -77.06089916666667, "name": "4f0e54afde0428897bf50aa26f53a2cf", "is_disabled": 0, "type": "electric_scooter", "is_reserved": 0, "fusion_lon": 0.0, "lat": 38.91183233333334, "rental_uris": {"ios": "https://dc.lft.to/lastmile_qr_scan", "android": "https://dc.lft.to/lastmile_qr_scan"}, "bike_id": "4f0e54afde0428897bf50aa26f53a2cf", "fusion_lat": 0.0}, {"lon": -77.0268625, "name": "588f8a1f07bd97a53b8b40a095ed982f", "is_disabled": 0, "type": "electric_scooter", "is_reserved": 0, "fusion_lon": 0.0, "lat": 38.948395, "rental_uris": {"ios": "https://dc.lft.to/lastmile_qr_scan", "android": "https://dc.lft.to/lastmile_qr_scan"}, "bike_id": "588f8a1f07bd97a53b8b40a095ed982f", "fusion_lat": 0.0}, {"lon": -77.02856016666667, "name": "98b7dcf7df3b00a1fab9c5397fd565e9", "is_disabled": 0, "type": "electric_scooter", "is_reserved": 0, "fusion_lon": 0.0, "lat": 38.898489166666664, "rental_uris": {"ios": "https://dc.lft.to/lastmile_qr_scan", "android": "https://dc.lft.to/lastmile_qr_scan"}, "bike_id": "98b7dcf7df3b00a1fab9c5397fd565e9", "fusion_lat": 0.0}, {"lon": -77.041726, "name": "6206a29fb02864fc61578919d44d7b87", "is_disabled": 0, "type": "electric_scooter", "is_reserved": 0, "fusion_lon": 0.0, "lat": 38.914370166666664, "rental_uris": {"ios": "https://dc.lft.to/lastmile_qr_scan", "android": "https://dc.lft.to/lastmile_qr_scan"}, "bike_id": "6206a29fb02864fc61578919d44d7b87", "fusion_lat": 0.0}, {"lon": -77.021352, "name": "077145c51f6f1920ad6f8ea31d1e23f3", "is_disabled": 0, "type": "electric_scooter", "is_reserved": 0, "fusion_lon": 0.0, "lat": 38.922743, "rental_uris": {"ios": "https://dc.lft.to/lastmile_qr_scan", "android": "https://dc.lft.to/lastmile_qr_scan"}, "bike_id": "077145c51f6f1920ad6f8ea31d1e23f3", "fusion_lat": 0.0}, {"lon": -77.0689305, "name": "173f311fa5c63d9dcc28a99811b4e2c3", "is_disabled": 0, "type": "electric_scooter", "is_reserved": 0, "fusion_lon": 0.0, "lat": 38.9063905, "rental_uris": {"ios": "https://dc.lft.to/lastmile_qr_scan", "android": "https://dc.lft.to/lastmile_qr_scan"}, "bike_id": "173f311fa5c63d9dcc28a99811b4e2c3", "fusion_lat": 0.0}, {"lon": -77.0157705, "name": "fbcbe77b19ed387aa763be53cfd4c521", "is_disabled": 0, "type": "electric_scooter", "is_reserved": 0, "fusion_lon": 0.0, "lat": 38.926811666666666, "rental_uris": {"ios": "https://dc.lft.to/lastmile_qr_scan", "android": "https://dc.lft.to/lastmile_qr_scan"}, "bike_id": "fbcbe77b19ed387aa763be53cfd4c521", "fusion_lat": 0.0}, {"lon": -77.13337733333333, "name": "db7767f069a53a985ef40d2c624d03dc", "is_disabled": 0, "type": "electric_bike", "is_reserved": 0, "fusion_lon": 0.0, "lat": 39.0603065, "rental_uris": {"ios": "https://dc.lft.to/lastmile_qr_scan", "android": "https://dc.lft.to/lastmile_qr_scan"}, "bike_id": "db7767f069a53a985ef40d2c624d03dc", "fusion_lat": 0.0}, {"lon": -77.0052935, "name": "66c5ddee8cb5b5a02193a2200feba262", "is_disabled": 0, "type": "electric_scooter", "is_reserved": 0, "fusion_lon": 0.0, "lat": 38.905612166666664, "rental_uris": {"ios": "https://dc.lft.to/lastmile_qr_scan", "android": "https://dc.lft.to/lastmile_qr_scan"}, "bike_id": "66c5ddee8cb5b5a02193a2200feba262", "fusion_lat": 0.0}, {"lon": -77.0448245, "name": "257da6bec921956ac1565feccd63383b", "is_disabled": 0, "type": "electric_scooter", "is_reserved": 0, "fusion_lon": 0.0, "lat": 38.893571666666666, "rental_uris": {"ios": "https://dc.lft.to/lastmile_qr_scan", "android": "https://dc.lft.to/lastmile_qr_scan"}, "bike_id": "257da6bec921956ac1565feccd63383b", "fusion_lat": 0.0}, {"lon": -77.00402133333333, "name": "48a6a96ba3ee6cffca14f514281fc2f9", "is_disabled": 0, "type": "electric_bike", "is_reserved": 0, "fusion_lon": 0.0, "lat": 38.9855295, "rental_uris": {"ios": "https://dc.lft.to/lastmile_qr_scan", "android": "https://dc.lft.to/lastmile_qr_scan"}, "bike_id": "48a6a96ba3ee6cffca14f514281fc2f9", "fusion_lat": 0.0}, {"lon": -77.23000116666667, "name": "dbbb13e55012f2e99222147926d2e46d", "is_disabled": 0, "type": "electric_bike", "is_reserved": 0, "fusion_lon": 0.0, "lat": 38.87143666666667, "rental_uris": {"ios": "https://dc.lft.to/lastmile_qr_scan", "android": "https://dc.lft.to/lastmile_qr_scan"}, "bike_id": "dbbb13e55012f2e99222147926d2e46d", "fusion_lat": 0.0}, {"lon": -77.01909383333333, "name": "0fb7ae0541fc76ddfdf9cc289f977998", "is_disabled": 0, "type": "electric_scooter", "is_reserved": 0, "fusion_lon": 0.0, "lat": 38.9014265, "rental_uris": {"ios": "https://dc.lft.to/lastmile_qr_scan", "android": "https://dc.lft.to/lastmile_qr_scan"}, "bike_id": "0fb7ae0541fc76ddfdf9cc289f977998", "fusion_lat": 0.0}, {"lon": -77.05032983333334, "name": "36b5967f83ae5c6febea9bb9c1b01ffc", "is_disabled": 0, "type": "electric_scooter", "is_reserved": 0, "fusion_lon": 0.0, "lat": 38.892809166666666, "rental_uris": {"ios": "https://dc.lft.to/lastmile_qr_scan", "android": "https://dc.lft.to/lastmile_qr_scan"}, "bike_id": "36b5967f83ae5c6febea9bb9c1b01ffc", "fusion_lat": 0.0}, {"lon": -77.01672433333333, "name": "a4c54304c7be8c9515ff8f211c200b19", "is_disabled": 0, "type": "electric_scooter", "is_reserved": 0, "fusion_lon": 0.0, "lat": 38.920472833333335, "rental_uris": {"ios": "https://dc.lft.to/lastmile_qr_scan", "android": "https://dc.lft.to/lastmile_qr_scan"}, "bike_id": "a4c54304c7be8c9515ff8f211c200b19", "fusion_lat": 0.0}, {"lon": -76.97270083333333, "name": "37ea21d438c8c1ffaa3e1ed08ffbbffe", "is_disabled": 0, "type": "electric_bike", "is_reserved": 0, "fusion_lon": 0.0, "lat": 38.855965166666664, "rental_uris": {"ios": "https://dc.lft.to/lastmile_qr_scan", "android": "https://dc.lft.to/lastmile_qr_scan"}, "bike_id": "37ea21d438c8c1ffaa3e1ed08ffbbffe", "fusion_lat": 0.0}, {"lon": -77.02283583333333, "name": "2eb3e0a1d4127dd87877bcf541a523b9", "is_disabled": 0, "type": "electric_scooter", "is_reserved": 0, "fusion_lon": 0.0, "lat": 38.87839266666667, "rental_uris": {"ios": "https://dc.lft.to/lastmile_qr_scan", "android": "https://dc.lft.to/lastmile_qr_scan"}, "bike_id": "2eb3e0a1d4127dd87877bcf541a523b9", "fusion_lat": 0.0}, {"lon": -77.0725525, "name": "097271689b8d3bd71ab4d109d8e7a0ee", "is_disabled": 0, "type": "electric_scooter", "is_reserved": 0, "fusion_lon": 0.0, "lat": 38.90784383333333, "rental_uris": {"ios": "https://dc.lft.to/lastmile_qr_scan", "android": "https://dc.lft.to/lastmile_qr_scan"}, "bike_id": "097271689b8d3bd71ab4d109d8e7a0ee", "fusion_lat": 0.0}, {"lon": -77.04159933333334, "name": "a354f532cdf02ee80630b042a644191b", "is_disabled": 0, "type": "electric_scooter", "is_reserved": 0, "fusion_lon": 0.0, "lat": 38.91591583333334, "rental_uris": {"ios": "https://dc.lft.to/lastmile_qr_scan", "android": "https://dc.lft.to/lastmile_qr_scan"}, "bike_id": "a354f532cdf02ee80630b042a644191b", "fusion_lat": 0.0}, {"lon": -77.03231283333334, "name": "5e3774eb1bf0414cdefe3e0058234d4d", "is_disabled": 0, "type": "electric_scooter", "is_reserved": 0, "fusion_lon": 0.0, "lat": 38.899265666666665, "rental_uris": {"ios": "https://dc.lft.to/lastmile_qr_scan", "android": "https://dc.lft.to/lastmile_qr_scan"}, "bike_id": "5e3774eb1bf0414cdefe3e0058234d4d", "fusion_lat": 0.0}, {"lon": -77.03701066666666, "name": "55569af87b7e95d31b7ed6c8e9fe4950", "is_disabled": 0, "type": "electric_scooter", "is_reserved": 0, "fusion_lon": 0.0, "lat": 38.93282583333333, "rental_uris": {"ios": "https://dc.lft.to/lastmile_qr_scan", "android": "https://dc.lft.to/lastmile_qr_scan"}, "bike_id": "55569af87b7e95d31b7ed6c8e9fe4950", "fusion_lat": 0.0}, {"lon": -77.009087, "name": "eab326c1dbfc69557b8fbb7a4cd65107", "is_disabled": 0, "type": "electric_scooter", "is_reserved": 0, "fusion_lon": 0.0, "lat": 38.909709166666666, "rental_uris": {"ios": "https://dc.lft.to/lastmile_qr_scan", "android": "https://dc.lft.to/lastmile_qr_scan"}, "bike_id": "eab326c1dbfc69557b8fbb7a4cd65107", "fusion_lat": 0.0}, {"lon": -77.04379216666666, "name": "732c96c78e4796e207c62cef576ec359", "is_disabled": 0, "type": "electric_scooter", "is_reserved": 0, "fusion_lon": 0.0, "lat": 38.92069, "rental_uris": {"ios": "https://dc.lft.to/lastmile_qr_scan", "android": "https://dc.lft.to/lastmile_qr_scan"}, "bike_id": "732c96c78e4796e207c62cef576ec359", "fusion_lat": 0.0}, {"lon": -76.99800383333333, "name": "305d0dbbd3cf07b5e34c3251b8a8953d", "is_disabled": 0, "type": "electric_bike", "is_reserved": 0, "fusion_lon": 0.0, "lat": 38.881287, "rental_uris": {"ios": "https://dc.lft.to/lastmile_qr_scan", "android": "https://dc.lft.to/lastmile_qr_scan"}, "bike_id": "305d0dbbd3cf07b5e34c3251b8a8953d", "fusion_lat": 0.0}, {"lon": -77.0588155, "name": "591ae453c3bbd8ace2a12fccf8a473e5", "is_disabled": 0, "type": "electric_bike", "is_reserved": 0, "fusion_lon": 0.0, "lat": 38.8270245, "rental_uris": {"ios": "https://dc.lft.to/lastmile_qr_scan", "android": "https://dc.lft.to/lastmile_qr_scan"}, "bike_id": "591ae453c3bbd8ace2a12fccf8a473e5", "fusion_lat": 0.0}, {"lon": -77.03027283333333, "name": "f1e51dd3ff1493f092f66c732ccbfbe1", "is_disabled": 0, "type": "electric_scooter", "is_reserved": 0, "fusion_lon": 0.0, "lat": 38.898334166666665, "rental_uris": {"ios": "https://dc.lft.to/lastmile_qr_scan", "android": "https://dc.lft.to/lastmile_qr_scan"}, "bike_id": "f1e51dd3ff1493f092f66c732ccbfbe1", "fusion_lat": 0.0}, {"lon": -77.0175735, "name": "588fa3f82f9c97df458d217ed763dc01", "is_disabled": 0, "type": "electric_scooter", "is_reserved": 0, "fusion_lon": 0.0, "lat": 38.877113333333334, "rental_uris": {"ios": "https://dc.lft.to/lastmile_qr_scan", "android": "https://dc.lft.to/lastmile_qr_scan"}, "bike_id": "588fa3f82f9c97df458d217ed763dc01", "fusion_lat": 0.0}, {"lon": -77.00151766666667, "name": "340ca0ba448307d2ac381267f977d3f4", "is_disabled": 0, "type": "electric_scooter", "is_reserved": 0, "fusion_lon": 0.0, "lat": 38.89471433333333, "rental_uris": {"ios": "https://dc.lft.to/lastmile_qr_scan", "android": "https://dc.lft.to/lastmile_qr_scan"}, "bike_id": "340ca0ba448307d2ac381267f977d3f4", "fusion_lat": 0.0}, {"lon": -77.02064683333333, "name": "4e67eed516c640820b107a5037521337", "is_disabled": 0, "type": "electric_scooter", "is_reserved": 0, "fusion_lon": 0.0, "lat": 38.923612, "rental_uris": {"ios": "https://dc.lft.to/lastmile_qr_scan", "android": "https://dc.lft.to/lastmile_qr_scan"}, "bike_id": "4e67eed516c640820b107a5037521337", "fusion_lat": 0.0}, {"lon": -77.01908233333333, "name": "99c19b385f44c7a9dab8301e220ba316", "is_disabled": 0, "type": "electric_scooter", "is_reserved": 0, "fusion_lon": 0.0, "lat": 38.92018983333333, "rental_uris": {"ios": "https://dc.lft.to/lastmile_qr_scan", "android": "https://dc.lft.to/lastmile_qr_scan"}, "bike_id": "99c19b385f44c7a9dab8301e220ba316", "fusion_lat": 0.0}, {"lon": -77.026695, "name": "bc5a6020a14fd5085f91bea55a3c3ca2", "is_disabled": 0, "type": "electric_scooter", "is_reserved": 0, "fusion_lon": 0.0, "lat": 38.921724833333336, "rental_uris": {"ios": "https://dc.lft.to/lastmile_qr_scan", "android": "https://dc.lft.to/lastmile_qr_scan"}, "bike_id": "bc5a6020a14fd5085f91bea55a3c3ca2", "fusion_lat": 0.0}, {"lon": -77.02826683333333, "name": "253bc8c8ab24db215d4f1d847a285ac6", "is_disabled": 0, "type": "electric_scooter", "is_reserved": 0, "fusion_lon": 0.0, "lat": 38.931714, "rental_uris": {"ios": "https://dc.lft.to/lastmile_qr_scan", "android": "https://dc.lft.to/lastmile_qr_scan"}, "bike_id": "253bc8c8ab24db215d4f1d847a285ac6", "fusion_lat": 0.0}, {"lon": -77.03444583333334, "name": "8f5d83cb7f82bbcc958c3c7906e3ca08", "is_disabled": 0, "type": "electric_scooter", "is_reserved": 0, "fusion_lon": 0.0, "lat": 38.9046065, "rental_uris": {"ios": "https://dc.lft.to/lastmile_qr_scan", "android": "https://dc.lft.to/lastmile_qr_scan"}, "bike_id": "8f5d83cb7f82bbcc958c3c7906e3ca08", "fusion_lat": 0.0}, {"lon": -77.02539566666667, "name": "6495020ef7dbb6d5e5ce15c302d093dc", "is_disabled": 0, "type": "electric_scooter", "is_reserved": 0, "fusion_lon": 0.0, "lat": 38.89221583333333, "rental_uris": {"ios": "https://dc.lft.to/lastmile_qr_scan", "android": "https://dc.lft.to/lastmile_qr_scan"}, "bike_id": "6495020ef7dbb6d5e5ce15c302d093dc", "fusion_lat": 0.0}, {"lon": -76.98839633333333, "name": "d91f80f53c6f5c012a16ddf9c8718089", "is_disabled": 0, "type": "electric_scooter", "is_reserved": 0, "fusion_lon": 0.0, "lat": 38.934751166666665, "rental_uris": {"ios": "https://dc.lft.to/lastmile_qr_scan", "android": "https://dc.lft.to/lastmile_qr_scan"}, "bike_id": "d91f80f53c6f5c012a16ddf9c8718089", "fusion_lat": 0.0}, {"lon": -77.01999133333334, "name": "b32b0e64a82b97008373f8fc6a34c8e9", "is_disabled": 0, "type": "electric_scooter", "is_reserved": 0, "fusion_lon": 0.0, "lat": 38.91527966666666, "rental_uris": {"ios": "https://dc.lft.to/lastmile_qr_scan", "android": "https://dc.lft.to/lastmile_qr_scan"}, "bike_id": "b32b0e64a82b97008373f8fc6a34c8e9", "fusion_lat": 0.0}, {"lon": -77.02844916666666, "name": "a0329b982bdefeb227450214ecffb7d5", "is_disabled": 0, "type": "electric_scooter", "is_reserved": 0, "fusion_lon": 0.0, "lat": 38.94495516666667, "rental_uris": {"ios": "https://dc.lft.to/lastmile_qr_scan", "android": "https://dc.lft.to/lastmile_qr_scan"}, "bike_id": "a0329b982bdefeb227450214ecffb7d5", "fusion_lat": 0.0}, {"lon": -77.02070316666666, "name": "669a65c5e3cf7f57cbb6eeb34745cbcf", "is_disabled": 0, "type": "electric_scooter", "is_reserved": 0, "fusion_lon": 0.0, "lat": 38.921392, "rental_uris": {"ios": "https://dc.lft.to/lastmile_qr_scan", "android": "https://dc.lft.to/lastmile_qr_scan"}, "bike_id": "669a65c5e3cf7f57cbb6eeb34745cbcf", "fusion_lat": 0.0}, {"lon": -77.02114033333334, "name": "89e45f6a2056d8835e25ac0c09297f18", "is_disabled": 0, "type": "electric_bike", "is_reserved": 0, "fusion_lon": 0.0, "lat": 39.02294533333333, "rental_uris": {"ios": "https://dc.lft.to/lastmile_qr_scan", "android": "https://dc.lft.to/lastmile_qr_scan"}, "bike_id": "89e45f6a2056d8835e25ac0c09297f18", "fusion_lat": 0.0}, {"lon": -76.986535, "name": "ae97475e5e170c837c727cc88ff8a092", "is_disabled": 0, "type": "electric_bike", "is_reserved": 0, "fusion_lon": 0.0, "lat": 38.974766333333335, "rental_uris": {"ios": "https://dc.lft.to/lastmile_qr_scan", "android": "https://dc.lft.to/lastmile_qr_scan"}, "bike_id": "ae97475e5e170c837c727cc88ff8a092", "fusion_lat": 0.0}, {"lon": -76.98687116666666, "name": "5e9800242cbe23fcd5455212471c616c", "is_disabled": 0, "type": "electric_bike", "is_reserved": 0, "fusion_lon": 0.0, "lat": 38.9447475, "rental_uris": {"ios": "https://dc.lft.to/lastmile_qr_scan", "android": "https://dc.lft.to/lastmile_qr_scan"}, "bike_id": "5e9800242cbe23fcd5455212471c616c", "fusion_lat": 0.0}, {"lon": -77.02208616666667, "name": "7fd02cd4763b23e4b392e8cff0259763", "is_disabled": 0, "type": "electric_scooter", "is_reserved": 0, "fusion_lon": 0.0, "lat": 38.89410816666667, "rental_uris": {"ios": "https://dc.lft.to/lastmile_qr_scan", "android": "https://dc.lft.to/lastmile_qr_scan"}, "bike_id": "7fd02cd4763b23e4b392e8cff0259763", "fusion_lat": 0.0}, {"lon": -77.02641666666666, "name": "90fa57b5b328ff12c0ea915f7a8cdebb", "is_disabled": 0, "type": "electric_scooter", "is_reserved": 0, "fusion_lon": 0.0, "lat": 38.951857333333336, "rental_uris": {"ios": "https://dc.lft.to/lastmile_qr_scan", "android": "https://dc.lft.to/lastmile_qr_scan"}, "bike_id": "90fa57b5b328ff12c0ea915f7a8cdebb", "fusion_lat": 0.0},