{"data": {"bikes": [{"rental_uris": {"ios": "https://dc.lft.to/lastmile_qr_scan", "android": "https://dc.lft.to/lastmile_qr_scan"}, "lon": -77.00943533333333, "type": "electric_scooter", "fusion_lat": 0.0, "lat": 38.871971, "name": "cf01639ebcec9f29a30ac2fc52308d7c", "fusion_lon": 0.0, "bike_id": "cf01639ebcec9f29a30ac2fc52308d7c", "is_disabled": 0, "is_reserved": 0}, {"rental_uris": {"ios": "https://dc.lft.to/lastmile_qr_scan", "android": "https://dc.lft.to/lastmile_qr_scan"}, "lon": -76.98789383333333, "type": "electric_bike", "fusion_lat": 0.0, "lat": 38.90417683333333, "name": "6b70bb655f52b63fe1f1781c5eaebe07", "fusion_lon": 0.0, "bike_id": "6b70bb655f52b63fe1f1781c5eaebe07", "is_disabled": 0, "is_reserved": 0}, {"rental_uris": {"ios": "https://dc.lft.to/lastmile_qr_scan", "android": "https://dc.lft.to/lastmile_qr_scan"}, "lon": -77.022102, "type": "electric_scooter", "fusion_lat": 0.0, "lat": 38.90829816666667, "name": "464a94839e48bc41396c1dba76af671c", "fusion_lon": 0.0, "bike_id": "464a94839e48bc41396c1dba76af671c", "is_disabled": 0, "is_reserved": 0}, {"rental_uris": {"ios": "https://dc.lft.to/lastmile_qr_scan", "android": "https://dc.lft.to/lastmile_qr_scan"}, "lon": -76.99067333333333, "type": "electric_scooter", "fusion_lat": 0.0, "lat": 38.863599666666666, "name": "a7ad2a1e2a797f1a7d6cf9cb7e2aaa89", "fusion_lon": 0.0, "bike_id": "a7ad2a1e2a797f1a7d6cf9cb7e2aaa89", "is_disabled": 0, "is_reserved": 0}, {"rental_uris": {"ios": "https://dc.lft.to/lastmile_qr_scan", "android": "https://dc.lft.to/lastmile_qr_scan"}, "lon": -77.0243655, "type": "electric_scooter", "fusion_lat": 0.0, "lat": 38.92256616666667, "name": "4bb9ba7b08ad28ce7f95570a5156439e", "fusion_lon": 0.0, "bike_id": "4bb9ba7b08ad28ce7f95570a5156439e", "is_disabled": 0, "is_reserved": 0}, {"rental_uris": {"ios": "https://dc.lft.to/lastmile_qr_scan", "android": "https://dc.lft.to/lastmile_qr_scan"}, "lon": -77.0151205, "type": "electric_scooter", "fusion_lat": 0.0, "lat": 38.88737833333333, "name": "742e57bef57a1799a42e3184e081234e", "fusion_lon": 0.0, "bike_id": "742e57bef57a1799a42e3184e081234e", "is_disabled": 0, "is_reserved": 0}, {"rental_uris": {"ios": "https://dc.lft.to/lastmile_qr_scan", "android": "https://dc.lft.to/lastmile_qr_scan"}, "lon": -77.06518333333334, "type": "electric_bike", "fusion_lat": 0.0, "lat": 38.905479166666666, "name": "ba20f96592590c4a8cdcbaa0a56eff85", "fusion_lon": 0.0, "bike_id": "ba20f96592590c4a8cdcbaa0a56eff85", "is_disabled": 0, "is_reserved": 0}, {"rental_uris": {"ios": "https://dc.lft.to/lastmile_qr_scan", "android": "https://dc.lft.to/lastmile_qr_scan"}, "lon": -77.0408915, "type": "electric_scooter", "fusion_lat": 0.0, "lat": 38.91987983333333, "name": "c75b844f8d9a6387eb1a28cd0d83c77e", "fusion_lon": 0.0, "bike_id": "c75b844f8d9a6387eb1a28cd0d83c77e", "is_disabled": 0, "is_reserved": 0}, {"rental_uris": {"ios": "https://dc.lft.to/lastmile_qr_scan", "android": "https://dc.lft.to/lastmile_qr_scan"}, "lon": -77.02225883333334, "type": "electric_scooter", "fusion_lat": 0.0, "lat": 38.912691333333335, "name": "abe21264ee57d731e40e000a36f4e653", "fusion_lon": 0.0, "bike_id": "abe21264ee57d731e40e000a36f4e653", "is_disabled": 0, "is_reserved": 0}, {"rental_uris": {"ios": "https://dc.lft.to/lastmile_qr_scan", "android": "https://dc.lft.to/lastmile_qr_scan"}, "lon": -76.98343116666666, "type": "electric_scooter", "fusion_lat": 0.0, "lat": 38.915347833333335, "name": "fbc46b809dd782726b89727099dc82de", "fusion_lon": 0.0, "bike_id": "fbc46b809dd782726b89727099dc82de", "is_disabled": 0, "is_reserved": 0}, {"rental_uris": {"ios": "https://dc.lft.to/lastmile_qr_scan", "android": "https://dc.lft.to/lastmile_qr_scan"}, "lon": -76.97457766666666, "type": "electric_scooter", "fusion_lat": 0.0, "lat": 38.865473, "name": "7a75c5d506b65f81746c80c9baf4dda4", "fusion_lon": 0.0, "bike_id": "7a75c5d506b65f81746c80c9baf4dda4", "is_disabled": 0, "is_reserved": 0}, {"rental_uris": {"ios": "https://dc.lft.to/lastmile_qr_scan", "android": "https://dc.lft.to/lastmile_qr_scan"}, "lon": -77.03199616666667, "type": "electric_scooter", "fusion_lat": 0.0, "lat": 38.900346666666664, "name": "35289d6634be08ede91ae77f40610106", "fusion_lon": 0.0, "bike_id": "35289d6634be08ede91ae77f40610106", "is_disabled": 0, "is_reserved": 0}, {"rental_uris": {"ios": "https://dc.lft.to/lastmile_qr_scan", "android": "https://dc.lft.to/lastmile_qr_scan"}, "lon": -77.01227266666666, "type": "electric_scooter", "fusion_lat": 0.0, "lat": 38.915945, "name": "0d74db6f2ad58c2332569a67460696d1", "fusion_lon": 0.0, "bike_id": "0d74db6f2ad58c2332569a67460696d1", "is_disabled": 0, "is_reserved": 0}, {"rental_uris": {"ios": "https://dc.lft.to/lastmile_qr_scan", "android": "https://dc.lft.to/lastmile_qr_scan"}, "lon": -77.03845083333333, "type": "electric_scooter", "fusion_lat": 0.0, "lat": 38.926438166666664, "name": "623a4695113c81b80396c58feca1f7ab", "fusion_lon": 0.0, "bike_id": "623a4695113c81b80396c58feca1f7ab", "is_disabled": 0, "is_reserved": 0}, {"rental_uris": {"ios": "https://dc.lft.to/lastmile_qr_scan", "android": "https://dc.lft.to/lastmile_qr_scan"}, "lon": -77.05977683333333, "type": "electric_scooter", "fusion_lat": 0.0, "lat": 38.93551133333333, "name": "282a7e285ea0815f6584dde433a4df17", "fusion_lon": 0.0, "bike_id": "282a7e285ea0815f6584dde433a4df17", "is_disabled": 0, "is_reserved": 0}, {"rental_uris": {"ios": "https://dc.lft.to/lastmile_qr_scan", "android": "https://dc.lft.to/lastmile_qr_scan"}, "lon": -77.04615883333334, "type": "electric_scooter", "fusion_lat": 0.0, "lat": 38.91898533333333, "name": "ad7de0a7cd8546151b9164794a8aede6", "fusion_lon": 0.0, "bike_id": "ad7de0a7cd8546151b9164794a8aede6", "is_disabled": 0, "is_reserved": 0}, {"rental_uris": {"ios": "https://dc.lft.to/lastmile_qr_scan", "android": "https://dc.lft.to/lastmile_qr_scan"}, "lon": -77.0121235, "type": "electric_scooter", "fusion_lat": 0.0, "lat": 38.914942333333336, "name": "edf616443f841e6b16b34fbce3571567", "fusion_lon": 0.0, "bike_id": "edf616443f841e6b16b34fbce3571567", "is_disabled": 0, "is_reserved": 0}, {"rental_uris": {"ios": "https://dc.lft.to/lastmile_qr_scan", "android": "https://dc.lft.to/lastmile_qr_scan"}, "lon": -76.954636, "type": "electric_bike", "fusion_lat": 0.0, "lat": 38.88644083333333, "name": "e4f5375412644bd68ca4d5149e5593aa", "fusion_lon": 0.0, "bike_id": "e4f5375412644bd68ca4d5149e5593aa", "is_disabled": 0, "is_reserved": 0}, {"rental_uris": {"ios": "https://dc.lft.to/lastmile_qr_scan", "android": "https://dc.lft.to/lastmile_qr_scan"}, "lon": -77.01132433333333, "type": "electric_scooter", "fusion_lat": 0.0, "lat": 38.918121666666664, "name": "58f3c66c90f1116788c96e768bb5db01", "fusion_lon": 0.0, "bike_id": "58f3c66c90f1116788c96e768bb5db01", "is_disabled": 0, "is_reserved": 0}, {"rental_uris": {"ios": "https://dc.lft.to/lastmile_qr_scan", "android": "https://dc.lft.to/lastmile_qr_scan"}, "lon": -77.0334795, "type": "electric_scooter", "fusion_lat": 0.0, "lat": 38.911919833333336, "name": "633cf55fdd641190655959210a5aa62d", "fusion_lon": 0.0, "bike_id": "633cf55fdd641190655959210a5aa62d", "is_disabled": 0, "is_reserved": 0}, {"rental_uris": {"ios": "https://dc.lft.to/lastmile_qr_scan", "android": "https://dc.lft.to/lastmile_qr_scan"}, "lon": -76.937173, "type": "electric_scooter", "fusion_lat": 0.0, "lat": 38.895887333333334, "name": "e4c792d75fd721225627440aee4b4f29", "fusion_lon": 0.0, "bike_id": "e4c792d75fd721225627440aee4b4f29", "is_disabled": 0, "is_reserved": 0}, {"rental_uris": {"ios": "https://dc.lft.to/lastmile_qr_scan", "android": "https://dc.lft.to/lastmile_qr_scan"}, "lon": -77.00237566666667, "type": "electric_scooter", "fusion_lat": 0.0, "lat": 38.91181533333334, "name": "abfacd42bb3f5b01d68d9f04d419aeb9", "fusion_lon": 0.0, "bike_id": "abfacd42bb3f5b01d68d9f04d419aeb9", "is_disabled": 0, "is_reserved": 0}, {"rental_uris": {"ios": "https://dc.lft.to/lastmile_qr_scan", "android": "https://dc.lft.to/lastmile_qr_scan"}, "lon": -77.04770633333334, "type": "electric_scooter", "fusion_lat": 0.0, "lat": 38.908557, "name": "18766cd4c79898968ec0e6ef2656231c", "fusion_lon": 0.0, "bike_id": "18766cd4c79898968ec0e6ef2656231c", "is_disabled": 0, "is_reserved": 0}, {"rental_uris": {"ios": "https://dc.lft.to/lastmile_qr_scan", "android": "https://dc.lft.to/lastmile_qr_scan"}, "lon": -77.04175166666667, "type": "electric_scooter", "fusion_lat": 0.0, "lat": 38.91771816666667, "name": "e6b2efe0496242158739f084c27ded2d", "fusion_lon": 0.0, "bike_id": "e6b2efe0496242158739f084c27ded2d", "is_disabled": 0, "is_reserved": 0}, {"rental_uris": {"ios": "https://dc.lft.to/lastmile_qr_scan", "android": "https://dc.lft.to/lastmile_qr_scan"}, "lon": -76.97497716666666, "type": "electric_bike", "fusion_lat": 0.0, "lat": 38.92008716666667, "name": "477a46e7414ea945cf580313b3b8288e", "fusion_lon": 0.0, "bike_id": "477a46e7414ea945cf580313b3b8288e", "is_disabled": 0, "is_reserved": 0}, {"rental_uris": {"ios": "https://dc.lft.to/lastmile_qr_scan", "android": "https://dc.lft.to/lastmile_qr_scan"}, "lon": -76.98488066666667, "type": "electric_scooter", "fusion_lat": 0.0, "lat": 38.9077305, "name": "10c9d220061d7667025ede2edf32880d", "fusion_lon": 0.0, "bike_id": "10c9d220061d7667025ede2edf32880d", "is_disabled": 0, "is_reserved": 0}, {"rental_uris": {"ios": "https://dc.lft.to/lastmile_qr_scan", "android": "https://dc.lft.to/lastmile_qr_scan"}, "lon": -77.04010616666666, "type": "electric_scooter", "fusion_lat": 0.0, "lat": 38.910096833333334, "name": "1d6800f23e57f73ab4f7ae720fa22efc", "fusion_lon": 0.0, "bike_id": "1d6800f23e57f73ab4f7ae720fa22efc", "is_disabled": 0, "is_reserved": 0}, {"rental_uris": {"ios": "https://dc.lft.to/lastmile_qr_scan", "android": "https://dc.lft.to/lastmile_qr_scan"}, "lon": -77.0410565, "type": "electric_scooter", "fusion_lat": 0.0, "lat": 38.9245, "name": "28f884c15d4eabfa44642efcc3718bc9", "fusion_lon": 0.0, "bike_id": "28f884c15d4eabfa44642efcc3718bc9", "is_disabled": 0, "is_reserved": 0}, {"rental_uris": {"ios": "https://dc.lft.to/lastmile_qr_scan", "android": "https://dc.lft.to/lastmile_qr_scan"}, "lon": -76.97406433333333, "type": "electric_scooter", "fusion_lat": 0.0, "lat": 38.901544333333334, "name": "f43f08c66943d4641450c0cb0debee73", "fusion_lon": 0.0, "bike_id": "f43f08c66943d4641450c0cb0debee73", "is_disabled": 0, "is_reserved": 0}, {"rental_uris": {"ios": "https://dc.lft.to/lastmile_qr_scan", "android": "https://dc.lft.to/lastmile_qr_scan"}, "lon": -77.01541983333334, "type": "electric_scooter", "fusion_lat": 0.0, "lat": 38.89197033333333, "name": "ce5dab686aac02cea2452b13cf344c82", "fusion_lon": 0.0, "bike_id": "ce5dab686aac02cea2452b13cf344c82", "is_disabled": 0, "is_reserved": 0}, {"rental_uris": {"ios": "https://dc.lft.to/lastmile_qr_scan", "android": "https://dc.lft.to/lastmile_qr_scan"}, "lon": -77.00592716666667, "type": "electric_scooter", "fusion_lat": 0.0, "lat": 38.91565383333333, "name": "42f7eef64db662305e9c25b7eaa97526", "fusion_lon": 0.0, "bike_id": "42f7eef64db662305e9c25b7eaa97526", "is_disabled": 0, "is_reserved": 0}, {"rental_uris": {"ios": "https://dc.lft.to/lastmile_qr_scan", "android": "https://dc.lft.to/lastmile_qr_scan"}, "lon": -77.02396616666667, "type": "electric_scooter", "fusion_lat": 0.0, "lat": 38.93108766666667, "name": "758a4db98cf688c47f618bc021ecc5be", "fusion_lon": 0.0, "bike_id": "758a4db98cf688c47f618bc021ecc5be", "is_disabled": 0, "is_reserved": 0}, {"rental_uris": {"ios": "https://dc.lft.to/lastmile_qr_scan", "android": "https://dc.lft.to/lastmile_qr_scan"}, "lon": -77.12503083333333, "type": "electric_bike", "fusion_lat": 0.0, "lat": 39.0242185, "name": "9f5b1518456e26decddab047a62de166", "fusion_lon": 0.0, "bike_id": "9f5b1518456e26decddab047a62de166", "is_disabled": 0, "is_reserved": 0}, {"rental_uris": {"ios": "https://dc.lft.to/lastmile_qr_scan", "android": "https://dc.lft.to/lastmile_qr_scan"}, "lon": -77.02140416666667, "type": "electric_scooter", "fusion_lat": 0.0, "lat": 38.933041, "name": "0b1e1395fd2bc2c6ae22320657d3a6f1", "fusion_lon": 0.0, "bike_id": "0b1e1395fd2bc2c6ae22320657d3a6f1", "is_disabled": 0, "is_reserved": 0}, {"rental_uris": {"ios": "https://dc.lft.to/lastmile_qr_scan", "android": "https://dc.lft.to/lastmile_qr_scan"}, "lon": -77.024649, "type": "electric_scooter", "fusion_lat": 0.0, "lat": 38.93095316666667, "name": "b3d90144edd10f0e1f53f331d15ad078", "fusion_lon": 0.0, "bike_id": "b3d90144edd10f0e1f53f331d15ad078", "is_disabled": 0, "is_reserved": 0}, {"rental_uris": {"ios": "https://dc.lft.to/lastmile_qr_scan", "android": "https://dc.lft.to/lastmile_qr_scan"}, "lon": -76.99173616666667, "type": "electric_scooter", "fusion_lat": 0.0, "lat": 38.905015666666664, "name": "83817a7ea82cfa8c690b84b3d75b0ce2", "fusion_lon": 0.0, "bike_id": "83817a7ea82cfa8c690b84b3d75b0ce2", "is_disabled": 0, "is_reserved": 0}, {"rental_uris": {"ios": "https://dc.lft.to/lastmile_qr_scan", "android": "https://dc.lft.to/lastmile_qr_scan"}, "lon": -76.990696, "type": "electric_scooter", "fusion_lat": 0.0, "lat": 38.86354716666666, "name": "562a971982a08d726f729757fdad3339", "fusion_lon": 0.0, "bike_id": "562a971982a08d726f729757fdad3339", "is_disabled": 0, "is_reserved": 0}, {"rental_uris": {"ios": "https://dc.lft.to/lastmile_qr_scan", "android": "https://dc.lft.to/lastmile_qr_scan"}, "lon": -77.1296495, "type": "electric_bike", "fusion_lat": 0.0, "lat": 38.80791766666667, "name": "def7266b199df0e49cc03c598d3b1088", "fusion_lon": 0.0, "bike_id": "def7266b199df0e49cc03c598d3b1088", "is_disabled": 0, "is_reserved": 0}, {"rental_uris": {"ios": "https://dc.lft.to/lastmile_qr_scan", "android": "https://dc.lft.to/lastmile_qr_scan"}, "lon": -77.01289233333334, "type": "electric_bike", "fusion_lat": 0.0, "lat": 39.003844666666666, "name": "08b64d5c9f0e79c65b95d5874725a30b", "fusion_lon": 0.0, "bike_id": "08b64d5c9f0e79c65b95d5874725a30b", "is_disabled": 0, "is_reserved": 0}, {"rental_uris": {"ios": "https://dc.lft.to/lastmile_qr_scan", "android": "https://dc.lft.to/lastmile_qr_scan"}, "lon": -77.04028816666667, "type": "electric_scooter", "fusion_lat": 0.0, "lat": 38.90373, "name": "0dda715536e683c7af3474c1d54324a4", "fusion_lon": 0.0, "bike_id": "0dda715536e683c7af3474c1d54324a4", "is_disabled": 0, "is_reserved": 0}, {"rental_uris": {"ios": "https://dc.lft.to/lastmile_qr_scan", "android": "https://dc.lft.to/lastmile_qr_scan"}, "lon": -77.036489, "type": "electric_scooter", "fusion_lat": 0.0, "lat": 38.90270533333333, "name": "550487334c6cb08e8216357dbed329b0", "fusion_lon": 0.0, "bike_id": "550487334c6cb08e8216357dbed329b0", "is_disabled": 0, "is_reserved": 0}, {"rental_uris": {"ios": "https://dc.lft.to/lastmile_qr_scan", "android": "https://dc.lft.to/lastmile_qr_scan"}, "lon": -77.0449235, "type": "electric_scooter", "fusion_lat": 0.0, "lat": 38.91101283333333, "name": "97f2dc384f41de2fa295d903724a1cb7", "fusion_lon": 0.0, "bike_id": "97f2dc384f41de2fa295d903724a1cb7", "is_disabled": 0, "is_reserved": 0}, {"rental_uris": {"ios": "https://dc.lft.to/lastmile_qr_scan", "android": "https://dc.lft.to/lastmile_qr_scan"}, "lon": -77.03027116666667, "type": "electric_scooter", "fusion_lat": 0.0, "lat": 38.896042333333334, "name": "b344416d81d4f865b30643e4e1cb8b0a", "fusion_lon": 0.0, "bike_id": "b344416d81d4f865b30643e4e1cb8b0a", "is_disabled": 0, "is_reserved": 0}, {"rental_uris": {"ios": "https://dc.lft.to/lastmile_qr_scan", "android": "https://dc.lft.to/lastmile_qr_scan"}, "lon": -77.03455916666667, "type": "electric_scooter", "fusion_lat": 0.0, "lat": 38.90815283333333, "name": "f17b5ee8407888ae83fe846282cd036a", "fusion_lon": 0.0, "bike_id": "f17b5ee8407888ae83fe846282cd036a", "is_disabled": 0, "is_reserved": 0}, {"rental_uris": {"ios": "https://dc.lft.to/lastmile_qr_scan", "android": "https://dc.lft.to/lastmile_qr_scan"}, "lon": -77.0392035, "type": "electric_scooter", "fusion_lat": 0.0, "lat": 38.921063833333335, "name": "d71fca1f269f1861c30b97bcea291c1f", "fusion_lon": 0.0, "bike_id": "d71fca1f269f1861c30b97bcea291c1f", "is_disabled": 0, "is_reserved": 0}, {"rental_uris": {"ios": "https://dc.lft.to/lastmile_qr_scan", "android": "https://dc.lft.to/lastmile_qr_scan"}, "lon": -77.04884116666666, "type": "electric_scooter", "fusion_lat": 0.0, "lat": 38.90206583333333, "name": "b6b29545d11a622e75629bfb44a65508", "fusion_lon": 0.0, "bike_id": "b6b29545d11a622e75629bfb44a65508", "is_disabled": 0, "is_reserved": 0}, {"rental_uris": {"ios": "https://dc.lft.to/lastmile_qr_scan", "android": "https://dc.lft.to/lastmile_qr_scan"}, "lon": -77.01602566666666, "type": "electric_scooter", "fusion_lat": 0.0, "lat": 38.901764, "name": "5999c9e256d7c998b978985f959e2e0b", "fusion_lon": 0.0, "bike_id": "5999c9e256d7c998b978985f959e2e0b", "is_disabled": 0, "is_reserved": 0}, {"rental_uris": {"ios": "https://dc.lft.to/lastmile_qr_scan", "android": "https://dc.lft.to/lastmile_qr_scan"}, "lon": -77.05522733333333, "type": "electric_scooter", "fusion_lat": 0.0, "lat": 38.897411166666664, "name": "8a3885cb3784832b5d97934b0968363e", "fusion_lon": 0.0, "bike_id": "8a3885cb3784832b5d97934b0968363e", "is_disabled": 0, "is_reserved": 0}, {"rental_uris": {"ios": "https://dc.lft.to/lastmile_qr_scan", "android": "https://dc.lft.to/lastmile_qr_scan"}, "lon": -77.04664116666666, "type": "electric_scooter", "fusion_lat": 0.0, "lat": 38.93297066666667, "name": "d8ebca029753852a0764ddc78a010585", "fusion_lon": 0.0, "bike_id": "d8ebca029753852a0764ddc78a010585", "is_disabled": 0, "is_reserved": 0}, {"rental_uris": {"ios": "https://dc.lft.to/lastmile_qr_scan", "android": "https://dc.lft.to/lastmile_qr_scan"}, "lon": -76.93243016666666, "type": "electric_scooter", "fusion_lat": 0.0, "lat": 38.89407416666667, "name": "3769f0fd67dff2dc0d3ac03aa2167e12", "fusion_lon": 0.0, "bike_id": "3769f0fd67dff2dc0d3ac03aa2167e12", "is_disabled": 0, "is_reserved": 0}, {"rental_uris": {"ios": "https://dc.lft.to/lastmile_qr_scan", "android": "https://dc.lft.to/lastmile_qr_scan"}, "lon": -77.04645766666667, "type": "electric_bike", "fusion_lat": 0.0, "lat": 38.85210583333333, "name": "a890dcbdd2fc157dd18e7146ddd8e446", "fusion_lon": 0.0, "bike_id": "a890dcbdd2fc157dd18e7146ddd8e446", "is_disabled": 0, "is_reserved": 0}, {"rental_uris": {"ios": "https://dc.lft.to/lastmile_qr_scan", "android": "https://dc.lft.to/lastmile_qr_scan"}, "lon": -77.0344485, "type": "electric_scooter", "fusion_lat": 0.0, "lat": 38.91877683333333, "name": "25df94240ddb3ecca963c618a69850f7", "fusion_lon": 0.0, "bike_id": "25df94240ddb3ecca963c618a69850f7", "is_disabled": 0, "is_reserved": 0}, {"rental_uris": {"ios": "https://dc.lft.to/lastmile_qr_scan", "android": "https://dc.lft.to/lastmile_qr_scan"}, "lon": -77.06491933333334, "type": "electric_bike", "fusion_lat": 0.0, "lat": 38.9649495, "name": "edd5e52122ef54de54a18f8e2a6411dc", "fusion_lon": 0.0, "bike_id": "edd5e52122ef54de54a18f8e2a6411dc", "is_disabled": 0, "is_reserved": 0}, {"rental_uris": {"ios": "https://dc.lft.to/lastmile_qr_scan", "android": "https://dc.lft.to/lastmile_qr_scan"}, "lon": -77.03135383333333, "type": "electric_scooter", "fusion_lat": 0.0, "lat": 38.923899, "name": "5e39d27ac531dbad6c63dc689a7a3d86", "fusion_lon": 0.0, "bike_id": "5e39d27ac531dbad6c63dc689a7a3d86", "is_disabled": 0, "is_reserved": 0}, {"rental_uris": {"ios": "https://dc.lft.to/lastmile_qr_scan", "android": "https://dc.lft.to/lastmile_qr_scan"}, "lon": -77.04227266666666, "type": "electric_scooter", "fusion_lat": 0.0, "lat": 38.921103333333335, "name": "47678b15aa0feadd50be98d8b0722f85", "fusion_lon": 0.0, "bike_id": "47678b15aa0feadd50be98d8b0722f85", "is_disabled": 0, "is_reserved": 0}, {"rental_uris": {"ios": "https://dc.lft.to/lastmile_qr_scan", "android": "https://dc.lft.to/lastmile_qr_scan"}, "lon": -77.00249283333333, "type": "electric_scooter", "fusion_lat": 0.0, "lat": 38.91921833333333, "name": "bbb0085d4e0be2c6318c7391a8e3352d", "fusion_lon": 0.0, "bike_id": "bbb0085d4e0be2c6318c7391a8e3352d", "is_disabled": 0, "is_reserved": 0}, {"rental_uris": {"ios": "https://dc.lft.to/lastmile_qr_scan", "android": "https://dc.lft.to/lastmile_qr_scan"}, "lon": -77.02394283333334, "type": "electric_scooter", "fusion_lat": 0.0, "lat": 38.93770166666667, "name": "e61291a5ee0b8fedbf8982ac0d3d9f2f", "fusion_lon": 0.0, "bike_id": "e61291a5ee0b8fedbf8982ac0d3d9f2f", "is_disabled": 0, "is_reserved": 0}, {"rental_uris": {"ios": "https://dc.lft.to/lastmile_qr_scan", "android": "https://dc.lft.to/lastmile_qr_scan"}, "lon": -76.99381433333333, "type": "electric_scooter", "fusion_lat": 0.0, "lat": 38.88747466666667, "name": "84a7cd8d5129734f2ecfd2513f5b585e", "fusion_lon": 0.0, "bike_id": "84a7cd8d5129734f2ecfd2513f5b585e", "is_disabled": 0, "is_reserved": 0}, {"rental_uris": {"ios": "https://dc.lft.to/lastmile_qr_scan", "android": "https://dc.lft.to/lastmile_qr_scan"}, "lon": -76.94414533333334, "type": "electric_scooter", "fusion_lat": 0.0, "lat": 38.89791866666667, "name": "2ec6093e366d796327bf53fbf150e8cc", "fusion_lon": 0.0, "bike_id": "2ec6093e366d796327bf53fbf150e8cc", "is_disabled": 0, "is_reserved": 0}, {"rental_uris": {"ios": "https://dc.lft.to/lastmile_qr_scan", "android": "https://dc.lft.to/lastmile_qr_scan"}, "lon": -76.98339633333333, "type": "electric_scooter", "fusion_lat": 0.0, "lat": 38.91538333333333, "name": "13bd33271e1513679620601ebee02706", "fusion_lon": 0.0, "bike_id": "13bd33271e1513679620601ebee02706", "is_disabled": 0, "is_reserved": 0}, {"rental_uris": {"ios": "https://dc.lft.to/lastmile_qr_scan", "android": "https://dc.lft.to/lastmile_qr_scan"}, "lon": -77.01580583333333, "type": "electric_scooter", "fusion_lat": 0.0, "lat": 38.913534166666665, "name": "b1cd1add4b4280ec389dd664b18f5aac", "fusion_lon": 0.0, "bike_id": "b1cd1add4b4280ec389dd664b18f5aac", "is_disabled": 0, "is_reserved": 0}, {"rental_uris": {"ios": "https://dc.lft.to/lastmile_qr_scan", "android": "https://dc.lft.to/lastmile_qr_scan"}, "lon": -77.041695, "type": "electric_scooter", "fusion_lat": 0.0, "lat": 38.9199195, "name": "47dcaa2a570630ebad7387514c113cb2", "fusion_lon": 0.0, "bike_id": "47dcaa2a570630ebad7387514c113cb2", "is_disabled": 0, "is_reserved": 0}, {"rental_uris": {"ios": "https://dc.lft.to/lastmile_qr_scan", "android": "https://dc.lft.to/lastmile_qr_scan"}, "lon": -77.00214916666667, "type": "electric_scooter", "fusion_lat": 0.0, "lat": 38.900649333333334, "name": "55d520e65868f0a7e7ae3f2d9ab78769", "fusion_lon": 0.0, "bike_id": "55d520e65868f0a7e7ae3f2d9ab78769", "is_disabled": 0, "is_reserved": 0}, {"rental_uris": {"ios": "https://dc.lft.to/lastmile_qr_scan", "android": "https://dc.lft.to/lastmile_qr_scan"}, "lon": -76.99002666666667, "type": "electric_scooter", "fusion_lat": 0.0, "lat": 38.8650455, "name": "c5184b3800e11dbcfe58d3da243ee769", "fusion_lon": 0.0, "bike_id": "c5184b3800e11dbcfe58d3da243ee769", "is_disabled": 0, "is_reserved": 0}, {"rental_uris": {"ios": "https://dc.lft.to/lastmile_qr_scan", "android": "https://dc.lft.to/lastmile_qr_scan"}, "lon": -77.06109566666667, "type": "electric_scooter", "fusion_lat": 0.0, "lat": 38.91293616666667, "name": "6c10e39f60b75c6cf005b14886c617e9", "fusion_lon": 0.0, "bike_id": "6c10e39f60b75c6cf005b14886c617e9", "is_disabled": 0, "is_reserved": 0}, {"rental_uris": {"ios": "https://dc.lft.to/lastmile_qr_scan", "android": "https://dc.lft.to/lastmile_qr_scan"}, "lon": -77.03485, "type": "electric_scooter", "fusion_lat": 0.0, "lat": 38.907726, "name": "2ced347f2f901270c3ec05ce6a230703", "fusion_lon": 0.0, "bike_id": "2ced347f2f901270c3ec05ce6a230703", "is_disabled": 0, "is_reserved": 0}, {"rental_uris": {"ios": "https://dc.lft.to/lastmile_qr_scan", "android": "https://dc.lft.to/lastmile_qr_scan"}, "lon": -77.042332, "type": "electric_scooter", "fusion_lat": 0.0, "lat": 38.92151833333333, "name": "3bbfaa8688177a378ce21233edf49bb3", "fusion_lon": 0.0, "bike_id": "3bbfaa8688177a378ce21233edf49bb3", "is_disabled": 0, "is_reserved": 0}, {"rental_uris": {"ios": "https://dc.lft.to/lastmile_qr_scan", "android": "https://dc.lft.to/lastmile_qr_scan"}, "lon": -77.03224116666667, "type": "electric_scooter", "fusion_lat": 0.0, "lat": 38.91262, "name": "17823a32e4d53698259f271f3f423345", "fusion_lon": 0.0, "bike_id": "17823a32e4d53698259f271f3f423345", "is_disabled": 0, "is_reserved": 0}, {"rental_uris": {"ios": "https://dc.lft.to/lastmile_qr_scan", "android": "https://dc.lft.to/lastmile_qr_scan"}, "lon": -77.02168733333333, "type": "electric_scooter", "fusion_lat": 0.0, "lat": 38.9161685, "name": "9d413dc6102a8b831bfb62d6a25e0140", "fusion_lon": 0.0, "bike_id": "9d413dc6102a8b831bfb62d6a25e0140", "is_disabled": 0, "is_reserved": 0}, {"rental_uris": {"ios": "https://dc.lft.to/lastmile_qr_scan", "android": "https://dc.lft.to/lastmile_qr_scan"}, "lon": -76.9895695, "type": "electric_scooter", "fusion_lat": 0.0, "lat": 38.90028683333333, "name": "d348ce9b51979c2d87bd158d8be077ae", "fusion_lon": 0.0, "bike_id": "d348ce9b51979c2d87bd158d8be077ae", "is_disabled": 0, "is_reserved": 0}, {"rental_uris": {"ios": "https://dc.lft.to/lastmile_qr_scan", "android": "https://dc.lft.to/lastmile_qr_scan"}, "lon": -77.052917, "type": "electric_scooter", "fusion_lat": 0.0, "lat": 38.9278755, "name": "3bcc4507083b2c1e34c33b4441a86e56", "fusion_lon": 0.0, "bike_id": "3bcc4507083b2c1e34c33b4441a86e56", "is_disabled": 0, "is_reserved": 0}, {"rental_uris": {"ios": "https://dc.lft.to/lastmile_qr_scan", "android": "https://dc.lft.to/lastmile_qr_scan"}, "lon": -77.0378675, "type": "electric_scooter", "fusion_lat": 0.0, "lat": 38.90561916666667, "name": "e05c8884b1011b9f005e3450a56eca75", "fusion_lon": 0.0, "bike_id": "e05c8884b1011b9f005e3450a56eca75", "is_disabled": 0, "is_reserved": 0}, {"rental_uris": {"ios": "https://dc.lft.to/lastmile_qr_scan", "android": "https://dc.lft.to/lastmile_qr_scan"}, "lon": -77.03801516666667, "type": "electric_scooter", "fusion_lat": 0.0, "lat": 38.935906, "name": "4faa5e3dc8d0163ecec9ece968a2ddff", "fusion_lon": 0.0, "bike_id": "4faa5e3dc8d0163ecec9ece968a2ddff", "is_disabled": 0, "is_reserved": 0}, {"rental_uris": {"ios": "https://dc.lft.to/lastmile_qr_scan", "android": "https://dc.lft.to/lastmile_qr_scan"}, "lon": -77.00586433333334, "type": "electric_scooter", "fusion_lat": 0.0, "lat": 38.90577616666667, "name": "6dbdf2aa67a6edf62f6fd827b8283d1a", "fusion_lon": 0.0, "bike_id": "6dbdf2aa67a6edf62f6fd827b8283d1a", "is_disabled": 0, "is_reserved": 0}, {"rental_uris": {"ios": "https://dc.lft.to/lastmile_qr_scan", "android": "https://dc.lft.to/lastmile_qr_scan"}, "lon": -77.12899916666667, "type": "electric_bike", "fusion_lat": 0.0, "lat": 38.863768666666665, "name": "b646c67d1a75314fbf2249ca26f7fc5a", "fusion_lon": 0.0, "bike_id": "b646c67d1a75314fbf2249ca26f7fc5a", "is_disabled": 0, "is_reserved": 0}, {"rental_uris": {"ios": "https://dc.lft.to/lastmile_qr_scan", "android": "https://dc.lft.to/lastmile_qr_scan"}, "lon": -77.02784233333334, "type": "electric_scooter", "fusion_lat": 0.0, "lat": 38.93575116666667, "name": "2267a9b8dd6e782719514a2d01825582", "fusion_lon": 0.0, "bike_id": "2267a9b8dd6e782719514a2d01825582", "is_disabled": 0, "is_reserved": 0}, {"rental_uris": {"ios": "https://dc.lft.to/lastmile_qr_scan", "android": "https://dc.lft.to/lastmile_qr_scan"}, "lon": -77.04007683333333, "type": "electric_scooter", "fusion_lat": 0.0, "lat": 38.93247483333333, "name": "b3bc745f67d4acccdac6e12dce6995de", "fusion_lon": 0.0, "bike_id": "b3bc745f67d4acccdac6e12dce6995de", "is_disabled": 0, "is_reserved": 0}, {"rental_uris": {"ios": "https://dc.lft.to/lastmile_qr_scan", "android": "https://dc.lft.to/lastmile_qr_scan"}, "lon": -77.00072316666666, "type": "electric_scooter", "fusion_lat": 0.0, "lat": 38.925513, "name": "243fe2140d1cfc54ed3dc645fb17d06b", "fusion_lon": 0.0, "bike_id": "243fe2140d1cfc54ed3dc645fb17d06b", "is_disabled": 0, "is_reserved": 0}, {"rental_uris": {"ios": "https://dc.lft.to/lastmile_qr_scan", "android": "https://dc.lft.to/lastmile_qr_scan"}, "lon": -77.0320385, "type": "electric_scooter", "fusion_lat": 0.0, "lat": 38.9152425, "name": "5ad3c4aa790e3cd32af909d6646e0e7f", "fusion_lon": 0.0, "bike_id": "5ad3c4aa790e3cd32af909d6646e0e7f", "is_disabled": 0, "is_reserved": 0}, {"rental_uris": {"ios": "https://dc.lft.to/lastmile_qr_scan", "android": "https://dc.lft.to/lastmile_qr_scan"}, "lon": -77.04815733333334, "type": "electric_scooter", "fusion_lat": 0.0, "lat": 38.920354, "name": "8f8ff5e1a0eee4f9db757e2ab4bcecc6", "fusion_lon": 0.0, "bike_id": "8f8ff5e1a0eee4f9db757e2ab4bcecc6", "is_disabled": 0, "is_reserved": 0}, {"rental_uris": {"ios": "https://dc.lft.to/lastmile_qr_scan", "android": "https://dc.lft.to/lastmile_qr_scan"}, "lon": -76.99814116666667, "type": "electric_bike", "fusion_lat": 0.0, "lat": 38.844308, "name": "2f09ba34a1212ec3dc85744ad06ee013", "fusion_lon": 0.0, "bike_id": "2f09ba34a1212ec3dc85744ad06ee013", "is_disabled": 0, "is_reserved": 0}, {"rental_uris": {"ios": "https://dc.lft.to/lastmile_qr_scan", "android": "https://dc.lft.to/lastmile_qr_scan"}, "lon": -77.01995266666667, "type": "electric_scooter", "fusion_lat": 0.0, "lat": 38.89977066666667, "name": "4600b7fda4ae517d8e2928aa8fe891e5", "fusion_lon": 0.0, "bike_id": "4600b7fda4ae517d8e2928aa8fe891e5", "is_disabled": 0, "is_reserved": 0}, {"rental_uris": {"ios": "https://dc.lft.to/lastmile_qr_scan", "android": "https://dc.lft.to/lastmile_qr_scan"}, "lon": -76.99681933333333, "type": "electric_scooter", "fusion_lat": 0.0, "lat": 38.900438333333334, "name": "433873876f8335dbf3e148ed89c8e43f", "fusion_lon": 0.0, "bike_id": "433873876f8335dbf3e148ed89c8e43f", "is_disabled": 0, "is_reserved": 0}, {"rental_uris": {"ios": "https://dc.lft.to/lastmile_qr_scan", "android": "https://dc.lft.to/lastmile_qr_scan"}, "lon": -76.98588183333334, "type": "electric_scooter", "fusion_lat": 0.0, "lat": 38.899290666666666, "name": "4f638eb230520e8113db4c7d9bc49b66", "fusion_lon": 0.0, "bike_id": "4f638eb230520e8113db4c7d9bc49b66", "is_disabled": 0, "is_reserved": 0}, {"rental_uris": {"ios": "https://dc.lft.to/lastmile_qr_scan", "android": "https://dc.lft.to/lastmile_qr_scan"}, "lon": -77.034703, "type": "electric_scooter", "fusion_lat": 0.0, "lat": 38.91707483333333, "name": "eecaa86ac09187f9c76f02fc6ab1a7e3", "fusion_lon": 0.0, "bike_id": "eecaa86ac09187f9c76f02fc6ab1a7e3", "is_disabled": 0, "is_reserved": 0}, {"rental_uris": {"ios": "https://dc.lft.to/lastmile_qr_scan", "android": "https://dc.lft.to/lastmile_qr_scan"}, "lon": -77.0237965, "type": "electric_scooter", "fusion_lat": 0.0, "lat": 38.95247216666667, "name": "9b2d59997579ebbb8ffa2317a2c2b870", "fusion_lon": 0.0, "bike_id": "9b2d59997579ebbb8ffa2317a2c2b870", "is_disabled": 0, "is_reserved": 0}, {"rental_uris": {"ios": "https://dc.lft.to/lastmile_qr_scan", "android": "https://dc.lft.to/lastmile_qr_scan"}, "lon": -77.024385, "type": "electric_scooter", "fusion_lat": 0.0, "lat": 38.91693033333333, "name": "65cb732d6fe26be3cb9d5d63d369242e", "fusion_lon": 0.0, "bike_id": "65cb732d6fe26be3cb9d5d63d369242e", "is_disabled": 0, "is_reserved": 0}, {"rental_uris": {"ios": "https://dc.lft.to/lastmile_qr_scan", "android": "https://dc.lft.to/lastmile_qr_scan"}, "lon": -77.02433466666666, "type": "electric_scooter", "fusion_lat": 0.0, "lat": 38.90725033333333, "name": "b55396752478d38492d45b98a0e6a13c", "fusion_lon": 0.0, "bike_id": "b55396752478d38492d45b98a0e6a13c", "is_disabled": 0, "is_reserved": 0}, {"rental_uris": {"ios": "https://dc.lft.to/lastmile_qr_scan", "android": "https://dc.lft.to/lastmile_qr_scan"}, "lon": -77.02224883333334, "type": "electric_scooter", "fusion_lat": 0.0, "lat": 38.912707, "name": "5ef8e09a6d8b5df1718830976f890f27", "fusion_lon": 0.0, "bike_id": "5ef8e09a6d8b5df1718830976f890f27", "is_disabled": 0, "is_reserved": 0}, {"rental_uris": {"ios": "https://dc.lft.to/lastmile_qr_scan", "android": "https://dc.lft.to/lastmile_qr_scan"}, "lon": -76.97703116666666, "type": "electric_scooter", "fusion_lat": 0.0, "lat": 38.897097333333335, "name": "4983ee153d90b8cc5bf09dbf877a0441", "fusion_lon": 0.0, "bike_id": "4983ee153d90b8cc5bf09dbf877a0441", "is_disabled": 0, "is_reserved": 0}, {"rental_uris": {"ios": "https://dc.lft.to/lastmile_qr_scan", "android": "https://dc.lft.to/lastmile_qr_scan"}, "lon": -77.04025016666667, "type": "electric_scooter", "fusion_lat": 0.0, "lat": 38.90014516666667, "name": "da47350818d45907927ed4249d36be6e", "fusion_lon": 0.0, "bike_id": "da47350818d45907927ed4249d36be6e", "is_disabled": 0, "is_reserved": 0}, {"rental_uris": {"ios": "https://dc.lft.to/lastmile_qr_scan", "android": "https://dc.lft.to/lastmile_qr_scan"}, "lon": -76.94767783333333, "type": "electric_scooter", "fusion_lat": 0.0, "lat": 38.900678, "name": "0d4844519c6a591a1ff51cbc2030ded9", "fusion_lon": 0.0, "bike_id": "0d4844519c6a591a1ff51cbc2030ded9", "is_disabled": 0, "is_reserved": 0}, {"rental_uris": {"ios": "https://dc.lft.to/lastmile_qr_scan", "android": "https://dc.lft.to/lastmile_qr_scan"}, "lon": -77.04905133333334, "type": "electric_scooter", "fusion_lat": 0.0, "lat": 38.896643, "name": "2831c190e41e2a3e7802ead407eb934c", "fusion_lon": 0.0, "bike_id": "2831c190e41e2a3e7802ead407eb934c", "is_disabled": 0, "is_reserved": 0}, {"rental_uris": {"ios": "https://dc.lft.to/lastmile_qr_scan", "android": "https://dc.lft.to/lastmile_qr_scan"}, "lon": -77.03514466666667, "type": "electric_scooter", "fusion_lat": 0.0, "lat": 38.90037566666667, "name": "dfb1a69aca2d4249fce8455f67425ac5", "fusion_lon": 0.0, "bike_id": "dfb1a69aca2d4249fce8455f67425ac5", "is_disabled": 0, "is_reserved": 0}, {"rental_uris": {"ios": "https://dc.lft.to/lastmile_qr_scan", "android": "https://dc.lft.to/lastmile_qr_scan"}, "lon": -77.035327, "type": "electric_scooter", "fusion_lat": 0.0, "lat": 38.92857516666667, "name": "ea9430e3ceaeb54ae9f9945adaa4ca64", "fusion_lon": 0.0, "bike_id": "ea9430e3ceaeb54ae9f9945adaa4ca64", "is_disabled": 0, "is_reserved": 0}, {"rental_uris": {"ios": "https://dc.lft.to/lastmile_qr_scan", "android": "https://dc.lft.to/lastmile_qr_scan"}, "lon": -77.05496916666667, "type": "electric_scooter", "fusion_lat": 0.0, "lat": 38.929704, "name": "64b06425aa60a951c5442103fb3c0fec", "fusion_lon": 0.0, "bike_id": "64b06425aa60a951c5442103fb3c0fec", "is_disabled": 0, "is_reserved": 0}, {"rental_uris": {"ios": "https://dc.lft.to/lastmile_qr_scan", "android": "https://dc.lft.to/lastmile_qr_scan"}, "lon": -77.02786333333333, "type": "electric_scooter", "fusion_lat": 0.0, "lat": 38.96135066666667, "name": "227b2f96d17216a722e91d2dbc89b911", "fusion_lon": 0.0, "bike_id": "227b2f96d17216a722e91d2dbc89b911", "is_disabled": 0, "is_reserved": 0}, {"rental_uris": {"ios": "https://dc.lft.to/lastmile_qr_scan", "android": "https://dc.lft.to/lastmile_qr_scan"}, "lon": -77.0394495, "type": "electric_scooter", "fusion_lat": 0.0, "lat": 38.926050833333335, "name": "5b9c308ff12558dc1650a21570b7529f", "fusion_lon": 0.0, "bike_id": "5b9c308ff12558dc1650a21570b7529f", "is_disabled": 0, "is_reserved": 0}, {"rental_uris": {"ios": "https://dc.lft.to/lastmile_qr_scan", "android": "https://dc.lft.to/lastmile_qr_scan"}, "lon": -77.03648333333334, "type": "electric_scooter", "fusion_lat": 0.0, "lat": 38.903271, "name": "7cc2e36486d8f50675d8e27afc26120d", "fusion_lon": 0.0, "bike_id": "7cc2e36486d8f50675d8e27afc26120d", "is_disabled": 0, "is_reserved": 0}, {"rental_uris": {"ios": "https://dc.lft.to/lastmile_qr_scan", "android": "https://dc.lft.to/lastmile_qr_scan"}, "lon": -77.03199033333334, "type": "electric_scooter", "fusion_lat": 0.0, "lat": 38.920704, "name": "4e774635886f9863796365e527e449d1", "fusion_lon": 0.0, "bike_id": "4e774635886f9863796365e527e449d1", "is_disabled": 0, "is_reserved": 0}, {"rental_uris": {"ios": "https://dc.lft.to/lastmile_qr_scan", "android": "https://dc.lft.to/lastmile_qr_scan"}, "lon": -77.04183883333333, "type": "electric_scooter", "fusion_lat": 0.0, "lat": 38.92206433333333, "name": "d0c5abcbac9f12500bd4d77ca8fbf09a", "fusion_lon": 0.0, "bike_id": "d0c5abcbac9f12500bd4d77ca8fbf09a", "is_disabled": 0, "is_reserved": 0}, {"rental_uris": {"ios": "https://dc.lft.to/lastmile_qr_scan", "android": "https://dc.lft.to/lastmile_qr_scan"}, "lon": -77.05081866666667, "type": "electric_scooter", "fusion_lat": 0.0, "lat": 38.924566666666664, "name": "02f7ebbeeee2702ee984b24ec3a94ae0", "fusion_lon": 0.0, "bike_id": "02f7ebbeeee2702ee984b24ec3a94ae0", "is_disabled": 0, "is_reserved": 0}, {"rental_uris": {"ios": "https://dc.lft.to/lastmile_qr_scan", "android": "https://dc.lft.to/lastmile_qr_scan"}, "lon": -77.05323616666666, "type": "electric_scooter", "fusion_lat": 0.0, "lat": 38.901627166666664, "name": "f48cf8e48e1154c0757c1c591f90f093", "fusion_lon": 0.0, "bike_id": "f48cf8e48e1154c0757c1c591f90f093", "is_disabled": 0, "is_reserved": 0}, {"rental_uris": {"ios": "https://dc.lft.to/lastmile_qr_scan", "android": "https://dc.lft.to/lastmile_qr_scan"}, "lon": -77.02743266666667, "type": "electric_scooter", "fusion_lat": 0.0, "lat": 38.9714395, "name": "e4c7ba564dd950b9cd3aa7e89cb74a12", "fusion_lon": 0.0, "bike_id": "e4c7ba564dd950b9cd3aa7e89cb74a12", "is_disabled": 0, "is_reserved": 0}, {"rental_uris": {"ios": "https://dc.lft.to/lastmile_qr_scan", "android": "https://dc.lft.to/lastmile_qr_scan"}, "lon": -77.0504235, "type": "electric_scooter", "fusion_lat": 0.0, "lat": 38.923668666666664, "name": "9ca486fde536713ca5cac62452067048", "fusion_lon": 0.0, "bike_id": "9ca486fde536713ca5cac62452067048", "is_disabled": 0, "is_reserved": 0}, {"rental_uris": {"ios": "https://dc.lft.to/lastmile_qr_scan", "android": "https://dc.lft.to/lastmile_qr_scan"}, "lon": -76.93242583333333, "type": "electric_bike", "fusion_lat": 0.0, "lat": 38.882797, "name": "4e97828a3c0f4e0a169484b4029a75fa", "fusion_lon": 0.0, "bike_id": "4e97828a3c0f4e0a169484b4029a75fa", "is_disabled": 0, "is_reserved": 0}, {"rental_uris": {"ios": "https://dc.lft.to/lastmile_qr_scan", "android": "https://dc.lft.to/lastmile_qr_scan"}, "lon": -77.02565866666667, "type": "electric_scooter", "fusion_lat": 0.0, "lat": 38.9086335, "name": "43cef8f42b151d8424266149ccbde160", "fusion_lon": 0.0, "bike_id": "43cef8f42b151d8424266149ccbde160", "is_disabled": 0, "is_reserved": 0}, {"rental_uris": {"ios": "https://dc.lft.to/lastmile_qr_scan", "android": "https://dc.lft.to/lastmile_qr_scan"}, "lon": -77.0709265, "type": "electric_scooter", "fusion_lat": 0.0, "lat": 38.93365383333333, "name": "dac908d12c8438af27f473feb664a581", "fusion_lon": 0.0, "bike_id": "dac908d12c8438af27f473feb664a581", "is_disabled": 0, "is_reserved": 0}, {"rental_uris": {"ios": "https://dc.lft.to/lastmile_qr_scan", "android": "https://dc.lft.to/lastmile_qr_scan"}, "lon": -76.98210166666667, "type": "electric_scooter", "fusion_lat": 0.0, "lat": 38.89088516666666, "name": "92adbca5bec15972baba00651ce6febb", "fusion_lon": 0.0, "bike_id": "92adbca5bec15972baba00651ce6febb", "is_disabled": 0, "is_reserved": 0}, {"rental_uris": {"ios": "https://dc.lft.to/lastmile_qr_scan", "android": "https://dc.lft.to/lastmile_qr_scan"}, "lon": -77.031019, "type": "electric_scooter", "fusion_lat": 0.0, "lat": 38.91812483333333, "name": "37eb412e63e17a478e3254f127bc628c", "fusion_lon": 0.0, "bike_id": "37eb412e63e17a478e3254f127bc628c", "is_disabled": 0, "is_reserved": 0}, {"rental_uris": {"ios": "https://dc.lft.to/lastmile_qr_scan", "android": "https://dc.lft.to/lastmile_qr_scan"}, "lon": -77.04044483333334, "type": "electric_scooter", "fusion_lat": 0.0, "lat": 38.902817166666665, "name": "6f24346fe241d40075afdf0b9e6b0828", "fusion_lon": 0.0, "bike_id": "6f24346fe241d40075afdf0b9e6b0828", "is_disabled": 0, "is_reserved": 0}, {"rental_uris": {"ios": "https://dc.lft.to/lastmile_qr_scan", "android": "https://dc.lft.to/lastmile_qr_scan"}, "lon": -77.03516166666667, "type": "electric_bike", "fusion_lat": 0.0, "lat": 38.9651525, "name": "7cf2bfa5f966d470e8d20020cff4ea81", "fusion_lon": 0.0, "bike_id": "7cf2bfa5f966d470e8d20020cff4ea81", "is_disabled": 0, "is_reserved": 0}, {"rental_uris": {"ios": "https://dc.lft.to/lastmile_qr_scan", "android": "https://dc.lft.to/lastmile_qr_scan"}, "lon": -77.033037, "type": "electric_scooter", "fusion_lat": 0.0, "lat": 38.90837116666667, "name": "03351e565a1984daac41d8bd69f35297", "fusion_lon": 0.0, "bike_id": "03351e565a1984daac41d8bd69f35297", "is_disabled": 0, "is_reserved": 0}, {"rental_uris": {"ios": "https://dc.lft.to/lastmile_qr_scan", "android": "https://dc.lft.to/lastmile_qr_scan"}, "lon": -76.99962266666667, "type": "electric_scooter", "fusion_lat": 0.0, "lat": 38.909161833333336, "name": "3687e7d4d68675bee380e04a61fe4c5b", "fusion_lon": 0.0, "bike_id": "3687e7d4d68675bee380e04a61fe4c5b", "is_disabled": 0, "is_reserved": 0}, {"rental_uris": {"ios": "https://dc.lft.to/lastmile_qr_scan", "android": "https://dc.lft.to/lastmile_qr_scan"}, "lon": -77.03866366666666, "type": "electric_scooter", "fusion_lat": 0.0, "lat": 38.92028833333333, "name": "bc02a7d7bdc6c437f425595d4ce54643", "fusion_lon": 0.0, "bike_id": "bc02a7d7bdc6c437f425595d4ce54643", "is_disabled": 0, "is_reserved": 0}, {"rental_uris": {"ios": "https://dc.lft.to/lastmile_qr_scan", "android": "https://dc.lft.to/lastmile_qr_scan"}, "lon": -76.978801, "type": "electric_scooter", "fusion_lat": 0.0, "lat": 38.885074333333336, "name": "6e83f80b9874d3975ad25a094b91e784", "fusion_lon": 0.0, "bike_id": "6e83f80b9874d3975ad25a094b91e784", "is_disabled": 0, "is_reserved": 0}, {"rental_uris": {"ios": "https://dc.lft.to/lastmile_qr_scan", "android": "https://dc.lft.to/lastmile_qr_scan"}, "lon": -77.03613116666666, "type": "electric_scooter", "fusion_lat": 0.0, "lat": 38.92337466666667, "name": "6d3814311cfb159bc5e6e9df47f58728", "fusion_lon": 0.0, "bike_id": "6d3814311cfb159bc5e6e9df47f58728", "is_disabled": 0, "is_reserved": 0}, {"rental_uris": {"ios": "https://dc.lft.to/lastmile_qr_scan", "android": "https://dc.lft.to/lastmile_qr_scan"}, "lon": -77.04176866666667, "type": "electric_scooter", "fusion_lat": 0.0, "lat": 38.919376166666666, "name": "68facfd63ad407746ebdc6543d36cc97", "fusion_lon": 0.0, "bike_id": "68facfd63ad407746ebdc6543d36cc97", "is_disabled": 0, "is_reserved": 0}, {"rental_uris": {"ios": "https://dc.lft.to/lastmile_qr_scan", "android": "https://dc.lft.to/lastmile_qr_scan"}, "lon": -76.98697983333334, "type": "electric_scooter", "fusion_lat": 0.0, "lat": 38.90704133333333, "name": "d1ddd8c7eda9fe208d071ddc3a5d62a1", "fusion_lon": 0.0, "bike_id": "d1ddd8c7eda9fe208d071ddc3a5d62a1", "is_disabled": 0, "is_reserved": 0}, {"rental_uris": {"ios": "https://dc.lft.to/lastmile_qr_scan", "android": "https://dc.lft.to/lastmile_qr_scan"}, "lon": -77.01092983333334, "type": "electric_scooter", "fusion_lat": 0.0, "lat": 38.894854333333335, "name": "8b1730af006ecd1de0aaef2755ecc0fc", "fusion_lon": 0.0, "bike_id": "8b1730af006ecd1de0aaef2755ecc0fc", "is_disabled": 0, "is_reserved": 0}, {"rental_uris": {"ios": "https://dc.lft.to/lastmile_qr_scan", "android": "https://dc.lft.to/lastmile_qr_scan"}, "lon": -77.01485633333333, "type": "electric_scooter", "fusion_lat": 0.0, "lat": 38.88124, "name": "89e511c315fb879f90872d3bb4d38dba", "fusion_lon": 0.0, "bike_id": "89e511c315fb879f90872d3bb4d38dba", "is_disabled": 0, "is_reserved": 0}, {"rental_uris": {"ios": "https://dc.lft.to/lastmile_qr_scan", "android": "https://dc.lft.to/lastmile_qr_scan"}, "lon": -77.052946, "type": "electric_scooter", "fusion_lat": 0.0, "lat": 38.918926, "name": "befab9b73342ed5ea8f6eae2314292da", "fusion_lon": 0.0, "bike_id": "befab9b73342ed5ea8f6eae2314292da", "is_disabled": 0, "is_reserved": 0}, {"rental_uris": {"ios": "https://dc.lft.to/lastmile_qr_scan", "android": "https://dc.lft.to/lastmile_qr_scan"}, "lon": -77.07066216666666, "type": "electric_scooter", "fusion_lat": 0.0, "lat": 38.95214566666667, "name": "c4a6a27207f3ba0be521fcd41be49181", "fusion_lon": 0.0, "bike_id": "c4a6a27207f3ba0be521fcd41be49181", "is_disabled": 0, "is_reserved": 0}, {"rental_uris": {"ios": "https://dc.lft.to/lastmile_qr_scan", "android": "https://dc.lft.to/lastmile_qr_scan"}, "lon": -76.98555883333333, "type": "electric_scooter", "fusion_lat": 0.0, "lat": 38.855822833333335, "name": "e716b54ab08adfd6bc314d160abb9e8f", "fusion_lon": 0.0, "bike_id": "e716b54ab08adfd6bc314d160abb9e8f", "is_disabled": 0, "is_reserved": 0}, {"rental_uris": {"ios": "https://dc.lft.to/lastmile_qr_scan", "android": "https://dc.lft.to/lastmile_qr_scan"}, "lon": -77.0548785, "type": "electric_scooter", "fusion_lat": 0.0, "lat": 38.929719, "name": "539b0ad0abf5b3d7c0c3883968aa7b92", "fusion_lon": 0.0, "bike_id": "539b0ad0abf5b3d7c0c3883968aa7b92", "is_disabled": 0, "is_reserved": 0}, {"rental_uris": {"ios": "https://dc.lft.to/lastmile_qr_scan", "android": "https://dc.lft.to/lastmile_qr_scan"}, "lon": -76.94891683333333, "type": "electric_scooter", "fusion_lat": 0.0, "lat": 38.895299333333334, "name": "b9d265b21843d3c6aab20c117dfa5b8e", "fusion_lon": 0.0, "bike_id": "b9d265b21843d3c6aab20c117dfa5b8e", "is_disabled": 0, "is_reserved": 0}, {"rental_uris": {"ios": "https://dc.lft.to/lastmile_qr_scan", "android": "https://dc.lft.to/lastmile_qr_scan"}, "lon": -77.04189466666666, "type": "electric_scooter", "fusion_lat": 0.0, "lat": 38.903523166666666, "name": "ae3f448bd06475706a85e65735f905f1", "fusion_lon": 0.0, "bike_id": "ae3f448bd06475706a85e65735f905f1", "is_disabled": 0, "is_reserved": 0}, {"rental_uris": {"ios": "https://dc.lft.to/lastmile_qr_scan", "android": "https://dc.lft.to/lastmile_qr_scan"}, "lon": -77.0086325, "type": "electric_bike", "fusion_lat": 0.0, "lat": 38.827317, "name": "ff625f7464f25b43ff6e7d2e726dff17", "fusion_lon": 0.0, "bike_id": "ff625f7464f25b43ff6e7d2e726dff17", "is_disabled": 0, "is_reserved": 0}, {"rental_uris": {"ios": "https://dc.lft.to/lastmile_qr_scan", "android": "https://dc.lft.to/lastmile_qr_scan"}, "lon": -76.99816616666666, "type": "electric_scooter", "fusion_lat": 0.0, "lat": 38.90021383333333, "name": "dda2670fb661c73cf48722096096010f", "fusion_lon": 0.0, "bike_id": "dda2670fb661c73cf48722096096010f", "is_disabled": 0, "is_reserved": 0}, {"rental_uris": {"ios": "https://dc.lft.to/lastmile_qr_scan", "android": "https://dc.lft.to/lastmile_qr_scan"}, "lon": -76.99002816666666, "type": "electric_scooter", "fusion_lat": 0.0, "lat": 38.86505583333334, "name": "9fadbc0677eb999e356c53496b1e1061", "fusion_lon": 0.0, "bike_id": "9fadbc0677eb999e356c53496b1e1061", "is_disabled": 0, "is_reserved": 0}, {"rental_uris": {"ios": "https://dc.lft.to/lastmile_qr_scan", "android": "https://dc.lft.to/lastmile_qr_scan"}, "lon": -77.0194425, "type": "electric_scooter", "fusion_lat": 0.0, "lat": 38.92413533333333, "name": "9f5ebce2ab4845f5d1126306034723c5", "fusion_lon": 0.0, "bike_id": "9f5ebce2ab4845f5d1126306034723c5", "is_disabled": 0, "is_reserved": 0}, {"rental_uris": {"ios": "https://dc.lft.to/lastmile_qr_scan", "android": "https://dc.lft.to/lastmile_qr_scan"}, "lon": -77.0314915, "type": "electric_scooter", "fusion_lat": 0.0, "lat": 38.914151833333335, "name": "a129a56e89930f55a3e8a025f34c5dd6", "fusion_lon": 0.0, "bike_id": "a129a56e89930f55a3e8a025f34c5dd6", "is_disabled": 0, "is_reserved": 0}, {"rental_uris": {"ios": "https://dc.lft.to/lastmile_qr_scan", "android": "https://dc.lft.to/lastmile_qr_scan"}, "lon": -77.0471705, "type": "electric_scooter", "fusion_lat": 0.0, "lat": 38.922375, "name": "4804b9ecd67267db15e76ad0884de65b", "fusion_lon": 0.0, "bike_id": "4804b9ecd67267db15e76ad0884de65b", "is_disabled": 0, "is_reserved": 0}, {"rental_uris": {"ios": "https://dc.lft.to/lastmile_qr_scan", "android": "https://dc.lft.to/lastmile_qr_scan"}, "lon": -77.0330515, "type": "electric_scooter", "fusion_lat": 0.0, "lat": 38.892322666666665, "name": "8a6d2a9cabe8b2466b01f13208dc344e", "fusion_lon": 0.0, "bike_id": "8a6d2a9cabe8b2466b01f13208dc344e", "is_disabled": 0, "is_reserved": 0}, {"rental_uris": {"ios": "https://dc.lft.to/lastmile_qr_scan", "android": "https://dc.lft.to/lastmile_qr_scan"}, "lon": -77.05418283333333, "type": "electric_scooter", "fusion_lat": 0.0, "lat": 38.902439, "name": "aad44fa44437f51752c57182a1b3c9ce", "fusion_lon": 0.0, "bike_id": "aad44fa44437f51752c57182a1b3c9ce", "is_disabled": 0, "is_reserved": 0}, {"rental_uris": {"ios": "https://dc.lft.to/lastmile_qr_scan", "android": "https://dc.lft.to/lastmile_qr_scan"}, "lon": -77.01755016666667, "type": "electric_scooter", "fusion_lat": 0.0, "lat": 38.921081666666666, "name": "f740cf85212f34f6ce09706877b33543", "fusion_lon": 0.0, "bike_id": "f740cf85212f34f6ce09706877b33543", "is_disabled": 0, "is_reserved": 0}, {"rental_uris": {"ios": "https://dc.lft.to/lastmile_qr_scan", "android": "https://dc.lft.to/lastmile_qr_scan"}, "lon": -77.035041, "type": "electric_scooter", "fusion_lat": 0.0, "lat": 38.921494, "name": "8ca9f0dc317c8f6489ba0a33719ff78d", "fusion_lon": 0.0, "bike_id": "8ca9f0dc317c8f6489ba0a33719ff78d", "is_disabled": 0, "is_reserved": 0}, {"rental_uris": {"ios": "https://dc.lft.to/lastmile_qr_scan", "android": "https://dc.lft.to/lastmile_qr_scan"}, "lon": -76.93959416666667, "type": "electric_scooter", "fusion_lat": 0.0, "lat": 38.89418333333333, "name": "dbacd84372c8600df33290547ddb84f2", "fusion_lon": 0.0, "bike_id": "dbacd84372c8600df33290547ddb84f2", "is_disabled": 0, "is_reserved": 0}, {"rental_uris": {"ios": "https://dc.lft.to/lastmile_qr_scan", "android": "https://dc.lft.to/lastmile_qr_scan"}, "lon": -77.04924483333333, "type": "electric_scooter", "fusion_lat": 0.0, "lat": 38.896088166666665, "name": "9adf9c7c2be83e52a71a2a641e71c517", "fusion_lon": 0.0, "bike_id": "9adf9c7c2be83e52a71a2a641e71c517", "is_disabled": 0, "is_reserved": 0}, {"rental_uris": {"ios": "https://dc.lft.to/lastmile_qr_scan", "android": "https://dc.lft.to/lastmile_qr_scan"}, "lon": -77.032817, "type": "electric_scooter", "fusion_lat": 0.0, "lat": 38.93776183333333, "name": "a9ac72b75cd57ed668a678bc81538361", "fusion_lon": 0.0, "bike_id": "a9ac72b75cd57ed668a678bc81538361", "is_disabled": 0, "is_reserved": 0}, {"rental_uris": {"ios": "https://dc.lft.to/lastmile_qr_scan", "android": "https://dc.lft.to/lastmile_qr_scan"}, "lon": -77.03250583333333, "type": "electric_bike", "fusion_lat": 0.0, "lat": 38.90867566666667, "name": "37a8b2b2769e46c1527ccd87a321ba81", "fusion_lon": 0.0, "bike_id": "37a8b2b2769e46c1527ccd87a321ba81", "is_disabled": 0, "is_reserved": 0}, {"rental_uris": {"ios": "https://dc.lft.to/lastmile_qr_scan", "android": "https://dc.lft.to/lastmile_qr_scan"}, "lon": -76.92996633333334, "type": "electric_bike", "fusion_lat": 0.0, "lat": 38.8879825, "name": "b533ce6095bb52d7907d8457cc0e582d", "fusion_lon": 0.0, "bike_id": "b533ce6095bb52d7907d8457cc0e582d", "is_disabled": 0, "is_reserved": 0}, {"rental_uris": {"ios": "https://dc.lft.to/lastmile_qr_scan", "android": "https://dc.lft.to/lastmile_qr_scan"}, "lon": -77.01996066666666, "type": "electric_scooter", "fusion_lat": 0.0, "lat": 38.885817, "name": "af564a75bc110a4773dfb6bbbeb8d8d0", "fusion_lon": 0.0, "bike_id": "af564a75bc110a4773dfb6bbbeb8d8d0", "is_disabled": 0, "is_reserved": 0}, {"rental_uris": {"ios": "https://dc.lft.to/lastmile_qr_scan", "android": "https://dc.lft.to/lastmile_qr_scan"}, "lon": -77.07795766666666, "type": "electric_scooter", "fusion_lat": 0.0, "lat": 38.94083633333334, "name": "763de78936201e9eb7f3bd531abcf97d", "fusion_lon": 0.0, "bike_id": "763de78936201e9eb7f3bd531abcf97d", "is_disabled": 0, "is_reserved": 0}, {"rental_uris": {"ios": "https://dc.lft.to/lastmile_qr_scan", "android": "https://dc.lft.to/lastmile_qr_scan"}, "lon": -77.00721533333333, "type": "electric_scooter", "fusion_lat": 0.0, "lat": 38.913433833333336, "name": "c9a69673e88d925e7065629a0c3a87d1", "fusion_lon": 0.0, "bike_id": "c9a69673e88d925e7065629a0c3a87d1", "is_disabled": 0, "is_reserved": 0}, {"rental_uris": {"ios": "https://dc.lft.to/lastmile_qr_scan", "android": "https://dc.lft.to/lastmile_qr_scan"}, "lon": -77.0160355, "type": "electric_scooter", "fusion_lat": 0.0, "lat": 38.896166666666666, "name": "5025de1c32048d0e65cdf9204b2a6eb3", "fusion_lon": 0.0, "bike_id": "5025de1c32048d0e65cdf9204b2a6eb3", "is_disabled": 0, "is_reserved": 0}, {"rental_uris": {"ios": "https://dc.lft.to/lastmile_qr_scan", "android": "https://dc.lft.to/lastmile_qr_scan"}, "lon": -77.052624, "type": "electric_scooter", "fusion_lat": 0.0, "lat": 38.9100435, "name": "2d0de162d1d1af8bf9e385622eb1cc62", "fusion_lon": 0.0, "bike_id": "2d0de162d1d1af8bf9e385622eb1cc62", "is_disabled": 0, "is_reserved": 0}, {"rental_uris": {"ios": "https://dc.lft.to/lastmile_qr_scan", "android": "https://dc.lft.to/lastmile_qr_scan"}, "lon": -77.06537516666667, "type": "electric_scooter", "fusion_lat": 0.0, "lat": 38.9047565, "name": "3c41a2f065e978fc5778a9bd1b7f1229", "fusion_lon": 0.0, "bike_id": "3c41a2f065e978fc5778a9bd1b7f1229", "is_disabled": 0, "is_reserved": 0}, {"rental_uris": {"ios": "https://dc.lft.to/lastmile_qr_scan", "android": "https://dc.lft.to/lastmile_qr_scan"}, "lon": -77.04333666666666, "type": "electric_scooter", "fusion_lat": 0.0, "lat": 38.9279845, "name": "cddf724738029acd0b4c46cfbcc902c8", "fusion_lon": 0.0, "bike_id": "cddf724738029acd0b4c46cfbcc902c8", "is_disabled": 0, "is_reserved": 0}, {"rental_uris": {"ios": "https://dc.lft.to/lastmile_qr_scan", "android": "https://dc.lft.to/lastmile_qr_scan"}, "lon": -76.99677933333334, "type": "electric_scooter", "fusion_lat": 0.0, "lat": 38.88684933333333, "name": "78f60b6009d00b8504d791db99d97ffa", "fusion_lon": 0.0, "bike_id": "78f60b6009d00b8504d791db99d97ffa", "is_disabled": 0, "is_reserved": 0}, {"rental_uris": {"ios": "https://dc.lft.to/lastmile_qr_scan", "android": "https://dc.lft.to/lastmile_qr_scan"}, "lon": -76.95763733333334, "type": "electric_scooter", "fusion_lat": 0.0, "lat": 38.88688583333333, "name": "9529822702c16d7da3597aed603d3abe", "fusion_lon": 0.0, "bike_id": "9529822702c16d7da3597aed603d3abe", "is_disabled": 0, "is_reserved": 0}, {"rental_uris": {"ios": "https://dc.lft.to/lastmile_qr_scan", "android": "https://dc.lft.to/lastmile_qr_scan"}, "lon": -77.0073085, "type": "electric_scooter", "fusion_lat": 0.0, "lat": 38.896171, "name": "0c5fbb539f30dbcf2776d53a668f66ef", "fusion_lon": 0.0, "bike_id": "0c5fbb539f30dbcf2776d53a668f66ef", "is_disabled": 0, "is_reserved": 0}, {"rental_uris": {"ios": "https://dc.lft.to/lastmile_qr_scan", "android": "https://dc.lft.to/lastmile_qr_scan"}, "lon": -76.95883383333333, "type": "electric_scooter", "fusion_lat": 0.0, "lat": 38.85846816666667, "name": "3f5fb52b607949c8ae4466dec757c388", "fusion_lon": 0.0, "bike_id": "3f5fb52b607949c8ae4466dec757c388", "is_disabled": 0, "is_reserved": 0}, {"rental_uris": {"ios": "https://dc.lft.to/lastmile_qr_scan", "android": "https://dc.lft.to/lastmile_qr_scan"}, "lon": -77.02116733333334, "type": "electric_scooter", "fusion_lat": 0.0, "lat": 38.93698783333333, "name": "101d6f1bfafbaf2cc5f582983632d47d", "fusion_lon": 0.0, "bike_id": "101d6f1bfafbaf2cc5f582983632d47d", "is_disabled": 0, "is_reserved": 0}, {"rental_uris": {"ios": "https://dc.lft.to/lastmile_qr_scan", "android": "https://dc.lft.to/lastmile_qr_scan"}, "lon": -77.03111616666666, "type": "electric_bike", "fusion_lat": 0.0, "lat": 38.9043635, "name": "9ad376a968011936ee0174bbb053df4b", "fusion_lon": 0.0, "bike_id": "9ad376a968011936ee0174bbb053df4b", "is_disabled": 0, "is_reserved": 0}, {"rental_uris": {"ios": "https://dc.lft.to/lastmile_qr_scan", "android": "https://dc.lft.to/lastmile_qr_scan"}, "lon": -77.010813, "type": "electric_scooter", "fusion_lat": 0.0, "lat": 38.90351616666667, "name": "b600fa516bcd86cecf6db5b4c7954ce8", "fusion_lon": 0.0, "bike_id": "b600fa516bcd86cecf6db5b4c7954ce8", "is_disabled": 0, "is_reserved": 0}, {"rental_uris": {"ios": "https://dc.lft.to/lastmile_qr_scan", "android": "https://dc.lft.to/lastmile_qr_scan"}, "lon": -77.02774483333333, "type": "electric_scooter", "fusion_lat": 0.0, "lat": 38.918228666666664, "name": "44783d16edb3dc040420f06a4e46392f", "fusion_lon": 0.0, "bike_id": "44783d16edb3dc040420f06a4e46392f", "is_disabled": 0, "is_reserved": 0}, {"rental_uris": {"ios": "https://dc.lft.to/lastmile_qr_scan", "android": "https://dc.lft.to/lastmile_qr_scan"}, "lon": -77.024183, "type": "electric_scooter", "fusion_lat": 0.0, "lat": 38.91109516666667, "name": "d283a8a0d67b2fc8fdc6ddf9fe0ae8a3", "fusion_lon": 0.0, "bike_id": "d283a8a0d67b2fc8fdc6ddf9fe0ae8a3", "is_disabled": 0, "is_reserved": 0}, {"rental_uris": {"ios": "https://dc.lft.to/lastmile_qr_scan", "android": "https://dc.lft.to/lastmile_qr_scan"}, "lon": -76.96531083333333, "type": "electric_scooter", "fusion_lat": 0.0, "lat": 38.8763005, "name": "51437eca206348e413e0eb063477944e", "fusion_lon": 0.0, "bike_id": "51437eca206348e413e0eb063477944e", "is_disabled": 0, "is_reserved": 0}, {"rental_uris": {"ios": "https://dc.lft.to/lastmile_qr_scan", "android": "https://dc.lft.to/lastmile_qr_scan"}, "lon": -77.04485433333333, "type": "electric_bike", "fusion_lat": 0.0, "lat": 38.9129015, "name": "165d6a0da90c251444aaae0386a42087", "fusion_lon": 0.0, "bike_id": "165d6a0da90c251444aaae0386a42087", "is_disabled": 0, "is_reserved": 0}, {"rental_uris": {"ios": "https://dc.lft.to/lastmile_qr_scan", "android": "https://dc.lft.to/lastmile_qr_scan"}, "lon": -76.94754466666667, "type": "electric_scooter", "fusion_lat": 0.0, "lat": 38.90054033333333, "name": "39969c761d2b0f0e99b5312631577010", "fusion_lon": 0.0, "bike_id": "39969c761d2b0f0e99b5312631577010", "is_disabled": 0, "is_reserved": 0}, {"rental_uris": {"ios": "https://dc.lft.to/lastmile_qr_scan", "android": "https://dc.lft.to/lastmile_qr_scan"}, "lon": -76.98709566666666, "type": "electric_scooter", "fusion_lat": 0.0, "lat": 38.862628666666666, "name": "b88a00449af826296fbdac0ac9e1d471", "fusion_lon": 0.0, "bike_id": "b88a00449af826296fbdac0ac9e1d471", "is_disabled": 0, "is_reserved": 0}, {"rental_uris": {"ios": "https://dc.lft.to/lastmile_qr_scan", "android": "https://dc.lft.to/lastmile_qr_scan"}, "lon": -76.94184033333333, "type": "electric_scooter", "fusion_lat": 0.0, "lat": 38.882236, "name": "c92a432efdb231434ce404cebb3f530c", "fusion_lon": 0.0, "bike_id": "c92a432efdb231434ce404cebb3f530c", "is_disabled": 0, "is_reserved": 0}, {"rental_uris": {"ios": "https://dc.lft.to/lastmile_qr_scan", "android": "https://dc.lft.to/lastmile_qr_scan"}, "lon": -77.04652983333334, "type": "electric_scooter", "fusion_lat": 0.0, "lat": 38.905572666666664, "name": "38a0444850a4f231783ccb558e2fdc6c", "fusion_lon": 0.0, "bike_id": "38a0444850a4f231783ccb558e2fdc6c", "is_disabled": 0, "is_reserved": 0}, {"rental_uris": {"ios": "https://dc.lft.to/lastmile_qr_scan", "android": "https://dc.lft.to/lastmile_qr_scan"}, "lon": -76.95526, "type": "electric_scooter", "fusion_lat": 0.0, "lat": 38.88780033333333, "name": "9f9c86bc381e984ba2eea338e05c87e8", "fusion_lon": 0.0, "bike_id": "9f9c86bc381e984ba2eea338e05c87e8", "is_disabled": 0, "is_reserved": 0}, {"rental_uris": {"ios": "https://dc.lft.to/lastmile_qr_scan", "android": "https://dc.lft.to/lastmile_qr_scan"}, "lon": -77.05475783333333, "type": "electric_scooter", "fusion_lat": 0.0, "lat": 38.921051166666665, "name": "daa729d544f3b6545b08d142f56dceb5", "fusion_lon": 0.0, "bike_id": "daa729d544f3b6545b08d142f56dceb5", "is_disabled": 0, "is_reserved": 0}, {"rental_uris": {"ios": "https://dc.lft.to/lastmile_qr_scan", "android": "https://dc.lft.to/lastmile_qr_scan"}, "lon": -77.03766283333333, "type": "electric_scooter", "fusion_lat": 0.0, "lat": 38.92899766666667, "name": "5006e6b691746bae7ee7c2743257c909", "fusion_lon": 0.0, "bike_id": "5006e6b691746bae7ee7c2743257c909", "is_disabled": 0, "is_reserved": 0}, {"rental_uris": {"ios": "https://dc.lft.to/lastmile_qr_scan", "android": "https://dc.lft.to/lastmile_qr_scan"}, "lon": -77.0261455, "type": "electric_scooter", "fusion_lat": 0.0, "lat": 38.91708366666667, "name": "380784efa3bd9c95c5a383406dc84a77", "fusion_lon": 0.0, "bike_id": "380784efa3bd9c95c5a383406dc84a77", "is_disabled": 0, "is_reserved": 0}, {"rental_uris": {"ios": "https://dc.lft.to/lastmile_qr_scan", "android": "https://dc.lft.to/lastmile_qr_scan"}, "lon": -77.12033566666666, "type": "electric_bike", "fusion_lat": 0.0, "lat": 38.85516633333334, "name": "e1beb4cc5ac7ca9db3f05d5117a155ae", "fusion_lon": 0.0, "bike_id": "e1beb4cc5ac7ca9db3f05d5117a155ae", "is_disabled": 0, "is_reserved": 0}, {"rental_uris": {"ios": "https://dc.lft.to/lastmile_qr_scan", "android": "https://dc.lft.to/lastmile_qr_scan"}, "lon": -77.00053566666666, "type": "electric_scooter", "fusion_lat": 0.0, "lat": 38.90585516666667, "name": "f4625ed0b8ed39cef635dec547726aeb", "fusion_lon": 0.0, "bike_id": "f4625ed0b8ed39cef635dec547726aeb", "is_disabled": 0, "is_reserved": 0}, {"rental_uris": {"ios": "https://dc.lft.to/lastmile_qr_scan", "android": "https://dc.lft.to/lastmile_qr_scan"}, "lon": -77.03443533333333, "type": "electric_scooter", "fusion_lat": 0.0, "lat": 38.918198833333335, "name": "1d7aa63e43915a3cdfd3943e05d2b777", "fusion_lon": 0.0, "bike_id": "1d7aa63e43915a3cdfd3943e05d2b777", "is_disabled": 0, "is_reserved": 0}, {"rental_uris": {"ios": "https://dc.lft.to/lastmile_qr_scan", "android": "https://dc.lft.to/lastmile_qr_scan"}, "lon": -76.9317845, "type": "electric_scooter", "fusion_lat": 0.0, "lat": 38.898833833333335, "name": "00929ba254e0777d31e8ee61b118d5bd", "fusion_lon": 0.0, "bike_id": "00929ba254e0777d31e8ee61b118d5bd", "is_disabled": 0, "is_reserved": 0}, {"rental_uris": {"ios": "https://dc.lft.to/lastmile_qr_scan", "android": "https://dc.lft.to/lastmile_qr_scan"}, "lon": -76.9949685, "type": "electric_scooter", "fusion_lat": 0.0, "lat": 38.86242816666667, "name": "50fbe51d120f8a4a03167177cf0bd619", "fusion_lon": 0.0, "bike_id": "50fbe51d120f8a4a03167177cf0bd619", "is_disabled": 0, "is_reserved": 0}, {"rental_uris": {"ios": "https://dc.lft.to/lastmile_qr_scan", "android": "https://dc.lft.to/lastmile_qr_scan"}, "lon": -77.06886316666667, "type": "electric_scooter", "fusion_lat": 0.0, "lat": 38.907684833333334, "name": "2456cef84a631e7019492ba4a3839823", "fusion_lon": 0.0, "bike_id": "2456cef84a631e7019492ba4a3839823", "is_disabled": 0, "is_reserved": 0}, {"rental_uris": {"ios": "https://dc.lft.to/lastmile_qr_scan", "android": "https://dc.lft.to/lastmile_qr_scan"}, "lon": -76.9236965, "type": "electric_bike", "fusion_lat": 0.0, "lat": 38.8837475, "name": "e4bbbd59b2160ffd3c6815952f9eee64", "fusion_lon": 0.0, "bike_id": "e4bbbd59b2160ffd3c6815952f9eee64", "is_disabled": 0, "is_reserved": 0}, {"rental_uris": {"ios": "https://dc.lft.to/lastmile_qr_scan", "android": "https://dc.lft.to/lastmile_qr_scan"}, "lon": -76.931784, "type": "electric_scooter", "fusion_lat": 0.0, "lat": 38.8988465, "name": "4e2f5f9b4b65cb4fa7a9d60ec38aef77", "fusion_lon": 0.0, "bike_id": "4e2f5f9b4b65cb4fa7a9d60ec38aef77", "is_disabled": 0, "is_reserved": 0}, {"rental_uris": {"ios": "https://dc.lft.to/lastmile_qr_scan", "android": "https://dc.lft.to/lastmile_qr_scan"}, "lon": -77.027936, "type": "electric_bike", "fusion_lat": 0.0, "lat": 38.90276733333334, "name": "581c664e249fc7f399110c585c7a6816", "fusion_lon": 0.0, "bike_id": "581c664e249fc7f399110c585c7a6816", "is_disabled": 0, "is_reserved": 0}, {"rental_uris": {"ios": "https://dc.lft.to/lastmile_qr_scan", "android": "https://dc.lft.to/lastmile_qr_scan"}, "lon": -76.98884466666667, "type": "electric_scooter", "fusion_lat": 0.0, "lat": 38.86658366666666, "name": "ccfddddf23c4bb8f28868c1ebcb0c04a", "fusion_lon": 0.0, "bike_id": "ccfddddf23c4bb8f28868c1ebcb0c04a", "is_disabled": 0, "is_reserved": 0}, {"rental_uris": {"ios": "https://dc.lft.to/lastmile_qr_scan", "android": "https://dc.lft.to/lastmile_qr_scan"}, "lon": -77.02977666666666, "type": "electric_scooter", "fusion_lat": 0.0, "lat": 38.93883966666667, "name": "3dcc5b0c074d0f338580fe3330538dcd", "fusion_lon": 0.0, "bike_id": "3dcc5b0c074d0f338580fe3330538dcd", "is_disabled": 0, "is_reserved": 0}, {"rental_uris": {"ios": "https://dc.lft.to/lastmile_qr_scan", "android": "https://dc.lft.to/lastmile_qr_scan"}, "lon": -77.1131475, "type": "electric_bike", "fusion_lat": 0.0, "lat": 38.85562766666666, "name": "175055eb9dcf954c4050b447514ba7a9", "fusion_lon": 0.0, "bike_id": "175055eb9dcf954c4050b447514ba7a9", "is_disabled": 0, "is_reserved": 0}, {"rental_uris": {"ios": "https://dc.lft.to/lastmile_qr_scan", "android": "https://dc.lft.to/lastmile_qr_scan"}, "lon": -77.01187666666667, "type": "electric_scooter", "fusion_lat": 0.0, "lat": 38.91111983333333, "name": "94e87e7f2586ff05fc722802ca80784e", "fusion_lon": 0.0, "bike_id": "94e87e7f2586ff05fc722802ca80784e", "is_disabled": 0, "is_reserved": 0}, {"rental_uris": {"ios": "https://dc.lft.to/lastmile_qr_scan", "android": "https://dc.lft.to/lastmile_qr_scan"}, "lon": -77.07086833333334, "type": "electric_bike", "fusion_lat": 0.0, "lat": 38.95559016666667, "name": "cf9a51fcb4d7becbc64632af940f56c6", "fusion_lon": 0.0, "bike_id": "cf9a51fcb4d7becbc64632af940f56c6", "is_disabled": 0, "is_reserved": 0}, {"rental_uris": {"ios": "https://dc.lft.to/lastmile_qr_scan", "android": "https://dc.lft.to/lastmile_qr_scan"}, "lon": -77.040594, "type": "electric_scooter", "fusion_lat": 0.0, "lat": 38.9238885, "name": "e3e50f40ee3b0e90931d0aee03d33531", "fusion_lon": 0.0, "bike_id": "e3e50f40ee3b0e90931d0aee03d33531", "is_disabled": 0, "is_reserved": 0}, {"rental_uris": {"ios": "https://dc.lft.to/lastmile_qr_scan", "android": "https://dc.lft.to/lastmile_qr_scan"}, "lon": -77.04723316666667, "type": "electric_scooter", "fusion_lat": 0.0, "lat": 38.903793, "name": "c411d10c7ece4a820230e4fc9a520432", "fusion_lon": 0.0, "bike_id": "c411d10c7ece4a820230e4fc9a520432", "is_disabled": 0, "is_reserved": 0}, {"rental_uris": {"ios": "https://dc.lft.to/lastmile_qr_scan", "android": "https://dc.lft.to/lastmile_qr_scan"}, "lon": -77.01220816666667, "type": "electric_scooter", "fusion_lat": 0.0, "lat": 38.912747833333334, "name": "2ac5d4e2b1cd214c087768eb43e70f07", "fusion_lon": 0.0, "bike_id": "2ac5d4e2b1cd214c087768eb43e70f07", "is_disabled": 0, "is_reserved": 0}, {"rental_uris": {"ios": "https://dc.lft.to/lastmile_qr_scan", "android": "https://dc.lft.to/lastmile_qr_scan"}, "lon": -77.021412, "type": "electric_scooter", "fusion_lat": 0.0, "lat": 38.924994166666664, "name": "a34f44ebd102f1efb596fe5e1d66ad66", "fusion_lon": 0.0, "bike_id": "a34f44ebd102f1efb596fe5e1d66ad66", "is_disabled": 0, "is_reserved": 0}, {"rental_uris": {"ios": "https://dc.lft.to/lastmile_qr_scan", "android": "https://dc.lft.to/lastmile_qr_scan"}, "lon": -77.03869583333334, "type": "electric_scooter", "fusion_lat": 0.0, "lat": 38.90312466666666, "name": "37885c893767a4d291bec4f853b425d2", "fusion_lon": 0.0, "bike_id": "37885c893767a4d291bec4f853b425d2", "is_disabled": 0, "is_reserved": 0}, {"rental_uris": {"ios": "https://dc.lft.to/lastmile_qr_scan", "android": "https://dc.lft.to/lastmile_qr_scan"}, "lon": -77.03008366666667, "type": "electric_scooter", "fusion_lat": 0.0, "lat": 38.91264566666667, "name": "5e7cfa34c6c570a083bb18c09e403358", "fusion_lon": 0.0, "bike_id": "5e7cfa34c6c570a083bb18c09e403358", "is_disabled": 0, "is_reserved": 0}, {"rental_uris": {"ios": "https://dc.lft.to/lastmile_qr_scan", "android": "https://dc.lft.to/lastmile_qr_scan"}, "lon": -76.98656716666666, "type": "electric_scooter", "fusion_lat": 0.0, "lat": 38.8580675, "name": "245174cf3bdd6d9d7f1b98898374baf8", "fusion_lon": 0.0, "bike_id": "245174cf3bdd6d9d7f1b98898374baf8", "is_disabled": 0, "is_reserved": 0}, {"rental_uris": {"ios": "https://dc.lft.to/lastmile_qr_scan", "android": "https://dc.lft.to/lastmile_qr_scan"}, "lon": -77.0449745, "type": "electric_scooter", "fusion_lat": 0.0, "lat": 38.900209, "name": "ea80e4e755ddea515f1eb8d9ee3b692c", "fusion_lon": 0.0, "bike_id": "ea80e4e755ddea515f1eb8d9ee3b692c", "is_disabled": 0, "is_reserved": 0}, {"rental_uris": {"ios": "https://dc.lft.to/lastmile_qr_scan", "android": "https://dc.lft.to/lastmile_qr_scan"}, "lon": -77.0366095, "type": "electric_scooter", "fusion_lat": 0.0, "lat": 38.92212266666667, "name": "b35434f4c6a55c55753eb10cbce7b5e5", "fusion_lon": 0.0, "bike_id": "b35434f4c6a55c55753eb10cbce7b5e5", "is_disabled": 0, "is_reserved": 0}, {"rental_uris": {"ios": "https://dc.lft.to/lastmile_qr_scan", "android": "https://dc.lft.to/lastmile_qr_scan"}, "lon": -77.03982133333334, "type": "electric_scooter", "fusion_lat": 0.0, "lat": 38.90850233333333, "name": "7fd398ba92dd639218914ff9f02af4b7", "fusion_lon": 0.0, "bike_id": "7fd398ba92dd639218914ff9f02af4b7", "is_disabled": 0, "is_reserved": 0}, {"rental_uris": {"ios": "https://dc.lft.to/lastmile_qr_scan", "android": "https://dc.lft.to/lastmile_qr_scan"}, "lon": -76.99674366666666, "type": "electric_scooter", "fusion_lat": 0.0, "lat": 38.91012633333333, "name": "b69559096b85626f639d4067a3528136", "fusion_lon": 0.0, "bike_id": "b69559096b85626f639d4067a3528136", "is_disabled": 0, "is_reserved": 0}, {"rental_uris": {"ios": "https://dc.lft.to/lastmile_qr_scan", "android": "https://dc.lft.to/lastmile_qr_scan"}, "lon": -77.0235915, "type": "electric_scooter", "fusion_lat": 0.0, "lat": 38.902957, "name": "94640c905dc8fc93e7afa75480e166a1", "fusion_lon": 0.0, "bike_id": "94640c905dc8fc93e7afa75480e166a1", "is_disabled": 0, "is_reserved": 0}, {"rental_uris": {"ios": "https://dc.lft.to/lastmile_qr_scan", "android": "https://dc.lft.to/lastmile_qr_scan"}, "lon": -77.0066155, "type": "electric_scooter", "fusion_lat": 0.0, "lat": 38.91201266666667, "name": "24580c62fdc228945bee4a87e1e33dd7", "fusion_lon": 0.0, "bike_id": "24580c62fdc228945bee4a87e1e33dd7", "is_disabled": 0, "is_reserved": 0}, {"rental_uris": {"ios": "https://dc.lft.to/lastmile_qr_scan", "android": "https://dc.lft.to/lastmile_qr_scan"}, "lon": -76.9956085, "type": "electric_scooter", "fusion_lat": 0.0, "lat": 38.92882866666667, "name": "936ad42adb296a52d8bcd115b1065354", "fusion_lon": 0.0, "bike_id": "936ad42adb296a52d8bcd115b1065354", "is_disabled": 0, "is_reserved": 0}, {"rental_uris": {"ios": "https://dc.lft.to/lastmile_qr_scan", "android": "https://dc.lft.to/lastmile_qr_scan"}, "lon": -76.9387545, "type": "electric_scooter", "fusion_lat": 0.0, "lat": 38.90084016666667, "name": "9673c4519d6754220ef8ad8e3dffcf77", "fusion_lon": 0.0, "bike_id": "9673c4519d6754220ef8ad8e3dffcf77", "is_disabled": 0, "is_reserved": 0}, {"rental_uris": {"ios": "https://dc.lft.to/lastmile_qr_scan", "android": "https://dc.lft.to/lastmile_qr_scan"}, "lon": -77.04176333333334, "type": "electric_scooter", "fusion_lat": 0.0, "lat": 38.9197485, "name": "70d40d1a928f6e5c0c62a49e18f7b297", "fusion_lon": 0.0, "bike_id": "70d40d1a928f6e5c0c62a49e18f7b297", "is_disabled": 0, "is_reserved": 0}, {"rental_uris": {"ios": "https://dc.lft.to/lastmile_qr_scan", "android": "https://dc.lft.to/lastmile_qr_scan"}, "lon": -76.9844225, "type": "electric_scooter", "fusion_lat": 0.0, "lat": 38.9146935, "name": "57037774cc1109f346f8546b780e09b9", "fusion_lon": 0.0, "bike_id": "57037774cc1109f346f8546b780e09b9", "is_disabled": 0, "is_reserved": 0}, {"rental_uris": {"ios": "https://dc.lft.to/lastmile_qr_scan", "android": "https://dc.lft.to/lastmile_qr_scan"}, "lon": -76.99361716666667, "type": "electric_scooter", "fusion_lat": 0.0, "lat": 38.9003905, "name": "8e79a3ae540ed1911cacfc6db2cdff97", "fusion_lon": 0.0, "bike_id": "8e79a3ae540ed1911cacfc6db2cdff97", "is_disabled": 0, "is_reserved": 0}, {"rental_uris": {"ios": "https://dc.lft.to/lastmile_qr_scan", "android": "https://dc.lft.to/lastmile_qr_scan"}, "lon": -76.99814633333334, "type": "electric_scooter", "fusion_lat": 0.0, "lat": 38.90033533333333, "name": "533bc52c0dae4e8b3a1c33de940fd73b", "fusion_lon": 0.0, "bike_id": "533bc52c0dae4e8b3a1c33de940fd73b", "is_disabled": 0, "is_reserved": 0}, {"rental_uris": {"ios": "https://dc.lft.to/lastmile_qr_scan", "android": "https://dc.lft.to/lastmile_qr_scan"}, "lon": -77.05970516666666, "type": "electric_scooter", "fusion_lat": 0.0, "lat": 38.9053005, "name": "a3dd9a61653f4d9284d142d30a65f264", "fusion_lon": 0.0, "bike_id": "a3dd9a61653f4d9284d142d30a65f264", "is_disabled": 0, "is_reserved": 0}, {"rental_uris": {"ios": "https://dc.lft.to/lastmile_qr_scan", "android": "https://dc.lft.to/lastmile_qr_scan"}, "lon": -77.029807, "type": "electric_scooter", "fusion_lat": 0.0, "lat": 38.9162575, "name": "26bef18c13167abae230f87d1b40f4e1", "fusion_lon": 0.0, "bike_id": "26bef18c13167abae230f87d1b40f4e1", "is_disabled": 0, "is_reserved": 0}, {"rental_uris": {"ios": "https://dc.lft.to/lastmile_qr_scan", "android": "https://dc.lft.to/lastmile_qr_scan"}, "lon": -77.02705283333333, "type": "electric_scooter", "fusion_lat": 0.0, "lat": 38.91865133333334, "name": "7be763bf467b56408b4c4e65d98141d5", "fusion_lon": 0.0, "bike_id": "7be763bf467b56408b4c4e65d98141d5", "is_disabled": 0, "is_reserved": 0}, {"rental_uris": {"ios": "https://dc.lft.to/lastmile_qr_scan", "android": "https://dc.lft.to/lastmile_qr_scan"}, "lon": -77.01580183333333, "type": "electric_scooter", "fusion_lat": 0.0, "lat": 38.8874525, "name": "e392ef6a03a85e95ba3d9167d674399b", "fusion_lon": 0.0, "bike_id": "e392ef6a03a85e95ba3d9167d674399b", "is_disabled": 0, "is_reserved": 0}, {"rental_uris": {"ios": "https://dc.lft.to/lastmile_qr_scan", "android": "https://dc.lft.to/lastmile_qr_scan"}, "lon": -77.02762183333333, "type": "electric_scooter", "fusion_lat": 0.0, "lat": 38.9170425, "name": "8e7cd8e18a314d58bff5b94b3772527a", "fusion_lon": 0.0, "bike_id": "8e7cd8e18a314d58bff5b94b3772527a", "is_disabled": 0, "is_reserved": 0}, {"rental_uris": {"ios": "https://dc.lft.to/lastmile_qr_scan", "android": "https://dc.lft.to/lastmile_qr_scan"}, "lon": -77.06298133333334, "type": "electric_scooter", "fusion_lat": 0.0, "lat": 38.90395083333333, "name": "a72f234d4670bbd53de0c86a07d1312a", "fusion_lon": 0.0, "bike_id": "a72f234d4670bbd53de0c86a07d1312a", "is_disabled": 0, "is_reserved": 0}, {"rental_uris": {"ios": "https://dc.lft.to/lastmile_qr_scan", "android": "https://dc.lft.to/lastmile_qr_scan"}, "lon": -77.02968283333334, "type": "electric_scooter", "fusion_lat": 0.0, "lat": 38.925285833333334, "name": "63da7866fe0c913b913f92c33ead54de", "fusion_lon": 0.0, "bike_id": "63da7866fe0c913b913f92c33ead54de", "is_disabled": 0, "is_reserved": 0}, {"rental_uris": {"ios": "https://dc.lft.to/lastmile_qr_scan", "android": "https://dc.lft.to/lastmile_qr_scan"}, "lon": -76.991621, "type": "electric_scooter", "fusion_lat": 0.0, "lat": 38.89339916666667, "name": "da85019ebed5671d516dd4cd0a9971d5", "fusion_lon": 0.0, "bike_id": "da85019ebed5671d516dd4cd0a9971d5", "is_disabled": 0, "is_reserved": 0}, {"rental_uris": {"ios": "https://dc.lft.to/lastmile_qr_scan", "android": "https://dc.lft.to/lastmile_qr_scan"}, "lon": -77.06262583333333, "type": "electric_scooter", "fusion_lat": 0.0, "lat": 38.902703333333335, "name": "455caea7c3477d34d86c78db4b1c994c", "fusion_lon": 0.0, "bike_id": "455caea7c3477d34d86c78db4b1c994c", "is_disabled": 0, "is_reserved": 0}, {"rental_uris": {"ios": "https://dc.lft.to/lastmile_qr_scan", "android": "https://dc.lft.to/lastmile_qr_scan"}, "lon": -77.05763133333333, "type": "electric_scooter", "fusion_lat": 0.0, "lat": 38.92464566666666, "name": "3ab127fcb7cbe8190be46879bcb744f2", "fusion_lon": 0.0, "bike_id": "3ab127fcb7cbe8190be46879bcb744f2", "is_disabled": 0, "is_reserved": 0}, {"rental_uris": {"ios": "https://dc.lft.to/lastmile_qr_scan", "android": "https://dc.lft.to/lastmile_qr_scan"}, "lon": -77.0120965, "type": "electric_scooter", "fusion_lat": 0.0, "lat": 38.9203275, "name": "cc443c6200d87a4f91e7a75c71eb83ef", "fusion_lon": 0.0, "bike_id": "cc443c6200d87a4f91e7a75c71eb83ef", "is_disabled": 0, "is_reserved": 0}, {"rental_uris": {"ios": "https://dc.lft.to/lastmile_qr_scan", "android": "https://dc.lft.to/lastmile_qr_scan"}, "lon": -77.05515383333334, "type": "electric_scooter", "fusion_lat": 0.0, "lat": 38.910588833333335, "name": "35a67b8832124b23e952beef59e007c8", "fusion_lon": 0.0, "bike_id": "35a67b8832124b23e952beef59e007c8", "is_disabled": 0, "is_reserved": 0}, {"rental_uris": {"ios": "https://dc.lft.to/lastmile_qr_scan", "android": "https://dc.lft.to/lastmile_qr_scan"}, "lon": -76.895367, "type": "electric_bike", "fusion_lat": 0.0, "lat": 38.94553166666667, "name": "faf80ae9d95e02e2401dbe085ee42f96", "fusion_lon": 0.0, "bike_id": "faf80ae9d95e02e2401dbe085ee42f96", "is_disabled": 0, "is_reserved": 0}, {"rental_uris": {"ios": "https://dc.lft.to/lastmile_qr_scan", "android": "https://dc.lft.to/lastmile_qr_scan"}, "lon": -77.0301125, "type": "electric_scooter", "fusion_lat": 0.0, "lat": 38.89764683333333, "name": "8e16f18a1c5fb666c104070a81e032ca", "fusion_lon": 0.0, "bike_id": "8e16f18a1c5fb666c104070a81e032ca", "is_disabled": 0, "is_reserved": 0}, {"rental_uris": {"ios": "https://dc.lft.to/lastmile_qr_scan", "android": "https://dc.lft.to/lastmile_qr_scan"}, "lon": -77.048827, "type": "electric_scooter", "fusion_lat": 0.0, "lat": 38.90070133333333, "name": "d184af982c6896c7d7173449fe1e137d", "fusion_lon": 0.0, "bike_id": "d184af982c6896c7d7173449fe1e137d", "is_disabled": 0, "is_reserved": 0}, {"rental_uris": {"ios": "https://dc.lft.to/lastmile_qr_scan", "android": "https://dc.lft.to/lastmile_qr_scan"}, "lon": -77.00431966666666, "type": "electric_scooter", "fusion_lat": 0.0, "lat": 38.90396883333333, "name": "c1b3788d6a28d2b61a40fbb95d8817cf", "fusion_lon": 0.0, "bike_id": "c1b3788d6a28d2b61a40fbb95d8817cf", "is_disabled": 0, "is_reserved": 0}, {"rental_uris": {"ios": "https://dc.lft.to/lastmile_qr_scan", "android": "https://dc.lft.to/lastmile_qr_scan"}, "lon": -77.048832, "type": "electric_scooter", "fusion_lat": 0.0, "lat": 38.905316166666665, "name": "e631897727c87f3d6475e4abbdd06e0f", "fusion_lon": 0.0, "bike_id": "e631897727c87f3d6475e4abbdd06e0f", "is_disabled": 0, "is_reserved": 0}, {"rental_uris": {"ios": "https://dc.lft.to/lastmile_qr_scan", "android": "https://dc.lft.to/lastmile_qr_scan"}, "lon": -77.02848283333333, "type": "electric_scooter", "fusion_lat": 0.0, "lat": 38.950835833333336, "name": "d88046b91730bc99c7891b794a58bfa1", "fusion_lon": 0.0, "bike_id": "d88046b91730bc99c7891b794a58bfa1", "is_disabled": 0, "is_reserved": 0}, {"rental_uris": {"ios": "https://dc.lft.to/lastmile_qr_scan", "android": "https://dc.lft.to/lastmile_qr_scan"}, "lon": -76.93828283333333, "type": "electric_scooter", "fusion_lat": 0.0, "lat": 38.8975725, "name": "7fbdeecde5166c8d77fa24ceed7f5ae5", "fusion_lon": 0.0, "bike_id": "7fbdeecde5166c8d77fa24ceed7f5ae5", "is_disabled": 0, "is_reserved": 0}, {"rental_uris": {"ios": "https://dc.lft.to/lastmile_qr_scan", "android": "https://dc.lft.to/lastmile_qr_scan"}, "lon": -77.02762716666666, "type": "electric_scooter", "fusion_lat": 0.0, "lat": 38.9231335, "name": "2d2fcb3815a74412be6fa5ef05747f2e", "fusion_lon": 0.0, "bike_id": "2d2fcb3815a74412be6fa5ef05747f2e", "is_disabled": 0, "is_reserved": 0}, {"rental_uris": {"ios": "https://dc.lft.to/lastmile_qr_scan", "android": "https://dc.lft.to/lastmile_qr_scan"}, "lon": -77.035097, "type": "electric_scooter", "fusion_lat": 0.0, "lat": 38.921465833333336, "name": "0a84f0d5fd0a62c1601b61ba4ef67eb6", "fusion_lon": 0.0, "bike_id": "0a84f0d5fd0a62c1601b61ba4ef67eb6", "is_disabled": 0, "is_reserved": 0}, {"rental_uris": {"ios": "https://dc.lft.to/lastmile_qr_scan", "android": "https://dc.lft.to/lastmile_qr_scan"}, "lon": -77.04360083333333, "type": "electric_scooter", "fusion_lat": 0.0, "lat": 38.92678516666667, "name": "28c4970f707a8d036810a717edb4db15", "fusion_lon": 0.0, "bike_id": "28c4970f707a8d036810a717edb4db15", "is_disabled": 0, "is_reserved": 0}, {"rental_uris": {"ios": "https://dc.lft.to/lastmile_qr_scan", "android": "https://dc.lft.to/lastmile_qr_scan"}, "lon": -76.965053, "type": "electric_scooter", "fusion_lat": 0.0, "lat": 38.87647333333334, "name": "64b664ba66fdf40eba10beb21b4fad20", "fusion_lon": 0.0, "bike_id": "64b664ba66fdf40eba10beb21b4fad20", "is_disabled": 0, "is_reserved": 0}, {"rental_uris": {"ios": "https://dc.lft.to/lastmile_qr_scan", "android": "https://dc.lft.to/lastmile_qr_scan"}, "lon": -77.03071416666667, "type": "electric_scooter", "fusion_lat": 0.0, "lat": 38.922479833333334, "name": "f227f8bda9df38b8daf8af0243c76f2f", "fusion_lon": 0.0, "bike_id": "f227f8bda9df38b8daf8af0243c76f2f", "is_disabled": 0, "is_reserved": 0}, {"rental_uris": {"ios": "https://dc.lft.to/lastmile_qr_scan", "android": "https://dc.lft.to/lastmile_qr_scan"}, "lon": -77.03058783333333, "type": "electric_scooter", "fusion_lat": 0.0, "lat": 38.8948725, "name": "2d2b06227dd5d2e7a1dbde907d735e1c", "fusion_lon": 0.0, "bike_id": "2d2b06227dd5d2e7a1dbde907d735e1c", "is_disabled": 0, "is_reserved": 0}, {"rental_uris": {"ios": "https://dc.lft.to/lastmile_qr_scan", "android": "https://dc.lft.to/lastmile_qr_scan"}, "lon": -77.01109183333334, "type": "electric_scooter", "fusion_lat": 0.0, "lat": 38.907886166666664, "name": "a175880d9721f3c2885ddf877738a4d8", "fusion_lon": 0.0, "bike_id": "a175880d9721f3c2885ddf877738a4d8", "is_disabled": 0, "is_reserved": 0}, {"rental_uris": {"ios": "https://dc.lft.to/lastmile_qr_scan", "android": "https://dc.lft.to/lastmile_qr_scan"}, "lon": -77.0237415, "type": "electric_scooter", "fusion_lat": 0.0, "lat": 38.902992833333336, "name": "ad7074827bd9147a99fcf5c6b6c60fb3", "fusion_lon": 0.0, "bike_id": "ad7074827bd9147a99fcf5c6b6c60fb3", "is_disabled": 0, "is_reserved": 0}, {"rental_uris": {"ios": "https://dc.lft.to/lastmile_qr_scan", "android": "https://dc.lft.to/lastmile_qr_scan"}, "lon": -77.0063085, "type": "electric_scooter", "fusion_lat": 0.0, "lat": 38.82926966666667, "name": "84c01b33c1de48a3ee82e80ce39dcf07", "fusion_lon": 0.0, "bike_id": "84c01b33c1de48a3ee82e80ce39dcf07", "is_disabled": 0, "is_reserved": 0}, {"rental_uris": {"ios": "https://dc.lft.to/lastmile_qr_scan", "android": "https://dc.lft.to/lastmile_qr_scan"}, "lon": -77.0193055, "type": "electric_scooter", "fusion_lat": 0.0, "lat": 38.956884, "name": "bb7baa7c27ced98fedb6d7799175d68f", "fusion_lon": 0.0, "bike_id": "bb7baa7c27ced98fedb6d7799175d68f", "is_disabled": 0, "is_reserved": 0}, {"rental_uris": {"ios": "https://dc.lft.to/lastmile_qr_scan", "android": "https://dc.lft.to/lastmile_qr_scan"}, "lon": -76.98999766666667, "type": "electric_scooter", "fusion_lat": 0.0, "lat": 38.8650325, "name": "6493e7f406cca7049386685cb30c1eff", "fusion_lon": 0.0, "bike_id": "6493e7f406cca7049386685cb30c1eff", "is_disabled": 0, "is_reserved": 0}, {"rental_uris": {"ios": "https://dc.lft.to/lastmile_qr_scan", "android": "https://dc.lft.to/lastmile_qr_scan"}, "lon": -77.03595083333333, "type": "electric_scooter", "fusion_lat": 0.0, "lat": 38.906885833333334, "name": "babea5751c1459bdc2b06857cef71ed7", "fusion_lon": 0.0, "bike_id": "babea5751c1459bdc2b06857cef71ed7", "is_disabled": 0, "is_reserved": 0}, {"rental_uris": {"ios": "https://dc.lft.to/lastmile_qr_scan", "android": "https://dc.lft.to/lastmile_qr_scan"}, "lon": -77.02792016666666, "type": "electric_scooter", "fusion_lat": 0.0, "lat": 38.930856166666665, "name": "7cf6e65629a193556f7a7c7ba9c26d9b", "fusion_lon": 0.0, "bike_id": "7cf6e65629a193556f7a7c7ba9c26d9b", "is_disabled": 0, "is_reserved": 0}, {"rental_uris": {"ios": "https://dc.lft.to/lastmile_qr_scan", "android": "https://dc.lft.to/lastmile_qr_scan"}, "lon": -77.02310416666667, "type": "electric_scooter", "fusion_lat": 0.0, "lat": 38.9089375, "name": "c9d2ac068e132331322b0c735af5985a", "fusion_lon": 0.0, "bike_id": "c9d2ac068e132331322b0c735af5985a", "is_disabled": 0, "is_reserved": 0}, {"rental_uris": {"ios": "https://dc.lft.to/lastmile_qr_scan", "android": "https://dc.lft.to/lastmile_qr_scan"}, "lon": -76.99082233333333, "type": "electric_scooter", "fusion_lat": 0.0, "lat": 38.893587333333336, "name": "f1fcc6142470c3180dfaa7c3fa88d293", "fusion_lon": 0.0, "bike_id": "f1fcc6142470c3180dfaa7c3fa88d293", "is_disabled": 0, "is_reserved": 0}, {"rental_uris": {"ios": "https://dc.lft.to/lastmile_qr_scan", "android": "https://dc.lft.to/lastmile_qr_scan"}, "lon": -77.0259845, "type": "electric_scooter", "fusion_lat": 0.0, "lat": 38.919934833333336, "name": "e453996d40253accf7a94a65156c86cc", "fusion_lon": 0.0, "bike_id": "e453996d40253accf7a94a65156c86cc", "is_disabled": 0, "is_reserved": 0}, {"rental_uris": {"ios": "https://dc.lft.to/lastmile_qr_scan", "android": "https://dc.lft.to/lastmile_qr_scan"}, "lon": -77.04096233333334, "type": "electric_scooter", "fusion_lat": 0.0, "lat": 38.917774333333334, "name": "7e624d6cd4faccdbab1974262a4bd504", "fusion_lon": 0.0, "bike_id": "7e624d6cd4faccdbab1974262a4bd504", "is_disabled": 0, "is_reserved": 0}, {"rental_uris": {"ios": "https://dc.lft.to/lastmile_qr_scan", "android": "https://dc.lft.to/lastmile_qr_scan"}, "lon": -77.0196625, "type": "electric_scooter", "fusion_lat": 0.0, "lat": 38.9341465, "name": "7f38e4f14bd9daf3569280a8c72924bb", "fusion_lon": 0.0, "bike_id": "7f38e4f14bd9daf3569280a8c72924bb", "is_disabled": 0, "is_reserved": 0}, {"rental_uris": {"ios": "https://dc.lft.to/lastmile_qr_scan", "android": "https://dc.lft.to/lastmile_qr_scan"}, "lon": -77.049988, "type": "electric_scooter", "fusion_lat": 0.0, "lat": 38.9006715, "name": "6dbde05a46e09cb9647fb38acd9b703b", "fusion_lon": 0.0, "bike_id": "6dbde05a46e09cb9647fb38acd9b703b", "is_disabled": 0, "is_reserved": 0}, {"rental_uris": {"ios": "https://dc.lft.to/lastmile_qr_scan", "android": "https://dc.lft.to/lastmile_qr_scan"}, "lon": -77.04196616666667, "type": "electric_scooter", "fusion_lat": 0.0, "lat": 38.92110366666667, "name": "afc7711c17f381f5508a70dc502c7a0d", "fusion_lon": 0.0, "bike_id": "afc7711c17f381f5508a70dc502c7a0d", "is_disabled": 0, "is_reserved": 0}, {"rental_uris": {"ios": "https://dc.lft.to/lastmile_qr_scan", "android": "https://dc.lft.to/lastmile_qr_scan"}, "lon": -77.04127916666667, "type": "electric_scooter", "fusion_lat": 0.0, "lat": 38.9058875, "name": "25d279e73f195fc93bc3a9e29b6e320e", "fusion_lon": 0.0, "bike_id": "25d279e73f195fc93bc3a9e29b6e320e", "is_disabled": 0, "is_reserved": 0}, {"rental_uris": {"ios": "https://dc.lft.to/lastmile_qr_scan", "android": "https://dc.lft.to/lastmile_qr_scan"}, "lon": -76.90438216666666, "type": "electric_bike", "fusion_lat": 0.0, "lat": 38.8976645, "name": "ba5ab296f3befa01a4c98ad4a84f7527", "fusion_lon": 0.0, "bike_id": "ba5ab296f3befa01a4c98ad4a84f7527", "is_disabled": 0, "is_reserved": 0}, {"rental_uris": {"ios": "https://dc.lft.to/lastmile_qr_scan", "android": "https://dc.lft.to/lastmile_qr_scan"}, "lon": -77.04828283333333, "type": "electric_scooter", "fusion_lat": 0.0, "lat": 38.920353666666664, "name": "9a2a08b2bab2840603eaf35778f07a41", "fusion_lon": 0.0, "bike_id": "9a2a08b2bab2840603eaf35778f07a41", "is_disabled": 0, "is_reserved": 0}, {"rental_uris": {"ios": "https://dc.lft.to/lastmile_qr_scan", "android": "https://dc.lft.to/lastmile_qr_scan"}, "lon": -77.029725, "type": "electric_scooter", "fusion_lat": 0.0, "lat": 38.912993666666665, "name": "7cca08a42949b7590b347d7ec2ad6749", "fusion_lon": 0.0, "bike_id": "7cca08a42949b7590b347d7ec2ad6749", "is_disabled": 0, "is_reserved": 0}, {"rental_uris": {"ios": "https://dc.lft.to/lastmile_qr_scan", "android": "https://dc.lft.to/lastmile_qr_scan"}, "lon": -77.0365105, "type": "electric_scooter", "fusion_lat": 0.0, "lat": 38.921176833333334, "name": "a6a118b804d843e7fb2ccaf6451881ca", "fusion_lon": 0.0, "bike_id": "a6a118b804d843e7fb2ccaf6451881ca", "is_disabled": 0, "is_reserved": 0}, {"rental_uris": {"ios": "https://dc.lft.to/lastmile_qr_scan", "android": "https://dc.lft.to/lastmile_qr_scan"}, "lon": -76.9906735, "type": "electric_scooter", "fusion_lat": 0.0, "lat": 38.863560666666665, "name": "70d4908789767af162daddfbc9570ec1", "fusion_lon": 0.0, "bike_id": "70d4908789767af162daddfbc9570ec1", "is_disabled": 0, "is_reserved": 0}, {"rental_uris": {"ios": "https://dc.lft.to/lastmile_qr_scan", "android": "https://dc.lft.to/lastmile_qr_scan"}, "lon": -76.99555383333333, "type": "electric_scooter", "fusion_lat": 0.0, "lat": 38.92662116666666, "name": "e1b21352af5a0476ea563ea40acf5040", "fusion_lon": 0.0, "bike_id": "e1b21352af5a0476ea563ea40acf5040", "is_disabled": 0, "is_reserved": 0}, {"rental_uris": {"ios": "https://dc.lft.to/lastmile_qr_scan", "android": "https://dc.lft.to/lastmile_qr_scan"}, "lon": -77.03080916666667, "type": "electric_scooter", "fusion_lat": 0.0, "lat": 38.934708, "name": "686013c7eaba512ada2e7d42b5953224", "fusion_lon": 0.0, "bike_id": "686013c7eaba512ada2e7d42b5953224", "is_disabled": 0, "is_reserved": 0}, {"rental_uris": {"ios": "https://dc.lft.to/lastmile_qr_scan", "android": "https://dc.lft.to/lastmile_qr_scan"}, "lon": -77.12745366666667, "type": "electric_bike", "fusion_lat": 0.0, "lat": 38.88822783333333, "name": "4404e88061559df305a3170bb83d7c0a", "fusion_lon": 0.0, "bike_id": "4404e88061559df305a3170bb83d7c0a", "is_disabled": 0, "is_reserved": 0}, {"rental_uris": {"ios": "https://dc.lft.to/lastmile_qr_scan", "android": "https://dc.lft.to/lastmile_qr_scan"}, "lon": -76.98771183333334, "type": "electric_scooter", "fusion_lat": 0.0, "lat": 38.9117105, "name": "e7349a3c6071664ea066907d6f09fd4f", "fusion_lon": 0.0, "bike_id": "e7349a3c6071664ea066907d6f09fd4f", "is_disabled": 0, "is_reserved": 0}, {"rental_uris": {"ios": "https://dc.lft.to/lastmile_qr_scan", "android": "https://dc.lft.to/lastmile_qr_scan"}, "lon": -77.048231, "type": "electric_scooter", "fusion_lat": 0.0, "lat": 38.896238333333336, "name": "bde0a79cd1ce946fbbc8d977f3efe171", "fusion_lon": 0.0, "bike_id": "bde0a79cd1ce946fbbc8d977f3efe171", "is_disabled": 0, "is_reserved": 0}, {"rental_uris": {"ios": "https://dc.lft.to/lastmile_qr_scan", "android": "https://dc.lft.to/lastmile_qr_scan"}, "lon": -77.017587, "type": "electric_scooter", "fusion_lat": 0.0, "lat": 38.9389245, "name": "186cee83af8b112b7360ca8391094887", "fusion_lon": 0.0, "bike_id": "186cee83af8b112b7360ca8391094887", "is_disabled": 0, "is_reserved": 0}, {"rental_uris": {"ios": "https://dc.lft.to/lastmile_qr_scan", "android": "https://dc.lft.to/lastmile_qr_scan"}, "lon": -77.02885283333333, "type": "electric_scooter", "fusion_lat": 0.0, "lat": 38.903814, "name": "a11c07618a12d4791bc7d65167395e1f", "fusion_lon": 0.0, "bike_id": "a11c07618a12d4791bc7d65167395e1f", "is_disabled": 0, "is_reserved": 0}, {"rental_uris": {"ios": "https://dc.lft.to/lastmile_qr_scan", "android": "https://dc.lft.to/lastmile_qr_scan"}, "lon": -76.978848, "type": "electric_scooter", "fusion_lat": 0.0, "lat": 38.91673083333333, "name": "29f3ec837b9fbff0c5e8cc08c702f9eb", "fusion_lon": 0.0, "bike_id": "29f3ec837b9fbff0c5e8cc08c702f9eb", "is_disabled": 0, "is_reserved": 0}, {"rental_uris": {"ios": "https://dc.lft.to/lastmile_qr_scan", "android": "https://dc.lft.to/lastmile_qr_scan"}, "lon": -77.0431925, "type": "electric_scooter", "fusion_lat": 0.0, "lat": 38.89588283333333, "name": "aee9ebd667844672bfc61eb3b0c71f9d", "fusion_lon": 0.0, "bike_id": "aee9ebd667844672bfc61eb3b0c71f9d", "is_disabled": 0, "is_reserved": 0}, {"rental_uris": {"ios": "https://dc.lft.to/lastmile_qr_scan", "android": "https://dc.lft.to/lastmile_qr_scan"}, "lon": -77.0296605, "type": "electric_scooter", "fusion_lat": 0.0, "lat": 38.912317, "name": "2f352d49eda7ddd89c82649deb354ebd", "fusion_lon": 0.0, "bike_id": "2f352d49eda7ddd89c82649deb354ebd", "is_disabled": 0, "is_reserved": 0}, {"rental_uris": {"ios": "https://dc.lft.to/lastmile_qr_scan", "android": "https://dc.lft.to/lastmile_qr_scan"}, "lon": -76.938036, "type": "electric_scooter", "fusion_lat": 0.0, "lat": 38.9128125, "name": "da56adb99832ed2eff92f0ea26b97031", "fusion_lon": 0.0, "bike_id": "da56adb99832ed2eff92f0ea26b97031", "is_disabled": 0, "is_reserved": 0}, {"rental_uris": {"ios": "https://dc.lft.to/lastmile_qr_scan", "android": "https://dc.lft.to/lastmile_qr_scan"}, "lon": -77.04953233333333, "type": "electric_scooter", "fusion_lat": 0.0, "lat": 38.896631666666664, "name": "9968803fe2ccdd48bf935f096d7f0971", "fusion_lon": 0.0, "bike_id": "9968803fe2ccdd48bf935f096d7f0971", "is_disabled": 0, "is_reserved": 0}, {"rental_uris": {"ios": "https://dc.lft.to/lastmile_qr_scan", "android": "https://dc.lft.to/lastmile_qr_scan"}, "lon": -77.0424365, "type": "electric_scooter", "fusion_lat": 0.0, "lat": 38.90794666666667, "name": "0a0c890c6b119b1a19ffbb05e4f65bd8", "fusion_lon": 0.0, "bike_id": "0a0c890c6b119b1a19ffbb05e4f65bd8", "is_disabled": 0, "is_reserved": 0}, {"rental_uris": {"ios": "https://dc.lft.to/lastmile_qr_scan", "android": "https://dc.lft.to/lastmile_qr_scan"}, "lon": -77.032648, "type": "electric_scooter", "fusion_lat": 0.0, "lat": 38.937341333333336, "name": "30915ece701ecdfe8dc9d45f5ca8152b", "fusion_lon": 0.0, "bike_id": "30915ece701ecdfe8dc9d45f5ca8152b", "is_disabled": 0, "is_reserved": 0}, {"rental_uris": {"ios": "https://dc.lft.to/lastmile_qr_scan", "android": "https://dc.lft.to/lastmile_qr_scan"}, "lon": -77.08367, "type": "electric_scooter", "fusion_lat": 0.0, "lat": 38.930389, "name": "1496b88ff70c2f7800f92e011ebcd5d2", "fusion_lon": 0.0, "bike_id": "1496b88ff70c2f7800f92e011ebcd5d2", "is_disabled": 0, "is_reserved": 0}, {"rental_uris": {"ios": "https://dc.lft.to/lastmile_qr_scan", "android": "https://dc.lft.to/lastmile_qr_scan"}, "lon": -77.0640385, "type": "electric_bike", "fusion_lat": 0.0, "lat": 38.84349183333333, "name": "b2fec2046c8ff81445c650d385d92be3", "fusion_lon": 0.0, "bike_id": "b2fec2046c8ff81445c650d385d92be3", "is_disabled": 0, "is_reserved": 0}, {"rental_uris": {"ios": "https://dc.lft.to/lastmile_qr_scan", "android": "https://dc.lft.to/lastmile_qr_scan"}, "lon": -77.017659, "type": "electric_scooter", "fusion_lat": 0.0, "lat": 38.90567466666667, "name": "564d47cfa5c9d09d543fdf80efbb4fd1", "fusion_lon": 0.0, "bike_id": "564d47cfa5c9d09d543fdf80efbb4fd1", "is_disabled": 0, "is_reserved": 0}, {"rental_uris": {"ios": "https://dc.lft.to/lastmile_qr_scan", "android": "https://dc.lft.to/lastmile_qr_scan"}, "lon": -76.99275483333334, "type": "electric_scooter", "fusion_lat": 0.0, "lat": 38.92133233333333, "name": "e91b8f0d81f4c1959bf4dafcd4cc0f21", "fusion_lon": 0.0, "bike_id": "e91b8f0d81f4c1959bf4dafcd4cc0f21", "is_disabled": 0, "is_reserved": 0}, {"rental_uris": {"ios": "https://dc.lft.to/lastmile_qr_scan", "android": "https://dc.lft.to/lastmile_qr_scan"}, "lon": -77.05388733333334, "type": "electric_scooter", "fusion_lat": 0.0, "lat": 38.902570833333336, "name": "3f9da34f9f528f3c95c540594f463a8d", "fusion_lon": 0.0, "bike_id": "3f9da34f9f528f3c95c540594f463a8d", "is_disabled": 0, "is_reserved": 0}, {"rental_uris": {"ios": "https://dc.lft.to/lastmile_qr_scan", "android": "https://dc.lft.to/lastmile_qr_scan"}, "lon": -77.04357116666667, "type": "electric_scooter", "fusion_lat": 0.0, "lat": 38.89222633333333, "name": "19543bef2177cb543e53b984abbe15f6", "fusion_lon": 0.0, "bike_id": "19543bef2177cb543e53b984abbe15f6", "is_disabled": 0, "is_reserved": 0}, {"rental_uris": {"ios": "https://dc.lft.to/lastmile_qr_scan", "android": "https://dc.lft.to/lastmile_qr_scan"}, "lon": -76.99780033333333, "type": "electric_scooter", "fusion_lat": 0.0, "lat": 38.84426716666667, "name": "8a84befb533018b7984de06e2449a719", "fusion_lon": 0.0, "bike_id": "8a84befb533018b7984de06e2449a719", "is_disabled": 0, "is_reserved": 0}, {"rental_uris": {"ios": "https://dc.lft.to/lastmile_qr_scan", "android": "https://dc.lft.to/lastmile_qr_scan"}, "lon": -76.99484283333334, "type": "electric_scooter", "fusion_lat": 0.0, "lat": 38.89949766666667, "name": "04b0af2380602fd58788f0bc10a8d495", "fusion_lon": 0.0, "bike_id": "04b0af2380602fd58788f0bc10a8d495", "is_disabled": 0, "is_reserved": 0}, {"rental_uris": {"ios": "https://dc.lft.to/lastmile_qr_scan", "android": "https://dc.lft.to/lastmile_qr_scan"}, "lon": -76.98721583333334, "type": "electric_scooter", "fusion_lat": 0.0, "lat": 38.88414933333333, "name": "ae727db13421b494f192f711593db616", "fusion_lon": 0.0, "bike_id": "ae727db13421b494f192f711593db616", "is_disabled": 0, "is_reserved": 0}, {"rental_uris": {"ios": "https://dc.lft.to/lastmile_qr_scan", "android": "https://dc.lft.to/lastmile_qr_scan"}, "lon": -77.01766316666667, "type": "electric_scooter", "fusion_lat": 0.0, "lat": 38.903816166666665, "name": "2135dca0929be1feb7f291d03e614cb1", "fusion_lon": 0.0, "bike_id": "2135dca0929be1feb7f291d03e614cb1", "is_disabled": 0, "is_reserved": 0}, {"rental_uris": {"ios": "https://dc.lft.to/lastmile_qr_scan", "android": "https://dc.lft.to/lastmile_qr_scan"}, "lon": -77.03444116666667, "type": "electric_scooter", "fusion_lat": 0.0, "lat": 38.918282833333336, "name": "781d2a9278e4f5210cf0c4322e7eeaf4", "fusion_lon": 0.0, "bike_id": "781d2a9278e4f5210cf0c4322e7eeaf4", "is_disabled": 0, "is_reserved": 0}, {"rental_uris": {"ios": "https://dc.lft.to/lastmile_qr_scan", "android": "https://dc.lft.to/lastmile_qr_scan"}, "lon": -77.06290116666666, "type": "electric_scooter", "fusion_lat": 0.0, "lat": 38.90393183333333, "name": "17aa804446b9184e696fa45071a64fce", "fusion_lon": 0.0, "bike_id": "17aa804446b9184e696fa45071a64fce", "is_disabled": 0, "is_reserved": 0}, {"rental_uris": {"ios": "https://dc.lft.to/lastmile_qr_scan", "android": "https://dc.lft.to/lastmile_qr_scan"}, "lon": -76.93174766666667, "type": "electric_scooter", "fusion_lat": 0.0, "lat": 38.8988425, "name": "2d995b019dfced89826309923765fa37", "fusion_lon": 0.0, "bike_id": "2d995b019dfced89826309923765fa37", "is_disabled": 0, "is_reserved": 0}, {"rental_uris": {"ios": "https://dc.lft.to/lastmile_qr_scan", "android": "https://dc.lft.to/lastmile_qr_scan"}, "lon": -77.03951533333333, "type": "electric_scooter", "fusion_lat": 0.0, "lat": 38.90120733333333, "name": "d4b1a2d6bbd3ff935347058c484a3f18", "fusion_lon": 0.0, "bike_id": "d4b1a2d6bbd3ff935347058c484a3f18", "is_disabled": 0, "is_reserved": 0}, {"rental_uris": {"ios": "https://dc.lft.to/lastmile_qr_scan", "android": "https://dc.lft.to/lastmile_qr_scan"}, "lon": -77.3530785, "type": "electric_bike", "fusion_lat": 0.0, "lat": 38.94998666666667, "name": "54948a3c46767c817bed85e6075da291", "fusion_lon": 0.0, "bike_id": "54948a3c46767c817bed85e6075da291", "is_disabled": 0, "is_reserved": 0}, {"rental_uris": {"ios": "https://dc.lft.to/lastmile_qr_scan", "android": "https://dc.lft.to/lastmile_qr_scan"}, "lon": -77.02948583333334, "type": "electric_scooter", "fusion_lat": 0.0, "lat": 38.887480333333336, "name": "074321b43b85d1d221c3b7f2e8526ba1", "fusion_lon": 0.0, "bike_id": "074321b43b85d1d221c3b7f2e8526ba1", "is_disabled": 0, "is_reserved": 0}, {"rental_uris": {"ios": "https://dc.lft.to/lastmile_qr_scan", "android": "https://dc.lft.to/lastmile_qr_scan"}, "lon": -77.04367483333333, "type": "electric_scooter", "fusion_lat": 0.0, "lat": 38.9333765, "name": "519172de341ea49bc151056a8df90680", "fusion_lon": 0.0, "bike_id": "519172de341ea49bc151056a8df90680", "is_disabled": 0, "is_reserved": 0}, {"rental_uris": {"ios": "https://dc.lft.to/lastmile_qr_scan", "android": "https://dc.lft.to/lastmile_qr_scan"}, "lon": -76.94624666666667, "type": "electric_bike", "fusion_lat": 0.0, "lat": 38.83236633333333, "name": "927f286a125c25dae942d3524de32a84", "fusion_lon": 0.0, "bike_id": "927f286a125c25dae942d3524de32a84", "is_disabled": 0, "is_reserved": 0}, {"rental_uris": {"ios": "https://dc.lft.to/lastmile_qr_scan", "android": "https://dc.lft.to/lastmile_qr_scan"}, "lon": -77.01655533333333, "type": "electric_bike", "fusion_lat": 0.0, "lat": 38.88117066666667, "name": "f8b64fe1b4f3c71970a000644e2533d0", "fusion_lon": 0.0, "bike_id": "f8b64fe1b4f3c71970a000644e2533d0", "is_disabled": 0, "is_reserved": 0}, {"rental_uris": {"ios": "https://dc.lft.to/lastmile_qr_scan", "android": "https://dc.lft.to/lastmile_qr_scan"}, "lon": -77.054679, "type": "electric_scooter", "fusion_lat": 0.0, "lat": 38.896679166666665, "name": "c1fbe3f577a813f07084055c2b3d0faf", "fusion_lon": 0.0, "bike_id": "c1fbe3f577a813f07084055c2b3d0faf", "is_disabled": 0, "is_reserved": 0}, {"rental_uris": {"ios": "https://dc.lft.to/lastmile_qr_scan", "android": "https://dc.lft.to/lastmile_qr_scan"}, "lon": -76.97596083333333, "type": "electric_scooter", "fusion_lat": 0.0, "lat": 38.90332183333334, "name": "b38d04875c49d6f6b0e81199a46d8675", "fusion_lon": 0.0, "bike_id": "b38d04875c49d6f6b0e81199a46d8675", "is_disabled": 0, "is_reserved": 0}, {"rental_uris": {"ios": "https://dc.lft.to/lastmile_qr_scan", "android": "https://dc.lft.to/lastmile_qr_scan"}, "lon": -77.0143045, "type": "electric_scooter", "fusion_lat": 0.0, "lat": 38.9064955, "name": "9aa9e7509e0c990b898fc482f3c4fb7b", "fusion_lon": 0.0, "bike_id": "9aa9e7509e0c990b898fc482f3c4fb7b", "is_disabled": 0, "is_reserved": 0}, {"rental_uris": {"ios": "https://dc.lft.to/lastmile_qr_scan", "android": "https://dc.lft.to/lastmile_qr_scan"},