{"data": {"bikes": [{"name": "9582a92b4265a8edbcbc80071782ada0", "type": "electric_scooter", "lat": 38.90889133333334, "is_reserved": 0, "lon": -77.0057915, "fusion_lon": 0.0, "is_disabled": 0, "fusion_lat": 0.0, "bike_id": "9582a92b4265a8edbcbc80071782ada0", "rental_uris": {"ios": "https://dc.lft.to/lastmile_qr_scan", "android": "https://dc.lft.to/lastmile_qr_scan"}}, {"name": "49786a5b8985754e6a238e307c247fd3", "type": "electric_scooter", "lat": 38.912552, "is_reserved": 0, "lon": -77.03328233333333, "fusion_lon": 0.0, "is_disabled": 0, "fusion_lat": 0.0, "bike_id": "49786a5b8985754e6a238e307c247fd3", "rental_uris": {"ios": "https://dc.lft.to/lastmile_qr_scan", "android": "https://dc.lft.to/lastmile_qr_scan"}}, {"name": "34c87ba75ac14dec5582dbb1138e194d", "type": "electric_scooter", "lat": 38.898779, "is_reserved": 0, "lon": -76.93161216666667, "fusion_lon": 0.0, "is_disabled": 0, "fusion_lat": 0.0, "bike_id": "34c87ba75ac14dec5582dbb1138e194d", "rental_uris": {"ios": "https://dc.lft.to/lastmile_qr_scan", "android": "https://dc.lft.to/lastmile_qr_scan"}}, {"name": "4b37dbfc9d68f5e6e18a66854825ce6d", "type": "electric_scooter", "lat": 38.919043333333335, "is_reserved": 0, "lon": -77.041782, "fusion_lon": 0.0, "is_disabled": 0, "fusion_lat": 0.0, "bike_id": "4b37dbfc9d68f5e6e18a66854825ce6d", "rental_uris": {"ios": "https://dc.lft.to/lastmile_qr_scan", "android": "https://dc.lft.to/lastmile_qr_scan"}}, {"name": "c290ff072964f8bbf64cc694dfa1ad48", "type": "electric_scooter", "lat": 38.927581833333335, "is_reserved": 0, "lon": -77.02424966666666, "fusion_lon": 0.0, "is_disabled": 0, "fusion_lat": 0.0, "bike_id": "c290ff072964f8bbf64cc694dfa1ad48", "rental_uris": {"ios": "https://dc.lft.to/lastmile_qr_scan", "android": "https://dc.lft.to/lastmile_qr_scan"}}, {"name": "685afc6f375be3d2d34acf0d0c5bc4fb", "type": "electric_scooter", "lat": 38.91736733333333, "is_reserved": 0, "lon": -77.010209, "fusion_lon": 0.0, "is_disabled": 0, "fusion_lat": 0.0, "bike_id": "685afc6f375be3d2d34acf0d0c5bc4fb", "rental_uris": {"ios": "https://dc.lft.to/lastmile_qr_scan", "android": "https://dc.lft.to/lastmile_qr_scan"}}, {"name": "6b78e2e8ef4cc684c06d0e4e3a7bdfcd", "type": "electric_scooter", "lat": 38.905581, "is_reserved": 0, "lon": -77.028183, "fusion_lon": 0.0, "is_disabled": 0, "fusion_lat": 0.0, "bike_id": "6b78e2e8ef4cc684c06d0e4e3a7bdfcd", "rental_uris": {"ios": "https://dc.lft.to/lastmile_qr_scan", "android": "https://dc.lft.to/lastmile_qr_scan"}}, {"name": "e8936e1413418ff6e183356744c5d827", "type": "electric_bike", "lat": 38.9613215, "is_reserved": 0, "lon": -77.03272533333333, "fusion_lon": 0.0, "is_disabled": 0, "fusion_lat": 0.0, "bike_id": "e8936e1413418ff6e183356744c5d827", "rental_uris": {"ios": "https://dc.lft.to/lastmile_qr_scan", "android": "https://dc.lft.to/lastmile_qr_scan"}}, {"name": "bd5fd9854d177bf8c299e7d4d7ea6957", "type": "electric_scooter", "lat": 38.883051, "is_reserved": 0, "lon": -76.995083, "fusion_lon": 0.0, "is_disabled": 0, "fusion_lat": 0.0, "bike_id": "bd5fd9854d177bf8c299e7d4d7ea6957", "rental_uris": {"ios": "https://dc.lft.to/lastmile_qr_scan", "android": "https://dc.lft.to/lastmile_qr_scan"}}, {"name": "13624158a246b5b602f6158a4dc352ce", "type": "electric_scooter", "lat": 38.9244855, "is_reserved": 0, "lon": -76.993332, "fusion_lon": 0.0, "is_disabled": 0, "fusion_lat": 0.0, "bike_id": "13624158a246b5b602f6158a4dc352ce", "rental_uris": {"ios": "https://dc.lft.to/lastmile_qr_scan", "android": "https://dc.lft.to/lastmile_qr_scan"}}, {"name": "e2095e53bbb31ce1817590a28c889328", "type": "electric_scooter", "lat": 38.915548, "is_reserved": 0, "lon": -77.04620783333333, "fusion_lon": 0.0, "is_disabled": 0, "fusion_lat": 0.0, "bike_id": "e2095e53bbb31ce1817590a28c889328", "rental_uris": {"ios": "https://dc.lft.to/lastmile_qr_scan", "android": "https://dc.lft.to/lastmile_qr_scan"}}, {"name": "45b48a8c417269ce82d2fb7e8f146495", "type": "electric_bike", "lat": 38.9395935, "is_reserved": 0, "lon": -77.36096483333333, "fusion_lon": 0.0, "is_disabled": 0, "fusion_lat": 0.0, "bike_id": "45b48a8c417269ce82d2fb7e8f146495", "rental_uris": {"ios": "https://dc.lft.to/lastmile_qr_scan", "android": "https://dc.lft.to/lastmile_qr_scan"}}, {"name": "badd5a473d745b667121dfac176c3200", "type": "electric_scooter", "lat": 38.90671866666667, "is_reserved": 0, "lon": -77.02695083333333, "fusion_lon": 0.0, "is_disabled": 0, "fusion_lat": 0.0, "bike_id": "badd5a473d745b667121dfac176c3200", "rental_uris": {"ios": "https://dc.lft.to/lastmile_qr_scan", "android": "https://dc.lft.to/lastmile_qr_scan"}}, {"name": "b93da0b74b284daddeea1510fe92b570", "type": "electric_scooter", "lat": 38.912356833333334, "is_reserved": 0, "lon": -77.0487705, "fusion_lon": 0.0, "is_disabled": 0, "fusion_lat": 0.0, "bike_id": "b93da0b74b284daddeea1510fe92b570", "rental_uris": {"ios": "https://dc.lft.to/lastmile_qr_scan", "android": "https://dc.lft.to/lastmile_qr_scan"}}, {"name": "1b63ca0f45f40447b97aab15f8bf6d39", "type": "electric_scooter", "lat": 38.9097005, "is_reserved": 0, "lon": -77.01117783333333, "fusion_lon": 0.0, "is_disabled": 0, "fusion_lat": 0.0, "bike_id": "1b63ca0f45f40447b97aab15f8bf6d39", "rental_uris": {"ios": "https://dc.lft.to/lastmile_qr_scan", "android": "https://dc.lft.to/lastmile_qr_scan"}}, {"name": "decf832f307c2ec4891061b5429e8fb5", "type": "electric_scooter", "lat": 38.92431366666667, "is_reserved": 0, "lon": -77.0424685, "fusion_lon": 0.0, "is_disabled": 0, "fusion_lat": 0.0, "bike_id": "decf832f307c2ec4891061b5429e8fb5", "rental_uris": {"ios": "https://dc.lft.to/lastmile_qr_scan", "android": "https://dc.lft.to/lastmile_qr_scan"}}, {"name": "e37aaca89ea43c64cd80fdefeaae6001", "type": "electric_bike", "lat": 38.953335833333334, "is_reserved": 0, "lon": -76.9825615, "fusion_lon": 0.0, "is_disabled": 0, "fusion_lat": 0.0, "bike_id": "e37aaca89ea43c64cd80fdefeaae6001", "rental_uris": {"ios": "https://dc.lft.to/lastmile_qr_scan", "android": "https://dc.lft.to/lastmile_qr_scan"}}, {"name": "d56bb9a10fee8c7eb7e13ed61764a6c4", "type": "electric_bike", "lat": 38.877537, "is_reserved": 0, "lon": -76.97989916666667, "fusion_lon": 0.0, "is_disabled": 0, "fusion_lat": 0.0, "bike_id": "d56bb9a10fee8c7eb7e13ed61764a6c4", "rental_uris": {"ios": "https://dc.lft.to/lastmile_qr_scan", "android": "https://dc.lft.to/lastmile_qr_scan"}}, {"name": "c08ffe63c7ea62e452e7fb2a4937925f", "type": "electric_bike", "lat": 38.959307833333334, "is_reserved": 0, "lon": -76.92536083333333, "fusion_lon": 0.0, "is_disabled": 0, "fusion_lat": 0.0, "bike_id": "c08ffe63c7ea62e452e7fb2a4937925f", "rental_uris": {"ios": "https://dc.lft.to/lastmile_qr_scan", "android": "https://dc.lft.to/lastmile_qr_scan"}}, {"name": "339e4006c96d57ebcbd46c5e13cd370f", "type": "electric_scooter", "lat": 38.86962583333333, "is_reserved": 0, "lon": -77.01373716666667, "fusion_lon": 0.0, "is_disabled": 0, "fusion_lat": 0.0, "bike_id": "339e4006c96d57ebcbd46c5e13cd370f", "rental_uris": {"ios": "https://dc.lft.to/lastmile_qr_scan", "android": "https://dc.lft.to/lastmile_qr_scan"}}, {"name": "52433050680690ff4007b2fa7629be21", "type": "electric_scooter", "lat": 38.902846, "is_reserved": 0, "lon": -77.038329, "fusion_lon": 0.0, "is_disabled": 0, "fusion_lat": 0.0, "bike_id": "52433050680690ff4007b2fa7629be21", "rental_uris": {"ios": "https://dc.lft.to/lastmile_qr_scan", "android": "https://dc.lft.to/lastmile_qr_scan"}}, {"name": "b7182bf56dda62c8430b535146f914be", "type": "electric_scooter", "lat": 38.97504883333333, "is_reserved": 0, "lon": -77.01691783333334, "fusion_lon": 0.0, "is_disabled": 0, "fusion_lat": 0.0, "bike_id": "b7182bf56dda62c8430b535146f914be", "rental_uris": {"ios": "https://dc.lft.to/lastmile_qr_scan", "android": "https://dc.lft.to/lastmile_qr_scan"}}, {"name": "ee51754f1ae469c98bb8bb8407f8d108", "type": "electric_scooter", "lat": 38.936765, "is_reserved": 0, "lon": -77.036312, "fusion_lon": 0.0, "is_disabled": 0, "fusion_lat": 0.0, "bike_id": "ee51754f1ae469c98bb8bb8407f8d108", "rental_uris": {"ios": "https://dc.lft.to/lastmile_qr_scan", "android": "https://dc.lft.to/lastmile_qr_scan"}}, {"name": "94d3d48d814fbee02799b066b6a8d04d", "type": "electric_scooter", "lat": 38.90383633333333, "is_reserved": 0, "lon": -77.01102783333333, "fusion_lon": 0.0, "is_disabled": 0, "fusion_lat": 0.0, "bike_id": "94d3d48d814fbee02799b066b6a8d04d", "rental_uris": {"ios": "https://dc.lft.to/lastmile_qr_scan", "android": "https://dc.lft.to/lastmile_qr_scan"}}, {"name": "e86db771e5cb688ca6e061a37d3207dd", "type": "electric_scooter", "lat": 38.924332166666666, "is_reserved": 0, "lon": -77.04241433333334, "fusion_lon": 0.0, "is_disabled": 0, "fusion_lat": 0.0, "bike_id": "e86db771e5cb688ca6e061a37d3207dd", "rental_uris": {"ios": "https://dc.lft.to/lastmile_qr_scan", "android": "https://dc.lft.to/lastmile_qr_scan"}}, {"name": "36ea77f7e61aae71ca450c4bcee4da1f", "type": "electric_scooter", "lat": 38.9055345, "is_reserved": 0, "lon": -77.0218785, "fusion_lon": 0.0, "is_disabled": 0, "fusion_lat": 0.0, "bike_id": "36ea77f7e61aae71ca450c4bcee4da1f", "rental_uris": {"ios": "https://dc.lft.to/lastmile_qr_scan", "android": "https://dc.lft.to/lastmile_qr_scan"}}, {"name": "4f7d6c674160475b90eadba810b64efd", "type": "electric_scooter", "lat": 38.944513, "is_reserved": 0, "lon": -77.06358416666667, "fusion_lon": 0.0, "is_disabled": 0, "fusion_lat": 0.0, "bike_id": "4f7d6c674160475b90eadba810b64efd", "rental_uris": {"ios": "https://dc.lft.to/lastmile_qr_scan", "android": "https://dc.lft.to/lastmile_qr_scan"}}, {"name": "19ff154ca3b1933abe86b302b374ea4a", "type": "electric_scooter", "lat": 38.909607666666666, "is_reserved": 0, "lon": -77.00771566666667, "fusion_lon": 0.0, "is_disabled": 0, "fusion_lat": 0.0, "bike_id": "19ff154ca3b1933abe86b302b374ea4a", "rental_uris": {"ios": "https://dc.lft.to/lastmile_qr_scan", "android": "https://dc.lft.to/lastmile_qr_scan"}}, {"name": "d9c17c31ac50ed364e605980c3040e9b", "type": "electric_bike", "lat": 38.897370333333335, "is_reserved": 0, "lon": -77.00708316666666, "fusion_lon": 0.0, "is_disabled": 0, "fusion_lat": 0.0, "bike_id": "d9c17c31ac50ed364e605980c3040e9b", "rental_uris": {"ios": "https://dc.lft.to/lastmile_qr_scan", "android": "https://dc.lft.to/lastmile_qr_scan"}}, {"name": "7bd213f6edffd850a1ddcad2628e7108", "type": "electric_scooter", "lat": 38.91323366666667, "is_reserved": 0, "lon": -77.03858883333334, "fusion_lon": 0.0, "is_disabled": 0, "fusion_lat": 0.0, "bike_id": "7bd213f6edffd850a1ddcad2628e7108", "rental_uris": {"ios": "https://dc.lft.to/lastmile_qr_scan", "android": "https://dc.lft.to/lastmile_qr_scan"}}, {"name": "c0888bdbd886ed9a35f3a9daffe406b9", "type": "electric_scooter", "lat": 38.89196583333333, "is_reserved": 0, "lon": -77.04593933333334, "fusion_lon": 0.0, "is_disabled": 0, "fusion_lat": 0.0, "bike_id": "c0888bdbd886ed9a35f3a9daffe406b9", "rental_uris": {"ios": "https://dc.lft.to/lastmile_qr_scan", "android": "https://dc.lft.to/lastmile_qr_scan"}}, {"name": "059fc46fd006d4c6a249d3a54827c6e1", "type": "electric_scooter", "lat": 38.9182085, "is_reserved": 0, "lon": -77.02537316666667, "fusion_lon": 0.0, "is_disabled": 0, "fusion_lat": 0.0, "bike_id": "059fc46fd006d4c6a249d3a54827c6e1", "rental_uris": {"ios": "https://dc.lft.to/lastmile_qr_scan", "android": "https://dc.lft.to/lastmile_qr_scan"}}, {"name": "cf1d9392f4a32fbbbbd3434b8e8d56b2", "type": "electric_scooter", "lat": 38.90467866666667, "is_reserved": 0, "lon": -77.04653116666667, "fusion_lon": 0.0, "is_disabled": 0, "fusion_lat": 0.0, "bike_id": "cf1d9392f4a32fbbbbd3434b8e8d56b2", "rental_uris": {"ios": "https://dc.lft.to/lastmile_qr_scan", "android": "https://dc.lft.to/lastmile_qr_scan"}}, {"name": "f9dfdadfa80a6116f70aa9bd64372401", "type": "electric_bike", "lat": 38.80226533333333, "is_reserved": 0, "lon": -77.07918266666667, "fusion_lon": 0.0, "is_disabled": 0, "fusion_lat": 0.0, "bike_id": "f9dfdadfa80a6116f70aa9bd64372401", "rental_uris": {"ios": "https://dc.lft.to/lastmile_qr_scan", "android": "https://dc.lft.to/lastmile_qr_scan"}}, {"name": "ca17a037f47e05637e206f9e959d9eab", "type": "electric_bike", "lat": 38.906910833333335, "is_reserved": 0, "lon": -76.951904, "fusion_lon": 0.0, "is_disabled": 0, "fusion_lat": 0.0, "bike_id": "ca17a037f47e05637e206f9e959d9eab", "rental_uris": {"ios": "https://dc.lft.to/lastmile_qr_scan", "android": "https://dc.lft.to/lastmile_qr_scan"}}, {"name": "5c23202a725fd62641fd6d80bcf00c23", "type": "electric_scooter", "lat": 38.8923, "is_reserved": 0, "lon": -77.046436, "fusion_lon": 0.0, "is_disabled": 0, "fusion_lat": 0.0, "bike_id": "5c23202a725fd62641fd6d80bcf00c23", "rental_uris": {"ios": "https://dc.lft.to/lastmile_qr_scan", "android": "https://dc.lft.to/lastmile_qr_scan"}}, {"name": "a3a59eb98afc08b2aa8d653cda0a57b9", "type": "electric_scooter", "lat": 38.932057666666665, "is_reserved": 0, "lon": -77.03882866666666, "fusion_lon": 0.0, "is_disabled": 0, "fusion_lat": 0.0, "bike_id": "a3a59eb98afc08b2aa8d653cda0a57b9", "rental_uris": {"ios": "https://dc.lft.to/lastmile_qr_scan", "android": "https://dc.lft.to/lastmile_qr_scan"}}, {"name": "cb2ad73eb4476f18ef05b650de43e217", "type": "electric_scooter", "lat": 38.91996616666667, "is_reserved": 0, "lon": -77.03473066666666, "fusion_lon": 0.0, "is_disabled": 0, "fusion_lat": 0.0, "bike_id": "cb2ad73eb4476f18ef05b650de43e217", "rental_uris": {"ios": "https://dc.lft.to/lastmile_qr_scan", "android": "https://dc.lft.to/lastmile_qr_scan"}}, {"name": "45d52f8807e8f45935dbb81ed1a96d24", "type": "electric_scooter", "lat": 38.91193666666667, "is_reserved": 0, "lon": -77.04548183333333, "fusion_lon": 0.0, "is_disabled": 0, "fusion_lat": 0.0, "bike_id": "45d52f8807e8f45935dbb81ed1a96d24", "rental_uris": {"ios": "https://dc.lft.to/lastmile_qr_scan", "android": "https://dc.lft.to/lastmile_qr_scan"}}, {"name": "cede935927627734974b61af9f06e17f", "type": "electric_scooter", "lat": 38.89199266666667, "is_reserved": 0, "lon": -77.00244233333333, "fusion_lon": 0.0, "is_disabled": 0, "fusion_lat": 0.0, "bike_id": "cede935927627734974b61af9f06e17f", "rental_uris": {"ios": "https://dc.lft.to/lastmile_qr_scan", "android": "https://dc.lft.to/lastmile_qr_scan"}}, {"name": "43d43883c11e328a18b8621ce4ff5895", "type": "electric_scooter", "lat": 38.93354216666667, "is_reserved": 0, "lon": -77.06943183333334, "fusion_lon": 0.0, "is_disabled": 0, "fusion_lat": 0.0, "bike_id": "43d43883c11e328a18b8621ce4ff5895", "rental_uris": {"ios": "https://dc.lft.to/lastmile_qr_scan", "android": "https://dc.lft.to/lastmile_qr_scan"}}, {"name": "7c8a6b78ee3c798ef52d1300757abd57", "type": "electric_scooter", "lat": 38.899769, "is_reserved": 0, "lon": -76.92636733333333, "fusion_lon": 0.0, "is_disabled": 0, "fusion_lat": 0.0, "bike_id": "7c8a6b78ee3c798ef52d1300757abd57", "rental_uris": {"ios": "https://dc.lft.to/lastmile_qr_scan", "android": "https://dc.lft.to/lastmile_qr_scan"}}, {"name": "b0fa774cae0b7105e232fc258dd1f116", "type": "electric_scooter", "lat": 38.902842166666666, "is_reserved": 0, "lon": -77.03839733333334, "fusion_lon": 0.0, "is_disabled": 0, "fusion_lat": 0.0, "bike_id": "b0fa774cae0b7105e232fc258dd1f116", "rental_uris": {"ios": "https://dc.lft.to/lastmile_qr_scan", "android": "https://dc.lft.to/lastmile_qr_scan"}}, {"name": "cd163f19ecd0cbed24c3d2c85b9fc55b", "type": "electric_bike", "lat": 38.89070816666667, "is_reserved": 0, "lon": -77.0790085, "fusion_lon": 0.0, "is_disabled": 0, "fusion_lat": 0.0, "bike_id": "cd163f19ecd0cbed24c3d2c85b9fc55b", "rental_uris": {"ios": "https://dc.lft.to/lastmile_qr_scan", "android": "https://dc.lft.to/lastmile_qr_scan"}}, {"name": "df651188fb9bf110fbec153ede1ff712", "type": "electric_scooter", "lat": 38.90735816666667, "is_reserved": 0, "lon": -77.00111366666667, "fusion_lon": 0.0, "is_disabled": 0, "fusion_lat": 0.0, "bike_id": "df651188fb9bf110fbec153ede1ff712", "rental_uris": {"ios": "https://dc.lft.to/lastmile_qr_scan", "android": "https://dc.lft.to/lastmile_qr_scan"}}, {"name": "92362666833f1385c9adc0b2c027a640", "type": "electric_scooter", "lat": 38.89225033333334, "is_reserved": 0, "lon": -77.04330233333333, "fusion_lon": 0.0, "is_disabled": 0, "fusion_lat": 0.0, "bike_id": "92362666833f1385c9adc0b2c027a640", "rental_uris": {"ios": "https://dc.lft.to/lastmile_qr_scan", "android": "https://dc.lft.to/lastmile_qr_scan"}}, {"name": "14e2696c072a1200d378526a82309648", "type": "electric_scooter", "lat": 38.89834416666667, "is_reserved": 0, "lon": -76.94640083333333, "fusion_lon": 0.0, "is_disabled": 0, "fusion_lat": 0.0, "bike_id": "14e2696c072a1200d378526a82309648", "rental_uris": {"ios": "https://dc.lft.to/lastmile_qr_scan", "android": "https://dc.lft.to/lastmile_qr_scan"}}, {"name": "7224f04e7210b8d26d6a6afc05fe9749", "type": "electric_scooter", "lat": 38.9069415, "is_reserved": 0, "lon": -77.0756685, "fusion_lon": 0.0, "is_disabled": 0, "fusion_lat": 0.0, "bike_id": "7224f04e7210b8d26d6a6afc05fe9749", "rental_uris": {"ios": "https://dc.lft.to/lastmile_qr_scan", "android": "https://dc.lft.to/lastmile_qr_scan"}}, {"name": "174cdd01100aa41b379e41a4c1b22b5d", "type": "electric_scooter", "lat": 38.89238733333333, "is_reserved": 0, "lon": -77.02796533333333, "fusion_lon": 0.0, "is_disabled": 0, "fusion_lat": 0.0, "bike_id": "174cdd01100aa41b379e41a4c1b22b5d", "rental_uris": {"ios": "https://dc.lft.to/lastmile_qr_scan", "android": "https://dc.lft.to/lastmile_qr_scan"}}, {"name": "901e2757135e77c1c544c7f09c663484", "type": "electric_scooter", "lat": 38.93529616666667, "is_reserved": 0, "lon": -77.02856583333333, "fusion_lon": 0.0, "is_disabled": 0, "fusion_lat": 0.0, "bike_id": "901e2757135e77c1c544c7f09c663484", "rental_uris": {"ios": "https://dc.lft.to/lastmile_qr_scan", "android": "https://dc.lft.to/lastmile_qr_scan"}}, {"name": "f934b3c84eb508a2aac03d143c001c3d", "type": "electric_scooter", "lat": 38.9125245, "is_reserved": 0, "lon": -77.00959233333333, "fusion_lon": 0.0, "is_disabled": 0, "fusion_lat": 0.0, "bike_id": "f934b3c84eb508a2aac03d143c001c3d", "rental_uris": {"ios": "https://dc.lft.to/lastmile_qr_scan", "android": "https://dc.lft.to/lastmile_qr_scan"}}, {"name": "1a7041aad2b6f10e527cd7b09f70e8f6", "type": "electric_scooter", "lat": 38.892399833333336, "is_reserved": 0, "lon": -77.0500385, "fusion_lon": 0.0, "is_disabled": 0, "fusion_lat": 0.0, "bike_id": "1a7041aad2b6f10e527cd7b09f70e8f6", "rental_uris": {"ios": "https://dc.lft.to/lastmile_qr_scan", "android": "https://dc.lft.to/lastmile_qr_scan"}}, {"name": "4a09cfee9412157d417d1280b45c55ec", "type": "electric_scooter", "lat": 38.92593566666667, "is_reserved": 0, "lon": -77.00488483333334, "fusion_lon": 0.0, "is_disabled": 0, "fusion_lat": 0.0, "bike_id": "4a09cfee9412157d417d1280b45c55ec", "rental_uris": {"ios": "https://dc.lft.to/lastmile_qr_scan", "android": "https://dc.lft.to/lastmile_qr_scan"}}, {"name": "702d25e7963889fdb2a105690904b8cd", "type": "electric_scooter", "lat": 38.88366716666667, "is_reserved": 0, "lon": -77.0318325, "fusion_lon": 0.0, "is_disabled": 0, "fusion_lat": 0.0, "bike_id": "702d25e7963889fdb2a105690904b8cd", "rental_uris": {"ios": "https://dc.lft.to/lastmile_qr_scan", "android": "https://dc.lft.to/lastmile_qr_scan"}}, {"name": "8fea42ddceffb75e60ea335b22105b90", "type": "electric_scooter", "lat": 38.931611333333336, "is_reserved": 0, "lon": -77.03888466666666, "fusion_lon": 0.0, "is_disabled": 0, "fusion_lat": 0.0, "bike_id": "8fea42ddceffb75e60ea335b22105b90", "rental_uris": {"ios": "https://dc.lft.to/lastmile_qr_scan", "android": "https://dc.lft.to/lastmile_qr_scan"}}, {"name": "c004cf6d698dcc5aa79ec2565873663e", "type": "electric_bike", "lat": 38.94154283333334, "is_reserved": 0, "lon": -77.0019635, "fusion_lon": 0.0, "is_disabled": 0, "fusion_lat": 0.0, "bike_id": "c004cf6d698dcc5aa79ec2565873663e", "rental_uris": {"ios": "https://dc.lft.to/lastmile_qr_scan", "android": "https://dc.lft.to/lastmile_qr_scan"}}, {"name": "8187d4b5bf75246dc3aeaba45c1c1d6d", "type": "electric_scooter", "lat": 38.92286416666666, "is_reserved": 0, "lon": -77.03658816666666, "fusion_lon": 0.0, "is_disabled": 0, "fusion_lat": 0.0, "bike_id": "8187d4b5bf75246dc3aeaba45c1c1d6d", "rental_uris": {"ios": "https://dc.lft.to/lastmile_qr_scan", "android": "https://dc.lft.to/lastmile_qr_scan"}}, {"name": "9400df983ad794b817a3a32eb6f76e92", "type": "electric_scooter", "lat": 38.89336466666666, "is_reserved": 0, "lon": -76.92996366666667, "fusion_lon": 0.0, "is_disabled": 0, "fusion_lat": 0.0, "bike_id": "9400df983ad794b817a3a32eb6f76e92", "rental_uris": {"ios": "https://dc.lft.to/lastmile_qr_scan", "android": "https://dc.lft.to/lastmile_qr_scan"}}, {"name": "827fcdfba434e6a3bbf4480501346808", "type": "electric_scooter", "lat": 38.88610716666667, "is_reserved": 0, "lon": -76.99517233333333, "fusion_lon": 0.0, "is_disabled": 0, "fusion_lat": 0.0, "bike_id": "827fcdfba434e6a3bbf4480501346808", "rental_uris": {"ios": "https://dc.lft.to/lastmile_qr_scan", "android": "https://dc.lft.to/lastmile_qr_scan"}}, {"name": "9f451cc40d34e0ecd84d9f337dcac58d", "type": "electric_scooter", "lat": 38.90763283333333, "is_reserved": 0, "lon": -77.03078733333334, "fusion_lon": 0.0, "is_disabled": 0, "fusion_lat": 0.0, "bike_id": "9f451cc40d34e0ecd84d9f337dcac58d", "rental_uris": {"ios": "https://dc.lft.to/lastmile_qr_scan", "android": "https://dc.lft.to/lastmile_qr_scan"}}, {"name": "91e83e93c6ec72557b458047171e40d8", "type": "electric_scooter", "lat": 38.9215725, "is_reserved": 0, "lon": -77.03858166666667, "fusion_lon": 0.0, "is_disabled": 0, "fusion_lat": 0.0, "bike_id": "91e83e93c6ec72557b458047171e40d8", "rental_uris": {"ios": "https://dc.lft.to/lastmile_qr_scan", "android": "https://dc.lft.to/lastmile_qr_scan"}}, {"name": "ac5908142ce7f5fb10c41eac91d6e6a1", "type": "electric_scooter", "lat": 38.93662333333333, "is_reserved": 0, "lon": -77.03690133333333, "fusion_lon": 0.0, "is_disabled": 0, "fusion_lat": 0.0, "bike_id": "ac5908142ce7f5fb10c41eac91d6e6a1", "rental_uris": {"ios": "https://dc.lft.to/lastmile_qr_scan", "android": "https://dc.lft.to/lastmile_qr_scan"}}, {"name": "966b1b996eba9e7cf9188565593434e5", "type": "electric_scooter", "lat": 38.89978383333333, "is_reserved": 0, "lon": -76.99148633333333, "fusion_lon": 0.0, "is_disabled": 0, "fusion_lat": 0.0, "bike_id": "966b1b996eba9e7cf9188565593434e5", "rental_uris": {"ios": "https://dc.lft.to/lastmile_qr_scan", "android": "https://dc.lft.to/lastmile_qr_scan"}}, {"name": "254aed5dc14c57c6a5e321ebd5729a65", "type": "electric_scooter", "lat": 38.9049275, "is_reserved": 0, "lon": -77.02701533333334, "fusion_lon": 0.0, "is_disabled": 0, "fusion_lat": 0.0, "bike_id": "254aed5dc14c57c6a5e321ebd5729a65", "rental_uris": {"ios": "https://dc.lft.to/lastmile_qr_scan", "android": "https://dc.lft.to/lastmile_qr_scan"}}, {"name": "06857195f59e976d3d2e1c2a2ac8818b", "type": "electric_scooter", "lat": 38.900871333333335, "is_reserved": 0, "lon": -77.02171633333333, "fusion_lon": 0.0, "is_disabled": 0, "fusion_lat": 0.0, "bike_id": "06857195f59e976d3d2e1c2a2ac8818b", "rental_uris": {"ios": "https://dc.lft.to/lastmile_qr_scan", "android": "https://dc.lft.to/lastmile_qr_scan"}}, {"name": "b0a82391a811c9b36265577448f3dacb", "type": "electric_scooter", "lat": 38.93117933333333, "is_reserved": 0, "lon": -77.02100883333334, "fusion_lon": 0.0, "is_disabled": 0, "fusion_lat": 0.0, "bike_id": "b0a82391a811c9b36265577448f3dacb", "rental_uris": {"ios": "https://dc.lft.to/lastmile_qr_scan", "android": "https://dc.lft.to/lastmile_qr_scan"}}, {"name": "9b8089eb3ecc5f0d296bd2ff4924d599", "type": "electric_scooter", "lat": 38.918745666666666, "is_reserved": 0, "lon": -77.02317883333333, "fusion_lon": 0.0, "is_disabled": 0, "fusion_lat": 0.0, "bike_id": "9b8089eb3ecc5f0d296bd2ff4924d599", "rental_uris": {"ios": "https://dc.lft.to/lastmile_qr_scan", "android": "https://dc.lft.to/lastmile_qr_scan"}}, {"name": "4501979f5a0c7b36a2258b499052a812", "type": "electric_scooter", "lat": 38.883337166666664, "is_reserved": 0, "lon": -77.01777083333333, "fusion_lon": 0.0, "is_disabled": 0, "fusion_lat": 0.0, "bike_id": "4501979f5a0c7b36a2258b499052a812", "rental_uris": {"ios": "https://dc.lft.to/lastmile_qr_scan", "android": "https://dc.lft.to/lastmile_qr_scan"}}, {"name": "3e97f88db3b0175dc1ef0bc19d3900c0", "type": "electric_scooter", "lat": 38.90981633333333, "is_reserved": 0, "lon": -77.0671685, "fusion_lon": 0.0, "is_disabled": 0, "fusion_lat": 0.0, "bike_id": "3e97f88db3b0175dc1ef0bc19d3900c0", "rental_uris": {"ios": "https://dc.lft.to/lastmile_qr_scan", "android": "https://dc.lft.to/lastmile_qr_scan"}}, {"name": "24a2369133a61a1ef1833c9e466d7a84", "type": "electric_scooter", "lat": 38.94929483333333, "is_reserved": 0, "lon": -77.01935683333333, "fusion_lon": 0.0, "is_disabled": 0, "fusion_lat": 0.0, "bike_id": "24a2369133a61a1ef1833c9e466d7a84", "rental_uris": {"ios": "https://dc.lft.to/lastmile_qr_scan", "android": "https://dc.lft.to/lastmile_qr_scan"}}, {"name": "dfe69827d3660fbe868dcef72f7f05c0", "type": "electric_scooter", "lat": 38.91787083333333, "is_reserved": 0, "lon": -77.02295516666666, "fusion_lon": 0.0, "is_disabled": 0, "fusion_lat": 0.0, "bike_id": "dfe69827d3660fbe868dcef72f7f05c0", "rental_uris": {"ios": "https://dc.lft.to/lastmile_qr_scan", "android": "https://dc.lft.to/lastmile_qr_scan"}}, {"name": "6d209cd31ea8b7a57a4e4fdc577bd2e1", "type": "electric_scooter", "lat": 38.9348995, "is_reserved": 0, "lon": -77.07256466666666, "fusion_lon": 0.0, "is_disabled": 0, "fusion_lat": 0.0, "bike_id": "6d209cd31ea8b7a57a4e4fdc577bd2e1", "rental_uris": {"ios": "https://dc.lft.to/lastmile_qr_scan", "android": "https://dc.lft.to/lastmile_qr_scan"}}, {"name": "888ac6a1b90651c203737a0faa31d377", "type": "electric_scooter", "lat": 38.91707016666667, "is_reserved": 0, "lon": -77.03471666666667, "fusion_lon": 0.0, "is_disabled": 0, "fusion_lat": 0.0, "bike_id": "888ac6a1b90651c203737a0faa31d377", "rental_uris": {"ios": "https://dc.lft.to/lastmile_qr_scan", "android": "https://dc.lft.to/lastmile_qr_scan"}}, {"name": "2c23615ec1f70182b552961b907ca614", "type": "electric_scooter", "lat": 38.90848583333333, "is_reserved": 0, "lon": -77.00028833333333, "fusion_lon": 0.0, "is_disabled": 0, "fusion_lat": 0.0, "bike_id": "2c23615ec1f70182b552961b907ca614", "rental_uris": {"ios": "https://dc.lft.to/lastmile_qr_scan", "android": "https://dc.lft.to/lastmile_qr_scan"}}, {"name": "600bece29752d3152b463d8475197f7d", "type": "electric_scooter", "lat": 38.924593, "is_reserved": 0, "lon": -76.99901116666666, "fusion_lon": 0.0, "is_disabled": 0, "fusion_lat": 0.0, "bike_id": "600bece29752d3152b463d8475197f7d", "rental_uris": {"ios": "https://dc.lft.to/lastmile_qr_scan", "android": "https://dc.lft.to/lastmile_qr_scan"}}, {"name": "3e80d5a8ee7b5dc95ad55baadc671b34", "type": "electric_scooter", "lat": 38.9086175, "is_reserved": 0, "lon": -77.02061983333333, "fusion_lon": 0.0, "is_disabled": 0, "fusion_lat": 0.0, "bike_id": "3e80d5a8ee7b5dc95ad55baadc671b34", "rental_uris": {"ios": "https://dc.lft.to/lastmile_qr_scan", "android": "https://dc.lft.to/lastmile_qr_scan"}}, {"name": "6cfc0a799b0338278936d9ef1b864677", "type": "electric_scooter", "lat": 38.894072, "is_reserved": 0, "lon": -76.94803883333333, "fusion_lon": 0.0, "is_disabled": 0, "fusion_lat": 0.0, "bike_id": "6cfc0a799b0338278936d9ef1b864677", "rental_uris": {"ios": "https://dc.lft.to/lastmile_qr_scan", "android": "https://dc.lft.to/lastmile_qr_scan"}}, {"name": "fb34f2ca3f60f7c9215da0b8b0a0ee00", "type": "electric_scooter", "lat": 38.92315516666667, "is_reserved": 0, "lon": -77.0391535, "fusion_lon": 0.0, "is_disabled": 0, "fusion_lat": 0.0, "bike_id": "fb34f2ca3f60f7c9215da0b8b0a0ee00", "rental_uris": {"ios": "https://dc.lft.to/lastmile_qr_scan", "android": "https://dc.lft.to/lastmile_qr_scan"}}, {"name": "212c2b000bcb1efadaf221a331bb80e3", "type": "electric_scooter", "lat": 38.85715833333333, "is_reserved": 0, "lon": -76.98131266666667, "fusion_lon": 0.0, "is_disabled": 0, "fusion_lat": 0.0, "bike_id": "212c2b000bcb1efadaf221a331bb80e3", "rental_uris": {"ios": "https://dc.lft.to/lastmile_qr_scan", "android": "https://dc.lft.to/lastmile_qr_scan"}}, {"name": "12d9edbb03373b8a7c16d4661d144d08", "type": "electric_bike", "lat": 38.90862666666666, "is_reserved": 0, "lon": -77.0478845, "fusion_lon": 0.0, "is_disabled": 0, "fusion_lat": 0.0, "bike_id": "12d9edbb03373b8a7c16d4661d144d08", "rental_uris": {"ios": "https://dc.lft.to/lastmile_qr_scan", "android": "https://dc.lft.to/lastmile_qr_scan"}}, {"name": "d6a62e34514dddb42ebeb5816ad9538e", "type": "electric_bike", "lat": 38.879805833333336, "is_reserved": 0, "lon": -76.91602116666667, "fusion_lon": 0.0, "is_disabled": 0, "fusion_lat": 0.0, "bike_id": "d6a62e34514dddb42ebeb5816ad9538e", "rental_uris": {"ios": "https://dc.lft.to/lastmile_qr_scan", "android": "https://dc.lft.to/lastmile_qr_scan"}}, {"name": "8454638d97e54a7229f230393eb2172c", "type": "electric_scooter", "lat": 38.935396833333336, "is_reserved": 0, "lon": -77.03690433333334, "fusion_lon": 0.0, "is_disabled": 0, "fusion_lat": 0.0, "bike_id": "8454638d97e54a7229f230393eb2172c", "rental_uris": {"ios": "https://dc.lft.to/lastmile_qr_scan", "android": "https://dc.lft.to/lastmile_qr_scan"}}, {"name": "1c2ab3aac8a333e32b25b94f5af806a8", "type": "electric_scooter", "lat": 38.915887166666664, "is_reserved": 0, "lon": -77.04472866666667, "fusion_lon": 0.0, "is_disabled": 0, "fusion_lat": 0.0, "bike_id": "1c2ab3aac8a333e32b25b94f5af806a8", "rental_uris": {"ios": "https://dc.lft.to/lastmile_qr_scan", "android": "https://dc.lft.to/lastmile_qr_scan"}}, {"name": "44f6aaaac93b8c1cfac3272f3730269c", "type": "electric_scooter", "lat": 38.935795, "is_reserved": 0, "lon": -76.991025, "fusion_lon": 0.0, "is_disabled": 0, "fusion_lat": 0.0, "bike_id": "44f6aaaac93b8c1cfac3272f3730269c", "rental_uris": {"ios": "https://dc.lft.to/lastmile_qr_scan", "android": "https://dc.lft.to/lastmile_qr_scan"}}, {"name": "e7b5b372e4269aad3928d44cccd126c3", "type": "electric_scooter", "lat": 38.925307333333336, "is_reserved": 0, "lon": -77.055426, "fusion_lon": 0.0, "is_disabled": 0, "fusion_lat": 0.0, "bike_id": "e7b5b372e4269aad3928d44cccd126c3", "rental_uris": {"ios": "https://dc.lft.to/lastmile_qr_scan", "android": "https://dc.lft.to/lastmile_qr_scan"}}, {"name": "7518098a33c964f280870b912a65a2c4", "type": "electric_scooter", "lat": 38.9223325, "is_reserved": 0, "lon": -77.03339733333334, "fusion_lon": 0.0, "is_disabled": 0, "fusion_lat": 0.0, "bike_id": "7518098a33c964f280870b912a65a2c4", "rental_uris": {"ios": "https://dc.lft.to/lastmile_qr_scan", "android": "https://dc.lft.to/lastmile_qr_scan"}}, {"name": "def183479630cf327a8884adee620f69", "type": "electric_scooter", "lat": 38.918803, "is_reserved": 0, "lon": -77.04381516666666, "fusion_lon": 0.0, "is_disabled": 0, "fusion_lat": 0.0, "bike_id": "def183479630cf327a8884adee620f69", "rental_uris": {"ios": "https://dc.lft.to/lastmile_qr_scan", "android": "https://dc.lft.to/lastmile_qr_scan"}}, {"name": "d51b57049de1ad83798b65ce66d8a5c4", "type": "electric_scooter", "lat": 38.901521833333334, "is_reserved": 0, "lon": -76.930674, "fusion_lon": 0.0, "is_disabled": 0, "fusion_lat": 0.0, "bike_id": "d51b57049de1ad83798b65ce66d8a5c4", "rental_uris": {"ios": "https://dc.lft.to/lastmile_qr_scan", "android": "https://dc.lft.to/lastmile_qr_scan"}}, {"name": "62e89312aaa6187f5d4900c65b22b456", "type": "electric_scooter", "lat": 38.924777166666665, "is_reserved": 0, "lon": -77.028281, "fusion_lon": 0.0, "is_disabled": 0, "fusion_lat": 0.0, "bike_id": "62e89312aaa6187f5d4900c65b22b456", "rental_uris": {"ios": "https://dc.lft.to/lastmile_qr_scan", "android": "https://dc.lft.to/lastmile_qr_scan"}}, {"name": "0e32436d0589d79f31046491bb208f3b", "type": "electric_scooter", "lat": 38.9247555, "is_reserved": 0, "lon": -77.03771533333334, "fusion_lon": 0.0, "is_disabled": 0, "fusion_lat": 0.0, "bike_id": "0e32436d0589d79f31046491bb208f3b", "rental_uris": {"ios": "https://dc.lft.to/lastmile_qr_scan", "android": "https://dc.lft.to/lastmile_qr_scan"}}, {"name": "c8661379b8e287328fa0f8dc9b129a16", "type": "electric_scooter", "lat": 38.910933, "is_reserved": 0, "lon": -77.03845483333333, "fusion_lon": 0.0, "is_disabled": 0, "fusion_lat": 0.0, "bike_id": "c8661379b8e287328fa0f8dc9b129a16", "rental_uris": {"ios": "https://dc.lft.to/lastmile_qr_scan", "android": "https://dc.lft.to/lastmile_qr_scan"}}, {"name": "b4d7c49b591effcc6dcda66dff00eff6", "type": "electric_scooter", "lat": 38.895042, "is_reserved": 0, "lon": -77.0108405, "fusion_lon": 0.0, "is_disabled": 0, "fusion_lat": 0.0, "bike_id": "b4d7c49b591effcc6dcda66dff00eff6", "rental_uris": {"ios": "https://dc.lft.to/lastmile_qr_scan", "android": "https://dc.lft.to/lastmile_qr_scan"}}, {"name": "ead226b941e7b8cda2f21fe09d1510aa", "type": "electric_scooter", "lat": 38.898370166666666, "is_reserved": 0, "lon": -76.9463585, "fusion_lon": 0.0, "is_disabled": 0, "fusion_lat": 0.0, "bike_id": "ead226b941e7b8cda2f21fe09d1510aa", "rental_uris": {"ios": "https://dc.lft.to/lastmile_qr_scan", "android": "https://dc.lft.to/lastmile_qr_scan"}}, {"name": "9cddeb9e6e8e3cfe4889411d12c537ba", "type": "electric_scooter", "lat": 38.924246833333335, "is_reserved": 0, "lon": -77.01954233333333, "fusion_lon": 0.0, "is_disabled": 0, "fusion_lat": 0.0, "bike_id": "9cddeb9e6e8e3cfe4889411d12c537ba", "rental_uris": {"ios": "https://dc.lft.to/lastmile_qr_scan", "android": "https://dc.lft.to/lastmile_qr_scan"}}, {"name": "82d8a6a3838876d1b94c2e927794769d", "type": "electric_bike", "lat": 38.954841333333334, "is_reserved": 0, "lon": -77.08242016666667, "fusion_lon": 0.0, "is_disabled": 0, "fusion_lat": 0.0, "bike_id": "82d8a6a3838876d1b94c2e927794769d", "rental_uris": {"ios": "https://dc.lft.to/lastmile_qr_scan", "android": "https://dc.lft.to/lastmile_qr_scan"}}, {"name": "625596d0a255d5d8937203c169aa7398", "type": "electric_scooter", "lat": 38.9170885, "is_reserved": 0, "lon": -77.02677716666666, "fusion_lon": 0.0, "is_disabled": 0, "fusion_lat": 0.0, "bike_id": "625596d0a255d5d8937203c169aa7398", "rental_uris": {"ios": "https://dc.lft.to/lastmile_qr_scan", "android": "https://dc.lft.to/lastmile_qr_scan"}}, {"name": "cde5f5fb5315edc45485a9d161af9529", "type": "electric_scooter", "lat": 38.927795, "is_reserved": 0, "lon": -77.02657416666666, "fusion_lon": 0.0, "is_disabled": 0, "fusion_lat": 0.0, "bike_id": "cde5f5fb5315edc45485a9d161af9529", "rental_uris": {"ios": "https://dc.lft.to/lastmile_qr_scan", "android": "https://dc.lft.to/lastmile_qr_scan"}}, {"name": "0cdf950db2151ab0eb26aa1f63d78aa7", "type": "electric_scooter", "lat": 38.905105, "is_reserved": 0, "lon": -77.06383033333333, "fusion_lon": 0.0, "is_disabled": 0, "fusion_lat": 0.0, "bike_id": "0cdf950db2151ab0eb26aa1f63d78aa7", "rental_uris": {"ios": "https://dc.lft.to/lastmile_qr_scan", "android": "https://dc.lft.to/lastmile_qr_scan"}}, {"name": "82d01c5b82ba55d7ed915fcdaffad825", "type": "electric_scooter", "lat": 38.920408, "is_reserved": 0, "lon": -77.041788, "fusion_lon": 0.0, "is_disabled": 0, "fusion_lat": 0.0, "bike_id": "82d01c5b82ba55d7ed915fcdaffad825", "rental_uris": {"ios": "https://dc.lft.to/lastmile_qr_scan", "android": "https://dc.lft.to/lastmile_qr_scan"}}, {"name": "c68553fc6c492518dcd4b3a49f64eb8e", "type": "electric_scooter", "lat": 38.921698666666664, "is_reserved": 0, "lon": -77.032097, "fusion_lon": 0.0, "is_disabled": 0, "fusion_lat": 0.0, "bike_id": "c68553fc6c492518dcd4b3a49f64eb8e", "rental_uris": {"ios": "https://dc.lft.to/lastmile_qr_scan", "android": "https://dc.lft.to/lastmile_qr_scan"}}, {"name": "3317133faed657ab303b3be34c4c1992", "type": "electric_scooter", "lat": 38.9133825, "is_reserved": 0, "lon": -77.00219433333334, "fusion_lon": 0.0, "is_disabled": 0, "fusion_lat": 0.0, "bike_id": "3317133faed657ab303b3be34c4c1992", "rental_uris": {"ios": "https://dc.lft.to/lastmile_qr_scan", "android": "https://dc.lft.to/lastmile_qr_scan"}}, {"name": "a41c55cc9d61d3035fcf0766b7567bfc", "type": "electric_scooter", "lat": 38.86355866666667, "is_reserved": 0, "lon": -76.990694, "fusion_lon": 0.0, "is_disabled": 0, "fusion_lat": 0.0, "bike_id": "a41c55cc9d61d3035fcf0766b7567bfc", "rental_uris": {"ios": "https://dc.lft.to/lastmile_qr_scan", "android": "https://dc.lft.to/lastmile_qr_scan"}}, {"name": "609440e9f04e8df775064c42bb767b56", "type": "electric_scooter", "lat": 38.928775333333334, "is_reserved": 0, "lon": -77.04125633333334, "fusion_lon": 0.0, "is_disabled": 0, "fusion_lat": 0.0, "bike_id": "609440e9f04e8df775064c42bb767b56", "rental_uris": {"ios": "https://dc.lft.to/lastmile_qr_scan", "android": "https://dc.lft.to/lastmile_qr_scan"}}, {"name": "7ad8fa98f8bc837a9c6f29703e717c79", "type": "electric_scooter", "lat": 38.920634166666666, "is_reserved": 0, "lon": -77.0425885, "fusion_lon": 0.0, "is_disabled": 0, "fusion_lat": 0.0, "bike_id": "7ad8fa98f8bc837a9c6f29703e717c79", "rental_uris": {"ios": "https://dc.lft.to/lastmile_qr_scan", "android": "https://dc.lft.to/lastmile_qr_scan"}}, {"name": "12c227461e2438dee0d40cc8f7cdf306", "type": "electric_scooter", "lat": 38.86206266666667, "is_reserved": 0, "lon": -76.99474483333333, "fusion_lon": 0.0, "is_disabled": 0, "fusion_lat": 0.0, "bike_id": "12c227461e2438dee0d40cc8f7cdf306", "rental_uris": {"ios": "https://dc.lft.to/lastmile_qr_scan", "android": "https://dc.lft.to/lastmile_qr_scan"}}, {"name": "bc4c7373738204b623d950c6822f4050", "type": "electric_scooter", "lat": 38.95923533333333, "is_reserved": 0, "lon": -77.0332305, "fusion_lon": 0.0, "is_disabled": 0, "fusion_lat": 0.0, "bike_id": "bc4c7373738204b623d950c6822f4050", "rental_uris": {"ios": "https://dc.lft.to/lastmile_qr_scan", "android": "https://dc.lft.to/lastmile_qr_scan"}}, {"name": "5fb175665c295debbba5ed1f59bc6646", "type": "electric_scooter", "lat": 38.923427, "is_reserved": 0, "lon": -77.05045966666667, "fusion_lon": 0.0, "is_disabled": 0, "fusion_lat": 0.0, "bike_id": "5fb175665c295debbba5ed1f59bc6646", "rental_uris": {"ios": "https://dc.lft.to/lastmile_qr_scan", "android": "https://dc.lft.to/lastmile_qr_scan"}}, {"name": "545e1fe1337bfee26c7421671e72909f", "type": "electric_scooter", "lat": 38.898064, "is_reserved": 0, "lon": -76.9950675, "fusion_lon": 0.0, "is_disabled": 0, "fusion_lat": 0.0, "bike_id": "545e1fe1337bfee26c7421671e72909f", "rental_uris": {"ios": "https://dc.lft.to/lastmile_qr_scan", "android": "https://dc.lft.to/lastmile_qr_scan"}}, {"name": "984ed58c6a5a622c497705e6405a40ea", "type": "electric_scooter", "lat": 38.90094883333333, "is_reserved": 0, "lon": -77.05134183333334, "fusion_lon": 0.0, "is_disabled": 0, "fusion_lat": 0.0, "bike_id": "984ed58c6a5a622c497705e6405a40ea", "rental_uris": {"ios": "https://dc.lft.to/lastmile_qr_scan", "android": "https://dc.lft.to/lastmile_qr_scan"}}, {"name": "28fbaf71a8f16c86a057718546407e4b", "type": "electric_bike", "lat": 38.92918183333333, "is_reserved": 0, "lon": -77.023824, "fusion_lon": 0.0, "is_disabled": 0, "fusion_lat": 0.0, "bike_id": "28fbaf71a8f16c86a057718546407e4b", "rental_uris": {"ios": "https://dc.lft.to/lastmile_qr_scan", "android": "https://dc.lft.to/lastmile_qr_scan"}}, {"name": "531156d8f98b0f852c1188504d5a4fe4", "type": "electric_scooter", "lat": 38.90424816666667, "is_reserved": 0, "lon": -77.02087766666666, "fusion_lon": 0.0, "is_disabled": 0, "fusion_lat": 0.0, "bike_id": "531156d8f98b0f852c1188504d5a4fe4", "rental_uris": {"ios": "https://dc.lft.to/lastmile_qr_scan", "android": "https://dc.lft.to/lastmile_qr_scan"}}, {"name": "7ee945673fa7dcdc552da6eb49461466", "type": "electric_scooter", "lat": 38.903343166666666, "is_reserved": 0, "lon": -77.038294, "fusion_lon": 0.0, "is_disabled": 0, "fusion_lat": 0.0, "bike_id": "7ee945673fa7dcdc552da6eb49461466", "rental_uris": {"ios": "https://dc.lft.to/lastmile_qr_scan", "android": "https://dc.lft.to/lastmile_qr_scan"}}, {"name": "c4211a9a12ac6f3b69c62aaef6a81058", "type": "electric_bike", "lat": 38.92219266666667, "is_reserved": 0, "lon": -76.98833333333333, "fusion_lon": 0.0, "is_disabled": 0, "fusion_lat": 0.0, "bike_id": "c4211a9a12ac6f3b69c62aaef6a81058", "rental_uris": {"ios": "https://dc.lft.to/lastmile_qr_scan", "android": "https://dc.lft.to/lastmile_qr_scan"}}, {"name": "1b66cdd2cb963d86d44f88a7746a2f9d", "type": "electric_bike", "lat": 38.969248666666665, "is_reserved": 0, "lon": -76.95668066666667, "fusion_lon": 0.0, "is_disabled": 0, "fusion_lat": 0.0, "bike_id": "1b66cdd2cb963d86d44f88a7746a2f9d", "rental_uris": {"ios": "https://dc.lft.to/lastmile_qr_scan", "android": "https://dc.lft.to/lastmile_qr_scan"}}, {"name": "45e43bf38567c5375cba8abac9552a12", "type": "electric_bike", "lat": 38.99230566666667, "is_reserved": 0, "lon": -76.878254, "fusion_lon": 0.0, "is_disabled": 0, "fusion_lat": 0.0, "bike_id": "45e43bf38567c5375cba8abac9552a12", "rental_uris": {"ios": "https://dc.lft.to/lastmile_qr_scan", "android": "https://dc.lft.to/lastmile_qr_scan"}}, {"name": "f6324b08566ef77722a9e82674d9156d", "type": "electric_scooter", "lat": 38.8429565, "is_reserved": 0, "lon": -76.999527, "fusion_lon": 0.0, "is_disabled": 0, "fusion_lat": 0.0, "bike_id": "f6324b08566ef77722a9e82674d9156d", "rental_uris": {"ios": "https://dc.lft.to/lastmile_qr_scan", "android": "https://dc.lft.to/lastmile_qr_scan"}}, {"name": "a8ee6940517f4944af304a71e3339fe9", "type": "electric_scooter", "lat": 38.90039766666666, "is_reserved": 0, "lon": -77.02623433333333, "fusion_lon": 0.0, "is_disabled": 0, "fusion_lat": 0.0, "bike_id": "a8ee6940517f4944af304a71e3339fe9", "rental_uris": {"ios": "https://dc.lft.to/lastmile_qr_scan", "android": "https://dc.lft.to/lastmile_qr_scan"}}, {"name": "c2b659570821027e6299eb8b466fcd04", "type": "electric_scooter", "lat": 38.90133816666667, "is_reserved": 0, "lon": -77.01198216666667, "fusion_lon": 0.0, "is_disabled": 0, "fusion_lat": 0.0, "bike_id": "c2b659570821027e6299eb8b466fcd04", "rental_uris": {"ios": "https://dc.lft.to/lastmile_qr_scan", "android": "https://dc.lft.to/lastmile_qr_scan"}}, {"name": "45cd2cc39b8b478e9953729d42988a90", "type": "electric_scooter", "lat": 38.902743666666666, "is_reserved": 0, "lon": -77.061067, "fusion_lon": 0.0, "is_disabled": 0, "fusion_lat": 0.0, "bike_id": "45cd2cc39b8b478e9953729d42988a90", "rental_uris": {"ios": "https://dc.lft.to/lastmile_qr_scan", "android": "https://dc.lft.to/lastmile_qr_scan"}}, {"name": "ccc53c034f2207c50088f512de65e269", "type": "electric_scooter", "lat": 38.91121833333333, "is_reserved": 0, "lon": -77.03737266666667, "fusion_lon": 0.0, "is_disabled": 0, "fusion_lat": 0.0, "bike_id": "ccc53c034f2207c50088f512de65e269", "rental_uris": {"ios": "https://dc.lft.to/lastmile_qr_scan", "android": "https://dc.lft.to/lastmile_qr_scan"}}, {"name": "7932c0ca0a229fd354ccac51b5dca5ff", "type": "electric_scooter", "lat": 38.9553745, "is_reserved": 0, "lon": -77.02470216666667, "fusion_lon": 0.0, "is_disabled": 0, "fusion_lat": 0.0, "bike_id": "7932c0ca0a229fd354ccac51b5dca5ff", "rental_uris": {"ios": "https://dc.lft.to/lastmile_qr_scan", "android": "https://dc.lft.to/lastmile_qr_scan"}}, {"name": "30a7c053508911fb057924441004a174", "type": "electric_bike", "lat": 38.902988666666666, "is_reserved": 0, "lon": -76.94445833333333, "fusion_lon": 0.0, "is_disabled": 0, "fusion_lat": 0.0, "bike_id": "30a7c053508911fb057924441004a174", "rental_uris": {"ios": "https://dc.lft.to/lastmile_qr_scan", "android": "https://dc.lft.to/lastmile_qr_scan"}}, {"name": "64b648b30c882b1b95af4215e2990a5a", "type": "electric_scooter", "lat": 38.91721716666667, "is_reserved": 0, "lon": -77.018688, "fusion_lon": 0.0, "is_disabled": 0, "fusion_lat": 0.0, "bike_id": "64b648b30c882b1b95af4215e2990a5a", "rental_uris": {"ios": "https://dc.lft.to/lastmile_qr_scan", "android": "https://dc.lft.to/lastmile_qr_scan"}}, {"name": "ce389ab18a76fae60534cec645f6c972", "type": "electric_scooter", "lat": 38.905651166666665, "is_reserved": 0, "lon": -77.02176733333333, "fusion_lon": 0.0, "is_disabled": 0, "fusion_lat": 0.0, "bike_id": "ce389ab18a76fae60534cec645f6c972", "rental_uris": {"ios": "https://dc.lft.to/lastmile_qr_scan", "android": "https://dc.lft.to/lastmile_qr_scan"}}, {"name": "130e9ffcdf7e1d2e42c4cc90ab7ec10f", "type": "electric_scooter", "lat": 38.900147833333335, "is_reserved": 0, "lon": -76.99059033333333, "fusion_lon": 0.0, "is_disabled": 0, "fusion_lat": 0.0, "bike_id": "130e9ffcdf7e1d2e42c4cc90ab7ec10f", "rental_uris": {"ios": "https://dc.lft.to/lastmile_qr_scan", "android": "https://dc.lft.to/lastmile_qr_scan"}}, {"name": "14d46073466b6fd4156827a3a56f5765", "type": "electric_scooter", "lat": 38.9149555, "is_reserved": 0, "lon": -77.03248866666667, "fusion_lon": 0.0, "is_disabled": 0, "fusion_lat": 0.0, "bike_id": "14d46073466b6fd4156827a3a56f5765", "rental_uris": {"ios": "https://dc.lft.to/lastmile_qr_scan", "android": "https://dc.lft.to/lastmile_qr_scan"}}, {"name": "4c341db8994a7bda8b042b90febeccc5", "type": "electric_scooter", "lat": 38.892365, "is_reserved": 0, "lon": -77.032116, "fusion_lon": 0.0, "is_disabled": 0, "fusion_lat": 0.0, "bike_id": "4c341db8994a7bda8b042b90febeccc5", "rental_uris": {"ios": "https://dc.lft.to/lastmile_qr_scan", "android": "https://dc.lft.to/lastmile_qr_scan"}}, {"name": "726a165a79b4125c41c0668961c54b0e", "type": "electric_scooter", "lat": 38.91685233333333, "is_reserved": 0, "lon": -77.02527316666666, "fusion_lon": 0.0, "is_disabled": 0, "fusion_lat": 0.0, "bike_id": "726a165a79b4125c41c0668961c54b0e", "rental_uris": {"ios": "https://dc.lft.to/lastmile_qr_scan", "android": "https://dc.lft.to/lastmile_qr_scan"}}, {"name": "4cfd15fc23b0a54abe20fb5fb5d29338", "type": "electric_bike", "lat": 38.88022, "is_reserved": 0, "lon": -76.98958566666667, "fusion_lon": 0.0, "is_disabled": 0, "fusion_lat": 0.0, "bike_id": "4cfd15fc23b0a54abe20fb5fb5d29338", "rental_uris": {"ios": "https://dc.lft.to/lastmile_qr_scan", "android": "https://dc.lft.to/lastmile_qr_scan"}}, {"name": "01dfe37f4921103226a5b0d0c3a2f7a2", "type": "electric_scooter", "lat": 38.92790933333333, "is_reserved": 0, "lon": -77.03149583333334, "fusion_lon": 0.0, "is_disabled": 0, "fusion_lat": 0.0, "bike_id": "01dfe37f4921103226a5b0d0c3a2f7a2", "rental_uris": {"ios": "https://dc.lft.to/lastmile_qr_scan", "android": "https://dc.lft.to/lastmile_qr_scan"}}, {"name": "7e2e9934e80af9c2caef181bb781a254", "type": "electric_scooter", "lat": 38.90514116666667, "is_reserved": 0, "lon": -77.06936133333333, "fusion_lon": 0.0, "is_disabled": 0, "fusion_lat": 0.0, "bike_id": "7e2e9934e80af9c2caef181bb781a254", "rental_uris": {"ios": "https://dc.lft.to/lastmile_qr_scan", "android": "https://dc.lft.to/lastmile_qr_scan"}}, {"name": "fb729259d39a9facf738a591d7829665", "type": "electric_scooter", "lat": 38.939176833333335, "is_reserved": 0, "lon": -77.02473766666667, "fusion_lon": 0.0, "is_disabled": 0, "fusion_lat": 0.0, "bike_id": "fb729259d39a9facf738a591d7829665", "rental_uris": {"ios": "https://dc.lft.to/lastmile_qr_scan", "android": "https://dc.lft.to/lastmile_qr_scan"}}, {"name": "1da3c5e43591e4af8b0632ccdf9a6c43", "type": "electric_scooter", "lat": 38.92329, "is_reserved": 0, "lon": -77.03885933333333, "fusion_lon": 0.0, "is_disabled": 0, "fusion_lat": 0.0, "bike_id": "1da3c5e43591e4af8b0632ccdf9a6c43", "rental_uris": {"ios": "https://dc.lft.to/lastmile_qr_scan", "android": "https://dc.lft.to/lastmile_qr_scan"}}, {"name": "2fc627feb9e550339c251f19f167bea4", "type": "electric_scooter", "lat": 38.920459666666666, "is_reserved": 0, "lon": -77.034319, "fusion_lon": 0.0, "is_disabled": 0, "fusion_lat": 0.0, "bike_id": "2fc627feb9e550339c251f19f167bea4", "rental_uris": {"ios": "https://dc.lft.to/lastmile_qr_scan", "android": "https://dc.lft.to/lastmile_qr_scan"}}, {"name": "bb5af68e874d5b2d4a0fc061ee23210e", "type": "electric_scooter", "lat": 38.91418783333334, "is_reserved": 0, "lon": -77.02124516666667, "fusion_lon": 0.0, "is_disabled": 0, "fusion_lat": 0.0, "bike_id": "bb5af68e874d5b2d4a0fc061ee23210e", "rental_uris": {"ios": "https://dc.lft.to/lastmile_qr_scan", "android": "https://dc.lft.to/lastmile_qr_scan"}}, {"name": "6e6babca1c343e73e4c0e7086b4e527d", "type": "electric_scooter", "lat": 38.91016183333333, "is_reserved": 0, "lon": -77.05280233333333, "fusion_lon": 0.0, "is_disabled": 0, "fusion_lat": 0.0, "bike_id": "6e6babca1c343e73e4c0e7086b4e527d", "rental_uris": {"ios": "https://dc.lft.to/lastmile_qr_scan", "android": "https://dc.lft.to/lastmile_qr_scan"}}, {"name": "14dd9368bfeca53cac7881a144f48570", "type": "electric_scooter", "lat": 38.900790666666666, "is_reserved": 0, "lon": -77.04920783333333, "fusion_lon": 0.0, "is_disabled": 0, "fusion_lat": 0.0, "bike_id": "14dd9368bfeca53cac7881a144f48570", "rental_uris": {"ios": "https://dc.lft.to/lastmile_qr_scan", "android": "https://dc.lft.to/lastmile_qr_scan"}}, {"name": "4063870574db159299bc0f4515834bfa", "type": "electric_scooter", "lat": 38.911075, "is_reserved": 0, "lon": -77.01058833333333, "fusion_lon": 0.0, "is_disabled": 0, "fusion_lat": 0.0, "bike_id": "4063870574db159299bc0f4515834bfa", "rental_uris": {"ios": "https://dc.lft.to/lastmile_qr_scan", "android": "https://dc.lft.to/lastmile_qr_scan"}}, {"name": "c2d59176d5264b409718ca00b5373afa", "type": "electric_scooter", "lat": 38.91195033333333, "is_reserved": 0, "lon": -77.06099333333333, "fusion_lon": 0.0, "is_disabled": 0, "fusion_lat": 0.0, "bike_id": "c2d59176d5264b409718ca00b5373afa", "rental_uris": {"ios": "https://dc.lft.to/lastmile_qr_scan", "android": "https://dc.lft.to/lastmile_qr_scan"}}, {"name": "fe53dfdd65001c0bcc436593678d3799", "type": "electric_scooter", "lat": 38.9156455, "is_reserved": 0, "lon": -77.0393785, "fusion_lon": 0.0, "is_disabled": 0, "fusion_lat": 0.0, "bike_id": "fe53dfdd65001c0bcc436593678d3799", "rental_uris": {"ios": "https://dc.lft.to/lastmile_qr_scan", "android": "https://dc.lft.to/lastmile_qr_scan"}}, {"name": "2fe43b03dbf516462416bfcef3e89b66", "type": "electric_scooter", "lat": 38.90401883333333, "is_reserved": 0, "lon": -77.043537, "fusion_lon": 0.0, "is_disabled": 0, "fusion_lat": 0.0, "bike_id": "2fe43b03dbf516462416bfcef3e89b66", "rental_uris": {"ios": "https://dc.lft.to/lastmile_qr_scan", "android": "https://dc.lft.to/lastmile_qr_scan"}}, {"name": "f597c21337185d86332e303956a2d146", "type": "electric_scooter", "lat": 38.904631333333334, "is_reserved": 0, "lon": -77.01424466666667, "fusion_lon": 0.0, "is_disabled": 0, "fusion_lat": 0.0, "bike_id": "f597c21337185d86332e303956a2d146", "rental_uris": {"ios": "https://dc.lft.to/lastmile_qr_scan", "android": "https://dc.lft.to/lastmile_qr_scan"}}, {"name": "75db7370ce1d82a852fcefd2316e7528", "type": "electric_bike", "lat": 38.92908666666666, "is_reserved": 0, "lon": -77.065061, "fusion_lon": 0.0, "is_disabled": 0, "fusion_lat": 0.0, "bike_id": "75db7370ce1d82a852fcefd2316e7528", "rental_uris": {"ios": "https://dc.lft.to/lastmile_qr_scan", "android": "https://dc.lft.to/lastmile_qr_scan"}}, {"name": "377e01eee99c9c61edd96c2da065e62d", "type": "electric_scooter", "lat": 38.9285405, "is_reserved": 0, "lon": -77.0543335, "fusion_lon": 0.0, "is_disabled": 0, "fusion_lat": 0.0, "bike_id": "377e01eee99c9c61edd96c2da065e62d", "rental_uris": {"ios": "https://dc.lft.to/lastmile_qr_scan", "android": "https://dc.lft.to/lastmile_qr_scan"}}, {"name": "d713320b57a2795385d48e445c3a50fe", "type": "electric_scooter", "lat": 38.895504833333334, "is_reserved": 0, "lon": -77.00915766666667, "fusion_lon": 0.0, "is_disabled": 0, "fusion_lat": 0.0, "bike_id": "d713320b57a2795385d48e445c3a50fe", "rental_uris": {"ios": "https://dc.lft.to/lastmile_qr_scan", "android": "https://dc.lft.to/lastmile_qr_scan"}}, {"name": "6a655c8a2e09edfc2fabd62444f697c7", "type": "electric_bike", "lat": 38.9596195, "is_reserved": 0, "lon": -77.10092433333334, "fusion_lon": 0.0, "is_disabled": 0, "fusion_lat": 0.0, "bike_id": "6a655c8a2e09edfc2fabd62444f697c7", "rental_uris": {"ios": "https://dc.lft.to/lastmile_qr_scan", "android": "https://dc.lft.to/lastmile_qr_scan"}}, {"name": "20937237f5ac3e1bc6d64e38d863392a", "type": "electric_scooter", "lat": 38.92952733333333, "is_reserved": 0, "lon": -77.0235145, "fusion_lon": 0.0, "is_disabled": 0, "fusion_lat": 0.0, "bike_id": "20937237f5ac3e1bc6d64e38d863392a", "rental_uris": {"ios": "https://dc.lft.to/lastmile_qr_scan", "android": "https://dc.lft.to/lastmile_qr_scan"}}, {"name": "2b11ca4810a63f4da7e35c8a2b475646", "type": "electric_scooter", "lat": 38.88493966666667, "is_reserved": 0, "lon": -77.0073275, "fusion_lon": 0.0, "is_disabled": 0, "fusion_lat": 0.0, "bike_id": "2b11ca4810a63f4da7e35c8a2b475646", "rental_uris": {"ios": "https://dc.lft.to/lastmile_qr_scan", "android": "https://dc.lft.to/lastmile_qr_scan"}}, {"name": "c4cc10ca9459eb63750ae80562e74e34", "type": "electric_scooter", "lat": 38.89510966666667, "is_reserved": 0, "lon": -77.00340133333333, "fusion_lon": 0.0, "is_disabled": 0, "fusion_lat": 0.0, "bike_id": "c4cc10ca9459eb63750ae80562e74e34", "rental_uris": {"ios": "https://dc.lft.to/lastmile_qr_scan", "android": "https://dc.lft.to/lastmile_qr_scan"}}, {"name": "4c698b4c2e3cc7c76c8a1f9580265d6e", "type": "electric_scooter", "lat": 38.90794966666667, "is_reserved": 0, "lon": -77.00970316666667, "fusion_lon": 0.0, "is_disabled": 0, "fusion_lat": 0.0, "bike_id": "4c698b4c2e3cc7c76c8a1f9580265d6e", "rental_uris": {"ios": "https://dc.lft.to/lastmile_qr_scan", "android": "https://dc.lft.to/lastmile_qr_scan"}}, {"name": "d3dffe7ae23104d654d2899ae1007bc5", "type": "electric_scooter", "lat": 38.90650816666667, "is_reserved": 0, "lon": -77.009024, "fusion_lon": 0.0, "is_disabled": 0, "fusion_lat": 0.0, "bike_id": "d3dffe7ae23104d654d2899ae1007bc5", "rental_uris": {"ios": "https://dc.lft.to/lastmile_qr_scan", "android": "https://dc.lft.to/lastmile_qr_scan"}}, {"name": "0f17f18f6970023b84813bb6df0a9e4c", "type": "electric_scooter", "lat": 38.9299185, "is_reserved": 0, "lon": -77.02485733333333, "fusion_lon": 0.0, "is_disabled": 0, "fusion_lat": 0.0, "bike_id": "0f17f18f6970023b84813bb6df0a9e4c", "rental_uris": {"ios": "https://dc.lft.to/lastmile_qr_scan", "android": "https://dc.lft.to/lastmile_qr_scan"}}, {"name": "d449c224ca6156f7015335dfcd67a9cf", "type": "electric_scooter", "lat": 38.927945666666666, "is_reserved": 0, "lon": -77.03987483333333, "fusion_lon": 0.0, "is_disabled": 0, "fusion_lat": 0.0, "bike_id": "d449c224ca6156f7015335dfcd67a9cf", "rental_uris": {"ios": "https://dc.lft.to/lastmile_qr_scan", "android": "https://dc.lft.to/lastmile_qr_scan"}}, {"name": "f44e82c3799b290ccc3cc7a3f2f6c9c1", "type": "electric_scooter", "lat": 38.902717833333334, "is_reserved": 0, "lon": -77.05947866666666, "fusion_lon": 0.0, "is_disabled": 0, "fusion_lat": 0.0, "bike_id": "f44e82c3799b290ccc3cc7a3f2f6c9c1", "rental_uris": {"ios": "https://dc.lft.to/lastmile_qr_scan", "android": "https://dc.lft.to/lastmile_qr_scan"}}, {"name": "3853f510394a704e38c9411cf938262d", "type": "electric_bike", "lat": 38.9036245, "is_reserved": 0, "lon": -76.9832005, "fusion_lon": 0.0, "is_disabled": 0, "fusion_lat": 0.0, "bike_id": "3853f510394a704e38c9411cf938262d", "rental_uris": {"ios": "https://dc.lft.to/lastmile_qr_scan", "android": "https://dc.lft.to/lastmile_qr_scan"}}, {"name": "4b2cb783f229cd91a430ed786d9e831e", "type": "electric_scooter", "lat": 38.90037383333333, "is_reserved": 0, "lon": -76.98840716666666, "fusion_lon": 0.0, "is_disabled": 0, "fusion_lat": 0.0, "bike_id": "4b2cb783f229cd91a430ed786d9e831e", "rental_uris": {"ios": "https://dc.lft.to/lastmile_qr_scan", "android": "https://dc.lft.to/lastmile_qr_scan"}}, {"name": "aa0168ea4756d2bbe627ebcaf610b326", "type": "electric_scooter", "lat": 38.90517783333333, "is_reserved": 0, "lon": -77.06586133333333, "fusion_lon": 0.0, "is_disabled": 0, "fusion_lat": 0.0, "bike_id": "aa0168ea4756d2bbe627ebcaf610b326", "rental_uris": {"ios": "https://dc.lft.to/lastmile_qr_scan", "android": "https://dc.lft.to/lastmile_qr_scan"}}, {"name": "d22e47e5f2d1fc8b1ec975e0e5b6be1e", "type": "electric_scooter", "lat": 38.863574166666666, "is_reserved": 0, "lon": -76.990687, "fusion_lon": 0.0, "is_disabled": 0, "fusion_lat": 0.0, "bike_id": "d22e47e5f2d1fc8b1ec975e0e5b6be1e", "rental_uris": {"ios": "https://dc.lft.to/lastmile_qr_scan", "android": "https://dc.lft.to/lastmile_qr_scan"}}, {"name": "19b5da4d6ff957e2832465061b1af72a", "type": "electric_scooter", "lat": 38.901736666666665, "is_reserved": 0, "lon": -77.00002166666667, "fusion_lon": 0.0, "is_disabled": 0, "fusion_lat": 0.0, "bike_id": "19b5da4d6ff957e2832465061b1af72a", "rental_uris": {"ios": "https://dc.lft.to/lastmile_qr_scan", "android": "https://dc.lft.to/lastmile_qr_scan"}}, {"name": "aac0e06ea3c10c1b80acdae872e61d65", "type": "electric_scooter", "lat": 38.908708, "is_reserved": 0, "lon": -76.986121, "fusion_lon": 0.0, "is_disabled": 0, "fusion_lat": 0.0, "bike_id": "aac0e06ea3c10c1b80acdae872e61d65", "rental_uris": {"ios": "https://dc.lft.to/lastmile_qr_scan", "android": "https://dc.lft.to/lastmile_qr_scan"}}, {"name": "591aca28585668cb55b53d5b8829abb0", "type": "electric_scooter", "lat": 38.9036145, "is_reserved": 0, "lon": -77.04485233333334, "fusion_lon": 0.0, "is_disabled": 0, "fusion_lat": 0.0, "bike_id": "591aca28585668cb55b53d5b8829abb0", "rental_uris": {"ios": "https://dc.lft.to/lastmile_qr_scan", "android": "https://dc.lft.to/lastmile_qr_scan"}}, {"name": "e337bbf87394719e7c5e00f2f40d1939", "type": "electric_scooter", "lat": 38.9411605, "is_reserved": 0, "lon": -77.026566, "fusion_lon": 0.0, "is_disabled": 0, "fusion_lat": 0.0, "bike_id": "e337bbf87394719e7c5e00f2f40d1939", "rental_uris": {"ios": "https://dc.lft.to/lastmile_qr_scan", "android": "https://dc.lft.to/lastmile_qr_scan"}}, {"name": "4138273e3e7cc6078464a4f9db0719a3", "type": "electric_scooter", "lat": 38.884912, "is_reserved": 0, "lon": -77.028599, "fusion_lon": 0.0, "is_disabled": 0, "fusion_lat": 0.0, "bike_id": "4138273e3e7cc6078464a4f9db0719a3", "rental_uris": {"ios": "https://dc.lft.to/lastmile_qr_scan", "android": "https://dc.lft.to/lastmile_qr_scan"}}, {"name": "6baf4a2d7401070a500cd35bcc21ea78", "type": "electric_scooter", "lat": 38.919217333333336, "is_reserved": 0, "lon": -77.03430383333334, "fusion_lon": 0.0, "is_disabled": 0, "fusion_lat": 0.0, "bike_id": "6baf4a2d7401070a500cd35bcc21ea78", "rental_uris": {"ios": "https://dc.lft.to/lastmile_qr_scan", "android": "https://dc.lft.to/lastmile_qr_scan"}}, {"name": "d4ad1da484dcbd4f462cde87b11b1f44", "type": "electric_scooter", "lat": 38.936203666666664, "is_reserved": 0, "lon": -77.03217533333333, "fusion_lon": 0.0, "is_disabled": 0, "fusion_lat": 0.0, "bike_id": "d4ad1da484dcbd4f462cde87b11b1f44", "rental_uris": {"ios": "https://dc.lft.to/lastmile_qr_scan", "android": "https://dc.lft.to/lastmile_qr_scan"}}, {"name": "61bcb80ad4fff2b58fc2189d3509fd18", "type": "electric_scooter", "lat": 38.90311916666667, "is_reserved": 0, "lon": -77.039534, "fusion_lon": 0.0, "is_disabled": 0, "fusion_lat": 0.0, "bike_id": "61bcb80ad4fff2b58fc2189d3509fd18", "rental_uris": {"ios": "https://dc.lft.to/lastmile_qr_scan", "android": "https://dc.lft.to/lastmile_qr_scan"}}, {"name": "be9469718eba443613ce64b1660e7e81", "type": "electric_scooter", "lat": 38.9335075, "is_reserved": 0, "lon": -77.058673, "fusion_lon": 0.0, "is_disabled": 0, "fusion_lat": 0.0, "bike_id": "be9469718eba443613ce64b1660e7e81", "rental_uris": {"ios": "https://dc.lft.to/lastmile_qr_scan", "android": "https://dc.lft.to/lastmile_qr_scan"}}, {"name": "44b1af62dd22644d53beb91afdc2d500", "type": "electric_scooter", "lat": 38.91295483333333, "is_reserved": 0, "lon": -77.06118066666667, "fusion_lon": 0.0, "is_disabled": 0, "fusion_lat": 0.0, "bike_id": "44b1af62dd22644d53beb91afdc2d500", "rental_uris": {"ios": "https://dc.lft.to/lastmile_qr_scan", "android": "https://dc.lft.to/lastmile_qr_scan"}}, {"name": "440baab2a86d9519623d6ff48e39efbf", "type": "electric_scooter", "lat": 38.92096733333333, "is_reserved": 0, "lon": -77.02595283333333, "fusion_lon": 0.0, "is_disabled": 0, "fusion_lat": 0.0, "bike_id": "440baab2a86d9519623d6ff48e39efbf", "rental_uris": {"ios": "https://dc.lft.to/lastmile_qr_scan", "android": "https://dc.lft.to/lastmile_qr_scan"}}, {"name": "87f25bb17c95ca6fa781aa6cb43bf217", "type": "electric_scooter", "lat": 38.864339, "is_reserved": 0, "lon": -76.9801035, "fusion_lon": 0.0, "is_disabled": 0, "fusion_lat": 0.0, "bike_id": "87f25bb17c95ca6fa781aa6cb43bf217", "rental_uris": {"ios": "https://dc.lft.to/lastmile_qr_scan", "android": "https://dc.lft.to/lastmile_qr_scan"}}, {"name": "de560630744c9407ed377874e4936d72", "type": "electric_scooter", "lat": 38.910113333333335, "is_reserved": 0, "lon": -77.05282883333334, "fusion_lon": 0.0, "is_disabled": 0, "fusion_lat": 0.0, "bike_id": "de560630744c9407ed377874e4936d72", "rental_uris": {"ios": "https://dc.lft.to/lastmile_qr_scan", "android": "https://dc.lft.to/lastmile_qr_scan"}}, {"name": "e83a72590c13c6a65ec321409cd53267", "type": "electric_scooter", "lat": 38.92181166666667, "is_reserved": 0, "lon": -77.0425285, "fusion_lon": 0.0, "is_disabled": 0, "fusion_lat": 0.0, "bike_id": "e83a72590c13c6a65ec321409cd53267", "rental_uris": {"ios": "https://dc.lft.to/lastmile_qr_scan", "android": "https://dc.lft.to/lastmile_qr_scan"}}, {"name": "095a8d14f843acdb1b9b8ea700ddd845", "type": "electric_scooter", "lat": 38.93428933333333, "is_reserved": 0, "lon": -77.034114, "fusion_lon": 0.0, "is_disabled": 0, "fusion_lat": 0.0, "bike_id": "095a8d14f843acdb1b9b8ea700ddd845", "rental_uris": {"ios": "https://dc.lft.to/lastmile_qr_scan", "android": "https://dc.lft.to/lastmile_qr_scan"}}, {"name": "d7da29f51cc94d80ac189237380a08d0", "type": "electric_bike", "lat": 38.831958166666666, "is_reserved": 0, "lon": -77.07689066666667, "fusion_lon": 0.0, "is_disabled": 0, "fusion_lat": 0.0, "bike_id": "d7da29f51cc94d80ac189237380a08d0", "rental_uris": {"ios": "https://dc.lft.to/lastmile_qr_scan", "android": "https://dc.lft.to/lastmile_qr_scan"}}, {"name": "c8ad82cb2ff5d0528c3c4b6d2657c0fb", "type": "electric_scooter", "lat": 38.94278966666667, "is_reserved": 0, "lon": -77.02505816666667, "fusion_lon": 0.0, "is_disabled": 0, "fusion_lat": 0.0, "bike_id": "c8ad82cb2ff5d0528c3c4b6d2657c0fb", "rental_uris": {"ios": "https://dc.lft.to/lastmile_qr_scan", "android": "https://dc.lft.to/lastmile_qr_scan"}}, {"name": "a80926b159f53ca11d37dc1799f9fcb1", "type": "electric_scooter", "lat": 38.9054005, "is_reserved": 0, "lon": -77.02968866666667, "fusion_lon": 0.0, "is_disabled": 0, "fusion_lat": 0.0, "bike_id": "a80926b159f53ca11d37dc1799f9fcb1", "rental_uris": {"ios": "https://dc.lft.to/lastmile_qr_scan", "android": "https://dc.lft.to/lastmile_qr_scan"}}, {"name": "1bd4044b967888f6ae7e72a172b6e56a", "type": "electric_scooter", "lat": 38.91033566666667, "is_reserved": 0, "lon": -77.030815, "fusion_lon": 0.0, "is_disabled": 0, "fusion_lat": 0.0, "bike_id": "1bd4044b967888f6ae7e72a172b6e56a", "rental_uris": {"ios": "https://dc.lft.to/lastmile_qr_scan", "android": "https://dc.lft.to/lastmile_qr_scan"}}, {"name": "1131ebe79965fad1709ae44ac49c490d", "type": "electric_bike", "lat": 38.924670166666665, "is_reserved": 0, "lon": -77.208366, "fusion_lon": 0.0, "is_disabled": 0, "fusion_lat": 0.0, "bike_id": "1131ebe79965fad1709ae44ac49c490d", "rental_uris": {"ios": "https://dc.lft.to/lastmile_qr_scan", "android": "https://dc.lft.to/lastmile_qr_scan"}}, {"name": "088c13dc472f5c42b5916b23eb76d104", "type": "electric_bike", "lat": 38.925549333333336, "is_reserved": 0, "lon": -77.00139583333333, "fusion_lon": 0.0, "is_disabled": 0, "fusion_lat": 0.0, "bike_id": "088c13dc472f5c42b5916b23eb76d104", "rental_uris": {"ios": "https://dc.lft.to/lastmile_qr_scan", "android": "https://dc.lft.to/lastmile_qr_scan"}}, {"name": "9d3277576615415caf9b39ef6b5edfda", "type": "electric_bike", "lat": 38.891876333333336, "is_reserved": 0, "lon": -77.12263516666667, "fusion_lon": 0.0, "is_disabled": 0, "fusion_lat": 0.0, "bike_id": "9d3277576615415caf9b39ef6b5edfda", "rental_uris": {"ios": "https://dc.lft.to/lastmile_qr_scan", "android": "https://dc.lft.to/lastmile_qr_scan"}}, {"name": "0fc311e820306d1fbc88c0de94fc8da1", "type": "electric_scooter", "lat": 38.933997833333336, "is_reserved": 0, "lon": -77.05744983333334, "fusion_lon": 0.0, "is_disabled": 0, "fusion_lat": 0.0, "bike_id": "0fc311e820306d1fbc88c0de94fc8da1", "rental_uris": {"ios": "https://dc.lft.to/lastmile_qr_scan", "android": "https://dc.lft.to/lastmile_qr_scan"}}, {"name": "cc3f7ca7220da625e89085b61fe42487", "type": "electric_scooter", "lat": 38.88046883333333, "is_reserved": 0, "lon": -76.92716916666667, "fusion_lon": 0.0, "is_disabled": 0, "fusion_lat": 0.0, "bike_id": "cc3f7ca7220da625e89085b61fe42487", "rental_uris": {"ios": "https://dc.lft.to/lastmile_qr_scan", "android": "https://dc.lft.to/lastmile_qr_scan"}}, {"name": "0158ed8ab03df4b14519ee35a3aba4b3", "type": "electric_scooter", "lat": 38.919159666666665, "is_reserved": 0, "lon": -77.04632266666667, "fusion_lon": 0.0, "is_disabled": 0, "fusion_lat": 0.0, "bike_id": "0158ed8ab03df4b14519ee35a3aba4b3", "rental_uris": {"ios": "https://dc.lft.to/lastmile_qr_scan", "android": "https://dc.lft.to/lastmile_qr_scan"}}, {"name": "4745a2cf724464cba6161960ec07e694", "type": "electric_bike", "lat": 38.95567666666667, "is_reserved": 0, "lon": -76.93544016666667, "fusion_lon": 0.0, "is_disabled": 0, "fusion_lat": 0.0, "bike_id": "4745a2cf724464cba6161960ec07e694", "rental_uris": {"ios": "https://dc.lft.to/lastmile_qr_scan", "android": "https://dc.lft.to/lastmile_qr_scan"}}, {"name": "4d502bf1a25e0d748582b86337010b40", "type": "electric_scooter", "lat": 38.90919516666666, "is_reserved": 0, "lon": -76.99273233333334, "fusion_lon": 0.0, "is_disabled": 0, "fusion_lat": 0.0, "bike_id": "4d502bf1a25e0d748582b86337010b40", "rental_uris": {"ios": "https://dc.lft.to/lastmile_qr_scan", "android": "https://dc.lft.to/lastmile_qr_scan"}}, {"name": "5fcfe9ff724fd6623d6798b4611fce33", "type": "electric_scooter", "lat": 38.9053245, "is_reserved": 0, "lon": -77.05047466666667, "fusion_lon": 0.0, "is_disabled": 0, "fusion_lat": 0.0, "bike_id": "5fcfe9ff724fd6623d6798b4611fce33", "rental_uris": {"ios": "https://dc.lft.to/lastmile_qr_scan", "android": "https://dc.lft.to/lastmile_qr_scan"}}, {"name": "189eb6d222ea660b10164547efab09f4", "type": "electric_scooter", "lat": 38.903706166666666, "is_reserved": 0, "lon": -77.00748233333333, "fusion_lon": 0.0, "is_disabled": 0, "fusion_lat": 0.0, "bike_id": "189eb6d222ea660b10164547efab09f4", "rental_uris": {"ios": "https://dc.lft.to/lastmile_qr_scan", "android": "https://dc.lft.to/lastmile_qr_scan"}}, {"name": "53c3469426a1b064b67502aebaf0369e", "type": "electric_scooter", "lat": 38.9110975, "is_reserved": 0, "lon": -77.04928233333334, "fusion_lon": 0.0, "is_disabled": 0, "fusion_lat": 0.0, "bike_id": "53c3469426a1b064b67502aebaf0369e", "rental_uris": {"ios": "https://dc.lft.to/lastmile_qr_scan", "android": "https://dc.lft.to/lastmile_qr_scan"}}, {"name": "f7259aa2ba73e8da01cfc8764adb7fd3", "type": "electric_scooter", "lat": 38.9056495, "is_reserved": 0, "lon": -77.00593366666666, "fusion_lon": 0.0, "is_disabled": 0, "fusion_lat": 0.0, "bike_id": "f7259aa2ba73e8da01cfc8764adb7fd3", "rental_uris": {"ios": "https://dc.lft.to/lastmile_qr_scan", "android": "https://dc.lft.to/lastmile_qr_scan"}}, {"name": "271241dc4f7571e3a9cc9b21e8c0d71c", "type": "electric_scooter", "lat": 38.906809333333335, "is_reserved": 0, "lon": -76.978042, "fusion_lon": 0.0, "is_disabled": 0, "fusion_lat": 0.0, "bike_id": "271241dc4f7571e3a9cc9b21e8c0d71c", "rental_uris": {"ios": "https://dc.lft.to/lastmile_qr_scan", "android": "https://dc.lft.to/lastmile_qr_scan"}}, {"name": "8b0f37c7720a6146d7b639fc8cbd860e", "type": "electric_scooter", "lat": 38.92442333333334, "is_reserved": 0, "lon": -77.07565583333333, "fusion_lon": 0.0, "is_disabled": 0, "fusion_lat": 0.0, "bike_id": "8b0f37c7720a6146d7b639fc8cbd860e", "rental_uris": {"ios": "https://dc.lft.to/lastmile_qr_scan", "android": "https://dc.lft.to/lastmile_qr_scan"}}, {"name": "bc07a0b717a7307b3098a765d72317a6", "type": "electric_scooter", "lat": 38.93387116666667, "is_reserved": 0, "lon": -77.05767816666666, "fusion_lon": 0.0, "is_disabled": 0, "fusion_lat": 0.0, "bike_id": "bc07a0b717a7307b3098a765d72317a6", "rental_uris": {"ios": "https://dc.lft.to/lastmile_qr_scan", "android": "https://dc.lft.to/lastmile_qr_scan"}}, {"name": "1c5dc1d567b9f207767b6a13d8885a11", "type": "electric_scooter", "lat": 38.913160833333336, "is_reserved": 0, "lon": -77.02189333333334, "fusion_lon": 0.0, "is_disabled": 0, "fusion_lat": 0.0, "bike_id": "1c5dc1d567b9f207767b6a13d8885a11", "rental_uris": {"ios": "https://dc.lft.to/lastmile_qr_scan", "android": "https://dc.lft.to/lastmile_qr_scan"}}, {"name": "290e4030e2f5377bbb23285b7e9d0669", "type": "electric_scooter", "lat": 38.91211283333333, "is_reserved": 0, "lon": -77.03844666666667, "fusion_lon": 0.0, "is_disabled": 0, "fusion_lat": 0.0, "bike_id": "290e4030e2f5377bbb23285b7e9d0669", "rental_uris": {"ios": "https://dc.lft.to/lastmile_qr_scan", "android": "https://dc.lft.to/lastmile_qr_scan"}}, {"name": "c89e861141ca19f90a1bbb8bc01b0f93", "type": "electric_scooter", "lat": 38.894747333333335, "is_reserved": 0, "lon": -76.97720816666667, "fusion_lon": 0.0, "is_disabled": 0, "fusion_lat": 0.0, "bike_id": "c89e861141ca19f90a1bbb8bc01b0f93", "rental_uris": {"ios": "https://dc.lft.to/lastmile_qr_scan", "android": "https://dc.lft.to/lastmile_qr_scan"}}, {"name": "6f8f492711810baf48b887532fe0ee6d", "type": "electric_scooter", "lat": 38.941819333333335, "is_reserved": 0, "lon": -77.036534, "fusion_lon": 0.0, "is_disabled": 0, "fusion_lat": 0.0, "bike_id": "6f8f492711810baf48b887532fe0ee6d", "rental_uris": {"ios": "https://dc.lft.to/lastmile_qr_scan", "android": "https://dc.lft.to/lastmile_qr_scan"}}, {"name": "54a8709e0ee6e73b38692eb4302f3c3d", "type": "electric_scooter", "lat": 38.91188833333333, "is_reserved": 0, "lon": -77.032195, "fusion_lon": 0.0, "is_disabled": 0, "fusion_lat": 0.0, "bike_id": "54a8709e0ee6e73b38692eb4302f3c3d", "rental_uris": {"ios": "https://dc.lft.to/lastmile_qr_scan", "android": "https://dc.lft.to/lastmile_qr_scan"}}, {"name": "1e151067578ec43143e300d879e48eda", "type": "electric_scooter", "lat": 38.90017183333333, "is_reserved": 0, "lon": -77.033208, "fusion_lon": 0.0, "is_disabled": 0, "fusion_lat": 0.0, "bike_id": "1e151067578ec43143e300d879e48eda", "rental_uris": {"ios": "https://dc.lft.to/lastmile_qr_scan", "android": "https://dc.lft.to/lastmile_qr_scan"}}, {"name": "3492ce65da99568161e9373c47374021", "type": "electric_scooter", "lat": 38.897436166666665, "is_reserved": 0, "lon": -76.94255733333334, "fusion_lon": 0.0, "is_disabled": 0, "fusion_lat": 0.0, "bike_id": "3492ce65da99568161e9373c47374021", "rental_uris": {"ios": "https://dc.lft.to/lastmile_qr_scan", "android": "https://dc.lft.to/lastmile_qr_scan"}}, {"name": "50c7ce9f88a658dad0f4e6acb76fc40b", "type": "electric_scooter", "lat": 38.908636666666666, "is_reserved": 0, "lon": -77.02483866666667, "fusion_lon": 0.0, "is_disabled": 0, "fusion_lat": 0.0, "bike_id": "50c7ce9f88a658dad0f4e6acb76fc40b", "rental_uris": {"ios": "https://dc.lft.to/lastmile_qr_scan", "android": "https://dc.lft.to/lastmile_qr_scan"}}, {"name": "1597494331d976e7076ed54ad07a40f5", "type": "electric_bike", "lat": 38.9317955, "is_reserved": 0, "lon": -77.03544033333333, "fusion_lon": 0.0, "is_disabled": 0, "fusion_lat": 0.0, "bike_id": "1597494331d976e7076ed54ad07a40f5", "rental_uris": {"ios": "https://dc.lft.to/lastmile_qr_scan", "android": "https://dc.lft.to/lastmile_qr_scan"}}, {"name": "d7d81f567e5ac4f4091e0ee7d8c1d3e9", "type": "electric_bike", "lat": 38.95689766666667, "is_reserved": 0, "lon": -77.0222685, "fusion_lon": 0.0, "is_disabled": 0, "fusion_lat": 0.0, "bike_id": "d7d81f567e5ac4f4091e0ee7d8c1d3e9", "rental_uris": {"ios": "https://dc.lft.to/lastmile_qr_scan", "android": "https://dc.lft.to/lastmile_qr_scan"}}, {"name": "fb5913536131ae8b6b0211482c5b34ee", "type": "electric_scooter", "lat": 38.896719, "is_reserved": 0, "lon": -77.0261585, "fusion_lon": 0.0, "is_disabled": 0, "fusion_lat": 0.0, "bike_id": "fb5913536131ae8b6b0211482c5b34ee", "rental_uris": {"ios": "https://dc.lft.to/lastmile_qr_scan", "android": "https://dc.lft.to/lastmile_qr_scan"}}, {"name": "c470a4ec069e7cdf8e849724eadddc67", "type": "electric_scooter", "lat": 38.915508333333335, "is_reserved": 0, "lon": -77.03858383333333, "fusion_lon": 0.0, "is_disabled": 0, "fusion_lat": 0.0, "bike_id": "c470a4ec069e7cdf8e849724eadddc67", "rental_uris": {"ios": "https://dc.lft.to/lastmile_qr_scan", "android": "https://dc.lft.to/lastmile_qr_scan"}}, {"name": "251c8b3c66140a07aa48e38a5f885e32", "type": "electric_scooter", "lat": 38.887712666666665, "is_reserved": 0, "lon": -76.93266216666666, "fusion_lon": 0.0, "is_disabled": 0, "fusion_lat": 0.0, "bike_id": "251c8b3c66140a07aa48e38a5f885e32", "rental_uris": {"ios": "https://dc.lft.to/lastmile_qr_scan", "android": "https://dc.lft.to/lastmile_qr_scan"}}, {"name": "738075be5c89a6c2d2954ac21e4f711d", "type": "electric_scooter", "lat": 38.89828816666667, "is_reserved": 0, "lon": -76.9465415, "fusion_lon": 0.0, "is_disabled": 0, "fusion_lat": 0.0, "bike_id": "738075be5c89a6c2d2954ac21e4f711d", "rental_uris": {"ios": "https://dc.lft.to/lastmile_qr_scan", "android": "https://dc.lft.to/lastmile_qr_scan"}}, {"name": "bfbcbce448aaf88dac0a077637b38a6a", "type": "electric_scooter", "lat": 38.89829733333333, "is_reserved": 0, "lon": -76.94650583333333, "fusion_lon": 0.0, "is_disabled": 0, "fusion_lat": 0.0, "bike_id": "bfbcbce448aaf88dac0a077637b38a6a", "rental_uris": {"ios": "https://dc.lft.to/lastmile_qr_scan", "android": "https://dc.lft.to/lastmile_qr_scan"}}, {"name": "0ccb9bbc8c9108a3dea0d5ac248c30ef", "type": "electric_scooter", "lat": 38.92254666666667, "is_reserved": 0, "lon": -77.03475116666667, "fusion_lon": 0.0, "is_disabled": 0, "fusion_lat": 0.0, "bike_id": "0ccb9bbc8c9108a3dea0d5ac248c30ef", "rental_uris": {"ios": "https://dc.lft.to/lastmile_qr_scan", "android": "https://dc.lft.to/lastmile_qr_scan"}}, {"name": "9950c4281d559510ab7a7ba69582bab0", "type": "electric_scooter", "lat": 38.894633, "is_reserved": 0, "lon": -77.02123783333333, "fusion_lon": 0.0, "is_disabled": 0, "fusion_lat": 0.0, "bike_id": "9950c4281d559510ab7a7ba69582bab0", "rental_uris": {"ios": "https://dc.lft.to/lastmile_qr_scan", "android": "https://dc.lft.to/lastmile_qr_scan"}}, {"name": "76fcf4ce93c62f96ebd90b576363737a", "type": "electric_scooter", "lat": 38.9296995, "is_reserved": 0, "lon": -77.00539483333333, "fusion_lon": 0.0, "is_disabled": 0, "fusion_lat": 0.0, "bike_id": "76fcf4ce93c62f96ebd90b576363737a", "rental_uris": {"ios": "https://dc.lft.to/lastmile_qr_scan", "android": "https://dc.lft.to/lastmile_qr_scan"}}, {"name": "4b203660a87416b6d684f5e5a92e1e32", "type": "electric_scooter", "lat": 38.93866716666667, "is_reserved": 0, "lon": -77.0267195, "fusion_lon": 0.0, "is_disabled": 0, "fusion_lat": 0.0, "bike_id": "4b203660a87416b6d684f5e5a92e1e32", "rental_uris": {"ios": "https://dc.lft.to/lastmile_qr_scan", "android": "https://dc.lft.to/lastmile_qr_scan"}}, {"name": "c4e8d102f26402b9e46f8dd4e5b1adda", "type": "electric_scooter", "lat": 38.926364, "is_reserved": 0, "lon": -77.0346665, "fusion_lon": 0.0, "is_disabled": 0, "fusion_lat": 0.0, "bike_id": "c4e8d102f26402b9e46f8dd4e5b1adda", "rental_uris": {"ios": "https://dc.lft.to/lastmile_qr_scan", "android": "https://dc.lft.to/lastmile_qr_scan"}}, {"name": "ba7b972b5ec1b850a0cc24fa6e243df7", "type": "electric_scooter", "lat": 38.902736, "is_reserved": 0, "lon": -77.03653166666666, "fusion_lon": 0.0, "is_disabled": 0, "fusion_lat": 0.0, "bike_id": "ba7b972b5ec1b850a0cc24fa6e243df7", "rental_uris": {"ios": "https://dc.lft.to/lastmile_qr_scan", "android": "https://dc.lft.to/lastmile_qr_scan"}}, {"name": "c89b9b0904fd92c7e3424136fe072492", "type": "electric_scooter", "lat": 38.904097166666666, "is_reserved": 0, "lon": -77.04013883333333, "fusion_lon": 0.0, "is_disabled": 0, "fusion_lat": 0.0, "bike_id": "c89b9b0904fd92c7e3424136fe072492", "rental_uris": {"ios": "https://dc.lft.to/lastmile_qr_scan", "android": "https://dc.lft.to/lastmile_qr_scan"}}, {"name": "f4ca4eac16b7e98e148121f51e365c01", "type": "electric_scooter", "lat": 38.917136666666664, "is_reserved": 0, "lon": -77.03860483333334, "fusion_lon": 0.0, "is_disabled": 0, "fusion_lat": 0.0, "bike_id": "f4ca4eac16b7e98e148121f51e365c01", "rental_uris": {"ios": "https://dc.lft.to/lastmile_qr_scan", "android": "https://dc.lft.to/lastmile_qr_scan"}}, {"name": "622bccf7e159a6e62ff2893722974b79", "type": "electric_scooter", "lat": 38.917004, "is_reserved": 0, "lon": -77.00815233333333, "fusion_lon": 0.0, "is_disabled": 0, "fusion_lat": 0.0, "bike_id": "622bccf7e159a6e62ff2893722974b79", "rental_uris": {"ios": "https://dc.lft.to/lastmile_qr_scan", "android": "https://dc.lft.to/lastmile_qr_scan"}}, {"name": "69164aa5b34b394889ee169ca251c884", "type": "electric_scooter", "lat": 38.94991916666667, "is_reserved": 0, "lon": -77.06688, "fusion_lon": 0.0, "is_disabled": 0, "fusion_lat": 0.0, "bike_id": "69164aa5b34b394889ee169ca251c884", "rental_uris": {"ios": "https://dc.lft.to/lastmile_qr_scan", "android": "https://dc.lft.to/lastmile_qr_scan"}}, {"name": "990812d4615c438ee624024da4280b2b", "type": "electric_scooter", "lat": 38.894775, "is_reserved": 0, "lon": -76.98601783333334, "fusion_lon": 0.0, "is_disabled": 0, "fusion_lat": 0.0, "bike_id": "990812d4615c438ee624024da4280b2b", "rental_uris": {"ios": "https://dc.lft.to/lastmile_qr_scan", "android": "https://dc.lft.to/lastmile_qr_scan"}}, {"name": "4afa36b081ce778c0f212ed141ddbb0e", "type": "electric_bike", "lat": 38.850631166666666, "is_reserved": 0, "lon": -76.97330916666667, "fusion_lon": 0.0, "is_disabled": 0, "fusion_lat": 0.0, "bike_id": "4afa36b081ce778c0f212ed141ddbb0e", "rental_uris": {"ios": "https://dc.lft.to/lastmile_qr_scan", "android": "https://dc.lft.to/lastmile_qr_scan"}}, {"name": "9d0fc69f0211a1c0a30d5eb430ef8cac", "type": "electric_scooter", "lat": 38.9308945, "is_reserved": 0, "lon": -77.02509433333333, "fusion_lon": 0.0, "is_disabled": 0, "fusion_lat": 0.0, "bike_id": "9d0fc69f0211a1c0a30d5eb430ef8cac", "rental_uris": {"ios": "https://dc.lft.to/lastmile_qr_scan", "android": "https://dc.lft.to/lastmile_qr_scan"}}, {"name": "94a1bd3cafea3f3946ab5231bdd1f68e", "type": "electric_scooter", "lat": 38.9072525, "is_reserved": 0, "lon": -76.986061, "fusion_lon": 0.0, "is_disabled": 0, "fusion_lat": 0.0, "bike_id": "94a1bd3cafea3f3946ab5231bdd1f68e", "rental_uris": {"ios": "https://dc.lft.to/lastmile_qr_scan", "android": "https://dc.lft.to/lastmile_qr_scan"}}, {"name": "0f875f9b986ca431c8ba023326ae8942", "type": "electric_scooter", "lat": 38.942502, "is_reserved": 0, "lon": -77.02176483333334, "fusion_lon": 0.0, "is_disabled": 0, "fusion_lat": 0.0, "bike_id": "0f875f9b986ca431c8ba023326ae8942", "rental_uris": {"ios": "https://dc.lft.to/lastmile_qr_scan", "android": "https://dc.lft.to/lastmile_qr_scan"}}, {"name": "5861dac640fb590f53f426a9bda3a9cc", "type": "electric_scooter", "lat": 38.90361766666667, "is_reserved": 0, "lon": -77.04493433333333, "fusion_lon": 0.0, "is_disabled": 0, "fusion_lat": 0.0, "bike_id": "5861dac640fb590f53f426a9bda3a9cc", "rental_uris": {"ios": "https://dc.lft.to/lastmile_qr_scan", "android": "https://dc.lft.to/lastmile_qr_scan"}}, {"name": "c4a163ef60b38270db70715a614bb288", "type": "electric_scooter", "lat": 38.951068166666666, "is_reserved": 0, "lon": -77.01578016666667, "fusion_lon": 0.0, "is_disabled": 0, "fusion_lat": 0.0, "bike_id": "c4a163ef60b38270db70715a614bb288", "rental_uris": {"ios": "https://dc.lft.to/lastmile_qr_scan", "android": "https://dc.lft.to/lastmile_qr_scan"}}, {"name": "74ebbba3f103d6ac40f306d0a5bee35f", "type": "electric_scooter", "lat": 38.94015866666667, "is_reserved": 0, "lon": -77.07171916666667, "fusion_lon": 0.0, "is_disabled": 0, "fusion_lat": 0.0, "bike_id": "74ebbba3f103d6ac40f306d0a5bee35f", "rental_uris": {"ios": "https://dc.lft.to/lastmile_qr_scan", "android": "https://dc.lft.to/lastmile_qr_scan"}}, {"name": "85bfbe2f84062d24e6361ecabdb546d9", "type": "electric_scooter", "lat": 38.91347416666667, "is_reserved": 0, "lon": -77.020848, "fusion_lon": 0.0, "is_disabled": 0, "fusion_lat": 0.0, "bike_id": "85bfbe2f84062d24e6361ecabdb546d9", "rental_uris": {"ios": "https://dc.lft.to/lastmile_qr_scan", "android": "https://dc.lft.to/lastmile_qr_scan"}}, {"name": "7eed9d3c8ef58a05e7d003dd7c71ef24", "type": "electric_scooter", "lat": 38.957368333333335, "is_reserved": 0, "lon": -77.02407233333334, "fusion_lon": 0.0, "is_disabled": 0, "fusion_lat": 0.0, "bike_id": "7eed9d3c8ef58a05e7d003dd7c71ef24", "rental_uris": {"ios": "https://dc.lft.to/lastmile_qr_scan", "android": "https://dc.lft.to/lastmile_qr_scan"}}, {"name": "4d39e70eedf18454ef18467467ee30ed", "type": "electric_bike", "lat": 38.99942033333333, "is_reserved": 0, "lon": -77.01771233333334, "fusion_lon": 0.0, "is_disabled": 0, "fusion_lat": 0.0, "bike_id": "4d39e70eedf18454ef18467467ee30ed", "rental_uris": {"ios": "https://dc.lft.to/lastmile_qr_scan", "android": "https://dc.lft.to/lastmile_qr_scan"}}, {"name": "0f61840f3a58432ed8419573d6a7c279", "type": "electric_scooter", "lat": 38.90003566666667, "is_reserved": 0, "lon": -76.9915855, "fusion_lon": 0.0, "is_disabled": 0, "fusion_lat": 0.0, "bike_id": "0f61840f3a58432ed8419573d6a7c279", "rental_uris": {"ios": "https://dc.lft.to/lastmile_qr_scan", "android": "https://dc.lft.to/lastmile_qr_scan"}}, {"name": "5e62fa465d33d61af2decaee925ab6f5", "type": "electric_bike", "lat": 38.966264, "is_reserved": 0, "lon": -76.97670783333334, "fusion_lon": 0.0, "is_disabled": 0, "fusion_lat": 0.0, "bike_id": "5e62fa465d33d61af2decaee925ab6f5", "rental_uris": {"ios": "https://dc.lft.to/lastmile_qr_scan", "android": "https://dc.lft.to/lastmile_qr_scan"}}, {"name": "7299909eb8ec7c2b43f03778410ebc82", "type": "electric_scooter", "lat": 38.93390983333333, "is_reserved": 0, "lon": -77.02966816666667, "fusion_lon": 0.0, "is_disabled": 0, "fusion_lat": 0.0, "bike_id": "7299909eb8ec7c2b43f03778410ebc82", "rental_uris": {"ios": "https://dc.lft.to/lastmile_qr_scan", "android": "https://dc.lft.to/lastmile_qr_scan"}}, {"name": "49cadc7e11e42b41dcabe17b89f57da0", "type": "electric_scooter", "lat": 38.92187583333333, "is_reserved": 0, "lon": -77.02667883333334, "fusion_lon": 0.0, "is_disabled": 0, "fusion_lat": 0.0, "bike_id": "49cadc7e11e42b41dcabe17b89f57da0", "rental_uris": {"ios": "https://dc.lft.to/lastmile_qr_scan", "android": "https://dc.lft.to/lastmile_qr_scan"}}, {"name": "39d9321b24dcbf275f85d4d12a4bed93", "type": "electric_bike", "lat": 38.858555833333334, "is_reserved": 0, "lon": -77.09757033333334, "fusion_lon": 0.0, "is_disabled": 0, "fusion_lat": 0.0, "bike_id": "39d9321b24dcbf275f85d4d12a4bed93", "rental_uris": {"ios": "https://dc.lft.to/lastmile_qr_scan", "android": "https://dc.lft.to/lastmile_qr_scan"}}, {"name": "fb53e88adc7d449d17c94953f03fda0d", "type": "electric_scooter", "lat": 38.923571, "is_reserved": 0, "lon": -77.0414975, "fusion_lon": 0.0, "is_disabled": 0, "fusion_lat": 0.0, "bike_id": "fb53e88adc7d449d17c94953f03fda0d", "rental_uris": {"ios": "https://dc.lft.to/lastmile_qr_scan", "android": "https://dc.lft.to/lastmile_qr_scan"}}, {"name": "4efd7313eeeac7593bab5612927796fb", "type": "electric_scooter", "lat": 38.93984616666667, "is_reserved": 0, "lon": -77.02897916666667, "fusion_lon": 0.0, "is_disabled": 0, "fusion_lat": 0.0, "bike_id": "4efd7313eeeac7593bab5612927796fb", "rental_uris": {"ios": "https://dc.lft.to/lastmile_qr_scan", "android": "https://dc.lft.to/lastmile_qr_scan"}}, {"name": "ded01227965e9cf25b3340e80200ec42", "type": "electric_scooter", "lat": 38.92055933333333, "is_reserved": 0, "lon": -77.03346633333334, "fusion_lon": 0.0, "is_disabled": 0, "fusion_lat": 0.0, "bike_id": "ded01227965e9cf25b3340e80200ec42", "rental_uris": {"ios": "https://dc.lft.to/lastmile_qr_scan", "android": "https://dc.lft.to/lastmile_qr_scan"}}, {"name": "3e7c078a901d1ebe6ae08aa8fe4c10da", "type": "electric_scooter", "lat": 38.920684333333334, "is_reserved": 0, "lon": -77.03460916666667, "fusion_lon": 0.0, "is_disabled": 0, "fusion_lat": 0.0, "bike_id": "3e7c078a901d1ebe6ae08aa8fe4c10da", "rental_uris": {"ios": "https://dc.lft.to/lastmile_qr_scan", "android": "https://dc.lft.to/lastmile_qr_scan"}}, {"name": "9a66fe601bc2112289d5d14a678b3480", "type": "electric_scooter", "lat": 38.86702533333333, "is_reserved": 0, "lon": -76.98721483333334, "fusion_lon": 0.0, "is_disabled": 0, "fusion_lat": 0.0, "bike_id": "9a66fe601bc2112289d5d14a678b3480", "rental_uris": {"ios": "https://dc.lft.to/lastmile_qr_scan", "android": "https://dc.lft.to/lastmile_qr_scan"}}, {"name": "c98f7354b28e434ad81806a7ed41e9c5", "type": "electric_scooter", "lat": 38.929763666666666, "is_reserved": 0, "lon": -77.02351683333333, "fusion_lon": 0.0, "is_disabled": 0, "fusion_lat": 0.0, "bike_id": "c98f7354b28e434ad81806a7ed41e9c5", "rental_uris": {"ios": "https://dc.lft.to/lastmile_qr_scan", "android": "https://dc.lft.to/lastmile_qr_scan"}}, {"name": "eb69386a07d4ddfc4df393ab7a595838", "type": "electric_scooter", "lat": 38.9293045, "is_reserved": 0, "lon": -77.02337016666667, "fusion_lon": 0.0, "is_disabled": 0, "fusion_lat": 0.0, "bike_id": "eb69386a07d4ddfc4df393ab7a595838", "rental_uris": {"ios": "https://dc.lft.to/lastmile_qr_scan", "android": "https://dc.lft.to/lastmile_qr_scan"}}, {"name": "914c1cf03e3bd7f08ef3f731ae4d5ef2", "type": "electric_scooter", "lat": 38.90729116666667, "is_reserved": 0, "lon": -77.0113535, "fusion_lon": 0.0, "is_disabled": 0, "fusion_lat": 0.0, "bike_id": "914c1cf03e3bd7f08ef3f731ae4d5ef2", "rental_uris": {"ios": "https://dc.lft.to/lastmile_qr_scan", "android": "https://dc.lft.to/lastmile_qr_scan"}}, {"name": "1275fc78cd1810cbf641efe8b6740954", "type": "electric_scooter", "lat": 38.903353333333335, "is_reserved": 0, "lon": -76.98981366666666, "fusion_lon": 0.0, "is_disabled": 0, "fusion_lat": 0.0, "bike_id": "1275fc78cd1810cbf641efe8b6740954", "rental_uris": {"ios": "https://dc.lft.to/lastmile_qr_scan", "android": "https://dc.lft.to/lastmile_qr_scan"}}, {"name": "6995743b539dbe23641e1d68b8507f59", "type": "electric_scooter", "lat": 38.921552166666665, "is_reserved": 0, "lon": -77.03387816666667, "fusion_lon": 0.0, "is_disabled": 0, "fusion_lat": 0.0, "bike_id": "6995743b539dbe23641e1d68b8507f59", "rental_uris": {"ios": "https://dc.lft.to/lastmile_qr_scan", "android": "https://dc.lft.to/lastmile_qr_scan"}}, {"name": "ab964fd532b667d08d231a98c34f6219", "type": "electric_scooter", "lat": 38.9025235, "is_reserved": 0, "lon": -77.0319435, "fusion_lon": 0.0, "is_disabled": 0, "fusion_lat": 0.0, "bike_id": "ab964fd532b667d08d231a98c34f6219", "rental_uris": {"ios": "https://dc.lft.to/lastmile_qr_scan", "android": "https://dc.lft.to/lastmile_qr_scan"}}, {"name": "e5215107dd276861ad250ce634ebba5e", "type": "electric_scooter", "lat": 38.9221925, "is_reserved": 0, "lon": -77.042475, "fusion_lon": 0.0, "is_disabled": 0, "fusion_lat": 0.0, "bike_id": "e5215107dd276861ad250ce634ebba5e", "rental_uris": {"ios": "https://dc.lft.to/lastmile_qr_scan", "android": "https://dc.lft.to/lastmile_qr_scan"}}, {"name": "13edbfc4960594db16bd1179444e075e", "type": "electric_scooter", "lat": 38.911190500000004, "is_reserved": 0, "lon": -77.01824683333334, "fusion_lon": 0.0, "is_disabled": 0, "fusion_lat": 0.0, "bike_id": "13edbfc4960594db16bd1179444e075e", "rental_uris": {"ios": "https://dc.lft.to/lastmile_qr_scan", "android": "https://dc.lft.to/lastmile_qr_scan"}}, {"name": "561ef9ba9f341672d1a1a67ef0218ab6", "type": "electric_scooter", "lat": 38.88607366666667, "is_reserved": 0, "lon": -76.9951555, "fusion_lon": 0.0, "is_disabled": 0, "fusion_lat": 0.0, "bike_id": "561ef9ba9f341672d1a1a67ef0218ab6", "rental_uris": {"ios": "https://dc.lft.to/lastmile_qr_scan", "android": "https://dc.lft.to/lastmile_qr_scan"}}, {"name": "5be73b69282f9f1fa2b879afc036b90f", "type": "electric_scooter", "lat": 38.882220333333336, "is_reserved": 0, "lon": -76.94181683333333, "fusion_lon": 0.0, "is_disabled": 0, "fusion_lat": 0.0, "bike_id": "5be73b69282f9f1fa2b879afc036b90f", "rental_uris": {"ios": "https://dc.lft.to/lastmile_qr_scan", "android": "https://dc.lft.to/lastmile_qr_scan"}}, {"name": "288b52bd3cb55907d668125b4a9222f4", "type": "electric_scooter", "lat": 38.9057605, "is_reserved": 0, "lon": -77.00593133333334, "fusion_lon": 0.0, "is_disabled": 0, "fusion_lat": 0.0, "bike_id": "288b52bd3cb55907d668125b4a9222f4", "rental_uris": {"ios": "https://dc.lft.to/lastmile_qr_scan", "android": "https://dc.lft.to/lastmile_qr_scan"}}, {"name": "917b89b520e354e047291c4ee4843af3", "type": "electric_scooter", "lat": 38.899193833333335, "is_reserved": 0, "lon": -76.93384316666666, "fusion_lon": 0.0, "is_disabled": 0, "fusion_lat": 0.0, "bike_id": "917b89b520e354e047291c4ee4843af3", "rental_uris": {"ios": "https://dc.lft.to/lastmile_qr_scan", "android": "https://dc.lft.to/lastmile_qr_scan"}}, {"name": "f672c4f57b526c0b10adf3d93fad8331", "type": "electric_scooter", "lat": 38.9224715, "is_reserved": 0, "lon": -77.04151916666666, "fusion_lon": 0.0, "is_disabled": 0, "fusion_lat": 0.0, "bike_id": "f672c4f57b526c0b10adf3d93fad8331", "rental_uris": {"ios": "https://dc.lft.to/lastmile_qr_scan", "android": "https://dc.lft.to/lastmile_qr_scan"}}, {"name": "ca97f19271862c427fbf8b070921ebde", "type": "electric_scooter", "lat": 38.923202333333336, "is_reserved": 0, "lon": -77.04483716666667, "fusion_lon": 0.0, "is_disabled": 0, "fusion_lat": 0.0, "bike_id": "ca97f19271862c427fbf8b070921ebde", "rental_uris": {"ios": "https://dc.lft.to/lastmile_qr_scan", "android": "https://dc.lft.to/lastmile_qr_scan"}}, {"name": "c8fab3ce0185e0e1198f4fab5c44152d", "type": "electric_scooter", "lat": 38.892444833333336, "is_reserved": 0, "lon": -77.03193933333333, "fusion_lon": 0.0, "is_disabled": 0, "fusion_lat": 0.0, "bike_id": "c8fab3ce0185e0e1198f4fab5c44152d", "rental_uris": {"ios": "https://dc.lft.to/lastmile_qr_scan", "android": "https://dc.lft.to/lastmile_qr_scan"}}, {"name": "ff54d343cbc30a8e2b17405970059845", "type": "electric_bike", "lat": 38.879791833333336, "is_reserved": 0, "lon": -76.91602016666667, "fusion_lon": 0.0, "is_disabled": 0, "fusion_lat": 0.0, "bike_id": "ff54d343cbc30a8e2b17405970059845", "rental_uris": {"ios": "https://dc.lft.to/lastmile_qr_scan", "android": "https://dc.lft.to/lastmile_qr_scan"}}, {"name": "49ce9434d75ceeef89d5b4c4ec7768cb", "type": "electric_scooter", "lat": 38.9089605, "is_reserved": 0, "lon": -77.08671933333333, "fusion_lon": 0.0, "is_disabled": 0, "fusion_lat": 0.0, "bike_id": "49ce9434d75ceeef89d5b4c4ec7768cb", "rental_uris": {"ios": "https://dc.lft.to/lastmile_qr_scan", "android": "https://dc.lft.to/lastmile_qr_scan"}}, {"name": "676b6cc9b3bc09bd9224805ba1d0b950", "type": "electric_bike", "lat": 38.824515, "is_reserved": 0, "lon": -77.07047066666667, "fusion_lon": 0.0, "is_disabled": 0, "fusion_lat": 0.0, "bike_id": "676b6cc9b3bc09bd9224805ba1d0b950", "rental_uris": {"ios": "https://dc.lft.to/lastmile_qr_scan", "android": "https://dc.lft.to/lastmile_qr_scan"}}, {"name": "2402536279bcccc4ee709a1e89e2bdf0", "type": "electric_scooter", "lat": 38.903917166666666, "is_reserved": 0, "lon": -77.01636983333333, "fusion_lon": 0.0, "is_disabled": 0, "fusion_lat": 0.0, "bike_id": "2402536279bcccc4ee709a1e89e2bdf0", "rental_uris": {"ios": "https://dc.lft.to/lastmile_qr_scan", "android": "https://dc.lft.to/lastmile_qr_scan"}}, {"name": "de9e88524f22f746dc071b63c69598b4", "type": "electric_bike", "lat": 38.91858633333333, "is_reserved": 0, "lon": -76.96092266666666, "fusion_lon": 0.0, "is_disabled": 0, "fusion_lat": 0.0, "bike_id": "de9e88524f22f746dc071b63c69598b4", "rental_uris": {"ios": "https://dc.lft.to/lastmile_qr_scan", "android": "https://dc.lft.to/lastmile_qr_scan"}}, {"name": "a8f55d6382382051a488dbce08df41a9", "type": "electric_scooter", "lat": 38.9172045, "is_reserved": 0, "lon": -77.0230635, "fusion_lon": 0.0, "is_disabled": 0, "fusion_lat": 0.0, "bike_id": "a8f55d6382382051a488dbce08df41a9", "rental_uris": {"ios": "https://dc.lft.to/lastmile_qr_scan", "android": "https://dc.lft.to/lastmile_qr_scan"}}, {"name": "a531845847f55af5be9f629861ad5bdf", "type": "electric_bike", "lat": 38.9066845, "is_reserved": 0, "lon": -76.99964666666666, "fusion_lon": 0.0, "is_disabled": 0, "fusion_lat": 0.0, "bike_id": "a531845847f55af5be9f629861ad5bdf", "rental_uris": {"ios": "https://dc.lft.to/lastmile_qr_scan", "android": "https://dc.lft.to/lastmile_qr_scan"}}, {"name": "b3faa21c7d91f79405556295b882ffb0", "type": "electric_scooter", "lat": 38.91714433333333, "is_reserved": 0, "lon": -77.03854866666667, "fusion_lon": 0.0, "is_disabled": 0, "fusion_lat": 0.0, "bike_id": "b3faa21c7d91f79405556295b882ffb0", "rental_uris": {"ios": "https://dc.lft.to/lastmile_qr_scan", "android": "https://dc.lft.to/lastmile_qr_scan"}}, {"name": "1b47c92ae2a74c71e791c4754b337347", "type": "electric_scooter", "lat": 38.916907, "is_reserved": 0, "lon": -77.00926433333333, "fusion_lon": 0.0, "is_disabled": 0, "fusion_lat": 0.0, "bike_id": "1b47c92ae2a74c71e791c4754b337347", "rental_uris": {"ios": "https://dc.lft.to/lastmile_qr_scan", "android": "https://dc.lft.to/lastmile_qr_scan"}}, {"name": "1fa9f607399c9fca025a35866820bf40", "type": "electric_bike", "lat": 38.861651333333334, "is_reserved": 0, "lon": -77.1309525, "fusion_lon": 0.0, "is_disabled": 0, "fusion_lat": 0.0, "bike_id": "1fa9f607399c9fca025a35866820bf40", "rental_uris": {"ios": "https://dc.lft.to/lastmile_qr_scan", "android": "https://dc.lft.to/lastmile_qr_scan"}}, {"name": "83c28f9b2d97d7688f60771713f4874a", "type": "electric_scooter", "lat": 38.9140815, "is_reserved": 0, "lon": -77.00809266666667, "fusion_lon": 0.0, "is_disabled": 0, "fusion_lat": 0.0, "bike_id": "83c28f9b2d97d7688f60771713f4874a", "rental_uris": {"ios": "https://dc.lft.to/lastmile_qr_scan", "android": "https://dc.lft.to/lastmile_qr_scan"}}, {"name": "846a4ae52048228ac052151a0b9bf106", "type": "electric_bike", "lat": 38.9675565, "is_reserved": 0, "lon": -77.09163216666667, "fusion_lon": 0.0, "is_disabled": 0, "fusion_lat": 0.0, "bike_id": "846a4ae52048228ac052151a0b9bf106", "rental_uris": {"ios": "https://dc.lft.to/lastmile_qr_scan", "android": "https://dc.lft.to/lastmile_qr_scan"}}, {"name": "d01e1dcb894564263f6d4f8d109da3fd", "type": "electric_scooter", "lat": 38.896364, "is_reserved": 0, "lon": -77.02737, "fusion_lon": 0.0, "is_disabled": 0, "fusion_lat": 0.0, "bike_id": "d01e1dcb894564263f6d4f8d109da3fd", "rental_uris": {"ios": "https://dc.lft.to/lastmile_qr_scan", "android": "https://dc.lft.to/lastmile_qr_scan"}}, {"name": "a26932370ba7f6d490193e50b6b4db46", "type": "electric_scooter", "lat": 38.9002135, "is_reserved": 0, "lon": -76.9985425, "fusion_lon": 0.0, "is_disabled": 0, "fusion_lat": 0.0, "bike_id": "a26932370ba7f6d490193e50b6b4db46", "rental_uris": {"ios": "https://dc.lft.to/lastmile_qr_scan", "android": "https://dc.lft.to/lastmile_qr_scan"}}, {"name": "810ddb4f8cfe968d58170730d2636d55", "type": "electric_scooter", "lat": 38.902430833333334, "is_reserved": 0, "lon": -76.9741575, "fusion_lon": 0.0, "is_disabled": 0, "fusion_lat": 0.0, "bike_id": "810ddb4f8cfe968d58170730d2636d55", "rental_uris": {"ios": "https://dc.lft.to/lastmile_qr_scan", "android": "https://dc.lft.to/lastmile_qr_scan"}}, {"name": "6610474d7da6f42d09144876bfa4745d", "type": "electric_scooter", "lat": 38.92953266666667, "is_reserved": 0, "lon": -77.02316183333333, "fusion_lon": 0.0, "is_disabled": 0, "fusion_lat": 0.0, "bike_id": "6610474d7da6f42d09144876bfa4745d", "rental_uris": {"ios": "https://dc.lft.to/lastmile_qr_scan", "android": "https://dc.lft.to/lastmile_qr_scan"}}, {"name": "722f448ec66ddbb105f2211068ae6da0", "type": "electric_scooter", "lat": 38.89183883333333, "is_reserved": 0, "lon": -77.01532016666667, "fusion_lon": 0.0, "is_disabled": 0, "fusion_lat": 0.0, "bike_id": "722f448ec66ddbb105f2211068ae6da0", "rental_uris": {"ios": "https://dc.lft.to/lastmile_qr_scan", "android": "https://dc.lft.to/lastmile_qr_scan"}}, {"name": "1c7497b80f8bcd9e3409d6af82584c70", "type": "electric_scooter", "lat": 38.925828, "is_reserved": 0, "lon": -77.02844016666667, "fusion_lon": 0.0, "is_disabled": 0, "fusion_lat": 0.0, "bike_id": "1c7497b80f8bcd9e3409d6af82584c70", "rental_uris": {"ios": "https://dc.lft.to/lastmile_qr_scan", "android": "https://dc.lft.to/lastmile_qr_scan"}}, {"name": "d6e95d7d9eb25d7f740cbfcda0779e8e", "type": "electric_scooter", "lat": 38.934877666666665, "is_reserved": 0, "lon": -77.03290783333334, "fusion_lon": 0.0, "is_disabled": 0, "fusion_lat": 0.0, "bike_id": "d6e95d7d9eb25d7f740cbfcda0779e8e", "rental_uris": {"ios": "https://dc.lft.to/lastmile_qr_scan", "android": "https://dc.lft.to/lastmile_qr_scan"}}, {"name": "9c405e90708fceff12561d0acb51da3a", "type": "electric_scooter", "lat": 38.9248625, "is_reserved": 0, "lon": -77.05219983333333, "fusion_lon": 0.0, "is_disabled": 0, "fusion_lat": 0.0, "bike_id": "9c405e90708fceff12561d0acb51da3a", "rental_uris": {"ios": "https://dc.lft.to/lastmile_qr_scan", "android": "https://dc.lft.to/lastmile_qr_scan"}}, {"name": "a54b62277165d79cab36fbf9d6216c15", "type": "electric_scooter", "lat": 38.94191166666667, "is_reserved": 0, "lon": -77.03028216666667, "fusion_lon": 0.0, "is_disabled": 0, "fusion_lat": 0.0, "bike_id": "a54b62277165d79cab36fbf9d6216c15", "rental_uris": {"ios": "https://dc.lft.to/lastmile_qr_scan", "android": "https://dc.lft.to/lastmile_qr_scan"}}, {"name": "e6338cee86bbee0abb4b5473d843d177", "type": "electric_scooter", "lat": 38.899263166666664, "is_reserved": 0, "lon": -77.0151925, "fusion_lon": 0.0, "is_disabled": 0, "fusion_lat": 0.0, "bike_id": "e6338cee86bbee0abb4b5473d843d177", "rental_uris": {"ios": "https://dc.lft.to/lastmile_qr_scan", "android": "https://dc.lft.to/lastmile_qr_scan"}}, {"name": "14a3de26a61fe299506c13d1a88f5929", "type": "electric_scooter", "lat": 38.90266966666667, "is_reserved": 0, "lon": -77.031808, "fusion_lon": 0.0, "is_disabled": 0, "fusion_lat": 0.0, "bike_id": "14a3de26a61fe299506c13d1a88f5929", "rental_uris": {"ios": "https://dc.lft.to/lastmile_qr_scan", "android": "https://dc.lft.to/lastmile_qr_scan"}}, {"name": "ec0c3e3fc354d3b9a2d48a7de41e35b4", "type": "electric_scooter", "lat": 38.915911333333334, "is_reserved": 0, "lon": -76.98382733333334, "fusion_lon": 0.0, "is_disabled": 0, "fusion_lat": 0.0, "bike_id": "ec0c3e3fc354d3b9a2d48a7de41e35b4", "rental_uris": {"ios": "https://dc.lft.to/lastmile_qr_scan", "android": "https://dc.lft.to/lastmile_qr_scan"}}, {"name": "4dc342a5b5c032d0c68167e4a7a57fb6", "type": "electric_bike", "lat": 38.846133333333334, "is_reserved": 0, "lon": -76.978338, "fusion_lon": 0.0, "is_disabled": 0, "fusion_lat": 0.0, "bike_id": "4dc342a5b5c032d0c68167e4a7a57fb6", "rental_uris": {"ios": "https://dc.lft.to/lastmile_qr_scan", "android": "https://dc.lft.to/lastmile_qr_scan"}}, {"name": "302e3c63a67f54e5b159fe65b1799fe4", "type": "electric_scooter", "lat": 38.898778166666666, "is_reserved": 0, "lon": -77.03276583333333, "fusion_lon": 0.0, "is_disabled": 0, "fusion_lat": 0.0, "bike_id": "302e3c63a67f54e5b159fe65b1799fe4", "rental_uris": {"ios": "https://dc.lft.to/lastmile_qr_scan", "android": "https://dc.lft.to/lastmile_qr_scan"}}, {"name": "92c4e58600f45d1446026b519cef250c", "type": "electric_scooter", "lat": 38.934621666666665, "is_reserved": 0, "lon": -77.03047016666666, "fusion_lon": 0.0, "is_disabled": 0, "fusion_lat": 0.0, "bike_id": "92c4e58600f45d1446026b519cef250c", "rental_uris": {"ios": "https://dc.lft.to/lastmile_qr_scan", "android": "https://dc.lft.to/lastmile_qr_scan"}}, {"name": "1e7b623f9650eaf19e71baab54b1e169", "type": "electric_scooter", "lat": 38.890141166666666, "is_reserved": 0, "lon": -76.93730533333333, "fusion_lon": 0.0, "is_disabled": 0, "fusion_lat": 0.0, "bike_id": "1e7b623f9650eaf19e71baab54b1e169", "rental_uris": {"ios": "https://dc.lft.to/lastmile_qr_scan", "android": "https://dc.lft.to/lastmile_qr_scan"}}, {"name": "15bb3dc206bcacac424137e8420d3c2d", "type": "electric_bike", "lat": 38.846086166666666, "is_reserved": 0, "lon": -76.96891783333334, "fusion_lon": 0.0, "is_disabled": 0, "fusion_lat": 0.0, "bike_id": "15bb3dc206bcacac424137e8420d3c2d", "rental_uris": {"ios": "https://dc.lft.to/lastmile_qr_scan", "android": "https://dc.lft.to/lastmile_qr_scan"}},