{"data": {"bikes": [{"is_reserved": 0, "fusion_lon": 0.0, "lon": -77.0282865, "fusion_lat": 0.0, "rental_uris": {"ios": "https://dc.lft.to/lastmile_qr_scan", "android": "https://dc.lft.to/lastmile_qr_scan"}, "bike_id": "a24697969f424bf3ee585a74b7bf164e", "lat": 38.917285, "type": "electric_scooter", "name": "a24697969f424bf3ee585a74b7bf164e", "is_disabled": 0}, {"is_reserved": 0, "fusion_lon": 0.0, "lon": -77.0237675, "fusion_lat": 0.0, "rental_uris": {"ios": "https://dc.lft.to/lastmile_qr_scan", "android": "https://dc.lft.to/lastmile_qr_scan"}, "bike_id": "918673200b73ba4fd34e7f14b918634b", "lat": 38.91993766666667, "type": "electric_scooter", "name": "918673200b73ba4fd34e7f14b918634b", "is_disabled": 0}, {"is_reserved": 0, "fusion_lon": 0.0, "lon": -77.028158, "fusion_lat": 0.0, "rental_uris": {"ios": "https://dc.lft.to/lastmile_qr_scan", "android": "https://dc.lft.to/lastmile_qr_scan"}, "bike_id": "91ecc7a6172fb9f9e08730d2cc9d1efe", "lat": 38.89910616666667, "type": "electric_scooter", "name": "91ecc7a6172fb9f9e08730d2cc9d1efe", "is_disabled": 0}, {"is_reserved": 0, "fusion_lon": 0.0, "lon": -77.02352833333333, "fusion_lat": 0.0, "rental_uris": {"ios": "https://dc.lft.to/lastmile_qr_scan", "android": "https://dc.lft.to/lastmile_qr_scan"}, "bike_id": "52420cc96e9b11a867a12597368de7df", "lat": 38.93015233333333, "type": "electric_scooter", "name": "52420cc96e9b11a867a12597368de7df", "is_disabled": 0}, {"is_reserved": 0, "fusion_lon": 0.0, "lon": -77.01368216666667, "fusion_lat": 0.0, "rental_uris": {"ios": "https://dc.lft.to/lastmile_qr_scan", "android": "https://dc.lft.to/lastmile_qr_scan"}, "bike_id": "faaf72ff7be1f63061652af413d7518a", "lat": 38.9111325, "type": "electric_scooter", "name": "faaf72ff7be1f63061652af413d7518a", "is_disabled": 0}, {"is_reserved": 0, "fusion_lon": 0.0, "lon": -77.00603583333333, "fusion_lat": 0.0, "rental_uris": {"ios": "https://dc.lft.to/lastmile_qr_scan", "android": "https://dc.lft.to/lastmile_qr_scan"}, "bike_id": "e35708aab5ab8feed18e2c12faeac2d0", "lat": 38.90651616666667, "type": "electric_scooter", "name": "e35708aab5ab8feed18e2c12faeac2d0", "is_disabled": 0}, {"is_reserved": 0, "fusion_lon": 0.0, "lon": -77.0232875, "fusion_lat": 0.0, "rental_uris": {"ios": "https://dc.lft.to/lastmile_qr_scan", "android": "https://dc.lft.to/lastmile_qr_scan"}, "bike_id": "a3d9012e10f0d6acdb767c8d349c17bd", "lat": 38.928761, "type": "electric_scooter", "name": "a3d9012e10f0d6acdb767c8d349c17bd", "is_disabled": 0}, {"is_reserved": 0, "fusion_lon": 0.0, "lon": -77.06515766666666, "fusion_lat": 0.0, "rental_uris": {"ios": "https://dc.lft.to/lastmile_qr_scan", "android": "https://dc.lft.to/lastmile_qr_scan"}, "bike_id": "a17e4cf0b2a7bd5836092c08fe6093dc", "lat": 38.94718816666666, "type": "electric_scooter", "name": "a17e4cf0b2a7bd5836092c08fe6093dc", "is_disabled": 0}, {"is_reserved": 0, "fusion_lon": 0.0, "lon": -77.03233733333333, "fusion_lat": 0.0, "rental_uris": {"ios": "https://dc.lft.to/lastmile_qr_scan", "android": "https://dc.lft.to/lastmile_qr_scan"}, "bike_id": "ae91f3a9ab16b4ff92c012cb1d7fec12", "lat": 38.9087235, "type": "electric_scooter", "name": "ae91f3a9ab16b4ff92c012cb1d7fec12", "is_disabled": 0}, {"is_reserved": 0, "fusion_lon": 0.0, "lon": -77.07229883333333, "fusion_lat": 0.0, "rental_uris": {"ios": "https://dc.lft.to/lastmile_qr_scan", "android": "https://dc.lft.to/lastmile_qr_scan"}, "bike_id": "26035d97cba64f65569b05a882f3fcb1", "lat": 38.913608833333335, "type": "electric_scooter", "name": "26035d97cba64f65569b05a882f3fcb1", "is_disabled": 0}, {"is_reserved": 0, "fusion_lon": 0.0, "lon": -76.94981266666667, "fusion_lat": 0.0, "rental_uris": {"ios": "https://dc.lft.to/lastmile_qr_scan", "android": "https://dc.lft.to/lastmile_qr_scan"}, "bike_id": "190342cabfd2e1e8917b39d4ccda230e", "lat": 38.8847095, "type": "electric_scooter", "name": "190342cabfd2e1e8917b39d4ccda230e", "is_disabled": 0}, {"is_reserved": 0, "fusion_lon": 0.0, "lon": -76.99812633333333, "fusion_lat": 0.0, "rental_uris": {"ios": "https://dc.lft.to/lastmile_qr_scan", "android": "https://dc.lft.to/lastmile_qr_scan"}, "bike_id": "cb5da04fc5bf31288d6b86e4145aedd1", "lat": 38.932338333333334, "type": "electric_scooter", "name": "cb5da04fc5bf31288d6b86e4145aedd1", "is_disabled": 0}, {"is_reserved": 0, "fusion_lon": 0.0, "lon": -77.0449995, "fusion_lat": 0.0, "rental_uris": {"ios": "https://dc.lft.to/lastmile_qr_scan", "android": "https://dc.lft.to/lastmile_qr_scan"}, "bike_id": "dd3d78ef320b01c8e8efc5f6679f64a0", "lat": 38.9037025, "type": "electric_scooter", "name": "dd3d78ef320b01c8e8efc5f6679f64a0", "is_disabled": 0}, {"is_reserved": 0, "fusion_lon": 0.0, "lon": -76.933392, "fusion_lat": 0.0, "rental_uris": {"ios": "https://dc.lft.to/lastmile_qr_scan", "android": "https://dc.lft.to/lastmile_qr_scan"}, "bike_id": "0ff7bffc83b3ccf25415d25ea9b73d62", "lat": 38.90866916666667, "type": "electric_scooter", "name": "0ff7bffc83b3ccf25415d25ea9b73d62", "is_disabled": 0}, {"is_reserved": 0, "fusion_lon": 0.0, "lon": -77.00788233333333, "fusion_lat": 0.0, "rental_uris": {"ios": "https://dc.lft.to/lastmile_qr_scan", "android": "https://dc.lft.to/lastmile_qr_scan"}, "bike_id": "47ebfd1ac356621d84c82b543760ed5b", "lat": 38.878685, "type": "electric_bike", "name": "47ebfd1ac356621d84c82b543760ed5b", "is_disabled": 0}, {"is_reserved": 0, "fusion_lon": 0.0, "lon": -77.0269395, "fusion_lat": 0.0, "rental_uris": {"ios": "https://dc.lft.to/lastmile_qr_scan", "android": "https://dc.lft.to/lastmile_qr_scan"}, "bike_id": "595eff6bf336f6e96fda763aed08a9d9", "lat": 38.9094965, "type": "electric_scooter", "name": "595eff6bf336f6e96fda763aed08a9d9", "is_disabled": 0}, {"is_reserved": 0, "fusion_lon": 0.0, "lon": -77.05069533333334, "fusion_lat": 0.0, "rental_uris": {"ios": "https://dc.lft.to/lastmile_qr_scan", "android": "https://dc.lft.to/lastmile_qr_scan"}, "bike_id": "58352c6d0c508459237c11f3145c054a", "lat": 38.92529116666667, "type": "electric_scooter", "name": "58352c6d0c508459237c11f3145c054a", "is_disabled": 0}, {"is_reserved": 0, "fusion_lon": 0.0, "lon": -77.017975, "fusion_lat": 0.0, "rental_uris": {"ios": "https://dc.lft.to/lastmile_qr_scan", "android": "https://dc.lft.to/lastmile_qr_scan"}, "bike_id": "71bb398c4515f9eb341e12df1e46a943", "lat": 38.91396833333334, "type": "electric_scooter", "name": "71bb398c4515f9eb341e12df1e46a943", "is_disabled": 0}, {"is_reserved": 0, "fusion_lon": 0.0, "lon": -76.994834, "fusion_lat": 0.0, "rental_uris": {"ios": "https://dc.lft.to/lastmile_qr_scan", "android": "https://dc.lft.to/lastmile_qr_scan"}, "bike_id": "acb2c9cf429043b26c730b15f3c649cd", "lat": 38.92963066666667, "type": "electric_scooter", "name": "acb2c9cf429043b26c730b15f3c649cd", "is_disabled": 0}, {"is_reserved": 0, "fusion_lon": 0.0, "lon": -77.02371483333333, "fusion_lat": 0.0, "rental_uris": {"ios": "https://dc.lft.to/lastmile_qr_scan", "android": "https://dc.lft.to/lastmile_qr_scan"}, "bike_id": "ff925801bfa20d1a35d84ea69b33f019", "lat": 38.90303883333333, "type": "electric_scooter", "name": "ff925801bfa20d1a35d84ea69b33f019", "is_disabled": 0}, {"is_reserved": 0, "fusion_lon": 0.0, "lon": -77.02740716666666, "fusion_lat": 0.0, "rental_uris": {"ios": "https://dc.lft.to/lastmile_qr_scan", "android": "https://dc.lft.to/lastmile_qr_scan"}, "bike_id": "a887df04ba42bddb8d55f355948b47ce", "lat": 38.9276885, "type": "electric_scooter", "name": "a887df04ba42bddb8d55f355948b47ce", "is_disabled": 0}, {"is_reserved": 0, "fusion_lon": 0.0, "lon": -77.03210133333333, "fusion_lat": 0.0, "rental_uris": {"ios": "https://dc.lft.to/lastmile_qr_scan", "android": "https://dc.lft.to/lastmile_qr_scan"}, "bike_id": "e9c134643f52a4c46f6b2b0899cad77d", "lat": 38.9151685, "type": "electric_scooter", "name": "e9c134643f52a4c46f6b2b0899cad77d", "is_disabled": 0}, {"is_reserved": 0, "fusion_lon": 0.0, "lon": -77.04420066666667, "fusion_lat": 0.0, "rental_uris": {"ios": "https://dc.lft.to/lastmile_qr_scan", "android": "https://dc.lft.to/lastmile_qr_scan"}, "bike_id": "c03d1b8505a8766f78b1df944c6a4c7c", "lat": 38.90888416666667, "type": "electric_scooter", "name": "c03d1b8505a8766f78b1df944c6a4c7c", "is_disabled": 0}, {"is_reserved": 0, "fusion_lon": 0.0, "lon": -77.0356775, "fusion_lat": 0.0, "rental_uris": {"ios": "https://dc.lft.to/lastmile_qr_scan", "android": "https://dc.lft.to/lastmile_qr_scan"}, "bike_id": "0f2262ea2f9fb816e38ecaad6359e1f3", "lat": 38.90137416666666, "type": "electric_scooter", "name": "0f2262ea2f9fb816e38ecaad6359e1f3", "is_disabled": 0}, {"is_reserved": 0, "fusion_lon": 0.0, "lon": -77.02725716666667, "fusion_lat": 0.0, "rental_uris": {"ios": "https://dc.lft.to/lastmile_qr_scan", "android": "https://dc.lft.to/lastmile_qr_scan"}, "bike_id": "16c691c0137edaf7d0ba21b7417d6e1c", "lat": 38.901383333333335, "type": "electric_scooter", "name": "16c691c0137edaf7d0ba21b7417d6e1c", "is_disabled": 0}, {"is_reserved": 0, "fusion_lon": 0.0, "lon": -77.023784, "fusion_lat": 0.0, "rental_uris": {"ios": "https://dc.lft.to/lastmile_qr_scan", "android": "https://dc.lft.to/lastmile_qr_scan"}, "bike_id": "128f673d296eed5f8c9cdea1f7ab3c60", "lat": 38.90722183333333, "type": "electric_scooter", "name": "128f673d296eed5f8c9cdea1f7ab3c60", "is_disabled": 0}, {"is_reserved": 0, "fusion_lon": 0.0, "lon": -77.04541516666667, "fusion_lat": 0.0, "rental_uris": {"ios": "https://dc.lft.to/lastmile_qr_scan", "android": "https://dc.lft.to/lastmile_qr_scan"}, "bike_id": "335d0c3920975a4dbdddfb7c75336e3b", "lat": 38.9037505, "type": "electric_scooter", "name": "335d0c3920975a4dbdddfb7c75336e3b", "is_disabled": 0}, {"is_reserved": 0, "fusion_lon": 0.0, "lon": -77.01899133333333, "fusion_lat": 0.0, "rental_uris": {"ios": "https://dc.lft.to/lastmile_qr_scan", "android": "https://dc.lft.to/lastmile_qr_scan"}, "bike_id": "302b2e25ba3aad792508463208a33f52", "lat": 38.923426, "type": "electric_scooter", "name": "302b2e25ba3aad792508463208a33f52", "is_disabled": 0}, {"is_reserved": 0, "fusion_lon": 0.0, "lon": -77.03954866666666, "fusion_lat": 0.0, "rental_uris": {"ios": "https://dc.lft.to/lastmile_qr_scan", "android": "https://dc.lft.to/lastmile_qr_scan"}, "bike_id": "05f8638e36b6893eca68c0b600b40aee", "lat": 38.90269166666667, "type": "electric_scooter", "name": "05f8638e36b6893eca68c0b600b40aee", "is_disabled": 0}, {"is_reserved": 0, "fusion_lon": 0.0, "lon": -77.019818, "fusion_lat": 0.0, "rental_uris": {"ios": "https://dc.lft.to/lastmile_qr_scan", "android": "https://dc.lft.to/lastmile_qr_scan"}, "bike_id": "3871e10f5116c7e02c466934c5a127ed", "lat": 38.89902266666667, "type": "electric_scooter", "name": "3871e10f5116c7e02c466934c5a127ed", "is_disabled": 0}, {"is_reserved": 0, "fusion_lon": 0.0, "lon": -77.0260955, "fusion_lat": 0.0, "rental_uris": {"ios": "https://dc.lft.to/lastmile_qr_scan", "android": "https://dc.lft.to/lastmile_qr_scan"}, "bike_id": "f96cb52696f988c618fac8ff119f5ea4", "lat": 38.91710066666667, "type": "electric_scooter", "name": "f96cb52696f988c618fac8ff119f5ea4", "is_disabled": 0}, {"is_reserved": 0, "fusion_lon": 0.0, "lon": -77.0417535, "fusion_lat": 0.0, "rental_uris": {"ios": "https://dc.lft.to/lastmile_qr_scan", "android": "https://dc.lft.to/lastmile_qr_scan"}, "bike_id": "b1ad0a7eade63474114e2eff0e26bda4", "lat": 38.9181195, "type": "electric_scooter", "name": "b1ad0a7eade63474114e2eff0e26bda4", "is_disabled": 0}, {"is_reserved": 0, "fusion_lon": 0.0, "lon": -77.04503983333333, "fusion_lat": 0.0, "rental_uris": {"ios": "https://dc.lft.to/lastmile_qr_scan", "android": "https://dc.lft.to/lastmile_qr_scan"}, "bike_id": "265ab0ed71873ffcc158a9f7d34bffe1", "lat": 38.89449233333333, "type": "electric_scooter", "name": "265ab0ed71873ffcc158a9f7d34bffe1", "is_disabled": 0}, {"is_reserved": 0, "fusion_lon": 0.0, "lon": -76.99008266666667, "fusion_lat": 0.0, "rental_uris": {"ios": "https://dc.lft.to/lastmile_qr_scan", "android": "https://dc.lft.to/lastmile_qr_scan"}, "bike_id": "ea63d878bbe11f8b55dd38b48b710229", "lat": 38.865075166666664, "type": "electric_scooter", "name": "ea63d878bbe11f8b55dd38b48b710229", "is_disabled": 0}, {"is_reserved": 0, "fusion_lon": 0.0, "lon": -77.055157, "fusion_lat": 0.0, "rental_uris": {"ios": "https://dc.lft.to/lastmile_qr_scan", "android": "https://dc.lft.to/lastmile_qr_scan"}, "bike_id": "b02caa6d7d9ebcd16a06194b83f307d6", "lat": 38.91517966666667, "type": "electric_scooter", "name": "b02caa6d7d9ebcd16a06194b83f307d6", "is_disabled": 0}, {"is_reserved": 0, "fusion_lon": 0.0, "lon": -77.0271825, "fusion_lat": 0.0, "rental_uris": {"ios": "https://dc.lft.to/lastmile_qr_scan", "android": "https://dc.lft.to/lastmile_qr_scan"}, "bike_id": "8c25b6cf9186c09d0c9c0d7c03e0bc79", "lat": 38.95190016666667, "type": "electric_scooter", "name": "8c25b6cf9186c09d0c9c0d7c03e0bc79", "is_disabled": 0}, {"is_reserved": 0, "fusion_lon": 0.0, "lon": -77.026252, "fusion_lat": 0.0, "rental_uris": {"ios": "https://dc.lft.to/lastmile_qr_scan", "android": "https://dc.lft.to/lastmile_qr_scan"}, "bike_id": "b69824cf5fb48d65fcf9f72f3e70a0cc", "lat": 38.8876515, "type": "electric_scooter", "name": "b69824cf5fb48d65fcf9f72f3e70a0cc", "is_disabled": 0}, {"is_reserved": 0, "fusion_lon": 0.0, "lon": -77.04196716666667, "fusion_lat": 0.0, "rental_uris": {"ios": "https://dc.lft.to/lastmile_qr_scan", "android": "https://dc.lft.to/lastmile_qr_scan"}, "bike_id": "c1de7e453b6eb71b59b2bf2ffe990a3e", "lat": 38.9204095, "type": "electric_scooter", "name": "c1de7e453b6eb71b59b2bf2ffe990a3e", "is_disabled": 0}, {"is_reserved": 0, "fusion_lon": 0.0, "lon": -77.04140616666666, "fusion_lat": 0.0, "rental_uris": {"ios": "https://dc.lft.to/lastmile_qr_scan", "android": "https://dc.lft.to/lastmile_qr_scan"}, "bike_id": "b34a4b6f298271dc8802ecea12884417", "lat": 38.902549, "type": "electric_scooter", "name": "b34a4b6f298271dc8802ecea12884417", "is_disabled": 0}, {"is_reserved": 0, "fusion_lon": 0.0, "lon": -77.034488, "fusion_lat": 0.0, "rental_uris": {"ios": "https://dc.lft.to/lastmile_qr_scan", "android": "https://dc.lft.to/lastmile_qr_scan"}, "bike_id": "4af75a597d5d197e9ff27d34c5982db6", "lat": 38.9054955, "type": "electric_scooter", "name": "4af75a597d5d197e9ff27d34c5982db6", "is_disabled": 0}, {"is_reserved": 0, "fusion_lon": 0.0, "lon": -76.981436, "fusion_lat": 0.0, "rental_uris": {"ios": "https://dc.lft.to/lastmile_qr_scan", "android": "https://dc.lft.to/lastmile_qr_scan"}, "bike_id": "a9460b1b7b966756ed0f3087cbcbc5cf", "lat": 38.89744483333333, "type": "electric_scooter", "name": "a9460b1b7b966756ed0f3087cbcbc5cf", "is_disabled": 0}, {"is_reserved": 0, "fusion_lon": 0.0, "lon": -77.0323835, "fusion_lat": 0.0, "rental_uris": {"ios": "https://dc.lft.to/lastmile_qr_scan", "android": "https://dc.lft.to/lastmile_qr_scan"}, "bike_id": "4eb477129b858a0c716d515c5ee637ac", "lat": 38.926839333333334, "type": "electric_scooter", "name": "4eb477129b858a0c716d515c5ee637ac", "is_disabled": 0}, {"is_reserved": 0, "fusion_lon": 0.0, "lon": -77.034713, "fusion_lat": 0.0, "rental_uris": {"ios": "https://dc.lft.to/lastmile_qr_scan", "android": "https://dc.lft.to/lastmile_qr_scan"}, "bike_id": "8d51a4682096815e298fad0ced090bba", "lat": 38.90582333333333, "type": "electric_scooter", "name": "8d51a4682096815e298fad0ced090bba", "is_disabled": 0}, {"is_reserved": 0, "fusion_lon": 0.0, "lon": -77.0385, "fusion_lat": 0.0, "rental_uris": {"ios": "https://dc.lft.to/lastmile_qr_scan", "android": "https://dc.lft.to/lastmile_qr_scan"}, "bike_id": "e6a7bdc18393b05dfe0309bb696e8022", "lat": 38.902655333333335, "type": "electric_scooter", "name": "e6a7bdc18393b05dfe0309bb696e8022", "is_disabled": 0}, {"is_reserved": 0, "fusion_lon": 0.0, "lon": -77.04945383333333, "fusion_lat": 0.0, "rental_uris": {"ios": "https://dc.lft.to/lastmile_qr_scan", "android": "https://dc.lft.to/lastmile_qr_scan"}, "bike_id": "1cad067d385cb1e3e509781ee6e227f4", "lat": 38.8973235, "type": "electric_scooter", "name": "1cad067d385cb1e3e509781ee6e227f4", "is_disabled": 0}, {"is_reserved": 0, "fusion_lon": 0.0, "lon": -77.04015016666666, "fusion_lat": 0.0, "rental_uris": {"ios": "https://dc.lft.to/lastmile_qr_scan", "android": "https://dc.lft.to/lastmile_qr_scan"}, "bike_id": "ae221e24bcc088eeb824623b027e8e7d", "lat": 38.903105333333336, "type": "electric_scooter", "name": "ae221e24bcc088eeb824623b027e8e7d", "is_disabled": 0}, {"is_reserved": 0, "fusion_lon": 0.0, "lon": -77.0400195, "fusion_lat": 0.0, "rental_uris": {"ios": "https://dc.lft.to/lastmile_qr_scan", "android": "https://dc.lft.to/lastmile_qr_scan"}, "bike_id": "42006c20eefee4e5dd79b5519312391e", "lat": 38.934267, "type": "electric_scooter", "name": "42006c20eefee4e5dd79b5519312391e", "is_disabled": 0}, {"is_reserved": 0, "fusion_lon": 0.0, "lon": -76.96834833333334, "fusion_lat": 0.0, "rental_uris": {"ios": "https://dc.lft.to/lastmile_qr_scan", "android": "https://dc.lft.to/lastmile_qr_scan"}, "bike_id": "dbcf8747c7ada115141ffb0df5a010f0", "lat": 38.8733555, "type": "electric_scooter", "name": "dbcf8747c7ada115141ffb0df5a010f0", "is_disabled": 0}, {"is_reserved": 0, "fusion_lon": 0.0, "lon": -77.04142716666667, "fusion_lat": 0.0, "rental_uris": {"ios": "https://dc.lft.to/lastmile_qr_scan", "android": "https://dc.lft.to/lastmile_qr_scan"}, "bike_id": "4b8e717e3cbacd0bf8a71ace302ab7b1", "lat": 38.919722, "type": "electric_scooter", "name": "4b8e717e3cbacd0bf8a71ace302ab7b1", "is_disabled": 0}, {"is_reserved": 0, "fusion_lon": 0.0, "lon": -76.9465375, "fusion_lat": 0.0, "rental_uris": {"ios": "https://dc.lft.to/lastmile_qr_scan", "android": "https://dc.lft.to/lastmile_qr_scan"}, "bike_id": "861a18c6d07ebe6b75c607578be9079d", "lat": 38.89825883333334, "type": "electric_scooter", "name": "861a18c6d07ebe6b75c607578be9079d", "is_disabled": 0}, {"is_reserved": 0, "fusion_lon": 0.0, "lon": -77.004189, "fusion_lat": 0.0, "rental_uris": {"ios": "https://dc.lft.to/lastmile_qr_scan", "android": "https://dc.lft.to/lastmile_qr_scan"}, "bike_id": "0d23096d67bdc4b5873a41b198c8769f", "lat": 38.879369833333335, "type": "electric_scooter", "name": "0d23096d67bdc4b5873a41b198c8769f", "is_disabled": 0}, {"is_reserved": 0, "fusion_lon": 0.0, "lon": -76.95760566666667, "fusion_lat": 0.0, "rental_uris": {"ios": "https://dc.lft.to/lastmile_qr_scan", "android": "https://dc.lft.to/lastmile_qr_scan"}, "bike_id": "f8ed7acc58d0fc4852446d4d843a0adc", "lat": 38.8842405, "type": "electric_scooter", "name": "f8ed7acc58d0fc4852446d4d843a0adc", "is_disabled": 0}, {"is_reserved": 0, "fusion_lon": 0.0, "lon": -77.00874466666667, "fusion_lat": 0.0, "rental_uris": {"ios": "https://dc.lft.to/lastmile_qr_scan", "android": "https://dc.lft.to/lastmile_qr_scan"}, "bike_id": "87d8c986b37e3ac807ccffd951e369a5", "lat": 38.9645735, "type": "electric_bike", "name": "87d8c986b37e3ac807ccffd951e369a5", "is_disabled": 0}, {"is_reserved": 0, "fusion_lon": 0.0, "lon": -77.00575233333333, "fusion_lat": 0.0, "rental_uris": {"ios": "https://dc.lft.to/lastmile_qr_scan", "android": "https://dc.lft.to/lastmile_qr_scan"}, "bike_id": "4263aa445ca186e6b712d8ecfa025f80", "lat": 38.9293515, "type": "electric_scooter", "name": "4263aa445ca186e6b712d8ecfa025f80", "is_disabled": 0}, {"is_reserved": 0, "fusion_lon": 0.0, "lon": -77.08921283333333, "fusion_lat": 0.0, "rental_uris": {"ios": "https://dc.lft.to/lastmile_qr_scan", "android": "https://dc.lft.to/lastmile_qr_scan"}, "bike_id": "2fa6c507063a0d0f184c876c782a1ad9", "lat": 38.863344, "type": "electric_bike", "name": "2fa6c507063a0d0f184c876c782a1ad9", "is_disabled": 0}, {"is_reserved": 0, "fusion_lon": 0.0, "lon": -77.0199805, "fusion_lat": 0.0, "rental_uris": {"ios": "https://dc.lft.to/lastmile_qr_scan", "android": "https://dc.lft.to/lastmile_qr_scan"}, "bike_id": "ee409f976fcf6cffc236bce21a028213", "lat": 38.898858833333335, "type": "electric_scooter", "name": "ee409f976fcf6cffc236bce21a028213", "is_disabled": 0}, {"is_reserved": 0, "fusion_lon": 0.0, "lon": -77.02238983333334, "fusion_lat": 0.0, "rental_uris": {"ios": "https://dc.lft.to/lastmile_qr_scan", "android": "https://dc.lft.to/lastmile_qr_scan"}, "bike_id": "2f2b1b90c47df544bf328b7431ed97df", "lat": 38.924526166666666, "type": "electric_scooter", "name": "2f2b1b90c47df544bf328b7431ed97df", "is_disabled": 0}, {"is_reserved": 0, "fusion_lon": 0.0, "lon": -77.028339, "fusion_lat": 0.0, "rental_uris": {"ios": "https://dc.lft.to/lastmile_qr_scan", "android": "https://dc.lft.to/lastmile_qr_scan"}, "bike_id": "abd01d5e731373bead276552c76afef7", "lat": 38.93187666666667, "type": "electric_scooter", "name": "abd01d5e731373bead276552c76afef7", "is_disabled": 0}, {"is_reserved": 0, "fusion_lon": 0.0, "lon": -77.02804366666666, "fusion_lat": 0.0, "rental_uris": {"ios": "https://dc.lft.to/lastmile_qr_scan", "android": "https://dc.lft.to/lastmile_qr_scan"}, "bike_id": "4761c5e94a97028a076f719b7c6f0c2b", "lat": 38.901172333333335, "type": "electric_scooter", "name": "4761c5e94a97028a076f719b7c6f0c2b", "is_disabled": 0}, {"is_reserved": 0, "fusion_lon": 0.0, "lon": -77.032767, "fusion_lat": 0.0, "rental_uris": {"ios": "https://dc.lft.to/lastmile_qr_scan", "android": "https://dc.lft.to/lastmile_qr_scan"}, "bike_id": "3278d6842a1d8dced9e4c237aeaadf8e", "lat": 38.92799816666667, "type": "electric_scooter", "name": "3278d6842a1d8dced9e4c237aeaadf8e", "is_disabled": 0}, {"is_reserved": 0, "fusion_lon": 0.0, "lon": -77.01853633333333, "fusion_lat": 0.0, "rental_uris": {"ios": "https://dc.lft.to/lastmile_qr_scan", "android": "https://dc.lft.to/lastmile_qr_scan"}, "bike_id": "62d02db3458d6ade6b765cfbb2842022", "lat": 38.902721, "type": "electric_scooter", "name": "62d02db3458d6ade6b765cfbb2842022", "is_disabled": 0}, {"is_reserved": 0, "fusion_lon": 0.0, "lon": -77.0115745, "fusion_lat": 0.0, "rental_uris": {"ios": "https://dc.lft.to/lastmile_qr_scan", "android": "https://dc.lft.to/lastmile_qr_scan"}, "bike_id": "7b82b84e0aede4d112e0dcca4a856506", "lat": 38.89619966666667, "type": "electric_scooter", "name": "7b82b84e0aede4d112e0dcca4a856506", "is_disabled": 0}, {"is_reserved": 0, "fusion_lon": 0.0, "lon": -76.96916933333333, "fusion_lat": 0.0, "rental_uris": {"ios": "https://dc.lft.to/lastmile_qr_scan", "android": "https://dc.lft.to/lastmile_qr_scan"}, "bike_id": "a2b787982d10b9bab771c42e5358cf50", "lat": 38.84610883333333, "type": "electric_bike", "name": "a2b787982d10b9bab771c42e5358cf50", "is_disabled": 0}, {"is_reserved": 0, "fusion_lon": 0.0, "lon": -77.02303983333333, "fusion_lat": 0.0, "rental_uris": {"ios": "https://dc.lft.to/lastmile_qr_scan", "android": "https://dc.lft.to/lastmile_qr_scan"}, "bike_id": "ac1a0cbe56499d49284d1fbdc47675d6", "lat": 38.912259166666665, "type": "electric_scooter", "name": "ac1a0cbe56499d49284d1fbdc47675d6", "is_disabled": 0}, {"is_reserved": 0, "fusion_lon": 0.0, "lon": -77.02862733333333, "fusion_lat": 0.0, "rental_uris": {"ios": "https://dc.lft.to/lastmile_qr_scan", "android": "https://dc.lft.to/lastmile_qr_scan"}, "bike_id": "2afae9393f6e0a3a0a9324aabab5ed72", "lat": 38.88738266666667, "type": "electric_scooter", "name": "2afae9393f6e0a3a0a9324aabab5ed72", "is_disabled": 0}, {"is_reserved": 0, "fusion_lon": 0.0, "lon": -77.005965, "fusion_lat": 0.0, "rental_uris": {"ios": "https://dc.lft.to/lastmile_qr_scan", "android": "https://dc.lft.to/lastmile_qr_scan"}, "bike_id": "7e612ae2c9dbef5841a22cd15021501f", "lat": 38.87553666666667, "type": "electric_scooter", "name": "7e612ae2c9dbef5841a22cd15021501f", "is_disabled": 0}, {"is_reserved": 0, "fusion_lon": 0.0, "lon": -77.02280516666667, "fusion_lat": 0.0, "rental_uris": {"ios": "https://dc.lft.to/lastmile_qr_scan", "android": "https://dc.lft.to/lastmile_qr_scan"}, "bike_id": "50ab939e87fc7faf2bff7cc9cdafee76", "lat": 38.9272575, "type": "electric_scooter", "name": "50ab939e87fc7faf2bff7cc9cdafee76", "is_disabled": 0}, {"is_reserved": 0, "fusion_lon": 0.0, "lon": -76.98722416666666, "fusion_lat": 0.0, "rental_uris": {"ios": "https://dc.lft.to/lastmile_qr_scan", "android": "https://dc.lft.to/lastmile_qr_scan"}, "bike_id": "7f363c474e00e81f6005d3c16ab04e06", "lat": 38.8559455, "type": "electric_scooter", "name": "7f363c474e00e81f6005d3c16ab04e06", "is_disabled": 0}, {"is_reserved": 0, "fusion_lon": 0.0, "lon": -77.04492966666666, "fusion_lat": 0.0, "rental_uris": {"ios": "https://dc.lft.to/lastmile_qr_scan", "android": "https://dc.lft.to/lastmile_qr_scan"}, "bike_id": "78c4d353fa078b04bf4a88c0251bab1d", "lat": 38.91351366666667, "type": "electric_scooter", "name": "78c4d353fa078b04bf4a88c0251bab1d", "is_disabled": 0}, {"is_reserved": 0, "fusion_lon": 0.0, "lon": -77.01763516666666, "fusion_lat": 0.0, "rental_uris": {"ios": "https://dc.lft.to/lastmile_qr_scan", "android": "https://dc.lft.to/lastmile_qr_scan"}, "bike_id": "84fbb75393981ab23ff324662442bb78", "lat": 38.8862745, "type": "electric_scooter", "name": "84fbb75393981ab23ff324662442bb78", "is_disabled": 0}, {"is_reserved": 0, "fusion_lon": 0.0, "lon": -76.960512, "fusion_lat": 0.0, "rental_uris": {"ios": "https://dc.lft.to/lastmile_qr_scan", "android": "https://dc.lft.to/lastmile_qr_scan"}, "bike_id": "65bbeed214ce4fc0f42f7c57f1101fb8", "lat": 38.96731283333333, "type": "electric_bike", "name": "65bbeed214ce4fc0f42f7c57f1101fb8", "is_disabled": 0}, {"is_reserved": 0, "fusion_lon": 0.0, "lon": -77.03635083333333, "fusion_lat": 0.0, "rental_uris": {"ios": "https://dc.lft.to/lastmile_qr_scan", "android": "https://dc.lft.to/lastmile_qr_scan"}, "bike_id": "97b72bb80a67c6341781e2dc20904271", "lat": 38.930608166666666, "type": "electric_scooter", "name": "97b72bb80a67c6341781e2dc20904271", "is_disabled": 0}, {"is_reserved": 0, "fusion_lon": 0.0, "lon": -77.02198266666667, "fusion_lat": 0.0, "rental_uris": {"ios": "https://dc.lft.to/lastmile_qr_scan", "android": "https://dc.lft.to/lastmile_qr_scan"}, "bike_id": "b03143abd85f40b92fc6ddd5c5d8abdb", "lat": 38.924819, "type": "electric_scooter", "name": "b03143abd85f40b92fc6ddd5c5d8abdb", "is_disabled": 0}, {"is_reserved": 0, "fusion_lon": 0.0, "lon": -77.02538016666666, "fusion_lat": 0.0, "rental_uris": {"ios": "https://dc.lft.to/lastmile_qr_scan", "android": "https://dc.lft.to/lastmile_qr_scan"}, "bike_id": "efba506573c19a787211fdc1d370196d", "lat": 38.920779, "type": "electric_scooter", "name": "efba506573c19a787211fdc1d370196d", "is_disabled": 0}, {"is_reserved": 0, "fusion_lon": 0.0, "lon": -77.03748866666666, "fusion_lat": 0.0, "rental_uris": {"ios": "https://dc.lft.to/lastmile_qr_scan", "android": "https://dc.lft.to/lastmile_qr_scan"}, "bike_id": "2b00ed2ed28cd2128859e2b7e09bceaa", "lat": 38.905604333333336, "type": "electric_scooter", "name": "2b00ed2ed28cd2128859e2b7e09bceaa", "is_disabled": 0}, {"is_reserved": 0, "fusion_lon": 0.0, "lon": -77.03065833333334, "fusion_lat": 0.0, "rental_uris": {"ios": "https://dc.lft.to/lastmile_qr_scan", "android": "https://dc.lft.to/lastmile_qr_scan"}, "bike_id": "43fd5c0706507963957ceb1f027474e2", "lat": 38.90283516666667, "type": "electric_scooter", "name": "43fd5c0706507963957ceb1f027474e2", "is_disabled": 0}, {"is_reserved": 0, "fusion_lon": 0.0, "lon": -77.04440333333334, "fusion_lat": 0.0, "rental_uris": {"ios": "https://dc.lft.to/lastmile_qr_scan", "android": "https://dc.lft.to/lastmile_qr_scan"}, "bike_id": "33593df4f571ae0607254264cbc12763", "lat": 38.916279833333334, "type": "electric_scooter", "name": "33593df4f571ae0607254264cbc12763", "is_disabled": 0}, {"is_reserved": 0, "fusion_lon": 0.0, "lon": -77.0330425, "fusion_lat": 0.0, "rental_uris": {"ios": "https://dc.lft.to/lastmile_qr_scan", "android": "https://dc.lft.to/lastmile_qr_scan"}, "bike_id": "f85e2025933a18d374244c6d49a85104", "lat": 38.92741083333333, "type": "electric_scooter", "name": "f85e2025933a18d374244c6d49a85104", "is_disabled": 0}, {"is_reserved": 0, "fusion_lon": 0.0, "lon": -77.00546083333333, "fusion_lat": 0.0, "rental_uris": {"ios": "https://dc.lft.to/lastmile_qr_scan", "android": "https://dc.lft.to/lastmile_qr_scan"}, "bike_id": "13640920c709da273c0823cba3cd1a92", "lat": 38.902569666666665, "type": "electric_scooter", "name": "13640920c709da273c0823cba3cd1a92", "is_disabled": 0}, {"is_reserved": 0, "fusion_lon": 0.0, "lon": -77.04712166666667, "fusion_lat": 0.0, "rental_uris": {"ios": "https://dc.lft.to/lastmile_qr_scan", "android": "https://dc.lft.to/lastmile_qr_scan"}, "bike_id": "9b3ed4f6d7419bb9ff1982deacf46852", "lat": 38.921699333333336, "type": "electric_scooter", "name": "9b3ed4f6d7419bb9ff1982deacf46852", "is_disabled": 0}, {"is_reserved": 0, "fusion_lon": 0.0, "lon": -77.02536966666666, "fusion_lat": 0.0, "rental_uris": {"ios": "https://dc.lft.to/lastmile_qr_scan", "android": "https://dc.lft.to/lastmile_qr_scan"}, "bike_id": "fa1c80d88c187e92a188dd5041b30734", "lat": 38.92051166666667, "type": "electric_scooter", "name": "fa1c80d88c187e92a188dd5041b30734", "is_disabled": 0}, {"is_reserved": 0, "fusion_lon": 0.0, "lon": -77.02853916666666, "fusion_lat": 0.0, "rental_uris": {"ios": "https://dc.lft.to/lastmile_qr_scan", "android": "https://dc.lft.to/lastmile_qr_scan"}, "bike_id": "21a85a77abe98983888ca2ea52ee5039", "lat": 38.89333633333333, "type": "electric_scooter", "name": "21a85a77abe98983888ca2ea52ee5039", "is_disabled": 0}, {"is_reserved": 0, "fusion_lon": 0.0, "lon": -77.0398125, "fusion_lat": 0.0, "rental_uris": {"ios": "https://dc.lft.to/lastmile_qr_scan", "android": "https://dc.lft.to/lastmile_qr_scan"}, "bike_id": "ddb67b98c0a621f8302922b0485f0c13", "lat": 38.892202, "type": "electric_scooter", "name": "ddb67b98c0a621f8302922b0485f0c13", "is_disabled": 0}, {"is_reserved": 0, "fusion_lon": 0.0, "lon": -77.02317566666666, "fusion_lat": 0.0, "rental_uris": {"ios": "https://dc.lft.to/lastmile_qr_scan", "android": "https://dc.lft.to/lastmile_qr_scan"}, "bike_id": "e1bc89b741286deebbfa987e8a3b3072", "lat": 38.917896, "type": "electric_scooter", "name": "e1bc89b741286deebbfa987e8a3b3072", "is_disabled": 0}, {"is_reserved": 0, "fusion_lon": 0.0, "lon": -77.0500265, "fusion_lat": 0.0, "rental_uris": {"ios": "https://dc.lft.to/lastmile_qr_scan", "android": "https://dc.lft.to/lastmile_qr_scan"}, "bike_id": "ad24bf577ddf96ed465b4bd509c8f025", "lat": 38.89229616666667, "type": "electric_scooter", "name": "ad24bf577ddf96ed465b4bd509c8f025", "is_disabled": 0}, {"is_reserved": 0, "fusion_lon": 0.0, "lon": -76.998117, "fusion_lat": 0.0, "rental_uris": {"ios": "https://dc.lft.to/lastmile_qr_scan", "android": "https://dc.lft.to/lastmile_qr_scan"}, "bike_id": "04858d6e19bf559cd9e65020f237d5f6", "lat": 38.885571166666665, "type": "electric_scooter", "name": "04858d6e19bf559cd9e65020f237d5f6", "is_disabled": 0}, {"is_reserved": 0, "fusion_lon": 0.0, "lon": -77.04025416666667, "fusion_lat": 0.0, "rental_uris": {"ios": "https://dc.lft.to/lastmile_qr_scan", "android": "https://dc.lft.to/lastmile_qr_scan"}, "bike_id": "b17cb54fc79d69751498be2281764b0c", "lat": 38.924454, "type": "electric_scooter", "name": "b17cb54fc79d69751498be2281764b0c", "is_disabled": 0}, {"is_reserved": 0, "fusion_lon": 0.0, "lon": -77.03843183333333, "fusion_lat": 0.0, "rental_uris": {"ios": "https://dc.lft.to/lastmile_qr_scan", "android": "https://dc.lft.to/lastmile_qr_scan"}, "bike_id": "162d600141a0fe0057a940f5fbc8418b", "lat": 38.94187316666667, "type": "electric_scooter", "name": "162d600141a0fe0057a940f5fbc8418b", "is_disabled": 0}, {"is_reserved": 0, "fusion_lon": 0.0, "lon": -77.017632, "fusion_lat": 0.0, "rental_uris": {"ios": "https://dc.lft.to/lastmile_qr_scan", "android": "https://dc.lft.to/lastmile_qr_scan"}, "bike_id": "1eb43376121163ebf827db28bd2be618", "lat": 38.90127433333333, "type": "electric_scooter", "name": "1eb43376121163ebf827db28bd2be618", "is_disabled": 0}, {"is_reserved": 0, "fusion_lon": 0.0, "lon": -77.03743816666666, "fusion_lat": 0.0, "rental_uris": {"ios": "https://dc.lft.to/lastmile_qr_scan", "android": "https://dc.lft.to/lastmile_qr_scan"}, "bike_id": "b40965546e03d5cd80fad33f28517609", "lat": 38.916179, "type": "electric_scooter", "name": "b40965546e03d5cd80fad33f28517609", "is_disabled": 0}, {"is_reserved": 0, "fusion_lon": 0.0, "lon": -77.00931366666667, "fusion_lat": 0.0, "rental_uris": {"ios": "https://dc.lft.to/lastmile_qr_scan", "android": "https://dc.lft.to/lastmile_qr_scan"}, "bike_id": "c34512c8c1e27fafffc28f12bbd9fe71", "lat": 38.875049833333335, "type": "electric_scooter", "name": "c34512c8c1e27fafffc28f12bbd9fe71", "is_disabled": 0}, {"is_reserved": 0, "fusion_lon": 0.0, "lon": -77.0117025, "fusion_lat": 0.0, "rental_uris": {"ios": "https://dc.lft.to/lastmile_qr_scan", "android": "https://dc.lft.to/lastmile_qr_scan"}, "bike_id": "e7c6b202de664726efbdb796ea640341", "lat": 38.916893333333334, "type": "electric_scooter", "name": "e7c6b202de664726efbdb796ea640341", "is_disabled": 0}, {"is_reserved": 0, "fusion_lon": 0.0, "lon": -77.02524816666667, "fusion_lat": 0.0, "rental_uris": {"ios": "https://dc.lft.to/lastmile_qr_scan", "android": "https://dc.lft.to/lastmile_qr_scan"}, "bike_id": "90a27570de86bda1f273120d8df77e13", "lat": 38.9206835, "type": "electric_scooter", "name": "90a27570de86bda1f273120d8df77e13", "is_disabled": 0}, {"is_reserved": 0, "fusion_lon": 0.0, "lon": -77.03187433333333, "fusion_lat": 0.0, "rental_uris": {"ios": "https://dc.lft.to/lastmile_qr_scan", "android": "https://dc.lft.to/lastmile_qr_scan"}, "bike_id": "abe88b2329040764dc73ec3973956b45", "lat": 38.91029866666667, "type": "electric_scooter", "name": "abe88b2329040764dc73ec3973956b45", "is_disabled": 0}, {"is_reserved": 0, "fusion_lon": 0.0, "lon": -77.02382466666667, "fusion_lat": 0.0, "rental_uris": {"ios": "https://dc.lft.to/lastmile_qr_scan", "android": "https://dc.lft.to/lastmile_qr_scan"}, "bike_id": "e7f57a170c41dbd9c62591ad74b69229", "lat": 38.919270833333336, "type": "electric_scooter", "name": "e7f57a170c41dbd9c62591ad74b69229", "is_disabled": 0}, {"is_reserved": 0, "fusion_lon": 0.0, "lon": -77.04995316666667, "fusion_lat": 0.0, "rental_uris": {"ios": "https://dc.lft.to/lastmile_qr_scan", "android": "https://dc.lft.to/lastmile_qr_scan"}, "bike_id": "1edefa22b4fa36aabcc75ad54c16eb42", "lat": 38.89832216666667, "type": "electric_scooter", "name": "1edefa22b4fa36aabcc75ad54c16eb42", "is_disabled": 0}, {"is_reserved": 0, "fusion_lon": 0.0, "lon": -77.04444633333334, "fusion_lat": 0.0, "rental_uris": {"ios": "https://dc.lft.to/lastmile_qr_scan", "android": "https://dc.lft.to/lastmile_qr_scan"}, "bike_id": "08737991be8c36b4231a0f6172f30fc3", "lat": 38.9126, "type": "electric_scooter", "name": "08737991be8c36b4231a0f6172f30fc3", "is_disabled": 0}, {"is_reserved": 0, "fusion_lon": 0.0, "lon": -77.008609, "fusion_lat": 0.0, "rental_uris": {"ios": "https://dc.lft.to/lastmile_qr_scan", "android": "https://dc.lft.to/lastmile_qr_scan"}, "bike_id": "ff00b7eeb1308a3daeccc14fbcafb41f", "lat": 38.876303166666666, "type": "electric_scooter", "name": "ff00b7eeb1308a3daeccc14fbcafb41f", "is_disabled": 0}, {"is_reserved": 0, "fusion_lon": 0.0, "lon": -76.96912033333334, "fusion_lat": 0.0, "rental_uris": {"ios": "https://dc.lft.to/lastmile_qr_scan", "android": "https://dc.lft.to/lastmile_qr_scan"}, "bike_id": "79980e9b47f8b1e358bc9b1ad8b964dd", "lat": 38.873084166666665, "type": "electric_scooter", "name": "79980e9b47f8b1e358bc9b1ad8b964dd", "is_disabled": 0}, {"is_reserved": 0, "fusion_lon": 0.0, "lon": -77.02285416666666, "fusion_lat": 0.0, "rental_uris": {"ios": "https://dc.lft.to/lastmile_qr_scan", "android": "https://dc.lft.to/lastmile_qr_scan"}, "bike_id": "a820e3193312910ad1c595eb2a0ff2d6", "lat": 38.89518833333333, "type": "electric_scooter", "name": "a820e3193312910ad1c595eb2a0ff2d6", "is_disabled": 0}, {"is_reserved": 0, "fusion_lon": 0.0, "lon": -76.9763235, "fusion_lat": 0.0, "rental_uris": {"ios": "https://dc.lft.to/lastmile_qr_scan", "android": "https://dc.lft.to/lastmile_qr_scan"}, "bike_id": "a010086ccef8e3d0181cb8285f9c9f6f", "lat": 38.90156783333333, "type": "electric_scooter", "name": "a010086ccef8e3d0181cb8285f9c9f6f", "is_disabled": 0}, {"is_reserved": 0, "fusion_lon": 0.0, "lon": -77.05383583333334, "fusion_lat": 0.0, "rental_uris": {"ios": "https://dc.lft.to/lastmile_qr_scan", "android": "https://dc.lft.to/lastmile_qr_scan"}, "bike_id": "cb917f63151760c8aa1e004f64d92ef0", "lat": 38.820675333333334, "type": "electric_bike", "name": "cb917f63151760c8aa1e004f64d92ef0", "is_disabled": 0}, {"is_reserved": 0, "fusion_lon": 0.0, "lon": -77.02298066666667, "fusion_lat": 0.0, "rental_uris": {"ios": "https://dc.lft.to/lastmile_qr_scan", "android": "https://dc.lft.to/lastmile_qr_scan"}, "bike_id": "65d1745e9bbe6671dbf916bebf137763", "lat": 38.917048, "type": "electric_scooter", "name": "65d1745e9bbe6671dbf916bebf137763", "is_disabled": 0}, {"is_reserved": 0, "fusion_lon": 0.0, "lon": -77.02321866666666, "fusion_lat": 0.0, "rental_uris": {"ios": "https://dc.lft.to/lastmile_qr_scan", "android": "https://dc.lft.to/lastmile_qr_scan"}, "bike_id": "33c5a3ca44bc9630b6a7850ca11129b0", "lat": 38.9073325, "type": "electric_scooter", "name": "33c5a3ca44bc9630b6a7850ca11129b0", "is_disabled": 0}, {"is_reserved": 0, "fusion_lon": 0.0, "lon": -77.02883483333333, "fusion_lat": 0.0, "rental_uris": {"ios": "https://dc.lft.to/lastmile_qr_scan", "android": "https://dc.lft.to/lastmile_qr_scan"}, "bike_id": "79d328e2bbecd4adb6729cedf33dbbc8", "lat": 38.919107833333335, "type": "electric_scooter", "name": "79d328e2bbecd4adb6729cedf33dbbc8", "is_disabled": 0}, {"is_reserved": 0, "fusion_lon": 0.0, "lon": -77.02132116666667, "fusion_lat": 0.0, "rental_uris": {"ios": "https://dc.lft.to/lastmile_qr_scan", "android": "https://dc.lft.to/lastmile_qr_scan"}, "bike_id": "905f41e9bf44776767743a3079b99317", "lat": 38.903143666666665, "type": "electric_scooter", "name": "905f41e9bf44776767743a3079b99317", "is_disabled": 0}, {"is_reserved": 0, "fusion_lon": 0.0, "lon": -77.006995, "fusion_lat": 0.0, "rental_uris": {"ios": "https://dc.lft.to/lastmile_qr_scan", "android": "https://dc.lft.to/lastmile_qr_scan"}, "bike_id": "836e1927092e90808320c38eb47eb501", "lat": 38.952443333333335, "type": "electric_scooter", "name": "836e1927092e90808320c38eb47eb501", "is_disabled": 0}, {"is_reserved": 0, "fusion_lon": 0.0, "lon": -77.02932716666666, "fusion_lat": 0.0, "rental_uris": {"ios": "https://dc.lft.to/lastmile_qr_scan", "android": "https://dc.lft.to/lastmile_qr_scan"}, "bike_id": "6a2e04c8e9edc03296c3e3b40ce2987a", "lat": 38.90256333333333, "type": "electric_scooter", "name": "6a2e04c8e9edc03296c3e3b40ce2987a", "is_disabled": 0}, {"is_reserved": 0, "fusion_lon": 0.0, "lon": -77.04330283333333, "fusion_lat": 0.0, "rental_uris": {"ios": "https://dc.lft.to/lastmile_qr_scan", "android": "https://dc.lft.to/lastmile_qr_scan"}, "bike_id": "cc2b2b7442ab6530429ee6650086f9cb", "lat": 38.90890516666666, "type": "electric_scooter", "name": "cc2b2b7442ab6530429ee6650086f9cb", "is_disabled": 0}, {"is_reserved": 0, "fusion_lon": 0.0, "lon": -77.0239375, "fusion_lat": 0.0, "rental_uris": {"ios": "https://dc.lft.to/lastmile_qr_scan", "android": "https://dc.lft.to/lastmile_qr_scan"}, "bike_id": "1487be575dffab4ead1feb20530a5939", "lat": 38.91971066666667, "type": "electric_scooter", "name": "1487be575dffab4ead1feb20530a5939", "is_disabled": 0}, {"is_reserved": 0, "fusion_lon": 0.0, "lon": -77.0260725, "fusion_lat": 0.0, "rental_uris": {"ios": "https://dc.lft.to/lastmile_qr_scan", "android": "https://dc.lft.to/lastmile_qr_scan"}, "bike_id": "6f682ee4342be0db93c82f404194de51", "lat": 38.94403633333334, "type": "electric_scooter", "name": "6f682ee4342be0db93c82f404194de51", "is_disabled": 0}, {"is_reserved": 0, "fusion_lon": 0.0, "lon": -76.9773155, "fusion_lat": 0.0, "rental_uris": {"ios": "https://dc.lft.to/lastmile_qr_scan", "android": "https://dc.lft.to/lastmile_qr_scan"}, "bike_id": "1a33e7f1bace8da43fe48c7e2cbd76cf", "lat": 38.872400999999996, "type": "electric_scooter", "name": "1a33e7f1bace8da43fe48c7e2cbd76cf", "is_disabled": 0}, {"is_reserved": 0, "fusion_lon": 0.0, "lon": -76.99780766666666, "fusion_lat": 0.0, "rental_uris": {"ios": "https://dc.lft.to/lastmile_qr_scan", "android": "https://dc.lft.to/lastmile_qr_scan"}, "bike_id": "59f6c627b6078c1fdad6840a8395795e", "lat": 38.84433116666666, "type": "electric_scooter", "name": "59f6c627b6078c1fdad6840a8395795e", "is_disabled": 0}, {"is_reserved": 0, "fusion_lon": 0.0, "lon": -77.04998966666666, "fusion_lat": 0.0, "rental_uris": {"ios": "https://dc.lft.to/lastmile_qr_scan", "android": "https://dc.lft.to/lastmile_qr_scan"}, "bike_id": "a3d12e21a102f72a13cd831715e4e64f", "lat": 38.90549266666667, "type": "electric_scooter", "name": "a3d12e21a102f72a13cd831715e4e64f", "is_disabled": 0}, {"is_reserved": 0, "fusion_lon": 0.0, "lon": -77.02179233333334, "fusion_lat": 0.0, "rental_uris": {"ios": "https://dc.lft.to/lastmile_qr_scan", "android": "https://dc.lft.to/lastmile_qr_scan"}, "bike_id": "743b60d7cb357c437649bf8844a35d17", "lat": 38.899784833333335, "type": "electric_scooter", "name": "743b60d7cb357c437649bf8844a35d17", "is_disabled": 0}, {"is_reserved": 0, "fusion_lon": 0.0, "lon": -76.98750366666667, "fusion_lat": 0.0, "rental_uris": {"ios": "https://dc.lft.to/lastmile_qr_scan", "android": "https://dc.lft.to/lastmile_qr_scan"}, "bike_id": "49cfe869eea7dadac86c33ffb65ff9ed", "lat": 38.8576675, "type": "electric_bike", "name": "49cfe869eea7dadac86c33ffb65ff9ed", "is_disabled": 0}, {"is_reserved": 0, "fusion_lon": 0.0, "lon": -76.98890716666666, "fusion_lat": 0.0, "rental_uris": {"ios": "https://dc.lft.to/lastmile_qr_scan", "android": "https://dc.lft.to/lastmile_qr_scan"}, "bike_id": "76704581a9fc874b9244d30ed82838a1", "lat": 38.86661683333333, "type": "electric_scooter", "name": "76704581a9fc874b9244d30ed82838a1", "is_disabled": 0}, {"is_reserved": 0, "fusion_lon": 0.0, "lon": -77.02289633333334, "fusion_lat": 0.0, "rental_uris": {"ios": "https://dc.lft.to/lastmile_qr_scan", "android": "https://dc.lft.to/lastmile_qr_scan"}, "bike_id": "b439ef3ee5104c8ab77b94845726631c", "lat": 38.8951295, "type": "electric_scooter", "name": "b439ef3ee5104c8ab77b94845726631c", "is_disabled": 0}, {"is_reserved": 0, "fusion_lon": 0.0, "lon": -77.0631045, "fusion_lat": 0.0, "rental_uris": {"ios": "https://dc.lft.to/lastmile_qr_scan", "android": "https://dc.lft.to/lastmile_qr_scan"}, "bike_id": "90c08f652ce57c9e6ea82e027156bab1", "lat": 38.79850883333334, "type": "electric_bike", "name": "90c08f652ce57c9e6ea82e027156bab1", "is_disabled": 0}, {"is_reserved": 0, "fusion_lon": 0.0, "lon": -77.02832283333333, "fusion_lat": 0.0, "rental_uris": {"ios": "https://dc.lft.to/lastmile_qr_scan", "android": "https://dc.lft.to/lastmile_qr_scan"}, "bike_id": "9e70ce090bf8500c4124c35ac0636cd0", "lat": 38.88728666666667, "type": "electric_scooter", "name": "9e70ce090bf8500c4124c35ac0636cd0", "is_disabled": 0}, {"is_reserved": 0, "fusion_lon": 0.0, "lon": -77.07833116666667, "fusion_lat": 0.0, "rental_uris": {"ios": "https://dc.lft.to/lastmile_qr_scan", "android": "https://dc.lft.to/lastmile_qr_scan"}, "bike_id": "33dc9e0650e8525d15e1e2846a4524ff", "lat": 38.9315435, "type": "electric_scooter", "name": "33dc9e0650e8525d15e1e2846a4524ff", "is_disabled": 0}, {"is_reserved": 0, "fusion_lon": 0.0, "lon": -77.03429833333334, "fusion_lat": 0.0, "rental_uris": {"ios": "https://dc.lft.to/lastmile_qr_scan", "android": "https://dc.lft.to/lastmile_qr_scan"}, "bike_id": "e2d231f1379de46352514026365ccd92", "lat": 38.927347, "type": "electric_scooter", "name": "e2d231f1379de46352514026365ccd92", "is_disabled": 0}, {"is_reserved": 0, "fusion_lon": 0.0, "lon": -77.03697733333334, "fusion_lat": 0.0, "rental_uris": {"ios": "https://dc.lft.to/lastmile_qr_scan", "android": "https://dc.lft.to/lastmile_qr_scan"}, "bike_id": "b4d2bc35498e0a993d9bb9b0c8db5083", "lat": 38.935633833333334, "type": "electric_bike", "name": "b4d2bc35498e0a993d9bb9b0c8db5083", "is_disabled": 0}, {"is_reserved": 0, "fusion_lon": 0.0, "lon": -77.0401875, "fusion_lat": 0.0, "rental_uris": {"ios": "https://dc.lft.to/lastmile_qr_scan", "android": "https://dc.lft.to/lastmile_qr_scan"}, "bike_id": "cfd1bd69341b57d8702dd60b2bb8785c", "lat": 38.921824666666666, "type": "electric_scooter", "name": "cfd1bd69341b57d8702dd60b2bb8785c", "is_disabled": 0}, {"is_reserved": 0, "fusion_lon": 0.0, "lon": -77.0220735, "fusion_lat": 0.0, "rental_uris": {"ios": "https://dc.lft.to/lastmile_qr_scan", "android": "https://dc.lft.to/lastmile_qr_scan"}, "bike_id": "0ffb4a36f324576e0dd7ddd40e267585", "lat": 38.8922595, "type": "electric_scooter", "name": "0ffb4a36f324576e0dd7ddd40e267585", "is_disabled": 0}, {"is_reserved": 0, "fusion_lon": 0.0, "lon": -77.02458883333334, "fusion_lat": 0.0, "rental_uris": {"ios": "https://dc.lft.to/lastmile_qr_scan", "android": "https://dc.lft.to/lastmile_qr_scan"}, "bike_id": "ec5a1816b3b017be96092d1f13c4643a", "lat": 38.93863016666667, "type": "electric_scooter", "name": "ec5a1816b3b017be96092d1f13c4643a", "is_disabled": 0}, {"is_reserved": 0, "fusion_lon": 0.0, "lon": -77.03246666666666, "fusion_lat": 0.0, "rental_uris": {"ios": "https://dc.lft.to/lastmile_qr_scan", "android": "https://dc.lft.to/lastmile_qr_scan"}, "bike_id": "baaab022c1fba574d3f3d81d35222d52", "lat": 38.92861583333333, "type": "electric_scooter", "name": "baaab022c1fba574d3f3d81d35222d52", "is_disabled": 0}, {"is_reserved": 0, "fusion_lon": 0.0, "lon": -77.04749133333334, "fusion_lat": 0.0, "rental_uris": {"ios": "https://dc.lft.to/lastmile_qr_scan", "android": "https://dc.lft.to/lastmile_qr_scan"}, "bike_id": "cb440f6b37266ae8b834f27b822a04b0", "lat": 38.90144316666667, "type": "electric_scooter", "name": "cb440f6b37266ae8b834f27b822a04b0", "is_disabled": 0}, {"is_reserved": 0, "fusion_lon": 0.0, "lon": -77.0232425, "fusion_lat": 0.0, "rental_uris": {"ios": "https://dc.lft.to/lastmile_qr_scan", "android": "https://dc.lft.to/lastmile_qr_scan"}, "bike_id": "71216fc60e1fb39c4e0053a83a41cd2a", "lat": 38.907265833333334, "type": "electric_scooter", "name": "71216fc60e1fb39c4e0053a83a41cd2a", "is_disabled": 0}, {"is_reserved": 0, "fusion_lon": 0.0, "lon": -77.03472616666667, "fusion_lat": 0.0, "rental_uris": {"ios": "https://dc.lft.to/lastmile_qr_scan", "android": "https://dc.lft.to/lastmile_qr_scan"}, "bike_id": "fabbc3b9a64fb3f13873cc3e8c5ec92c", "lat": 38.917094166666665, "type": "electric_scooter", "name": "fabbc3b9a64fb3f13873cc3e8c5ec92c", "is_disabled": 0}, {"is_reserved": 0, "fusion_lon": 0.0, "lon": -76.9321055, "fusion_lat": 0.0, "rental_uris": {"ios": "https://dc.lft.to/lastmile_qr_scan", "android": "https://dc.lft.to/lastmile_qr_scan"}, "bike_id": "8006cc564b83f4eeb76950951e670527", "lat": 38.89667716666666, "type": "electric_scooter", "name": "8006cc564b83f4eeb76950951e670527", "is_disabled": 0}, {"is_reserved": 0, "fusion_lon": 0.0, "lon": -76.9854005, "fusion_lat": 0.0, "rental_uris": {"ios": "https://dc.lft.to/lastmile_qr_scan", "android": "https://dc.lft.to/lastmile_qr_scan"}, "bike_id": "fb8777a75056d819683e7c4416c00d4d", "lat": 38.8997765, "type": "electric_scooter", "name": "fb8777a75056d819683e7c4416c00d4d", "is_disabled": 0}, {"is_reserved": 0, "fusion_lon": 0.0, "lon": -77.0250875, "fusion_lat": 0.0, "rental_uris": {"ios": "https://dc.lft.to/lastmile_qr_scan", "android": "https://dc.lft.to/lastmile_qr_scan"}, "bike_id": "f6c717776f941d306cdb0cbe3020ea8d", "lat": 38.9180885, "type": "electric_scooter", "name": "f6c717776f941d306cdb0cbe3020ea8d", "is_disabled": 0}, {"is_reserved": 0, "fusion_lon": 0.0, "lon": -76.9961875, "fusion_lat": 0.0, "rental_uris": {"ios": "https://dc.lft.to/lastmile_qr_scan", "android": "https://dc.lft.to/lastmile_qr_scan"}, "bike_id": "627c08c6d48e243be1f61b14a3e10e10", "lat": 38.90057516666667, "type": "electric_scooter", "name": "627c08c6d48e243be1f61b14a3e10e10", "is_disabled": 0}, {"is_reserved": 0, "fusion_lon": 0.0, "lon": -77.04262633333333, "fusion_lat": 0.0, "rental_uris": {"ios": "https://dc.lft.to/lastmile_qr_scan", "android": "https://dc.lft.to/lastmile_qr_scan"}, "bike_id": "d5107840cd425cc3fbd674f49859e4cd", "lat": 38.907118, "type": "electric_scooter", "name": "d5107840cd425cc3fbd674f49859e4cd", "is_disabled": 0}, {"is_reserved": 0, "fusion_lon": 0.0, "lon": -77.04196283333333, "fusion_lat": 0.0, "rental_uris": {"ios": "https://dc.lft.to/lastmile_qr_scan", "android": "https://dc.lft.to/lastmile_qr_scan"}, "bike_id": "397c9bdde7fe28b7218440eb10e3d5c0", "lat": 38.892199833333336, "type": "electric_scooter", "name": "397c9bdde7fe28b7218440eb10e3d5c0", "is_disabled": 0}, {"is_reserved": 0, "fusion_lon": 0.0, "lon": -77.02739366666667, "fusion_lat": 0.0, "rental_uris": {"ios": "https://dc.lft.to/lastmile_qr_scan", "android": "https://dc.lft.to/lastmile_qr_scan"}, "bike_id": "5f8a2d8f058cd0b162f2b4e391b00c84", "lat": 38.9276455, "type": "electric_scooter", "name": "5f8a2d8f058cd0b162f2b4e391b00c84", "is_disabled": 0}, {"is_reserved": 0, "fusion_lon": 0.0, "lon": -77.02845466666666, "fusion_lat": 0.0, "rental_uris": {"ios": "https://dc.lft.to/lastmile_qr_scan", "android": "https://dc.lft.to/lastmile_qr_scan"}, "bike_id": "f46136974a2c3374684c653ecdf07644", "lat": 38.8983225, "type": "electric_scooter", "name": "f46136974a2c3374684c653ecdf07644", "is_disabled": 0}, {"is_reserved": 0, "fusion_lon": 0.0, "lon": -77.02486466666667, "fusion_lat": 0.0, "rental_uris": {"ios": "https://dc.lft.to/lastmile_qr_scan", "android": "https://dc.lft.to/lastmile_qr_scan"}, "bike_id": "1ab16180475cb645aa61ec6b55e86342", "lat": 38.8802075, "type": "electric_scooter", "name": "1ab16180475cb645aa61ec6b55e86342", "is_disabled": 0}, {"is_reserved": 0, "fusion_lon": 0.0, "lon": -77.01409966666667, "fusion_lat": 0.0, "rental_uris": {"ios": "https://dc.lft.to/lastmile_qr_scan", "android": "https://dc.lft.to/lastmile_qr_scan"}, "bike_id": "a5351afafaeac0709ac2b42ccd057d0d", "lat": 38.9284885, "type": "electric_scooter", "name": "a5351afafaeac0709ac2b42ccd057d0d", "is_disabled": 0}, {"is_reserved": 0, "fusion_lon": 0.0, "lon": -77.04395066666666, "fusion_lat": 0.0, "rental_uris": {"ios": "https://dc.lft.to/lastmile_qr_scan", "android": "https://dc.lft.to/lastmile_qr_scan"}, "bike_id": "d812afa6d5bce6eb9ba241210038eedc", "lat": 38.90884583333333, "type": "electric_scooter", "name": "d812afa6d5bce6eb9ba241210038eedc", "is_disabled": 0}, {"is_reserved": 0, "fusion_lon": 0.0, "lon": -77.02571466666667, "fusion_lat": 0.0, "rental_uris": {"ios": "https://dc.lft.to/lastmile_qr_scan", "android": "https://dc.lft.to/lastmile_qr_scan"}, "bike_id": "e85a1f084279c2410bf0ed16e9f8c392", "lat": 38.935575666666665, "type": "electric_scooter", "name": "e85a1f084279c2410bf0ed16e9f8c392", "is_disabled": 0}, {"is_reserved": 0, "fusion_lon": 0.0, "lon": -77.01972916666666, "fusion_lat": 0.0, "rental_uris": {"ios": "https://dc.lft.to/lastmile_qr_scan", "android": "https://dc.lft.to/lastmile_qr_scan"}, "bike_id": "795f82cb0f64d9a790e6adf4338736ba", "lat": 38.88379466666667, "type": "electric_bike", "name": "795f82cb0f64d9a790e6adf4338736ba", "is_disabled": 0}, {"is_reserved": 0, "fusion_lon": 0.0, "lon": -77.03389366666667, "fusion_lat": 0.0, "rental_uris": {"ios": "https://dc.lft.to/lastmile_qr_scan", "android": "https://dc.lft.to/lastmile_qr_scan"}, "bike_id": "642d9026ebf3f65281c3ddc844958330", "lat": 38.920510666666665, "type": "electric_scooter", "name": "642d9026ebf3f65281c3ddc844958330", "is_disabled": 0}, {"is_reserved": 0, "fusion_lon": 0.0, "lon": -77.01907633333333, "fusion_lat": 0.0, "rental_uris": {"ios": "https://dc.lft.to/lastmile_qr_scan", "android": "https://dc.lft.to/lastmile_qr_scan"}, "bike_id": "9ee5ddbe82ef3fcdae46a31cd7bafa76", "lat": 38.9236715, "type": "electric_scooter", "name": "9ee5ddbe82ef3fcdae46a31cd7bafa76", "is_disabled": 0}, {"is_reserved": 0, "fusion_lon": 0.0, "lon": -77.0244355, "fusion_lat": 0.0, "rental_uris": {"ios": "https://dc.lft.to/lastmile_qr_scan", "android": "https://dc.lft.to/lastmile_qr_scan"}, "bike_id": "78539906878dc9ff053f38408468b151", "lat": 38.91158016666667, "type": "electric_scooter", "name": "78539906878dc9ff053f38408468b151", "is_disabled": 0}, {"is_reserved": 0, "fusion_lon": 0.0, "lon": -76.9801265, "fusion_lat": 0.0, "rental_uris": {"ios": "https://dc.lft.to/lastmile_qr_scan", "android": "https://dc.lft.to/lastmile_qr_scan"}, "bike_id": "dc9e68df0c4c09ffa8d69c334176e441", "lat": 38.84704283333333, "type": "electric_scooter", "name": "dc9e68df0c4c09ffa8d69c334176e441", "is_disabled": 0}, {"is_reserved": 0, "fusion_lon": 0.0, "lon": -77.03358983333334, "fusion_lat": 0.0, "rental_uris": {"ios": "https://dc.lft.to/lastmile_qr_scan", "android": "https://dc.lft.to/lastmile_qr_scan"}, "bike_id": "f282695c7d63e5cb1fdd224161d234e3", "lat": 38.907243333333334, "type": "electric_scooter", "name": "f282695c7d63e5cb1fdd224161d234e3", "is_disabled": 0}, {"is_reserved": 0, "fusion_lon": 0.0, "lon": -76.98904016666667, "fusion_lat": 0.0, "rental_uris": {"ios": "https://dc.lft.to/lastmile_qr_scan", "android": "https://dc.lft.to/lastmile_qr_scan"}, "bike_id": "79b71d9840deaef4ff1de0b5099038a7", "lat": 38.90027033333333, "type": "electric_scooter", "name": "79b71d9840deaef4ff1de0b5099038a7", "is_disabled": 0}, {"is_reserved": 0, "fusion_lon": 0.0, "lon": -77.024628, "fusion_lat": 0.0, "rental_uris": {"ios": "https://dc.lft.to/lastmile_qr_scan", "android": "https://dc.lft.to/lastmile_qr_scan"}, "bike_id": "1b9633d472ec6e56ec949f0b56551ca5", "lat": 38.9169245, "type": "electric_scooter", "name": "1b9633d472ec6e56ec949f0b56551ca5", "is_disabled": 0}, {"is_reserved": 0, "fusion_lon": 0.0, "lon": -77.03217483333333, "fusion_lat": 0.0, "rental_uris": {"ios": "https://dc.lft.to/lastmile_qr_scan", "android": "https://dc.lft.to/lastmile_qr_scan"}, "bike_id": "dd127e360f17124c7eef0201005934a7", "lat": 38.927846833333334, "type": "electric_scooter", "name": "dd127e360f17124c7eef0201005934a7", "is_disabled": 0}, {"is_reserved": 0, "fusion_lon": 0.0, "lon": -77.03611283333333, "fusion_lat": 0.0, "rental_uris": {"ios": "https://dc.lft.to/lastmile_qr_scan", "android": "https://dc.lft.to/lastmile_qr_scan"}, "bike_id": "63f9f431b86a925fad133f4a9b45c700", "lat": 38.923306833333335, "type": "electric_scooter", "name": "63f9f431b86a925fad133f4a9b45c700", "is_disabled": 0}, {"is_reserved": 0, "fusion_lon": 0.0, "lon": -77.04579566666666, "fusion_lat": 0.0, "rental_uris": {"ios": "https://dc.lft.to/lastmile_qr_scan", "android": "https://dc.lft.to/lastmile_qr_scan"}, "bike_id": "b11b388353cb054210a16ee0d918719d", "lat": 38.92127766666667, "type": "electric_scooter", "name": "b11b388353cb054210a16ee0d918719d", "is_disabled": 0}, {"is_reserved": 0, "fusion_lon": 0.0, "lon": -77.02738133333334, "fusion_lat": 0.0, "rental_uris": {"ios": "https://dc.lft.to/lastmile_qr_scan", "android": "https://dc.lft.to/lastmile_qr_scan"}, "bike_id": "769e228587702f19ac7929403a9472e2", "lat": 38.9308305, "type": "electric_scooter", "name": "769e228587702f19ac7929403a9472e2", "is_disabled": 0}, {"is_reserved": 0, "fusion_lon": 0.0, "lon": -77.04000516666666, "fusion_lat": 0.0, "rental_uris": {"ios": "https://dc.lft.to/lastmile_qr_scan", "android": "https://dc.lft.to/lastmile_qr_scan"}, "bike_id": "dac2a46e516ec74ba7992df10efd9502", "lat": 38.896347166666665, "type": "electric_scooter", "name": "dac2a46e516ec74ba7992df10efd9502", "is_disabled": 0}, {"is_reserved": 0, "fusion_lon": 0.0, "lon": -77.039458, "fusion_lat": 0.0, "rental_uris": {"ios": "https://dc.lft.to/lastmile_qr_scan", "android": "https://dc.lft.to/lastmile_qr_scan"}, "bike_id": "4f5f310e0659a80c7e708b42c5a9ce01", "lat": 38.92473533333333, "type": "electric_scooter", "name": "4f5f310e0659a80c7e708b42c5a9ce01", "is_disabled": 0}, {"is_reserved": 0, "fusion_lon": 0.0, "lon": -77.02910816666666, "fusion_lat": 0.0, "rental_uris": {"ios": "https://dc.lft.to/lastmile_qr_scan", "android": "https://dc.lft.to/lastmile_qr_scan"}, "bike_id": "ecb8049ad60b4051e795a71f4398a838", "lat": 38.9171215, "type": "electric_scooter", "name": "ecb8049ad60b4051e795a71f4398a838", "is_disabled": 0}, {"is_reserved": 0, "fusion_lon": 0.0, "lon": -77.034277, "fusion_lat": 0.0, "rental_uris": {"ios": "https://dc.lft.to/lastmile_qr_scan", "android": "https://dc.lft.to/lastmile_qr_scan"}, "bike_id": "19c727391708cc407fd8bfa7267cebc3", "lat": 38.919133, "type": "electric_scooter", "name": "19c727391708cc407fd8bfa7267cebc3", "is_disabled": 0}, {"is_reserved": 0, "fusion_lon": 0.0, "lon": -77.03652216666667, "fusion_lat": 0.0, "rental_uris": {"ios": "https://dc.lft.to/lastmile_qr_scan", "android": "https://dc.lft.to/lastmile_qr_scan"}, "bike_id": "8f8b2c03cb80bde28b44fb36d5f2135e", "lat": 38.920321, "type": "electric_scooter", "name": "8f8b2c03cb80bde28b44fb36d5f2135e", "is_disabled": 0}, {"is_reserved": 0, "fusion_lon": 0.0, "lon": -77.02377333333334, "fusion_lat": 0.0, "rental_uris": {"ios": "https://dc.lft.to/lastmile_qr_scan", "android": "https://dc.lft.to/lastmile_qr_scan"}, "bike_id": "22fbae6132409aed30ee3df26a4e8f11", "lat": 38.90723583333333, "type": "electric_scooter", "name": "22fbae6132409aed30ee3df26a4e8f11", "is_disabled": 0}, {"is_reserved": 0, "fusion_lon": 0.0, "lon": -77.02573816666667, "fusion_lat": 0.0, "rental_uris": {"ios": "https://dc.lft.to/lastmile_qr_scan", "android": "https://dc.lft.to/lastmile_qr_scan"}, "bike_id": "b00e4700c51fe1afe23e92eafb3713e7", "lat": 38.99692066666667, "type": "electric_bike", "name": "b00e4700c51fe1afe23e92eafb3713e7", "is_disabled": 0}, {"is_reserved": 0, "fusion_lon": 0.0, "lon": -77.03915966666666, "fusion_lat": 0.0, "rental_uris": {"ios": "https://dc.lft.to/lastmile_qr_scan", "android": "https://dc.lft.to/lastmile_qr_scan"}, "bike_id": "c93e38e9e47f8d7ba905a4ad2bc26187", "lat": 38.9082305, "type": "electric_scooter", "name": "c93e38e9e47f8d7ba905a4ad2bc26187", "is_disabled": 0}, {"is_reserved": 0, "fusion_lon": 0.0, "lon": -77.01842416666666, "fusion_lat": 0.0, "rental_uris": {"ios": "https://dc.lft.to/lastmile_qr_scan", "android": "https://dc.lft.to/lastmile_qr_scan"}, "bike_id": "555888be022af5116bd024f4717a8e24", "lat": 38.902494, "type": "electric_scooter", "name": "555888be022af5116bd024f4717a8e24", "is_disabled": 0}, {"is_reserved": 0, "fusion_lon": 0.0, "lon": -77.0388815, "fusion_lat": 0.0, "rental_uris": {"ios": "https://dc.lft.to/lastmile_qr_scan", "android": "https://dc.lft.to/lastmile_qr_scan"}, "bike_id": "34a0ae018186c469b94a0925ce6d7fd1", "lat": 38.90271466666667, "type": "electric_scooter", "name": "34a0ae018186c469b94a0925ce6d7fd1", "is_disabled": 0}, {"is_reserved": 0, "fusion_lon": 0.0, "lon": -77.07074383333334, "fusion_lat": 0.0, "rental_uris": {"ios": "https://dc.lft.to/lastmile_qr_scan", "android": "https://dc.lft.to/lastmile_qr_scan"}, "bike_id": "269dcec1f5cd7672ab88bcacb766f2f8", "lat": 38.89640683333333, "type": "electric_scooter", "name": "269dcec1f5cd7672ab88bcacb766f2f8", "is_disabled": 0}, {"is_reserved": 0, "fusion_lon": 0.0, "lon": -77.00585216666667, "fusion_lat": 0.0, "rental_uris": {"ios": "https://dc.lft.to/lastmile_qr_scan", "android": "https://dc.lft.to/lastmile_qr_scan"}, "bike_id": "4a142178bee5c5c8985b1374404191e2", "lat": 38.87571416666667, "type": "electric_scooter", "name": "4a142178bee5c5c8985b1374404191e2", "is_disabled": 0}, {"is_reserved": 0, "fusion_lon": 0.0, "lon": -77.03455883333334, "fusion_lat": 0.0, "rental_uris": {"ios": "https://dc.lft.to/lastmile_qr_scan", "android": "https://dc.lft.to/lastmile_qr_scan"}, "bike_id": "d9bd66ada0b6eea6e824c0fa239b73b0", "lat": 38.901740833333335, "type": "electric_scooter", "name": "d9bd66ada0b6eea6e824c0fa239b73b0", "is_disabled": 0}, {"is_reserved": 0, "fusion_lon": 0.0, "lon": -77.01269816666667, "fusion_lat": 0.0, "rental_uris": {"ios": "https://dc.lft.to/lastmile_qr_scan", "android": "https://dc.lft.to/lastmile_qr_scan"}, "bike_id": "466e72e99b2b272414c3d96176427eba", "lat": 38.864564, "type": "electric_bike", "name": "466e72e99b2b272414c3d96176427eba", "is_disabled": 0}, {"is_reserved": 0, "fusion_lon": 0.0, "lon": -77.02367533333333, "fusion_lat": 0.0, "rental_uris": {"ios": "https://dc.lft.to/lastmile_qr_scan", "android": "https://dc.lft.to/lastmile_qr_scan"}, "bike_id": "cce9d7ea5bca6df1c4e0b92125f775cd", "lat": 38.93529616666667, "type": "electric_scooter", "name": "cce9d7ea5bca6df1c4e0b92125f775cd", "is_disabled": 0}, {"is_reserved": 0, "fusion_lon": 0.0, "lon": -77.07280783333333, "fusion_lat": 0.0, "rental_uris": {"ios": "https://dc.lft.to/lastmile_qr_scan", "android": "https://dc.lft.to/lastmile_qr_scan"}, "bike_id": "02d7246428a98ba33ae9712859a618b6", "lat": 38.93471916666667, "type": "electric_scooter", "name": "02d7246428a98ba33ae9712859a618b6", "is_disabled": 0}, {"is_reserved": 0, "fusion_lon": 0.0, "lon": -77.02170216666667, "fusion_lat": 0.0, "rental_uris": {"ios": "https://dc.lft.to/lastmile_qr_scan", "android": "https://dc.lft.to/lastmile_qr_scan"}, "bike_id": "a5615e7651cb76f53a349b1ae33ca963", "lat": 38.94288016666667, "type": "electric_scooter", "name": "a5615e7651cb76f53a349b1ae33ca963", "is_disabled": 0}, {"is_reserved": 0, "fusion_lon": 0.0, "lon": -76.98718583333333, "fusion_lat": 0.0, "rental_uris": {"ios": "https://dc.lft.to/lastmile_qr_scan", "android": "https://dc.lft.to/lastmile_qr_scan"}, "bike_id": "12712f4da38ed472b7f40e21a40d7a04", "lat": 38.8662275, "type": "electric_scooter", "name": "12712f4da38ed472b7f40e21a40d7a04", "is_disabled": 0}, {"is_reserved": 0, "fusion_lon": 0.0, "lon": -77.0328465, "fusion_lat": 0.0, "rental_uris": {"ios": "https://dc.lft.to/lastmile_qr_scan", "android": "https://dc.lft.to/lastmile_qr_scan"}, "bike_id": "8d0698cffd5e89adec82d99a583267e3", "lat": 38.9481225, "type": "electric_scooter", "name": "8d0698cffd5e89adec82d99a583267e3", "is_disabled": 0}, {"is_reserved": 0, "fusion_lon": 0.0, "lon": -76.95758033333334, "fusion_lat": 0.0, "rental_uris": {"ios": "https://dc.lft.to/lastmile_qr_scan", "android": "https://dc.lft.to/lastmile_qr_scan"}, "bike_id": "00f08337c2a347486e426e938cfc0711", "lat": 38.8842455, "type": "electric_scooter", "name": "00f08337c2a347486e426e938cfc0711", "is_disabled": 0}, {"is_reserved": 0, "fusion_lon": 0.0, "lon": -77.04403083333334, "fusion_lat": 0.0, "rental_uris": {"ios": "https://dc.lft.to/lastmile_qr_scan", "android": "https://dc.lft.to/lastmile_qr_scan"}, "bike_id": "b82541fe0213a15bed9a92a25700c9e0", "lat": 38.932685, "type": "electric_scooter", "name": "b82541fe0213a15bed9a92a25700c9e0", "is_disabled": 0}, {"is_reserved": 0, "fusion_lon": 0.0, "lon": -76.98870183333334, "fusion_lat": 0.0, "rental_uris": {"ios": "https://dc.lft.to/lastmile_qr_scan", "android": "https://dc.lft.to/lastmile_qr_scan"}, "bike_id": "7356d82da7eb3966cd4f2371147f756a", "lat": 38.85771316666667, "type": "electric_scooter", "name": "7356d82da7eb3966cd4f2371147f756a", "is_disabled": 0}, {"is_reserved": 0, "fusion_lon": 0.0, "lon": -77.033007, "fusion_lat": 0.0, "rental_uris": {"ios": "https://dc.lft.to/lastmile_qr_scan", "android": "https://dc.lft.to/lastmile_qr_scan"}, "bike_id": "476924088cc1423a14a4985566718daa", "lat": 38.928624, "type": "electric_scooter", "name": "476924088cc1423a14a4985566718daa", "is_disabled": 0}, {"is_reserved": 0, "fusion_lon": 0.0, "lon": -76.99798, "fusion_lat": 0.0, "rental_uris": {"ios": "https://dc.lft.to/lastmile_qr_scan", "android": "https://dc.lft.to/lastmile_qr_scan"}, "bike_id": "9bf97bbb6dc98f8d860e3353b26835b4", "lat": 38.901297166666666, "type": "electric_scooter", "name": "9bf97bbb6dc98f8d860e3353b26835b4", "is_disabled": 0}, {"is_reserved": 0, "fusion_lon": 0.0, "lon": -77.04361933333334, "fusion_lat": 0.0, "rental_uris": {"ios": "https://dc.lft.to/lastmile_qr_scan", "android": "https://dc.lft.to/lastmile_qr_scan"}, "bike_id": "deddd68d66d12bc10431f7c83e9db6c5", "lat": 38.904301833333335, "type": "electric_scooter", "name": "deddd68d66d12bc10431f7c83e9db6c5", "is_disabled": 0}, {"is_reserved": 0, "fusion_lon": 0.0, "lon": -77.02398316666667, "fusion_lat": 0.0, "rental_uris": {"ios": "https://dc.lft.to/lastmile_qr_scan", "android": "https://dc.lft.to/lastmile_qr_scan"}, "bike_id": "7072248ec5142bb36569ccd9d2c7378e", "lat": 38.919899666666666, "type": "electric_scooter", "name": "7072248ec5142bb36569ccd9d2c7378e", "is_disabled": 0}, {"is_reserved": 0, "fusion_lon": 0.0, "lon": -76.99534116666666, "fusion_lat": 0.0, "rental_uris": {"ios": "https://dc.lft.to/lastmile_qr_scan", "android": "https://dc.lft.to/lastmile_qr_scan"}, "bike_id": "e4d62294a22a7d7255b32df0383c5374", "lat": 38.92667183333333, "type": "electric_scooter", "name": "e4d62294a22a7d7255b32df0383c5374", "is_disabled": 0}, {"is_reserved": 0, "fusion_lon": 0.0, "lon": -77.01777033333333, "fusion_lat": 0.0, "rental_uris": {"ios": "https://dc.lft.to/lastmile_qr_scan", "android": "https://dc.lft.to/lastmile_qr_scan"}, "bike_id": "88b3e68672394c7371dea2bc1137640c", "lat": 38.8772465, "type": "electric_scooter", "name": "88b3e68672394c7371dea2bc1137640c", "is_disabled": 0}, {"is_reserved": 0, "fusion_lon": 0.0, "lon": -77.02510866666667, "fusion_lat": 0.0, "rental_uris": {"ios": "https://dc.lft.to/lastmile_qr_scan", "android": "https://dc.lft.to/lastmile_qr_scan"}, "bike_id": "c7a47a57890accb3922bbc89f1db4a90", "lat": 38.91806616666667, "type": "electric_scooter", "name": "c7a47a57890accb3922bbc89f1db4a90", "is_disabled": 0}, {"is_reserved": 0, "fusion_lon": 0.0, "lon": -77.05004866666667, "fusion_lat": 0.0, "rental_uris": {"ios": "https://dc.lft.to/lastmile_qr_scan", "android": "https://dc.lft.to/lastmile_qr_scan"}, "bike_id": "1f42d5f743bb44e4292a987a6d743ee9", "lat": 38.89232366666667, "type": "electric_scooter", "name": "1f42d5f743bb44e4292a987a6d743ee9", "is_disabled": 0}, {"is_reserved": 0, "fusion_lon": 0.0, "lon": -77.02216733333333, "fusion_lat": 0.0, "rental_uris": {"ios": "https://dc.lft.to/lastmile_qr_scan", "android": "https://dc.lft.to/lastmile_qr_scan"}, "bike_id": "cea1b51c20ad5982bd6700e56abbf0c9", "lat": 38.92453016666666, "type": "electric_scooter", "name": "cea1b51c20ad5982bd6700e56abbf0c9", "is_disabled": 0}, {"is_reserved": 0, "fusion_lon": 0.0, "lon": -76.95582183333333, "fusion_lat": 0.0, "rental_uris": {"ios": "https://dc.lft.to/lastmile_qr_scan", "android": "https://dc.lft.to/lastmile_qr_scan"}, "bike_id": "883ac20ca327bd68e0b00d45a33222be", "lat": 38.886168166666664, "type": "electric_scooter", "name": "883ac20ca327bd68e0b00d45a33222be", "is_disabled": 0}, {"is_reserved": 0, "fusion_lon": 0.0, "lon": -77.0469445, "fusion_lat": 0.0, "rental_uris": {"ios": "https://dc.lft.to/lastmile_qr_scan", "android": "https://dc.lft.to/lastmile_qr_scan"}, "bike_id": "8c8f9a0526a0050a90f01722c189960d", "lat": 38.892231, "type": "electric_scooter", "name": "8c8f9a0526a0050a90f01722c189960d", "is_disabled": 0}, {"is_reserved": 0, "fusion_lon": 0.0, "lon": -76.99607183333333, "fusion_lat": 0.0, "rental_uris": {"ios": "https://dc.lft.to/lastmile_qr_scan", "android": "https://dc.lft.to/lastmile_qr_scan"}, "bike_id": "e44da0482f9c32b3ec98a2cfc996f514", "lat": 38.89094133333333, "type": "electric_scooter", "name": "e44da0482f9c32b3ec98a2cfc996f514", "is_disabled": 0}, {"is_reserved": 0, "fusion_lon": 0.0, "lon": -77.04483733333333, "fusion_lat": 0.0, "rental_uris": {"ios": "https://dc.lft.to/lastmile_qr_scan", "android": "https://dc.lft.to/lastmile_qr_scan"}, "bike_id": "7abeca5cf2d2fdf4768023c4e4715e1a", "lat": 38.895203, "type": "electric_scooter", "name": "7abeca5cf2d2fdf4768023c4e4715e1a", "is_disabled": 0}, {"is_reserved": 0, "fusion_lon": 0.0, "lon": -77.04046933333333, "fusion_lat": 0.0, "rental_uris": {"ios": "https://dc.lft.to/lastmile_qr_scan", "android": "https://dc.lft.to/lastmile_qr_scan"}, "bike_id": "294fe41f0732944d5b059c6accffb8fa", "lat": 38.901394, "type": "electric_scooter", "name": "294fe41f0732944d5b059c6accffb8fa", "is_disabled": 0}, {"is_reserved": 0, "fusion_lon": 0.0, "lon": -77.034612, "fusion_lat": 0.0, "rental_uris": {"ios": "https://dc.lft.to/lastmile_qr_scan", "android": "https://dc.lft.to/lastmile_qr_scan"}, "bike_id": "69f1b5f99fb6b60573cd70e72654b398", "lat": 38.9181195, "type": "electric_scooter", "name": "69f1b5f99fb6b60573cd70e72654b398", "is_disabled": 0}, {"is_reserved": 0, "fusion_lon": 0.0, "lon": -77.01465633333333, "fusion_lat": 0.0, "rental_uris": {"ios": "https://dc.lft.to/lastmile_qr_scan", "android": "https://dc.lft.to/lastmile_qr_scan"}, "bike_id": "db3e235c1b25f767abeea89b610f26e8", "lat": 38.926663833333336, "type": "electric_scooter", "name": "db3e235c1b25f767abeea89b610f26e8", "is_disabled": 0}, {"is_reserved": 0, "fusion_lon": 0.0, "lon": -77.04715816666666, "fusion_lat": 0.0, "rental_uris": {"ios": "https://dc.lft.to/lastmile_qr_scan", "android": "https://dc.lft.to/lastmile_qr_scan"}, "bike_id": "18b7e650fb5b83e89c9232f098532fa8", "lat": 38.902188, "type": "electric_scooter", "name": "18b7e650fb5b83e89c9232f098532fa8", "is_disabled": 0}, {"is_reserved": 0, "fusion_lon": 0.0, "lon": -77.00417216666666, "fusion_lat": 0.0, "rental_uris": {"ios": "https://dc.lft.to/lastmile_qr_scan", "android": "https://dc.lft.to/lastmile_qr_scan"}, "bike_id": "5bba3e9ee666455dbb9822fa4366a427", "lat": 38.87717383333333, "type": "electric_scooter", "name": "5bba3e9ee666455dbb9822fa4366a427", "is_disabled": 0}, {"is_reserved": 0, "fusion_lon": 0.0, "lon": -77.0715445, "fusion_lat": 0.0, "rental_uris": {"ios": "https://dc.lft.to/lastmile_qr_scan", "android": "https://dc.lft.to/lastmile_qr_scan"}, "bike_id": "54ce2b468bdced5f0291cabad308c41a", "lat": 38.908699, "type": "electric_scooter", "name": "54ce2b468bdced5f0291cabad308c41a", "is_disabled": 0}, {"is_reserved": 0, "fusion_lon": 0.0, "lon": -77.02609716666667, "fusion_lat": 0.0, "rental_uris": {"ios": "https://dc.lft.to/lastmile_qr_scan", "android": "https://dc.lft.to/lastmile_qr_scan"}, "bike_id": "884a2c615b50be4139672de1c98a4803", "lat": 38.900277833333334, "type": "electric_scooter", "name": "884a2c615b50be4139672de1c98a4803", "is_disabled": 0}, {"is_reserved": 0, "fusion_lon": 0.0, "lon": -76.97398733333333, "fusion_lat": 0.0, "rental_uris": {"ios": "https://dc.lft.to/lastmile_qr_scan", "android": "https://dc.lft.to/lastmile_qr_scan"}, "bike_id": "05bc2d2e321797680f132c17ad084977", "lat": 38.84524666666667, "type": "electric_bike", "name": "05bc2d2e321797680f132c17ad084977", "is_disabled": 0}, {"is_reserved": 0, "fusion_lon": 0.0, "lon": -76.9993125, "fusion_lat": 0.0, "rental_uris": {"ios": "https://dc.lft.to/lastmile_qr_scan", "android": "https://dc.lft.to/lastmile_qr_scan"}, "bike_id": "18490bc4cd339213c3aceb5f453b5a00", "lat": 38.908318, "type": "electric_scooter", "name": "18490bc4cd339213c3aceb5f453b5a00", "is_disabled": 0}, {"is_reserved": 0, "fusion_lon": 0.0, "lon": -77.0480675, "fusion_lat": 0.0, "rental_uris": {"ios": "https://dc.lft.to/lastmile_qr_scan", "android": "https://dc.lft.to/lastmile_qr_scan"}, "bike_id": "029c0413ca7a542f98ca2d6262ee6a2b", "lat": 38.91938, "type": "electric_scooter", "name": "029c0413ca7a542f98ca2d6262ee6a2b", "is_disabled": 0}, {"is_reserved": 0, "fusion_lon": 0.0, "lon": -76.94652616666667, "fusion_lat": 0.0, "rental_uris": {"ios": "https://dc.lft.to/lastmile_qr_scan", "android": "https://dc.lft.to/lastmile_qr_scan"}, "bike_id": "517f1a6a1884c9834f2d4d59c11bd878", "lat": 38.8982785, "type": "electric_scooter", "name": "517f1a6a1884c9834f2d4d59c11bd878", "is_disabled": 0}, {"is_reserved": 0, "fusion_lon": 0.0, "lon": -76.97229333333334, "fusion_lat": 0.0, "rental_uris": {"ios": "https://dc.lft.to/lastmile_qr_scan", "android": "https://dc.lft.to/lastmile_qr_scan"}, "bike_id": "6cafc1587e47f34bd76823f2ab631362", "lat": 38.90028083333333, "type": "electric_bike", "name": "6cafc1587e47f34bd76823f2ab631362", "is_disabled": 0}, {"is_reserved": 0, "fusion_lon": 0.0, "lon": -77.04892416666667, "fusion_lat": 0.0, "rental_uris": {"ios": "https://dc.lft.to/lastmile_qr_scan", "android": "https://dc.lft.to/lastmile_qr_scan"}, "bike_id": "574974915ecd4149070fa8a0a21ac31b", "lat": 38.8974915, "type": "electric_scooter", "name": "574974915ecd4149070fa8a0a21ac31b", "is_disabled": 0}, {"is_reserved": 0, "fusion_lon": 0.0, "lon": -77.049052, "fusion_lat": 0.0, "rental_uris": {"ios": "https://dc.lft.to/lastmile_qr_scan", "android": "https://dc.lft.to/lastmile_qr_scan"}, "bike_id": "e51ea7df36613603feac2e0550aba4cd", "lat": 38.90542416666667, "type": "electric_scooter", "name": "e51ea7df36613603feac2e0550aba4cd", "is_disabled": 0}, {"is_reserved": 0, "fusion_lon": 0.0, "lon": -77.03975566666666, "fusion_lat": 0.0, "rental_uris": {"ios": "https://dc.lft.to/lastmile_qr_scan", "android": "https://dc.lft.to/lastmile_qr_scan"}, "bike_id": "decd0c34e890b8008cd35ecf826dad88", "lat": 38.90260416666667, "type": "electric_scooter", "name": "decd0c34e890b8008cd35ecf826dad88", "is_disabled": 0}, {"is_reserved": 0, "fusion_lon": 0.0, "lon": -77.026787, "fusion_lat": 0.0, "rental_uris": {"ios": "https://dc.lft.to/lastmile_qr_scan", "android": "https://dc.lft.to/lastmile_qr_scan"}, "bike_id": "a0009cd28e3fb49152339b3b43578b13", "lat": 38.907188, "type": "electric_scooter", "name": "a0009cd28e3fb49152339b3b43578b13", "is_disabled": 0}, {"is_reserved": 0, "fusion_lon": 0.0, "lon": -77.029047, "fusion_lat": 0.0, "rental_uris": {"ios": "https://dc.lft.to/lastmile_qr_scan", "android": "https://dc.lft.to/lastmile_qr_scan"}, "bike_id": "bb4518126627e78f4f8783d1d7f510da", "lat": 38.93449566666666, "type": "electric_scooter", "name": "bb4518126627e78f4f8783d1d7f510da", "is_disabled": 0}, {"is_reserved": 0, "fusion_lon": 0.0, "lon": -77.06331083333333, "fusion_lat": 0.0, "rental_uris": {"ios": "https://dc.lft.to/lastmile_qr_scan", "android": "https://dc.lft.to/lastmile_qr_scan"}, "bike_id": "84467aa9f8f670a8b4e2d84bac389b20", "lat": 38.92106366666667, "type": "electric_scooter", "name": "84467aa9f8f670a8b4e2d84bac389b20", "is_disabled": 0}, {"is_reserved": 0, "fusion_lon": 0.0, "lon": -77.03190383333333, "fusion_lat": 0.0, "rental_uris": {"ios": "https://dc.lft.to/lastmile_qr_scan", "android": "https://dc.lft.to/lastmile_qr_scan"}, "bike_id": "4c234fa573b73014fb3fbb93502f732e", "lat": 38.893184833333336, "type": "electric_scooter", "name": "4c234fa573b73014fb3fbb93502f732e", "is_disabled": 0}, {"is_reserved": 0, "fusion_lon": 0.0, "lon": -77.06549266666667, "fusion_lat": 0.0, "rental_uris": {"ios": "https://dc.lft.to/lastmile_qr_scan", "android": "https://dc.lft.to/lastmile_qr_scan"}, "bike_id": "36954ab6bcef9612abcc73bfab743152", "lat": 38.90521233333333, "type": "electric_scooter", "name": "36954ab6bcef9612abcc73bfab743152", "is_disabled": 0}, {"is_reserved": 0, "fusion_lon": 0.0, "lon": -77.02049333333333, "fusion_lat": 0.0, "rental_uris": {"ios": "https://dc.lft.to/lastmile_qr_scan", "android": "https://dc.lft.to/lastmile_qr_scan"}, "bike_id": "452ca4fa69e21803a411aa1ceb1d60c3", "lat": 38.92172133333333, "type": "electric_scooter", "name": "452ca4fa69e21803a411aa1ceb1d60c3", "is_disabled": 0}, {"is_reserved": 0, "fusion_lon": 0.0, "lon": -77.04702383333333, "fusion_lat": 0.0, "rental_uris": {"ios": "https://dc.lft.to/lastmile_qr_scan", "android": "https://dc.lft.to/lastmile_qr_scan"}, "bike_id": "ca65930665cd61959535c724681f199b", "lat": 38.921699333333336, "type": "electric_scooter", "name": "ca65930665cd61959535c724681f199b", "is_disabled": 0}, {"is_reserved": 0, "fusion_lon": 0.0, "lon": -77.02219283333334, "fusion_lat": 0.0, "rental_uris": {"ios": "https://dc.lft.to/lastmile_qr_scan", "android": "https://dc.lft.to/lastmile_qr_scan"}, "bike_id": "6ebd1a1190bb266f5803d805d211c5a6", "lat": 38.920646166666664, "type": "electric_scooter", "name": "6ebd1a1190bb266f5803d805d211c5a6", "is_disabled": 0}, {"is_reserved": 0, "fusion_lon": 0.0, "lon": -77.0021735, "fusion_lat": 0.0, "rental_uris": {"ios": "https://dc.lft.to/lastmile_qr_scan", "android": "https://dc.lft.to/lastmile_qr_scan"}, "bike_id": "94ed86a5ffbeeb1b81d2bb9b51991b8b", "lat": 38.90008916666667, "type": "electric_scooter", "name": "94ed86a5ffbeeb1b81d2bb9b51991b8b", "is_disabled": 0}, {"is_reserved": 0, "fusion_lon": 0.0, "lon": -77.02485116666666, "fusion_lat": 0.0, "rental_uris": {"ios": "https://dc.lft.to/lastmile_qr_scan", "android": "https://dc.lft.to/lastmile_qr_scan"}, "bike_id": "b7e87d39acebc7e9463061ef64148df5", "lat": 38.938751333333336, "type": "electric_scooter", "name": "b7e87d39acebc7e9463061ef64148df5", "is_disabled": 0}, {"is_reserved": 0, "fusion_lon": 0.0, "lon": -77.00913966666667, "fusion_lat": 0.0, "rental_uris": {"ios": "https://dc.lft.to/lastmile_qr_scan", "android": "https://dc.lft.to/lastmile_qr_scan"}, "bike_id": "1f8365e8885d671e3e8ad35750ec2d73", "lat": 38.92266766666667, "type": "electric_scooter", "name": "1f8365e8885d671e3e8ad35750ec2d73", "is_disabled": 0}, {"is_reserved": 0, "fusion_lon": 0.0, "lon": -76.949653, "fusion_lat": 0.0, "rental_uris": {"ios": "https://dc.lft.to/lastmile_qr_scan", "android": "https://dc.lft.to/lastmile_qr_scan"}, "bike_id": "26316217e359ab1a782951ea6e88db39", "lat": 38.89464483333333, "type": "electric_scooter", "name": "26316217e359ab1a782951ea6e88db39", "is_disabled": 0}, {"is_reserved": 0, "fusion_lon": 0.0, "lon": -77.01945033333334, "fusion_lat": 0.0, "rental_uris": {"ios": "https://dc.lft.to/lastmile_qr_scan", "android": "https://dc.lft.to/lastmile_qr_scan"}, "bike_id": "3f3a4075ade0fb3a5a56117c3f916bce", "lat": 38.92416683333333, "type": "electric_scooter", "name": "3f3a4075ade0fb3a5a56117c3f916bce", "is_disabled": 0}, {"is_reserved": 0, "fusion_lon": 0.0, "lon": -77.019972, "fusion_lat": 0.0, "rental_uris": {"ios": "https://dc.lft.to/lastmile_qr_scan", "android": "https://dc.lft.to/lastmile_qr_scan"}, "bike_id": "d18500e5287bf4236456dac2b4c89f1b", "lat": 38.915763166666665, "type": "electric_scooter", "name": "d18500e5287bf4236456dac2b4c89f1b", "is_disabled": 0}, {"is_reserved": 0, "fusion_lon": 0.0, "lon": -76.99066083333334, "fusion_lat": 0.0, "rental_uris": {"ios": "https://dc.lft.to/lastmile_qr_scan", "android": "https://dc.lft.to/lastmile_qr_scan"}, "bike_id": "65260b53cf5f52df07bb266cc9fff6fa", "lat": 38.86364616666667, "type": "electric_scooter", "name": "65260b53cf5f52df07bb266cc9fff6fa", "is_disabled": 0}, {"is_reserved": 0, "fusion_lon": 0.0, "lon": -77.0414805, "fusion_lat": 0.0, "rental_uris": {"ios": "https://dc.lft.to/lastmile_qr_scan", "android": "https://dc.lft.to/lastmile_qr_scan"}, "bike_id": "cd576ba0040a27170b1629facbe38633", "lat": 38.91705866666667, "type": "electric_scooter", "name": "cd576ba0040a27170b1629facbe38633", "is_disabled": 0}, {"is_reserved": 0, "fusion_lon": 0.0, "lon": -77.0021095, "fusion_lat": 0.0, "rental_uris": {"ios": "https://dc.lft.to/lastmile_qr_scan", "android": "https://dc.lft.to/lastmile_qr_scan"}, "bike_id": "c54cf96e11be3a139e64208efc46aa3e", "lat": 38.9024645, "type": "electric_scooter", "name": "c54cf96e11be3a139e64208efc46aa3e", "is_disabled": 0}, {"is_reserved": 0, "fusion_lon": 0.0, "lon": -77.03291233333333, "fusion_lat": 0.0, "rental_uris": {"ios": "https://dc.lft.to/lastmile_qr_scan", "android": "https://dc.lft.to/lastmile_qr_scan"}, "bike_id": "69132a6fdbc7f1abd953e7138857e961", "lat": 38.9306805, "type": "electric_bike", "name": "69132a6fdbc7f1abd953e7138857e961", "is_disabled": 0}, {"is_reserved": 0, "fusion_lon": 0.0, "lon": -77.02459683333333, "fusion_lat": 0.0, "rental_uris": {"ios": "https://dc.lft.to/lastmile_qr_scan", "android": "https://dc.lft.to/lastmile_qr_scan"}, "bike_id": "eb5276a4a44916725f0120abc04c2e88", "lat": 38.91701533333333, "type": "electric_scooter", "name": "eb5276a4a44916725f0120abc04c2e88", "is_disabled": 0}, {"is_reserved": 0, "fusion_lon": 0.0, "lon": -76.98715816666666, "fusion_lat": 0.0, "rental_uris": {"ios": "https://dc.lft.to/lastmile_qr_scan", "android": "https://dc.lft.to/lastmile_qr_scan"}, "bike_id": "549e9a2e03f6b71e7af71cb8b46e70cf", "lat": 38.866228, "type": "electric_scooter", "name": "549e9a2e03f6b71e7af71cb8b46e70cf", "is_disabled": 0}, {"is_reserved": 0, "fusion_lon": 0.0, "lon": -77.04003316666666, "fusion_lat": 0.0, "rental_uris": {"ios": "https://dc.lft.to/lastmile_qr_scan", "android": "https://dc.lft.to/lastmile_qr_scan"}, "bike_id": "7bc565a9f3838d4eb2617c7994c31938", "lat": 38.9342745, "type": "electric_scooter", "name": "7bc565a9f3838d4eb2617c7994c31938", "is_disabled": 0}, {"is_reserved": 0, "fusion_lon": 0.0, "lon": -76.9980865, "fusion_lat": 0.0, "rental_uris": {"ios": "https://dc.lft.to/lastmile_qr_scan", "android": "https://dc.lft.to/lastmile_qr_scan"}, "bike_id": "9e84c88405519a34ba27ef8295a66cb9", "lat": 38.81984, "type": "electric_bike", "name": "9e84c88405519a34ba27ef8295a66cb9", "is_disabled": 0}, {"is_reserved": 0, "fusion_lon": 0.0, "lon": -77.03846766666666, "fusion_lat": 0.0, "rental_uris": {"ios": "https://dc.lft.to/lastmile_qr_scan", "android": "https://dc.lft.to/lastmile_qr_scan"}, "bike_id": "8b0b43a41b7e1aa6cd75f3fb564806a6", "lat": 38.9123715, "type": "electric_scooter", "name": "8b0b43a41b7e1aa6cd75f3fb564806a6", "is_disabled": 0}, {"is_reserved": 0, "fusion_lon": 0.0, "lon": -77.023661, "fusion_lat": 0.0, "rental_uris": {"ios": "https://dc.lft.to/lastmile_qr_scan", "android": "https://dc.lft.to/lastmile_qr_scan"}, "bike_id": "727f9ae3890d25795b1e5a36e39e7779", "lat": 38.87924733333333, "type": "electric_bike", "name": "727f9ae3890d25795b1e5a36e39e7779", "is_disabled": 0}, {"is_reserved": 0, "fusion_lon": 0.0, "lon": -76.96683833333333, "fusion_lat": 0.0, "rental_uris": {"ios": "https://dc.lft.to/lastmile_qr_scan", "android": "https://dc.lft.to/lastmile_qr_scan"}, "bike_id": "a4fc43adb0e38cda3ad064162177f7e6", "lat": 38.8559575, "type": "electric_scooter", "name": "a4fc43adb0e38cda3ad064162177f7e6", "is_disabled": 0}, {"is_reserved": 0, "fusion_lon": 0.0, "lon": -77.03202566666667, "fusion_lat": 0.0, "rental_uris": {"ios": "https://dc.lft.to/lastmile_qr_scan", "android": "https://dc.lft.to/lastmile_qr_scan"}, "bike_id": "c2108f1e9dc44177a19ac85ac13cc538", "lat": 38.913418166666666, "type": "electric_scooter", "name": "c2108f1e9dc44177a19ac85ac13cc538", "is_disabled": 0}, {"is_reserved": 0, "fusion_lon": 0.0, "lon": -77.01221016666666, "fusion_lat": 0.0, "rental_uris": {"ios": "https://dc.lft.to/lastmile_qr_scan", "android": "https://dc.lft.to/lastmile_qr_scan"}, "bike_id": "8fa07010a971fb38961da6a282be7fac", "lat": 38.89687966666666, "type": "electric_scooter", "name": "8fa07010a971fb38961da6a282be7fac", "is_disabled": 0}, {"is_reserved": 0, "fusion_lon": 0.0, "lon": -76.9785535, "fusion_lat": 0.0, "rental_uris": {"ios": "https://dc.lft.to/lastmile_qr_scan", "android": "https://dc.lft.to/lastmile_qr_scan"}, "bike_id": "ef92e2b2eca078e9ba6c622dbdbca11c", "lat": 38.844639666666666, "type": "electric_bike", "name": "ef92e2b2eca078e9ba6c622dbdbca11c", "is_disabled": 0}, {"is_reserved": 0, "fusion_lon": 0.0, "lon": -76.995219, "fusion_lat": 0.0, "rental_uris": {"ios": "https://dc.lft.to/lastmile_qr_scan", "android": "https://dc.lft.to/lastmile_qr_scan"}, "bike_id": "0c1c6a8d48439ce5df5b6ca4c91892f7", "lat": 38.879212, "type": "electric_scooter", "name": "0c1c6a8d48439ce5df5b6ca4c91892f7", "is_disabled": 0}, {"is_reserved": 0, "fusion_lon": 0.0, "lon": -77.026216, "fusion_lat": 0.0, "rental_uris": {"ios": "https://dc.lft.to/lastmile_qr_scan", "android": "https://dc.lft.to/lastmile_qr_scan"}, "bike_id": "b9f7c030b1b108bc2f6670ca7950045e", "lat": 38.900214166666665, "type": "electric_scooter", "name": "b9f7c030b1b108bc2f6670ca7950045e", "is_disabled": 0}, {"is_reserved": 0, "fusion_lon": 0.0, "lon": -77.02292683333333, "fusion_lat": 0.0, "rental_uris": {"ios": "https://dc.lft.to/lastmile_qr_scan", "android": "https://dc.lft.to/lastmile_qr_scan"}, "bike_id": "7e0902870bcddf18ac10bc5f201bc99d", "lat": 38.89730766666667, "type": "electric_scooter", "name": "7e0902870bcddf18ac10bc5f201bc99d", "is_disabled": 0}, {"is_reserved": 0, "fusion_lon": 0.0, "lon": -77.00350016666667, "fusion_lat": 0.0, "rental_uris": {"ios": "https://dc.lft.to/lastmile_qr_scan", "android": "https://dc.lft.to/lastmile_qr_scan"}, "bike_id": "0f95904f6ccbd0cc5109482f0c38dbc4", "lat": 38.89456083333334, "type": "electric_scooter", "name": "0f95904f6ccbd0cc5109482f0c38dbc4", "is_disabled": 0}, {"is_reserved": 0, "fusion_lon": 0.0, "lon": -77.030249, "fusion_lat": 0.0, "rental_uris": {"ios": "https://dc.lft.to/lastmile_qr_scan", "android": "https://dc.lft.to/lastmile_qr_scan"}, "bike_id": "99c2ba4df5d0da5c25e05ec1329d89e6", "lat": 38.931079, "type": "electric_scooter", "name": "99c2ba4df5d0da5c25e05ec1329d89e6", "is_disabled": 0}, {"is_reserved": 0, "fusion_lon": 0.0, "lon": -77.0229505, "fusion_lat": 0.0, "rental_uris": {"ios": "https://dc.lft.to/lastmile_qr_scan", "android": "https://dc.lft.to/lastmile_qr_scan"}, "bike_id": "773bd4618748b7adb03be8be02be43b2", "lat": 38.89512366666666, "type": "electric_scooter", "name": "773bd4618748b7adb03be8be02be43b2", "is_disabled": 0}, {"is_reserved": 0, "fusion_lon": 0.0, "lon": -77.00890366666667, "fusion_lat": 0.0, "rental_uris": {"ios": "https://dc.lft.to/lastmile_qr_scan", "android": "https://dc.lft.to/lastmile_qr_scan"}, "bike_id": "5133ea675ad1b3758a1cb653a3dad2d4", "lat": 38.884989166666664, "type": "electric_scooter", "name": "5133ea675ad1b3758a1cb653a3dad2d4", "is_disabled": 0}, {"is_reserved": 0, "fusion_lon": 0.0, "lon": -77.00205116666666, "fusion_lat": 0.0, "rental_uris": {"ios": "https://dc.lft.to/lastmile_qr_scan", "android": "https://dc.lft.to/lastmile_qr_scan"}, "bike_id": "c3ee6bdea53f56f2262fbad4ee71eb30", "lat": 38.88763983333333, "type": "electric_scooter", "name": "c3ee6bdea53f56f2262fbad4ee71eb30", "is_disabled": 0}, {"is_reserved": 0, "fusion_lon": 0.0, "lon": -77.063498, "fusion_lat": 0.0, "rental_uris": {"ios": "https://dc.lft.to/lastmile_qr_scan", "android": "https://dc.lft.to/lastmile_qr_scan"}, "bike_id": "dfef7dcaae9a80b4f41c8e8b0480cb5b", "lat": 38.9444295, "type": "electric_scooter", "name": "dfef7dcaae9a80b4f41c8e8b0480cb5b", "is_disabled": 0}, {"is_reserved": 0, "fusion_lon": 0.0, "lon": -77.02557216666666, "fusion_lat": 0.0, "rental_uris": {"ios": "https://dc.lft.to/lastmile_qr_scan", "android": "https://dc.lft.to/lastmile_qr_scan"}, "bike_id": "8bc024b6b676857b221002aaac0cdc97", "lat": 38.91629283333333, "type": "electric_scooter", "name": "8bc024b6b676857b221002aaac0cdc97", "is_disabled": 0}, {"is_reserved": 0, "fusion_lon": 0.0, "lon": -77.0483815, "fusion_lat": 0.0, "rental_uris": {"ios": "https://dc.lft.to/lastmile_qr_scan", "android": "https://dc.lft.to/lastmile_qr_scan"}, "bike_id": "c1f39c86e5dc775c013eed2f8882182a", "lat": 38.9149075, "type": "electric_scooter", "name": "c1f39c86e5dc775c013eed2f8882182a", "is_disabled": 0}, {"is_reserved": 0, "fusion_lon": 0.0, "lon": -77.08592916666667, "fusion_lat": 0.0, "rental_uris": {"ios": "https://dc.lft.to/lastmile_qr_scan", "android": "https://dc.lft.to/lastmile_qr_scan"}, "bike_id": "6fbec465bb0e2db38b1c3271384c5e1e", "lat": 38.93835816666667, "type": "electric_bike", "name": "6fbec465bb0e2db38b1c3271384c5e1e", "is_disabled": 0}, {"is_reserved": 0, "fusion_lon": 0.0, "lon": -77.015003, "fusion_lat": 0.0, "rental_uris": {"ios": "https://dc.lft.to/lastmile_qr_scan", "android": "https://dc.lft.to/lastmile_qr_scan"}, "bike_id": "04a483a4abcf0f1074ece1fc60a0d08c", "lat": 38.917621, "type": "electric_scooter", "name": "04a483a4abcf0f1074ece1fc60a0d08c", "is_disabled": 0}, {"is_reserved": 0, "fusion_lon": 0.0, "lon": -77.1293365, "fusion_lat": 0.0, "rental_uris": {"ios": "https://dc.lft.to/lastmile_qr_scan", "android": "https://dc.lft.to/lastmile_qr_scan"}, "bike_id": "b083da5a382d4dfbf682fb1de84e08a0", "lat": 38.86518366666667, "type": "electric_bike", "name": "b083da5a382d4dfbf682fb1de84e08a0", "is_disabled": 0}, {"is_reserved": 0, "fusion_lon": 0.0, "lon": -77.048432, "fusion_lat": 0.0, "rental_uris": {"ios": "https://dc.lft.to/lastmile_qr_scan", "android": "https://dc.lft.to/lastmile_qr_scan"}, "bike_id": "ff46426a6cfdb7e30c6adf8915ced613", "lat": 38.912647, "type": "electric_scooter", "name": "ff46426a6cfdb7e30c6adf8915ced613", "is_disabled": 0}, {"is_reserved": 0, "fusion_lon": 0.0, "lon": -76.94940233333334, "fusion_lat": 0.0, "rental_uris": {"ios": "https://dc.lft.to/lastmile_qr_scan", "android": "https://dc.lft.to/lastmile_qr_scan"}, "bike_id": "4572bd9f6bf951c36fffb929f5f380ea", "lat": 38.89344283333333, "type": "electric_scooter", "name": "4572bd9f6bf951c36fffb929f5f380ea", "is_disabled": 0}, {"is_reserved": 0, "fusion_lon": 0.0, "lon": -77.03707466666667, "fusion_lat": 0.0, "rental_uris": {"ios": "https://dc.lft.to/lastmile_qr_scan", "android": "https://dc.lft.to/lastmile_qr_scan"}, "bike_id": "97add0894d3225096aca34a4bdee4903", "lat": 38.9263245, "type": "electric_scooter", "name": "97add0894d3225096aca34a4bdee4903", "is_disabled": 0}, {"is_reserved": 0, "fusion_lon": 0.0, "lon": -77.03394033333333, "fusion_lat": 0.0, "rental_uris": {"ios": "https://dc.lft.to/lastmile_qr_scan", "android": "https://dc.lft.to/lastmile_qr_scan"}, "bike_id": "37e0f5625f89898ef79d5eec155839f6", "lat": 38.920484333333334, "type": "electric_scooter", "name": "37e0f5625f89898ef79d5eec155839f6", "is_disabled": 0}, {"is_reserved": 0, "fusion_lon": 0.0, "lon": -77.02799, "fusion_lat": 0.0, "rental_uris": {"ios": "https://dc.lft.to/lastmile_qr_scan", "android": "https://dc.lft.to/lastmile_qr_scan"}, "bike_id": "d41f8e322c67deb1ec62b16dad2fb7af", "lat": 38.960514333333336, "type": "electric_scooter", "name": "d41f8e322c67deb1ec62b16dad2fb7af", "is_disabled": 0}, {"is_reserved": 0, "fusion_lon": 0.0, "lon": -77.0318095, "fusion_lat": 0.0, "rental_uris": {"ios": "https://dc.lft.to/lastmile_qr_scan", "android": "https://dc.lft.to/lastmile_qr_scan"}, "bike_id": "85a0fb636fb0fdaad8e5c1f385113def", "lat": 38.924896833333335, "type": "electric_scooter", "name": "85a0fb636fb0fdaad8e5c1f385113def", "is_disabled": 0}, {"is_reserved": 0, "fusion_lon": 0.0, "lon": -77.01771616666667, "fusion_lat": 0.0, "rental_uris": {"ios": "https://dc.lft.to/lastmile_qr_scan", "android": "https://dc.lft.to/lastmile_qr_scan"}, "bike_id": "d579d33aa1be0d5fd01ae9240fa76543", "lat": 38.9204425, "type": "electric_scooter", "name": "d579d33aa1be0d5fd01ae9240fa76543", "is_disabled": 0}, {"is_reserved": 0, "fusion_lon": 0.0, "lon": -77.042732, "fusion_lat": 0.0, "rental_uris": {"ios": "https://dc.lft.to/lastmile_qr_scan", "android": "https://dc.lft.to/lastmile_qr_scan"}, "bike_id": "16e321f6fe60fdbb8a1bc4b74992b10c", "lat": 38.905742000000004, "type": "electric_scooter", "name": "16e321f6fe60fdbb8a1bc4b74992b10c", "is_disabled": 0}, {"is_reserved": 0, "fusion_lon": 0.0, "lon": -77.03246683333333, "fusion_lat": 0.0, "rental_uris": {"ios": "https://dc.lft.to/lastmile_qr_scan", "android": "https://dc.lft.to/lastmile_qr_scan"}, "bike_id": "29089f79a70fc892036f3b3624c12a5a", "lat": 38.9285725, "type": "electric_scooter", "name": "29089f79a70fc892036f3b3624c12a5a", "is_disabled": 0}, {"is_reserved": 0, "fusion_lon": 0.0, "lon": -77.04222133333333, "fusion_lat": 0.0, "rental_uris": {"ios": "https://dc.lft.to/lastmile_qr_scan", "android": "https://dc.lft.to/lastmile_qr_scan"}, "bike_id": "cb11df16220b2b4aff0833030789fc2d", "lat": 38.92187833333333, "type": "electric_scooter", "name": "cb11df16220b2b4aff0833030789fc2d", "is_disabled": 0}, {"is_reserved": 0, "fusion_lon": 0.0, "lon": -77.04679616666667, "fusion_lat": 0.0, "rental_uris": {"ios": "https://dc.lft.to/lastmile_qr_scan", "android": "https://dc.lft.to/lastmile_qr_scan"}, "bike_id": "8ccf975140935b188150f39f2e0a811c", "lat": 38.898887, "type": "electric_scooter", "name": "8ccf975140935b188150f39f2e0a811c", "is_disabled": 0}, {"is_reserved": 0, "fusion_lon": 0.0, "lon": -77.02411366666666, "fusion_lat": 0.0, "rental_uris": {"ios": "https://dc.lft.to/lastmile_qr_scan", "android": "https://dc.lft.to/lastmile_qr_scan"}, "bike_id": "712effd8b7b45bf27abbaef1942ea121", "lat": 38.919935, "type": "electric_scooter", "name": "712effd8b7b45bf27abbaef1942ea121", "is_disabled": 0}, {"is_reserved": 0, "fusion_lon": 0.0, "lon": -76.95669183333334, "fusion_lat": 0.0, "rental_uris": {"ios": "https://dc.lft.to/lastmile_qr_scan", "android": "https://dc.lft.to/lastmile_qr_scan"}, "bike_id": "983be647bdd7013fbe239d1cfd680012", "lat": 38.8846275, "type": "electric_bike", "name": "983be647bdd7013fbe239d1cfd680012", "is_disabled": 0}, {"is_reserved": 0, "fusion_lon": 0.0, "lon": -77.0432985, "fusion_lat": 0.0, "rental_uris": {"ios": "https://dc.lft.to/lastmile_qr_scan", "android": "https://dc.lft.to/lastmile_qr_scan"}, "bike_id": "750461551e0516248ebf1faeb188af75", "lat": 38.90494066666667, "type": "electric_scooter", "name": "750461551e0516248ebf1faeb188af75", "is_disabled": 0}, {"is_reserved": 0, "fusion_lon": 0.0, "lon": -77.028785, "fusion_lat": 0.0, "rental_uris": {"ios": "https://dc.lft.to/lastmile_qr_scan", "android": "https://dc.lft.to/lastmile_qr_scan"}, "bike_id": "497a241f302939cc0a54ae6581c20226", "lat": 38.95720383333333, "type": "electric_scooter", "name": "497a241f302939cc0a54ae6581c20226", "is_disabled": 0}, {"is_reserved": 0, "fusion_lon": 0.0, "lon": -77.04704766666667, "fusion_lat": 0.0, "rental_uris": {"ios": "https://dc.lft.to/lastmile_qr_scan", "android": "https://dc.lft.to/lastmile_qr_scan"}, "bike_id": "7022ba0a7f772f92725ee04da7a88d4f", "lat": 38.897442, "type": "electric_scooter", "name": "7022ba0a7f772f92725ee04da7a88d4f", "is_disabled": 0}, {"is_reserved": 0, "fusion_lon": 0.0, "lon": -77.043038, "fusion_lat": 0.0, "rental_uris": {"ios": "https://dc.lft.to/lastmile_qr_scan", "android": "https://dc.lft.to/lastmile_qr_scan"}, "bike_id": "6682fafc20b1faf285dda1f0c036a01d", "lat": 39.034258333333334, "type": "electric_bike", "name": "6682fafc20b1faf285dda1f0c036a01d", "is_disabled": 0}, {"is_reserved": 0, "fusion_lon": 0.0, "lon": -76.97782616666667, "fusion_lat": 0.0, "rental_uris": {"ios": "https://dc.lft.to/lastmile_qr_scan", "android": "https://dc.lft.to/lastmile_qr_scan"}, "bike_id": "61d79a615c676a0547040ec40a2d2d3e", "lat": 38.905694833333335, "type": "electric_scooter", "name": "61d79a615c676a0547040ec40a2d2d3e", "is_disabled": 0}, {"is_reserved": 0, "fusion_lon": 0.0, "lon": -77.00060716666667, "fusion_lat": 0.0, "rental_uris": {"ios": "https://dc.lft.to/lastmile_qr_scan", "android": "https://dc.lft.to/lastmile_qr_scan"}, "bike_id": "5bddc14d0a06bfb7d7739c6fc1aa3f02", "lat": 38.876840666666666, "type": "electric_scooter", "name": "5bddc14d0a06bfb7d7739c6fc1aa3f02", "is_disabled": 0}, {"is_reserved": 0, "fusion_lon": 0.0, "lon": -77.0385405, "fusion_lat": 0.0, "rental_uris": {"ios": "https://dc.lft.to/lastmile_qr_scan", "android": "https://dc.lft.to/lastmile_qr_scan"}, "bike_id": "87aecdfa8ef7aebb66b30784036e75bb", "lat": 38.90257733333333, "type": "electric_scooter", "name": "87aecdfa8ef7aebb66b30784036e75bb", "is_disabled": 0}, {"is_reserved": 0, "fusion_lon": 0.0, "lon": -77.0399075, "fusion_lat": 0.0, "rental_uris": {"ios": "https://dc.lft.to/lastmile_qr_scan", "android": "https://dc.lft.to/lastmile_qr_scan"}, "bike_id": "8c98e67d129deee2d7d07d218be99ac2", "lat": 38.896336166666664, "type": "electric_scooter", "name": "8c98e67d129deee2d7d07d218be99ac2", "is_disabled": 0}, {"is_reserved": 0, "fusion_lon": 0.0, "lon": -77.05811683333333, "fusion_lat": 0.0, "rental_uris": {"ios": "https://dc.lft.to/lastmile_qr_scan", "android": "https://dc.lft.to/lastmile_qr_scan"}, "bike_id": "431b5c2e1ccac867ff6f33596aeb8631", "lat": 38.90437883333333, "type": "electric_scooter", "name": "431b5c2e1ccac867ff6f33596aeb8631", "is_disabled": 0}, {"is_reserved": 0, "fusion_lon": 0.0, "lon": -77.05220216666666, "fusion_lat": 0.0, "rental_uris": {"ios": "https://dc.lft.to/lastmile_qr_scan", "android": "https://dc.lft.to/lastmile_qr_scan"}, "bike_id": "f3e0b20509ccd7adf7df81353eaadda9", "lat": 38.924476166666665, "type": "electric_scooter", "name": "f3e0b20509ccd7adf7df81353eaadda9", "is_disabled": 0}, {"is_reserved": 0, "fusion_lon": 0.0, "lon": -77.02206916666667, "fusion_lat": 0.0, "rental_uris": {"ios": "https://dc.lft.to/lastmile_qr_scan", "android": "https://dc.lft.to/lastmile_qr_scan"}, "bike_id": "ad9c713248057c907829b80c474cdf61", "lat": 38.89223916666667, "type": "electric_scooter", "name": "ad9c713248057c907829b80c474cdf61", "is_disabled": 0}, {"is_reserved": 0, "fusion_lon": 0.0, "lon": -77.05508116666667, "fusion_lat": 0.0, "rental_uris": {"ios": "https://dc.lft.to/lastmile_qr_scan", "android": "https://dc.lft.to/lastmile_qr_scan"}, "bike_id": "7e85fbf4f85ff085d7e2a7f82b34ebe7", "lat": 38.928323166666665, "type": "electric_scooter", "name": "7e85fbf4f85ff085d7e2a7f82b34ebe7", "is_disabled": 0}, {"is_reserved": 0, "fusion_lon": 0.0, "lon": -77.064742, "fusion_lat": 0.0, "rental_uris": {"ios": "https://dc.lft.to/lastmile_qr_scan", "android": "https://dc.lft.to/lastmile_qr_scan"}, "bike_id": "7166487b4f064c71bf7060c05add352c", "lat": 38.973756333333334, "type": "electric_bike", "name": "7166487b4f064c71bf7060c05add352c", "is_disabled": 0}, {"is_reserved": 0, "fusion_lon": 0.0, "lon": -76.99017516666666, "fusion_lat": 0.0, "rental_uris": {"ios": "https://dc.lft.to/lastmile_qr_scan", "android": "https://dc.lft.to/lastmile_qr_scan"}, "bike_id": "c00144f3377cc818591a0f272e6ab2a2", "lat": 38.88269416666667, "type": "electric_scooter", "name": "c00144f3377cc818591a0f272e6ab2a2", "is_disabled": 0}, {"is_reserved": 0, "fusion_lon": 0.0, "lon": -77.0434255, "fusion_lat": 0.0, "rental_uris": {"ios": "https://dc.lft.to/lastmile_qr_scan", "android": "https://dc.lft.to/lastmile_qr_scan"}, "bike_id": "7042264724a61750bc1d6e9ee015f1e2", "lat": 38.923520333333336, "type": "electric_scooter", "name": "7042264724a61750bc1d6e9ee015f1e2", "is_disabled": 0}, {"is_reserved": 0, "fusion_lon": 0.0, "lon": -77.0384725, "fusion_lat": 0.0, "rental_uris": {"ios": "https://dc.lft.to/lastmile_qr_scan", "android": "https://dc.lft.to/lastmile_qr_scan"}, "bike_id": "1b75de1d2bbfe24fe953fa747541e420", "lat": 38.902592, "type": "electric_scooter", "name": "1b75de1d2bbfe24fe953fa747541e420", "is_disabled": 0}, {"is_reserved": 0, "fusion_lon": 0.0, "lon": -77.03435666666667, "fusion_lat": 0.0, "rental_uris": {"ios": "https://dc.lft.to/lastmile_qr_scan", "android": "https://dc.lft.to/lastmile_qr_scan"}, "bike_id": "e6b0d02f4c7748f59d2b4231089ce00a", "lat": 38.910194833333335, "type": "electric_scooter", "name": "e6b0d02f4c7748f59d2b4231089ce00a", "is_disabled": 0}, {"is_reserved": 0, "fusion_lon": 0.0, "lon": -77.04034516666667, "fusion_lat": 0.0, "rental_uris": {"ios": "https://dc.lft.to/lastmile_qr_scan", "android": "https://dc.lft.to/lastmile_qr_scan"}, "bike_id": "a89c39f873974913b31c788a79c347f7", "lat": 38.9022755, "type": "electric_scooter", "name": "a89c39f873974913b31c788a79c347f7", "is_disabled": 0}, {"is_reserved": 0, "fusion_lon": 0.0, "lon": -77.03844616666666, "fusion_lat": 0.0, "rental_uris": {"ios": "https://dc.lft.to/lastmile_qr_scan", "android": "https://dc.lft.to/lastmile_qr_scan"}, "bike_id": "4033b461740436252edd09e8d9103735", "lat": 38.9086675, "type": "electric_scooter", "name": "4033b461740436252edd09e8d9103735", "is_disabled": 0}, {"is_reserved": 0, "fusion_lon": 0.0, "lon": -76.94635966666667, "fusion_lat": 0.0, "rental_uris": {"ios": "https://dc.lft.to/lastmile_qr_scan", "android": "https://dc.lft.to/lastmile_qr_scan"}, "bike_id": "a70b19960421de04bc8f189e98c265d2", "lat": 38.89863916666667, "type": "electric_scooter", "name": "a70b19960421de04bc8f189e98c265d2", "is_disabled": 0}, {"is_reserved": 0, "fusion_lon": 0.0, "lon": -76.9855755, "fusion_lat": 0.0, "rental_uris": {"ios": "https://dc.lft.to/lastmile_qr_scan", "android": "https://dc.lft.to/lastmile_qr_scan"}, "bike_id": "e86246ee1c970ea4d3a3d77c61c4574c", "lat": 38.8837135, "type": "electric_scooter", "name": "e86246ee1c970ea4d3a3d77c61c4574c", "is_disabled": 0}, {"is_reserved": 0, "fusion_lon": 0.0, "lon": -77.01886416666666, "fusion_lat": 0.0, "rental_uris": {"ios": "https://dc.lft.to/lastmile_qr_scan", "android": "https://dc.lft.to/lastmile_qr_scan"}, "bike_id": "c7203507b1e8dc7c5fe16c06d958f58a", "lat": 38.91116233333333, "type": "electric_scooter", "name": "c7203507b1e8dc7c5fe16c06d958f58a", "is_disabled": 0}, {"is_reserved": 0, "fusion_lon": 0.0, "lon": -77.03618316666666, "fusion_lat": 0.0, "rental_uris": {"ios": "https://dc.lft.to/lastmile_qr_scan", "android": "https://dc.lft.to/lastmile_qr_scan"}, "bike_id": "b65796701e58eb5ddc1ad39c274efeb1", "lat": 38.931449666666666, "type": "electric_scooter", "name": "b65796701e58eb5ddc1ad39c274efeb1", "is_disabled": 0}, {"is_reserved": 0, "fusion_lon": 0.0, "lon": -77.02196366666666, "fusion_lat": 0.0, "rental_uris": {"ios": "https://dc.lft.to/lastmile_qr_scan", "android": "https://dc.lft.to/lastmile_qr_scan"},