{"data": {"bikes": [{"name": "518a2ded3182ebac9f9b58df29b25008", "fusion_lat": 0.0, "type": "electric_scooter", "lat": 38.924313, "is_reserved": 0, "is_disabled": 0, "fusion_lon": 0.0, "bike_id": "518a2ded3182ebac9f9b58df29b25008", "lon": -77.0425255, "rental_uris": {"ios": "https://dc.lft.to/lastmile_qr_scan", "android": "https://dc.lft.to/lastmile_qr_scan"}}, {"name": "23d17ea18f9453c29b7cde21cde26538", "fusion_lat": 0.0, "type": "electric_scooter", "lat": 38.918997166666664, "is_reserved": 0, "is_disabled": 0, "fusion_lon": 0.0, "bike_id": "23d17ea18f9453c29b7cde21cde26538", "lon": -77.00046466666667, "rental_uris": {"ios": "https://dc.lft.to/lastmile_qr_scan", "android": "https://dc.lft.to/lastmile_qr_scan"}}, {"name": "b460b54efd927983f781c078fc1d43e8", "fusion_lat": 0.0, "type": "electric_scooter", "lat": 38.91708833333333, "is_reserved": 0, "is_disabled": 0, "fusion_lon": 0.0, "bike_id": "b460b54efd927983f781c078fc1d43e8", "lon": -77.0307965, "rental_uris": {"ios": "https://dc.lft.to/lastmile_qr_scan", "android": "https://dc.lft.to/lastmile_qr_scan"}}, {"name": "074638d49802e0acc6c7bb17f5c83f5c", "fusion_lat": 0.0, "type": "electric_scooter", "lat": 38.91067666666667, "is_reserved": 0, "is_disabled": 0, "fusion_lon": 0.0, "bike_id": "074638d49802e0acc6c7bb17f5c83f5c", "lon": -77.017755, "rental_uris": {"ios": "https://dc.lft.to/lastmile_qr_scan", "android": "https://dc.lft.to/lastmile_qr_scan"}}, {"name": "c115531e8c006c90abce386e37cad81f", "fusion_lat": 0.0, "type": "electric_scooter", "lat": 38.92434983333333, "is_reserved": 0, "is_disabled": 0, "fusion_lon": 0.0, "bike_id": "c115531e8c006c90abce386e37cad81f", "lon": -77.04218416666667, "rental_uris": {"ios": "https://dc.lft.to/lastmile_qr_scan", "android": "https://dc.lft.to/lastmile_qr_scan"}}, {"name": "4b433cca44920a66f4a682cf580fb896", "fusion_lat": 0.0, "type": "electric_scooter", "lat": 38.900328333333334, "is_reserved": 0, "is_disabled": 0, "fusion_lon": 0.0, "bike_id": "4b433cca44920a66f4a682cf580fb896", "lon": -77.00204, "rental_uris": {"ios": "https://dc.lft.to/lastmile_qr_scan", "android": "https://dc.lft.to/lastmile_qr_scan"}}, {"name": "cf7c1700c75fd25eba86411e2aafbbdc", "fusion_lat": 0.0, "type": "electric_bike", "lat": 38.91178383333333, "is_reserved": 0, "is_disabled": 0, "fusion_lon": 0.0, "bike_id": "cf7c1700c75fd25eba86411e2aafbbdc", "lon": -77.0114555, "rental_uris": {"ios": "https://dc.lft.to/lastmile_qr_scan", "android": "https://dc.lft.to/lastmile_qr_scan"}}, {"name": "5b5ff3cfdbe7974d5023084886f3eb8d", "fusion_lat": 0.0, "type": "electric_scooter", "lat": 38.8665365, "is_reserved": 0, "is_disabled": 0, "fusion_lon": 0.0, "bike_id": "5b5ff3cfdbe7974d5023084886f3eb8d", "lon": -76.98889233333334, "rental_uris": {"ios": "https://dc.lft.to/lastmile_qr_scan", "android": "https://dc.lft.to/lastmile_qr_scan"}}, {"name": "b56e7cd6949ee4ee9442a5b55712c69c", "fusion_lat": 0.0, "type": "electric_scooter", "lat": 38.90647583333333, "is_reserved": 0, "is_disabled": 0, "fusion_lon": 0.0, "bike_id": "b56e7cd6949ee4ee9442a5b55712c69c", "lon": -77.02938816666666, "rental_uris": {"ios": "https://dc.lft.to/lastmile_qr_scan", "android": "https://dc.lft.to/lastmile_qr_scan"}}, {"name": "4932ab083e10b4e327794fe45b7b3092", "fusion_lat": 0.0, "type": "electric_scooter", "lat": 38.87661166666667, "is_reserved": 0, "is_disabled": 0, "fusion_lon": 0.0, "bike_id": "4932ab083e10b4e327794fe45b7b3092", "lon": -77.00424366666667, "rental_uris": {"ios": "https://dc.lft.to/lastmile_qr_scan", "android": "https://dc.lft.to/lastmile_qr_scan"}}, {"name": "314d2df1092305e8eeb88de8bccad813", "fusion_lat": 0.0, "type": "electric_scooter", "lat": 38.909564, "is_reserved": 0, "is_disabled": 0, "fusion_lon": 0.0, "bike_id": "314d2df1092305e8eeb88de8bccad813", "lon": -77.01135383333333, "rental_uris": {"ios": "https://dc.lft.to/lastmile_qr_scan", "android": "https://dc.lft.to/lastmile_qr_scan"}}, {"name": "d8273b21785ecbdde785fe6065f0ac7c", "fusion_lat": 0.0, "type": "electric_scooter", "lat": 38.90959333333333, "is_reserved": 0, "is_disabled": 0, "fusion_lon": 0.0, "bike_id": "d8273b21785ecbdde785fe6065f0ac7c", "lon": -77.02379383333333, "rental_uris": {"ios": "https://dc.lft.to/lastmile_qr_scan", "android": "https://dc.lft.to/lastmile_qr_scan"}}, {"name": "1064b12714da421d3e65caeb3e59be5e", "fusion_lat": 0.0, "type": "electric_scooter", "lat": 38.89841583333333, "is_reserved": 0, "is_disabled": 0, "fusion_lon": 0.0, "bike_id": "1064b12714da421d3e65caeb3e59be5e", "lon": -77.03331983333334, "rental_uris": {"ios": "https://dc.lft.to/lastmile_qr_scan", "android": "https://dc.lft.to/lastmile_qr_scan"}}, {"name": "1f87d4e4658f96654b6e7c09bc86d0c2", "fusion_lat": 0.0, "type": "electric_scooter", "lat": 38.915610666666666, "is_reserved": 0, "is_disabled": 0, "fusion_lon": 0.0, "bike_id": "1f87d4e4658f96654b6e7c09bc86d0c2", "lon": -77.0141525, "rental_uris": {"ios": "https://dc.lft.to/lastmile_qr_scan", "android": "https://dc.lft.to/lastmile_qr_scan"}}, {"name": "caed235659460378fe3bbf690e75755a", "fusion_lat": 0.0, "type": "electric_scooter", "lat": 38.901219, "is_reserved": 0, "is_disabled": 0, "fusion_lon": 0.0, "bike_id": "caed235659460378fe3bbf690e75755a", "lon": -76.991827, "rental_uris": {"ios": "https://dc.lft.to/lastmile_qr_scan", "android": "https://dc.lft.to/lastmile_qr_scan"}}, {"name": "5f093a5f05ac4d20b09a868a48859165", "fusion_lat": 0.0, "type": "electric_bike", "lat": 38.86281966666667, "is_reserved": 0, "is_disabled": 0, "fusion_lon": 0.0, "bike_id": "5f093a5f05ac4d20b09a868a48859165", "lon": -76.98005233333333, "rental_uris": {"ios": "https://dc.lft.to/lastmile_qr_scan", "android": "https://dc.lft.to/lastmile_qr_scan"}}, {"name": "b3d158b77d8081554ed140c0939510a4", "fusion_lat": 0.0, "type": "electric_scooter", "lat": 38.89605316666667, "is_reserved": 0, "is_disabled": 0, "fusion_lon": 0.0, "bike_id": "b3d158b77d8081554ed140c0939510a4", "lon": -77.05442283333333, "rental_uris": {"ios": "https://dc.lft.to/lastmile_qr_scan", "android": "https://dc.lft.to/lastmile_qr_scan"}}, {"name": "8a5ce7fd6dd07116a548995f76da4026", "fusion_lat": 0.0, "type": "electric_scooter", "lat": 38.91645533333333, "is_reserved": 0, "is_disabled": 0, "fusion_lon": 0.0, "bike_id": "8a5ce7fd6dd07116a548995f76da4026", "lon": -77.01587766666667, "rental_uris": {"ios": "https://dc.lft.to/lastmile_qr_scan", "android": "https://dc.lft.to/lastmile_qr_scan"}}, {"name": "fb9fdebac419a5f93cda8bef0b1ddc6a", "fusion_lat": 0.0, "type": "electric_scooter", "lat": 38.93703216666667, "is_reserved": 0, "is_disabled": 0, "fusion_lon": 0.0, "bike_id": "fb9fdebac419a5f93cda8bef0b1ddc6a", "lon": -77.02407983333333, "rental_uris": {"ios": "https://dc.lft.to/lastmile_qr_scan", "android": "https://dc.lft.to/lastmile_qr_scan"}}, {"name": "a463a64236d251ee1beab2af47466507", "fusion_lat": 0.0, "type": "electric_scooter", "lat": 38.90430083333333, "is_reserved": 0, "is_disabled": 0, "fusion_lon": 0.0, "bike_id": "a463a64236d251ee1beab2af47466507", "lon": -77.02592916666667, "rental_uris": {"ios": "https://dc.lft.to/lastmile_qr_scan", "android": "https://dc.lft.to/lastmile_qr_scan"}}, {"name": "494bc720447a529ef0601fbf1316e0fb", "fusion_lat": 0.0, "type": "electric_scooter", "lat": 38.9656115, "is_reserved": 0, "is_disabled": 0, "fusion_lon": 0.0, "bike_id": "494bc720447a529ef0601fbf1316e0fb", "lon": -77.01626733333333, "rental_uris": {"ios": "https://dc.lft.to/lastmile_qr_scan", "android": "https://dc.lft.to/lastmile_qr_scan"}}, {"name": "bfa6ed4f3b2e5d5228ce1dfffca54ee2", "fusion_lat": 0.0, "type": "electric_scooter", "lat": 38.9387195, "is_reserved": 0, "is_disabled": 0, "fusion_lon": 0.0, "bike_id": "bfa6ed4f3b2e5d5228ce1dfffca54ee2", "lon": -77.03262083333334, "rental_uris": {"ios": "https://dc.lft.to/lastmile_qr_scan", "android": "https://dc.lft.to/lastmile_qr_scan"}}, {"name": "f5283f411f36396bc1b9050fea4102af", "fusion_lat": 0.0, "type": "electric_bike", "lat": 38.92867116666667, "is_reserved": 0, "is_disabled": 0, "fusion_lon": 0.0, "bike_id": "f5283f411f36396bc1b9050fea4102af", "lon": -76.961056, "rental_uris": {"ios": "https://dc.lft.to/lastmile_qr_scan", "android": "https://dc.lft.to/lastmile_qr_scan"}}, {"name": "7089dc0d628de2e151531b9ea7e8d031", "fusion_lat": 0.0, "type": "electric_scooter", "lat": 38.9056975, "is_reserved": 0, "is_disabled": 0, "fusion_lon": 0.0, "bike_id": "7089dc0d628de2e151531b9ea7e8d031", "lon": -77.04891183333334, "rental_uris": {"ios": "https://dc.lft.to/lastmile_qr_scan", "android": "https://dc.lft.to/lastmile_qr_scan"}}, {"name": "d1c9395e2d58c33fd168f6da41e3ee69", "fusion_lat": 0.0, "type": "electric_scooter", "lat": 38.8984225, "is_reserved": 0, "is_disabled": 0, "fusion_lon": 0.0, "bike_id": "d1c9395e2d58c33fd168f6da41e3ee69", "lon": -77.019951, "rental_uris": {"ios": "https://dc.lft.to/lastmile_qr_scan", "android": "https://dc.lft.to/lastmile_qr_scan"}}, {"name": "e7948f33c8c7aa8b234054e240429a8f", "fusion_lat": 0.0, "type": "electric_scooter", "lat": 38.9231655, "is_reserved": 0, "is_disabled": 0, "fusion_lon": 0.0, "bike_id": "e7948f33c8c7aa8b234054e240429a8f", "lon": -77.0547055, "rental_uris": {"ios": "https://dc.lft.to/lastmile_qr_scan", "android": "https://dc.lft.to/lastmile_qr_scan"}}, {"name": "06d380a9def7c487f3ae9617d4b6b218", "fusion_lat": 0.0, "type": "electric_scooter", "lat": 38.90965883333333, "is_reserved": 0, "is_disabled": 0, "fusion_lon": 0.0, "bike_id": "06d380a9def7c487f3ae9617d4b6b218", "lon": -77.01716416666666, "rental_uris": {"ios": "https://dc.lft.to/lastmile_qr_scan", "android": "https://dc.lft.to/lastmile_qr_scan"}}, {"name": "80b9aa2a3b1228d6637f5a57f53d2b9c", "fusion_lat": 0.0, "type": "electric_scooter", "lat": 38.92638216666667, "is_reserved": 0, "is_disabled": 0, "fusion_lon": 0.0, "bike_id": "80b9aa2a3b1228d6637f5a57f53d2b9c", "lon": -77.03692733333334, "rental_uris": {"ios": "https://dc.lft.to/lastmile_qr_scan", "android": "https://dc.lft.to/lastmile_qr_scan"}}, {"name": "dbab4780587fbc3c3d52afe744fca65d", "fusion_lat": 0.0, "type": "electric_scooter", "lat": 38.93018883333333, "is_reserved": 0, "is_disabled": 0, "fusion_lon": 0.0, "bike_id": "dbab4780587fbc3c3d52afe744fca65d", "lon": -77.03781266666667, "rental_uris": {"ios": "https://dc.lft.to/lastmile_qr_scan", "android": "https://dc.lft.to/lastmile_qr_scan"}}, {"name": "36f484a804461d1e6e27f21306cccdc8", "fusion_lat": 0.0, "type": "electric_scooter", "lat": 38.926777, "is_reserved": 0, "is_disabled": 0, "fusion_lon": 0.0, "bike_id": "36f484a804461d1e6e27f21306cccdc8", "lon": -77.02786, "rental_uris": {"ios": "https://dc.lft.to/lastmile_qr_scan", "android": "https://dc.lft.to/lastmile_qr_scan"}}, {"name": "d9238e01aa0c9f4b916cc7a91670dabf", "fusion_lat": 0.0, "type": "electric_scooter", "lat": 38.9389685, "is_reserved": 0, "is_disabled": 0, "fusion_lon": 0.0, "bike_id": "d9238e01aa0c9f4b916cc7a91670dabf", "lon": -77.01758766666667, "rental_uris": {"ios": "https://dc.lft.to/lastmile_qr_scan", "android": "https://dc.lft.to/lastmile_qr_scan"}}, {"name": "6eb7f595610eac639c3e1e7aae4c7d74", "fusion_lat": 0.0, "type": "electric_scooter", "lat": 38.8976235, "is_reserved": 0, "is_disabled": 0, "fusion_lon": 0.0, "bike_id": "6eb7f595610eac639c3e1e7aae4c7d74", "lon": -77.05142183333334, "rental_uris": {"ios": "https://dc.lft.to/lastmile_qr_scan", "android": "https://dc.lft.to/lastmile_qr_scan"}}, {"name": "9d527e5a10c7feededa432292eac71fd", "fusion_lat": 0.0, "type": "electric_scooter", "lat": 38.911752, "is_reserved": 0, "is_disabled": 0, "fusion_lon": 0.0, "bike_id": "9d527e5a10c7feededa432292eac71fd", "lon": -76.98772716666667, "rental_uris": {"ios": "https://dc.lft.to/lastmile_qr_scan", "android": "https://dc.lft.to/lastmile_qr_scan"}}, {"name": "a41ff529931aad9907a3ab30a16724fc", "fusion_lat": 0.0, "type": "electric_scooter", "lat": 38.8922085, "is_reserved": 0, "is_disabled": 0, "fusion_lon": 0.0, "bike_id": "a41ff529931aad9907a3ab30a16724fc", "lon": -77.02228183333334, "rental_uris": {"ios": "https://dc.lft.to/lastmile_qr_scan", "android": "https://dc.lft.to/lastmile_qr_scan"}}, {"name": "c65998c572c32e046ce3b4c6c71f8de4", "fusion_lat": 0.0, "type": "electric_scooter", "lat": 38.9155445, "is_reserved": 0, "is_disabled": 0, "fusion_lon": 0.0, "bike_id": "c65998c572c32e046ce3b4c6c71f8de4", "lon": -77.03242133333333, "rental_uris": {"ios": "https://dc.lft.to/lastmile_qr_scan", "android": "https://dc.lft.to/lastmile_qr_scan"}}, {"name": "ac80fd83778bc80ee4112c149ce25ca9", "fusion_lat": 0.0, "type": "electric_bike", "lat": 38.8882245, "is_reserved": 0, "is_disabled": 0, "fusion_lon": 0.0, "bike_id": "ac80fd83778bc80ee4112c149ce25ca9", "lon": -77.12742566666667, "rental_uris": {"ios": "https://dc.lft.to/lastmile_qr_scan", "android": "https://dc.lft.to/lastmile_qr_scan"}}, {"name": "4b84c9bad966c46454d17aa6c56c2997", "fusion_lat": 0.0, "type": "electric_scooter", "lat": 38.9127295, "is_reserved": 0, "is_disabled": 0, "fusion_lon": 0.0, "bike_id": "4b84c9bad966c46454d17aa6c56c2997", "lon": -76.93809333333333, "rental_uris": {"ios": "https://dc.lft.to/lastmile_qr_scan", "android": "https://dc.lft.to/lastmile_qr_scan"}}, {"name": "029472c6b1d9d0fb6140071eca741287", "fusion_lat": 0.0, "type": "electric_scooter", "lat": 38.89973616666666, "is_reserved": 0, "is_disabled": 0, "fusion_lon": 0.0, "bike_id": "029472c6b1d9d0fb6140071eca741287", "lon": -77.039458, "rental_uris": {"ios": "https://dc.lft.to/lastmile_qr_scan", "android": "https://dc.lft.to/lastmile_qr_scan"}}, {"name": "e83616cf0bd121938ab1343186c6c718", "fusion_lat": 0.0, "type": "electric_scooter", "lat": 38.92670866666667, "is_reserved": 0, "is_disabled": 0, "fusion_lon": 0.0, "bike_id": "e83616cf0bd121938ab1343186c6c718", "lon": -76.99538266666667, "rental_uris": {"ios": "https://dc.lft.to/lastmile_qr_scan", "android": "https://dc.lft.to/lastmile_qr_scan"}}, {"name": "d7b1bad0d0c7961a5702b88edf759d35", "fusion_lat": 0.0, "type": "electric_scooter", "lat": 38.930284666666665, "is_reserved": 0, "is_disabled": 0, "fusion_lon": 0.0, "bike_id": "d7b1bad0d0c7961a5702b88edf759d35", "lon": -77.08365833333333, "rental_uris": {"ios": "https://dc.lft.to/lastmile_qr_scan", "android": "https://dc.lft.to/lastmile_qr_scan"}}, {"name": "f995501eb2d6ad74fbc14fcb145e4a3a", "fusion_lat": 0.0, "type": "electric_scooter", "lat": 38.908431, "is_reserved": 0, "is_disabled": 0, "fusion_lon": 0.0, "bike_id": "f995501eb2d6ad74fbc14fcb145e4a3a", "lon": -77.04350133333334, "rental_uris": {"ios": "https://dc.lft.to/lastmile_qr_scan", "android": "https://dc.lft.to/lastmile_qr_scan"}}, {"name": "4366f197e6c4953955ee394ec7d8be0f", "fusion_lat": 0.0, "type": "electric_scooter", "lat": 38.90562516666667, "is_reserved": 0, "is_disabled": 0, "fusion_lon": 0.0, "bike_id": "4366f197e6c4953955ee394ec7d8be0f", "lon": -77.02219316666667, "rental_uris": {"ios": "https://dc.lft.to/lastmile_qr_scan", "android": "https://dc.lft.to/lastmile_qr_scan"}}, {"name": "7bab313d630b1111e68c0f2cb9770573", "fusion_lat": 0.0, "type": "electric_scooter", "lat": 38.925944333333334, "is_reserved": 0, "is_disabled": 0, "fusion_lon": 0.0, "bike_id": "7bab313d630b1111e68c0f2cb9770573", "lon": -77.00857666666667, "rental_uris": {"ios": "https://dc.lft.to/lastmile_qr_scan", "android": "https://dc.lft.to/lastmile_qr_scan"}}, {"name": "d977572e80c64a8f768739e6b14be3c7", "fusion_lat": 0.0, "type": "electric_scooter", "lat": 38.91814, "is_reserved": 0, "is_disabled": 0, "fusion_lon": 0.0, "bike_id": "d977572e80c64a8f768739e6b14be3c7", "lon": -77.032147, "rental_uris": {"ios": "https://dc.lft.to/lastmile_qr_scan", "android": "https://dc.lft.to/lastmile_qr_scan"}}, {"name": "65553230207bc11df9b791c53b7ca536", "fusion_lat": 0.0, "type": "electric_scooter", "lat": 38.9023565, "is_reserved": 0, "is_disabled": 0, "fusion_lon": 0.0, "bike_id": "65553230207bc11df9b791c53b7ca536", "lon": -77.05141016666667, "rental_uris": {"ios": "https://dc.lft.to/lastmile_qr_scan", "android": "https://dc.lft.to/lastmile_qr_scan"}}, {"name": "e7284a9c1f10090cc58f961830646147", "fusion_lat": 0.0, "type": "electric_scooter", "lat": 38.92481433333333, "is_reserved": 0, "is_disabled": 0, "fusion_lon": 0.0, "bike_id": "e7284a9c1f10090cc58f961830646147", "lon": -77.0299735, "rental_uris": {"ios": "https://dc.lft.to/lastmile_qr_scan", "android": "https://dc.lft.to/lastmile_qr_scan"}}, {"name": "654decd4f7de68558155f93ffb52a583", "fusion_lat": 0.0, "type": "electric_scooter", "lat": 38.91848866666667, "is_reserved": 0, "is_disabled": 0, "fusion_lon": 0.0, "bike_id": "654decd4f7de68558155f93ffb52a583", "lon": -77.00172766666667, "rental_uris": {"ios": "https://dc.lft.to/lastmile_qr_scan", "android": "https://dc.lft.to/lastmile_qr_scan"}}, {"name": "2b50920b6707505576a51695b3ab1732", "fusion_lat": 0.0, "type": "electric_scooter", "lat": 38.905364, "is_reserved": 0, "is_disabled": 0, "fusion_lon": 0.0, "bike_id": "2b50920b6707505576a51695b3ab1732", "lon": -77.06293783333334, "rental_uris": {"ios": "https://dc.lft.to/lastmile_qr_scan", "android": "https://dc.lft.to/lastmile_qr_scan"}}, {"name": "2f33da2d77f85aab1a03f5182f810559", "fusion_lat": 0.0, "type": "electric_scooter", "lat": 38.90800333333333, "is_reserved": 0, "is_disabled": 0, "fusion_lon": 0.0, "bike_id": "2f33da2d77f85aab1a03f5182f810559", "lon": -77.03196433333333, "rental_uris": {"ios": "https://dc.lft.to/lastmile_qr_scan", "android": "https://dc.lft.to/lastmile_qr_scan"}}, {"name": "360de3b61cf3d425dff9d616ffff91f0", "fusion_lat": 0.0, "type": "electric_scooter", "lat": 38.91267083333334, "is_reserved": 0, "is_disabled": 0, "fusion_lon": 0.0, "bike_id": "360de3b61cf3d425dff9d616ffff91f0", "lon": -77.03874066666667, "rental_uris": {"ios": "https://dc.lft.to/lastmile_qr_scan", "android": "https://dc.lft.to/lastmile_qr_scan"}}, {"name": "d2b123a5b9257284646f059f47c2f15a", "fusion_lat": 0.0, "type": "electric_scooter", "lat": 38.9354755, "is_reserved": 0, "is_disabled": 0, "fusion_lon": 0.0, "bike_id": "d2b123a5b9257284646f059f47c2f15a", "lon": -77.059807, "rental_uris": {"ios": "https://dc.lft.to/lastmile_qr_scan", "android": "https://dc.lft.to/lastmile_qr_scan"}}, {"name": "6eadf34d0ba7072369dd435dad67278f", "fusion_lat": 0.0, "type": "electric_scooter", "lat": 38.9256315, "is_reserved": 0, "is_disabled": 0, "fusion_lon": 0.0, "bike_id": "6eadf34d0ba7072369dd435dad67278f", "lon": -77.02962466666666, "rental_uris": {"ios": "https://dc.lft.to/lastmile_qr_scan", "android": "https://dc.lft.to/lastmile_qr_scan"}}, {"name": "e676bcdf79270e45b287feaa83d50cb8", "fusion_lat": 0.0, "type": "electric_scooter", "lat": 38.936418, "is_reserved": 0, "is_disabled": 0, "fusion_lon": 0.0, "bike_id": "e676bcdf79270e45b287feaa83d50cb8", "lon": -77.0346065, "rental_uris": {"ios": "https://dc.lft.to/lastmile_qr_scan", "android": "https://dc.lft.to/lastmile_qr_scan"}}, {"name": "85ef59733e8ca04b568f9686f49d2f44", "fusion_lat": 0.0, "type": "electric_bike", "lat": 38.898369833333334, "is_reserved": 0, "is_disabled": 0, "fusion_lon": 0.0, "bike_id": "85ef59733e8ca04b568f9686f49d2f44", "lon": -77.11801183333333, "rental_uris": {"ios": "https://dc.lft.to/lastmile_qr_scan", "android": "https://dc.lft.to/lastmile_qr_scan"}}, {"name": "60d4e6a5b54f8e2b7614d9ea48ff185a", "fusion_lat": 0.0, "type": "electric_scooter", "lat": 38.924793333333334, "is_reserved": 0, "is_disabled": 0, "fusion_lon": 0.0, "bike_id": "60d4e6a5b54f8e2b7614d9ea48ff185a", "lon": -77.02753933333334, "rental_uris": {"ios": "https://dc.lft.to/lastmile_qr_scan", "android": "https://dc.lft.to/lastmile_qr_scan"}}, {"name": "312fff1d10acecefe3a361a6bddd2bb7", "fusion_lat": 0.0, "type": "electric_bike", "lat": 38.90414116666667, "is_reserved": 0, "is_disabled": 0, "fusion_lon": 0.0, "bike_id": "312fff1d10acecefe3a361a6bddd2bb7", "lon": -76.98796283333333, "rental_uris": {"ios": "https://dc.lft.to/lastmile_qr_scan", "android": "https://dc.lft.to/lastmile_qr_scan"}}, {"name": "01cdd69ae931ae5e4530e017539ebe97", "fusion_lat": 0.0, "type": "electric_scooter", "lat": 38.90034683333333, "is_reserved": 0, "is_disabled": 0, "fusion_lon": 0.0, "bike_id": "01cdd69ae931ae5e4530e017539ebe97", "lon": -76.985167, "rental_uris": {"ios": "https://dc.lft.to/lastmile_qr_scan", "android": "https://dc.lft.to/lastmile_qr_scan"}}, {"name": "7764694f9e635aaa98316b7ccfbbc6c1", "fusion_lat": 0.0, "type": "electric_scooter", "lat": 38.907991833333334, "is_reserved": 0, "is_disabled": 0, "fusion_lon": 0.0, "bike_id": "7764694f9e635aaa98316b7ccfbbc6c1", "lon": -77.03830983333333, "rental_uris": {"ios": "https://dc.lft.to/lastmile_qr_scan", "android": "https://dc.lft.to/lastmile_qr_scan"}}, {"name": "695ec916bbd9775254db68a1277b8d5f", "fusion_lat": 0.0, "type": "electric_scooter", "lat": 38.916401, "is_reserved": 0, "is_disabled": 0, "fusion_lon": 0.0, "bike_id": "695ec916bbd9775254db68a1277b8d5f", "lon": -77.03913166666666, "rental_uris": {"ios": "https://dc.lft.to/lastmile_qr_scan", "android": "https://dc.lft.to/lastmile_qr_scan"}}, {"name": "df4e8a3bb50cbe92dfbbb936a5769914", "fusion_lat": 0.0, "type": "electric_scooter", "lat": 38.88610933333333, "is_reserved": 0, "is_disabled": 0, "fusion_lon": 0.0, "bike_id": "df4e8a3bb50cbe92dfbbb936a5769914", "lon": -76.97814866666667, "rental_uris": {"ios": "https://dc.lft.to/lastmile_qr_scan", "android": "https://dc.lft.to/lastmile_qr_scan"}}, {"name": "bf8583c87e77c3ad98b089cdd21d830a", "fusion_lat": 0.0, "type": "electric_bike", "lat": 38.88636016666667, "is_reserved": 0, "is_disabled": 0, "fusion_lon": 0.0, "bike_id": "bf8583c87e77c3ad98b089cdd21d830a", "lon": -76.95482333333334, "rental_uris": {"ios": "https://dc.lft.to/lastmile_qr_scan", "android": "https://dc.lft.to/lastmile_qr_scan"}}, {"name": "7a13adb5f43de5539af3d327b14c9375", "fusion_lat": 0.0, "type": "electric_scooter", "lat": 38.91712883333334, "is_reserved": 0, "is_disabled": 0, "fusion_lon": 0.0, "bike_id": "7a13adb5f43de5539af3d327b14c9375", "lon": -77.012543, "rental_uris": {"ios": "https://dc.lft.to/lastmile_qr_scan", "android": "https://dc.lft.to/lastmile_qr_scan"}}, {"name": "29ba5b1f21946b2b59dcd33e5cdf1163", "fusion_lat": 0.0, "type": "electric_scooter", "lat": 38.887406, "is_reserved": 0, "is_disabled": 0, "fusion_lon": 0.0, "bike_id": "29ba5b1f21946b2b59dcd33e5cdf1163", "lon": -77.01535083333333, "rental_uris": {"ios": "https://dc.lft.to/lastmile_qr_scan", "android": "https://dc.lft.to/lastmile_qr_scan"}}, {"name": "93caa0e07d0b568dee9da4d88b057615", "fusion_lat": 0.0, "type": "electric_scooter", "lat": 38.91543816666667, "is_reserved": 0, "is_disabled": 0, "fusion_lon": 0.0, "bike_id": "93caa0e07d0b568dee9da4d88b057615", "lon": -77.03853466666666, "rental_uris": {"ios": "https://dc.lft.to/lastmile_qr_scan", "android": "https://dc.lft.to/lastmile_qr_scan"}}, {"name": "cfe4a3195bede37b6fd6fff46c0002a6", "fusion_lat": 0.0, "type": "electric_scooter", "lat": 38.88203983333333, "is_reserved": 0, "is_disabled": 0, "fusion_lon": 0.0, "bike_id": "cfe4a3195bede37b6fd6fff46c0002a6", "lon": -77.0233635, "rental_uris": {"ios": "https://dc.lft.to/lastmile_qr_scan", "android": "https://dc.lft.to/lastmile_qr_scan"}}, {"name": "7d328c9af2c9860f3e99f0da58aba287", "fusion_lat": 0.0, "type": "electric_scooter", "lat": 38.902441333333336, "is_reserved": 0, "is_disabled": 0, "fusion_lon": 0.0, "bike_id": "7d328c9af2c9860f3e99f0da58aba287", "lon": -77.00202866666666, "rental_uris": {"ios": "https://dc.lft.to/lastmile_qr_scan", "android": "https://dc.lft.to/lastmile_qr_scan"}}, {"name": "b7e384b51a2a222ca5e3c505707b6324", "fusion_lat": 0.0, "type": "electric_scooter", "lat": 38.934348666666665, "is_reserved": 0, "is_disabled": 0, "fusion_lon": 0.0, "bike_id": "b7e384b51a2a222ca5e3c505707b6324", "lon": -77.04649116666667, "rental_uris": {"ios": "https://dc.lft.to/lastmile_qr_scan", "android": "https://dc.lft.to/lastmile_qr_scan"}}, {"name": "9e7e2f9b87495c326fa0c9cd267842a0", "fusion_lat": 0.0, "type": "electric_bike", "lat": 38.9396915, "is_reserved": 0, "is_disabled": 0, "fusion_lon": 0.0, "bike_id": "9e7e2f9b87495c326fa0c9cd267842a0", "lon": -76.98660383333333, "rental_uris": {"ios": "https://dc.lft.to/lastmile_qr_scan", "android": "https://dc.lft.to/lastmile_qr_scan"}}, {"name": "e729529c3b8bc06f5d76b5070810c393", "fusion_lat": 0.0, "type": "electric_scooter", "lat": 38.88334866666667, "is_reserved": 0, "is_disabled": 0, "fusion_lon": 0.0, "bike_id": "e729529c3b8bc06f5d76b5070810c393", "lon": -77.031661, "rental_uris": {"ios": "https://dc.lft.to/lastmile_qr_scan", "android": "https://dc.lft.to/lastmile_qr_scan"}}, {"name": "987334675688c43566fa2dbbb8c46f5d", "fusion_lat": 0.0, "type": "electric_scooter", "lat": 38.93967416666667, "is_reserved": 0, "is_disabled": 0, "fusion_lon": 0.0, "bike_id": "987334675688c43566fa2dbbb8c46f5d", "lon": -77.0319965, "rental_uris": {"ios": "https://dc.lft.to/lastmile_qr_scan", "android": "https://dc.lft.to/lastmile_qr_scan"}}, {"name": "60f6195df85320ee113d623658f0c7cb", "fusion_lat": 0.0, "type": "electric_scooter", "lat": 38.9390715, "is_reserved": 0, "is_disabled": 0, "fusion_lon": 0.0, "bike_id": "60f6195df85320ee113d623658f0c7cb", "lon": -77.060424, "rental_uris": {"ios": "https://dc.lft.to/lastmile_qr_scan", "android": "https://dc.lft.to/lastmile_qr_scan"}}, {"name": "d0490d8c9820a892ab3818dc2a51a2d9", "fusion_lat": 0.0, "type": "electric_bike", "lat": 38.872234666666664, "is_reserved": 0, "is_disabled": 0, "fusion_lon": 0.0, "bike_id": "d0490d8c9820a892ab3818dc2a51a2d9", "lon": -77.01170516666667, "rental_uris": {"ios": "https://dc.lft.to/lastmile_qr_scan", "android": "https://dc.lft.to/lastmile_qr_scan"}}, {"name": "9b80029cb268e04ae36bfefcf5e095d1", "fusion_lat": 0.0, "type": "electric_scooter", "lat": 38.875715, "is_reserved": 0, "is_disabled": 0, "fusion_lon": 0.0, "bike_id": "9b80029cb268e04ae36bfefcf5e095d1", "lon": -77.00611616666667, "rental_uris": {"ios": "https://dc.lft.to/lastmile_qr_scan", "android": "https://dc.lft.to/lastmile_qr_scan"}}, {"name": "4d9df96f1b002084a29234eda77c2358", "fusion_lat": 0.0, "type": "electric_scooter", "lat": 38.8650855, "is_reserved": 0, "is_disabled": 0, "fusion_lon": 0.0, "bike_id": "4d9df96f1b002084a29234eda77c2358", "lon": -76.97338933333333, "rental_uris": {"ios": "https://dc.lft.to/lastmile_qr_scan", "android": "https://dc.lft.to/lastmile_qr_scan"}}, {"name": "56fa065a922b6ef2d6a5d25e2d59b382", "fusion_lat": 0.0, "type": "electric_scooter", "lat": 38.92335, "is_reserved": 0, "is_disabled": 0, "fusion_lon": 0.0, "bike_id": "56fa065a922b6ef2d6a5d25e2d59b382", "lon": -77.0352805, "rental_uris": {"ios": "https://dc.lft.to/lastmile_qr_scan", "android": "https://dc.lft.to/lastmile_qr_scan"}}, {"name": "37a4f67ccd11fe86cd26d836ad31b3dd", "fusion_lat": 0.0, "type": "electric_scooter", "lat": 38.89953583333333, "is_reserved": 0, "is_disabled": 0, "fusion_lon": 0.0, "bike_id": "37a4f67ccd11fe86cd26d836ad31b3dd", "lon": -77.0178135, "rental_uris": {"ios": "https://dc.lft.to/lastmile_qr_scan", "android": "https://dc.lft.to/lastmile_qr_scan"}}, {"name": "4472cbe7e3f0d9ad393ef5619b0b6851", "fusion_lat": 0.0, "type": "electric_scooter", "lat": 38.9002995, "is_reserved": 0, "is_disabled": 0, "fusion_lon": 0.0, "bike_id": "4472cbe7e3f0d9ad393ef5619b0b6851", "lon": -77.0116425, "rental_uris": {"ios": "https://dc.lft.to/lastmile_qr_scan", "android": "https://dc.lft.to/lastmile_qr_scan"}}, {"name": "da10c7785efd68264eb6f2d373207a09", "fusion_lat": 0.0, "type": "electric_bike", "lat": 38.90972033333333, "is_reserved": 0, "is_disabled": 0, "fusion_lon": 0.0, "bike_id": "da10c7785efd68264eb6f2d373207a09", "lon": -77.088268, "rental_uris": {"ios": "https://dc.lft.to/lastmile_qr_scan", "android": "https://dc.lft.to/lastmile_qr_scan"}}, {"name": "e54d2480e06b923166cf3e63e56bd80a", "fusion_lat": 0.0, "type": "electric_scooter", "lat": 38.91193233333333, "is_reserved": 0, "is_disabled": 0, "fusion_lon": 0.0, "bike_id": "e54d2480e06b923166cf3e63e56bd80a", "lon": -77.05964133333333, "rental_uris": {"ios": "https://dc.lft.to/lastmile_qr_scan", "android": "https://dc.lft.to/lastmile_qr_scan"}}, {"name": "92b184e4ee1e28edb5be104206d831e6", "fusion_lat": 0.0, "type": "electric_scooter", "lat": 38.876279333333336, "is_reserved": 0, "is_disabled": 0, "fusion_lon": 0.0, "bike_id": "92b184e4ee1e28edb5be104206d831e6", "lon": -76.965274, "rental_uris": {"ios": "https://dc.lft.to/lastmile_qr_scan", "android": "https://dc.lft.to/lastmile_qr_scan"}}, {"name": "dd8db99c4643b62c6beef317f9365c89", "fusion_lat": 0.0, "type": "electric_scooter", "lat": 38.91569533333333, "is_reserved": 0, "is_disabled": 0, "fusion_lon": 0.0, "bike_id": "dd8db99c4643b62c6beef317f9365c89", "lon": -77.0488395, "rental_uris": {"ios": "https://dc.lft.to/lastmile_qr_scan", "android": "https://dc.lft.to/lastmile_qr_scan"}}, {"name": "6ac71c6eb3b930035177466ac84d6fea", "fusion_lat": 0.0, "type": "electric_scooter", "lat": 38.918288833333335, "is_reserved": 0, "is_disabled": 0, "fusion_lon": 0.0, "bike_id": "6ac71c6eb3b930035177466ac84d6fea", "lon": -77.02696283333333, "rental_uris": {"ios": "https://dc.lft.to/lastmile_qr_scan", "android": "https://dc.lft.to/lastmile_qr_scan"}}, {"name": "fd5f3437050090528665e969240835d2", "fusion_lat": 0.0, "type": "electric_scooter", "lat": 38.91689066666667, "is_reserved": 0, "is_disabled": 0, "fusion_lon": 0.0, "bike_id": "fd5f3437050090528665e969240835d2", "lon": -77.02598433333333, "rental_uris": {"ios": "https://dc.lft.to/lastmile_qr_scan", "android": "https://dc.lft.to/lastmile_qr_scan"}}, {"name": "3ba59ccca500994c50a8cfebc35a3e19", "fusion_lat": 0.0, "type": "electric_scooter", "lat": 38.896605666666666, "is_reserved": 0, "is_disabled": 0, "fusion_lon": 0.0, "bike_id": "3ba59ccca500994c50a8cfebc35a3e19", "lon": -77.04882033333334, "rental_uris": {"ios": "https://dc.lft.to/lastmile_qr_scan", "android": "https://dc.lft.to/lastmile_qr_scan"}}, {"name": "9db2c712eab0be19686748c90adaba87", "fusion_lat": 0.0, "type": "electric_scooter", "lat": 38.9497825, "is_reserved": 0, "is_disabled": 0, "fusion_lon": 0.0, "bike_id": "9db2c712eab0be19686748c90adaba87", "lon": -77.0349875, "rental_uris": {"ios": "https://dc.lft.to/lastmile_qr_scan", "android": "https://dc.lft.to/lastmile_qr_scan"}}, {"name": "ee55c3520f32018882283e2054f26821", "fusion_lat": 0.0, "type": "electric_scooter", "lat": 38.924203, "is_reserved": 0, "is_disabled": 0, "fusion_lon": 0.0, "bike_id": "ee55c3520f32018882283e2054f26821", "lon": -77.051891, "rental_uris": {"ios": "https://dc.lft.to/lastmile_qr_scan", "android": "https://dc.lft.to/lastmile_qr_scan"}}, {"name": "fef7a3aba655d86b11b29ec085a8f1f3", "fusion_lat": 0.0, "type": "electric_scooter", "lat": 38.8922425, "is_reserved": 0, "is_disabled": 0, "fusion_lon": 0.0, "bike_id": "fef7a3aba655d86b11b29ec085a8f1f3", "lon": -77.045068, "rental_uris": {"ios": "https://dc.lft.to/lastmile_qr_scan", "android": "https://dc.lft.to/lastmile_qr_scan"}}, {"name": "aa63b0ac61d6603685fff6c94b4fd371", "fusion_lat": 0.0, "type": "electric_bike", "lat": 38.95362933333333, "is_reserved": 0, "is_disabled": 0, "fusion_lon": 0.0, "bike_id": "aa63b0ac61d6603685fff6c94b4fd371", "lon": -77.08861133333333, "rental_uris": {"ios": "https://dc.lft.to/lastmile_qr_scan", "android": "https://dc.lft.to/lastmile_qr_scan"}}, {"name": "8bc7e8c1a2aa4d26a2f498f4f723a7e5", "fusion_lat": 0.0, "type": "electric_scooter", "lat": 38.90474416666667, "is_reserved": 0, "is_disabled": 0, "fusion_lon": 0.0, "bike_id": "8bc7e8c1a2aa4d26a2f498f4f723a7e5", "lon": -77.0415, "rental_uris": {"ios": "https://dc.lft.to/lastmile_qr_scan", "android": "https://dc.lft.to/lastmile_qr_scan"}}, {"name": "d2b1a7a72b82940e034c7999e62c9761", "fusion_lat": 0.0, "type": "electric_scooter", "lat": 38.89561483333333, "is_reserved": 0, "is_disabled": 0, "fusion_lon": 0.0, "bike_id": "d2b1a7a72b82940e034c7999e62c9761", "lon": -77.03096866666667, "rental_uris": {"ios": "https://dc.lft.to/lastmile_qr_scan", "android": "https://dc.lft.to/lastmile_qr_scan"}}, {"name": "0730f2ca5ff1d9abf179824720da3bc9", "fusion_lat": 0.0, "type": "electric_scooter", "lat": 38.90964133333333, "is_reserved": 0, "is_disabled": 0, "fusion_lon": 0.0, "bike_id": "0730f2ca5ff1d9abf179824720da3bc9", "lon": -77.04480133333334, "rental_uris": {"ios": "https://dc.lft.to/lastmile_qr_scan", "android": "https://dc.lft.to/lastmile_qr_scan"}}, {"name": "9da577cb1af436a0fc1c1879662daf3c", "fusion_lat": 0.0, "type": "electric_scooter", "lat": 38.91932283333333, "is_reserved": 0, "is_disabled": 0, "fusion_lon": 0.0, "bike_id": "9da577cb1af436a0fc1c1879662daf3c", "lon": -77.02385816666667, "rental_uris": {"ios": "https://dc.lft.to/lastmile_qr_scan", "android": "https://dc.lft.to/lastmile_qr_scan"}}, {"name": "a28ee2daaa5a4ea2668a0dd0a9732565", "fusion_lat": 0.0, "type": "electric_scooter", "lat": 38.902653, "is_reserved": 0, "is_disabled": 0, "fusion_lon": 0.0, "bike_id": "a28ee2daaa5a4ea2668a0dd0a9732565", "lon": -77.03214233333334, "rental_uris": {"ios": "https://dc.lft.to/lastmile_qr_scan", "android": "https://dc.lft.to/lastmile_qr_scan"}}, {"name": "bd1f3ec724096583ffbfc5827900de4c", "fusion_lat": 0.0, "type": "electric_scooter", "lat": 38.90473716666666, "is_reserved": 0, "is_disabled": 0, "fusion_lon": 0.0, "bike_id": "bd1f3ec724096583ffbfc5827900de4c", "lon": -77.0414545, "rental_uris": {"ios": "https://dc.lft.to/lastmile_qr_scan", "android": "https://dc.lft.to/lastmile_qr_scan"}}, {"name": "ef2ded843c6668d69e8939c38ed033d1", "fusion_lat": 0.0, "type": "electric_scooter", "lat": 38.89733433333333, "is_reserved": 0, "is_disabled": 0, "fusion_lon": 0.0, "bike_id": "ef2ded843c6668d69e8939c38ed033d1", "lon": -77.0465115, "rental_uris": {"ios": "https://dc.lft.to/lastmile_qr_scan", "android": "https://dc.lft.to/lastmile_qr_scan"}}, {"name": "d59bad93d39a2718d141ce65bfd180df", "fusion_lat": 0.0, "type": "electric_scooter", "lat": 38.9251345, "is_reserved": 0, "is_disabled": 0, "fusion_lon": 0.0, "bike_id": "d59bad93d39a2718d141ce65bfd180df", "lon": -77.02391933333334, "rental_uris": {"ios": "https://dc.lft.to/lastmile_qr_scan", "android": "https://dc.lft.to/lastmile_qr_scan"}}, {"name": "f7a1e7a83e84436d8a4eb5d4a5ebcd91", "fusion_lat": 0.0, "type": "electric_scooter", "lat": 38.918076, "is_reserved": 0, "is_disabled": 0, "fusion_lon": 0.0, "bike_id": "f7a1e7a83e84436d8a4eb5d4a5ebcd91", "lon": -77.011481, "rental_uris": {"ios": "https://dc.lft.to/lastmile_qr_scan", "android": "https://dc.lft.to/lastmile_qr_scan"}}, {"name": "2d0d3c4b89a61a240f05d5a85d727529", "fusion_lat": 0.0, "type": "electric_bike", "lat": 39.058103833333334, "is_reserved": 0, "is_disabled": 0, "fusion_lon": 0.0, "bike_id": "2d0d3c4b89a61a240f05d5a85d727529", "lon": -77.126261, "rental_uris": {"ios": "https://dc.lft.to/lastmile_qr_scan", "android": "https://dc.lft.to/lastmile_qr_scan"}}, {"name": "206108d3282cdd9a49bfccc72304711b", "fusion_lat": 0.0, "type": "electric_scooter", "lat": 38.91424816666667, "is_reserved": 0, "is_disabled": 0, "fusion_lon": 0.0, "bike_id": "206108d3282cdd9a49bfccc72304711b", "lon": -77.03183566666667, "rental_uris": {"ios": "https://dc.lft.to/lastmile_qr_scan", "android": "https://dc.lft.to/lastmile_qr_scan"}}, {"name": "5fa3224705eb2b2dbefe3967c9d8164d", "fusion_lat": 0.0, "type": "electric_scooter", "lat": 38.90572383333333, "is_reserved": 0, "is_disabled": 0, "fusion_lon": 0.0, "bike_id": "5fa3224705eb2b2dbefe3967c9d8164d", "lon": -77.00524516666667, "rental_uris": {"ios": "https://dc.lft.to/lastmile_qr_scan", "android": "https://dc.lft.to/lastmile_qr_scan"}}, {"name": "640c7440336ae48f9bd26ae2537cbe68", "fusion_lat": 0.0, "type": "electric_scooter", "lat": 38.919797333333335, "is_reserved": 0, "is_disabled": 0, "fusion_lon": 0.0, "bike_id": "640c7440336ae48f9bd26ae2537cbe68", "lon": -77.02376033333333, "rental_uris": {"ios": "https://dc.lft.to/lastmile_qr_scan", "android": "https://dc.lft.to/lastmile_qr_scan"}}, {"name": "a88b5985c6bdd431e3e195db10b5ce16", "fusion_lat": 0.0, "type": "electric_scooter", "lat": 38.918107166666665, "is_reserved": 0, "is_disabled": 0, "fusion_lon": 0.0, "bike_id": "a88b5985c6bdd431e3e195db10b5ce16", "lon": -77.04012316666666, "rental_uris": {"ios": "https://dc.lft.to/lastmile_qr_scan", "android": "https://dc.lft.to/lastmile_qr_scan"}}, {"name": "e4b6cf09cb31aef2d7751de28c14b4a7", "fusion_lat": 0.0, "type": "electric_scooter", "lat": 38.88729933333333, "is_reserved": 0, "is_disabled": 0, "fusion_lon": 0.0, "bike_id": "e4b6cf09cb31aef2d7751de28c14b4a7", "lon": -77.01766716666667, "rental_uris": {"ios": "https://dc.lft.to/lastmile_qr_scan", "android": "https://dc.lft.to/lastmile_qr_scan"}}, {"name": "e1671de13ecd89cb79bbed5578fc02de", "fusion_lat": 0.0, "type": "electric_scooter", "lat": 38.90798133333333, "is_reserved": 0, "is_disabled": 0, "fusion_lon": 0.0, "bike_id": "e1671de13ecd89cb79bbed5578fc02de", "lon": -77.03833066666667, "rental_uris": {"ios": "https://dc.lft.to/lastmile_qr_scan", "android": "https://dc.lft.to/lastmile_qr_scan"}}, {"name": "a71511b979577924c78fa1a803a5acf4", "fusion_lat": 0.0, "type": "electric_bike", "lat": 39.088984833333335, "is_reserved": 0, "is_disabled": 0, "fusion_lon": 0.0, "bike_id": "a71511b979577924c78fa1a803a5acf4", "lon": -77.178441, "rental_uris": {"ios": "https://dc.lft.to/lastmile_qr_scan", "android": "https://dc.lft.to/lastmile_qr_scan"}}, {"name": "84db120f587d5da28df83d474110b24a", "fusion_lat": 0.0, "type": "electric_bike", "lat": 38.84611183333333, "is_reserved": 0, "is_disabled": 0, "fusion_lon": 0.0, "bike_id": "84db120f587d5da28df83d474110b24a", "lon": -76.97832633333333, "rental_uris": {"ios": "https://dc.lft.to/lastmile_qr_scan", "android": "https://dc.lft.to/lastmile_qr_scan"}}, {"name": "e7a327e219c0b5648ed71331b48803d1", "fusion_lat": 0.0, "type": "electric_scooter", "lat": 38.9287045, "is_reserved": 0, "is_disabled": 0, "fusion_lon": 0.0, "bike_id": "e7a327e219c0b5648ed71331b48803d1", "lon": -77.014195, "rental_uris": {"ios": "https://dc.lft.to/lastmile_qr_scan", "android": "https://dc.lft.to/lastmile_qr_scan"}}, {"name": "500216a22fd90513e2ead6135723b71a", "fusion_lat": 0.0, "type": "electric_scooter", "lat": 38.9193535, "is_reserved": 0, "is_disabled": 0, "fusion_lon": 0.0, "bike_id": "500216a22fd90513e2ead6135723b71a", "lon": -77.03179666666666, "rental_uris": {"ios": "https://dc.lft.to/lastmile_qr_scan", "android": "https://dc.lft.to/lastmile_qr_scan"}}, {"name": "42fa6bd3c27b0242e55b6f376ebfd5c7", "fusion_lat": 0.0, "type": "electric_scooter", "lat": 38.90132716666667, "is_reserved": 0, "is_disabled": 0, "fusion_lon": 0.0, "bike_id": "42fa6bd3c27b0242e55b6f376ebfd5c7", "lon": -77.01804883333334, "rental_uris": {"ios": "https://dc.lft.to/lastmile_qr_scan", "android": "https://dc.lft.to/lastmile_qr_scan"}}, {"name": "24d0c34e21619dadda7a4328d3cef706", "fusion_lat": 0.0, "type": "electric_bike", "lat": 38.953560833333334, "is_reserved": 0, "is_disabled": 0, "fusion_lon": 0.0, "bike_id": "24d0c34e21619dadda7a4328d3cef706", "lon": -76.98095583333334, "rental_uris": {"ios": "https://dc.lft.to/lastmile_qr_scan", "android": "https://dc.lft.to/lastmile_qr_scan"}}, {"name": "364e9e669793d65fd128378936665209", "fusion_lat": 0.0, "type": "electric_scooter", "lat": 38.8891535, "is_reserved": 0, "is_disabled": 0, "fusion_lon": 0.0, "bike_id": "364e9e669793d65fd128378936665209", "lon": -76.95374316666667, "rental_uris": {"ios": "https://dc.lft.to/lastmile_qr_scan", "android": "https://dc.lft.to/lastmile_qr_scan"}}, {"name": "cb05c1d8bf62ef4f91c0d439330a8e13", "fusion_lat": 0.0, "type": "electric_scooter", "lat": 38.92108433333333, "is_reserved": 0, "is_disabled": 0, "fusion_lon": 0.0, "bike_id": "cb05c1d8bf62ef4f91c0d439330a8e13", "lon": -77.04385066666667, "rental_uris": {"ios": "https://dc.lft.to/lastmile_qr_scan", "android": "https://dc.lft.to/lastmile_qr_scan"}}, {"name": "b028af518a99815f04b74f006d3196f2", "fusion_lat": 0.0, "type": "electric_scooter", "lat": 38.9288545, "is_reserved": 0, "is_disabled": 0, "fusion_lon": 0.0, "bike_id": "b028af518a99815f04b74f006d3196f2", "lon": -77.02309633333333, "rental_uris": {"ios": "https://dc.lft.to/lastmile_qr_scan", "android": "https://dc.lft.to/lastmile_qr_scan"}}, {"name": "517916b110b1ddb7bb44dad1b2740a43", "fusion_lat": 0.0, "type": "electric_scooter", "lat": 38.898437333333334, "is_reserved": 0, "is_disabled": 0, "fusion_lon": 0.0, "bike_id": "517916b110b1ddb7bb44dad1b2740a43", "lon": -77.03331083333333, "rental_uris": {"ios": "https://dc.lft.to/lastmile_qr_scan", "android": "https://dc.lft.to/lastmile_qr_scan"}}, {"name": "31fa40ac1d260ed5f73f40b2ee4e7426", "fusion_lat": 0.0, "type": "electric_scooter", "lat": 38.92639066666667, "is_reserved": 0, "is_disabled": 0, "fusion_lon": 0.0, "bike_id": "31fa40ac1d260ed5f73f40b2ee4e7426", "lon": -77.03694233333333, "rental_uris": {"ios": "https://dc.lft.to/lastmile_qr_scan", "android": "https://dc.lft.to/lastmile_qr_scan"}}, {"name": "b39b6f14f9aa6a053fa3863617d2e524", "fusion_lat": 0.0, "type": "electric_scooter", "lat": 38.89892183333333, "is_reserved": 0, "is_disabled": 0, "fusion_lon": 0.0, "bike_id": "b39b6f14f9aa6a053fa3863617d2e524", "lon": -77.02161266666667, "rental_uris": {"ios": "https://dc.lft.to/lastmile_qr_scan", "android": "https://dc.lft.to/lastmile_qr_scan"}}, {"name": "7b04943061b992042e9eef56218c280b", "fusion_lat": 0.0, "type": "electric_scooter", "lat": 38.905477833333336, "is_reserved": 0, "is_disabled": 0, "fusion_lon": 0.0, "bike_id": "7b04943061b992042e9eef56218c280b", "lon": -77.04754616666666, "rental_uris": {"ios": "https://dc.lft.to/lastmile_qr_scan", "android": "https://dc.lft.to/lastmile_qr_scan"}}, {"name": "cb64f5459164b09e01b8430d40f92ab1", "fusion_lat": 0.0, "type": "electric_scooter", "lat": 38.9349725, "is_reserved": 0, "is_disabled": 0, "fusion_lon": 0.0, "bike_id": "cb64f5459164b09e01b8430d40f92ab1", "lon": -77.025494, "rental_uris": {"ios": "https://dc.lft.to/lastmile_qr_scan", "android": "https://dc.lft.to/lastmile_qr_scan"}}, {"name": "e2f72dbcc17bba92241d305ad4df7b83", "fusion_lat": 0.0, "type": "electric_scooter", "lat": 38.877851, "is_reserved": 0, "is_disabled": 0, "fusion_lon": 0.0, "bike_id": "e2f72dbcc17bba92241d305ad4df7b83", "lon": -76.99407166666667, "rental_uris": {"ios": "https://dc.lft.to/lastmile_qr_scan", "android": "https://dc.lft.to/lastmile_qr_scan"}}, {"name": "0f22557a12541406ac3182053a77086e", "fusion_lat": 0.0, "type": "electric_scooter", "lat": 38.866947, "is_reserved": 0, "is_disabled": 0, "fusion_lon": 0.0, "bike_id": "0f22557a12541406ac3182053a77086e", "lon": -76.98903233333333, "rental_uris": {"ios": "https://dc.lft.to/lastmile_qr_scan", "android": "https://dc.lft.to/lastmile_qr_scan"}}, {"name": "3e81bcf3db9c0c10b3711e015c0fc736", "fusion_lat": 0.0, "type": "electric_scooter", "lat": 38.8766615, "is_reserved": 0, "is_disabled": 0, "fusion_lon": 0.0, "bike_id": "3e81bcf3db9c0c10b3711e015c0fc736", "lon": -77.00066716666667, "rental_uris": {"ios": "https://dc.lft.to/lastmile_qr_scan", "android": "https://dc.lft.to/lastmile_qr_scan"}}, {"name": "89b9408dc08dfd886bfeae304a8f7191", "fusion_lat": 0.0, "type": "electric_scooter", "lat": 38.9066715, "is_reserved": 0, "is_disabled": 0, "fusion_lon": 0.0, "bike_id": "89b9408dc08dfd886bfeae304a8f7191", "lon": -77.0385235, "rental_uris": {"ios": "https://dc.lft.to/lastmile_qr_scan", "android": "https://dc.lft.to/lastmile_qr_scan"}}, {"name": "b8185264864ac92a6b28fce9f99cb397", "fusion_lat": 0.0, "type": "electric_scooter", "lat": 38.865353166666665, "is_reserved": 0, "is_disabled": 0, "fusion_lon": 0.0, "bike_id": "b8185264864ac92a6b28fce9f99cb397", "lon": -76.98704483333333, "rental_uris": {"ios": "https://dc.lft.to/lastmile_qr_scan", "android": "https://dc.lft.to/lastmile_qr_scan"}}, {"name": "8291dd6d08a0e775b21fbb8ae53f6bea", "fusion_lat": 0.0, "type": "electric_scooter", "lat": 38.902675333333335, "is_reserved": 0, "is_disabled": 0, "fusion_lon": 0.0, "bike_id": "8291dd6d08a0e775b21fbb8ae53f6bea", "lon": -76.987177, "rental_uris": {"ios": "https://dc.lft.to/lastmile_qr_scan", "android": "https://dc.lft.to/lastmile_qr_scan"}}, {"name": "0d5a024b1d88263383d43e4bc02aa7e2", "fusion_lat": 0.0, "type": "electric_bike", "lat": 39.05317133333333, "is_reserved": 0, "is_disabled": 0, "fusion_lon": 0.0, "bike_id": "0d5a024b1d88263383d43e4bc02aa7e2", "lon": -77.047741, "rental_uris": {"ios": "https://dc.lft.to/lastmile_qr_scan", "android": "https://dc.lft.to/lastmile_qr_scan"}}, {"name": "d8f2706c1ea0c91730decb95e41e1394", "fusion_lat": 0.0, "type": "electric_bike", "lat": 39.08854866666667, "is_reserved": 0, "is_disabled": 0, "fusion_lon": 0.0, "bike_id": "d8f2706c1ea0c91730decb95e41e1394", "lon": -77.17841066666666, "rental_uris": {"ios": "https://dc.lft.to/lastmile_qr_scan", "android": "https://dc.lft.to/lastmile_qr_scan"}}, {"name": "b64e8e272f8f22536ac378cb3d9598d0", "fusion_lat": 0.0, "type": "electric_bike", "lat": 38.93519966666667, "is_reserved": 0, "is_disabled": 0, "fusion_lon": 0.0, "bike_id": "b64e8e272f8f22536ac378cb3d9598d0", "lon": -76.9506365, "rental_uris": {"ios": "https://dc.lft.to/lastmile_qr_scan", "android": "https://dc.lft.to/lastmile_qr_scan"}}, {"name": "3da11b1a5e2ce3d6828a7b7e613114ba", "fusion_lat": 0.0, "type": "electric_scooter", "lat": 38.907046, "is_reserved": 0, "is_disabled": 0, "fusion_lon": 0.0, "bike_id": "3da11b1a5e2ce3d6828a7b7e613114ba", "lon": -77.02967366666667, "rental_uris": {"ios": "https://dc.lft.to/lastmile_qr_scan", "android": "https://dc.lft.to/lastmile_qr_scan"}}, {"name": "c8a3968d1cb6e41be71358ffcbf657d8", "fusion_lat": 0.0, "type": "electric_bike", "lat": 38.90287166666667, "is_reserved": 0, "is_disabled": 0, "fusion_lon": 0.0, "bike_id": "c8a3968d1cb6e41be71358ffcbf657d8", "lon": -76.98085466666667, "rental_uris": {"ios": "https://dc.lft.to/lastmile_qr_scan", "android": "https://dc.lft.to/lastmile_qr_scan"}}, {"name": "aae62993f4a14580cc2a5626d4c7cfaf", "fusion_lat": 0.0, "type": "electric_scooter", "lat": 38.907284, "is_reserved": 0, "is_disabled": 0, "fusion_lon": 0.0, "bike_id": "aae62993f4a14580cc2a5626d4c7cfaf", "lon": -77.03459733333334, "rental_uris": {"ios": "https://dc.lft.to/lastmile_qr_scan", "android": "https://dc.lft.to/lastmile_qr_scan"}}, {"name": "1039f2c4136d2f8c79bc8870e3db88c2", "fusion_lat": 0.0, "type": "electric_scooter", "lat": 38.930917, "is_reserved": 0, "is_disabled": 0, "fusion_lon": 0.0, "bike_id": "1039f2c4136d2f8c79bc8870e3db88c2", "lon": -77.024214, "rental_uris": {"ios": "https://dc.lft.to/lastmile_qr_scan", "android": "https://dc.lft.to/lastmile_qr_scan"}}, {"name": "cf36a34aa89fbb61b3d0d161dcaae664", "fusion_lat": 0.0, "type": "electric_scooter", "lat": 38.91801366666667, "is_reserved": 0, "is_disabled": 0, "fusion_lon": 0.0, "bike_id": "cf36a34aa89fbb61b3d0d161dcaae664", "lon": -77.02816566666667, "rental_uris": {"ios": "https://dc.lft.to/lastmile_qr_scan", "android": "https://dc.lft.to/lastmile_qr_scan"}}, {"name": "dd8d87b85f2c072b2d8255045735dfa8", "fusion_lat": 0.0, "type": "electric_scooter", "lat": 38.918191666666665, "is_reserved": 0, "is_disabled": 0, "fusion_lon": 0.0, "bike_id": "dd8d87b85f2c072b2d8255045735dfa8", "lon": -77.0401755, "rental_uris": {"ios": "https://dc.lft.to/lastmile_qr_scan", "android": "https://dc.lft.to/lastmile_qr_scan"}}, {"name": "706833fa7c188b54fceaa8010cb218c5", "fusion_lat": 0.0, "type": "electric_scooter", "lat": 38.87460466666667, "is_reserved": 0, "is_disabled": 0, "fusion_lon": 0.0, "bike_id": "706833fa7c188b54fceaa8010cb218c5", "lon": -77.00170716666666, "rental_uris": {"ios": "https://dc.lft.to/lastmile_qr_scan", "android": "https://dc.lft.to/lastmile_qr_scan"}}, {"name": "1a0792b16cfd262d73b67f7be3bd99ae", "fusion_lat": 0.0, "type": "electric_scooter", "lat": 38.90139933333333, "is_reserved": 0, "is_disabled": 0, "fusion_lon": 0.0, "bike_id": "1a0792b16cfd262d73b67f7be3bd99ae", "lon": -76.99970366666666, "rental_uris": {"ios": "https://dc.lft.to/lastmile_qr_scan", "android": "https://dc.lft.to/lastmile_qr_scan"}}, {"name": "c64a50ece1ad97a0471bb295bad38b2a", "fusion_lat": 0.0, "type": "electric_bike", "lat": 38.9732215, "is_reserved": 0, "is_disabled": 0, "fusion_lon": 0.0, "bike_id": "c64a50ece1ad97a0471bb295bad38b2a", "lon": -77.0215605, "rental_uris": {"ios": "https://dc.lft.to/lastmile_qr_scan", "android": "https://dc.lft.to/lastmile_qr_scan"}}, {"name": "595713ff7cb269be00e20baf42a9bcac", "fusion_lat": 0.0, "type": "electric_bike", "lat": 38.838106833333335, "is_reserved": 0, "is_disabled": 0, "fusion_lon": 0.0, "bike_id": "595713ff7cb269be00e20baf42a9bcac", "lon": -77.09523116666666, "rental_uris": {"ios": "https://dc.lft.to/lastmile_qr_scan", "android": "https://dc.lft.to/lastmile_qr_scan"}}, {"name": "796b1267faee9a53cb00a0ee3b3ecd0a", "fusion_lat": 0.0, "type": "electric_bike", "lat": 38.97067, "is_reserved": 0, "is_disabled": 0, "fusion_lon": 0.0, "bike_id": "796b1267faee9a53cb00a0ee3b3ecd0a", "lon": -76.93620183333333, "rental_uris": {"ios": "https://dc.lft.to/lastmile_qr_scan", "android": "https://dc.lft.to/lastmile_qr_scan"}}, {"name": "3d2bdff4603fdbb64f225d887102c75f", "fusion_lat": 0.0, "type": "electric_scooter", "lat": 38.9342755, "is_reserved": 0, "is_disabled": 0, "fusion_lon": 0.0, "bike_id": "3d2bdff4603fdbb64f225d887102c75f", "lon": -77.04008216666666, "rental_uris": {"ios": "https://dc.lft.to/lastmile_qr_scan", "android": "https://dc.lft.to/lastmile_qr_scan"}}, {"name": "8d09bf87bf6dcce43259e90fe23e829a", "fusion_lat": 0.0, "type": "electric_scooter", "lat": 38.90431866666667, "is_reserved": 0, "is_disabled": 0, "fusion_lon": 0.0, "bike_id": "8d09bf87bf6dcce43259e90fe23e829a", "lon": -77.0259525, "rental_uris": {"ios": "https://dc.lft.to/lastmile_qr_scan", "android": "https://dc.lft.to/lastmile_qr_scan"}}, {"name": "d9e0d2240ef3ebee9ce3e83cc61bdec7", "fusion_lat": 0.0, "type": "electric_scooter", "lat": 38.904354166666664, "is_reserved": 0, "is_disabled": 0, "fusion_lon": 0.0, "bike_id": "d9e0d2240ef3ebee9ce3e83cc61bdec7", "lon": -77.0287265, "rental_uris": {"ios": "https://dc.lft.to/lastmile_qr_scan", "android": "https://dc.lft.to/lastmile_qr_scan"}}, {"name": "d94745ead8b6f248e2e9ca2f4f1b5ecf", "fusion_lat": 0.0, "type": "electric_scooter", "lat": 38.883790833333336, "is_reserved": 0, "is_disabled": 0, "fusion_lon": 0.0, "bike_id": "d94745ead8b6f248e2e9ca2f4f1b5ecf", "lon": -77.01777466666667, "rental_uris": {"ios": "https://dc.lft.to/lastmile_qr_scan", "android": "https://dc.lft.to/lastmile_qr_scan"}}, {"name": "c8972a4b08df4085f0930f3082e60474", "fusion_lat": 0.0, "type": "electric_scooter", "lat": 38.904884333333335, "is_reserved": 0, "is_disabled": 0, "fusion_lon": 0.0, "bike_id": "c8972a4b08df4085f0930f3082e60474", "lon": -77.027556, "rental_uris": {"ios": "https://dc.lft.to/lastmile_qr_scan", "android": "https://dc.lft.to/lastmile_qr_scan"}}, {"name": "ea6bb85ebcd96b00022c8f1a7448cf94", "fusion_lat": 0.0, "type": "electric_scooter", "lat": 38.920835, "is_reserved": 0, "is_disabled": 0, "fusion_lon": 0.0, "bike_id": "ea6bb85ebcd96b00022c8f1a7448cf94", "lon": -77.02219166666667, "rental_uris": {"ios": "https://dc.lft.to/lastmile_qr_scan", "android": "https://dc.lft.to/lastmile_qr_scan"}}, {"name": "324a665fd2edaba489711d5f356bc8ae", "fusion_lat": 0.0, "type": "electric_bike", "lat": 38.8723595, "is_reserved": 0, "is_disabled": 0, "fusion_lon": 0.0, "bike_id": "324a665fd2edaba489711d5f356bc8ae", "lon": -77.01166916666666, "rental_uris": {"ios": "https://dc.lft.to/lastmile_qr_scan", "android": "https://dc.lft.to/lastmile_qr_scan"}}, {"name": "b3a388596397f193cdc6b6a62a1ee5c1", "fusion_lat": 0.0, "type": "electric_scooter", "lat": 38.90511516666667, "is_reserved": 0, "is_disabled": 0, "fusion_lon": 0.0, "bike_id": "b3a388596397f193cdc6b6a62a1ee5c1", "lon": -77.0514605, "rental_uris": {"ios": "https://dc.lft.to/lastmile_qr_scan", "android": "https://dc.lft.to/lastmile_qr_scan"}}, {"name": "d4a424528c30880849ebe7c323d29201", "fusion_lat": 0.0, "type": "electric_scooter", "lat": 38.90864933333334, "is_reserved": 0, "is_disabled": 0, "fusion_lon": 0.0, "bike_id": "d4a424528c30880849ebe7c323d29201", "lon": -76.99959616666666, "rental_uris": {"ios": "https://dc.lft.to/lastmile_qr_scan", "android": "https://dc.lft.to/lastmile_qr_scan"}}, {"name": "10b986dbf69addb20e5a56e4c3ed152c", "fusion_lat": 0.0, "type": "electric_bike", "lat": 38.994542, "is_reserved": 0, "is_disabled": 0, "fusion_lon": 0.0, "bike_id": "10b986dbf69addb20e5a56e4c3ed152c", "lon": -76.90817833333334, "rental_uris": {"ios": "https://dc.lft.to/lastmile_qr_scan", "android": "https://dc.lft.to/lastmile_qr_scan"}}, {"name": "1a3f30b61f23ffe553f2fe5e3a66f9ce", "fusion_lat": 0.0, "type": "electric_bike", "lat": 38.88589433333333, "is_reserved": 0, "is_disabled": 0, "fusion_lon": 0.0, "bike_id": "1a3f30b61f23ffe553f2fe5e3a66f9ce", "lon": -77.00067633333333, "rental_uris": {"ios": "https://dc.lft.to/lastmile_qr_scan", "android": "https://dc.lft.to/lastmile_qr_scan"}}, {"name": "8aa64fac868782b05e9c7c52a8357385", "fusion_lat": 0.0, "type": "electric_scooter", "lat": 38.91196983333333, "is_reserved": 0, "is_disabled": 0, "fusion_lon": 0.0, "bike_id": "8aa64fac868782b05e9c7c52a8357385", "lon": -77.00725116666666, "rental_uris": {"ios": "https://dc.lft.to/lastmile_qr_scan", "android": "https://dc.lft.to/lastmile_qr_scan"}}, {"name": "7f8695de8f87e9520c9c9b5219719241", "fusion_lat": 0.0, "type": "electric_scooter", "lat": 38.910461833333336, "is_reserved": 0, "is_disabled": 0, "fusion_lon": 0.0, "bike_id": "7f8695de8f87e9520c9c9b5219719241", "lon": -77.041347, "rental_uris": {"ios": "https://dc.lft.to/lastmile_qr_scan", "android": "https://dc.lft.to/lastmile_qr_scan"}}, {"name": "840e3b6ef4a62130a7936df5a0df2ed7", "fusion_lat": 0.0, "type": "electric_scooter", "lat": 38.91109383333333, "is_reserved": 0, "is_disabled": 0, "fusion_lon": 0.0, "bike_id": "840e3b6ef4a62130a7936df5a0df2ed7", "lon": -77.01061733333333, "rental_uris": {"ios": "https://dc.lft.to/lastmile_qr_scan", "android": "https://dc.lft.to/lastmile_qr_scan"}}, {"name": "3b08f01643fc381faf1e41dde4544053", "fusion_lat": 0.0, "type": "electric_scooter", "lat": 38.908135333333334, "is_reserved": 0, "is_disabled": 0, "fusion_lon": 0.0, "bike_id": "3b08f01643fc381faf1e41dde4544053", "lon": -77.03459983333333, "rental_uris": {"ios": "https://dc.lft.to/lastmile_qr_scan", "android": "https://dc.lft.to/lastmile_qr_scan"}}, {"name": "d56650adacf474abd5f5d8a3d78ef253", "fusion_lat": 0.0, "type": "electric_scooter", "lat": 38.905181, "is_reserved": 0, "is_disabled": 0, "fusion_lon": 0.0, "bike_id": "d56650adacf474abd5f5d8a3d78ef253", "lon": -77.069394, "rental_uris": {"ios": "https://dc.lft.to/lastmile_qr_scan", "android": "https://dc.lft.to/lastmile_qr_scan"}}, {"name": "7cb776ce54a2d6ce58efd41c8e6eea47", "fusion_lat": 0.0, "type": "electric_scooter", "lat": 38.89839, "is_reserved": 0, "is_disabled": 0, "fusion_lon": 0.0, "bike_id": "7cb776ce54a2d6ce58efd41c8e6eea47", "lon": -77.03311933333333, "rental_uris": {"ios": "https://dc.lft.to/lastmile_qr_scan", "android": "https://dc.lft.to/lastmile_qr_scan"}}, {"name": "e957347c5486e2e3bfbefda76148290b", "fusion_lat": 0.0, "type": "electric_scooter", "lat": 38.931081666666664, "is_reserved": 0, "is_disabled": 0, "fusion_lon": 0.0, "bike_id": "e957347c5486e2e3bfbefda76148290b", "lon": -77.0383925, "rental_uris": {"ios": "https://dc.lft.to/lastmile_qr_scan", "android": "https://dc.lft.to/lastmile_qr_scan"}}, {"name": "b60aab54f85aa1fc5a3217d1efe68e99", "fusion_lat": 0.0, "type": "electric_scooter", "lat": 38.9177515, "is_reserved": 0, "is_disabled": 0, "fusion_lon": 0.0, "bike_id": "b60aab54f85aa1fc5a3217d1efe68e99", "lon": -77.02341683333333, "rental_uris": {"ios": "https://dc.lft.to/lastmile_qr_scan", "android": "https://dc.lft.to/lastmile_qr_scan"}}, {"name": "1a9e59956e41c673817e5017a621c726", "fusion_lat": 0.0, "type": "electric_scooter", "lat": 38.905230333333336, "is_reserved": 0, "is_disabled": 0, "fusion_lon": 0.0, "bike_id": "1a9e59956e41c673817e5017a621c726", "lon": -77.02976316666667, "rental_uris": {"ios": "https://dc.lft.to/lastmile_qr_scan", "android": "https://dc.lft.to/lastmile_qr_scan"}}, {"name": "2c470685822c0a61e87f819a36d22603", "fusion_lat": 0.0, "type": "electric_bike", "lat": 38.9355065, "is_reserved": 0, "is_disabled": 0, "fusion_lon": 0.0, "bike_id": "2c470685822c0a61e87f819a36d22603", "lon": -77.08233133333333, "rental_uris": {"ios": "https://dc.lft.to/lastmile_qr_scan", "android": "https://dc.lft.to/lastmile_qr_scan"}}, {"name": "46c52b5891e0acde73b176d53e87e233", "fusion_lat": 0.0, "type": "electric_scooter", "lat": 38.93940116666667, "is_reserved": 0, "is_disabled": 0, "fusion_lon": 0.0, "bike_id": "46c52b5891e0acde73b176d53e87e233", "lon": -77.03619216666667, "rental_uris": {"ios": "https://dc.lft.to/lastmile_qr_scan", "android": "https://dc.lft.to/lastmile_qr_scan"}}, {"name": "b8c5248d46da265ef6b4f04932677334", "fusion_lat": 0.0, "type": "electric_scooter", "lat": 38.90679333333333, "is_reserved": 0, "is_disabled": 0, "fusion_lon": 0.0, "bike_id": "b8c5248d46da265ef6b4f04932677334", "lon": -76.97998833333334, "rental_uris": {"ios": "https://dc.lft.to/lastmile_qr_scan", "android": "https://dc.lft.to/lastmile_qr_scan"}}, {"name": "53fc72c142bbd781425a7f0a07b8106f", "fusion_lat": 0.0, "type": "electric_bike", "lat": 38.80790566666667, "is_reserved": 0, "is_disabled": 0, "fusion_lon": 0.0, "bike_id": "53fc72c142bbd781425a7f0a07b8106f", "lon": -77.1296375, "rental_uris": {"ios": "https://dc.lft.to/lastmile_qr_scan", "android": "https://dc.lft.to/lastmile_qr_scan"}}, {"name": "628949cca602a8e7c63b081d0533e3af", "fusion_lat": 0.0, "type": "electric_scooter", "lat": 38.92347783333334, "is_reserved": 0, "is_disabled": 0, "fusion_lon": 0.0, "bike_id": "628949cca602a8e7c63b081d0533e3af", "lon": -77.05434433333333, "rental_uris": {"ios": "https://dc.lft.to/lastmile_qr_scan", "android": "https://dc.lft.to/lastmile_qr_scan"}}, {"name": "59a2fd182e8ca6e51989d7d772183492", "fusion_lat": 0.0, "type": "electric_bike", "lat": 38.852109666666664, "is_reserved": 0, "is_disabled": 0, "fusion_lon": 0.0, "bike_id": "59a2fd182e8ca6e51989d7d772183492", "lon": -77.04645133333334, "rental_uris": {"ios": "https://dc.lft.to/lastmile_qr_scan", "android": "https://dc.lft.to/lastmile_qr_scan"}}, {"name": "9a4df1bc4fce9a28da684e8e3601f6bd", "fusion_lat": 0.0, "type": "electric_scooter", "lat": 38.95902066666667, "is_reserved": 0, "is_disabled": 0, "fusion_lon": 0.0, "bike_id": "9a4df1bc4fce9a28da684e8e3601f6bd", "lon": -77.08074883333333, "rental_uris": {"ios": "https://dc.lft.to/lastmile_qr_scan", "android": "https://dc.lft.to/lastmile_qr_scan"}}, {"name": "d0468722a88fa0a84b95844df13b4bed", "fusion_lat": 0.0, "type": "electric_bike", "lat": 38.931266666666666, "is_reserved": 0, "is_disabled": 0, "fusion_lon": 0.0, "bike_id": "d0468722a88fa0a84b95844df13b4bed", "lon": -77.02030683333334, "rental_uris": {"ios": "https://dc.lft.to/lastmile_qr_scan", "android": "https://dc.lft.to/lastmile_qr_scan"}}, {"name": "ed3094fe25dd38f3605f97f6da2254d5", "fusion_lat": 0.0, "type": "electric_scooter", "lat": 38.894056666666664, "is_reserved": 0, "is_disabled": 0, "fusion_lon": 0.0, "bike_id": "ed3094fe25dd38f3605f97f6da2254d5", "lon": -76.93238966666667, "rental_uris": {"ios": "https://dc.lft.to/lastmile_qr_scan", "android": "https://dc.lft.to/lastmile_qr_scan"}}, {"name": "09685f0e2b4f1feeb4ee767f5beb482b", "fusion_lat": 0.0, "type": "electric_scooter", "lat": 38.9320335, "is_reserved": 0, "is_disabled": 0, "fusion_lon": 0.0, "bike_id": "09685f0e2b4f1feeb4ee767f5beb482b", "lon": -77.0365875, "rental_uris": {"ios": "https://dc.lft.to/lastmile_qr_scan", "android": "https://dc.lft.to/lastmile_qr_scan"}}, {"name": "55484aa740d85e5359d5808bf771600b", "fusion_lat": 0.0, "type": "electric_scooter", "lat": 38.90607766666667, "is_reserved": 0, "is_disabled": 0, "fusion_lon": 0.0, "bike_id": "55484aa740d85e5359d5808bf771600b", "lon": -77.005955, "rental_uris": {"ios": "https://dc.lft.to/lastmile_qr_scan", "android": "https://dc.lft.to/lastmile_qr_scan"}}, {"name": "1ff58d91b32fc4bb015597ba5eea1bed", "fusion_lat": 0.0, "type": "electric_scooter", "lat": 38.9042225, "is_reserved": 0, "is_disabled": 0, "fusion_lon": 0.0, "bike_id": "1ff58d91b32fc4bb015597ba5eea1bed", "lon": -76.99072266666667, "rental_uris": {"ios": "https://dc.lft.to/lastmile_qr_scan", "android": "https://dc.lft.to/lastmile_qr_scan"}}, {"name": "d03dce8a014c605012b5c3ea889cc4b5", "fusion_lat": 0.0, "type": "electric_scooter", "lat": 38.87803366666667, "is_reserved": 0, "is_disabled": 0, "fusion_lon": 0.0, "bike_id": "d03dce8a014c605012b5c3ea889cc4b5", "lon": -77.00574316666666, "rental_uris": {"ios": "https://dc.lft.to/lastmile_qr_scan", "android": "https://dc.lft.to/lastmile_qr_scan"}}, {"name": "f16d98b169ba9712e2112b7d44b43b5c", "fusion_lat": 0.0, "type": "electric_scooter", "lat": 38.856582833333334, "is_reserved": 0, "is_disabled": 0, "fusion_lon": 0.0, "bike_id": "f16d98b169ba9712e2112b7d44b43b5c", "lon": -76.990912, "rental_uris": {"ios": "https://dc.lft.to/lastmile_qr_scan", "android": "https://dc.lft.to/lastmile_qr_scan"}}, {"name": "8d95cd3fd4507fd6cf6692af95a08ea2", "fusion_lat": 0.0, "type": "electric_bike", "lat": 38.9571505, "is_reserved": 0, "is_disabled": 0, "fusion_lon": 0.0, "bike_id": "8d95cd3fd4507fd6cf6692af95a08ea2", "lon": -77.014782, "rental_uris": {"ios": "https://dc.lft.to/lastmile_qr_scan", "android": "https://dc.lft.to/lastmile_qr_scan"}}, {"name": "c047689c0e1a171b0b94da0817fecdc8", "fusion_lat": 0.0, "type": "electric_bike", "lat": 39.0037485, "is_reserved": 0, "is_disabled": 0, "fusion_lon": 0.0, "bike_id": "c047689c0e1a171b0b94da0817fecdc8", "lon": -77.01290166666666, "rental_uris": {"ios": "https://dc.lft.to/lastmile_qr_scan", "android": "https://dc.lft.to/lastmile_qr_scan"}}, {"name": "630ae059168a1d698db36d7c78af842f", "fusion_lat": 0.0, "type": "electric_scooter", "lat": 38.92771616666667, "is_reserved": 0, "is_disabled": 0, "fusion_lon": 0.0, "bike_id": "630ae059168a1d698db36d7c78af842f", "lon": -77.02780666666666, "rental_uris": {"ios": "https://dc.lft.to/lastmile_qr_scan", "android": "https://dc.lft.to/lastmile_qr_scan"}}, {"name": "33456b79dfa3c74a0ff1a7a2e3539996", "fusion_lat": 0.0, "type": "electric_scooter", "lat": 38.947015, "is_reserved": 0, "is_disabled": 0, "fusion_lon": 0.0, "bike_id": "33456b79dfa3c74a0ff1a7a2e3539996", "lon": -77.0194705, "rental_uris": {"ios": "https://dc.lft.to/lastmile_qr_scan", "android": "https://dc.lft.to/lastmile_qr_scan"}}, {"name": "08962066b857185b52846dc0f965e06b", "fusion_lat": 0.0, "type": "electric_scooter", "lat": 38.9305645, "is_reserved": 0, "is_disabled": 0, "fusion_lon": 0.0, "bike_id": "08962066b857185b52846dc0f965e06b", "lon": -77.02320766666666, "rental_uris": {"ios": "https://dc.lft.to/lastmile_qr_scan", "android": "https://dc.lft.to/lastmile_qr_scan"}}, {"name": "605277892c2ca317a9b148b72ac30e0c", "fusion_lat": 0.0, "type": "electric_scooter", "lat": 38.923797666666665, "is_reserved": 0, "is_disabled": 0, "fusion_lon": 0.0, "bike_id": "605277892c2ca317a9b148b72ac30e0c", "lon": -77.0316735, "rental_uris": {"ios": "https://dc.lft.to/lastmile_qr_scan", "android": "https://dc.lft.to/lastmile_qr_scan"}}, {"name": "b41e5fe375f450571f62addb62da18e2", "fusion_lat": 0.0, "type": "electric_scooter", "lat": 38.922341333333335, "is_reserved": 0, "is_disabled": 0, "fusion_lon": 0.0, "bike_id": "b41e5fe375f450571f62addb62da18e2", "lon": -77.02984666666667, "rental_uris": {"ios": "https://dc.lft.to/lastmile_qr_scan", "android": "https://dc.lft.to/lastmile_qr_scan"}}, {"name": "3397c33648db3cef6779472eb61ac2df", "fusion_lat": 0.0, "type": "electric_scooter", "lat": 38.900254333333336, "is_reserved": 0, "is_disabled": 0, "fusion_lon": 0.0, "bike_id": "3397c33648db3cef6779472eb61ac2df", "lon": -77.01190633333333, "rental_uris": {"ios": "https://dc.lft.to/lastmile_qr_scan", "android": "https://dc.lft.to/lastmile_qr_scan"}}, {"name": "63fec31e27073e7758ee9118ecf39360", "fusion_lat": 0.0, "type": "electric_scooter", "lat": 38.920088166666666, "is_reserved": 0, "is_disabled": 0, "fusion_lon": 0.0, "bike_id": "63fec31e27073e7758ee9118ecf39360", "lon": -77.03188816666666, "rental_uris": {"ios": "https://dc.lft.to/lastmile_qr_scan", "android": "https://dc.lft.to/lastmile_qr_scan"}}, {"name": "40983cc3a302740bbfebd99bed816585", "fusion_lat": 0.0, "type": "electric_scooter", "lat": 38.90029216666667, "is_reserved": 0, "is_disabled": 0, "fusion_lon": 0.0, "bike_id": "40983cc3a302740bbfebd99bed816585", "lon": -76.99857983333334, "rental_uris": {"ios": "https://dc.lft.to/lastmile_qr_scan", "android": "https://dc.lft.to/lastmile_qr_scan"}}, {"name": "9124312a96f4402c5627a8e903deca1f", "fusion_lat": 0.0, "type": "electric_scooter", "lat": 38.919150333333334, "is_reserved": 0, "is_disabled": 0, "fusion_lon": 0.0, "bike_id": "9124312a96f4402c5627a8e903deca1f", "lon": -77.02397316666666, "rental_uris": {"ios": "https://dc.lft.to/lastmile_qr_scan", "android": "https://dc.lft.to/lastmile_qr_scan"}}, {"name": "19431f45c0884b34e3c3b1e13b65b01b", "fusion_lat": 0.0, "type": "electric_scooter", "lat": 38.8653755, "is_reserved": 0, "is_disabled": 0, "fusion_lon": 0.0, "bike_id": "19431f45c0884b34e3c3b1e13b65b01b", "lon": -76.987095, "rental_uris": {"ios": "https://dc.lft.to/lastmile_qr_scan", "android": "https://dc.lft.to/lastmile_qr_scan"}}, {"name": "08bd9bc7fb6f8d8a98417bfe24da74b6", "fusion_lat": 0.0, "type": "electric_scooter", "lat": 38.9170155, "is_reserved": 0, "is_disabled": 0, "fusion_lon": 0.0, "bike_id": "08bd9bc7fb6f8d8a98417bfe24da74b6", "lon": -77.03505416666667, "rental_uris": {"ios": "https://dc.lft.to/lastmile_qr_scan", "android": "https://dc.lft.to/lastmile_qr_scan"}}, {"name": "4b3740d88c085c6519f40fc4e17e6202", "fusion_lat": 0.0, "type": "electric_scooter", "lat": 38.929015666666665, "is_reserved": 0, "is_disabled": 0, "fusion_lon": 0.0, "bike_id": "4b3740d88c085c6519f40fc4e17e6202", "lon": -77.005254, "rental_uris": {"ios": "https://dc.lft.to/lastmile_qr_scan", "android": "https://dc.lft.to/lastmile_qr_scan"}}, {"name": "e2c62a2683316dd3b186c1480d790c1a", "fusion_lat": 0.0, "type": "electric_scooter", "lat": 38.91193666666667, "is_reserved": 0, "is_disabled": 0, "fusion_lon": 0.0, "bike_id": "e2c62a2683316dd3b186c1480d790c1a", "lon": -77.0345125, "rental_uris": {"ios": "https://dc.lft.to/lastmile_qr_scan", "android": "https://dc.lft.to/lastmile_qr_scan"}}, {"name": "764e514bc1f2e702bfa269a9ef92e2eb", "fusion_lat": 0.0, "type": "electric_scooter", "lat": 38.9153865, "is_reserved": 0, "is_disabled": 0, "fusion_lon": 0.0, "bike_id": "764e514bc1f2e702bfa269a9ef92e2eb", "lon": -77.03851816666666, "rental_uris": {"ios": "https://dc.lft.to/lastmile_qr_scan", "android": "https://dc.lft.to/lastmile_qr_scan"}}, {"name": "b8fb66ab6a57a1d5550f7dc5641adb51", "fusion_lat": 0.0, "type": "electric_scooter", "lat": 38.91409483333333, "is_reserved": 0, "is_disabled": 0, "fusion_lon": 0.0, "bike_id": "b8fb66ab6a57a1d5550f7dc5641adb51", "lon": -77.0212695, "rental_uris": {"ios": "https://dc.lft.to/lastmile_qr_scan", "android": "https://dc.lft.to/lastmile_qr_scan"}}, {"name": "631ba91228d9de3648d3a282d53891dd", "fusion_lat": 0.0, "type": "electric_scooter", "lat": 38.902647333333334, "is_reserved": 0, "is_disabled": 0, "fusion_lon": 0.0, "bike_id": "631ba91228d9de3648d3a282d53891dd", "lon": -77.03004716666666, "rental_uris": {"ios": "https://dc.lft.to/lastmile_qr_scan", "android": "https://dc.lft.to/lastmile_qr_scan"}}, {"name": "434fb81a958d23db4c21437d2040703e", "fusion_lat": 0.0, "type": "electric_scooter", "lat": 38.921583166666665, "is_reserved": 0, "is_disabled": 0, "fusion_lon": 0.0, "bike_id": "434fb81a958d23db4c21437d2040703e", "lon": -77.03389483333333, "rental_uris": {"ios": "https://dc.lft.to/lastmile_qr_scan", "android": "https://dc.lft.to/lastmile_qr_scan"}}, {"name": "90af8bdbd43f4a6daf86b5b11dfd823e", "fusion_lat": 0.0, "type": "electric_scooter", "lat": 38.902729, "is_reserved": 0, "is_disabled": 0, "fusion_lon": 0.0, "bike_id": "90af8bdbd43f4a6daf86b5b11dfd823e", "lon": -77.04396133333333, "rental_uris": {"ios": "https://dc.lft.to/lastmile_qr_scan", "android": "https://dc.lft.to/lastmile_qr_scan"}}, {"name": "5474a2f7e09ab6401bdce248a1b73d85", "fusion_lat": 0.0, "type": "electric_scooter", "lat": 38.897285, "is_reserved": 0, "is_disabled": 0, "fusion_lon": 0.0, "bike_id": "5474a2f7e09ab6401bdce248a1b73d85", "lon": -77.02060533333334, "rental_uris": {"ios": "https://dc.lft.to/lastmile_qr_scan", "android": "https://dc.lft.to/lastmile_qr_scan"}}, {"name": "821467c4afc3d14270249601a9191363", "fusion_lat": 0.0, "type": "electric_scooter", "lat": 38.900161833333335, "is_reserved": 0, "is_disabled": 0, "fusion_lon": 0.0, "bike_id": "821467c4afc3d14270249601a9191363", "lon": -77.00221966666666, "rental_uris": {"ios": "https://dc.lft.to/lastmile_qr_scan", "android": "https://dc.lft.to/lastmile_qr_scan"}}, {"name": "1a6a55f279bc386f455cce2975c337d2", "fusion_lat": 0.0, "type": "electric_scooter", "lat": 38.920456, "is_reserved": 0, "is_disabled": 0, "fusion_lon": 0.0, "bike_id": "1a6a55f279bc386f455cce2975c337d2", "lon": -77.04818533333334, "rental_uris": {"ios": "https://dc.lft.to/lastmile_qr_scan", "android": "https://dc.lft.to/lastmile_qr_scan"}}, {"name": "2a62e238b6bc81016eee9420a1424d29", "fusion_lat": 0.0, "type": "electric_scooter", "lat": 38.92502233333333, "is_reserved": 0, "is_disabled": 0, "fusion_lon": 0.0, "bike_id": "2a62e238b6bc81016eee9420a1424d29", "lon": -77.0235845, "rental_uris": {"ios": "https://dc.lft.to/lastmile_qr_scan", "android": "https://dc.lft.to/lastmile_qr_scan"}}, {"name": "dca62ef32a01cbd610b0c0ded3d17490", "fusion_lat": 0.0, "type": "electric_scooter", "lat": 38.92872283333333, "is_reserved": 0, "is_disabled": 0, "fusion_lon": 0.0, "bike_id": "dca62ef32a01cbd610b0c0ded3d17490", "lon": -77.0138015, "rental_uris": {"ios": "https://dc.lft.to/lastmile_qr_scan", "android": "https://dc.lft.to/lastmile_qr_scan"}}, {"name": "f53fd088b1024f4bd0242d6719aacb5c", "fusion_lat": 0.0, "type": "electric_scooter", "lat": 38.94997216666667, "is_reserved": 0, "is_disabled": 0, "fusion_lon": 0.0, "bike_id": "f53fd088b1024f4bd0242d6719aacb5c", "lon": -77.019471, "rental_uris": {"ios": "https://dc.lft.to/lastmile_qr_scan", "android": "https://dc.lft.to/lastmile_qr_scan"}}, {"name": "106467536c0e395e5aa91cbfd78067e8", "fusion_lat": 0.0, "type": "electric_scooter", "lat": 38.90850483333333, "is_reserved": 0, "is_disabled": 0, "fusion_lon": 0.0, "bike_id": "106467536c0e395e5aa91cbfd78067e8", "lon": -77.010973, "rental_uris": {"ios": "https://dc.lft.to/lastmile_qr_scan", "android": "https://dc.lft.to/lastmile_qr_scan"}}, {"name": "d578fea895efb75be0df93ac8d45316d", "fusion_lat": 0.0, "type": "electric_scooter", "lat": 38.92152316666667, "is_reserved": 0, "is_disabled": 0, "fusion_lon": 0.0, "bike_id": "d578fea895efb75be0df93ac8d45316d", "lon": -77.0338725, "rental_uris": {"ios": "https://dc.lft.to/lastmile_qr_scan", "android": "https://dc.lft.to/lastmile_qr_scan"}}, {"name": "dbefe2f952f4db2974fa83d0e082ebca", "fusion_lat": 0.0, "type": "electric_scooter", "lat": 38.93531083333333, "is_reserved": 0, "is_disabled": 0, "fusion_lon": 0.0, "bike_id": "dbefe2f952f4db2974fa83d0e082ebca", "lon": -77.034156, "rental_uris": {"ios": "https://dc.lft.to/lastmile_qr_scan", "android": "https://dc.lft.to/lastmile_qr_scan"}}, {"name": "1b63741c143e72e831f766e5ae5ad039", "fusion_lat": 0.0, "type": "electric_scooter", "lat": 38.90240516666667, "is_reserved": 0, "is_disabled": 0, "fusion_lon": 0.0, "bike_id": "1b63741c143e72e831f766e5ae5ad039", "lon": -77.0195585, "rental_uris": {"ios": "https://dc.lft.to/lastmile_qr_scan", "android": "https://dc.lft.to/lastmile_qr_scan"}}, {"name": "39676381c1af898092997c35fee125eb", "fusion_lat": 0.0, "type": "electric_scooter", "lat": 38.92134983333333, "is_reserved": 0, "is_disabled": 0, "fusion_lon": 0.0, "bike_id": "39676381c1af898092997c35fee125eb", "lon": -77.04009433333333, "rental_uris": {"ios": "https://dc.lft.to/lastmile_qr_scan", "android": "https://dc.lft.to/lastmile_qr_scan"}}, {"name": "e767a35bb8ddf90e456a6e6c09a968dc", "fusion_lat": 0.0, "type": "electric_scooter", "lat": 38.94253283333333, "is_reserved": 0, "is_disabled": 0, "fusion_lon": 0.0, "bike_id": "e767a35bb8ddf90e456a6e6c09a968dc", "lon": -77.04137416666667, "rental_uris": {"ios": "https://dc.lft.to/lastmile_qr_scan", "android": "https://dc.lft.to/lastmile_qr_scan"}}, {"name": "ac6c88c1af34443717516a3dc24751c0", "fusion_lat": 0.0, "type": "electric_scooter", "lat": 38.918169166666665, "is_reserved": 0, "is_disabled": 0, "fusion_lon": 0.0, "bike_id": "ac6c88c1af34443717516a3dc24751c0", "lon": -77.01287133333334, "rental_uris": {"ios": "https://dc.lft.to/lastmile_qr_scan", "android": "https://dc.lft.to/lastmile_qr_scan"}}, {"name": "365db62068af8ad442873d3d11e2e359", "fusion_lat": 0.0, "type": "electric_scooter", "lat": 38.8650495, "is_reserved": 0, "is_disabled": 0, "fusion_lon": 0.0, "bike_id": "365db62068af8ad442873d3d11e2e359", "lon": -76.99003383333333, "rental_uris": {"ios": "https://dc.lft.to/lastmile_qr_scan", "android": "https://dc.lft.to/lastmile_qr_scan"}}, {"name": "73bd4fa938e745996a95cff8c8b76ab4", "fusion_lat": 0.0, "type": "electric_scooter", "lat": 38.901455166666665, "is_reserved": 0, "is_disabled": 0, "fusion_lon": 0.0, "bike_id": "73bd4fa938e745996a95cff8c8b76ab4", "lon": -76.9742145, "rental_uris": {"ios": "https://dc.lft.to/lastmile_qr_scan", "android": "https://dc.lft.to/lastmile_qr_scan"}}, {"name": "52993383e2f70dde873d078c705e6e72", "fusion_lat": 0.0, "type": "electric_scooter", "lat": 38.924658666666666, "is_reserved": 0, "is_disabled": 0, "fusion_lon": 0.0, "bike_id": "52993383e2f70dde873d078c705e6e72", "lon": -77.0271265, "rental_uris": {"ios": "https://dc.lft.to/lastmile_qr_scan", "android": "https://dc.lft.to/lastmile_qr_scan"}}, {"name": "57cbb865aaa30fce973e8339db8e2b14", "fusion_lat": 0.0, "type": "electric_scooter", "lat": 38.937308, "is_reserved": 0, "is_disabled": 0, "fusion_lon": 0.0, "bike_id": "57cbb865aaa30fce973e8339db8e2b14", "lon": -77.0326745, "rental_uris": {"ios": "https://dc.lft.to/lastmile_qr_scan", "android": "https://dc.lft.to/lastmile_qr_scan"}}, {"name": "aeb68b1c858d76f597b81fed8e2aaaf7", "fusion_lat": 0.0, "type": "electric_scooter", "lat": 38.9072675, "is_reserved": 0, "is_disabled": 0, "fusion_lon": 0.0, "bike_id": "aeb68b1c858d76f597b81fed8e2aaaf7", "lon": -77.01071666666667, "rental_uris": {"ios": "https://dc.lft.to/lastmile_qr_scan", "android": "https://dc.lft.to/lastmile_qr_scan"}}, {"name": "7b6bd1b7e144a607883a726f26df2396", "fusion_lat": 0.0, "type": "electric_scooter", "lat": 38.91820083333333, "is_reserved": 0, "is_disabled": 0, "fusion_lon": 0.0, "bike_id": "7b6bd1b7e144a607883a726f26df2396", "lon": -77.0241935, "rental_uris": {"ios": "https://dc.lft.to/lastmile_qr_scan", "android": "https://dc.lft.to/lastmile_qr_scan"}}, {"name": "a97d164e0a973aee1d38b609ac392720", "fusion_lat": 0.0, "type": "electric_scooter", "lat": 38.912911666666666, "is_reserved": 0, "is_disabled": 0, "fusion_lon": 0.0, "bike_id": "a97d164e0a973aee1d38b609ac392720", "lon": -77.06119633333333, "rental_uris": {"ios": "https://dc.lft.to/lastmile_qr_scan", "android": "https://dc.lft.to/lastmile_qr_scan"}}, {"name": "ebde37100049368b6c9b8b6e6a3d359f", "fusion_lat": 0.0, "type": "electric_scooter", "lat": 38.934133833333334, "is_reserved": 0, "is_disabled": 0, "fusion_lon": 0.0, "bike_id": "ebde37100049368b6c9b8b6e6a3d359f", "lon": -77.01972916666666, "rental_uris": {"ios": "https://dc.lft.to/lastmile_qr_scan", "android": "https://dc.lft.to/lastmile_qr_scan"}}, {"name": "9ec6771f2eb746dddfe18fa202fc9721", "fusion_lat": 0.0, "type": "electric_scooter", "lat": 38.88865066666666, "is_reserved": 0, "is_disabled": 0, "fusion_lon": 0.0, "bike_id": "9ec6771f2eb746dddfe18fa202fc9721", "lon": -77.04008283333333, "rental_uris": {"ios": "https://dc.lft.to/lastmile_qr_scan", "android": "https://dc.lft.to/lastmile_qr_scan"}}, {"name": "e9ee6ed4055aaf7b065797664b249007", "fusion_lat": 0.0, "type": "electric_scooter", "lat": 38.921007, "is_reserved": 0, "is_disabled": 0, "fusion_lon": 0.0, "bike_id": "e9ee6ed4055aaf7b065797664b249007", "lon": -77.046966, "rental_uris": {"ios": "https://dc.lft.to/lastmile_qr_scan", "android": "https://dc.lft.to/lastmile_qr_scan"}}, {"name": "d6d20aa234704c80f96105f2de62f5f9", "fusion_lat": 0.0, "type": "electric_scooter", "lat": 38.93524766666667, "is_reserved": 0, "is_disabled": 0, "fusion_lon": 0.0, "bike_id": "d6d20aa234704c80f96105f2de62f5f9", "lon": -77.02840966666666, "rental_uris": {"ios": "https://dc.lft.to/lastmile_qr_scan", "android": "https://dc.lft.to/lastmile_qr_scan"}}, {"name": "5713c3c6fda5cd440bf2228c740eeadd", "fusion_lat": 0.0, "type": "electric_scooter", "lat": 38.90240466666667, "is_reserved": 0, "is_disabled": 0, "fusion_lon": 0.0, "bike_id": "5713c3c6fda5cd440bf2228c740eeadd", "lon": -77.00200283333334, "rental_uris": {"ios": "https://dc.lft.to/lastmile_qr_scan", "android": "https://dc.lft.to/lastmile_qr_scan"}}, {"name": "d7c06e29ce50c603fafc855f5736c8c6", "fusion_lat": 0.0, "type": "electric_bike", "lat": 38.897757, "is_reserved": 0, "is_disabled": 0, "fusion_lon": 0.0, "bike_id": "d7c06e29ce50c603fafc855f5736c8c6", "lon": -76.904358, "rental_uris": {"ios": "https://dc.lft.to/lastmile_qr_scan", "android": "https://dc.lft.to/lastmile_qr_scan"}}, {"name": "c7bf1afc38bd4b49af927ea2e44e760d", "fusion_lat": 0.0, "type": "electric_scooter", "lat": 38.91858916666666, "is_reserved": 0, "is_disabled": 0, "fusion_lon": 0.0, "bike_id": "c7bf1afc38bd4b49af927ea2e44e760d", "lon": -77.015057, "rental_uris": {"ios": "https://dc.lft.to/lastmile_qr_scan", "android": "https://dc.lft.to/lastmile_qr_scan"}}, {"name": "a3d5ed69ffa50617f29d10a73f3445b8", "fusion_lat": 0.0, "type": "electric_scooter", "lat": 38.92885233333333, "is_reserved": 0, "is_disabled": 0, "fusion_lon": 0.0, "bike_id": "a3d5ed69ffa50617f29d10a73f3445b8", "lon": -77.03747916666667, "rental_uris": {"ios": "https://dc.lft.to/lastmile_qr_scan", "android": "https://dc.lft.to/lastmile_qr_scan"}}, {"name": "80b4e46c7b3df210d3c5be5dfc32e8a6", "fusion_lat": 0.0, "type": "electric_scooter", "lat": 38.895431, "is_reserved": 0, "is_disabled": 0, "fusion_lon": 0.0, "bike_id": "80b4e46c7b3df210d3c5be5dfc32e8a6", "lon": -77.02372, "rental_uris": {"ios": "https://dc.lft.to/lastmile_qr_scan", "android": "https://dc.lft.to/lastmile_qr_scan"}}, {"name": "259c34a8128fbfa2a0cb77d44554334d", "fusion_lat": 0.0, "type": "electric_scooter", "lat": 38.906996666666664, "is_reserved": 0, "is_disabled": 0, "fusion_lon": 0.0, "bike_id": "259c34a8128fbfa2a0cb77d44554334d", "lon": -76.98700583333333, "rental_uris": {"ios": "https://dc.lft.to/lastmile_qr_scan", "android": "https://dc.lft.to/lastmile_qr_scan"}}, {"name": "4d88b9e7395efdd406dd4a97c05d4ede", "fusion_lat": 0.0, "type": "electric_scooter", "lat": 38.938985, "is_reserved": 0, "is_disabled": 0, "fusion_lon": 0.0, "bike_id": "4d88b9e7395efdd406dd4a97c05d4ede", "lon": -77.03282, "rental_uris": {"ios": "https://dc.lft.to/lastmile_qr_scan", "android": "https://dc.lft.to/lastmile_qr_scan"}}, {"name": "b25a00c2024cd6716f79aabbc801481c", "fusion_lat": 0.0, "type": "electric_scooter", "lat": 38.93682833333333, "is_reserved": 0, "is_disabled": 0, "fusion_lon": 0.0, "bike_id": "b25a00c2024cd6716f79aabbc801481c", "lon": -77.02171916666667, "rental_uris": {"ios": "https://dc.lft.to/lastmile_qr_scan", "android": "https://dc.lft.to/lastmile_qr_scan"}}, {"name": "d46be4a0bdeea23b1cc740d95ca2ee91", "fusion_lat": 0.0, "type": "electric_scooter", "lat": 38.930962666666666, "is_reserved": 0, "is_disabled": 0, "fusion_lon": 0.0, "bike_id": "d46be4a0bdeea23b1cc740d95ca2ee91", "lon": -77.024217, "rental_uris": {"ios": "https://dc.lft.to/lastmile_qr_scan", "android": "https://dc.lft.to/lastmile_qr_scan"}}, {"name": "d7a79b361c7df079c3a2b7a7c42688c3", "fusion_lat": 0.0, "type": "electric_scooter", "lat": 38.87921816666667, "is_reserved": 0, "is_disabled": 0, "fusion_lon": 0.0, "bike_id": "d7a79b361c7df079c3a2b7a7c42688c3", "lon": -77.02099583333333, "rental_uris": {"ios": "https://dc.lft.to/lastmile_qr_scan", "android": "https://dc.lft.to/lastmile_qr_scan"}}, {"name": "7cd043ba4724e10a4317b08dccf160e1", "fusion_lat": 0.0, "type": "electric_scooter", "lat": 38.927242166666666, "is_reserved": 0, "is_disabled": 0, "fusion_lon": 0.0, "bike_id": "7cd043ba4724e10a4317b08dccf160e1", "lon": -77.005716, "rental_uris": {"ios": "https://dc.lft.to/lastmile_qr_scan", "android": "https://dc.lft.to/lastmile_qr_scan"}}, {"name": "52aa405755448a0ca254bd9378f2a2fa", "fusion_lat": 0.0, "type": "electric_scooter", "lat": 38.88453416666667, "is_reserved": 0, "is_disabled": 0, "fusion_lon": 0.0, "bike_id": "52aa405755448a0ca254bd9378f2a2fa", "lon": -76.924694, "rental_uris": {"ios": "https://dc.lft.to/lastmile_qr_scan", "android": "https://dc.lft.to/lastmile_qr_scan"}}, {"name": "2386b796ebcd68d783e6f2f5029184ef", "fusion_lat": 0.0, "type": "electric_scooter", "lat": 38.91638583333334, "is_reserved": 0, "is_disabled": 0, "fusion_lon": 0.0, "bike_id": "2386b796ebcd68d783e6f2f5029184ef", "lon": -77.04819533333334, "rental_uris": {"ios": "https://dc.lft.to/lastmile_qr_scan", "android": "https://dc.lft.to/lastmile_qr_scan"}}, {"name": "e2a7e2a61e22e953c2fe369af60c137b", "fusion_lat": 0.0, "type": "electric_scooter", "lat": 38.9006955, "is_reserved": 0, "is_disabled": 0, "fusion_lon": 0.0, "bike_id": "e2a7e2a61e22e953c2fe369af60c137b", "lon": -77.0489615, "rental_uris": {"ios": "https://dc.lft.to/lastmile_qr_scan", "android": "https://dc.lft.to/lastmile_qr_scan"}}, {"name": "f15739cad37a78b6d8a0ff31572172db", "fusion_lat": 0.0, "type": "electric_bike", "lat": 39.0945635, "is_reserved": 0, "is_disabled": 0, "fusion_lon": 0.0, "bike_id": "f15739cad37a78b6d8a0ff31572172db", "lon": -77.149957, "rental_uris": {"ios": "https://dc.lft.to/lastmile_qr_scan", "android": "https://dc.lft.to/lastmile_qr_scan"}}, {"name": "9b25860763c24d35dff3ab6337a69dff", "fusion_lat": 0.0, "type": "electric_scooter", "lat": 38.918149, "is_reserved": 0, "is_disabled": 0, "fusion_lon": 0.0, "bike_id": "9b25860763c24d35dff3ab6337a69dff", "lon": -77.02794816666666, "rental_uris": {"ios": "https://dc.lft.to/lastmile_qr_scan", "android": "https://dc.lft.to/lastmile_qr_scan"}}, {"name": "87308244eb76dc905fb539a055f794b8", "fusion_lat": 0.0, "type": "electric_scooter", "lat": 38.8990475, "is_reserved": 0, "is_disabled": 0, "fusion_lon": 0.0, "bike_id": "87308244eb76dc905fb539a055f794b8", "lon": -76.93378483333333, "rental_uris": {"ios": "https://dc.lft.to/lastmile_qr_scan", "android": "https://dc.lft.to/lastmile_qr_scan"}}, {"name": "ff796e4dc1b8203780341524ef66285f", "fusion_lat": 0.0, "type": "electric_scooter", "lat": 38.921096166666665, "is_reserved": 0, "is_disabled": 0, "fusion_lon": 0.0, "bike_id": "ff796e4dc1b8203780341524ef66285f", "lon": -77.03173233333334, "rental_uris": {"ios": "https://dc.lft.to/lastmile_qr_scan", "android": "https://dc.lft.to/lastmile_qr_scan"}}, {"name": "04970191fadaa3e56373b7ad8b29198a", "fusion_lat": 0.0, "type": "electric_bike", "lat": 38.875268166666665, "is_reserved": 0, "is_disabled": 0, "fusion_lon": 0.0, "bike_id": "04970191fadaa3e56373b7ad8b29198a", "lon": -77.1990715, "rental_uris": {"ios": "https://dc.lft.to/lastmile_qr_scan", "android": "https://dc.lft.to/lastmile_qr_scan"}}, {"name": "a6bc47994ab4340753aac6c55a705e82", "fusion_lat": 0.0, "type": "electric_bike", "lat": 38.857839166666665, "is_reserved": 0, "is_disabled": 0, "fusion_lon": 0.0, "bike_id": "a6bc47994ab4340753aac6c55a705e82", "lon": -77.09963966666666, "rental_uris": {"ios": "https://dc.lft.to/lastmile_qr_scan", "android": "https://dc.lft.to/lastmile_qr_scan"}}, {"name": "587fad7f2bdbae4d9112c8c7400a1fac", "fusion_lat": 0.0, "type": "electric_scooter", "lat": 38.876161833333335, "is_reserved": 0, "is_disabled": 0, "fusion_lon": 0.0, "bike_id": "587fad7f2bdbae4d9112c8c7400a1fac", "lon": -77.007265, "rental_uris": {"ios": "https://dc.lft.to/lastmile_qr_scan", "android": "https://dc.lft.to/lastmile_qr_scan"}}, {"name": "90f68fb886f9ca327c0beacad63cf666", "fusion_lat": 0.0, "type": "electric_scooter", "lat": 38.907944666666666, "is_reserved": 0, "is_disabled": 0, "fusion_lon": 0.0, "bike_id": "90f68fb886f9ca327c0beacad63cf666", "lon": -77.048242, "rental_uris": {"ios": "https://dc.lft.to/lastmile_qr_scan", "android": "https://dc.lft.to/lastmile_qr_scan"}}, {"name": "22107654d8d40c1308870d625e31fa46", "fusion_lat": 0.0, "type": "electric_scooter", "lat": 38.93001266666667, "is_reserved": 0, "is_disabled": 0, "fusion_lon": 0.0, "bike_id": "22107654d8d40c1308870d625e31fa46", "lon": -77.02307983333333, "rental_uris": {"ios": "https://dc.lft.to/lastmile_qr_scan", "android": "https://dc.lft.to/lastmile_qr_scan"}}, {"name": "f16299af277f62bf518fdf4e11ca8b91", "fusion_lat": 0.0, "type": "electric_scooter", "lat": 38.917244333333336, "is_reserved": 0, "is_disabled": 0, "fusion_lon": 0.0, "bike_id": "f16299af277f62bf518fdf4e11ca8b91", "lon": -77.02940416666667, "rental_uris": {"ios": "https://dc.lft.to/lastmile_qr_scan", "android": "https://dc.lft.to/lastmile_qr_scan"}}, {"name": "4a55608c692717e3b60f24e26bc92cc9", "fusion_lat": 0.0, "type": "electric_scooter", "lat": 38.897294333333335, "is_reserved": 0, "is_disabled": 0, "fusion_lon": 0.0, "bike_id": "4a55608c692717e3b60f24e26bc92cc9", "lon": -76.94255533333333, "rental_uris": {"ios": "https://dc.lft.to/lastmile_qr_scan", "android": "https://dc.lft.to/lastmile_qr_scan"}}, {"name": "50bc220b11ed08a74f43a95b288bbe26", "fusion_lat": 0.0, "type": "electric_scooter", "lat": 38.9198705, "is_reserved": 0, "is_disabled": 0, "fusion_lon": 0.0, "bike_id": "50bc220b11ed08a74f43a95b288bbe26", "lon": -76.97304583333333, "rental_uris": {"ios": "https://dc.lft.to/lastmile_qr_scan", "android": "https://dc.lft.to/lastmile_qr_scan"}}, {"name": "d3e092759e6dbaf00b8ee4336c272ccf", "fusion_lat": 0.0, "type": "electric_scooter", "lat": 38.93235416666667, "is_reserved": 0, "is_disabled": 0, "fusion_lon": 0.0, "bike_id": "d3e092759e6dbaf00b8ee4336c272ccf", "lon": -77.03579716666667, "rental_uris": {"ios": "https://dc.lft.to/lastmile_qr_scan", "android": "https://dc.lft.to/lastmile_qr_scan"}}, {"name": "6bc951d69606c2d929cb457d728fc828", "fusion_lat": 0.0, "type": "electric_scooter", "lat": 38.86370516666667, "is_reserved": 0, "is_disabled": 0, "fusion_lon": 0.0, "bike_id": "6bc951d69606c2d929cb457d728fc828", "lon": -77.0136995, "rental_uris": {"ios": "https://dc.lft.to/lastmile_qr_scan", "android": "https://dc.lft.to/lastmile_qr_scan"}}, {"name": "c61ff3944953f5079d6f998e735f04e3", "fusion_lat": 0.0, "type": "electric_bike", "lat": 38.932477666666664, "is_reserved": 0, "is_disabled": 0, "fusion_lon": 0.0, "bike_id": "c61ff3944953f5079d6f998e735f04e3", "lon": -77.06660266666667, "rental_uris": {"ios": "https://dc.lft.to/lastmile_qr_scan", "android": "https://dc.lft.to/lastmile_qr_scan"}}, {"name": "c6f00e9db1f79d5f13394d86ef7e6cd3", "fusion_lat": 0.0, "type": "electric_scooter", "lat": 38.942901666666664, "is_reserved": 0, "is_disabled": 0, "fusion_lon": 0.0, "bike_id": "c6f00e9db1f79d5f13394d86ef7e6cd3", "lon": -77.02170266666667, "rental_uris": {"ios": "https://dc.lft.to/lastmile_qr_scan", "android": "https://dc.lft.to/lastmile_qr_scan"}}, {"name": "b110e7264ebaefe8a76e935e830a8ae0", "fusion_lat": 0.0, "type": "electric_bike", "lat": 38.921088166666664, "is_reserved": 0, "is_disabled": 0, "fusion_lon": 0.0, "bike_id": "b110e7264ebaefe8a76e935e830a8ae0", "lon": -77.0633455, "rental_uris": {"ios": "https://dc.lft.to/lastmile_qr_scan", "android": "https://dc.lft.to/lastmile_qr_scan"}}, {"name": "10610de7cd67e6373eaaf0032fea77ca", "fusion_lat": 0.0, "type": "electric_scooter", "lat": 38.912645166666664, "is_reserved": 0, "is_disabled": 0, "fusion_lon": 0.0, "bike_id": "10610de7cd67e6373eaaf0032fea77ca", "lon": -77.03632733333333, "rental_uris": {"ios": "https://dc.lft.to/lastmile_qr_scan", "android": "https://dc.lft.to/lastmile_qr_scan"}}, {"name": "79e278f1fdfdaf66ce578ae852965d92", "fusion_lat": 0.0, "type": "electric_scooter", "lat": 38.866552666666664, "is_reserved": 0, "is_disabled": 0, "fusion_lon": 0.0, "bike_id": "79e278f1fdfdaf66ce578ae852965d92", "lon": -76.98885833333334, "rental_uris": {"ios": "https://dc.lft.to/lastmile_qr_scan", "android": "https://dc.lft.to/lastmile_qr_scan"}}, {"name": "c96df2a261205747d9b67dc9affc3af2", "fusion_lat": 0.0, "type": "electric_scooter", "lat": 38.88124066666666, "is_reserved": 0, "is_disabled": 0, "fusion_lon": 0.0, "bike_id": "c96df2a261205747d9b67dc9affc3af2", "lon": -77.01334866666667, "rental_uris": {"ios": "https://dc.lft.to/lastmile_qr_scan", "android": "https://dc.lft.to/lastmile_qr_scan"}}, {"name": "df39d634904a79b41b8b1561d585378f", "fusion_lat": 0.0, "type": "electric_scooter", "lat": 38.91798033333333, "is_reserved": 0, "is_disabled": 0, "fusion_lon": 0.0, "bike_id": "df39d634904a79b41b8b1561d585378f", "lon": -77.0231835, "rental_uris": {"ios": "https://dc.lft.to/lastmile_qr_scan", "android": "https://dc.lft.to/lastmile_qr_scan"}}, {"name": "62d2f67f41fde64cea86acea81dcafca", "fusion_lat": 0.0, "type": "electric_scooter", "lat": 38.897362, "is_reserved": 0, "is_disabled": 0, "fusion_lon": 0.0, "bike_id": "62d2f67f41fde64cea86acea81dcafca", "lon": -77.0095545, "rental_uris": {"ios": "https://dc.lft.to/lastmile_qr_scan", "android": "https://dc.lft.to/lastmile_qr_scan"}}, {"name": "b0c24c6f6a0f4b4a308a3db44e262b70", "fusion_lat": 0.0, "type": "electric_scooter", "lat": 38.913022, "is_reserved": 0, "is_disabled": 0, "fusion_lon": 0.0, "bike_id": "b0c24c6f6a0f4b4a308a3db44e262b70", "lon": -77.0202985, "rental_uris": {"ios": "https://dc.lft.to/lastmile_qr_scan", "android": "https://dc.lft.to/lastmile_qr_scan"}}, {"name": "74c61d62019dc8b8baa6deae6a0a1bfd", "fusion_lat": 0.0, "type": "electric_scooter", "lat": 38.90671533333333, "is_reserved": 0, "is_disabled": 0, "fusion_lon": 0.0, "bike_id": "74c61d62019dc8b8baa6deae6a0a1bfd", "lon": -77.02712, "rental_uris": {"ios": "https://dc.lft.to/lastmile_qr_scan", "android": "https://dc.lft.to/lastmile_qr_scan"}}, {"name": "a04863e1f300ecd5e3df47c4bb101929", "fusion_lat": 0.0, "type": "electric_scooter", "lat": 38.90310816666667, "is_reserved": 0, "is_disabled": 0, "fusion_lon": 0.0, "bike_id": "a04863e1f300ecd5e3df47c4bb101929", "lon": -76.97801333333334, "rental_uris": {"ios": "https://dc.lft.to/lastmile_qr_scan", "android": "https://dc.lft.to/lastmile_qr_scan"}}, {"name": "6c02c3b807a67120bcd41fd015010d8e", "fusion_lat": 0.0, "type": "electric_bike", "lat": 38.93413, "is_reserved": 0, "is_disabled": 0, "fusion_lon": 0.0, "bike_id": "6c02c3b807a67120bcd41fd015010d8e", "lon": -77.02513083333334, "rental_uris": {"ios": "https://dc.lft.to/lastmile_qr_scan", "android": "https://dc.lft.to/lastmile_qr_scan"}}, {"name": "1dd36e485385bae592b754ecd2b68535", "fusion_lat": 0.0, "type": "electric_scooter", "lat": 38.920248, "is_reserved": 0, "is_disabled": 0, "fusion_lon": 0.0, "bike_id": "1dd36e485385bae592b754ecd2b68535", "lon": -77.03853516666666, "rental_uris": {"ios": "https://dc.lft.to/lastmile_qr_scan", "android": "https://dc.lft.to/lastmile_qr_scan"}}, {"name": "6a730cd1c6d06623272c0b9c0ae35eec", "fusion_lat": 0.0, "type": "electric_scooter", "lat": 38.861572833333334, "is_reserved": 0, "is_disabled": 0, "fusion_lon": 0.0, "bike_id": "6a730cd1c6d06623272c0b9c0ae35eec", "lon": -76.98905333333333, "rental_uris": {"ios": "https://dc.lft.to/lastmile_qr_scan", "android": "https://dc.lft.to/lastmile_qr_scan"}}, {"name": "6d4de2e9ff77b5a2bc3aeae5ef23589f", "fusion_lat": 0.0, "type": "electric_scooter", "lat": 38.91812983333333, "is_reserved": 0, "is_disabled": 0, "fusion_lon": 0.0, "bike_id": "6d4de2e9ff77b5a2bc3aeae5ef23589f", "lon": -77.040078, "rental_uris": {"ios": "https://dc.lft.to/lastmile_qr_scan", "android": "https://dc.lft.to/lastmile_qr_scan"}}, {"name": "ba56a04376502ccb0dac2c2cb009c541", "fusion_lat": 0.0, "type": "electric_scooter", "lat": 38.926834166666666, "is_reserved": 0, "is_disabled": 0, "fusion_lon": 0.0, "bike_id": "ba56a04376502ccb0dac2c2cb009c541", "lon": -77.015721, "rental_uris": {"ios": "https://dc.lft.to/lastmile_qr_scan", "android": "https://dc.lft.to/lastmile_qr_scan"}}, {"name": "c03ba5baed2482b83c41b23d721bfaa3", "fusion_lat": 0.0, "type": "electric_scooter", "lat": 38.93700483333333, "is_reserved": 0, "is_disabled": 0, "fusion_lon": 0.0, "bike_id": "c03ba5baed2482b83c41b23d721bfaa3", "lon": -77.05598983333333, "rental_uris": {"ios": "https://dc.lft.to/lastmile_qr_scan", "android": "https://dc.lft.to/lastmile_qr_scan"}}, {"name": "9915646427fb24e2b75819c7bf89abb7", "fusion_lat": 0.0, "type": "electric_scooter", "lat": 38.914654666666664, "is_reserved": 0, "is_disabled": 0, "fusion_lon": 0.0, "bike_id": "9915646427fb24e2b75819c7bf89abb7", "lon": -77.03841016666667, "rental_uris": {"ios": "https://dc.lft.to/lastmile_qr_scan", "android": "https://dc.lft.to/lastmile_qr_scan"}}, {"name": "ebcc7c489a3336f81dcc6011bc1a0741", "fusion_lat": 0.0, "type": "electric_scooter", "lat": 38.9019355, "is_reserved": 0, "is_disabled": 0, "fusion_lon": 0.0, "bike_id": "ebcc7c489a3336f81dcc6011bc1a0741", "lon": -77.02171183333333, "rental_uris": {"ios": "https://dc.lft.to/lastmile_qr_scan", "android": "https://dc.lft.to/lastmile_qr_scan"}}, {"name": "8c9a2c6abb2dd0fe87b1c01f45e43aae", "fusion_lat": 0.0, "type": "electric_scooter", "lat": 38.90402233333333, "is_reserved": 0, "is_disabled": 0, "fusion_lon": 0.0, "bike_id": "8c9a2c6abb2dd0fe87b1c01f45e43aae", "lon": -77.06400583333334, "rental_uris": {"ios": "https://dc.lft.to/lastmile_qr_scan", "android": "https://dc.lft.to/lastmile_qr_scan"}}, {"name": "b41ea9aa664f0e85945e1c686a4d735d", "fusion_lat": 0.0, "type": "electric_scooter", "lat": 38.903208166666666, "is_reserved": 0, "is_disabled": 0, "fusion_lon": 0.0, "bike_id": "b41ea9aa664f0e85945e1c686a4d735d", "lon": -76.98152366666666, "rental_uris": {"ios": "https://dc.lft.to/lastmile_qr_scan", "android": "https://dc.lft.to/lastmile_qr_scan"}}, {"name": "9024858b2445136a14800f12beae09f4", "fusion_lat": 0.0, "type": "electric_scooter", "lat": 38.9333745, "is_reserved": 0, "is_disabled": 0, "fusion_lon": 0.0, "bike_id": "9024858b2445136a14800f12beae09f4", "lon": -77.027482, "rental_uris": {"ios": "https://dc.lft.to/lastmile_qr_scan", "android": "https://dc.lft.to/lastmile_qr_scan"}}, {"name": "fe249b959ce84f76174ae687c6e809d6", "fusion_lat": 0.0, "type": "electric_scooter", "lat": 38.93108933333333, "is_reserved": 0, "is_disabled": 0, "fusion_lon": 0.0, "bike_id": "fe249b959ce84f76174ae687c6e809d6", "lon": -77.0240495, "rental_uris": {"ios": "https://dc.lft.to/lastmile_qr_scan", "android": "https://dc.lft.to/lastmile_qr_scan"}}, {"name": "5f0802ec781bea9034506c4d3ad8793a", "fusion_lat": 0.0, "type": "electric_scooter", "lat": 38.923884666666666, "is_reserved": 0, "is_disabled": 0, "fusion_lon": 0.0, "bike_id": "5f0802ec781bea9034506c4d3ad8793a", "lon": -77.029781, "rental_uris": {"ios": "https://dc.lft.to/lastmile_qr_scan", "android": "https://dc.lft.to/lastmile_qr_scan"}}, {"name": "399f133ce3547989ca82cabb857ce5c6", "fusion_lat": 0.0, "type": "electric_scooter", "lat": 38.900295, "is_reserved": 0, "is_disabled": 0, "fusion_lon": 0.0, "bike_id": "399f133ce3547989ca82cabb857ce5c6", "lon": -76.990619, "rental_uris": {"ios": "https://dc.lft.to/lastmile_qr_scan", "android": "https://dc.lft.to/lastmile_qr_scan"}}, {"name": "e138fbad7a2af3373f249da8d0c46c07", "fusion_lat": 0.0, "type": "electric_scooter", "lat": 38.91124283333333, "is_reserved": 0, "is_disabled": 0, "fusion_lon": 0.0, "bike_id": "e138fbad7a2af3373f249da8d0c46c07", "lon": -77.02198066666666, "rental_uris": {"ios": "https://dc.lft.to/lastmile_qr_scan", "android": "https://dc.lft.to/lastmile_qr_scan"}}, {"name": "3a5ebd63d651fe83d167776e68519d48", "fusion_lat": 0.0, "type": "electric_scooter", "lat": 38.912675666666665, "is_reserved": 0, "is_disabled": 0, "fusion_lon": 0.0, "bike_id": "3a5ebd63d651fe83d167776e68519d48", "lon": -77.03878433333334, "rental_uris": {"ios": "https://dc.lft.to/lastmile_qr_scan", "android": "https://dc.lft.to/lastmile_qr_scan"}}, {"name": "c75cc1a02e1d11ed229ae380e89d17e4", "fusion_lat": 0.0, "type": "electric_scooter", "lat": 38.90150916666666, "is_reserved": 0, "is_disabled": 0, "fusion_lon": 0.0, "bike_id": "c75cc1a02e1d11ed229ae380e89d17e4", "lon": -76.93064016666666, "rental_uris": {"ios": "https://dc.lft.to/lastmile_qr_scan", "android": "https://dc.lft.to/lastmile_qr_scan"}}, {"name": "28382e82b193d832eb14766fa9e318a9", "fusion_lat": 0.0, "type": "electric_scooter", "lat": 38.909545333333334, "is_reserved": 0, "is_disabled": 0, "fusion_lon": 0.0, "bike_id": "28382e82b193d832eb14766fa9e318a9", "lon": -77.02376583333333, "rental_uris": {"ios": "https://dc.lft.to/lastmile_qr_scan", "android": "https://dc.lft.to/lastmile_qr_scan"}}, {"name": "4fdb448e7a54d1e9f00def972c0b6b07", "fusion_lat": 0.0, "type": "electric_scooter", "lat": 38.91718733333333, "is_reserved": 0, "is_disabled": 0, "fusion_lon": 0.0, "bike_id": "4fdb448e7a54d1e9f00def972c0b6b07", "lon": -77.031604, "rental_uris": {"ios": "https://dc.lft.to/lastmile_qr_scan", "android": "https://dc.lft.to/lastmile_qr_scan"}}, {"name": "b1f3dac8b0ce62e92cd8dbf86b16584b", "fusion_lat": 0.0, "type": "electric_scooter", "lat": 38.906145333333335, "is_reserved": 0, "is_disabled": 0, "fusion_lon": 0.0, "bike_id": "b1f3dac8b0ce62e92cd8dbf86b16584b", "lon": -77.0240635, "rental_uris": {"ios": "https://dc.lft.to/lastmile_qr_scan", "android": "https://dc.lft.to/lastmile_qr_scan"}}, {"name": "0f9c29dc3b5fc2643dfa543757d85752", "fusion_lat": 0.0, "type": "electric_scooter", "lat": 38.9125, "is_reserved": 0, "is_disabled": 0, "fusion_lon": 0.0, "bike_id": "0f9c29dc3b5fc2643dfa543757d85752", "lon": -77.03838966666666, "rental_uris": {"ios": "https://dc.lft.to/lastmile_qr_scan", "android": "https://dc.lft.to/lastmile_qr_scan"}}, {"name": "8f0f039514422ea103b1c679c43a39fc", "fusion_lat": 0.0, "type": "electric_scooter", "lat": 38.952730333333335, "is_reserved": 0, "is_disabled": 0, "fusion_lon": 0.0, "bike_id": "8f0f039514422ea103b1c679c43a39fc", "lon": -77.0714505, "rental_uris": {"ios": "https://dc.lft.to/lastmile_qr_scan", "android": "https://dc.lft.to/lastmile_qr_scan"}}, {"name": "d0259fd9f8928d446c258fc5a7f7ad83", "fusion_lat": 0.0, "type": "electric_bike", "lat": 38.9069365, "is_reserved": 0, "is_disabled": 0, "fusion_lon": 0.0, "bike_id": "d0259fd9f8928d446c258fc5a7f7ad83", "lon": -76.95189983333333, "rental_uris": {"ios": "https://dc.lft.to/lastmile_qr_scan", "android": "https://dc.lft.to/lastmile_qr_scan"}}, {"name": "5a3ad4c406c9ca20b3720049fd395da5", "fusion_lat": 0.0, "type": "electric_scooter", "lat": 38.903526, "is_reserved": 0, "is_disabled": 0, "fusion_lon": 0.0, "bike_id": "5a3ad4c406c9ca20b3720049fd395da5", "lon": -77.011078, "rental_uris": {"ios": "https://dc.lft.to/lastmile_qr_scan", "android": "https://dc.lft.to/lastmile_qr_scan"}}, {"name": "2e1031d91f3f2bb1a7c6531205181fd4", "fusion_lat": 0.0, "type": "electric_scooter", "lat": 38.9027105, "is_reserved": 0, "is_disabled": 0, "fusion_lon": 0.0, "bike_id": "2e1031d91f3f2bb1a7c6531205181fd4", "lon": -76.99855533333333, "rental_uris": {"ios": "https://dc.lft.to/lastmile_qr_scan", "android": "https://dc.lft.to/lastmile_qr_scan"}}, {"name": "6807b940d78a634a68c79d12f4798d47", "fusion_lat": 0.0, "type": "electric_bike", "lat": 38.80225216666667, "is_reserved": 0, "is_disabled": 0, "fusion_lon": 0.0, "bike_id": "6807b940d78a634a68c79d12f4798d47", "lon": -77.07923, "rental_uris": {"ios": "https://dc.lft.to/lastmile_qr_scan", "android": "https://dc.lft.to/lastmile_qr_scan"}}, {"name": "3498d90d801c19ebf4ee14d4c8cb4d47", "fusion_lat": 0.0, "type": "electric_scooter", "lat": 38.886519, "is_reserved": 0, "is_disabled": 0, "fusion_lon": 0.0, "bike_id": "3498d90d801c19ebf4ee14d4c8cb4d47", "lon": -77.013714, "rental_uris": {"ios": "https://dc.lft.to/lastmile_qr_scan", "android": "https://dc.lft.to/lastmile_qr_scan"}},