{"data": {"bikes": [{"rental_uris": {"ios": "https://dc.lft.to/lastmile_qr_scan", "android": "https://dc.lft.to/lastmile_qr_scan"}, "lon": -77.03549366666667, "type": "electric_scooter", "fusion_lat": 0.0, "lat": 38.9083975, "name": "3f3e0748770327c4976c9424ecd34da8", "fusion_lon": 0.0, "bike_id": "3f3e0748770327c4976c9424ecd34da8", "is_disabled": 0, "is_reserved": 0}, {"rental_uris": {"ios": "https://dc.lft.to/lastmile_qr_scan", "android": "https://dc.lft.to/lastmile_qr_scan"}, "lon": -77.103282, "type": "electric_bike", "fusion_lat": 0.0, "lat": 38.965108, "name": "3b3ad4cc4f30272b3db56e4ba8f85413", "fusion_lon": 0.0, "bike_id": "3b3ad4cc4f30272b3db56e4ba8f85413", "is_disabled": 0, "is_reserved": 0}, {"rental_uris": {"ios": "https://dc.lft.to/lastmile_qr_scan", "android": "https://dc.lft.to/lastmile_qr_scan"}, "lon": -77.08825283333333, "type": "electric_bike", "fusion_lat": 0.0, "lat": 38.90973816666666, "name": "38677690e0ce1e3b4abf6b106378d6d5", "fusion_lon": 0.0, "bike_id": "38677690e0ce1e3b4abf6b106378d6d5", "is_disabled": 0, "is_reserved": 0}, {"rental_uris": {"ios": "https://dc.lft.to/lastmile_qr_scan", "android": "https://dc.lft.to/lastmile_qr_scan"}, "lon": -77.02395883333334, "type": "electric_scooter", "fusion_lat": 0.0, "lat": 38.90695016666667, "name": "3013ebeae35de2c4b12c1d33f0ee705d", "fusion_lon": 0.0, "bike_id": "3013ebeae35de2c4b12c1d33f0ee705d", "is_disabled": 0, "is_reserved": 0}, {"rental_uris": {"ios": "https://dc.lft.to/lastmile_qr_scan", "android": "https://dc.lft.to/lastmile_qr_scan"}, "lon": -77.04048783333333, "type": "electric_scooter", "fusion_lat": 0.0, "lat": 38.927169, "name": "6c42b8169c54a2ffc3f9738ba4ede280", "fusion_lon": 0.0, "bike_id": "6c42b8169c54a2ffc3f9738ba4ede280", "is_disabled": 0, "is_reserved": 0}, {"rental_uris": {"ios": "https://dc.lft.to/lastmile_qr_scan", "android": "https://dc.lft.to/lastmile_qr_scan"}, "lon": -77.0418, "type": "electric_scooter", "fusion_lat": 0.0, "lat": 38.91991016666667, "name": "85dc8a8c2dd80daf96ef09eea882628f", "fusion_lon": 0.0, "bike_id": "85dc8a8c2dd80daf96ef09eea882628f", "is_disabled": 0, "is_reserved": 0}, {"rental_uris": {"ios": "https://dc.lft.to/lastmile_qr_scan", "android": "https://dc.lft.to/lastmile_qr_scan"}, "lon": -77.03477883333333, "type": "electric_scooter", "fusion_lat": 0.0, "lat": 38.91712316666667, "name": "02dbe62144c5fb84cbb9861507db489c", "fusion_lon": 0.0, "bike_id": "02dbe62144c5fb84cbb9861507db489c", "is_disabled": 0, "is_reserved": 0}, {"rental_uris": {"ios": "https://dc.lft.to/lastmile_qr_scan", "android": "https://dc.lft.to/lastmile_qr_scan"}, "lon": -76.94753333333334, "type": "electric_scooter", "fusion_lat": 0.0, "lat": 38.896799333333334, "name": "4537b72ddbf7837862a8c5ea22058061", "fusion_lon": 0.0, "bike_id": "4537b72ddbf7837862a8c5ea22058061", "is_disabled": 0, "is_reserved": 0}, {"rental_uris": {"ios": "https://dc.lft.to/lastmile_qr_scan", "android": "https://dc.lft.to/lastmile_qr_scan"}, "lon": -77.036654, "type": "electric_scooter", "fusion_lat": 0.0, "lat": 38.90695616666667, "name": "2f3636add493c1e85eab00948693406a", "fusion_lon": 0.0, "bike_id": "2f3636add493c1e85eab00948693406a", "is_disabled": 0, "is_reserved": 0}, {"rental_uris": {"ios": "https://dc.lft.to/lastmile_qr_scan", "android": "https://dc.lft.to/lastmile_qr_scan"}, "lon": -77.08082666666667, "type": "electric_bike", "fusion_lat": 0.0, "lat": 38.906916333333335, "name": "66f4a8c0f0867da03083465665282479", "fusion_lon": 0.0, "bike_id": "66f4a8c0f0867da03083465665282479", "is_disabled": 0, "is_reserved": 0}, {"rental_uris": {"ios": "https://dc.lft.to/lastmile_qr_scan", "android": "https://dc.lft.to/lastmile_qr_scan"}, "lon": -77.04500583333333, "type": "electric_scooter", "fusion_lat": 0.0, "lat": 38.905734833333334, "name": "9ff0a84885aa54f6ded4d6dd06d2891d", "fusion_lon": 0.0, "bike_id": "9ff0a84885aa54f6ded4d6dd06d2891d", "is_disabled": 0, "is_reserved": 0}, {"rental_uris": {"ios": "https://dc.lft.to/lastmile_qr_scan", "android": "https://dc.lft.to/lastmile_qr_scan"}, "lon": -77.03297316666666, "type": "electric_scooter", "fusion_lat": 0.0, "lat": 38.91811516666667, "name": "6a0d1f80f24abeecdb28e86d4a469934", "fusion_lon": 0.0, "bike_id": "6a0d1f80f24abeecdb28e86d4a469934", "is_disabled": 0, "is_reserved": 0}, {"rental_uris": {"ios": "https://dc.lft.to/lastmile_qr_scan", "android": "https://dc.lft.to/lastmile_qr_scan"}, "lon": -77.031968, "type": "electric_scooter", "fusion_lat": 0.0, "lat": 38.904124333333336, "name": "61d6aa4e9308b0a7a84a165445a03e95", "fusion_lon": 0.0, "bike_id": "61d6aa4e9308b0a7a84a165445a03e95", "is_disabled": 0, "is_reserved": 0}, {"rental_uris": {"ios": "https://dc.lft.to/lastmile_qr_scan", "android": "https://dc.lft.to/lastmile_qr_scan"}, "lon": -77.02203616666667, "type": "electric_scooter", "fusion_lat": 0.0, "lat": 38.915355, "name": "862be7e2d4a63f07f62906c6b6f91890", "fusion_lon": 0.0, "bike_id": "862be7e2d4a63f07f62906c6b6f91890", "is_disabled": 0, "is_reserved": 0}, {"rental_uris": {"ios": "https://dc.lft.to/lastmile_qr_scan", "android": "https://dc.lft.to/lastmile_qr_scan"}, "lon": -77.02221216666666, "type": "electric_scooter", "fusion_lat": 0.0, "lat": 38.891954166666665, "name": "d8304b9363d2ee1c0894685aae42e1d0", "fusion_lon": 0.0, "bike_id": "d8304b9363d2ee1c0894685aae42e1d0", "is_disabled": 0, "is_reserved": 0}, {"rental_uris": {"ios": "https://dc.lft.to/lastmile_qr_scan", "android": "https://dc.lft.to/lastmile_qr_scan"}, "lon": -77.0366585, "type": "electric_scooter", "fusion_lat": 0.0, "lat": 38.9175565, "name": "5339bdc076cdaff27f9f384488d34962", "fusion_lon": 0.0, "bike_id": "5339bdc076cdaff27f9f384488d34962", "is_disabled": 0, "is_reserved": 0}, {"rental_uris": {"ios": "https://dc.lft.to/lastmile_qr_scan", "android": "https://dc.lft.to/lastmile_qr_scan"}, "lon": -77.04682583333333, "type": "electric_scooter", "fusion_lat": 0.0, "lat": 38.892254, "name": "d7b1845e405093158eed94303e972e80", "fusion_lon": 0.0, "bike_id": "d7b1845e405093158eed94303e972e80", "is_disabled": 0, "is_reserved": 0}, {"rental_uris": {"ios": "https://dc.lft.to/lastmile_qr_scan", "android": "https://dc.lft.to/lastmile_qr_scan"}, "lon": -77.0320025, "type": "electric_scooter", "fusion_lat": 0.0, "lat": 38.9042955, "name": "b50e3ba1728347bf82929bce757da1a6", "fusion_lon": 0.0, "bike_id": "b50e3ba1728347bf82929bce757da1a6", "is_disabled": 0, "is_reserved": 0}, {"rental_uris": {"ios": "https://dc.lft.to/lastmile_qr_scan", "android": "https://dc.lft.to/lastmile_qr_scan"}, "lon": -77.03074466666666, "type": "electric_scooter", "fusion_lat": 0.0, "lat": 38.91105, "name": "3cc374ff3e024b136bb19f6fb1d36c1f", "fusion_lon": 0.0, "bike_id": "3cc374ff3e024b136bb19f6fb1d36c1f", "is_disabled": 0, "is_reserved": 0}, {"rental_uris": {"ios": "https://dc.lft.to/lastmile_qr_scan", "android": "https://dc.lft.to/lastmile_qr_scan"}, "lon": -77.01149383333333, "type": "electric_scooter", "fusion_lat": 0.0, "lat": 38.956746333333335, "name": "80a3a62c1340011dbec518f5baf40a40", "fusion_lon": 0.0, "bike_id": "80a3a62c1340011dbec518f5baf40a40", "is_disabled": 0, "is_reserved": 0}, {"rental_uris": {"ios": "https://dc.lft.to/lastmile_qr_scan", "android": "https://dc.lft.to/lastmile_qr_scan"}, "lon": -77.0498505, "type": "electric_scooter", "fusion_lat": 0.0, "lat": 38.9079355, "name": "4c9cd9bda28865134b0c122b012aae6a", "fusion_lon": 0.0, "bike_id": "4c9cd9bda28865134b0c122b012aae6a", "is_disabled": 0, "is_reserved": 0}, {"rental_uris": {"ios": "https://dc.lft.to/lastmile_qr_scan", "android": "https://dc.lft.to/lastmile_qr_scan"}, "lon": -77.00205716666666, "type": "electric_scooter", "fusion_lat": 0.0, "lat": 38.82259333333333, "name": "507200821caca8f63465db778204b261", "fusion_lon": 0.0, "bike_id": "507200821caca8f63465db778204b261", "is_disabled": 0, "is_reserved": 0}, {"rental_uris": {"ios": "https://dc.lft.to/lastmile_qr_scan", "android": "https://dc.lft.to/lastmile_qr_scan"}, "lon": -77.05679783333333, "type": "electric_scooter", "fusion_lat": 0.0, "lat": 38.92339283333333, "name": "890714d852ee99eb4e420c53a8392cc8", "fusion_lon": 0.0, "bike_id": "890714d852ee99eb4e420c53a8392cc8", "is_disabled": 0, "is_reserved": 0}, {"rental_uris": {"ios": "https://dc.lft.to/lastmile_qr_scan", "android": "https://dc.lft.to/lastmile_qr_scan"}, "lon": -77.00745066666667, "type": "electric_scooter", "fusion_lat": 0.0, "lat": 38.955244, "name": "5b086ac725be03dfad4e15d7106e80c2", "fusion_lon": 0.0, "bike_id": "5b086ac725be03dfad4e15d7106e80c2", "is_disabled": 0, "is_reserved": 0}, {"rental_uris": {"ios": "https://dc.lft.to/lastmile_qr_scan", "android": "https://dc.lft.to/lastmile_qr_scan"}, "lon": -77.02350016666666, "type": "electric_scooter", "fusion_lat": 0.0, "lat": 38.922758, "name": "9d4509f6614ee662b30fb1c33805cf0f", "fusion_lon": 0.0, "bike_id": "9d4509f6614ee662b30fb1c33805cf0f", "is_disabled": 0, "is_reserved": 0}, {"rental_uris": {"ios": "https://dc.lft.to/lastmile_qr_scan", "android": "https://dc.lft.to/lastmile_qr_scan"}, "lon": -77.045987, "type": "electric_scooter", "fusion_lat": 0.0, "lat": 38.913752, "name": "feb06c2f3771c2bcc88a62e88c88a200", "fusion_lon": 0.0, "bike_id": "feb06c2f3771c2bcc88a62e88c88a200", "is_disabled": 0, "is_reserved": 0}, {"rental_uris": {"ios": "https://dc.lft.to/lastmile_qr_scan", "android": "https://dc.lft.to/lastmile_qr_scan"}, "lon": -77.06782683333333, "type": "electric_scooter", "fusion_lat": 0.0, "lat": 38.95205516666667, "name": "5c525d3d3d2c191c78cf643550d8b118", "fusion_lon": 0.0, "bike_id": "5c525d3d3d2c191c78cf643550d8b118", "is_disabled": 0, "is_reserved": 0}, {"rental_uris": {"ios": "https://dc.lft.to/lastmile_qr_scan", "android": "https://dc.lft.to/lastmile_qr_scan"}, "lon": -77.0021185, "type": "electric_scooter", "fusion_lat": 0.0, "lat": 38.90218766666667, "name": "6bb67f6bda3cd54d813edf52b118a4d8", "fusion_lon": 0.0, "bike_id": "6bb67f6bda3cd54d813edf52b118a4d8", "is_disabled": 0, "is_reserved": 0}, {"rental_uris": {"ios": "https://dc.lft.to/lastmile_qr_scan", "android": "https://dc.lft.to/lastmile_qr_scan"}, "lon": -77.03989833333333, "type": "electric_scooter", "fusion_lat": 0.0, "lat": 38.90036283333333, "name": "2bb9c6886f521c21ee1a40d40c8f4372", "fusion_lon": 0.0, "bike_id": "2bb9c6886f521c21ee1a40d40c8f4372", "is_disabled": 0, "is_reserved": 0}, {"rental_uris": {"ios": "https://dc.lft.to/lastmile_qr_scan", "android": "https://dc.lft.to/lastmile_qr_scan"}, "lon": -77.03640783333333, "type": "electric_scooter", "fusion_lat": 0.0, "lat": 38.917378666666664, "name": "838ed69f43427dfb1e0f46237d458462", "fusion_lon": 0.0, "bike_id": "838ed69f43427dfb1e0f46237d458462", "is_disabled": 0, "is_reserved": 0}, {"rental_uris": {"ios": "https://dc.lft.to/lastmile_qr_scan", "android": "https://dc.lft.to/lastmile_qr_scan"}, "lon": -77.04495533333333, "type": "electric_scooter", "fusion_lat": 0.0, "lat": 38.915802166666666, "name": "61c4786d358cc1c4532011f5c126294f", "fusion_lon": 0.0, "bike_id": "61c4786d358cc1c4532011f5c126294f", "is_disabled": 0, "is_reserved": 0}, {"rental_uris": {"ios": "https://dc.lft.to/lastmile_qr_scan", "android": "https://dc.lft.to/lastmile_qr_scan"}, "lon": -77.02807833333334, "type": "electric_scooter", "fusion_lat": 0.0, "lat": 38.89379183333333, "name": "896f48bfffb2ca18b9f903b6af16d2de", "fusion_lon": 0.0, "bike_id": "896f48bfffb2ca18b9f903b6af16d2de", "is_disabled": 0, "is_reserved": 0}, {"rental_uris": {"ios": "https://dc.lft.to/lastmile_qr_scan", "android": "https://dc.lft.to/lastmile_qr_scan"}, "lon": -76.99487033333334, "type": "electric_scooter", "fusion_lat": 0.0, "lat": 38.862388833333334, "name": "8b2490f49fe9434158a0a5d039e0bb4b", "fusion_lon": 0.0, "bike_id": "8b2490f49fe9434158a0a5d039e0bb4b", "is_disabled": 0, "is_reserved": 0}, {"rental_uris": {"ios": "https://dc.lft.to/lastmile_qr_scan", "android": "https://dc.lft.to/lastmile_qr_scan"}, "lon": -76.95818, "type": "electric_scooter", "fusion_lat": 0.0, "lat": 38.890556, "name": "9551c75b825c35560683d167f8d5596b", "fusion_lon": 0.0, "bike_id": "9551c75b825c35560683d167f8d5596b", "is_disabled": 0, "is_reserved": 0}, {"rental_uris": {"ios": "https://dc.lft.to/lastmile_qr_scan", "android": "https://dc.lft.to/lastmile_qr_scan"}, "lon": -77.0321015, "type": "electric_scooter", "fusion_lat": 0.0, "lat": 38.91108666666667, "name": "78df695fe1b14272a11e14e34076fdff", "fusion_lon": 0.0, "bike_id": "78df695fe1b14272a11e14e34076fdff", "is_disabled": 0, "is_reserved": 0}, {"rental_uris": {"ios": "https://dc.lft.to/lastmile_qr_scan", "android": "https://dc.lft.to/lastmile_qr_scan"}, "lon": -77.03185683333334, "type": "electric_scooter", "fusion_lat": 0.0, "lat": 38.9165925, "name": "468e5aa506bd9e97c7710554e65eac1e", "fusion_lon": 0.0, "bike_id": "468e5aa506bd9e97c7710554e65eac1e", "is_disabled": 0, "is_reserved": 0}, {"rental_uris": {"ios": "https://dc.lft.to/lastmile_qr_scan", "android": "https://dc.lft.to/lastmile_qr_scan"}, "lon": -77.0325475, "type": "electric_scooter", "fusion_lat": 0.0, "lat": 38.91818466666667, "name": "aa15f1d59b50e91898887de0f68617de", "fusion_lon": 0.0, "bike_id": "aa15f1d59b50e91898887de0f68617de", "is_disabled": 0, "is_reserved": 0}, {"rental_uris": {"ios": "https://dc.lft.to/lastmile_qr_scan", "android": "https://dc.lft.to/lastmile_qr_scan"}, "lon": -77.03200016666666, "type": "electric_scooter", "fusion_lat": 0.0, "lat": 38.91741783333333, "name": "4405632ad083f2ff94d199be95de4c21", "fusion_lon": 0.0, "bike_id": "4405632ad083f2ff94d199be95de4c21", "is_disabled": 0, "is_reserved": 0}, {"rental_uris": {"ios": "https://dc.lft.to/lastmile_qr_scan", "android": "https://dc.lft.to/lastmile_qr_scan"}, "lon": -77.0559305, "type": "electric_scooter", "fusion_lat": 0.0, "lat": 38.927815, "name": "9fb4250fa1d0c40af9d24b750d1fd2df", "fusion_lon": 0.0, "bike_id": "9fb4250fa1d0c40af9d24b750d1fd2df", "is_disabled": 0, "is_reserved": 0}, {"rental_uris": {"ios": "https://dc.lft.to/lastmile_qr_scan", "android": "https://dc.lft.to/lastmile_qr_scan"}, "lon": -77.04520483333333, "type": "electric_scooter", "fusion_lat": 0.0, "lat": 38.909676833333336, "name": "e29ec6477b2d5a96df20be586a3e0f3e", "fusion_lon": 0.0, "bike_id": "e29ec6477b2d5a96df20be586a3e0f3e", "is_disabled": 0, "is_reserved": 0}, {"rental_uris": {"ios": "https://dc.lft.to/lastmile_qr_scan", "android": "https://dc.lft.to/lastmile_qr_scan"}, "lon": -77.0336005, "type": "electric_scooter", "fusion_lat": 0.0, "lat": 38.88509283333333, "name": "9a809616dd2e43d8d66f6659551b8e38", "fusion_lon": 0.0, "bike_id": "9a809616dd2e43d8d66f6659551b8e38", "is_disabled": 0, "is_reserved": 0}, {"rental_uris": {"ios": "https://dc.lft.to/lastmile_qr_scan", "android": "https://dc.lft.to/lastmile_qr_scan"}, "lon": -77.032012, "type": "electric_scooter", "fusion_lat": 0.0, "lat": 38.9131725, "name": "1de304ac985cf56e10d7b641fb2a12d4", "fusion_lon": 0.0, "bike_id": "1de304ac985cf56e10d7b641fb2a12d4", "is_disabled": 0, "is_reserved": 0}, {"rental_uris": {"ios": "https://dc.lft.to/lastmile_qr_scan", "android": "https://dc.lft.to/lastmile_qr_scan"}, "lon": -77.04470766666667, "type": "electric_scooter", "fusion_lat": 0.0, "lat": 38.904058666666664, "name": "a1feae544322f59ba5ee0c9591e2c8e0", "fusion_lon": 0.0, "bike_id": "a1feae544322f59ba5ee0c9591e2c8e0", "is_disabled": 0, "is_reserved": 0}, {"rental_uris": {"ios": "https://dc.lft.to/lastmile_qr_scan", "android": "https://dc.lft.to/lastmile_qr_scan"}, "lon": -77.0171335, "type": "electric_scooter", "fusion_lat": 0.0, "lat": 38.89221366666666, "name": "45dd015f7375664402bfbf8d7bd4b37e", "fusion_lon": 0.0, "bike_id": "45dd015f7375664402bfbf8d7bd4b37e", "is_disabled": 0, "is_reserved": 0}, {"rental_uris": {"ios": "https://dc.lft.to/lastmile_qr_scan", "android": "https://dc.lft.to/lastmile_qr_scan"}, "lon": -77.03826033333333, "type": "electric_scooter", "fusion_lat": 0.0, "lat": 38.920513166666666, "name": "530df5ea394858fcc533fdd46e9c4ef1", "fusion_lon": 0.0, "bike_id": "530df5ea394858fcc533fdd46e9c4ef1", "is_disabled": 0, "is_reserved": 0}, {"rental_uris": {"ios": "https://dc.lft.to/lastmile_qr_scan", "android": "https://dc.lft.to/lastmile_qr_scan"}, "lon": -77.09523383333334, "type": "electric_bike", "fusion_lat": 0.0, "lat": 38.838126833333334, "name": "032f79427f80dd6294375488f5657b60", "fusion_lon": 0.0, "bike_id": "032f79427f80dd6294375488f5657b60", "is_disabled": 0, "is_reserved": 0}, {"rental_uris": {"ios": "https://dc.lft.to/lastmile_qr_scan", "android": "https://dc.lft.to/lastmile_qr_scan"}, "lon": -77.03468816666667, "type": "electric_scooter", "fusion_lat": 0.0, "lat": 38.905657166666664, "name": "5c6c988cd4bb3f4a8e0ff215da3c537f", "fusion_lon": 0.0, "bike_id": "5c6c988cd4bb3f4a8e0ff215da3c537f", "is_disabled": 0, "is_reserved": 0}, {"rental_uris": {"ios": "https://dc.lft.to/lastmile_qr_scan", "android": "https://dc.lft.to/lastmile_qr_scan"}, "lon": -77.022213, "type": "electric_scooter", "fusion_lat": 0.0, "lat": 38.8919665, "name": "ba3f4dfbba6b52d5c412733e44c20603", "fusion_lon": 0.0, "bike_id": "ba3f4dfbba6b52d5c412733e44c20603", "is_disabled": 0, "is_reserved": 0}, {"rental_uris": {"ios": "https://dc.lft.to/lastmile_qr_scan", "android": "https://dc.lft.to/lastmile_qr_scan"}, "lon": -77.03271616666666, "type": "electric_scooter", "fusion_lat": 0.0, "lat": 38.904043, "name": "91ca88897b8862aa16bb73cfbbb5dd0d", "fusion_lon": 0.0, "bike_id": "91ca88897b8862aa16bb73cfbbb5dd0d", "is_disabled": 0, "is_reserved": 0}, {"rental_uris": {"ios": "https://dc.lft.to/lastmile_qr_scan", "android": "https://dc.lft.to/lastmile_qr_scan"}, "lon": -77.06022866666666, "type": "electric_bike", "fusion_lat": 0.0, "lat": 38.904169333333336, "name": "d095e76cf93848769579c5c44ff9685f", "fusion_lon": 0.0, "bike_id": "d095e76cf93848769579c5c44ff9685f", "is_disabled": 0, "is_reserved": 0}, {"rental_uris": {"ios": "https://dc.lft.to/lastmile_qr_scan", "android": "https://dc.lft.to/lastmile_qr_scan"}, "lon": -77.0434065, "type": "electric_scooter", "fusion_lat": 0.0, "lat": 38.90564783333333, "name": "3e22a0a632f2cd21599fedcf7e3160ec", "fusion_lon": 0.0, "bike_id": "3e22a0a632f2cd21599fedcf7e3160ec", "is_disabled": 0, "is_reserved": 0}, {"rental_uris": {"ios": "https://dc.lft.to/lastmile_qr_scan", "android": "https://dc.lft.to/lastmile_qr_scan"}, "lon": -77.038485, "type": "electric_scooter", "fusion_lat": 0.0, "lat": 38.915501, "name": "152e3a676d02ca8e1621f5290e7ef8ec", "fusion_lon": 0.0, "bike_id": "152e3a676d02ca8e1621f5290e7ef8ec", "is_disabled": 0, "is_reserved": 0}, {"rental_uris": {"ios": "https://dc.lft.to/lastmile_qr_scan", "android": "https://dc.lft.to/lastmile_qr_scan"}, "lon": -77.02554266666667, "type": "electric_scooter", "fusion_lat": 0.0, "lat": 38.88435483333333, "name": "addc9425b32ada986640aaa8c70cc9a4", "fusion_lon": 0.0, "bike_id": "addc9425b32ada986640aaa8c70cc9a4", "is_disabled": 0, "is_reserved": 0}, {"rental_uris": {"ios": "https://dc.lft.to/lastmile_qr_scan", "android": "https://dc.lft.to/lastmile_qr_scan"}, "lon": -77.0436975, "type": "electric_scooter", "fusion_lat": 0.0, "lat": 38.917879166666665, "name": "0b5d6dce339621a6ebe9414d8586a1c4", "fusion_lon": 0.0, "bike_id": "0b5d6dce339621a6ebe9414d8586a1c4", "is_disabled": 0, "is_reserved": 0}, {"rental_uris": {"ios": "https://dc.lft.to/lastmile_qr_scan", "android": "https://dc.lft.to/lastmile_qr_scan"}, "lon": -77.035672, "type": "electric_bike", "fusion_lat": 0.0, "lat": 38.964682833333335, "name": "47969e8c38664e423fe99e95aa5e1762", "fusion_lon": 0.0, "bike_id": "47969e8c38664e423fe99e95aa5e1762", "is_disabled": 0, "is_reserved": 0}, {"rental_uris": {"ios": "https://dc.lft.to/lastmile_qr_scan", "android": "https://dc.lft.to/lastmile_qr_scan"}, "lon": -77.043664, "type": "electric_scooter", "fusion_lat": 0.0, "lat": 38.892215666666665, "name": "df59e7ef96738cf95c31ab9615281a08", "fusion_lon": 0.0, "bike_id": "df59e7ef96738cf95c31ab9615281a08", "is_disabled": 0, "is_reserved": 0}, {"rental_uris": {"ios": "https://dc.lft.to/lastmile_qr_scan", "android": "https://dc.lft.to/lastmile_qr_scan"}, "lon": -77.04342983333333, "type": "electric_scooter", "fusion_lat": 0.0, "lat": 38.89659566666667, "name": "b01ce0eea6bad3ab9783d6e08b6c929f", "fusion_lon": 0.0, "bike_id": "b01ce0eea6bad3ab9783d6e08b6c929f", "is_disabled": 0, "is_reserved": 0}, {"rental_uris": {"ios": "https://dc.lft.to/lastmile_qr_scan", "android": "https://dc.lft.to/lastmile_qr_scan"}, "lon": -76.9851275, "type": "electric_scooter", "fusion_lat": 0.0, "lat": 38.906083333333335, "name": "725380734f1f95ade1b445707a809f29", "fusion_lon": 0.0, "bike_id": "725380734f1f95ade1b445707a809f29", "is_disabled": 0, "is_reserved": 0}, {"rental_uris": {"ios": "https://dc.lft.to/lastmile_qr_scan", "android": "https://dc.lft.to/lastmile_qr_scan"}, "lon": -77.00598266666667, "type": "electric_scooter", "fusion_lat": 0.0, "lat": 38.877285, "name": "4270507e58601d5c18b8c5d84dd6ea1d", "fusion_lon": 0.0, "bike_id": "4270507e58601d5c18b8c5d84dd6ea1d", "is_disabled": 0, "is_reserved": 0}, {"rental_uris": {"ios": "https://dc.lft.to/lastmile_qr_scan", "android": "https://dc.lft.to/lastmile_qr_scan"}, "lon": -77.02780716666666, "type": "electric_bike", "fusion_lat": 0.0, "lat": 38.9047805, "name": "0d769e21646be24f9e0a9d2ff670ae3c", "fusion_lon": 0.0, "bike_id": "0d769e21646be24f9e0a9d2ff670ae3c", "is_disabled": 0, "is_reserved": 0}, {"rental_uris": {"ios": "https://dc.lft.to/lastmile_qr_scan", "android": "https://dc.lft.to/lastmile_qr_scan"}, "lon": -76.99964133333333, "type": "electric_scooter", "fusion_lat": 0.0, "lat": 38.90925333333333, "name": "ac25d25a2b8dfceb207429744dd9a0c2", "fusion_lon": 0.0, "bike_id": "ac25d25a2b8dfceb207429744dd9a0c2", "is_disabled": 0, "is_reserved": 0}, {"rental_uris": {"ios": "https://dc.lft.to/lastmile_qr_scan", "android": "https://dc.lft.to/lastmile_qr_scan"}, "lon": -77.041668, "type": "electric_scooter", "fusion_lat": 0.0, "lat": 38.91940066666667, "name": "b9d0930712c081a388395abe3a2bdcf0", "fusion_lon": 0.0, "bike_id": "b9d0930712c081a388395abe3a2bdcf0", "is_disabled": 0, "is_reserved": 0}, {"rental_uris": {"ios": "https://dc.lft.to/lastmile_qr_scan", "android": "https://dc.lft.to/lastmile_qr_scan"}, "lon": -77.035225, "type": "electric_scooter", "fusion_lat": 0.0, "lat": 38.922222166666664, "name": "e600a1e9a8a0f01791c16e4c31cd883f", "fusion_lon": 0.0, "bike_id": "e600a1e9a8a0f01791c16e4c31cd883f", "is_disabled": 0, "is_reserved": 0}, {"rental_uris": {"ios": "https://dc.lft.to/lastmile_qr_scan", "android": "https://dc.lft.to/lastmile_qr_scan"}, "lon": -76.99824533333333, "type": "electric_scooter", "fusion_lat": 0.0, "lat": 38.88871666666667, "name": "9876e901bb03b24db096e62308ee3f06", "fusion_lon": 0.0, "bike_id": "9876e901bb03b24db096e62308ee3f06", "is_disabled": 0, "is_reserved": 0}, {"rental_uris": {"ios": "https://dc.lft.to/lastmile_qr_scan", "android": "https://dc.lft.to/lastmile_qr_scan"}, "lon": -77.00215616666667, "type": "electric_scooter", "fusion_lat": 0.0, "lat": 38.90029166666667, "name": "fa5eaa0699107a7a3f04d57bd2534aeb", "fusion_lon": 0.0, "bike_id": "fa5eaa0699107a7a3f04d57bd2534aeb", "is_disabled": 0, "is_reserved": 0}, {"rental_uris": {"ios": "https://dc.lft.to/lastmile_qr_scan", "android": "https://dc.lft.to/lastmile_qr_scan"}, "lon": -77.01615533333333, "type": "electric_scooter", "fusion_lat": 0.0, "lat": 38.9071265, "name": "5e9bc0d8a4efa7d35ea4edb772c46478", "fusion_lon": 0.0, "bike_id": "5e9bc0d8a4efa7d35ea4edb772c46478", "is_disabled": 0, "is_reserved": 0}, {"rental_uris": {"ios": "https://dc.lft.to/lastmile_qr_scan", "android": "https://dc.lft.to/lastmile_qr_scan"}, "lon": -77.05217733333333, "type": "electric_scooter", "fusion_lat": 0.0, "lat": 38.924918, "name": "5fb496fb438ad035c597389e992c7c01", "fusion_lon": 0.0, "bike_id": "5fb496fb438ad035c597389e992c7c01", "is_disabled": 0, "is_reserved": 0}, {"rental_uris": {"ios": "https://dc.lft.to/lastmile_qr_scan", "android": "https://dc.lft.to/lastmile_qr_scan"}, "lon": -77.0049895, "type": "electric_scooter", "fusion_lat": 0.0, "lat": 38.87889283333333, "name": "2379d845bc0854de87f1c5325845d0bc", "fusion_lon": 0.0, "bike_id": "2379d845bc0854de87f1c5325845d0bc", "is_disabled": 0, "is_reserved": 0}, {"rental_uris": {"ios": "https://dc.lft.to/lastmile_qr_scan", "android": "https://dc.lft.to/lastmile_qr_scan"}, "lon": -77.00349566666667, "type": "electric_scooter", "fusion_lat": 0.0, "lat": 38.89262866666667, "name": "6ff77ef913eb5ac7acb28b5c6fbcfdd0", "fusion_lon": 0.0, "bike_id": "6ff77ef913eb5ac7acb28b5c6fbcfdd0", "is_disabled": 0, "is_reserved": 0}, {"rental_uris": {"ios": "https://dc.lft.to/lastmile_qr_scan", "android": "https://dc.lft.to/lastmile_qr_scan"}, "lon": -76.986399, "type": "electric_scooter", "fusion_lat": 0.0, "lat": 38.9001245, "name": "18de2e5263adf96055e08b85e93e30af", "fusion_lon": 0.0, "bike_id": "18de2e5263adf96055e08b85e93e30af", "is_disabled": 0, "is_reserved": 0}, {"rental_uris": {"ios": "https://dc.lft.to/lastmile_qr_scan", "android": "https://dc.lft.to/lastmile_qr_scan"}, "lon": -77.04123216666666, "type": "electric_scooter", "fusion_lat": 0.0, "lat": 38.93405816666667, "name": "f08dbb54e4fe490306d427b356e4e35e", "fusion_lon": 0.0, "bike_id": "f08dbb54e4fe490306d427b356e4e35e", "is_disabled": 0, "is_reserved": 0}, {"rental_uris": {"ios": "https://dc.lft.to/lastmile_qr_scan", "android": "https://dc.lft.to/lastmile_qr_scan"}, "lon": -77.0135565, "type": "electric_scooter", "fusion_lat": 0.0, "lat": 38.916243, "name": "7210d89f7d1a2367570e2f34b15b0a3f", "fusion_lon": 0.0, "bike_id": "7210d89f7d1a2367570e2f34b15b0a3f", "is_disabled": 0, "is_reserved": 0}, {"rental_uris": {"ios": "https://dc.lft.to/lastmile_qr_scan", "android": "https://dc.lft.to/lastmile_qr_scan"}, "lon": -77.03360366666666, "type": "electric_scooter", "fusion_lat": 0.0, "lat": 38.8996075, "name": "3d0e91513962650c8c1a842918e18a11", "fusion_lon": 0.0, "bike_id": "3d0e91513962650c8c1a842918e18a11", "is_disabled": 0, "is_reserved": 0}, {"rental_uris": {"ios": "https://dc.lft.to/lastmile_qr_scan", "android": "https://dc.lft.to/lastmile_qr_scan"}, "lon": -77.03666783333334, "type": "electric_scooter", "fusion_lat": 0.0, "lat": 38.91817983333333, "name": "db7fe02d688d35e2aa6eed055d5619b3", "fusion_lon": 0.0, "bike_id": "db7fe02d688d35e2aa6eed055d5619b3", "is_disabled": 0, "is_reserved": 0}, {"rental_uris": {"ios": "https://dc.lft.to/lastmile_qr_scan", "android": "https://dc.lft.to/lastmile_qr_scan"}, "lon": -77.0366575, "type": "electric_scooter", "fusion_lat": 0.0, "lat": 38.918135166666666, "name": "b360700c9d35e6a7efb69f0c1907aa05", "fusion_lon": 0.0, "bike_id": "b360700c9d35e6a7efb69f0c1907aa05", "is_disabled": 0, "is_reserved": 0}, {"rental_uris": {"ios": "https://dc.lft.to/lastmile_qr_scan", "android": "https://dc.lft.to/lastmile_qr_scan"}, "lon": -77.03858416666667, "type": "electric_scooter", "fusion_lat": 0.0, "lat": 38.912045166666665, "name": "01a224b19101adcfc55ee30d077ef4d1", "fusion_lon": 0.0, "bike_id": "01a224b19101adcfc55ee30d077ef4d1", "is_disabled": 0, "is_reserved": 0}, {"rental_uris": {"ios": "https://dc.lft.to/lastmile_qr_scan", "android": "https://dc.lft.to/lastmile_qr_scan"}, "lon": -77.00577033333333, "type": "electric_scooter", "fusion_lat": 0.0, "lat": 38.905679166666665, "name": "f1c16af7b5cb63d5ffbdebebcbeafa7e", "fusion_lon": 0.0, "bike_id": "f1c16af7b5cb63d5ffbdebebcbeafa7e", "is_disabled": 0, "is_reserved": 0}, {"rental_uris": {"ios": "https://dc.lft.to/lastmile_qr_scan", "android": "https://dc.lft.to/lastmile_qr_scan"}, "lon": -76.986911, "type": "electric_scooter", "fusion_lat": 0.0, "lat": 38.91287033333333, "name": "bf9bd276c6036a69c93c2680be276237", "fusion_lon": 0.0, "bike_id": "bf9bd276c6036a69c93c2680be276237", "is_disabled": 0, "is_reserved": 0}, {"rental_uris": {"ios": "https://dc.lft.to/lastmile_qr_scan", "android": "https://dc.lft.to/lastmile_qr_scan"}, "lon": -77.03213033333333, "type": "electric_scooter", "fusion_lat": 0.0, "lat": 38.925824666666664, "name": "2496d17c5217dd67db95e6288a6259b4", "fusion_lon": 0.0, "bike_id": "2496d17c5217dd67db95e6288a6259b4", "is_disabled": 0, "is_reserved": 0}, {"rental_uris": {"ios": "https://dc.lft.to/lastmile_qr_scan", "android": "https://dc.lft.to/lastmile_qr_scan"}, "lon": -77.11317833333334, "type": "electric_bike", "fusion_lat": 0.0, "lat": 38.855654333333334, "name": "dc74c1f0f4a333b969c4db31a5ffb40c", "fusion_lon": 0.0, "bike_id": "dc74c1f0f4a333b969c4db31a5ffb40c", "is_disabled": 0, "is_reserved": 0}, {"rental_uris": {"ios": "https://dc.lft.to/lastmile_qr_scan", "android": "https://dc.lft.to/lastmile_qr_scan"}, "lon": -77.06881133333333, "type": "electric_scooter", "fusion_lat": 0.0, "lat": 38.9051715, "name": "fbf6a9cbd57143c0f49516a632443606", "fusion_lon": 0.0, "bike_id": "fbf6a9cbd57143c0f49516a632443606", "is_disabled": 0, "is_reserved": 0}, {"rental_uris": {"ios": "https://dc.lft.to/lastmile_qr_scan", "android": "https://dc.lft.to/lastmile_qr_scan"}, "lon": -77.0448085, "type": "electric_scooter", "fusion_lat": 0.0, "lat": 38.90657916666667, "name": "a22234b43a996ccc7b167369084de07e", "fusion_lon": 0.0, "bike_id": "a22234b43a996ccc7b167369084de07e", "is_disabled": 0, "is_reserved": 0}, {"rental_uris": {"ios": "https://dc.lft.to/lastmile_qr_scan", "android": "https://dc.lft.to/lastmile_qr_scan"}, "lon": -77.03956633333334, "type": "electric_scooter", "fusion_lat": 0.0, "lat": 38.89252233333333, "name": "4540d8662274563521263d9ed4e57abd", "fusion_lon": 0.0, "bike_id": "4540d8662274563521263d9ed4e57abd", "is_disabled": 0, "is_reserved": 0}, {"rental_uris": {"ios": "https://dc.lft.to/lastmile_qr_scan", "android": "https://dc.lft.to/lastmile_qr_scan"}, "lon": -76.98826366666667, "type": "electric_scooter", "fusion_lat": 0.0, "lat": 38.880251, "name": "f42f7130ffad02c30e0feb932277e5f4", "fusion_lon": 0.0, "bike_id": "f42f7130ffad02c30e0feb932277e5f4", "is_disabled": 0, "is_reserved": 0}, {"rental_uris": {"ios": "https://dc.lft.to/lastmile_qr_scan", "android": "https://dc.lft.to/lastmile_qr_scan"}, "lon": -77.02996033333334, "type": "electric_bike", "fusion_lat": 0.0, "lat": 38.9003355, "name": "f3a31c2ff25e7513333f02c1fa710c71", "fusion_lon": 0.0, "bike_id": "f3a31c2ff25e7513333f02c1fa710c71", "is_disabled": 0, "is_reserved": 0}, {"rental_uris": {"ios": "https://dc.lft.to/lastmile_qr_scan", "android": "https://dc.lft.to/lastmile_qr_scan"}, "lon": -77.03261416666666, "type": "electric_scooter", "fusion_lat": 0.0, "lat": 38.92171733333333, "name": "e5e423a4f97296818eb4fab6de552a07", "fusion_lon": 0.0, "bike_id": "e5e423a4f97296818eb4fab6de552a07", "is_disabled": 0, "is_reserved": 0}, {"rental_uris": {"ios": "https://dc.lft.to/lastmile_qr_scan", "android": "https://dc.lft.to/lastmile_qr_scan"}, "lon": -77.02446816666667, "type": "electric_scooter", "fusion_lat": 0.0, "lat": 38.884678, "name": "87f5c1863d1219d147e551f1817256a4", "fusion_lon": 0.0, "bike_id": "87f5c1863d1219d147e551f1817256a4", "is_disabled": 0, "is_reserved": 0}, {"rental_uris": {"ios": "https://dc.lft.to/lastmile_qr_scan", "android": "https://dc.lft.to/lastmile_qr_scan"}, "lon": -77.02382133333333, "type": "electric_scooter", "fusion_lat": 0.0, "lat": 38.919590166666666, "name": "498ce27b81473a98b4348520e5721dc3", "fusion_lon": 0.0, "bike_id": "498ce27b81473a98b4348520e5721dc3", "is_disabled": 0, "is_reserved": 0}, {"rental_uris": {"ios": "https://dc.lft.to/lastmile_qr_scan", "android": "https://dc.lft.to/lastmile_qr_scan"}, "lon": -77.03417766666666, "type": "electric_scooter", "fusion_lat": 0.0, "lat": 38.91924016666667, "name": "bcddd774cede242193718004430b50cf", "fusion_lon": 0.0, "bike_id": "bcddd774cede242193718004430b50cf", "is_disabled": 0, "is_reserved": 0}, {"rental_uris": {"ios": "https://dc.lft.to/lastmile_qr_scan", "android": "https://dc.lft.to/lastmile_qr_scan"}, "lon": -77.03463783333333, "type": "electric_scooter", "fusion_lat": 0.0, "lat": 38.909015333333336, "name": "06030bc5cd59fde51ab6b21fbba54a5f", "fusion_lon": 0.0, "bike_id": "06030bc5cd59fde51ab6b21fbba54a5f", "is_disabled": 0, "is_reserved": 0}, {"rental_uris": {"ios": "https://dc.lft.to/lastmile_qr_scan", "android": "https://dc.lft.to/lastmile_qr_scan"}, "lon": -77.00093083333333, "type": "electric_scooter", "fusion_lat": 0.0, "lat": 38.90761916666666, "name": "1d7036c208fdcebf97724b6e72dd9890", "fusion_lon": 0.0, "bike_id": "1d7036c208fdcebf97724b6e72dd9890", "is_disabled": 0, "is_reserved": 0}, {"rental_uris": {"ios": "https://dc.lft.to/lastmile_qr_scan", "android": "https://dc.lft.to/lastmile_qr_scan"}, "lon": -77.040329, "type": "electric_scooter", "fusion_lat": 0.0, "lat": 38.9234435, "name": "80134607484dd3cc99badbe91c4b11b2", "fusion_lon": 0.0, "bike_id": "80134607484dd3cc99badbe91c4b11b2", "is_disabled": 0, "is_reserved": 0}, {"rental_uris": {"ios": "https://dc.lft.to/lastmile_qr_scan", "android": "https://dc.lft.to/lastmile_qr_scan"}, "lon": -77.00260233333333, "type": "electric_scooter", "fusion_lat": 0.0, "lat": 38.90155683333333, "name": "034cd7df172d00b34f3bbde57931af58", "fusion_lon": 0.0, "bike_id": "034cd7df172d00b34f3bbde57931af58", "is_disabled": 0, "is_reserved": 0}, {"rental_uris": {"ios": "https://dc.lft.to/lastmile_qr_scan", "android": "https://dc.lft.to/lastmile_qr_scan"}, "lon": -77.03268666666666, "type": "electric_scooter", "fusion_lat": 0.0, "lat": 38.91986966666666, "name": "2855879a53257d8a4895c7284bcd3827", "fusion_lon": 0.0, "bike_id": "2855879a53257d8a4895c7284bcd3827", "is_disabled": 0, "is_reserved": 0}, {"rental_uris": {"ios": "https://dc.lft.to/lastmile_qr_scan", "android": "https://dc.lft.to/lastmile_qr_scan"}, "lon": -76.9997255, "type": "electric_scooter", "fusion_lat": 0.0, "lat": 38.83850366666667, "name": "5f8d1bed59acf252d068280e2e09398e", "fusion_lon": 0.0, "bike_id": "5f8d1bed59acf252d068280e2e09398e", "is_disabled": 0, "is_reserved": 0}, {"rental_uris": {"ios": "https://dc.lft.to/lastmile_qr_scan", "android": "https://dc.lft.to/lastmile_qr_scan"}, "lon": -77.03917583333333, "type": "electric_scooter", "fusion_lat": 0.0, "lat": 38.9111215, "name": "d2204cd76bda426796d96aebf472b727", "fusion_lon": 0.0, "bike_id": "d2204cd76bda426796d96aebf472b727", "is_disabled": 0, "is_reserved": 0}, {"rental_uris": {"ios": "https://dc.lft.to/lastmile_qr_scan", "android": "https://dc.lft.to/lastmile_qr_scan"}, "lon": -77.07268316666666, "type": "electric_scooter", "fusion_lat": 0.0, "lat": 38.93479816666667, "name": "3deec245ebbb73986bf360f65337c221", "fusion_lon": 0.0, "bike_id": "3deec245ebbb73986bf360f65337c221", "is_disabled": 0, "is_reserved": 0}, {"rental_uris": {"ios": "https://dc.lft.to/lastmile_qr_scan", "android": "https://dc.lft.to/lastmile_qr_scan"}, "lon": -77.03603283333334, "type": "electric_scooter", "fusion_lat": 0.0, "lat": 38.93487283333333, "name": "2adc21f15fba6842de444b933be70020", "fusion_lon": 0.0, "bike_id": "2adc21f15fba6842de444b933be70020", "is_disabled": 0, "is_reserved": 0}, {"rental_uris": {"ios": "https://dc.lft.to/lastmile_qr_scan", "android": "https://dc.lft.to/lastmile_qr_scan"}, "lon": -77.04547766666667, "type": "electric_scooter", "fusion_lat": 0.0, "lat": 38.934058666666665, "name": "999d39abd12af1ca2f050ba46375e07d", "fusion_lon": 0.0, "bike_id": "999d39abd12af1ca2f050ba46375e07d", "is_disabled": 0, "is_reserved": 0}, {"rental_uris": {"ios": "https://dc.lft.to/lastmile_qr_scan", "android": "https://dc.lft.to/lastmile_qr_scan"}, "lon": -77.02008533333333, "type": "electric_scooter", "fusion_lat": 0.0, "lat": 38.91310683333333, "name": "82002c2edc5711251452d4e69885bf0a", "fusion_lon": 0.0, "bike_id": "82002c2edc5711251452d4e69885bf0a", "is_disabled": 0, "is_reserved": 0}, {"rental_uris": {"ios": "https://dc.lft.to/lastmile_qr_scan", "android": "https://dc.lft.to/lastmile_qr_scan"}, "lon": -77.00609616666667, "type": "electric_scooter", "fusion_lat": 0.0, "lat": 38.90245616666667, "name": "88ff78e146c2c11d17e5a5f05769af7d", "fusion_lon": 0.0, "bike_id": "88ff78e146c2c11d17e5a5f05769af7d", "is_disabled": 0, "is_reserved": 0}, {"rental_uris": {"ios": "https://dc.lft.to/lastmile_qr_scan", "android": "https://dc.lft.to/lastmile_qr_scan"}, "lon": -76.98966733333333, "type": "electric_scooter", "fusion_lat": 0.0, "lat": 38.90242716666667, "name": "140045d2b15f210b2e3e231f539bf8ad", "fusion_lon": 0.0, "bike_id": "140045d2b15f210b2e3e231f539bf8ad", "is_disabled": 0, "is_reserved": 0}, {"rental_uris": {"ios": "https://dc.lft.to/lastmile_qr_scan", "android": "https://dc.lft.to/lastmile_qr_scan"}, "lon": -77.0271125, "type": "electric_scooter", "fusion_lat": 0.0, "lat": 38.94998983333333, "name": "ba2e792ee83eb6597f86fbb2c55cca55", "fusion_lon": 0.0, "bike_id": "ba2e792ee83eb6597f86fbb2c55cca55", "is_disabled": 0, "is_reserved": 0}, {"rental_uris": {"ios": "https://dc.lft.to/lastmile_qr_scan", "android": "https://dc.lft.to/lastmile_qr_scan"}, "lon": -77.03956783333334, "type": "electric_scooter", "fusion_lat": 0.0, "lat": 38.89248516666667, "name": "35da624d72ab6526252ed32ade308edb", "fusion_lon": 0.0, "bike_id": "35da624d72ab6526252ed32ade308edb", "is_disabled": 0, "is_reserved": 0}, {"rental_uris": {"ios": "https://dc.lft.to/lastmile_qr_scan", "android": "https://dc.lft.to/lastmile_qr_scan"}, "lon": -77.0312925, "type": "electric_scooter", "fusion_lat": 0.0, "lat": 38.90659483333334, "name": "293ff2c1cd0129ee3d2c991bf060a47a", "fusion_lon": 0.0, "bike_id": "293ff2c1cd0129ee3d2c991bf060a47a", "is_disabled": 0, "is_reserved": 0}, {"rental_uris": {"ios": "https://dc.lft.to/lastmile_qr_scan", "android": "https://dc.lft.to/lastmile_qr_scan"}, "lon": -76.94636633333333, "type": "electric_scooter", "fusion_lat": 0.0, "lat": 38.898311, "name": "2131d2386696fa9936dd7c46e997f9a6", "fusion_lon": 0.0, "bike_id": "2131d2386696fa9936dd7c46e997f9a6", "is_disabled": 0, "is_reserved": 0}, {"rental_uris": {"ios": "https://dc.lft.to/lastmile_qr_scan", "android": "https://dc.lft.to/lastmile_qr_scan"}, "lon": -77.03916166666667, "type": "electric_scooter", "fusion_lat": 0.0, "lat": 38.91845766666667, "name": "1e9712166d4ea519ffb4fbe91b09d5a3", "fusion_lon": 0.0, "bike_id": "1e9712166d4ea519ffb4fbe91b09d5a3", "is_disabled": 0, "is_reserved": 0}, {"rental_uris": {"ios": "https://dc.lft.to/lastmile_qr_scan", "android": "https://dc.lft.to/lastmile_qr_scan"}, "lon": -77.00029833333333, "type": "electric_scooter", "fusion_lat": 0.0, "lat": 38.9084695, "name": "96cff4324587700f022e38cff0e80e43", "fusion_lon": 0.0, "bike_id": "96cff4324587700f022e38cff0e80e43", "is_disabled": 0, "is_reserved": 0}, {"rental_uris": {"ios": "https://dc.lft.to/lastmile_qr_scan", "android": "https://dc.lft.to/lastmile_qr_scan"}, "lon": -77.0138845, "type": "electric_scooter", "fusion_lat": 0.0, "lat": 38.928661166666664, "name": "5ae9f5c8bb34d220be0ac9887f2b6ee8", "fusion_lon": 0.0, "bike_id": "5ae9f5c8bb34d220be0ac9887f2b6ee8", "is_disabled": 0, "is_reserved": 0}, {"rental_uris": {"ios": "https://dc.lft.to/lastmile_qr_scan", "android": "https://dc.lft.to/lastmile_qr_scan"}, "lon": -77.114243, "type": "electric_bike", "fusion_lat": 0.0, "lat": 38.8429805, "name": "e6a3f5bf7acb1c2d010f811c5f4efb1a", "fusion_lon": 0.0, "bike_id": "e6a3f5bf7acb1c2d010f811c5f4efb1a", "is_disabled": 0, "is_reserved": 0}, {"rental_uris": {"ios": "https://dc.lft.to/lastmile_qr_scan", "android": "https://dc.lft.to/lastmile_qr_scan"}, "lon": -77.0144125, "type": "electric_scooter", "fusion_lat": 0.0, "lat": 38.919604666666665, "name": "ef6806424227174b325a46f4332e3f4f", "fusion_lon": 0.0, "bike_id": "ef6806424227174b325a46f4332e3f4f", "is_disabled": 0, "is_reserved": 0}, {"rental_uris": {"ios": "https://dc.lft.to/lastmile_qr_scan", "android": "https://dc.lft.to/lastmile_qr_scan"}, "lon": -77.01246083333334, "type": "electric_scooter", "fusion_lat": 0.0, "lat": 38.91268216666667, "name": "48082cf7b469e895328cac26afd45d43", "fusion_lon": 0.0, "bike_id": "48082cf7b469e895328cac26afd45d43", "is_disabled": 0, "is_reserved": 0}, {"rental_uris": {"ios": "https://dc.lft.to/lastmile_qr_scan", "android": "https://dc.lft.to/lastmile_qr_scan"}, "lon": -77.02569933333334, "type": "electric_scooter", "fusion_lat": 0.0, "lat": 38.890449, "name": "d4408b75fb9b7a15bf8d3f246ee15006", "fusion_lon": 0.0, "bike_id": "d4408b75fb9b7a15bf8d3f246ee15006", "is_disabled": 0, "is_reserved": 0}, {"rental_uris": {"ios": "https://dc.lft.to/lastmile_qr_scan", "android": "https://dc.lft.to/lastmile_qr_scan"}, "lon": -77.0298435, "type": "electric_scooter", "fusion_lat": 0.0, "lat": 38.89563283333333, "name": "547285a7fbb28b47192e1325191bb8f7", "fusion_lon": 0.0, "bike_id": "547285a7fbb28b47192e1325191bb8f7", "is_disabled": 0, "is_reserved": 0}, {"rental_uris": {"ios": "https://dc.lft.to/lastmile_qr_scan", "android": "https://dc.lft.to/lastmile_qr_scan"}, "lon": -77.02709066666667, "type": "electric_scooter", "fusion_lat": 0.0, "lat": 38.88161316666667, "name": "bb61d479da811595b03dbbc44dd8434e", "fusion_lon": 0.0, "bike_id": "bb61d479da811595b03dbbc44dd8434e", "is_disabled": 0, "is_reserved": 0}, {"rental_uris": {"ios": "https://dc.lft.to/lastmile_qr_scan", "android": "https://dc.lft.to/lastmile_qr_scan"}, "lon": -76.9725945, "type": "electric_bike", "fusion_lat": 0.0, "lat": 38.91918016666666, "name": "50ddecfd46f7e3114748d3be535754db", "fusion_lon": 0.0, "bike_id": "50ddecfd46f7e3114748d3be535754db", "is_disabled": 0, "is_reserved": 0}, {"rental_uris": {"ios": "https://dc.lft.to/lastmile_qr_scan", "android": "https://dc.lft.to/lastmile_qr_scan"}, "lon": -76.93616316666666, "type": "electric_bike", "fusion_lat": 0.0, "lat": 38.9707835, "name": "19c3d2f51c32d4121733d7035bcf8162", "fusion_lon": 0.0, "bike_id": "19c3d2f51c32d4121733d7035bcf8162", "is_disabled": 0, "is_reserved": 0}, {"rental_uris": {"ios": "https://dc.lft.to/lastmile_qr_scan", "android": "https://dc.lft.to/lastmile_qr_scan"}, "lon": -77.007857, "type": "electric_scooter", "fusion_lat": 0.0, "lat": 38.870911166666666, "name": "d200efc352f7198877fbaf901c4945fe", "fusion_lon": 0.0, "bike_id": "d200efc352f7198877fbaf901c4945fe", "is_disabled": 0, "is_reserved": 0}, {"rental_uris": {"ios": "https://dc.lft.to/lastmile_qr_scan", "android": "https://dc.lft.to/lastmile_qr_scan"}, "lon": -77.07904133333334, "type": "electric_bike", "fusion_lat": 0.0, "lat": 38.8393315, "name": "2810d4e5b2168075573cc50b6e35b72f", "fusion_lon": 0.0, "bike_id": "2810d4e5b2168075573cc50b6e35b72f", "is_disabled": 0, "is_reserved": 0}, {"rental_uris": {"ios": "https://dc.lft.to/lastmile_qr_scan", "android": "https://dc.lft.to/lastmile_qr_scan"}, "lon": -77.02347633333333, "type": "electric_scooter", "fusion_lat": 0.0, "lat": 38.93385383333333, "name": "e739872beb933a266c79cebdab5ce2d2", "fusion_lon": 0.0, "bike_id": "e739872beb933a266c79cebdab5ce2d2", "is_disabled": 0, "is_reserved": 0}, {"rental_uris": {"ios": "https://dc.lft.to/lastmile_qr_scan", "android": "https://dc.lft.to/lastmile_qr_scan"}, "lon": -77.038663, "type": "electric_scooter", "fusion_lat": 0.0, "lat": 38.91555816666666, "name": "4d3c3ccdc5c5f944f43e81064f458211", "fusion_lon": 0.0, "bike_id": "4d3c3ccdc5c5f944f43e81064f458211", "is_disabled": 0, "is_reserved": 0}, {"rental_uris": {"ios": "https://dc.lft.to/lastmile_qr_scan", "android": "https://dc.lft.to/lastmile_qr_scan"}, "lon": -77.03686033333334, "type": "electric_scooter", "fusion_lat": 0.0, "lat": 38.92263716666667, "name": "d093a49e4ecd7fd479d53812a93b53df", "fusion_lon": 0.0, "bike_id": "d093a49e4ecd7fd479d53812a93b53df", "is_disabled": 0, "is_reserved": 0}, {"rental_uris": {"ios": "https://dc.lft.to/lastmile_qr_scan", "android": "https://dc.lft.to/lastmile_qr_scan"}, "lon": -76.99933466666667, "type": "electric_scooter", "fusion_lat": 0.0, "lat": 38.896159, "name": "bc0e3c8854718f851ce8cab54546bff5", "fusion_lon": 0.0, "bike_id": "bc0e3c8854718f851ce8cab54546bff5", "is_disabled": 0, "is_reserved": 0}, {"rental_uris": {"ios": "https://dc.lft.to/lastmile_qr_scan", "android": "https://dc.lft.to/lastmile_qr_scan"}, "lon": -77.03821916666666, "type": "electric_scooter", "fusion_lat": 0.0, "lat": 38.907794, "name": "1da79647750e67cedf50eacc3bae4404", "fusion_lon": 0.0, "bike_id": "1da79647750e67cedf50eacc3bae4404", "is_disabled": 0, "is_reserved": 0}, {"rental_uris": {"ios": "https://dc.lft.to/lastmile_qr_scan", "android": "https://dc.lft.to/lastmile_qr_scan"}, "lon": -77.02375183333334, "type": "electric_scooter", "fusion_lat": 0.0, "lat": 38.91913566666667, "name": "0e7ec039d4aadde77b032287cd628cfc", "fusion_lon": 0.0, "bike_id": "0e7ec039d4aadde77b032287cd628cfc", "is_disabled": 0, "is_reserved": 0}, {"rental_uris": {"ios": "https://dc.lft.to/lastmile_qr_scan", "android": "https://dc.lft.to/lastmile_qr_scan"}, "lon": -77.04555683333334, "type": "electric_scooter", "fusion_lat": 0.0, "lat": 38.91792266666667, "name": "be25b168f4d85f824f3a29555b38cd4c", "fusion_lon": 0.0, "bike_id": "be25b168f4d85f824f3a29555b38cd4c", "is_disabled": 0, "is_reserved": 0}, {"rental_uris": {"ios": "https://dc.lft.to/lastmile_qr_scan", "android": "https://dc.lft.to/lastmile_qr_scan"}, "lon": -77.01700266666667, "type": "electric_scooter", "fusion_lat": 0.0, "lat": 38.920373833333336, "name": "959a5c248127d12d608e4ebdf34ac954", "fusion_lon": 0.0, "bike_id": "959a5c248127d12d608e4ebdf34ac954", "is_disabled": 0, "is_reserved": 0}, {"rental_uris": {"ios": "https://dc.lft.to/lastmile_qr_scan", "android": "https://dc.lft.to/lastmile_qr_scan"}, "lon": -77.03189533333334, "type": "electric_scooter", "fusion_lat": 0.0, "lat": 38.91758183333334, "name": "981ea5c53d2993dc03e757ca2323ae4f", "fusion_lon": 0.0, "bike_id": "981ea5c53d2993dc03e757ca2323ae4f", "is_disabled": 0, "is_reserved": 0}, {"rental_uris": {"ios": "https://dc.lft.to/lastmile_qr_scan", "android": "https://dc.lft.to/lastmile_qr_scan"}, "lon": -77.0427415, "type": "electric_scooter", "fusion_lat": 0.0, "lat": 38.9103425, "name": "580043e14a2bcf652590a4674a6a93c6", "fusion_lon": 0.0, "bike_id": "580043e14a2bcf652590a4674a6a93c6", "is_disabled": 0, "is_reserved": 0}, {"rental_uris": {"ios": "https://dc.lft.to/lastmile_qr_scan", "android": "https://dc.lft.to/lastmile_qr_scan"}, "lon": -77.0222535, "type": "electric_scooter", "fusion_lat": 0.0, "lat": 38.89358583333333, "name": "928d369c209eac71edeb953d03ebfd4f", "fusion_lon": 0.0, "bike_id": "928d369c209eac71edeb953d03ebfd4f", "is_disabled": 0, "is_reserved": 0}, {"rental_uris": {"ios": "https://dc.lft.to/lastmile_qr_scan", "android": "https://dc.lft.to/lastmile_qr_scan"}, "lon": -77.0283455, "type": "electric_scooter", "fusion_lat": 0.0, "lat": 38.887684666666665, "name": "211e8e615a71fa0b00bb8102faf49ca7", "fusion_lon": 0.0, "bike_id": "211e8e615a71fa0b00bb8102faf49ca7", "is_disabled": 0, "is_reserved": 0}, {"rental_uris": {"ios": "https://dc.lft.to/lastmile_qr_scan", "android": "https://dc.lft.to/lastmile_qr_scan"}, "lon": -77.01343316666667, "type": "electric_scooter", "fusion_lat": 0.0, "lat": 38.900501, "name": "da0d83b4fbb57312c5eadf9e5c32b063", "fusion_lon": 0.0, "bike_id": "da0d83b4fbb57312c5eadf9e5c32b063", "is_disabled": 0, "is_reserved": 0}, {"rental_uris": {"ios": "https://dc.lft.to/lastmile_qr_scan", "android": "https://dc.lft.to/lastmile_qr_scan"}, "lon": -77.038405, "type": "electric_scooter", "fusion_lat": 0.0, "lat": 38.910882666666666, "name": "950f232b8be53d2e7bfe8e76e721c900", "fusion_lon": 0.0, "bike_id": "950f232b8be53d2e7bfe8e76e721c900", "is_disabled": 0, "is_reserved": 0}, {"rental_uris": {"ios": "https://dc.lft.to/lastmile_qr_scan", "android": "https://dc.lft.to/lastmile_qr_scan"}, "lon": -77.041773, "type": "electric_scooter", "fusion_lat": 0.0, "lat": 38.902752666666665, "name": "73a13baa41652c32b925a27c0ae3384b", "fusion_lon": 0.0, "bike_id": "73a13baa41652c32b925a27c0ae3384b", "is_disabled": 0, "is_reserved": 0}, {"rental_uris": {"ios": "https://dc.lft.to/lastmile_qr_scan", "android": "https://dc.lft.to/lastmile_qr_scan"}, "lon": -77.14982716666667, "type": "electric_bike", "fusion_lat": 0.0, "lat": 39.0946015, "name": "1a4ad41331fa6bbd702a0280e534dbe1", "fusion_lon": 0.0, "bike_id": "1a4ad41331fa6bbd702a0280e534dbe1", "is_disabled": 0, "is_reserved": 0}, {"rental_uris": {"ios": "https://dc.lft.to/lastmile_qr_scan", "android": "https://dc.lft.to/lastmile_qr_scan"}, "lon": -77.05055933333334, "type": "electric_scooter", "fusion_lat": 0.0, "lat": 38.905406, "name": "c64194494887be9630643c697f731d9d", "fusion_lon": 0.0, "bike_id": "c64194494887be9630643c697f731d9d", "is_disabled": 0, "is_reserved": 0}, {"rental_uris": {"ios": "https://dc.lft.to/lastmile_qr_scan", "android": "https://dc.lft.to/lastmile_qr_scan"}, "lon": -77.035677, "type": "electric_scooter", "fusion_lat": 0.0, "lat": 38.91628633333333, "name": "de55a77bc4f73ff22c51ca8d6e717888", "fusion_lon": 0.0, "bike_id": "de55a77bc4f73ff22c51ca8d6e717888", "is_disabled": 0, "is_reserved": 0}, {"rental_uris": {"ios": "https://dc.lft.to/lastmile_qr_scan", "android": "https://dc.lft.to/lastmile_qr_scan"}, "lon": -77.19908083333333, "type": "electric_bike", "fusion_lat": 0.0, "lat": 38.875322833333335, "name": "98ca4569520594ac8d1926af2d4a97b0", "fusion_lon": 0.0, "bike_id": "98ca4569520594ac8d1926af2d4a97b0", "is_disabled": 0, "is_reserved": 0}, {"rental_uris": {"ios": "https://dc.lft.to/lastmile_qr_scan", "android": "https://dc.lft.to/lastmile_qr_scan"}, "lon": -77.02946083333333, "type": "electric_scooter", "fusion_lat": 0.0, "lat": 38.90379683333333, "name": "03cb79d37a86549ebfb15ad20033ae4f", "fusion_lon": 0.0, "bike_id": "03cb79d37a86549ebfb15ad20033ae4f", "is_disabled": 0, "is_reserved": 0}, {"rental_uris": {"ios": "https://dc.lft.to/lastmile_qr_scan", "android": "https://dc.lft.to/lastmile_qr_scan"}, "lon": -77.02478433333333, "type": "electric_scooter", "fusion_lat": 0.0, "lat": 38.933516166666664, "name": "aed02e94b980dff05599cb7156dfa197", "fusion_lon": 0.0, "bike_id": "aed02e94b980dff05599cb7156dfa197", "is_disabled": 0, "is_reserved": 0}, {"rental_uris": {"ios": "https://dc.lft.to/lastmile_qr_scan", "android": "https://dc.lft.to/lastmile_qr_scan"}, "lon": -77.00651266666667, "type": "electric_scooter", "fusion_lat": 0.0, "lat": 38.9086475, "name": "c912df186d953bc38730902efe40b29c", "fusion_lon": 0.0, "bike_id": "c912df186d953bc38730902efe40b29c", "is_disabled": 0, "is_reserved": 0}, {"rental_uris": {"ios": "https://dc.lft.to/lastmile_qr_scan", "android": "https://dc.lft.to/lastmile_qr_scan"}, "lon": -76.97985266666667, "type": "electric_bike", "fusion_lat": 0.0, "lat": 38.877508, "name": "05fed68fb756c570db9a0dd5cb2bb2ed", "fusion_lon": 0.0, "bike_id": "05fed68fb756c570db9a0dd5cb2bb2ed", "is_disabled": 0, "is_reserved": 0}, {"rental_uris": {"ios": "https://dc.lft.to/lastmile_qr_scan", "android": "https://dc.lft.to/lastmile_qr_scan"}, "lon": -77.040824, "type": "electric_scooter", "fusion_lat": 0.0, "lat": 38.90745166666667, "name": "01e4f9508a80da9349ec2b6b5c8694d3", "fusion_lon": 0.0, "bike_id": "01e4f9508a80da9349ec2b6b5c8694d3", "is_disabled": 0, "is_reserved": 0}, {"rental_uris": {"ios": "https://dc.lft.to/lastmile_qr_scan", "android": "https://dc.lft.to/lastmile_qr_scan"}, "lon": -77.0395105, "type": "electric_scooter", "fusion_lat": 0.0, "lat": 38.89859083333333, "name": "63c44169a7de064eddd3b5779c9ae331", "fusion_lon": 0.0, "bike_id": "63c44169a7de064eddd3b5779c9ae331", "is_disabled": 0, "is_reserved": 0}, {"rental_uris": {"ios": "https://dc.lft.to/lastmile_qr_scan", "android": "https://dc.lft.to/lastmile_qr_scan"}, "lon": -77.01092433333334, "type": "electric_scooter", "fusion_lat": 0.0, "lat": 38.918199333333334, "name": "31d5ac51aba499a3c6a5dddbcdafa1cd", "fusion_lon": 0.0, "bike_id": "31d5ac51aba499a3c6a5dddbcdafa1cd", "is_disabled": 0, "is_reserved": 0}, {"rental_uris": {"ios": "https://dc.lft.to/lastmile_qr_scan", "android": "https://dc.lft.to/lastmile_qr_scan"}, "lon": -77.00199683333334, "type": "electric_bike", "fusion_lat": 0.0, "lat": 38.893443166666664, "name": "11357ff353fca0dc3ecb5c3991dca01c", "fusion_lon": 0.0, "bike_id": "11357ff353fca0dc3ecb5c3991dca01c", "is_disabled": 0, "is_reserved": 0}, {"rental_uris": {"ios": "https://dc.lft.to/lastmile_qr_scan", "android": "https://dc.lft.to/lastmile_qr_scan"}, "lon": -77.03294433333333, "type": "electric_scooter", "fusion_lat": 0.0, "lat": 38.92217933333333, "name": "422f414b1a7a0f7f082a25b8119246e6", "fusion_lon": 0.0, "bike_id": "422f414b1a7a0f7f082a25b8119246e6", "is_disabled": 0, "is_reserved": 0}, {"rental_uris": {"ios": "https://dc.lft.to/lastmile_qr_scan", "android": "https://dc.lft.to/lastmile_qr_scan"}, "lon": -77.0465635, "type": "electric_scooter", "fusion_lat": 0.0, "lat": 38.9055525, "name": "52cd015cf5e6f3fb880b0c1d16fb709d", "fusion_lon": 0.0, "bike_id": "52cd015cf5e6f3fb880b0c1d16fb709d", "is_disabled": 0, "is_reserved": 0}, {"rental_uris": {"ios": "https://dc.lft.to/lastmile_qr_scan", "android": "https://dc.lft.to/lastmile_qr_scan"}, "lon": -77.0209795, "type": "electric_scooter", "fusion_lat": 0.0, "lat": 38.910099833333334, "name": "d0041c724ce79258d1f78c993211b0f8", "fusion_lon": 0.0, "bike_id": "d0041c724ce79258d1f78c993211b0f8", "is_disabled": 0, "is_reserved": 0}, {"rental_uris": {"ios": "https://dc.lft.to/lastmile_qr_scan", "android": "https://dc.lft.to/lastmile_qr_scan"}, "lon": -77.0299945, "type": "electric_scooter", "fusion_lat": 0.0, "lat": 38.924767, "name": "e931eaca9701cec349ffac5cc3c9b2e9", "fusion_lon": 0.0, "bike_id": "e931eaca9701cec349ffac5cc3c9b2e9", "is_disabled": 0, "is_reserved": 0}, {"rental_uris": {"ios": "https://dc.lft.to/lastmile_qr_scan", "android": "https://dc.lft.to/lastmile_qr_scan"}, "lon": -77.0464185, "type": "electric_scooter", "fusion_lat": 0.0, "lat": 38.89222433333333, "name": "9321497bdb4103799c396947097b343e", "fusion_lon": 0.0, "bike_id": "9321497bdb4103799c396947097b343e", "is_disabled": 0, "is_reserved": 0}, {"rental_uris": {"ios": "https://dc.lft.to/lastmile_qr_scan", "android": "https://dc.lft.to/lastmile_qr_scan"}, "lon": -77.03496566666666, "type": "electric_scooter", "fusion_lat": 0.0, "lat": 38.928854666666666, "name": "d9b64d3b018a8abb4f27b5155ae4ddd4", "fusion_lon": 0.0, "bike_id": "d9b64d3b018a8abb4f27b5155ae4ddd4", "is_disabled": 0, "is_reserved": 0}, {"rental_uris": {"ios": "https://dc.lft.to/lastmile_qr_scan", "android": "https://dc.lft.to/lastmile_qr_scan"}, "lon": -77.36089333333334, "type": "electric_bike", "fusion_lat": 0.0, "lat": 38.939683, "name": "10d1670fa3bc248b56f4d2d2db3761e5", "fusion_lon": 0.0, "bike_id": "10d1670fa3bc248b56f4d2d2db3761e5", "is_disabled": 0, "is_reserved": 0}, {"rental_uris": {"ios": "https://dc.lft.to/lastmile_qr_scan", "android": "https://dc.lft.to/lastmile_qr_scan"}, "lon": -77.0317455, "type": "electric_scooter", "fusion_lat": 0.0, "lat": 38.91556083333333, "name": "1975d300920ba1a5f2ee7f471096e501", "fusion_lon": 0.0, "bike_id": "1975d300920ba1a5f2ee7f471096e501", "is_disabled": 0, "is_reserved": 0}, {"rental_uris": {"ios": "https://dc.lft.to/lastmile_qr_scan", "android": "https://dc.lft.to/lastmile_qr_scan"}, "lon": -77.03310983333333, "type": "electric_scooter", "fusion_lat": 0.0, "lat": 38.90048683333333, "name": "97acee18485ed4f7d4f537c7393031fd", "fusion_lon": 0.0, "bike_id": "97acee18485ed4f7d4f537c7393031fd", "is_disabled": 0, "is_reserved": 0}, {"rental_uris": {"ios": "https://dc.lft.to/lastmile_qr_scan", "android": "https://dc.lft.to/lastmile_qr_scan"}, "lon": -77.008297, "type": "electric_bike", "fusion_lat": 0.0, "lat": 38.98775333333333, "name": "1e470fbc3cf98457ce8267856f675544", "fusion_lon": 0.0, "bike_id": "1e470fbc3cf98457ce8267856f675544", "is_disabled": 0, "is_reserved": 0}, {"rental_uris": {"ios": "https://dc.lft.to/lastmile_qr_scan", "android": "https://dc.lft.to/lastmile_qr_scan"}, "lon": -77.04644783333333, "type": "electric_bike", "fusion_lat": 0.0, "lat": 38.8521085, "name": "034dc2f42bae1a502a1528f73c0dbc7e", "fusion_lon": 0.0, "bike_id": "034dc2f42bae1a502a1528f73c0dbc7e", "is_disabled": 0, "is_reserved": 0}, {"rental_uris": {"ios": "https://dc.lft.to/lastmile_qr_scan", "android": "https://dc.lft.to/lastmile_qr_scan"}, "lon": -76.99845416666666, "type": "electric_scooter", "fusion_lat": 0.0, "lat": 38.900036, "name": "e616eab8b91a0e6f9535cb0a105c7d9b", "fusion_lon": 0.0, "bike_id": "e616eab8b91a0e6f9535cb0a105c7d9b", "is_disabled": 0, "is_reserved": 0}, {"rental_uris": {"ios": "https://dc.lft.to/lastmile_qr_scan", "android": "https://dc.lft.to/lastmile_qr_scan"}, "lon": -76.94732566666667, "type": "electric_scooter", "fusion_lat": 0.0, "lat": 38.896821833333334, "name": "c804a4e603b38eb87662daea8aa32bb3", "fusion_lon": 0.0, "bike_id": "c804a4e603b38eb87662daea8aa32bb3", "is_disabled": 0, "is_reserved": 0}, {"rental_uris": {"ios": "https://dc.lft.to/lastmile_qr_scan", "android": "https://dc.lft.to/lastmile_qr_scan"}, "lon": -77.0416305, "type": "electric_scooter", "fusion_lat": 0.0, "lat": 38.90561833333334, "name": "cf01c3c68af398eb9d7948c6e397d244", "fusion_lon": 0.0, "bike_id": "cf01c3c68af398eb9d7948c6e397d244", "is_disabled": 0, "is_reserved": 0}, {"rental_uris": {"ios": "https://dc.lft.to/lastmile_qr_scan", "android": "https://dc.lft.to/lastmile_qr_scan"}, "lon": -77.04187633333333, "type": "electric_scooter", "fusion_lat": 0.0, "lat": 38.926247833333335, "name": "16453a665cc786ce0c234ebb1e5512d3", "fusion_lon": 0.0, "bike_id": "16453a665cc786ce0c234ebb1e5512d3", "is_disabled": 0, "is_reserved": 0}, {"rental_uris": {"ios": "https://dc.lft.to/lastmile_qr_scan", "android": "https://dc.lft.to/lastmile_qr_scan"}, "lon": -77.01836916666667, "type": "electric_scooter", "fusion_lat": 0.0, "lat": 38.91971783333334, "name": "1813abfce319a5f8ae5671c1971d5a2b", "fusion_lon": 0.0, "bike_id": "1813abfce319a5f8ae5671c1971d5a2b", "is_disabled": 0, "is_reserved": 0}, {"rental_uris": {"ios": "https://dc.lft.to/lastmile_qr_scan", "android": "https://dc.lft.to/lastmile_qr_scan"}, "lon": -77.04154816666667, "type": "electric_scooter", "fusion_lat": 0.0, "lat": 38.919196666666664, "name": "564367000ae84b2dffe87022eafcfac7", "fusion_lon": 0.0, "bike_id": "564367000ae84b2dffe87022eafcfac7", "is_disabled": 0, "is_reserved": 0}, {"rental_uris": {"ios": "https://dc.lft.to/lastmile_qr_scan", "android": "https://dc.lft.to/lastmile_qr_scan"}, "lon": -77.02731816666666, "type": "electric_scooter", "fusion_lat": 0.0, "lat": 38.924866, "name": "ee83644404795d3333905d8c8edeb61e", "fusion_lon": 0.0, "bike_id": "ee83644404795d3333905d8c8edeb61e", "is_disabled": 0, "is_reserved": 0}, {"rental_uris": {"ios": "https://dc.lft.to/lastmile_qr_scan", "android": "https://dc.lft.to/lastmile_qr_scan"}, "lon": -77.02730266666667, "type": "electric_scooter", "fusion_lat": 0.0, "lat": 38.9248295, "name": "b12d369591c525069e4b7d2aecab96f4", "fusion_lon": 0.0, "bike_id": "b12d369591c525069e4b7d2aecab96f4", "is_disabled": 0, "is_reserved": 0}, {"rental_uris": {"ios": "https://dc.lft.to/lastmile_qr_scan", "android": "https://dc.lft.to/lastmile_qr_scan"}, "lon": -77.04382916666667, "type": "electric_scooter", "fusion_lat": 0.0, "lat": 38.917859166666666, "name": "3a9adfccf889bbb9336ce35f6a4331b6", "fusion_lon": 0.0, "bike_id": "3a9adfccf889bbb9336ce35f6a4331b6", "is_disabled": 0, "is_reserved": 0}, {"rental_uris": {"ios": "https://dc.lft.to/lastmile_qr_scan", "android": "https://dc.lft.to/lastmile_qr_scan"}, "lon": -77.01387283333334, "type": "electric_scooter", "fusion_lat": 0.0, "lat": 38.92854033333333, "name": "06afbc18e9d764d25833ef6ebac3b31a", "fusion_lon": 0.0, "bike_id": "06afbc18e9d764d25833ef6ebac3b31a", "is_disabled": 0, "is_reserved": 0}, {"rental_uris": {"ios": "https://dc.lft.to/lastmile_qr_scan", "android": "https://dc.lft.to/lastmile_qr_scan"}, "lon": -76.9655205, "type": "electric_bike", "fusion_lat": 0.0, "lat": 38.951001, "name": "5bddbbae49342f96cb94bc0db514aa9f", "fusion_lon": 0.0, "bike_id": "5bddbbae49342f96cb94bc0db514aa9f", "is_disabled": 0, "is_reserved": 0}, {"rental_uris": {"ios": "https://dc.lft.to/lastmile_qr_scan", "android": "https://dc.lft.to/lastmile_qr_scan"}, "lon": -76.99498366666667, "type": "electric_scooter", "fusion_lat": 0.0, "lat": 38.8818525, "name": "4605058d6597e15d78f4c801919d798e", "fusion_lon": 0.0, "bike_id": "4605058d6597e15d78f4c801919d798e", "is_disabled": 0, "is_reserved": 0}, {"rental_uris": {"ios": "https://dc.lft.to/lastmile_qr_scan", "android": "https://dc.lft.to/lastmile_qr_scan"}, "lon": -77.0296965, "type": "electric_scooter", "fusion_lat": 0.0, "lat": 38.904883, "name": "51fe5be1e664d1930a6bd5189a00d33b", "fusion_lon": 0.0, "bike_id": "51fe5be1e664d1930a6bd5189a00d33b", "is_disabled": 0, "is_reserved": 0}, {"rental_uris": {"ios": "https://dc.lft.to/lastmile_qr_scan", "android": "https://dc.lft.to/lastmile_qr_scan"}, "lon": -77.02223233333333, "type": "electric_scooter", "fusion_lat": 0.0, "lat": 38.897785, "name": "5dac6d82baf2cc8df47d82f86d7db0d2", "fusion_lon": 0.0, "bike_id": "5dac6d82baf2cc8df47d82f86d7db0d2", "is_disabled": 0, "is_reserved": 0}, {"rental_uris": {"ios": "https://dc.lft.to/lastmile_qr_scan", "android": "https://dc.lft.to/lastmile_qr_scan"}, "lon": -77.05146316666666, "type": "electric_scooter", "fusion_lat": 0.0, "lat": 38.897757, "name": "2f5482895a181841f0aecdf77a8ce66a", "fusion_lon": 0.0, "bike_id": "2f5482895a181841f0aecdf77a8ce66a", "is_disabled": 0, "is_reserved": 0}, {"rental_uris": {"ios": "https://dc.lft.to/lastmile_qr_scan", "android": "https://dc.lft.to/lastmile_qr_scan"}, "lon": -76.99489616666666, "type": "electric_scooter", "fusion_lat": 0.0, "lat": 38.93204683333333, "name": "ea94987f983aefe0c6388aa436a5a0e0", "fusion_lon": 0.0, "bike_id": "ea94987f983aefe0c6388aa436a5a0e0", "is_disabled": 0, "is_reserved": 0}, {"rental_uris": {"ios": "https://dc.lft.to/lastmile_qr_scan", "android": "https://dc.lft.to/lastmile_qr_scan"}, "lon": -77.02217383333333, "type": "electric_scooter", "fusion_lat": 0.0, "lat": 38.90576333333333, "name": "4d441f931713b1e4e6c67d3a69cfc36d", "fusion_lon": 0.0, "bike_id": "4d441f931713b1e4e6c67d3a69cfc36d", "is_disabled": 0, "is_reserved": 0}, {"rental_uris": {"ios": "https://dc.lft.to/lastmile_qr_scan", "android": "https://dc.lft.to/lastmile_qr_scan"}, "lon": -77.0500215, "type": "electric_scooter", "fusion_lat": 0.0, "lat": 38.8922795, "name": "fef7435c1b0cf2f6a97fca0aa474cf30", "fusion_lon": 0.0, "bike_id": "fef7435c1b0cf2f6a97fca0aa474cf30", "is_disabled": 0, "is_reserved": 0}, {"rental_uris": {"ios": "https://dc.lft.to/lastmile_qr_scan", "android": "https://dc.lft.to/lastmile_qr_scan"}, "lon": -77.0445245, "type": "electric_scooter", "fusion_lat": 0.0, "lat": 38.90866283333333, "name": "f07e5610de5c247b5b4cebc6f6471ee9", "fusion_lon": 0.0, "bike_id": "f07e5610de5c247b5b4cebc6f6471ee9", "is_disabled": 0, "is_reserved": 0}, {"rental_uris": {"ios": "https://dc.lft.to/lastmile_qr_scan", "android": "https://dc.lft.to/lastmile_qr_scan"}, "lon": -77.03164416666667, "type": "electric_scooter", "fusion_lat": 0.0, "lat": 38.920201666666664, "name": "f491dc21cd2978dcfd040e518d213b96", "fusion_lon": 0.0, "bike_id": "f491dc21cd2978dcfd040e518d213b96", "is_disabled": 0, "is_reserved": 0}, {"rental_uris": {"ios": "https://dc.lft.to/lastmile_qr_scan", "android": "https://dc.lft.to/lastmile_qr_scan"}, "lon": -77.03016433333333, "type": "electric_scooter", "fusion_lat": 0.0, "lat": 38.89751916666667, "name": "40f1dcc45697d673cb14370eb963e547", "fusion_lon": 0.0, "bike_id": "40f1dcc45697d673cb14370eb963e547", "is_disabled": 0, "is_reserved": 0}, {"rental_uris": {"ios": "https://dc.lft.to/lastmile_qr_scan", "android": "https://dc.lft.to/lastmile_qr_scan"}, "lon": -77.026516, "type": "electric_scooter", "fusion_lat": 0.0, "lat": 38.892218, "name": "5cba0d26f711150cd709be7dbdb04b94", "fusion_lon": 0.0, "bike_id": "5cba0d26f711150cd709be7dbdb04b94", "is_disabled": 0, "is_reserved": 0}, {"rental_uris": {"ios": "https://dc.lft.to/lastmile_qr_scan", "android": "https://dc.lft.to/lastmile_qr_scan"}, "lon": -76.938262, "type": "electric_scooter", "fusion_lat": 0.0, "lat": 38.897644666666665, "name": "9de7fc17fc6c78e89abb59c6fed1d1ff", "fusion_lon": 0.0, "bike_id": "9de7fc17fc6c78e89abb59c6fed1d1ff", "is_disabled": 0, "is_reserved": 0}, {"rental_uris": {"ios": "https://dc.lft.to/lastmile_qr_scan", "android": "https://dc.lft.to/lastmile_qr_scan"}, "lon": -77.00117083333333, "type": "electric_scooter", "fusion_lat": 0.0, "lat": 38.894338833333336, "name": "ef1368e97bed618788a1f432ab71a9dd", "fusion_lon": 0.0, "bike_id": "ef1368e97bed618788a1f432ab71a9dd", "is_disabled": 0, "is_reserved": 0}, {"rental_uris": {"ios": "https://dc.lft.to/lastmile_qr_scan", "android": "https://dc.lft.to/lastmile_qr_scan"}, "lon": -77.03148416666667, "type": "electric_scooter", "fusion_lat": 0.0, "lat": 38.89222516666667, "name": "321fa7b4e75adfcd1af3415e99352d92", "fusion_lon": 0.0, "bike_id": "321fa7b4e75adfcd1af3415e99352d92", "is_disabled": 0, "is_reserved": 0}, {"rental_uris": {"ios": "https://dc.lft.to/lastmile_qr_scan", "android": "https://dc.lft.to/lastmile_qr_scan"}, "lon": -77.03429, "type": "electric_scooter", "fusion_lat": 0.0, "lat": 38.9191525, "name": "4c61a1c335c8d119cdbde5d350b03b91", "fusion_lon": 0.0, "bike_id": "4c61a1c335c8d119cdbde5d350b03b91", "is_disabled": 0, "is_reserved": 0}, {"rental_uris": {"ios": "https://dc.lft.to/lastmile_qr_scan", "android": "https://dc.lft.to/lastmile_qr_scan"}, "lon": -77.04195666666666, "type": "electric_scooter", "fusion_lat": 0.0, "lat": 38.92051, "name": "7ac47890cea41f84c84bd619dfa78d25", "fusion_lon": 0.0, "bike_id": "7ac47890cea41f84c84bd619dfa78d25", "is_disabled": 0, "is_reserved": 0}, {"rental_uris": {"ios": "https://dc.lft.to/lastmile_qr_scan", "android": "https://dc.lft.to/lastmile_qr_scan"}, "lon": -77.04432416666667, "type": "electric_scooter", "fusion_lat": 0.0, "lat": 38.921200166666665, "name": "4b009005beed32c57fd86be61cfbcdc0", "fusion_lon": 0.0, "bike_id": "4b009005beed32c57fd86be61cfbcdc0", "is_disabled": 0, "is_reserved": 0}, {"rental_uris": {"ios": "https://dc.lft.to/lastmile_qr_scan", "android": "https://dc.lft.to/lastmile_qr_scan"}, "lon": -77.034209, "type": "electric_scooter", "fusion_lat": 0.0, "lat": 38.91930133333334, "name": "9b5fd5f74abcd56704e3ad708f9f0240", "fusion_lon": 0.0, "bike_id": "9b5fd5f74abcd56704e3ad708f9f0240", "is_disabled": 0, "is_reserved": 0}, {"rental_uris": {"ios": "https://dc.lft.to/lastmile_qr_scan", "android": "https://dc.lft.to/lastmile_qr_scan"}, "lon": -77.03186216666667, "type": "electric_scooter", "fusion_lat": 0.0, "lat": 38.91917183333333, "name": "ba8176e4bb36c4042524803f8a190c50", "fusion_lon": 0.0, "bike_id": "ba8176e4bb36c4042524803f8a190c50", "is_disabled": 0, "is_reserved": 0}, {"rental_uris": {"ios": "https://dc.lft.to/lastmile_qr_scan", "android": "https://dc.lft.to/lastmile_qr_scan"}, "lon": -77.0298215, "type": "electric_scooter", "fusion_lat": 0.0, "lat": 38.907742166666665, "name": "9b461aad718f54644be0c33b203707e1", "fusion_lon": 0.0, "bike_id": "9b461aad718f54644be0c33b203707e1", "is_disabled": 0, "is_reserved": 0}, {"rental_uris": {"ios": "https://dc.lft.to/lastmile_qr_scan", "android": "https://dc.lft.to/lastmile_qr_scan"}, "lon": -76.938122, "type": "electric_scooter", "fusion_lat": 0.0, "lat": 38.913058, "name": "a5b9738ff9c3933c6c08a56f4a171faa", "fusion_lon": 0.0, "bike_id": "a5b9738ff9c3933c6c08a56f4a171faa", "is_disabled": 0, "is_reserved": 0}, {"rental_uris": {"ios": "https://dc.lft.to/lastmile_qr_scan", "android": "https://dc.lft.to/lastmile_qr_scan"}, "lon": -77.03168383333333, "type": "electric_scooter", "fusion_lat": 0.0, "lat": 38.896062666666666, "name": "209ce9b4842a0fe71e227016e098010f", "fusion_lon": 0.0, "bike_id": "209ce9b4842a0fe71e227016e098010f", "is_disabled": 0, "is_reserved": 0}, {"rental_uris": {"ios": "https://dc.lft.to/lastmile_qr_scan", "android": "https://dc.lft.to/lastmile_qr_scan"}, "lon": -77.0284065, "type": "electric_scooter", "fusion_lat": 0.0, "lat": 38.8876845, "name": "c98784865442c1f26a2f49192ba6a293", "fusion_lon": 0.0, "bike_id": "c98784865442c1f26a2f49192ba6a293", "is_disabled": 0, "is_reserved": 0}, {"rental_uris": {"ios": "https://dc.lft.to/lastmile_qr_scan", "android": "https://dc.lft.to/lastmile_qr_scan"}, "lon": -77.039672, "type": "electric_scooter", "fusion_lat": 0.0, "lat": 38.892237333333334, "name": "6bacd8c53ec941af21dd55bef4d7bb0d", "fusion_lon": 0.0, "bike_id": "6bacd8c53ec941af21dd55bef4d7bb0d", "is_disabled": 0, "is_reserved": 0}, {"rental_uris": {"ios": "https://dc.lft.to/lastmile_qr_scan", "android": "https://dc.lft.to/lastmile_qr_scan"}, "lon": -77.0616505, "type": "electric_scooter", "fusion_lat": 0.0, "lat": 38.94221433333333, "name": "879ae0aab9acd6518bf771fec5282a5f", "fusion_lon": 0.0, "bike_id": "879ae0aab9acd6518bf771fec5282a5f", "is_disabled": 0, "is_reserved": 0}, {"rental_uris": {"ios": "https://dc.lft.to/lastmile_qr_scan", "android": "https://dc.lft.to/lastmile_qr_scan"}, "lon": -77.02408716666666, "type": "electric_scooter", "fusion_lat": 0.0, "lat": 38.92199083333333, "name": "3c0161750ba17a7544fb421c68759928", "fusion_lon": 0.0, "bike_id": "3c0161750ba17a7544fb421c68759928", "is_disabled": 0, "is_reserved": 0}, {"rental_uris": {"ios": "https://dc.lft.to/lastmile_qr_scan", "android": "https://dc.lft.to/lastmile_qr_scan"}, "lon": -77.03243333333333, "type": "electric_scooter", "fusion_lat": 0.0, "lat": 38.9097805, "name": "a0085006b181ed54656c474aea98916b", "fusion_lon": 0.0, "bike_id": "a0085006b181ed54656c474aea98916b", "is_disabled": 0, "is_reserved": 0}, {"rental_uris": {"ios": "https://dc.lft.to/lastmile_qr_scan", "android": "https://dc.lft.to/lastmile_qr_scan"}, "lon": -76.987717, "type": "electric_scooter", "fusion_lat": 0.0, "lat": 38.9117135, "name": "bf79ae882145fed5a69a74a4b9579200", "fusion_lon": 0.0, "bike_id": "bf79ae882145fed5a69a74a4b9579200", "is_disabled": 0, "is_reserved": 0}, {"rental_uris": {"ios": "https://dc.lft.to/lastmile_qr_scan", "android": "https://dc.lft.to/lastmile_qr_scan"}, "lon": -76.97892016666667, "type": "electric_scooter", "fusion_lat": 0.0, "lat": 38.91677816666667, "name": "d24846cbec908163b723909765cb16a8", "fusion_lon": 0.0, "bike_id": "d24846cbec908163b723909765cb16a8", "is_disabled": 0, "is_reserved": 0}, {"rental_uris": {"ios": "https://dc.lft.to/lastmile_qr_scan", "android": "https://dc.lft.to/lastmile_qr_scan"}, "lon": -77.04929516666667, "type": "electric_scooter", "fusion_lat": 0.0, "lat": 38.89660716666667, "name": "188b87d1c85181771efa81c03f25c379", "fusion_lon": 0.0, "bike_id": "188b87d1c85181771efa81c03f25c379", "is_disabled": 0, "is_reserved": 0}, {"rental_uris": {"ios": "https://dc.lft.to/lastmile_qr_scan", "android": "https://dc.lft.to/lastmile_qr_scan"}, "lon": -77.12745166666667, "type": "electric_bike", "fusion_lat": 0.0, "lat": 38.88824733333333, "name": "3fb9da99d89f6e59ffe412d56b3e37fc", "fusion_lon": 0.0, "bike_id": "3fb9da99d89f6e59ffe412d56b3e37fc", "is_disabled": 0, "is_reserved": 0}, {"rental_uris": {"ios": "https://dc.lft.to/lastmile_qr_scan", "android": "https://dc.lft.to/lastmile_qr_scan"}, "lon": -77.03204116666667, "type": "electric_scooter", "fusion_lat": 0.0, "lat": 38.920065666666666, "name": "efd888d2dfd53aaf7daf18770d6f0010", "fusion_lon": 0.0, "bike_id": "efd888d2dfd53aaf7daf18770d6f0010", "is_disabled": 0, "is_reserved": 0}, {"rental_uris": {"ios": "https://dc.lft.to/lastmile_qr_scan", "android": "https://dc.lft.to/lastmile_qr_scan"}, "lon": -76.98707616666667, "type": "electric_bike", "fusion_lat": 0.0, "lat": 38.90153633333333, "name": "0487ac586b0dcf72cb4448ab708b0e91", "fusion_lon": 0.0, "bike_id": "0487ac586b0dcf72cb4448ab708b0e91", "is_disabled": 0, "is_reserved": 0}, {"rental_uris": {"ios": "https://dc.lft.to/lastmile_qr_scan", "android": "https://dc.lft.to/lastmile_qr_scan"}, "lon": -77.018729, "type": "electric_scooter", "fusion_lat": 0.0, "lat": 38.90262116666667, "name": "ceb824aa46e09ab42ac8c10e2cc25910", "fusion_lon": 0.0, "bike_id": "ceb824aa46e09ab42ac8c10e2cc25910", "is_disabled": 0, "is_reserved": 0}, {"rental_uris": {"ios": "https://dc.lft.to/lastmile_qr_scan", "android": "https://dc.lft.to/lastmile_qr_scan"}, "lon": -77.03432033333333, "type": "electric_scooter", "fusion_lat": 0.0, "lat": 38.9191255, "name": "91887f14f73665517498e5c9e0ca1522", "fusion_lon": 0.0, "bike_id": "91887f14f73665517498e5c9e0ca1522", "is_disabled": 0, "is_reserved": 0}, {"rental_uris": {"ios": "https://dc.lft.to/lastmile_qr_scan", "android": "https://dc.lft.to/lastmile_qr_scan"}, "lon": -77.02144583333333, "type": "electric_scooter", "fusion_lat": 0.0, "lat": 38.92828816666667, "name": "6bc44caeae5da21d3a36ebe2a2600594", "fusion_lon": 0.0, "bike_id": "6bc44caeae5da21d3a36ebe2a2600594", "is_disabled": 0, "is_reserved": 0}, {"rental_uris": {"ios": "https://dc.lft.to/lastmile_qr_scan", "android": "https://dc.lft.to/lastmile_qr_scan"}, "lon": -77.02477566666667, "type": "electric_scooter", "fusion_lat": 0.0, "lat": 38.89751483333333, "name": "56457d02729fb193843a755415042f1c", "fusion_lon": 0.0, "bike_id": "56457d02729fb193843a755415042f1c", "is_disabled": 0, "is_reserved": 0}, {"rental_uris": {"ios": "https://dc.lft.to/lastmile_qr_scan", "android": "https://dc.lft.to/lastmile_qr_scan"}, "lon": -76.99841483333333, "type": "electric_scooter", "fusion_lat": 0.0, "lat": 38.90044666666667, "name": "6544dc90e3e7ab9fc4f0154b3dc99c36", "fusion_lon": 0.0, "bike_id": "6544dc90e3e7ab9fc4f0154b3dc99c36", "is_disabled": 0, "is_reserved": 0}, {"rental_uris": {"ios": "https://dc.lft.to/lastmile_qr_scan", "android": "https://dc.lft.to/lastmile_qr_scan"}, "lon": -76.98853216666667, "type": "electric_scooter", "fusion_lat": 0.0, "lat": 38.903457333333336, "name": "5dd85ede39925b78078a45cfa736e9c1", "fusion_lon": 0.0, "bike_id": "5dd85ede39925b78078a45cfa736e9c1", "is_disabled": 0, "is_reserved": 0}, {"rental_uris": {"ios": "https://dc.lft.to/lastmile_qr_scan", "android": "https://dc.lft.to/lastmile_qr_scan"}, "lon": -77.07616716666666, "type": "electric_scooter", "fusion_lat": 0.0, "lat": 38.9125585, "name": "eb0506202f0b6871c7821230d497e874", "fusion_lon": 0.0, "bike_id": "eb0506202f0b6871c7821230d497e874", "is_disabled": 0, "is_reserved": 0}, {"rental_uris": {"ios": "https://dc.lft.to/lastmile_qr_scan", "android": "https://dc.lft.to/lastmile_qr_scan"}, "lon": -76.94711833333334, "type": "electric_scooter", "fusion_lat": 0.0, "lat": 38.89675316666667, "name": "b2328386b91a681cf5af827eb9d3bd2f", "fusion_lon": 0.0, "bike_id": "b2328386b91a681cf5af827eb9d3bd2f", "is_disabled": 0, "is_reserved": 0}, {"rental_uris": {"ios": "https://dc.lft.to/lastmile_qr_scan", "android": "https://dc.lft.to/lastmile_qr_scan"}, "lon": -77.03844616666666, "type": "electric_scooter", "fusion_lat": 0.0, "lat": 38.910965, "name": "a8d0e974ed32ceba9a58c053e0f7818d", "fusion_lon": 0.0, "bike_id": "a8d0e974ed32ceba9a58c053e0f7818d", "is_disabled": 0, "is_reserved": 0}, {"rental_uris": {"ios": "https://dc.lft.to/lastmile_qr_scan", "android": "https://dc.lft.to/lastmile_qr_scan"}, "lon": -77.041791, "type": "electric_scooter", "fusion_lat": 0.0, "lat": 38.90368933333333, "name": "ca6e7095133f551dfd3a76d4bb205d96", "fusion_lon": 0.0, "bike_id": "ca6e7095133f551dfd3a76d4bb205d96", "is_disabled": 0, "is_reserved": 0}, {"rental_uris": {"ios": "https://dc.lft.to/lastmile_qr_scan", "android": "https://dc.lft.to/lastmile_qr_scan"}, "lon": -77.02209616666667, "type": "electric_scooter", "fusion_lat": 0.0, "lat": 38.91537683333333, "name": "fa914019ad267f6965cc00298c3e9190", "fusion_lon": 0.0, "bike_id": "fa914019ad267f6965cc00298c3e9190", "is_disabled": 0, "is_reserved": 0}, {"rental_uris": {"ios": "https://dc.lft.to/lastmile_qr_scan", "android": "https://dc.lft.to/lastmile_qr_scan"}, "lon": -77.05323433333334, "type": "electric_scooter", "fusion_lat": 0.0, "lat": 38.93963883333333, "name": "ae9cf28d24c4adeaab12bb12dfb8baf5", "fusion_lon": 0.0, "bike_id": "ae9cf28d24c4adeaab12bb12dfb8baf5", "is_disabled": 0, "is_reserved": 0}, {"rental_uris": {"ios": "https://dc.lft.to/lastmile_qr_scan", "android": "https://dc.lft.to/lastmile_qr_scan"}, "lon": -77.03311566666666, "type": "electric_scooter", "fusion_lat": 0.0, "lat": 38.90154116666667, "name": "f4789768b743fbd0651f44f950372041", "fusion_lon": 0.0, "bike_id": "f4789768b743fbd0651f44f950372041", "is_disabled": 0, "is_reserved": 0}, {"rental_uris": {"ios": "https://dc.lft.to/lastmile_qr_scan", "android": "https://dc.lft.to/lastmile_qr_scan"}, "lon": -77.02811983333334, "type": "electric_scooter", "fusion_lat": 0.0, "lat": 38.93082583333333, "name": "3174aad243f7483e4205fac4841a9fce", "fusion_lon": 0.0, "bike_id": "3174aad243f7483e4205fac4841a9fce", "is_disabled": 0, "is_reserved": 0}, {"rental_uris": {"ios": "https://dc.lft.to/lastmile_qr_scan", "android": "https://dc.lft.to/lastmile_qr_scan"}, "lon": -77.0365415, "type": "electric_scooter", "fusion_lat": 0.0, "lat": 38.930836, "name": "b776648f0686f565a08b7ee1839da8dd", "fusion_lon": 0.0, "bike_id": "b776648f0686f565a08b7ee1839da8dd", "is_disabled": 0, "is_reserved": 0}, {"rental_uris": {"ios": "https://dc.lft.to/lastmile_qr_scan", "android": "https://dc.lft.to/lastmile_qr_scan"}, "lon": -77.027829, "type": "electric_scooter", "fusion_lat": 0.0, "lat": 38.923709, "name": "e940e0982037e27d9f2bb6b69d5f9030", "fusion_lon": 0.0, "bike_id": "e940e0982037e27d9f2bb6b69d5f9030", "is_disabled": 0, "is_reserved": 0}, {"rental_uris": {"ios": "https://dc.lft.to/lastmile_qr_scan", "android": "https://dc.lft.to/lastmile_qr_scan"}, "lon": -77.07305333333333, "type": "electric_scooter", "fusion_lat": 0.0, "lat": 38.93612233333333, "name": "178e042b6502dca34496b354d9e9a3e9", "fusion_lon": 0.0, "bike_id": "178e042b6502dca34496b354d9e9a3e9", "is_disabled": 0, "is_reserved": 0}, {"rental_uris": {"ios": "https://dc.lft.to/lastmile_qr_scan", "android": "https://dc.lft.to/lastmile_qr_scan"}, "lon": -77.03852616666667, "type": "electric_scooter", "fusion_lat": 0.0, "lat": 38.92645566666667, "name": "b6b8e972c836122a56b77fe0fb78f1d1", "fusion_lon": 0.0, "bike_id": "b6b8e972c836122a56b77fe0fb78f1d1", "is_disabled": 0, "is_reserved": 0}, {"rental_uris": {"ios": "https://dc.lft.to/lastmile_qr_scan", "android": "https://dc.lft.to/lastmile_qr_scan"}, "lon": -77.032072, "type": "electric_scooter", "fusion_lat": 0.0, "lat": 38.89231066666667, "name": "20a2c6c0c3369e0a95683244acf004e6", "fusion_lon": 0.0, "bike_id": "20a2c6c0c3369e0a95683244acf004e6", "is_disabled": 0, "is_reserved": 0}, {"rental_uris": {"ios": "https://dc.lft.to/lastmile_qr_scan", "android": "https://dc.lft.to/lastmile_qr_scan"}, "lon": -77.02954483333333, "type": "electric_scooter", "fusion_lat": 0.0, "lat": 38.904066666666665, "name": "7f9a9d117eb682aed1682cecba415961", "fusion_lon": 0.0, "bike_id": "7f9a9d117eb682aed1682cecba415961", "is_disabled": 0, "is_reserved": 0}, {"rental_uris": {"ios": "https://dc.lft.to/lastmile_qr_scan", "android": "https://dc.lft.to/lastmile_qr_scan"}, "lon": -77.03179516666667, "type": "electric_scooter", "fusion_lat": 0.0, "lat": 38.898387, "name": "a2f16c5b6b074d9ad76931baafff84a0", "fusion_lon": 0.0, "bike_id": "a2f16c5b6b074d9ad76931baafff84a0", "is_disabled": 0, "is_reserved": 0}, {"rental_uris": {"ios": "https://dc.lft.to/lastmile_qr_scan", "android": "https://dc.lft.to/lastmile_qr_scan"}, "lon": -77.02423083333333, "type": "electric_scooter", "fusion_lat": 0.0, "lat": 38.9223235, "name": "2a0c5dacdf83e46fbd8d38a37854ed33", "fusion_lon": 0.0, "bike_id": "2a0c5dacdf83e46fbd8d38a37854ed33", "is_disabled": 0, "is_reserved": 0}, {"rental_uris": {"ios": "https://dc.lft.to/lastmile_qr_scan", "android": "https://dc.lft.to/lastmile_qr_scan"}, "lon": -77.055202, "type": "electric_scooter", "fusion_lat": 0.0, "lat": 38.89960883333333, "name": "ed64e42c44263703f2aca88fdbf3d3c8", "fusion_lon": 0.0, "bike_id": "ed64e42c44263703f2aca88fdbf3d3c8", "is_disabled": 0, "is_reserved": 0}, {"rental_uris": {"ios": "https://dc.lft.to/lastmile_qr_scan", "android": "https://dc.lft.to/lastmile_qr_scan"}, "lon": -77.0454395, "type": "electric_scooter", "fusion_lat": 0.0, "lat": 38.89479933333333, "name": "74e0c3448e6f468c9db980f3a36299a2", "fusion_lon": 0.0, "bike_id": "74e0c3448e6f468c9db980f3a36299a2", "is_disabled": 0, "is_reserved": 0}, {"rental_uris": {"ios": "https://dc.lft.to/lastmile_qr_scan", "android": "https://dc.lft.to/lastmile_qr_scan"}, "lon": -77.02651633333333, "type": "electric_scooter", "fusion_lat": 0.0, "lat": 38.88117966666667, "name": "93d278057e6cdcc49d2b5d16ecf52b01", "fusion_lon": 0.0, "bike_id": "93d278057e6cdcc49d2b5d16ecf52b01", "is_disabled": 0, "is_reserved": 0}, {"rental_uris": {"ios": "https://dc.lft.to/lastmile_qr_scan", "android": "https://dc.lft.to/lastmile_qr_scan"}, "lon": -77.032048, "type": "electric_scooter", "fusion_lat": 0.0, "lat": 38.900242, "name": "5926968a30b026ddc949d15cbee91e2a", "fusion_lon": 0.0, "bike_id": "5926968a30b026ddc949d15cbee91e2a", "is_disabled": 0, "is_reserved": 0}, {"rental_uris": {"ios": "https://dc.lft.to/lastmile_qr_scan", "android": "https://dc.lft.to/lastmile_qr_scan"}, "lon": -77.02705283333333, "type": "electric_scooter", "fusion_lat": 0.0, "lat": 38.906744333333336, "name": "53c39476dd91fe2fa33eed9fd3c68ddf", "fusion_lon": 0.0, "bike_id": "53c39476dd91fe2fa33eed9fd3c68ddf", "is_disabled": 0, "is_reserved": 0}, {"rental_uris": {"ios": "https://dc.lft.to/lastmile_qr_scan", "android": "https://dc.lft.to/lastmile_qr_scan"}, "lon": -76.98363883333333, "type": "electric_scooter", "fusion_lat": 0.0, "lat": 38.9151565, "name": "bf488db3bb1e0322ba16567d6804596e", "fusion_lon": 0.0, "bike_id": "bf488db3bb1e0322ba16567d6804596e", "is_disabled": 0, "is_reserved": 0}, {"rental_uris": {"ios": "https://dc.lft.to/lastmile_qr_scan", "android": "https://dc.lft.to/lastmile_qr_scan"}, "lon": -77.03303916666667, "type": "electric_scooter", "fusion_lat": 0.0, "lat": 38.9090735, "name": "25065179f10d0e4548bbad509cb77c32", "fusion_lon": 0.0, "bike_id": "25065179f10d0e4548bbad509cb77c32", "is_disabled": 0, "is_reserved": 0}, {"rental_uris": {"ios": "https://dc.lft.to/lastmile_qr_scan", "android": "https://dc.lft.to/lastmile_qr_scan"}, "lon": -77.00656033333334, "type": "electric_scooter", "fusion_lat": 0.0, "lat": 38.87637683333333, "name": "d9893dfbe54f8f9cdbcc377b9dd7712d", "fusion_lon": 0.0, "bike_id": "d9893dfbe54f8f9cdbcc377b9dd7712d", "is_disabled": 0, "is_reserved": 0}, {"rental_uris": {"ios": "https://dc.lft.to/lastmile_qr_scan", "android": "https://dc.lft.to/lastmile_qr_scan"}, "lon": -76.99063633333333, "type": "electric_scooter", "fusion_lat": 0.0, "lat": 38.86358116666667, "name": "addd5e31962d16ecb82c52407fe5e1ff", "fusion_lon": 0.0, "bike_id": "addd5e31962d16ecb82c52407fe5e1ff", "is_disabled": 0, "is_reserved": 0}, {"rental_uris": {"ios": "https://dc.lft.to/lastmile_qr_scan", "android": "https://dc.lft.to/lastmile_qr_scan"}, "lon": -77.033062, "type": "electric_scooter", "fusion_lat": 0.0, "lat": 38.92650916666667, "name": "6709b262356c76be17d2498ba5f3e93d", "fusion_lon": 0.0, "bike_id": "6709b262356c76be17d2498ba5f3e93d", "is_disabled": 0, "is_reserved": 0}, {"rental_uris": {"ios": "https://dc.lft.to/lastmile_qr_scan", "android": "https://dc.lft.to/lastmile_qr_scan"}, "lon": -77.02138933333333, "type": "electric_scooter", "fusion_lat": 0.0, "lat": 38.93765033333333, "name": "a5e08dd3c60fac8612af2b10d6e1fd88", "fusion_lon": 0.0, "bike_id": "a5e08dd3c60fac8612af2b10d6e1fd88", "is_disabled": 0, "is_reserved": 0}, {"rental_uris": {"ios": "https://dc.lft.to/lastmile_qr_scan", "android": "https://dc.lft.to/lastmile_qr_scan"}, "lon": -77.02378666666667, "type": "electric_scooter", "fusion_lat": 0.0, "lat": 38.952475, "name": "d1a582233311b9dc7124a90328110d91", "fusion_lon": 0.0, "bike_id": "d1a582233311b9dc7124a90328110d91", "is_disabled": 0, "is_reserved": 0}, {"rental_uris": {"ios": "https://dc.lft.to/lastmile_qr_scan", "android": "https://dc.lft.to/lastmile_qr_scan"}, "lon": -76.98003883333334, "type": "electric_bike", "fusion_lat": 0.0, "lat": 38.9026845, "name": "3f27fae4ed601987cdd5c4696aa24b87", "fusion_lon": 0.0, "bike_id": "3f27fae4ed601987cdd5c4696aa24b87", "is_disabled": 0, "is_reserved": 0}, {"rental_uris": {"ios": "https://dc.lft.to/lastmile_qr_scan", "android": "https://dc.lft.to/lastmile_qr_scan"}, "lon": -77.028288, "type": "electric_scooter", "fusion_lat": 0.0, "lat": 38.902343333333334, "name": "0317085312b619b63b7ab1f9fcbf6e4d", "fusion_lon": 0.0, "bike_id": "0317085312b619b63b7ab1f9fcbf6e4d", "is_disabled": 0, "is_reserved": 0}, {"rental_uris": {"ios": "https://dc.lft.to/lastmile_qr_scan", "android": "https://dc.lft.to/lastmile_qr_scan"}, "lon": -77.0033075, "type": "electric_scooter", "fusion_lat": 0.0, "lat": 38.902684, "name": "f26fea3eeedf7d316dec3639e1cdc843", "fusion_lon": 0.0, "bike_id": "f26fea3eeedf7d316dec3639e1cdc843", "is_disabled": 0, "is_reserved": 0}, {"rental_uris": {"ios": "https://dc.lft.to/lastmile_qr_scan", "android": "https://dc.lft.to/lastmile_qr_scan"}, "lon": -77.03183383333334, "type": "electric_scooter", "fusion_lat": 0.0, "lat": 38.8958005, "name": "030a6d07e1187a04ebbc3033d54cd365", "fusion_lon": 0.0, "bike_id": "030a6d07e1187a04ebbc3033d54cd365", "is_disabled": 0, "is_reserved": 0}, {"rental_uris": {"ios": "https://dc.lft.to/lastmile_qr_scan", "android": "https://dc.lft.to/lastmile_qr_scan"}, "lon": -76.9767285, "type": "electric_scooter", "fusion_lat": 0.0, "lat": 38.898818, "name": "9cec015807644a21e805df961042c6f6", "fusion_lon": 0.0, "bike_id": "9cec015807644a21e805df961042c6f6", "is_disabled": 0, "is_reserved": 0}, {"rental_uris": {"ios": "https://dc.lft.to/lastmile_qr_scan", "android": "https://dc.lft.to/lastmile_qr_scan"}, "lon": -77.0317955, "type": "electric_scooter", "fusion_lat": 0.0, "lat": 38.919228833333335, "name": "99cab56bc23ae0baac52cf8ad20d2984", "fusion_lon": 0.0, "bike_id": "99cab56bc23ae0baac52cf8ad20d2984", "is_disabled": 0, "is_reserved": 0}, {"rental_uris": {"ios": "https://dc.lft.to/lastmile_qr_scan", "android": "https://dc.lft.to/lastmile_qr_scan"}, "lon": -77.0307525, "type": "electric_scooter", "fusion_lat": 0.0, "lat": 38.905753833333335, "name": "943311a5debba4e369e1fcdc3f5dd97d", "fusion_lon": 0.0, "bike_id": "943311a5debba4e369e1fcdc3f5dd97d", "is_disabled": 0, "is_reserved": 0}, {"rental_uris": {"ios": "https://dc.lft.to/lastmile_qr_scan", "android": "https://dc.lft.to/lastmile_qr_scan"}, "lon": -77.046797, "type": "electric_scooter", "fusion_lat": 0.0, "lat": 38.89732216666667, "name": "17a9f202a59de2e122f541cbf5f8d094", "fusion_lon": 0.0, "bike_id": "17a9f202a59de2e122f541cbf5f8d094", "is_disabled": 0, "is_reserved": 0}, {"rental_uris": {"ios": "https://dc.lft.to/lastmile_qr_scan", "android": "https://dc.lft.to/lastmile_qr_scan"}, "lon": -76.94756266666667, "type": "electric_scooter", "fusion_lat": 0.0, "lat": 38.90052816666667, "name": "235fd2557732649f543853c52845b0f2", "fusion_lon": 0.0, "bike_id": "235fd2557732649f543853c52845b0f2", "is_disabled": 0, "is_reserved": 0}, {"rental_uris": {"ios": "https://dc.lft.to/lastmile_qr_scan", "android": "https://dc.lft.to/lastmile_qr_scan"}, "lon": -77.021598, "type": "electric_scooter", "fusion_lat": 0.0, "lat": 38.89728816666667, "name": "b8e48e00dd021b8cf807fafffbe86bfe", "fusion_lon": 0.0, "bike_id": "b8e48e00dd021b8cf807fafffbe86bfe", "is_disabled": 0, "is_reserved": 0}, {"rental_uris": {"ios": "https://dc.lft.to/lastmile_qr_scan", "android": "https://dc.lft.to/lastmile_qr_scan"}, "lon": -77.05505783333334, "type": "electric_scooter", "fusion_lat": 0.0, "lat": 38.92831533333333, "name": "7611cc0857eaf0f09d217f38ec48a386", "fusion_lon": 0.0, "bike_id": "7611cc0857eaf0f09d217f38ec48a386", "is_disabled": 0, "is_reserved": 0}, {"rental_uris": {"ios": "https://dc.lft.to/lastmile_qr_scan", "android": "https://dc.lft.to/lastmile_qr_scan"}, "lon": -77.05754833333333, "type": "electric_scooter", "fusion_lat": 0.0, "lat": 38.93420283333333, "name": "c999a74411ec738e32d6c1eb406bb9b1", "fusion_lon": 0.0, "bike_id": "c999a74411ec738e32d6c1eb406bb9b1", "is_disabled": 0, "is_reserved": 0}, {"rental_uris": {"ios": "https://dc.lft.to/lastmile_qr_scan", "android": "https://dc.lft.to/lastmile_qr_scan"}, "lon": -77.01153666666667, "type": "electric_scooter", "fusion_lat": 0.0, "lat": 38.900165666666666, "name": "5cfbc3d217c6eefd328457daf3a25d12", "fusion_lon": 0.0, "bike_id": "5cfbc3d217c6eefd328457daf3a25d12", "is_disabled": 0, "is_reserved": 0}, {"rental_uris": {"ios": "https://dc.lft.to/lastmile_qr_scan", "android": "https://dc.lft.to/lastmile_qr_scan"}, "lon": -77.02614233333334, "type": "electric_scooter", "fusion_lat": 0.0, "lat": 38.91679033333333, "name": "b9055c0036c3ae3244f7837888d43ff9", "fusion_lon": 0.0, "bike_id": "b9055c0036c3ae3244f7837888d43ff9", "is_disabled": 0, "is_reserved": 0}, {"rental_uris": {"ios": "https://dc.lft.to/lastmile_qr_scan", "android": "https://dc.lft.to/lastmile_qr_scan"}, "lon": -77.033618, "type": "electric_scooter", "fusion_lat": 0.0, "lat": 38.928900166666665, "name": "ef38db7d3dce4295069e0b8bb8f74bce", "fusion_lon": 0.0, "bike_id": "ef38db7d3dce4295069e0b8bb8f74bce", "is_disabled": 0, "is_reserved": 0}, {"rental_uris": {"ios": "https://dc.lft.to/lastmile_qr_scan", "android": "https://dc.lft.to/lastmile_qr_scan"}, "lon": -76.9802535, "type": "electric_scooter", "fusion_lat": 0.0, "lat": 38.8876645, "name": "dcdb9330e68ec1dac0e100ee91aab854", "fusion_lon": 0.0, "bike_id": "dcdb9330e68ec1dac0e100ee91aab854", "is_disabled": 0, "is_reserved": 0}, {"rental_uris": {"ios": "https://dc.lft.to/lastmile_qr_scan", "android": "https://dc.lft.to/lastmile_qr_scan"}, "lon": -76.982321, "type": "electric_scooter", "fusion_lat": 0.0, "lat": 38.867612333333334, "name": "0336d2dcc7d64b1d213c1c7907910d9d", "fusion_lon": 0.0, "bike_id": "0336d2dcc7d64b1d213c1c7907910d9d", "is_disabled": 0, "is_reserved": 0}, {"rental_uris": {"ios": "https://dc.lft.to/lastmile_qr_scan", "android": "https://dc.lft.to/lastmile_qr_scan"}, "lon": -77.02572166666667, "type": "electric_scooter", "fusion_lat": 0.0, "lat": 38.88745083333333, "name": "a17d9ca895fe3e967342691accd7e979", "fusion_lon": 0.0, "bike_id": "a17d9ca895fe3e967342691accd7e979", "is_disabled": 0, "is_reserved": 0}, {"rental_uris": {"ios": "https://dc.lft.to/lastmile_qr_scan", "android": "https://dc.lft.to/lastmile_qr_scan"}, "lon": -77.03505466666667, "type": "electric_scooter", "fusion_lat": 0.0, "lat": 38.918781333333335, "name": "14be44a2f312b1f86494e18be8d81b1b", "fusion_lon": 0.0, "bike_id": "14be44a2f312b1f86494e18be8d81b1b", "is_disabled": 0, "is_reserved": 0}, {"rental_uris": {"ios": "https://dc.lft.to/lastmile_qr_scan", "android": "https://dc.lft.to/lastmile_qr_scan"}, "lon": -77.046231, "type": "electric_scooter", "fusion_lat": 0.0, "lat": 38.916359166666666, "name": "d43546e13b7b4098ab87e325c840c4dc", "fusion_lon": 0.0, "bike_id": "d43546e13b7b4098ab87e325c840c4dc", "is_disabled": 0, "is_reserved": 0}, {"rental_uris": {"ios": "https://dc.lft.to/lastmile_qr_scan", "android": "https://dc.lft.to/lastmile_qr_scan"}, "lon": -77.03512, "type": "electric_scooter", "fusion_lat": 0.0, "lat": 38.923394333333334, "name": "af66f15a7f399473e4932f8082443098", "fusion_lon": 0.0, "bike_id": "af66f15a7f399473e4932f8082443098", "is_disabled": 0, "is_reserved": 0}, {"rental_uris": {"ios": "https://dc.lft.to/lastmile_qr_scan", "android": "https://dc.lft.to/lastmile_qr_scan"}, "lon": -77.03839516666666, "type": "electric_scooter", "fusion_lat": 0.0, "lat": 38.907470833333335, "name": "03a5b1ab24dcaf4c87892306bc2095fc", "fusion_lon": 0.0, "bike_id": "03a5b1ab24dcaf4c87892306bc2095fc", "is_disabled": 0, "is_reserved": 0}, {"rental_uris": {"ios": "https://dc.lft.to/lastmile_qr_scan", "android": "https://dc.lft.to/lastmile_qr_scan"}, "lon": -77.0269415, "type": "electric_scooter", "fusion_lat": 0.0, "lat": 38.906850666666664, "name": "76512239209155bb424d06dac2882dd2", "fusion_lon": 0.0, "bike_id": "76512239209155bb424d06dac2882dd2", "is_disabled": 0, "is_reserved": 0}, {"rental_uris": {"ios": "https://dc.lft.to/lastmile_qr_scan", "android": "https://dc.lft.to/lastmile_qr_scan"}, "lon": -77.03208433333333, "type": "electric_scooter", "fusion_lat": 0.0, "lat": 38.900069333333334, "name": "ab9bc7693e5eec705ddad3f1e1bfc680", "fusion_lon": 0.0, "bike_id": "ab9bc7693e5eec705ddad3f1e1bfc680", "is_disabled": 0, "is_reserved": 0}, {"rental_uris": {"ios": "https://dc.lft.to/lastmile_qr_scan", "android": "https://dc.lft.to/lastmile_qr_scan"}, "lon": -77.03264033333333, "type": "electric_scooter", "fusion_lat": 0.0, "lat": 38.907245333333336, "name": "87229e5c6cdee1e97cc8cb12a256f14d", "fusion_lon": 0.0, "bike_id": "87229e5c6cdee1e97cc8cb12a256f14d", "is_disabled": 0, "is_reserved": 0}, {"rental_uris": {"ios": "https://dc.lft.to/lastmile_qr_scan", "android": "https://dc.lft.to/lastmile_qr_scan"}, "lon": -77.016664, "type": "electric_scooter", "fusion_lat": 0.0, "lat": 38.929370666666664, "name": "bedb30a0348dea22ed7a3f08a3dd8413", "fusion_lon": 0.0, "bike_id": "bedb30a0348dea22ed7a3f08a3dd8413", "is_disabled": 0, "is_reserved": 0}, {"rental_uris": {"ios": "https://dc.lft.to/lastmile_qr_scan", "android": "https://dc.lft.to/lastmile_qr_scan"}, "lon": -77.029308, "type": "electric_scooter", "fusion_lat": 0.0, "lat": 38.933212833333336, "name": "cb54e5efac42a5d56142f4ed4918d54c", "fusion_lon": 0.0, "bike_id": "cb54e5efac42a5d56142f4ed4918d54c", "is_disabled": 0, "is_reserved": 0}, {"rental_uris": {"ios": "https://dc.lft.to/lastmile_qr_scan", "android": "https://dc.lft.to/lastmile_qr_scan"}, "lon": -77.055104, "type": "electric_scooter", "fusion_lat": 0.0, "lat": 38.89967016666667, "name": "24864ecee73b34a18b951c44b56b7801", "fusion_lon": 0.0, "bike_id": "24864ecee73b34a18b951c44b56b7801", "is_disabled": 0, "is_reserved": 0}, {"rental_uris": {"ios": "https://dc.lft.to/lastmile_qr_scan", "android": "https://dc.lft.to/lastmile_qr_scan"}, "lon": -77.04036283333333, "type": "electric_scooter", "fusion_lat": 0.0, "lat": 38.924335666666664, "name": "f5782a72128de9fbbe0727bbe22adb7d", "fusion_lon": 0.0, "bike_id": "f5782a72128de9fbbe0727bbe22adb7d", "is_disabled": 0, "is_reserved": 0}, {"rental_uris": {"ios": "https://dc.lft.to/lastmile_qr_scan", "android": "https://dc.lft.to/lastmile_qr_scan"}, "lon": -77.04004916666666, "type": "electric_scooter", "fusion_lat": 0.0, "lat": 38.91818833333333, "name": "9e0827cafba2d9a6a89e0ea5007d38a6", "fusion_lon": 0.0, "bike_id": "9e0827cafba2d9a6a89e0ea5007d38a6", "is_disabled": 0, "is_reserved": 0}, {"rental_uris": {"ios": "https://dc.lft.to/lastmile_qr_scan", "android": "https://dc.lft.to/lastmile_qr_scan"}, "lon": -77.02590816666667, "type": "electric_scooter", "fusion_lat": 0.0, "lat": 38.91512733333333, "name": "45346bef2de2259a0a5ec003ef82cb05", "fusion_lon": 0.0, "bike_id": "45346bef2de2259a0a5ec003ef82cb05", "is_disabled": 0, "is_reserved": 0}, {"rental_uris": {"ios": "https://dc.lft.to/lastmile_qr_scan", "android": "https://dc.lft.to/lastmile_qr_scan"}, "lon": -77.041685, "type": "electric_scooter", "fusion_lat": 0.0, "lat": 38.9194035, "name": "9d93add76d7ffc5d444bb776e0bdb505", "fusion_lon": 0.0, "bike_id": "9d93add76d7ffc5d444bb776e0bdb505", "is_disabled": 0, "is_reserved": 0}, {"rental_uris": {"ios": "https://dc.lft.to/lastmile_qr_scan", "android": "https://dc.lft.to/lastmile_qr_scan"}, "lon": -77.04917383333333, "type": "electric_scooter", "fusion_lat": 0.0, "lat": 38.9006975, "name": "ec92c05297c760bf3a97a56b9a46a419", "fusion_lon": 0.0, "bike_id": "ec92c05297c760bf3a97a56b9a46a419", "is_disabled": 0, "is_reserved": 0}, {"rental_uris": {"ios": "https://dc.lft.to/lastmile_qr_scan", "android": "https://dc.lft.to/lastmile_qr_scan"}, "lon": -77.036674, "type": "electric_scooter", "fusion_lat": 0.0, "lat": 38.9181705, "name": "b29e5bc617ed07711e5d65ced1bcf2c2", "fusion_lon": 0.0, "bike_id": "b29e5bc617ed07711e5d65ced1bcf2c2", "is_disabled": 0, "is_reserved": 0}, {"rental_uris": {"ios": "https://dc.lft.to/lastmile_qr_scan", "android": "https://dc.lft.to/lastmile_qr_scan"}, "lon": -76.95187016666667, "type": "electric_scooter", "fusion_lat": 0.0, "lat": 38.8913605, "name": "1e498a9b6a5f19ecedde1da91851e18a", "fusion_lon": 0.0, "bike_id": "1e498a9b6a5f19ecedde1da91851e18a", "is_disabled": 0, "is_reserved": 0}, {"rental_uris": {"ios": "https://dc.lft.to/lastmile_qr_scan", "android": "https://dc.lft.to/lastmile_qr_scan"}, "lon": -77.00857083333334, "type": "electric_scooter", "fusion_lat": 0.0, "lat": 38.905275, "name": "7dc1cc882d3ba17614e1b5585baf25e4", "fusion_lon": 0.0, "bike_id": "7dc1cc882d3ba17614e1b5585baf25e4", "is_disabled": 0, "is_reserved": 0}, {"rental_uris": {"ios": "https://dc.lft.to/lastmile_qr_scan", "android": "https://dc.lft.to/lastmile_qr_scan"}, "lon": -77.01746583333333, "type": "electric_scooter", "fusion_lat": 0.0, "lat": 38.90282833333333, "name": "61512bf1f46f7019ec61dae816a9c95c", "fusion_lon": 0.0, "bike_id": "61512bf1f46f7019ec61dae816a9c95c", "is_disabled": 0, "is_reserved": 0}, {"rental_uris": {"ios": "https://dc.lft.to/lastmile_qr_scan", "android": "https://dc.lft.to/lastmile_qr_scan"}, "lon": -77.02218816666667, "type": "electric_scooter", "fusion_lat": 0.0, "lat": 38.89354466666666, "name": "2b493599453e292fd1fe1a6aed8bd355", "fusion_lon": 0.0, "bike_id": "2b493599453e292fd1fe1a6aed8bd355", "is_disabled": 0, "is_reserved": 0}, {"rental_uris": {"ios": "https://dc.lft.to/lastmile_qr_scan", "android": "https://dc.lft.to/lastmile_qr_scan"}, "lon": -77.1281845, "type": "electric_bike", "fusion_lat": 0.0, "lat": 38.8652795, "name": "a294956eb26e817e7be29b1ad5f4b6e1", "fusion_lon": 0.0, "bike_id": "a294956eb26e817e7be29b1ad5f4b6e1", "is_disabled": 0, "is_reserved": 0}, {"rental_uris": {"ios": "https://dc.lft.to/lastmile_qr_scan", "android": "https://dc.lft.to/lastmile_qr_scan"}, "lon": -77.06392466666667, "type": "electric_scooter", "fusion_lat": 0.0, "lat": 38.92904816666667, "name": "b1a0b204689c60c723d5a7fea43ad0a8", "fusion_lon": 0.0, "bike_id": "b1a0b204689c60c723d5a7fea43ad0a8", "is_disabled": 0, "is_reserved": 0}, {"rental_uris": {"ios": "https://dc.lft.to/lastmile_qr_scan", "android": "https://dc.lft.to/lastmile_qr_scan"}, "lon": -77.02953533333333, "type": "electric_scooter", "fusion_lat": 0.0, "lat": 38.904923833333335, "name": "26b53eac4dd17cbfa56f3c40f78b55d8", "fusion_lon": 0.0, "bike_id": "26b53eac4dd17cbfa56f3c40f78b55d8", "is_disabled": 0, "is_reserved": 0}, {"rental_uris": {"ios": "https://dc.lft.to/lastmile_qr_scan", "android": "https://dc.lft.to/lastmile_qr_scan"}, "lon": -77.039686, "type": "electric_scooter", "fusion_lat": 0.0, "lat": 38.902832833333335, "name": "a0cefe1300e4337f3a2647affd4e6d08", "fusion_lon": 0.0, "bike_id": "a0cefe1300e4337f3a2647affd4e6d08", "is_disabled": 0, "is_reserved": 0}, {"rental_uris": {"ios": "https://dc.lft.to/lastmile_qr_scan", "android": "https://dc.lft.to/lastmile_qr_scan"}, "lon": -76.91602816666666, "type": "electric_bike", "fusion_lat": 0.0, "lat": 38.879810666666664, "name": "3f7475f445da3bf15c75e98d574a9635", "fusion_lon": 0.0, "bike_id": "3f7475f445da3bf15c75e98d574a9635", "is_disabled": 0, "is_reserved": 0}, {"rental_uris": {"ios": "https://dc.lft.to/lastmile_qr_scan", "android": "https://dc.lft.to/lastmile_qr_scan"}, "lon": -77.06888783333333, "type": "electric_scooter", "fusion_lat": 0.0, "lat": 38.94029533333333, "name": "b2243d3fa5d49a2c5cc359bec7c94329", "fusion_lon": 0.0, "bike_id": "b2243d3fa5d49a2c5cc359bec7c94329", "is_disabled": 0, "is_reserved": 0}, {"rental_uris": {"ios": "https://dc.lft.to/lastmile_qr_scan", "android": "https://dc.lft.to/lastmile_qr_scan"}, "lon": -77.04603383333334, "type": "electric_scooter", "fusion_lat": 0.0, "lat": 38.91692283333333, "name": "eacc46fc9440d1ee6bd5e7a6fce50e88", "fusion_lon": 0.0, "bike_id": "eacc46fc9440d1ee6bd5e7a6fce50e88", "is_disabled": 0, "is_reserved": 0}, {"rental_uris": {"ios": "https://dc.lft.to/lastmile_qr_scan", "android": "https://dc.lft.to/lastmile_qr_scan"}, "lon": -77.0320715, "type": "electric_scooter", "fusion_lat": 0.0, "lat": 38.917309, "name": "f0b351dbfd740cf24ce0fd648bc3ed63", "fusion_lon": 0.0, "bike_id": "f0b351dbfd740cf24ce0fd648bc3ed63", "is_disabled": 0, "is_reserved": 0}, {"rental_uris": {"ios": "https://dc.lft.to/lastmile_qr_scan", "android": "https://dc.lft.to/lastmile_qr_scan"}, "lon": -77.129865, "type": "electric_bike", "fusion_lat": 0.0, "lat": 38.79987766666667, "name": "acd566d7ff6f1002088980d1f1e18dfd", "fusion_lon": 0.0, "bike_id": "acd566d7ff6f1002088980d1f1e18dfd", "is_disabled": 0, "is_reserved": 0}, {"rental_uris": {"ios": "https://dc.lft.to/lastmile_qr_scan", "android": "https://dc.lft.to/lastmile_qr_scan"},