{"data": {"bikes": [{"is_disabled": 0, "is_reserved": 0, "fusion_lat": 0.0, "lat": 38.9084795, "fusion_lon": 0.0, "rental_uris": {"ios": "https://dc.lft.to/lastmile_qr_scan", "android": "https://dc.lft.to/lastmile_qr_scan"}, "lon": -77.02393066666667, "bike_id": "e27961718d106f75abaddeaa137a14de", "type": "electric_bike", "name": "e27961718d106f75abaddeaa137a14de"}, {"is_disabled": 0, "is_reserved": 0, "fusion_lat": 0.0, "lat": 38.926141666666666, "fusion_lon": 0.0, "rental_uris": {"ios": "https://dc.lft.to/lastmile_qr_scan", "android": "https://dc.lft.to/lastmile_qr_scan"}, "lon": -77.02161116666667, "bike_id": "90b53c5ffc389aa53399555bc72b1bbb", "type": "electric_scooter", "name": "90b53c5ffc389aa53399555bc72b1bbb"}, {"is_disabled": 0, "is_reserved": 0, "fusion_lat": 0.0, "lat": 38.905898, "fusion_lon": 0.0, "rental_uris": {"ios": "https://dc.lft.to/lastmile_qr_scan", "android": "https://dc.lft.to/lastmile_qr_scan"}, "lon": -77.040327, "bike_id": "59bf629527e814218e862dd645cac25e", "type": "electric_scooter", "name": "59bf629527e814218e862dd645cac25e"}, {"is_disabled": 0, "is_reserved": 0, "fusion_lat": 0.0, "lat": 38.885039, "fusion_lon": 0.0, "rental_uris": {"ios": "https://dc.lft.to/lastmile_qr_scan", "android": "https://dc.lft.to/lastmile_qr_scan"}, "lon": -76.99753933333334, "bike_id": "a98d67434e423bf4a4324a2e477faae6", "type": "electric_scooter", "name": "a98d67434e423bf4a4324a2e477faae6"}, {"is_disabled": 0, "is_reserved": 0, "fusion_lat": 0.0, "lat": 38.858019, "fusion_lon": 0.0, "rental_uris": {"ios": "https://dc.lft.to/lastmile_qr_scan", "android": "https://dc.lft.to/lastmile_qr_scan"}, "lon": -76.9875385, "bike_id": "29f4171ada01d313a1a64c47b819240d", "type": "electric_bike", "name": "29f4171ada01d313a1a64c47b819240d"}, {"is_disabled": 0, "is_reserved": 0, "fusion_lat": 0.0, "lat": 38.926202, "fusion_lon": 0.0, "rental_uris": {"ios": "https://dc.lft.to/lastmile_qr_scan", "android": "https://dc.lft.to/lastmile_qr_scan"}, "lon": -76.9905385, "bike_id": "8de18348ca08fefbe783150f608b190c", "type": "electric_scooter", "name": "8de18348ca08fefbe783150f608b190c"}, {"is_disabled": 0, "is_reserved": 0, "fusion_lat": 0.0, "lat": 39.026231333333335, "fusion_lon": 0.0, "rental_uris": {"ios": "https://dc.lft.to/lastmile_qr_scan", "android": "https://dc.lft.to/lastmile_qr_scan"}, "lon": -77.03880933333333, "bike_id": "36a9fbbf74385c15302936fde6f4db16", "type": "electric_bike", "name": "36a9fbbf74385c15302936fde6f4db16"}, {"is_disabled": 0, "is_reserved": 0, "fusion_lat": 0.0, "lat": 38.9387925, "fusion_lon": 0.0, "rental_uris": {"ios": "https://dc.lft.to/lastmile_qr_scan", "android": "https://dc.lft.to/lastmile_qr_scan"}, "lon": -77.02832583333333, "bike_id": "8e32c5e66602555dfd4ef20cea9fbb49", "type": "electric_scooter", "name": "8e32c5e66602555dfd4ef20cea9fbb49"}, {"is_disabled": 0, "is_reserved": 0, "fusion_lat": 0.0, "lat": 38.94585766666667, "fusion_lon": 0.0, "rental_uris": {"ios": "https://dc.lft.to/lastmile_qr_scan", "android": "https://dc.lft.to/lastmile_qr_scan"}, "lon": -77.02035266666667, "bike_id": "c1a24cee2b9c2c8fe53ba374d685ce0c", "type": "electric_scooter", "name": "c1a24cee2b9c2c8fe53ba374d685ce0c"}, {"is_disabled": 0, "is_reserved": 0, "fusion_lat": 0.0, "lat": 38.915614833333336, "fusion_lon": 0.0, "rental_uris": {"ios": "https://dc.lft.to/lastmile_qr_scan", "android": "https://dc.lft.to/lastmile_qr_scan"}, "lon": -77.03140283333333, "bike_id": "b7195e617649faecec1f8b3c82a7d045", "type": "electric_scooter", "name": "b7195e617649faecec1f8b3c82a7d045"}, {"is_disabled": 0, "is_reserved": 0, "fusion_lat": 0.0, "lat": 38.91990066666666, "fusion_lon": 0.0, "rental_uris": {"ios": "https://dc.lft.to/lastmile_qr_scan", "android": "https://dc.lft.to/lastmile_qr_scan"}, "lon": -76.97300083333333, "bike_id": "d521dc7753c80ff054450fe5850b1487", "type": "electric_scooter", "name": "d521dc7753c80ff054450fe5850b1487"}, {"is_disabled": 0, "is_reserved": 0, "fusion_lat": 0.0, "lat": 38.923796, "fusion_lon": 0.0, "rental_uris": {"ios": "https://dc.lft.to/lastmile_qr_scan", "android": "https://dc.lft.to/lastmile_qr_scan"}, "lon": -77.04021266666666, "bike_id": "daac7d06652a84aaf0ce5935fa7c91f7", "type": "electric_scooter", "name": "daac7d06652a84aaf0ce5935fa7c91f7"}, {"is_disabled": 0, "is_reserved": 0, "fusion_lat": 0.0, "lat": 38.84277516666667, "fusion_lon": 0.0, "rental_uris": {"ios": "https://dc.lft.to/lastmile_qr_scan", "android": "https://dc.lft.to/lastmile_qr_scan"}, "lon": -76.98840016666666, "bike_id": "f0ae3da5062c9e3cb20d25a1cba149a4", "type": "electric_bike", "name": "f0ae3da5062c9e3cb20d25a1cba149a4"}, {"is_disabled": 0, "is_reserved": 0, "fusion_lat": 0.0, "lat": 38.910515, "fusion_lon": 0.0, "rental_uris": {"ios": "https://dc.lft.to/lastmile_qr_scan", "android": "https://dc.lft.to/lastmile_qr_scan"}, "lon": -77.01513533333333, "bike_id": "0597cb461654b09e6eafcd8b529471cf", "type": "electric_scooter", "name": "0597cb461654b09e6eafcd8b529471cf"}, {"is_disabled": 0, "is_reserved": 0, "fusion_lat": 0.0, "lat": 38.9241475, "fusion_lon": 0.0, "rental_uris": {"ios": "https://dc.lft.to/lastmile_qr_scan", "android": "https://dc.lft.to/lastmile_qr_scan"}, "lon": -77.03534916666666, "bike_id": "9cf9c2ec1d2f1f044f719cf2b040761a", "type": "electric_scooter", "name": "9cf9c2ec1d2f1f044f719cf2b040761a"}, {"is_disabled": 0, "is_reserved": 0, "fusion_lat": 0.0, "lat": 38.90076783333333, "fusion_lon": 0.0, "rental_uris": {"ios": "https://dc.lft.to/lastmile_qr_scan", "android": "https://dc.lft.to/lastmile_qr_scan"}, "lon": -77.04933633333333, "bike_id": "ca533cc7a6d5cfc5816061d0e5e970eb", "type": "electric_scooter", "name": "ca533cc7a6d5cfc5816061d0e5e970eb"}, {"is_disabled": 0, "is_reserved": 0, "fusion_lat": 0.0, "lat": 38.906414, "fusion_lon": 0.0, "rental_uris": {"ios": "https://dc.lft.to/lastmile_qr_scan", "android": "https://dc.lft.to/lastmile_qr_scan"}, "lon": -77.04561933333333, "bike_id": "deb73e0f70e96b160ea01334c6749ff7", "type": "electric_scooter", "name": "deb73e0f70e96b160ea01334c6749ff7"}, {"is_disabled": 0, "is_reserved": 0, "fusion_lat": 0.0, "lat": 38.89838266666667, "fusion_lon": 0.0, "rental_uris": {"ios": "https://dc.lft.to/lastmile_qr_scan", "android": "https://dc.lft.to/lastmile_qr_scan"}, "lon": -76.98652566666667, "bike_id": "197771b382ee37534bab44e2e536994c", "type": "electric_scooter", "name": "197771b382ee37534bab44e2e536994c"}, {"is_disabled": 0, "is_reserved": 0, "fusion_lat": 0.0, "lat": 38.887367833333336, "fusion_lon": 0.0, "rental_uris": {"ios": "https://dc.lft.to/lastmile_qr_scan", "android": "https://dc.lft.to/lastmile_qr_scan"}, "lon": -77.0317995, "bike_id": "07f75dbe5082deba6152186bd8556a86", "type": "electric_scooter", "name": "07f75dbe5082deba6152186bd8556a86"}, {"is_disabled": 0, "is_reserved": 0, "fusion_lat": 0.0, "lat": 38.9057045, "fusion_lon": 0.0, "rental_uris": {"ios": "https://dc.lft.to/lastmile_qr_scan", "android": "https://dc.lft.to/lastmile_qr_scan"}, "lon": -77.0171595, "bike_id": "3ceea047bda4607147aa71dff6c6436a", "type": "electric_scooter", "name": "3ceea047bda4607147aa71dff6c6436a"}, {"is_disabled": 0, "is_reserved": 0, "fusion_lat": 0.0, "lat": 38.946307833333336, "fusion_lon": 0.0, "rental_uris": {"ios": "https://dc.lft.to/lastmile_qr_scan", "android": "https://dc.lft.to/lastmile_qr_scan"}, "lon": -77.018413, "bike_id": "de7812ff06e75f0b3f45c53a7248867d", "type": "electric_scooter", "name": "de7812ff06e75f0b3f45c53a7248867d"}, {"is_disabled": 0, "is_reserved": 0, "fusion_lat": 0.0, "lat": 38.912540666666665, "fusion_lon": 0.0, "rental_uris": {"ios": "https://dc.lft.to/lastmile_qr_scan", "android": "https://dc.lft.to/lastmile_qr_scan"}, "lon": -77.0459955, "bike_id": "4c1033950346c9413b1a71d1c74a4b10", "type": "electric_scooter", "name": "4c1033950346c9413b1a71d1c74a4b10"}, {"is_disabled": 0, "is_reserved": 0, "fusion_lat": 0.0, "lat": 38.924050333333334, "fusion_lon": 0.0, "rental_uris": {"ios": "https://dc.lft.to/lastmile_qr_scan", "android": "https://dc.lft.to/lastmile_qr_scan"}, "lon": -77.0517275, "bike_id": "63cb3fd9be3a4b66d123e841741b6ca4", "type": "electric_scooter", "name": "63cb3fd9be3a4b66d123e841741b6ca4"}, {"is_disabled": 0, "is_reserved": 0, "fusion_lat": 0.0, "lat": 38.90038466666667, "fusion_lon": 0.0, "rental_uris": {"ios": "https://dc.lft.to/lastmile_qr_scan", "android": "https://dc.lft.to/lastmile_qr_scan"}, "lon": -76.995016, "bike_id": "d1076080516057cdee1855a8aa9568a5", "type": "electric_scooter", "name": "d1076080516057cdee1855a8aa9568a5"}, {"is_disabled": 0, "is_reserved": 0, "fusion_lat": 0.0, "lat": 38.883748, "fusion_lon": 0.0, "rental_uris": {"ios": "https://dc.lft.to/lastmile_qr_scan", "android": "https://dc.lft.to/lastmile_qr_scan"}, "lon": -76.92371166666666, "bike_id": "43ab18d0ac54551d7872440e3aa4fe51", "type": "electric_bike", "name": "43ab18d0ac54551d7872440e3aa4fe51"}, {"is_disabled": 0, "is_reserved": 0, "fusion_lat": 0.0, "lat": 38.916808333333336, "fusion_lon": 0.0, "rental_uris": {"ios": "https://dc.lft.to/lastmile_qr_scan", "android": "https://dc.lft.to/lastmile_qr_scan"}, "lon": -77.041424, "bike_id": "791972791f1817d5cb3a1cb6ec6e97bd", "type": "electric_scooter", "name": "791972791f1817d5cb3a1cb6ec6e97bd"}, {"is_disabled": 0, "is_reserved": 0, "fusion_lat": 0.0, "lat": 38.90256433333333, "fusion_lon": 0.0, "rental_uris": {"ios": "https://dc.lft.to/lastmile_qr_scan", "android": "https://dc.lft.to/lastmile_qr_scan"}, "lon": -77.03143133333333, "bike_id": "9e6409f0970d2b40e4497c6d237792b2", "type": "electric_scooter", "name": "9e6409f0970d2b40e4497c6d237792b2"}, {"is_disabled": 0, "is_reserved": 0, "fusion_lat": 0.0, "lat": 39.0843195, "fusion_lon": 0.0, "rental_uris": {"ios": "https://dc.lft.to/lastmile_qr_scan", "android": "https://dc.lft.to/lastmile_qr_scan"}, "lon": -76.95138733333333, "bike_id": "9b3d51fe38d5ab3d445ce18f689351a7", "type": "electric_bike", "name": "9b3d51fe38d5ab3d445ce18f689351a7"}, {"is_disabled": 0, "is_reserved": 0, "fusion_lat": 0.0, "lat": 38.88447383333333, "fusion_lon": 0.0, "rental_uris": {"ios": "https://dc.lft.to/lastmile_qr_scan", "android": "https://dc.lft.to/lastmile_qr_scan"}, "lon": -77.00902316666667, "bike_id": "6e345500356914e5ba7b7363880d87a4", "type": "electric_scooter", "name": "6e345500356914e5ba7b7363880d87a4"}, {"is_disabled": 0, "is_reserved": 0, "fusion_lat": 0.0, "lat": 38.841003666666666, "fusion_lon": 0.0, "rental_uris": {"ios": "https://dc.lft.to/lastmile_qr_scan", "android": "https://dc.lft.to/lastmile_qr_scan"}, "lon": -77.08939783333334, "bike_id": "c98c6175ca854cf2bdc782f3da919cac", "type": "electric_bike", "name": "c98c6175ca854cf2bdc782f3da919cac"}, {"is_disabled": 0, "is_reserved": 0, "fusion_lat": 0.0, "lat": 38.8839075, "fusion_lon": 0.0, "rental_uris": {"ios": "https://dc.lft.to/lastmile_qr_scan", "android": "https://dc.lft.to/lastmile_qr_scan"}, "lon": -76.9304065, "bike_id": "6802dda4dbdcd5bbbd59e108afbb25f6", "type": "electric_scooter", "name": "6802dda4dbdcd5bbbd59e108afbb25f6"}, {"is_disabled": 0, "is_reserved": 0, "fusion_lat": 0.0, "lat": 38.9169, "fusion_lon": 0.0, "rental_uris": {"ios": "https://dc.lft.to/lastmile_qr_scan", "android": "https://dc.lft.to/lastmile_qr_scan"}, "lon": -77.02516816666666, "bike_id": "6ee8d57f90a9f2748082dbda75089d94", "type": "electric_scooter", "name": "6ee8d57f90a9f2748082dbda75089d94"}, {"is_disabled": 0, "is_reserved": 0, "fusion_lat": 0.0, "lat": 38.9316485, "fusion_lon": 0.0, "rental_uris": {"ios": "https://dc.lft.to/lastmile_qr_scan", "android": "https://dc.lft.to/lastmile_qr_scan"}, "lon": -77.05613983333333, "bike_id": "1b7e0903c5e8380544e1b65eaaf732ba", "type": "electric_scooter", "name": "1b7e0903c5e8380544e1b65eaaf732ba"}, {"is_disabled": 0, "is_reserved": 0, "fusion_lat": 0.0, "lat": 38.9000595, "fusion_lon": 0.0, "rental_uris": {"ios": "https://dc.lft.to/lastmile_qr_scan", "android": "https://dc.lft.to/lastmile_qr_scan"}, "lon": -77.0026265, "bike_id": "f377ee1aec52fec7c48558f214ee3309", "type": "electric_scooter", "name": "f377ee1aec52fec7c48558f214ee3309"}, {"is_disabled": 0, "is_reserved": 0, "fusion_lat": 0.0, "lat": 38.9037805, "fusion_lon": 0.0, "rental_uris": {"ios": "https://dc.lft.to/lastmile_qr_scan", "android": "https://dc.lft.to/lastmile_qr_scan"}, "lon": -76.99502383333333, "bike_id": "a34cc77f8ee896a81623a70da3612938", "type": "electric_scooter", "name": "a34cc77f8ee896a81623a70da3612938"}, {"is_disabled": 0, "is_reserved": 0, "fusion_lat": 0.0, "lat": 38.92098566666667, "fusion_lon": 0.0, "rental_uris": {"ios": "https://dc.lft.to/lastmile_qr_scan", "android": "https://dc.lft.to/lastmile_qr_scan"}, "lon": -77.03946983333333, "bike_id": "5d7467dee248e605015d343730d08792", "type": "electric_scooter", "name": "5d7467dee248e605015d343730d08792"}, {"is_disabled": 0, "is_reserved": 0, "fusion_lat": 0.0, "lat": 38.927242666666665, "fusion_lon": 0.0, "rental_uris": {"ios": "https://dc.lft.to/lastmile_qr_scan", "android": "https://dc.lft.to/lastmile_qr_scan"}, "lon": -77.02313083333334, "bike_id": "0e5177b0644895bc051b1039ff7d95da", "type": "electric_scooter", "name": "0e5177b0644895bc051b1039ff7d95da"}, {"is_disabled": 0, "is_reserved": 0, "fusion_lat": 0.0, "lat": 38.9167045, "fusion_lon": 0.0, "rental_uris": {"ios": "https://dc.lft.to/lastmile_qr_scan", "android": "https://dc.lft.to/lastmile_qr_scan"}, "lon": -77.023798, "bike_id": "efcbdac8918c8348feb4aefca6a54f1d", "type": "electric_scooter", "name": "efcbdac8918c8348feb4aefca6a54f1d"}, {"is_disabled": 0, "is_reserved": 0, "fusion_lat": 0.0, "lat": 38.897394166666665, "fusion_lon": 0.0, "rental_uris": {"ios": "https://dc.lft.to/lastmile_qr_scan", "android": "https://dc.lft.to/lastmile_qr_scan"}, "lon": -77.0221675, "bike_id": "a3f0c526142e1b93c29e064c153b4073", "type": "electric_scooter", "name": "a3f0c526142e1b93c29e064c153b4073"}, {"is_disabled": 0, "is_reserved": 0, "fusion_lat": 0.0, "lat": 38.928213166666666, "fusion_lon": 0.0, "rental_uris": {"ios": "https://dc.lft.to/lastmile_qr_scan", "android": "https://dc.lft.to/lastmile_qr_scan"}, "lon": -77.04348166666666, "bike_id": "116f390b3055aedf9cbcfb4b08c708c4", "type": "electric_scooter", "name": "116f390b3055aedf9cbcfb4b08c708c4"}, {"is_disabled": 0, "is_reserved": 0, "fusion_lat": 0.0, "lat": 38.8505415, "fusion_lon": 0.0, "rental_uris": {"ios": "https://dc.lft.to/lastmile_qr_scan", "android": "https://dc.lft.to/lastmile_qr_scan"}, "lon": -76.95829783333333, "bike_id": "628c30e20e69adc99c12a93dba2088be", "type": "electric_bike", "name": "628c30e20e69adc99c12a93dba2088be"}, {"is_disabled": 0, "is_reserved": 0, "fusion_lat": 0.0, "lat": 38.88575783333334, "fusion_lon": 0.0, "rental_uris": {"ios": "https://dc.lft.to/lastmile_qr_scan", "android": "https://dc.lft.to/lastmile_qr_scan"}, "lon": -77.01210966666666, "bike_id": "1622897ca9a1c41ff2e4fc40a7472cd4", "type": "electric_scooter", "name": "1622897ca9a1c41ff2e4fc40a7472cd4"}, {"is_disabled": 0, "is_reserved": 0, "fusion_lat": 0.0, "lat": 38.860823333333336, "fusion_lon": 0.0, "rental_uris": {"ios": "https://dc.lft.to/lastmile_qr_scan", "android": "https://dc.lft.to/lastmile_qr_scan"}, "lon": -76.983734, "bike_id": "a7c8e6ec9c8468c6db731a15ed8541f9", "type": "electric_scooter", "name": "a7c8e6ec9c8468c6db731a15ed8541f9"}, {"is_disabled": 0, "is_reserved": 0, "fusion_lat": 0.0, "lat": 38.9258005, "fusion_lon": 0.0, "rental_uris": {"ios": "https://dc.lft.to/lastmile_qr_scan", "android": "https://dc.lft.to/lastmile_qr_scan"}, "lon": -77.02763716666666, "bike_id": "5d62f378bef05009af81ac5168a6dd42", "type": "electric_scooter", "name": "5d62f378bef05009af81ac5168a6dd42"}, {"is_disabled": 0, "is_reserved": 0, "fusion_lat": 0.0, "lat": 38.92088433333333, "fusion_lon": 0.0, "rental_uris": {"ios": "https://dc.lft.to/lastmile_qr_scan", "android": "https://dc.lft.to/lastmile_qr_scan"}, "lon": -77.025175, "bike_id": "a21721dde8e132099388216bd8da8603", "type": "electric_scooter", "name": "a21721dde8e132099388216bd8da8603"}, {"is_disabled": 0, "is_reserved": 0, "fusion_lat": 0.0, "lat": 38.909436, "fusion_lon": 0.0, "rental_uris": {"ios": "https://dc.lft.to/lastmile_qr_scan", "android": "https://dc.lft.to/lastmile_qr_scan"}, "lon": -76.99585716666667, "bike_id": "a374d48b85f4d361f28a405a6a954e09", "type": "electric_scooter", "name": "a374d48b85f4d361f28a405a6a954e09"}, {"is_disabled": 0, "is_reserved": 0, "fusion_lat": 0.0, "lat": 38.93235116666666, "fusion_lon": 0.0, "rental_uris": {"ios": "https://dc.lft.to/lastmile_qr_scan", "android": "https://dc.lft.to/lastmile_qr_scan"}, "lon": -76.9971155, "bike_id": "77544e071f0f9b03bf0f89c4b5f688e3", "type": "electric_scooter", "name": "77544e071f0f9b03bf0f89c4b5f688e3"}, {"is_disabled": 0, "is_reserved": 0, "fusion_lat": 0.0, "lat": 38.90243266666667, "fusion_lon": 0.0, "rental_uris": {"ios": "https://dc.lft.to/lastmile_qr_scan", "android": "https://dc.lft.to/lastmile_qr_scan"}, "lon": -77.007709, "bike_id": "6a54746f24ca9575d170895e19945ed1", "type": "electric_scooter", "name": "6a54746f24ca9575d170895e19945ed1"}, {"is_disabled": 0, "is_reserved": 0, "fusion_lat": 0.0, "lat": 38.9241515, "fusion_lon": 0.0, "rental_uris": {"ios": "https://dc.lft.to/lastmile_qr_scan", "android": "https://dc.lft.to/lastmile_qr_scan"}, "lon": -77.02010633333333, "bike_id": "92542f9252effbf3121a40ce3c5fcbcd", "type": "electric_scooter", "name": "92542f9252effbf3121a40ce3c5fcbcd"}, {"is_disabled": 0, "is_reserved": 0, "fusion_lat": 0.0, "lat": 38.84281816666667, "fusion_lon": 0.0, "rental_uris": {"ios": "https://dc.lft.to/lastmile_qr_scan", "android": "https://dc.lft.to/lastmile_qr_scan"}, "lon": -76.98840216666666, "bike_id": "9498f986ef1ffcf58be6dd2489d2ea84", "type": "electric_scooter", "name": "9498f986ef1ffcf58be6dd2489d2ea84"}, {"is_disabled": 0, "is_reserved": 0, "fusion_lat": 0.0, "lat": 38.85245716666667, "fusion_lon": 0.0, "rental_uris": {"ios": "https://dc.lft.to/lastmile_qr_scan", "android": "https://dc.lft.to/lastmile_qr_scan"}, "lon": -77.11410116666667, "bike_id": "7c12d60e4d05ed1cdd03b19192441231", "type": "electric_bike", "name": "7c12d60e4d05ed1cdd03b19192441231"}, {"is_disabled": 0, "is_reserved": 0, "fusion_lat": 0.0, "lat": 39.0064455, "fusion_lon": 0.0, "rental_uris": {"ios": "https://dc.lft.to/lastmile_qr_scan", "android": "https://dc.lft.to/lastmile_qr_scan"}, "lon": -76.90025933333334, "bike_id": "7dca69c05cee1c491aaeffc8685ef6f7", "type": "electric_bike", "name": "7dca69c05cee1c491aaeffc8685ef6f7"}, {"is_disabled": 0, "is_reserved": 0, "fusion_lat": 0.0, "lat": 38.9180375, "fusion_lon": 0.0, "rental_uris": {"ios": "https://dc.lft.to/lastmile_qr_scan", "android": "https://dc.lft.to/lastmile_qr_scan"}, "lon": -77.034761, "bike_id": "d66c2b9076203e4dd71c758496a664c5", "type": "electric_scooter", "name": "d66c2b9076203e4dd71c758496a664c5"}, {"is_disabled": 0, "is_reserved": 0, "fusion_lat": 0.0, "lat": 38.901476, "fusion_lon": 0.0, "rental_uris": {"ios": "https://dc.lft.to/lastmile_qr_scan", "android": "https://dc.lft.to/lastmile_qr_scan"}, "lon": -76.9298395, "bike_id": "df5e28795c9aae3dd812ac39b9bdb17b", "type": "electric_scooter", "name": "df5e28795c9aae3dd812ac39b9bdb17b"}, {"is_disabled": 0, "is_reserved": 0, "fusion_lat": 0.0, "lat": 38.94331833333333, "fusion_lon": 0.0, "rental_uris": {"ios": "https://dc.lft.to/lastmile_qr_scan", "android": "https://dc.lft.to/lastmile_qr_scan"}, "lon": -77.01551883333333, "bike_id": "6c2367ff20d52bb37f9bb470c58f62e9", "type": "electric_scooter", "name": "6c2367ff20d52bb37f9bb470c58f62e9"}, {"is_disabled": 0, "is_reserved": 0, "fusion_lat": 0.0, "lat": 38.8951185, "fusion_lon": 0.0, "rental_uris": {"ios": "https://dc.lft.to/lastmile_qr_scan", "android": "https://dc.lft.to/lastmile_qr_scan"}, "lon": -77.02299333333333, "bike_id": "7768b75850d07899fd1f61bb6d51c3d5", "type": "electric_scooter", "name": "7768b75850d07899fd1f61bb6d51c3d5"}, {"is_disabled": 0, "is_reserved": 0, "fusion_lat": 0.0, "lat": 38.9246815, "fusion_lon": 0.0, "rental_uris": {"ios": "https://dc.lft.to/lastmile_qr_scan", "android": "https://dc.lft.to/lastmile_qr_scan"}, "lon": -77.0271985, "bike_id": "94d5966eefaccb8b7b4393f3c088e369", "type": "electric_scooter", "name": "94d5966eefaccb8b7b4393f3c088e369"}, {"is_disabled": 0, "is_reserved": 0, "fusion_lat": 0.0, "lat": 38.92320083333333, "fusion_lon": 0.0, "rental_uris": {"ios": "https://dc.lft.to/lastmile_qr_scan", "android": "https://dc.lft.to/lastmile_qr_scan"}, "lon": -77.02898933333333, "bike_id": "d515895f414970a0ee835760a3d0a0b5", "type": "electric_scooter", "name": "d515895f414970a0ee835760a3d0a0b5"}, {"is_disabled": 0, "is_reserved": 0, "fusion_lat": 0.0, "lat": 38.906857, "fusion_lon": 0.0, "rental_uris": {"ios": "https://dc.lft.to/lastmile_qr_scan", "android": "https://dc.lft.to/lastmile_qr_scan"}, "lon": -77.06288983333333, "bike_id": "ce2d86a4ba2a509e40a6a048c6e37129", "type": "electric_scooter", "name": "ce2d86a4ba2a509e40a6a048c6e37129"}, {"is_disabled": 0, "is_reserved": 0, "fusion_lat": 0.0, "lat": 38.952195333333336, "fusion_lon": 0.0, "rental_uris": {"ios": "https://dc.lft.to/lastmile_qr_scan", "android": "https://dc.lft.to/lastmile_qr_scan"}, "lon": -77.08866933333333, "bike_id": "c97f3d80299f35439986ab591b7da6d5", "type": "electric_scooter", "name": "c97f3d80299f35439986ab591b7da6d5"}, {"is_disabled": 0, "is_reserved": 0, "fusion_lat": 0.0, "lat": 38.90627716666667, "fusion_lon": 0.0, "rental_uris": {"ios": "https://dc.lft.to/lastmile_qr_scan", "android": "https://dc.lft.to/lastmile_qr_scan"}, "lon": -77.04559666666667, "bike_id": "d11954facfa042ece8b6b148ad5567f9", "type": "electric_scooter", "name": "d11954facfa042ece8b6b148ad5567f9"}, {"is_disabled": 0, "is_reserved": 0, "fusion_lat": 0.0, "lat": 38.92424666666667, "fusion_lon": 0.0, "rental_uris": {"ios": "https://dc.lft.to/lastmile_qr_scan", "android": "https://dc.lft.to/lastmile_qr_scan"}, "lon": -77.04480583333333, "bike_id": "1a5b55f9f6b3958f12d41176781dc8be", "type": "electric_scooter", "name": "1a5b55f9f6b3958f12d41176781dc8be"}, {"is_disabled": 0, "is_reserved": 0, "fusion_lat": 0.0, "lat": 38.882984, "fusion_lon": 0.0, "rental_uris": {"ios": "https://dc.lft.to/lastmile_qr_scan", "android": "https://dc.lft.to/lastmile_qr_scan"}, "lon": -76.93491516666667, "bike_id": "7959e89398a1f61ef4c51efae375b8a4", "type": "electric_scooter", "name": "7959e89398a1f61ef4c51efae375b8a4"}, {"is_disabled": 0, "is_reserved": 0, "fusion_lat": 0.0, "lat": 38.956302, "fusion_lon": 0.0, "rental_uris": {"ios": "https://dc.lft.to/lastmile_qr_scan", "android": "https://dc.lft.to/lastmile_qr_scan"}, "lon": -77.02210683333334, "bike_id": "4d52ad2ea29f1d71e016469b610684af", "type": "electric_scooter", "name": "4d52ad2ea29f1d71e016469b610684af"}, {"is_disabled": 0, "is_reserved": 0, "fusion_lat": 0.0, "lat": 38.827668833333334, "fusion_lon": 0.0, "rental_uris": {"ios": "https://dc.lft.to/lastmile_qr_scan", "android": "https://dc.lft.to/lastmile_qr_scan"}, "lon": -77.060054, "bike_id": "29ac3053f4b85c94251c31f666d807db", "type": "electric_bike", "name": "29ac3053f4b85c94251c31f666d807db"}, {"is_disabled": 0, "is_reserved": 0, "fusion_lat": 0.0, "lat": 38.89894016666667, "fusion_lon": 0.0, "rental_uris": {"ios": "https://dc.lft.to/lastmile_qr_scan", "android": "https://dc.lft.to/lastmile_qr_scan"}, "lon": -77.04992883333334, "bike_id": "ffb0dd4e3577b81a62cd19f472d97670", "type": "electric_scooter", "name": "ffb0dd4e3577b81a62cd19f472d97670"}, {"is_disabled": 0, "is_reserved": 0, "fusion_lat": 0.0, "lat": 38.92043733333333, "fusion_lon": 0.0, "rental_uris": {"ios": "https://dc.lft.to/lastmile_qr_scan", "android": "https://dc.lft.to/lastmile_qr_scan"}, "lon": -77.016698, "bike_id": "1a4858e22d1a4124ec3e2e5f47a4d571", "type": "electric_scooter", "name": "1a4858e22d1a4124ec3e2e5f47a4d571"}, {"is_disabled": 0, "is_reserved": 0, "fusion_lat": 0.0, "lat": 38.92020933333333, "fusion_lon": 0.0, "rental_uris": {"ios": "https://dc.lft.to/lastmile_qr_scan", "android": "https://dc.lft.to/lastmile_qr_scan"}, "lon": -77.017097, "bike_id": "0676b74e5dcf77958e3f80bc0199812e", "type": "electric_scooter", "name": "0676b74e5dcf77958e3f80bc0199812e"}, {"is_disabled": 0, "is_reserved": 0, "fusion_lat": 0.0, "lat": 38.9393425, "fusion_lon": 0.0, "rental_uris": {"ios": "https://dc.lft.to/lastmile_qr_scan", "android": "https://dc.lft.to/lastmile_qr_scan"}, "lon": -77.072509, "bike_id": "9e6e608de2c5082260e520c6b839a73f", "type": "electric_scooter", "name": "9e6e608de2c5082260e520c6b839a73f"}, {"is_disabled": 0, "is_reserved": 0, "fusion_lat": 0.0, "lat": 38.93862766666667, "fusion_lon": 0.0, "rental_uris": {"ios": "https://dc.lft.to/lastmile_qr_scan", "android": "https://dc.lft.to/lastmile_qr_scan"}, "lon": -77.07234133333333, "bike_id": "acf048b4ecbd93b3006b444c84a0eed4", "type": "electric_scooter", "name": "acf048b4ecbd93b3006b444c84a0eed4"}, {"is_disabled": 0, "is_reserved": 0, "fusion_lat": 0.0, "lat": 38.91945183333333, "fusion_lon": 0.0, "rental_uris": {"ios": "https://dc.lft.to/lastmile_qr_scan", "android": "https://dc.lft.to/lastmile_qr_scan"}, "lon": -77.02502683333333, "bike_id": "aeccce4f3f59aaa8d9fdab5cc4f3fbe9", "type": "electric_scooter", "name": "aeccce4f3f59aaa8d9fdab5cc4f3fbe9"}, {"is_disabled": 0, "is_reserved": 0, "fusion_lat": 0.0, "lat": 38.9227145, "fusion_lon": 0.0, "rental_uris": {"ios": "https://dc.lft.to/lastmile_qr_scan", "android": "https://dc.lft.to/lastmile_qr_scan"}, "lon": -77.042379, "bike_id": "edb65f3aff780e707541d5e042b07159", "type": "electric_scooter", "name": "edb65f3aff780e707541d5e042b07159"}, {"is_disabled": 0, "is_reserved": 0, "fusion_lat": 0.0, "lat": 38.926089166666664, "fusion_lon": 0.0, "rental_uris": {"ios": "https://dc.lft.to/lastmile_qr_scan", "android": "https://dc.lft.to/lastmile_qr_scan"}, "lon": -77.021636, "bike_id": "34ca69c3ab7794a731f12d92c13b6d62", "type": "electric_scooter", "name": "34ca69c3ab7794a731f12d92c13b6d62"}, {"is_disabled": 0, "is_reserved": 0, "fusion_lat": 0.0, "lat": 38.94837866666667, "fusion_lon": 0.0, "rental_uris": {"ios": "https://dc.lft.to/lastmile_qr_scan", "android": "https://dc.lft.to/lastmile_qr_scan"}, "lon": -77.0542845, "bike_id": "7c35770c14554d3842b1b12bc97809a7", "type": "electric_bike", "name": "7c35770c14554d3842b1b12bc97809a7"}, {"is_disabled": 0, "is_reserved": 0, "fusion_lat": 0.0, "lat": 38.900650166666665, "fusion_lon": 0.0, "rental_uris": {"ios": "https://dc.lft.to/lastmile_qr_scan", "android": "https://dc.lft.to/lastmile_qr_scan"}, "lon": -77.04934166666666, "bike_id": "d0ff9539f0ad69513c071572872251a7", "type": "electric_scooter", "name": "d0ff9539f0ad69513c071572872251a7"}, {"is_disabled": 0, "is_reserved": 0, "fusion_lat": 0.0, "lat": 38.9285345, "fusion_lon": 0.0, "rental_uris": {"ios": "https://dc.lft.to/lastmile_qr_scan", "android": "https://dc.lft.to/lastmile_qr_scan"}, "lon": -77.03661866666667, "bike_id": "24767bd8a8fab32672dd2c365bd03da0", "type": "electric_scooter", "name": "24767bd8a8fab32672dd2c365bd03da0"}, {"is_disabled": 0, "is_reserved": 0, "fusion_lat": 0.0, "lat": 38.905539, "fusion_lon": 0.0, "rental_uris": {"ios": "https://dc.lft.to/lastmile_qr_scan", "android": "https://dc.lft.to/lastmile_qr_scan"}, "lon": -77.05016083333334, "bike_id": "e3c9bb0ebd1694f300e7d8ecc1c84ae3", "type": "electric_bike", "name": "e3c9bb0ebd1694f300e7d8ecc1c84ae3"}, {"is_disabled": 0, "is_reserved": 0, "fusion_lat": 0.0, "lat": 38.8920615, "fusion_lon": 0.0, "rental_uris": {"ios": "https://dc.lft.to/lastmile_qr_scan", "android": "https://dc.lft.to/lastmile_qr_scan"}, "lon": -76.92923066666667, "bike_id": "3ad4352654926690cc1edceb512de119", "type": "electric_scooter", "name": "3ad4352654926690cc1edceb512de119"}, {"is_disabled": 0, "is_reserved": 0, "fusion_lat": 0.0, "lat": 38.894001, "fusion_lon": 0.0, "rental_uris": {"ios": "https://dc.lft.to/lastmile_qr_scan", "android": "https://dc.lft.to/lastmile_qr_scan"}, "lon": -77.02369416666667, "bike_id": "1e4684b056b1f14c99ca05b9e514fad2", "type": "electric_scooter", "name": "1e4684b056b1f14c99ca05b9e514fad2"}, {"is_disabled": 0, "is_reserved": 0, "fusion_lat": 0.0, "lat": 38.89839383333333, "fusion_lon": 0.0, "rental_uris": {"ios": "https://dc.lft.to/lastmile_qr_scan", "android": "https://dc.lft.to/lastmile_qr_scan"}, "lon": -76.98825466666666, "bike_id": "f22de2f4d0bc25de7f4c9de73b0faa03", "type": "electric_scooter", "name": "f22de2f4d0bc25de7f4c9de73b0faa03"}, {"is_disabled": 0, "is_reserved": 0, "fusion_lat": 0.0, "lat": 38.909076666666664, "fusion_lon": 0.0, "rental_uris": {"ios": "https://dc.lft.to/lastmile_qr_scan", "android": "https://dc.lft.to/lastmile_qr_scan"}, "lon": -77.04572616666667, "bike_id": "457d917f4d47f456477746a2e447b14d", "type": "electric_scooter", "name": "457d917f4d47f456477746a2e447b14d"}, {"is_disabled": 0, "is_reserved": 0, "fusion_lat": 0.0, "lat": 38.89506983333333, "fusion_lon": 0.0, "rental_uris": {"ios": "https://dc.lft.to/lastmile_qr_scan", "android": "https://dc.lft.to/lastmile_qr_scan"}, "lon": -77.02298233333333, "bike_id": "d33e753c65803b0ac799174524cdfe68", "type": "electric_scooter", "name": "d33e753c65803b0ac799174524cdfe68"}, {"is_disabled": 0, "is_reserved": 0, "fusion_lat": 0.0, "lat": 38.898632666666664, "fusion_lon": 0.0, "rental_uris": {"ios": "https://dc.lft.to/lastmile_qr_scan", "android": "https://dc.lft.to/lastmile_qr_scan"}, "lon": -77.018785, "bike_id": "18ca4ba8af84393503724835874817e9", "type": "electric_scooter", "name": "18ca4ba8af84393503724835874817e9"}, {"is_disabled": 0, "is_reserved": 0, "fusion_lat": 0.0, "lat": 38.942068666666664, "fusion_lon": 0.0, "rental_uris": {"ios": "https://dc.lft.to/lastmile_qr_scan", "android": "https://dc.lft.to/lastmile_qr_scan"}, "lon": -77.01536366666667, "bike_id": "cb80e03f80e1dfccbc827a967dc180d3", "type": "electric_scooter", "name": "cb80e03f80e1dfccbc827a967dc180d3"}, {"is_disabled": 0, "is_reserved": 0, "fusion_lat": 0.0, "lat": 38.927902333333336, "fusion_lon": 0.0, "rental_uris": {"ios": "https://dc.lft.to/lastmile_qr_scan", "android": "https://dc.lft.to/lastmile_qr_scan"}, "lon": -77.031531, "bike_id": "52aa0a732e53fc0d84049f7516dfb564", "type": "electric_scooter", "name": "52aa0a732e53fc0d84049f7516dfb564"}, {"is_disabled": 0, "is_reserved": 0, "fusion_lat": 0.0, "lat": 38.894269, "fusion_lon": 0.0, "rental_uris": {"ios": "https://dc.lft.to/lastmile_qr_scan", "android": "https://dc.lft.to/lastmile_qr_scan"}, "lon": -77.05598783333333, "bike_id": "9dd90a0f8d243ba19a3be778eeab1cf2", "type": "electric_scooter", "name": "9dd90a0f8d243ba19a3be778eeab1cf2"}, {"is_disabled": 0, "is_reserved": 0, "fusion_lat": 0.0, "lat": 38.918967, "fusion_lon": 0.0, "rental_uris": {"ios": "https://dc.lft.to/lastmile_qr_scan", "android": "https://dc.lft.to/lastmile_qr_scan"}, "lon": -77.0349525, "bike_id": "b54517f2279f755f2ba2cbb0c14bfc24", "type": "electric_scooter", "name": "b54517f2279f755f2ba2cbb0c14bfc24"}, {"is_disabled": 0, "is_reserved": 0, "fusion_lat": 0.0, "lat": 38.917121333333334, "fusion_lon": 0.0, "rental_uris": {"ios": "https://dc.lft.to/lastmile_qr_scan", "android": "https://dc.lft.to/lastmile_qr_scan"}, "lon": -77.032375, "bike_id": "ebce6f2bca63b49fe7ff0520c6e4b461", "type": "electric_scooter", "name": "ebce6f2bca63b49fe7ff0520c6e4b461"}, {"is_disabled": 0, "is_reserved": 0, "fusion_lat": 0.0, "lat": 38.951853, "fusion_lon": 0.0, "rental_uris": {"ios": "https://dc.lft.to/lastmile_qr_scan", "android": "https://dc.lft.to/lastmile_qr_scan"}, "lon": -77.026141, "bike_id": "15012d350d01b74de278b24da08674b0", "type": "electric_scooter", "name": "15012d350d01b74de278b24da08674b0"}, {"is_disabled": 0, "is_reserved": 0, "fusion_lat": 0.0, "lat": 38.91808016666667, "fusion_lon": 0.0, "rental_uris": {"ios": "https://dc.lft.to/lastmile_qr_scan", "android": "https://dc.lft.to/lastmile_qr_scan"}, "lon": -77.03466233333333, "bike_id": "4b9987c7b530db4cd8e0753e3a745727", "type": "electric_scooter", "name": "4b9987c7b530db4cd8e0753e3a745727"}, {"is_disabled": 0, "is_reserved": 0, "fusion_lat": 0.0, "lat": 38.8706665, "fusion_lon": 0.0, "rental_uris": {"ios": "https://dc.lft.to/lastmile_qr_scan", "android": "https://dc.lft.to/lastmile_qr_scan"}, "lon": -76.97939666666667, "bike_id": "8faa50a2460b2db373b55e33e040c1ff", "type": "electric_scooter", "name": "8faa50a2460b2db373b55e33e040c1ff"}, {"is_disabled": 0, "is_reserved": 0, "fusion_lat": 0.0, "lat": 38.89815816666667, "fusion_lon": 0.0, "rental_uris": {"ios": "https://dc.lft.to/lastmile_qr_scan", "android": "https://dc.lft.to/lastmile_qr_scan"}, "lon": -77.00207816666666, "bike_id": "fdb8f11b3372710a954cd729d4448f55", "type": "electric_scooter", "name": "fdb8f11b3372710a954cd729d4448f55"}, {"is_disabled": 0, "is_reserved": 0, "fusion_lat": 0.0, "lat": 38.91833966666667, "fusion_lon": 0.0, "rental_uris": {"ios": "https://dc.lft.to/lastmile_qr_scan", "android": "https://dc.lft.to/lastmile_qr_scan"}, "lon": -77.02293116666667, "bike_id": "a9a7f35b4c05009b7df5f86c4abfd10f", "type": "electric_scooter", "name": "a9a7f35b4c05009b7df5f86c4abfd10f"}, {"is_disabled": 0, "is_reserved": 0, "fusion_lat": 0.0, "lat": 38.90873466666667, "fusion_lon": 0.0, "rental_uris": {"ios": "https://dc.lft.to/lastmile_qr_scan", "android": "https://dc.lft.to/lastmile_qr_scan"}, "lon": -77.00375366666667, "bike_id": "d5aa8e56aee5d0bfe07e1e467d7b4133", "type": "electric_scooter", "name": "d5aa8e56aee5d0bfe07e1e467d7b4133"}, {"is_disabled": 0, "is_reserved": 0, "fusion_lat": 0.0, "lat": 38.901901333333335, "fusion_lon": 0.0, "rental_uris": {"ios": "https://dc.lft.to/lastmile_qr_scan", "android": "https://dc.lft.to/lastmile_qr_scan"}, "lon": -77.00052483333333, "bike_id": "87082e98d2851f0df9ee15e1ba79659a", "type": "electric_scooter", "name": "87082e98d2851f0df9ee15e1ba79659a"}, {"is_disabled": 0, "is_reserved": 0, "fusion_lat": 0.0, "lat": 38.89832633333333, "fusion_lon": 0.0, "rental_uris": {"ios": "https://dc.lft.to/lastmile_qr_scan", "android": "https://dc.lft.to/lastmile_qr_scan"}, "lon": -76.9462975, "bike_id": "1e5d1850294e8f9534c616fcecbf4b16", "type": "electric_scooter", "name": "1e5d1850294e8f9534c616fcecbf4b16"}, {"is_disabled": 0, "is_reserved": 0, "fusion_lat": 0.0, "lat": 38.920563, "fusion_lon": 0.0, "rental_uris": {"ios": "https://dc.lft.to/lastmile_qr_scan", "android": "https://dc.lft.to/lastmile_qr_scan"}, "lon": -77.03239533333333, "bike_id": "0531a083505515fa9e9f03bce6edd229", "type": "electric_scooter", "name": "0531a083505515fa9e9f03bce6edd229"}, {"is_disabled": 0, "is_reserved": 0, "fusion_lat": 0.0, "lat": 38.99094816666667, "fusion_lon": 0.0, "rental_uris": {"ios": "https://dc.lft.to/lastmile_qr_scan", "android": "https://dc.lft.to/lastmile_qr_scan"}, "lon": -76.99371933333333, "bike_id": "0fec858513733c19d6f0ec829acacaec", "type": "electric_bike", "name": "0fec858513733c19d6f0ec829acacaec"}, {"is_disabled": 0, "is_reserved": 0, "fusion_lat": 0.0, "lat": 38.902610333333335, "fusion_lon": 0.0, "rental_uris": {"ios": "https://dc.lft.to/lastmile_qr_scan", "android": "https://dc.lft.to/lastmile_qr_scan"}, "lon": -77.02055966666667, "bike_id": "3a429e747624925f2eea6024dcaa6c91", "type": "electric_scooter", "name": "3a429e747624925f2eea6024dcaa6c91"}, {"is_disabled": 0, "is_reserved": 0, "fusion_lat": 0.0, "lat": 38.89544883333333, "fusion_lon": 0.0, "rental_uris": {"ios": "https://dc.lft.to/lastmile_qr_scan", "android": "https://dc.lft.to/lastmile_qr_scan"}, "lon": -77.02191283333333, "bike_id": "96a0271bddbae2b21c73918cb16ec24f", "type": "electric_scooter", "name": "96a0271bddbae2b21c73918cb16ec24f"}, {"is_disabled": 0, "is_reserved": 0, "fusion_lat": 0.0, "lat": 38.91538766666667, "fusion_lon": 0.0, "rental_uris": {"ios": "https://dc.lft.to/lastmile_qr_scan", "android": "https://dc.lft.to/lastmile_qr_scan"}, "lon": -77.02633666666667, "bike_id": "74244f1122890c21a91b59488c8d1cdb", "type": "electric_scooter", "name": "74244f1122890c21a91b59488c8d1cdb"}, {"is_disabled": 0, "is_reserved": 0, "fusion_lat": 0.0, "lat": 38.87866566666667, "fusion_lon": 0.0, "rental_uris": {"ios": "https://dc.lft.to/lastmile_qr_scan", "android": "https://dc.lft.to/lastmile_qr_scan"}, "lon": -77.00757066666667, "bike_id": "f620fc7fa2680779d0c18db018b3d9c2", "type": "electric_scooter", "name": "f620fc7fa2680779d0c18db018b3d9c2"}, {"is_disabled": 0, "is_reserved": 0, "fusion_lat": 0.0, "lat": 38.8661605, "fusion_lon": 0.0, "rental_uris": {"ios": "https://dc.lft.to/lastmile_qr_scan", "android": "https://dc.lft.to/lastmile_qr_scan"}, "lon": -76.99003783333333, "bike_id": "ec9c8921d6b35aef68fa3ae543ec47c3", "type": "electric_bike", "name": "ec9c8921d6b35aef68fa3ae543ec47c3"}, {"is_disabled": 0, "is_reserved": 0, "fusion_lat": 0.0, "lat": 38.90848316666667, "fusion_lon": 0.0, "rental_uris": {"ios": "https://dc.lft.to/lastmile_qr_scan", "android": "https://dc.lft.to/lastmile_qr_scan"}, "lon": -77.05814683333334, "bike_id": "3d17cfd4c87fc329ccf8fd16de270e6b", "type": "electric_scooter", "name": "3d17cfd4c87fc329ccf8fd16de270e6b"}, {"is_disabled": 0, "is_reserved": 0, "fusion_lat": 0.0, "lat": 38.900801666666666, "fusion_lon": 0.0, "rental_uris": {"ios": "https://dc.lft.to/lastmile_qr_scan", "android": "https://dc.lft.to/lastmile_qr_scan"}, "lon": -77.04473966666667, "bike_id": "8984393f399289ae321eee1604bf3e7e", "type": "electric_scooter", "name": "8984393f399289ae321eee1604bf3e7e"}, {"is_disabled": 0, "is_reserved": 0, "fusion_lat": 0.0, "lat": 38.897382666666665, "fusion_lon": 0.0, "rental_uris": {"ios": "https://dc.lft.to/lastmile_qr_scan", "android": "https://dc.lft.to/lastmile_qr_scan"}, "lon": -77.03352833333334, "bike_id": "cb1c497ae18a0ed4f25a674b13c32135", "type": "electric_scooter", "name": "cb1c497ae18a0ed4f25a674b13c32135"}, {"is_disabled": 0, "is_reserved": 0, "fusion_lat": 0.0, "lat": 38.848602166666666, "fusion_lon": 0.0, "rental_uris": {"ios": "https://dc.lft.to/lastmile_qr_scan", "android": "https://dc.lft.to/lastmile_qr_scan"}, "lon": -77.06829116666667, "bike_id": "4f594bee117ba405dd6c359386c4223d", "type": "electric_bike", "name": "4f594bee117ba405dd6c359386c4223d"}, {"is_disabled": 0, "is_reserved": 0, "fusion_lat": 0.0, "lat": 38.9065195, "fusion_lon": 0.0, "rental_uris": {"ios": "https://dc.lft.to/lastmile_qr_scan", "android": "https://dc.lft.to/lastmile_qr_scan"}, "lon": -77.048809, "bike_id": "89a65f13965ce0006c14af44765f5d6b", "type": "electric_scooter", "name": "89a65f13965ce0006c14af44765f5d6b"}, {"is_disabled": 0, "is_reserved": 0, "fusion_lat": 0.0, "lat": 38.9204175, "fusion_lon": 0.0, "rental_uris": {"ios": "https://dc.lft.to/lastmile_qr_scan", "android": "https://dc.lft.to/lastmile_qr_scan"}, "lon": -77.0167725, "bike_id": "18260bd09aa68061a67f39c307183776", "type": "electric_scooter", "name": "18260bd09aa68061a67f39c307183776"}, {"is_disabled": 0, "is_reserved": 0, "fusion_lat": 0.0, "lat": 38.905184166666665, "fusion_lon": 0.0, "rental_uris": {"ios": "https://dc.lft.to/lastmile_qr_scan", "android": "https://dc.lft.to/lastmile_qr_scan"}, "lon": -77.0404915, "bike_id": "d1eb1c2db3fa4287383ab404d5889191", "type": "electric_scooter", "name": "d1eb1c2db3fa4287383ab404d5889191"}, {"is_disabled": 0, "is_reserved": 0, "fusion_lat": 0.0, "lat": 38.926641833333335, "fusion_lon": 0.0, "rental_uris": {"ios": "https://dc.lft.to/lastmile_qr_scan", "android": "https://dc.lft.to/lastmile_qr_scan"}, "lon": -77.02693916666666, "bike_id": "aa3bd9759429f74a041307fb9e4ddea6", "type": "electric_scooter", "name": "aa3bd9759429f74a041307fb9e4ddea6"}, {"is_disabled": 0, "is_reserved": 0, "fusion_lat": 0.0, "lat": 38.884039, "fusion_lon": 0.0, "rental_uris": {"ios": "https://dc.lft.to/lastmile_qr_scan", "android": "https://dc.lft.to/lastmile_qr_scan"}, "lon": -77.02980133333334, "bike_id": "211fd603e90fa3ebb81e192623d33668", "type": "electric_scooter", "name": "211fd603e90fa3ebb81e192623d33668"}, {"is_disabled": 0, "is_reserved": 0, "fusion_lat": 0.0, "lat": 38.92757783333333, "fusion_lon": 0.0, "rental_uris": {"ios": "https://dc.lft.to/lastmile_qr_scan", "android": "https://dc.lft.to/lastmile_qr_scan"}, "lon": -77.032754, "bike_id": "b3b67e8db05eb8d03f158657cf1b991f", "type": "electric_scooter", "name": "b3b67e8db05eb8d03f158657cf1b991f"}, {"is_disabled": 0, "is_reserved": 0, "fusion_lat": 0.0, "lat": 38.90860283333333, "fusion_lon": 0.0, "rental_uris": {"ios": "https://dc.lft.to/lastmile_qr_scan", "android": "https://dc.lft.to/lastmile_qr_scan"}, "lon": -77.03288133333334, "bike_id": "d25c698fa1bd49d9f2cf25ed3a09d0d7", "type": "electric_scooter", "name": "d25c698fa1bd49d9f2cf25ed3a09d0d7"}, {"is_disabled": 0, "is_reserved": 0, "fusion_lat": 0.0, "lat": 38.916315166666664, "fusion_lon": 0.0, "rental_uris": {"ios": "https://dc.lft.to/lastmile_qr_scan", "android": "https://dc.lft.to/lastmile_qr_scan"}, "lon": -77.02697433333333, "bike_id": "541ad498b077333865a45b4a9aa50a9a", "type": "electric_scooter", "name": "541ad498b077333865a45b4a9aa50a9a"}, {"is_disabled": 0, "is_reserved": 0, "fusion_lat": 0.0, "lat": 38.92237883333333, "fusion_lon": 0.0, "rental_uris": {"ios": "https://dc.lft.to/lastmile_qr_scan", "android": "https://dc.lft.to/lastmile_qr_scan"}, "lon": -77.04013233333333, "bike_id": "94d4c3bbb744d00ad4b0c9e8fab75f91", "type": "electric_scooter", "name": "94d4c3bbb744d00ad4b0c9e8fab75f91"}, {"is_disabled": 0, "is_reserved": 0, "fusion_lat": 0.0, "lat": 38.8708285, "fusion_lon": 0.0, "rental_uris": {"ios": "https://dc.lft.to/lastmile_qr_scan", "android": "https://dc.lft.to/lastmile_qr_scan"}, "lon": -77.0120655, "bike_id": "5737e940c1ea0c71ab4c442f5c5c9c18", "type": "electric_scooter", "name": "5737e940c1ea0c71ab4c442f5c5c9c18"}, {"is_disabled": 0, "is_reserved": 0, "fusion_lat": 0.0, "lat": 38.89853733333333, "fusion_lon": 0.0, "rental_uris": {"ios": "https://dc.lft.to/lastmile_qr_scan", "android": "https://dc.lft.to/lastmile_qr_scan"}, "lon": -77.022141, "bike_id": "5d9ce5bf741bb188ec7b4f4ca71c923b", "type": "electric_scooter", "name": "5d9ce5bf741bb188ec7b4f4ca71c923b"}, {"is_disabled": 0, "is_reserved": 0, "fusion_lat": 0.0, "lat": 38.933521999999996, "fusion_lon": 0.0, "rental_uris": {"ios": "https://dc.lft.to/lastmile_qr_scan", "android": "https://dc.lft.to/lastmile_qr_scan"}, "lon": -77.034197, "bike_id": "3757b6dfe3694810cc1e311bebcb09cc", "type": "electric_scooter", "name": "3757b6dfe3694810cc1e311bebcb09cc"}, {"is_disabled": 0, "is_reserved": 0, "fusion_lat": 0.0, "lat": 38.90006983333333, "fusion_lon": 0.0, "rental_uris": {"ios": "https://dc.lft.to/lastmile_qr_scan", "android": "https://dc.lft.to/lastmile_qr_scan"}, "lon": -76.97988483333333, "bike_id": "7fed8c051120f1c122d45ebe02436c07", "type": "electric_scooter", "name": "7fed8c051120f1c122d45ebe02436c07"}, {"is_disabled": 0, "is_reserved": 0, "fusion_lat": 0.0, "lat": 38.928246333333334, "fusion_lon": 0.0, "rental_uris": {"ios": "https://dc.lft.to/lastmile_qr_scan", "android": "https://dc.lft.to/lastmile_qr_scan"}, "lon": -77.032669, "bike_id": "0d3969fcb9bbc0fe903798350912d25e", "type": "electric_scooter", "name": "0d3969fcb9bbc0fe903798350912d25e"}, {"is_disabled": 0, "is_reserved": 0, "fusion_lat": 0.0, "lat": 38.900675666666665, "fusion_lon": 0.0, "rental_uris": {"ios": "https://dc.lft.to/lastmile_qr_scan", "android": "https://dc.lft.to/lastmile_qr_scan"}, "lon": -77.00673383333333, "bike_id": "a554e258632cd8b07f636591583d85bb", "type": "electric_scooter", "name": "a554e258632cd8b07f636591583d85bb"}, {"is_disabled": 0, "is_reserved": 0, "fusion_lat": 0.0, "lat": 38.916381333333334, "fusion_lon": 0.0, "rental_uris": {"ios": "https://dc.lft.to/lastmile_qr_scan", "android": "https://dc.lft.to/lastmile_qr_scan"}, "lon": -77.023071, "bike_id": "d2b77f83481e6f6ee652059e25a5c69b", "type": "electric_scooter", "name": "d2b77f83481e6f6ee652059e25a5c69b"}, {"is_disabled": 0, "is_reserved": 0, "fusion_lat": 0.0, "lat": 38.88064383333333, "fusion_lon": 0.0, "rental_uris": {"ios": "https://dc.lft.to/lastmile_qr_scan", "android": "https://dc.lft.to/lastmile_qr_scan"}, "lon": -77.0255755, "bike_id": "03a4b2998c6f61d09360639bbba8dad7", "type": "electric_scooter", "name": "03a4b2998c6f61d09360639bbba8dad7"}, {"is_disabled": 0, "is_reserved": 0, "fusion_lat": 0.0, "lat": 38.915355166666664, "fusion_lon": 0.0, "rental_uris": {"ios": "https://dc.lft.to/lastmile_qr_scan", "android": "https://dc.lft.to/lastmile_qr_scan"}, "lon": -77.02639683333334, "bike_id": "d0145f2b1c9031ba006d206e8301bec3", "type": "electric_scooter", "name": "d0145f2b1c9031ba006d206e8301bec3"}, {"is_disabled": 0, "is_reserved": 0, "fusion_lat": 0.0, "lat": 39.02649, "fusion_lon": 0.0, "rental_uris": {"ios": "https://dc.lft.to/lastmile_qr_scan", "android": "https://dc.lft.to/lastmile_qr_scan"}, "lon": -77.03684183333333, "bike_id": "9719a8603c7281295776f5f50b4a314c", "type": "electric_bike", "name": "9719a8603c7281295776f5f50b4a314c"}, {"is_disabled": 0, "is_reserved": 0, "fusion_lat": 0.0, "lat": 38.95585616666666, "fusion_lon": 0.0, "rental_uris": {"ios": "https://dc.lft.to/lastmile_qr_scan", "android": "https://dc.lft.to/lastmile_qr_scan"}, "lon": -77.017871, "bike_id": "d78c5f2869aac9db51eae88fcd440dc2", "type": "electric_scooter", "name": "d78c5f2869aac9db51eae88fcd440dc2"}, {"is_disabled": 0, "is_reserved": 0, "fusion_lat": 0.0, "lat": 38.886197, "fusion_lon": 0.0, "rental_uris": {"ios": "https://dc.lft.to/lastmile_qr_scan", "android": "https://dc.lft.to/lastmile_qr_scan"}, "lon": -76.92633333333333, "bike_id": "7d3ff66d01b0aa5185fe35da56422e94", "type": "electric_scooter", "name": "7d3ff66d01b0aa5185fe35da56422e94"}, {"is_disabled": 0, "is_reserved": 0, "fusion_lat": 0.0, "lat": 38.886278, "fusion_lon": 0.0, "rental_uris": {"ios": "https://dc.lft.to/lastmile_qr_scan", "android": "https://dc.lft.to/lastmile_qr_scan"}, "lon": -77.022166, "bike_id": "776e9497fbc507d54a69099fb11c2764", "type": "electric_scooter", "name": "776e9497fbc507d54a69099fb11c2764"}, {"is_disabled": 0, "is_reserved": 0, "fusion_lat": 0.0, "lat": 38.907982833333335, "fusion_lon": 0.0, "rental_uris": {"ios": "https://dc.lft.to/lastmile_qr_scan", "android": "https://dc.lft.to/lastmile_qr_scan"}, "lon": -77.001915, "bike_id": "8dafb1e204fc5e5059aa2edad103529c", "type": "electric_scooter", "name": "8dafb1e204fc5e5059aa2edad103529c"}, {"is_disabled": 0, "is_reserved": 0, "fusion_lat": 0.0, "lat": 38.921975833333335, "fusion_lon": 0.0, "rental_uris": {"ios": "https://dc.lft.to/lastmile_qr_scan", "android": "https://dc.lft.to/lastmile_qr_scan"}, "lon": -77.02040466666666, "bike_id": "918f5d2ff3835afdfac8ce4c2077159d", "type": "electric_scooter", "name": "918f5d2ff3835afdfac8ce4c2077159d"}, {"is_disabled": 0, "is_reserved": 0, "fusion_lat": 0.0, "lat": 38.9565435, "fusion_lon": 0.0, "rental_uris": {"ios": "https://dc.lft.to/lastmile_qr_scan", "android": "https://dc.lft.to/lastmile_qr_scan"}, "lon": -77.03296066666667, "bike_id": "0c8cb4df54dd62ab9dc397556883037b", "type": "electric_scooter", "name": "0c8cb4df54dd62ab9dc397556883037b"}, {"is_disabled": 0, "is_reserved": 0, "fusion_lat": 0.0, "lat": 38.90853533333333, "fusion_lon": 0.0, "rental_uris": {"ios": "https://dc.lft.to/lastmile_qr_scan", "android": "https://dc.lft.to/lastmile_qr_scan"}, "lon": -77.02354733333334, "bike_id": "aebea4a0bb2b4f0ed414a6842a8e90c1", "type": "electric_scooter", "name": "aebea4a0bb2b4f0ed414a6842a8e90c1"}, {"is_disabled": 0, "is_reserved": 0, "fusion_lat": 0.0, "lat": 38.9275925, "fusion_lon": 0.0, "rental_uris": {"ios": "https://dc.lft.to/lastmile_qr_scan", "android": "https://dc.lft.to/lastmile_qr_scan"}, "lon": -77.05263333333333, "bike_id": "a6c7857466cc5e84c1557f980d426b12", "type": "electric_scooter", "name": "a6c7857466cc5e84c1557f980d426b12"}, {"is_disabled": 0, "is_reserved": 0, "fusion_lat": 0.0, "lat": 38.91415, "fusion_lon": 0.0, "rental_uris": {"ios": "https://dc.lft.to/lastmile_qr_scan", "android": "https://dc.lft.to/lastmile_qr_scan"}, "lon": -77.05209683333334, "bike_id": "ba4a9281eb30a26dfdd550b3148a69c6", "type": "electric_scooter", "name": "ba4a9281eb30a26dfdd550b3148a69c6"}, {"is_disabled": 0, "is_reserved": 0, "fusion_lat": 0.0, "lat": 38.90509866666667, "fusion_lon": 0.0, "rental_uris": {"ios": "https://dc.lft.to/lastmile_qr_scan", "android": "https://dc.lft.to/lastmile_qr_scan"}, "lon": -76.952034, "bike_id": "23d9869e780ffce0e201363c2905e267", "type": "electric_scooter", "name": "23d9869e780ffce0e201363c2905e267"}, {"is_disabled": 0, "is_reserved": 0, "fusion_lat": 0.0, "lat": 38.8837155, "fusion_lon": 0.0, "rental_uris": {"ios": "https://dc.lft.to/lastmile_qr_scan", "android": "https://dc.lft.to/lastmile_qr_scan"}, "lon": -76.92417083333333, "bike_id": "38fa3cf46eb56519e7da79d85fc15168", "type": "electric_scooter", "name": "38fa3cf46eb56519e7da79d85fc15168"}, {"is_disabled": 0, "is_reserved": 0, "fusion_lat": 0.0, "lat": 38.9290165, "fusion_lon": 0.0, "rental_uris": {"ios": "https://dc.lft.to/lastmile_qr_scan", "android": "https://dc.lft.to/lastmile_qr_scan"}, "lon": -77.03267883333334, "bike_id": "4e00b026230bed0e1d51b5071f4e241a", "type": "electric_scooter", "name": "4e00b026230bed0e1d51b5071f4e241a"}, {"is_disabled": 0, "is_reserved": 0, "fusion_lat": 0.0, "lat": 38.9041515, "fusion_lon": 0.0, "rental_uris": {"ios": "https://dc.lft.to/lastmile_qr_scan", "android": "https://dc.lft.to/lastmile_qr_scan"}, "lon": -77.02434666666667, "bike_id": "b8bf1b71c816760c0684005222273f63", "type": "electric_scooter", "name": "b8bf1b71c816760c0684005222273f63"}, {"is_disabled": 0, "is_reserved": 0, "fusion_lat": 0.0, "lat": 38.914152333333334, "fusion_lon": 0.0, "rental_uris": {"ios": "https://dc.lft.to/lastmile_qr_scan", "android": "https://dc.lft.to/lastmile_qr_scan"}, "lon": -77.0316845, "bike_id": "1f1476af885cad8910b658810066fbaf", "type": "electric_scooter", "name": "1f1476af885cad8910b658810066fbaf"}, {"is_disabled": 0, "is_reserved": 0, "fusion_lat": 0.0, "lat": 38.88062716666666, "fusion_lon": 0.0, "rental_uris": {"ios": "https://dc.lft.to/lastmile_qr_scan", "android": "https://dc.lft.to/lastmile_qr_scan"}, "lon": -77.00577683333333, "bike_id": "02b9b13801fde55317292dea220473e4", "type": "electric_scooter", "name": "02b9b13801fde55317292dea220473e4"}, {"is_disabled": 0, "is_reserved": 0, "fusion_lat": 0.0, "lat": 38.8997135, "fusion_lon": 0.0, "rental_uris": {"ios": "https://dc.lft.to/lastmile_qr_scan", "android": "https://dc.lft.to/lastmile_qr_scan"}, "lon": -76.984712, "bike_id": "439e6b8de9c84cb82cf9fea0c1ac12a5", "type": "electric_scooter", "name": "439e6b8de9c84cb82cf9fea0c1ac12a5"}, {"is_disabled": 0, "is_reserved": 0, "fusion_lat": 0.0, "lat": 38.929134, "fusion_lon": 0.0, "rental_uris": {"ios": "https://dc.lft.to/lastmile_qr_scan", "android": "https://dc.lft.to/lastmile_qr_scan"}, "lon": -77.0209625, "bike_id": "f8cc98eb512a205d0648b991498a2689", "type": "electric_scooter", "name": "f8cc98eb512a205d0648b991498a2689"}, {"is_disabled": 0, "is_reserved": 0, "fusion_lat": 0.0, "lat": 38.89991066666666, "fusion_lon": 0.0, "rental_uris": {"ios": "https://dc.lft.to/lastmile_qr_scan", "android": "https://dc.lft.to/lastmile_qr_scan"}, "lon": -77.0211485, "bike_id": "65ea4f85bb479d65941845af0b9e20c8", "type": "electric_scooter", "name": "65ea4f85bb479d65941845af0b9e20c8"}, {"is_disabled": 0, "is_reserved": 0, "fusion_lat": 0.0, "lat": 38.91889033333333, "fusion_lon": 0.0, "rental_uris": {"ios": "https://dc.lft.to/lastmile_qr_scan", "android": "https://dc.lft.to/lastmile_qr_scan"}, "lon": -77.03549333333333, "bike_id": "5ee0f0b9e1b58731e131b7594cebe63d", "type": "electric_scooter", "name": "5ee0f0b9e1b58731e131b7594cebe63d"}, {"is_disabled": 0, "is_reserved": 0, "fusion_lat": 0.0, "lat": 38.935882, "fusion_lon": 0.0, "rental_uris": {"ios": "https://dc.lft.to/lastmile_qr_scan", "android": "https://dc.lft.to/lastmile_qr_scan"}, "lon": -77.07435183333334, "bike_id": "b546d92a58011319aa03f14872830277", "type": "electric_scooter", "name": "b546d92a58011319aa03f14872830277"}, {"is_disabled": 0, "is_reserved": 0, "fusion_lat": 0.0, "lat": 38.892477, "fusion_lon": 0.0, "rental_uris": {"ios": "https://dc.lft.to/lastmile_qr_scan", "android": "https://dc.lft.to/lastmile_qr_scan"}, "lon": -77.046603, "bike_id": "9b0a5480f77f8b08e882a4a3391a8826", "type": "electric_scooter", "name": "9b0a5480f77f8b08e882a4a3391a8826"}, {"is_disabled": 0, "is_reserved": 0, "fusion_lat": 0.0, "lat": 38.920340833333334, "fusion_lon": 0.0, "rental_uris": {"ios": "https://dc.lft.to/lastmile_qr_scan", "android": "https://dc.lft.to/lastmile_qr_scan"}, "lon": -77.03866133333334, "bike_id": "f37c219d97210be0fab8b4f97af30372", "type": "electric_scooter", "name": "f37c219d97210be0fab8b4f97af30372"}, {"is_disabled": 0, "is_reserved": 0, "fusion_lat": 0.0, "lat": 38.92971, "fusion_lon": 0.0, "rental_uris": {"ios": "https://dc.lft.to/lastmile_qr_scan", "android": "https://dc.lft.to/lastmile_qr_scan"}, "lon": -77.03090916666666, "bike_id": "9807617ad8a9d8033d8be568d655bbb6", "type": "electric_scooter", "name": "9807617ad8a9d8033d8be568d655bbb6"}, {"is_disabled": 0, "is_reserved": 0, "fusion_lat": 0.0, "lat": 38.91805333333333, "fusion_lon": 0.0, "rental_uris": {"ios": "https://dc.lft.to/lastmile_qr_scan", "android": "https://dc.lft.to/lastmile_qr_scan"}, "lon": -77.02491783333333, "bike_id": "c313c8e300930ff51016820b62789c4a", "type": "electric_scooter", "name": "c313c8e300930ff51016820b62789c4a"}, {"is_disabled": 0, "is_reserved": 0, "fusion_lat": 0.0, "lat": 38.8764215, "fusion_lon": 0.0, "rental_uris": {"ios": "https://dc.lft.to/lastmile_qr_scan", "android": "https://dc.lft.to/lastmile_qr_scan"}, "lon": -77.00742216666667, "bike_id": "0a4a4a030d4d46915c208732d05f4e42", "type": "electric_scooter", "name": "0a4a4a030d4d46915c208732d05f4e42"}, {"is_disabled": 0, "is_reserved": 0, "fusion_lat": 0.0, "lat": 38.905555166666666, "fusion_lon": 0.0, "rental_uris": {"ios": "https://dc.lft.to/lastmile_qr_scan", "android": "https://dc.lft.to/lastmile_qr_scan"}, "lon": -77.048715, "bike_id": "a18b9b8a275d7a464e5f4feac7efc92d", "type": "electric_scooter", "name": "a18b9b8a275d7a464e5f4feac7efc92d"}, {"is_disabled": 0, "is_reserved": 0, "fusion_lat": 0.0, "lat": 38.89340716666667, "fusion_lon": 0.0, "rental_uris": {"ios": "https://dc.lft.to/lastmile_qr_scan", "android": "https://dc.lft.to/lastmile_qr_scan"}, "lon": -76.985635, "bike_id": "b04e4de9943cd1fd66e01a2f43d1f50e", "type": "electric_scooter", "name": "b04e4de9943cd1fd66e01a2f43d1f50e"}, {"is_disabled": 0, "is_reserved": 0, "fusion_lat": 0.0, "lat": 38.90127733333333, "fusion_lon": 0.0, "rental_uris": {"ios": "https://dc.lft.to/lastmile_qr_scan", "android": "https://dc.lft.to/lastmile_qr_scan"}, "lon": -77.03646566666667, "bike_id": "17f1e974ea1b1de91b8878336f4ff5cc", "type": "electric_scooter", "name": "17f1e974ea1b1de91b8878336f4ff5cc"}, {"is_disabled": 0, "is_reserved": 0, "fusion_lat": 0.0, "lat": 38.901730666666666, "fusion_lon": 0.0, "rental_uris": {"ios": "https://dc.lft.to/lastmile_qr_scan", "android": "https://dc.lft.to/lastmile_qr_scan"}, "lon": -77.002181, "bike_id": "4e5104c8f9f9af0f3546fcc8113a4c86", "type": "electric_scooter", "name": "4e5104c8f9f9af0f3546fcc8113a4c86"}, {"is_disabled": 0, "is_reserved": 0, "fusion_lat": 0.0, "lat": 38.899370166666664, "fusion_lon": 0.0, "rental_uris": {"ios": "https://dc.lft.to/lastmile_qr_scan", "android": "https://dc.lft.to/lastmile_qr_scan"}, "lon": -76.93771016666666, "bike_id": "e299022b4aa147972ecf4bf69d83a7ad", "type": "electric_scooter", "name": "e299022b4aa147972ecf4bf69d83a7ad"}, {"is_disabled": 0, "is_reserved": 0, "fusion_lat": 0.0, "lat": 38.880077166666666, "fusion_lon": 0.0, "rental_uris": {"ios": "https://dc.lft.to/lastmile_qr_scan", "android": "https://dc.lft.to/lastmile_qr_scan"}, "lon": -76.998358, "bike_id": "345f3b7e0389f46a1402c7625f135d18", "type": "electric_scooter", "name": "345f3b7e0389f46a1402c7625f135d18"}, {"is_disabled": 0, "is_reserved": 0, "fusion_lat": 0.0, "lat": 38.901837666666665, "fusion_lon": 0.0, "rental_uris": {"ios": "https://dc.lft.to/lastmile_qr_scan", "android": "https://dc.lft.to/lastmile_qr_scan"}, "lon": -76.97672116666666, "bike_id": "dbb3f205d791347ddfc8c5071cf00025", "type": "electric_scooter", "name": "dbb3f205d791347ddfc8c5071cf00025"}, {"is_disabled": 0, "is_reserved": 0, "fusion_lat": 0.0, "lat": 38.9103885, "fusion_lon": 0.0, "rental_uris": {"ios": "https://dc.lft.to/lastmile_qr_scan", "android": "https://dc.lft.to/lastmile_qr_scan"}, "lon": -76.93834933333333, "bike_id": "a23c461af9af1c725289a0bc8da5b1dd", "type": "electric_scooter", "name": "a23c461af9af1c725289a0bc8da5b1dd"}, {"is_disabled": 0, "is_reserved": 0, "fusion_lat": 0.0, "lat": 39.034763, "fusion_lon": 0.0, "rental_uris": {"ios": "https://dc.lft.to/lastmile_qr_scan", "android": "https://dc.lft.to/lastmile_qr_scan"}, "lon": -77.041084, "bike_id": "fce66141ce26dc2d9cb6ab7fc54b3c35", "type": "electric_bike", "name": "fce66141ce26dc2d9cb6ab7fc54b3c35"}, {"is_disabled": 0, "is_reserved": 0, "fusion_lat": 0.0, "lat": 38.93024916666667, "fusion_lon": 0.0, "rental_uris": {"ios": "https://dc.lft.to/lastmile_qr_scan", "android": "https://dc.lft.to/lastmile_qr_scan"}, "lon": -77.0199875, "bike_id": "5c0edb3903058540f28c12f0e6860926", "type": "electric_scooter", "name": "5c0edb3903058540f28c12f0e6860926"}, {"is_disabled": 0, "is_reserved": 0, "fusion_lat": 0.0, "lat": 38.899069833333336, "fusion_lon": 0.0, "rental_uris": {"ios": "https://dc.lft.to/lastmile_qr_scan", "android": "https://dc.lft.to/lastmile_qr_scan"}, "lon": -76.98038333333334, "bike_id": "1f3eb0b0eed932adb510a2f9e70b2290", "type": "electric_scooter", "name": "1f3eb0b0eed932adb510a2f9e70b2290"}, {"is_disabled": 0, "is_reserved": 0, "fusion_lat": 0.0, "lat": 38.91608816666667, "fusion_lon": 0.0, "rental_uris": {"ios": "https://dc.lft.to/lastmile_qr_scan", "android": "https://dc.lft.to/lastmile_qr_scan"}, "lon": -77.02110416666666, "bike_id": "c26056239b4d676f46425e255f2d3894", "type": "electric_scooter", "name": "c26056239b4d676f46425e255f2d3894"}, {"is_disabled": 0, "is_reserved": 0, "fusion_lat": 0.0, "lat": 38.95597883333333, "fusion_lon": 0.0, "rental_uris": {"ios": "https://dc.lft.to/lastmile_qr_scan", "android": "https://dc.lft.to/lastmile_qr_scan"}, "lon": -77.01011366666667, "bike_id": "dd51de3b6078852ae8268b74ae836150", "type": "electric_bike", "name": "dd51de3b6078852ae8268b74ae836150"}, {"is_disabled": 0, "is_reserved": 0, "fusion_lat": 0.0, "lat": 38.876868333333334, "fusion_lon": 0.0, "rental_uris": {"ios": "https://dc.lft.to/lastmile_qr_scan", "android": "https://dc.lft.to/lastmile_qr_scan"}, "lon": -77.0075445, "bike_id": "2cc5d71a320c52f00c35cb6e4dd76dda", "type": "electric_scooter", "name": "2cc5d71a320c52f00c35cb6e4dd76dda"}, {"is_disabled": 0, "is_reserved": 0, "fusion_lat": 0.0, "lat": 38.82034266666667, "fusion_lon": 0.0, "rental_uris": {"ios": "https://dc.lft.to/lastmile_qr_scan", "android": "https://dc.lft.to/lastmile_qr_scan"}, "lon": -77.05450583333334, "bike_id": "e8e439af053120c92f3734ad8284fb77", "type": "electric_bike", "name": "e8e439af053120c92f3734ad8284fb77"}, {"is_disabled": 0, "is_reserved": 0, "fusion_lat": 0.0, "lat": 38.898498333333336, "fusion_lon": 0.0, "rental_uris": {"ios": "https://dc.lft.to/lastmile_qr_scan", "android": "https://dc.lft.to/lastmile_qr_scan"}, "lon": -77.02868883333333, "bike_id": "3a6288519a125d14b880af40e90c7ef0", "type": "electric_scooter", "name": "3a6288519a125d14b880af40e90c7ef0"}, {"is_disabled": 0, "is_reserved": 0, "fusion_lat": 0.0, "lat": 38.94680683333333, "fusion_lon": 0.0, "rental_uris": {"ios": "https://dc.lft.to/lastmile_qr_scan", "android": "https://dc.lft.to/lastmile_qr_scan"}, "lon": -77.032792, "bike_id": "32a145bc708445c994b907dd23953e39", "type": "electric_scooter", "name": "32a145bc708445c994b907dd23953e39"}, {"is_disabled": 0, "is_reserved": 0, "fusion_lat": 0.0, "lat": 38.894914166666666, "fusion_lon": 0.0, "rental_uris": {"ios": "https://dc.lft.to/lastmile_qr_scan", "android": "https://dc.lft.to/lastmile_qr_scan"}, "lon": -77.00049216666666, "bike_id": "1a01657f1d7d4efb7c859019b98226cb", "type": "electric_bike", "name": "1a01657f1d7d4efb7c859019b98226cb"}, {"is_disabled": 0, "is_reserved": 0, "fusion_lat": 0.0, "lat": 38.892228833333334, "fusion_lon": 0.0, "rental_uris": {"ios": "https://dc.lft.to/lastmile_qr_scan", "android": "https://dc.lft.to/lastmile_qr_scan"}, "lon": -77.04460516666667, "bike_id": "a175e66a278bcc80291314e3de1e0298", "type": "electric_scooter", "name": "a175e66a278bcc80291314e3de1e0298"}, {"is_disabled": 0, "is_reserved": 0, "fusion_lat": 0.0, "lat": 38.91356716666667, "fusion_lon": 0.0, "rental_uris": {"ios": "https://dc.lft.to/lastmile_qr_scan", "android": "https://dc.lft.to/lastmile_qr_scan"}, "lon": -77.0366085, "bike_id": "6b924efa29135ef9d1f4a20804f6b924", "type": "electric_scooter", "name": "6b924efa29135ef9d1f4a20804f6b924"}, {"is_disabled": 0, "is_reserved": 0, "fusion_lat": 0.0, "lat": 38.921541, "fusion_lon": 0.0, "rental_uris": {"ios": "https://dc.lft.to/lastmile_qr_scan", "android": "https://dc.lft.to/lastmile_qr_scan"}, "lon": -77.03385633333333, "bike_id": "4dadcd2540ce605c81a730a5965ec3af", "type": "electric_scooter", "name": "4dadcd2540ce605c81a730a5965ec3af"}, {"is_disabled": 0, "is_reserved": 0, "fusion_lat": 0.0, "lat": 38.949199166666666, "fusion_lon": 0.0, "rental_uris": {"ios": "https://dc.lft.to/lastmile_qr_scan", "android": "https://dc.lft.to/lastmile_qr_scan"}, "lon": -77.007922, "bike_id": "f612ffdf2288ec3770b7960305db5b07", "type": "electric_bike", "name": "f612ffdf2288ec3770b7960305db5b07"}, {"is_disabled": 0, "is_reserved": 0, "fusion_lat": 0.0, "lat": 38.91707566666667, "fusion_lon": 0.0, "rental_uris": {"ios": "https://dc.lft.to/lastmile_qr_scan", "android": "https://dc.lft.to/lastmile_qr_scan"}, "lon": -77.02488283333334, "bike_id": "5c637f983680b400e695cfa9396ac38a", "type": "electric_scooter", "name": "5c637f983680b400e695cfa9396ac38a"}, {"is_disabled": 0, "is_reserved": 0, "fusion_lat": 0.0, "lat": 38.884478666666666, "fusion_lon": 0.0, "rental_uris": {"ios": "https://dc.lft.to/lastmile_qr_scan", "android": "https://dc.lft.to/lastmile_qr_scan"}, "lon": -76.95097633333333, "bike_id": "8c5bad72a7bb636d82506d86b579c2e4", "type": "electric_scooter", "name": "8c5bad72a7bb636d82506d86b579c2e4"}, {"is_disabled": 0, "is_reserved": 0, "fusion_lat": 0.0, "lat": 38.881398833333336, "fusion_lon": 0.0, "rental_uris": {"ios": "https://dc.lft.to/lastmile_qr_scan", "android": "https://dc.lft.to/lastmile_qr_scan"}, "lon": -77.022721, "bike_id": "1cbce46d9724777d71ccf56a98adf0d2", "type": "electric_scooter", "name": "1cbce46d9724777d71ccf56a98adf0d2"}, {"is_disabled": 0, "is_reserved": 0, "fusion_lat": 0.0, "lat": 38.92338383333333, "fusion_lon": 0.0, "rental_uris": {"ios": "https://dc.lft.to/lastmile_qr_scan", "android": "https://dc.lft.to/lastmile_qr_scan"}, "lon": -76.98489000000001, "bike_id": "dba5ff59630a10f3dff238dc73dea043", "type": "electric_scooter", "name": "dba5ff59630a10f3dff238dc73dea043"}, {"is_disabled": 0, "is_reserved": 0, "fusion_lat": 0.0, "lat": 38.93143466666667, "fusion_lon": 0.0, "rental_uris": {"ios": "https://dc.lft.to/lastmile_qr_scan", "android": "https://dc.lft.to/lastmile_qr_scan"}, "lon": -77.02985616666666, "bike_id": "9e5d5222256908b0eac3d63cab6daab8", "type": "electric_scooter", "name": "9e5d5222256908b0eac3d63cab6daab8"}, {"is_disabled": 0, "is_reserved": 0, "fusion_lat": 0.0, "lat": 38.904085333333335, "fusion_lon": 0.0, "rental_uris": {"ios": "https://dc.lft.to/lastmile_qr_scan", "android": "https://dc.lft.to/lastmile_qr_scan"}, "lon": -77.02389316666667, "bike_id": "a91660e488c5ba4f319f0c43a6b212a8", "type": "electric_scooter", "name": "a91660e488c5ba4f319f0c43a6b212a8"}, {"is_disabled": 0, "is_reserved": 0, "fusion_lat": 0.0, "lat": 38.868146, "fusion_lon": 0.0, "rental_uris": {"ios": "https://dc.lft.to/lastmile_qr_scan", "android": "https://dc.lft.to/lastmile_qr_scan"}, "lon": -76.9801855, "bike_id": "efe1891d4b0bc6f653aac9cdb7d46ea1", "type": "electric_bike", "name": "efe1891d4b0bc6f653aac9cdb7d46ea1"}, {"is_disabled": 0, "is_reserved": 0, "fusion_lat": 0.0, "lat": 38.94730283333333, "fusion_lon": 0.0, "rental_uris": {"ios": "https://dc.lft.to/lastmile_qr_scan", "android": "https://dc.lft.to/lastmile_qr_scan"}, "lon": -77.01940783333333, "bike_id": "618a5cff040eab0b5b6b0c0434091063", "type": "electric_scooter", "name": "618a5cff040eab0b5b6b0c0434091063"}, {"is_disabled": 0, "is_reserved": 0, "fusion_lat": 0.0, "lat": 38.90484716666667, "fusion_lon": 0.0, "rental_uris": {"ios": "https://dc.lft.to/lastmile_qr_scan", "android": "https://dc.lft.to/lastmile_qr_scan"}, "lon": -77.043444, "bike_id": "0c280993670129c605a75247a908dfe2", "type": "electric_scooter", "name": "0c280993670129c605a75247a908dfe2"}, {"is_disabled": 0, "is_reserved": 0, "fusion_lat": 0.0, "lat": 38.89668016666667, "fusion_lon": 0.0, "rental_uris": {"ios": "https://dc.lft.to/lastmile_qr_scan", "android": "https://dc.lft.to/lastmile_qr_scan"}, "lon": -76.93212516666667, "bike_id": "89798742c71c64132b75ffaf6a912eea", "type": "electric_scooter", "name": "89798742c71c64132b75ffaf6a912eea"}, {"is_disabled": 0, "is_reserved": 0, "fusion_lat": 0.0, "lat": 38.876507, "fusion_lon": 0.0, "rental_uris": {"ios": "https://dc.lft.to/lastmile_qr_scan", "android": "https://dc.lft.to/lastmile_qr_scan"}, "lon": -77.01580833333334, "bike_id": "0dc581ded324b02b49188ea24a7d5f6f", "type": "electric_scooter", "name": "0dc581ded324b02b49188ea24a7d5f6f"}, {"is_disabled": 0, "is_reserved": 0, "fusion_lat": 0.0, "lat": 38.886222, "fusion_lon": 0.0, "rental_uris": {"ios": "https://dc.lft.to/lastmile_qr_scan", "android": "https://dc.lft.to/lastmile_qr_scan"}, "lon": -77.0283315, "bike_id": "5164f470e618cf2c4d9845fed2e8cddc", "type": "electric_scooter", "name": "5164f470e618cf2c4d9845fed2e8cddc"}, {"is_disabled": 0, "is_reserved": 0, "fusion_lat": 0.0, "lat": 38.9018235, "fusion_lon": 0.0, "rental_uris": {"ios": "https://dc.lft.to/lastmile_qr_scan", "android": "https://dc.lft.to/lastmile_qr_scan"}, "lon": -76.999597, "bike_id": "6c5f684843b02ed6a1ae316a7eef1ff6", "type": "electric_scooter", "name": "6c5f684843b02ed6a1ae316a7eef1ff6"}, {"is_disabled": 0, "is_reserved": 0, "fusion_lat": 0.0, "lat": 38.84815233333333, "fusion_lon": 0.0, "rental_uris": {"ios": "https://dc.lft.to/lastmile_qr_scan", "android": "https://dc.lft.to/lastmile_qr_scan"}, "lon": -77.08412666666666, "bike_id": "cd9a2da62c0079beb403ae272bfd064f", "type": "electric_bike", "name": "cd9a2da62c0079beb403ae272bfd064f"}, {"is_disabled": 0, "is_reserved": 0, "fusion_lat": 0.0, "lat": 38.9018455, "fusion_lon": 0.0, "rental_uris": {"ios": "https://dc.lft.to/lastmile_qr_scan", "android": "https://dc.lft.to/lastmile_qr_scan"}, "lon": -76.9996175, "bike_id": "19a795ea06d71047f038ae8c8f70543f", "type": "electric_scooter", "name": "19a795ea06d71047f038ae8c8f70543f"}, {"is_disabled": 0, "is_reserved": 0, "fusion_lat": 0.0, "lat": 38.937532166666664, "fusion_lon": 0.0, "rental_uris": {"ios": "https://dc.lft.to/lastmile_qr_scan", "android": "https://dc.lft.to/lastmile_qr_scan"}, "lon": -77.03431266666666, "bike_id": "ebf529021f556a11592f3e396288b56f", "type": "electric_scooter", "name": "ebf529021f556a11592f3e396288b56f"}, {"is_disabled": 0, "is_reserved": 0, "fusion_lat": 0.0, "lat": 38.901736, "fusion_lon": 0.0, "rental_uris": {"ios": "https://dc.lft.to/lastmile_qr_scan", "android": "https://dc.lft.to/lastmile_qr_scan"}, "lon": -77.00195616666667, "bike_id": "c28a1550de2d628da4d0f210eab84a1f", "type": "electric_scooter", "name": "c28a1550de2d628da4d0f210eab84a1f"}, {"is_disabled": 0, "is_reserved": 0, "fusion_lat": 0.0, "lat": 38.906977, "fusion_lon": 0.0, "rental_uris": {"ios": "https://dc.lft.to/lastmile_qr_scan", "android": "https://dc.lft.to/lastmile_qr_scan"}, "lon": -76.9994675, "bike_id": "c33f2925c760f6929b16b771c4ae9604", "type": "electric_scooter", "name": "c33f2925c760f6929b16b771c4ae9604"}, {"is_disabled": 0, "is_reserved": 0, "fusion_lat": 0.0, "lat": 38.904523, "fusion_lon": 0.0, "rental_uris": {"ios": "https://dc.lft.to/lastmile_qr_scan", "android": "https://dc.lft.to/lastmile_qr_scan"}, "lon": -77.0651115, "bike_id": "6a69816732f9216ad310292a9e9e23d0", "type": "electric_scooter", "name": "6a69816732f9216ad310292a9e9e23d0"}, {"is_disabled": 0, "is_reserved": 0, "fusion_lat": 0.0, "lat": 38.902649833333335, "fusion_lon": 0.0, "rental_uris": {"ios": "https://dc.lft.to/lastmile_qr_scan", "android": "https://dc.lft.to/lastmile_qr_scan"}, "lon": -77.05908566666666, "bike_id": "06242212e50c3b1173be68a52286abd0", "type": "electric_scooter", "name": "06242212e50c3b1173be68a52286abd0"}, {"is_disabled": 0, "is_reserved": 0, "fusion_lat": 0.0, "lat": 38.876949333333336, "fusion_lon": 0.0, "rental_uris": {"ios": "https://dc.lft.to/lastmile_qr_scan", "android": "https://dc.lft.to/lastmile_qr_scan"}, "lon": -76.99620933333334, "bike_id": "c5698dcc1be174a440ff3a17dca006cf", "type": "electric_scooter", "name": "c5698dcc1be174a440ff3a17dca006cf"}, {"is_disabled": 0, "is_reserved": 0, "fusion_lat": 0.0, "lat": 38.89853383333333, "fusion_lon": 0.0, "rental_uris": {"ios": "https://dc.lft.to/lastmile_qr_scan", "android": "https://dc.lft.to/lastmile_qr_scan"}, "lon": -77.02284516666667, "bike_id": "17f187f90ac965f1535af25f3ce2d67f", "type": "electric_scooter", "name": "17f187f90ac965f1535af25f3ce2d67f"}, {"is_disabled": 0, "is_reserved": 0, "fusion_lat": 0.0, "lat": 38.938752666666666, "fusion_lon": 0.0, "rental_uris": {"ios": "https://dc.lft.to/lastmile_qr_scan", "android": "https://dc.lft.to/lastmile_qr_scan"}, "lon": -77.02912683333334, "bike_id": "ae376ad44f2fe1b81af813d4bc5f6dc1", "type": "electric_scooter", "name": "ae376ad44f2fe1b81af813d4bc5f6dc1"}, {"is_disabled": 0, "is_reserved": 0, "fusion_lat": 0.0, "lat": 38.94709566666667, "fusion_lon": 0.0, "rental_uris": {"ios": "https://dc.lft.to/lastmile_qr_scan", "android": "https://dc.lft.to/lastmile_qr_scan"}, "lon": -77.02616783333333, "bike_id": "ed0b25a22e7d2e738d93475db525038f", "type": "electric_scooter", "name": "ed0b25a22e7d2e738d93475db525038f"}, {"is_disabled": 0, "is_reserved": 0, "fusion_lat": 0.0, "lat": 38.84474566666667, "fusion_lon": 0.0, "rental_uris": {"ios": "https://dc.lft.to/lastmile_qr_scan", "android": "https://dc.lft.to/lastmile_qr_scan"}, "lon": -76.99597633333333, "bike_id": "eafeb4f553c134105f03318105e2e618", "type": "electric_bike", "name": "eafeb4f553c134105f03318105e2e618"}, {"is_disabled": 0, "is_reserved": 0, "fusion_lat": 0.0, "lat": 38.87444083333333, "fusion_lon": 0.0, "rental_uris": {"ios": "https://dc.lft.to/lastmile_qr_scan", "android": "https://dc.lft.to/lastmile_qr_scan"}, "lon": -77.002944, "bike_id": "e74b3f4c03ab6aa9045d0acf717100e1", "type": "electric_scooter", "name": "e74b3f4c03ab6aa9045d0acf717100e1"}, {"is_disabled": 0, "is_reserved": 0, "fusion_lat": 0.0, "lat": 38.911126, "fusion_lon": 0.0, "rental_uris": {"ios": "https://dc.lft.to/lastmile_qr_scan", "android": "https://dc.lft.to/lastmile_qr_scan"}, "lon": -76.99760266666667, "bike_id": "897a997f8dd97856f735cd9520cb9c98", "type": "electric_scooter", "name": "897a997f8dd97856f735cd9520cb9c98"}, {"is_disabled": 0, "is_reserved": 0, "fusion_lat": 0.0, "lat": 38.96775233333334, "fusion_lon": 0.0, "rental_uris": {"ios": "https://dc.lft.to/lastmile_qr_scan", "android": "https://dc.lft.to/lastmile_qr_scan"}, "lon": -76.99656433333334, "bike_id": "fe4ba9e368adc70cedd141fa3785e38e", "type": "electric_bike", "name": "fe4ba9e368adc70cedd141fa3785e38e"}, {"is_disabled": 0, "is_reserved": 0, "fusion_lat": 0.0, "lat": 38.90503316666667, "fusion_lon": 0.0, "rental_uris": {"ios": "https://dc.lft.to/lastmile_qr_scan", "android": "https://dc.lft.to/lastmile_qr_scan"}, "lon": -77.0611515, "bike_id": "8cd7741e8511287b4272745bfade5177", "type": "electric_scooter", "name": "8cd7741e8511287b4272745bfade5177"}, {"is_disabled": 0, "is_reserved": 0, "fusion_lat": 0.0, "lat": 38.88699416666667, "fusion_lon": 0.0, "rental_uris": {"ios": "https://dc.lft.to/lastmile_qr_scan", "android": "https://dc.lft.to/lastmile_qr_scan"}, "lon": -77.00056666666667, "bike_id": "560ff474305c81dec7449e8466f08507", "type": "electric_scooter", "name": "560ff474305c81dec7449e8466f08507"}, {"is_disabled": 0, "is_reserved": 0, "fusion_lat": 0.0, "lat": 38.879394166666664, "fusion_lon": 0.0, "rental_uris": {"ios": "https://dc.lft.to/lastmile_qr_scan", "android": "https://dc.lft.to/lastmile_qr_scan"}, "lon": -77.01262216666667, "bike_id": "2364b233c98bb179ba09bc54baa5060d", "type": "electric_scooter", "name": "2364b233c98bb179ba09bc54baa5060d"}, {"is_disabled": 0, "is_reserved": 0, "fusion_lat": 0.0, "lat": 38.93160233333333, "fusion_lon": 0.0, "rental_uris": {"ios": "https://dc.lft.to/lastmile_qr_scan", "android": "https://dc.lft.to/lastmile_qr_scan"}, "lon": -77.0380135, "bike_id": "d32936ee5c20f4ac9eec2de036a6c79c", "type": "electric_bike", "name": "d32936ee5c20f4ac9eec2de036a6c79c"}, {"is_disabled": 0, "is_reserved": 0, "fusion_lat": 0.0, "lat": 38.89984116666667, "fusion_lon": 0.0, "rental_uris": {"ios": "https://dc.lft.to/lastmile_qr_scan", "android": "https://dc.lft.to/lastmile_qr_scan"}, "lon": -77.02069616666667, "bike_id": "85e73287fa32d44f535d3d9e047bc879", "type": "electric_scooter", "name": "85e73287fa32d44f535d3d9e047bc879"}, {"is_disabled": 0, "is_reserved": 0, "fusion_lat": 0.0, "lat": 38.9014095, "fusion_lon": 0.0, "rental_uris": {"ios": "https://dc.lft.to/lastmile_qr_scan", "android": "https://dc.lft.to/lastmile_qr_scan"}, "lon": -77.03380783333333, "bike_id": "64a14275514ccd845978abb9a41af7a0", "type": "electric_scooter", "name": "64a14275514ccd845978abb9a41af7a0"}, {"is_disabled": 0, "is_reserved": 0, "fusion_lat": 0.0, "lat": 38.92937216666667, "fusion_lon": 0.0, "rental_uris": {"ios": "https://dc.lft.to/lastmile_qr_scan", "android": "https://dc.lft.to/lastmile_qr_scan"}, "lon": -77.03263616666666, "bike_id": "19b9c5d06fae2af7511bb370ccd63354", "type": "electric_scooter", "name": "19b9c5d06fae2af7511bb370ccd63354"}, {"is_disabled": 0, "is_reserved": 0, "fusion_lat": 0.0, "lat": 38.91359083333333, "fusion_lon": 0.0, "rental_uris": {"ios": "https://dc.lft.to/lastmile_qr_scan", "android": "https://dc.lft.to/lastmile_qr_scan"}, "lon": -77.04657333333333, "bike_id": "81880a58036b5f37ddca20cd2f6e8d0c", "type": "electric_scooter", "name": "81880a58036b5f37ddca20cd2f6e8d0c"}, {"is_disabled": 0, "is_reserved": 0, "fusion_lat": 0.0, "lat": 38.8946755, "fusion_lon": 0.0, "rental_uris": {"ios": "https://dc.lft.to/lastmile_qr_scan", "android": "https://dc.lft.to/lastmile_qr_scan"}, "lon": -77.0109955, "bike_id": "bd40b09bb5caa13a01de90820943adfa", "type": "electric_scooter", "name": "bd40b09bb5caa13a01de90820943adfa"}, {"is_disabled": 0, "is_reserved": 0, "fusion_lat": 0.0, "lat": 38.93537116666667, "fusion_lon": 0.0, "rental_uris": {"ios": "https://dc.lft.to/lastmile_qr_scan", "android": "https://dc.lft.to/lastmile_qr_scan"}, "lon": -77.05442033333334, "bike_id": "c87234868739d5d505b62015efc0843c", "type": "electric_scooter", "name": "c87234868739d5d505b62015efc0843c"}, {"is_disabled": 0, "is_reserved": 0, "fusion_lat": 0.0, "lat": 38.944457, "fusion_lon": 0.0, "rental_uris": {"ios": "https://dc.lft.to/lastmile_qr_scan", "android": "https://dc.lft.to/lastmile_qr_scan"}, "lon": -77.02910333333334, "bike_id": "d417f8a24ad48a90bfebf36c44c1b01d", "type": "electric_scooter", "name": "d417f8a24ad48a90bfebf36c44c1b01d"}, {"is_disabled": 0, "is_reserved": 0, "fusion_lat": 0.0, "lat": 38.92336316666667, "fusion_lon": 0.0, "rental_uris": {"ios": "https://dc.lft.to/lastmile_qr_scan", "android": "https://dc.lft.to/lastmile_qr_scan"}, "lon": -76.99873416666667, "bike_id": "76253000d7eb573152129834aacc22f0", "type": "electric_scooter", "name": "76253000d7eb573152129834aacc22f0"}, {"is_disabled": 0, "is_reserved": 0, "fusion_lat": 0.0, "lat": 38.8816145, "fusion_lon": 0.0, "rental_uris": {"ios": "https://dc.lft.to/lastmile_qr_scan", "android": "https://dc.lft.to/lastmile_qr_scan"}, "lon": -77.00915216666667, "bike_id": "7730e183c9c97f0560b057dbfb1ac09e", "type": "electric_scooter", "name": "7730e183c9c97f0560b057dbfb1ac09e"}, {"is_disabled": 0, "is_reserved": 0, "fusion_lat": 0.0, "lat": 38.88386966666667, "fusion_lon": 0.0, "rental_uris": {"ios": "https://dc.lft.to/lastmile_qr_scan", "android": "https://dc.lft.to/lastmile_qr_scan"}, "lon": -76.98522866666667, "bike_id": "9f36314816ecc80b51ba8d8b5684acf6", "type": "electric_scooter", "name": "9f36314816ecc80b51ba8d8b5684acf6"}, {"is_disabled": 0, "is_reserved": 0, "fusion_lat": 0.0, "lat": 38.89863283333333, "fusion_lon": 0.0, "rental_uris": {"ios": "https://dc.lft.to/lastmile_qr_scan", "android": "https://dc.lft.to/lastmile_qr_scan"}, "lon": -76.98542733333333, "bike_id": "4bb78ac7ccc9f6cbdc37f0cbea866499", "type": "electric_scooter", "name": "4bb78ac7ccc9f6cbdc37f0cbea866499"}, {"is_disabled": 0, "is_reserved": 0, "fusion_lat": 0.0, "lat": 38.883576166666664, "fusion_lon": 0.0, "rental_uris": {"ios": "https://dc.lft.to/lastmile_qr_scan", "android": "https://dc.lft.to/lastmile_qr_scan"}, "lon": -76.99502266666667, "bike_id": "4db5395a4dd89506a5e4a2cf56a5f286", "type": "electric_scooter", "name": "4db5395a4dd89506a5e4a2cf56a5f286"}, {"is_disabled": 0, "is_reserved": 0, "fusion_lat": 0.0, "lat": 38.86268183333333, "fusion_lon": 0.0, "rental_uris": {"ios": "https://dc.lft.to/lastmile_qr_scan", "android": "https://dc.lft.to/lastmile_qr_scan"}, "lon": -76.98349333333333, "bike_id": "f81bc90527234c6f940e94eb605769da", "type": "electric_bike", "name": "f81bc90527234c6f940e94eb605769da"}, {"is_disabled": 0, "is_reserved": 0, "fusion_lat": 0.0, "lat": 38.87469933333333, "fusion_lon": 0.0, "rental_uris": {"ios": "https://dc.lft.to/lastmile_qr_scan", "android": "https://dc.lft.to/lastmile_qr_scan"}, "lon": -77.00517383333333, "bike_id": "d9f25f3a4a6a34b537ea21a81108a694", "type": "electric_scooter", "name": "d9f25f3a4a6a34b537ea21a81108a694"}, {"is_disabled": 0, "is_reserved": 0, "fusion_lat": 0.0, "lat": 38.9020805, "fusion_lon": 0.0, "rental_uris": {"ios": "https://dc.lft.to/lastmile_qr_scan", "android": "https://dc.lft.to/lastmile_qr_scan"}, "lon": -77.00059566666667, "bike_id": "8726dc057c435bf7459a025a744f36c1", "type": "electric_scooter", "name": "8726dc057c435bf7459a025a744f36c1"}, {"is_disabled": 0, "is_reserved": 0, "fusion_lat": 0.0, "lat": 38.909625, "fusion_lon": 0.0, "rental_uris": {"ios": "https://dc.lft.to/lastmile_qr_scan", "android": "https://dc.lft.to/lastmile_qr_scan"}, "lon": -77.02373966666667, "bike_id": "abb8a8d48b6fc914b04edb9fc2a048d0", "type": "electric_scooter", "name": "abb8a8d48b6fc914b04edb9fc2a048d0"}, {"is_disabled": 0, "is_reserved": 0, "fusion_lat": 0.0, "lat": 38.9177505, "fusion_lon": 0.0, "rental_uris": {"ios": "https://dc.lft.to/lastmile_qr_scan", "android": "https://dc.lft.to/lastmile_qr_scan"}, "lon": -77.02411133333334, "bike_id": "d3e2095891ffc5e588da1d17d5628bc5", "type": "electric_scooter", "name": "d3e2095891ffc5e588da1d17d5628bc5"}, {"is_disabled": 0, "is_reserved": 0, "fusion_lat": 0.0, "lat": 38.926652, "fusion_lon": 0.0, "rental_uris": {"ios": "https://dc.lft.to/lastmile_qr_scan", "android": "https://dc.lft.to/lastmile_qr_scan"}, "lon": -76.99555333333333, "bike_id": "f50c23733b7368b23ba39501a7d71643", "type": "electric_scooter", "name": "f50c23733b7368b23ba39501a7d71643"}, {"is_disabled": 0, "is_reserved": 0, "fusion_lat": 0.0, "lat": 38.901419, "fusion_lon": 0.0, "rental_uris": {"ios": "https://dc.lft.to/lastmile_qr_scan", "android": "https://dc.lft.to/lastmile_qr_scan"}, "lon": -77.0446805, "bike_id": "589e515eb397d18c7497e92c7fec7afc", "type": "electric_scooter", "name": "589e515eb397d18c7497e92c7fec7afc"}, {"is_disabled": 0, "is_reserved": 0, "fusion_lat": 0.0, "lat": 38.892293333333335, "fusion_lon": 0.0, "rental_uris": {"ios": "https://dc.lft.to/lastmile_qr_scan", "android": "https://dc.lft.to/lastmile_qr_scan"}, "lon": -77.049998, "bike_id": "ffe0f51deeaab39690cf93767887a084", "type": "electric_scooter", "name": "ffe0f51deeaab39690cf93767887a084"}, {"is_disabled": 0, "is_reserved": 0, "fusion_lat": 0.0, "lat": 38.80978416666667, "fusion_lon": 0.0, "rental_uris": {"ios": "https://dc.lft.to/lastmile_qr_scan", "android": "https://dc.lft.to/lastmile_qr_scan"}, "lon": -77.07662166666667, "bike_id": "8bf3514bd3ba4fe7e95fc1cf8320d3bd", "type": "electric_bike", "name": "8bf3514bd3ba4fe7e95fc1cf8320d3bd"}, {"is_disabled": 0, "is_reserved": 0, "fusion_lat": 0.0, "lat": 38.924146666666665, "fusion_lon": 0.0, "rental_uris": {"ios": "https://dc.lft.to/lastmile_qr_scan", "android": "https://dc.lft.to/lastmile_qr_scan"}, "lon": -77.020309, "bike_id": "8df0fa7dccfd91b3f7e2ab8fbc0423ad", "type": "electric_scooter", "name": "8df0fa7dccfd91b3f7e2ab8fbc0423ad"}, {"is_disabled": 0, "is_reserved": 0, "fusion_lat": 0.0, "lat": 38.91414666666667, "fusion_lon": 0.0, "rental_uris": {"ios": "https://dc.lft.to/lastmile_qr_scan", "android": "https://dc.lft.to/lastmile_qr_scan"}, "lon": -77.031682, "bike_id": "a698b2084bec718eccbf71c152ef9879", "type": "electric_scooter", "name": "a698b2084bec718eccbf71c152ef9879"}, {"is_disabled": 0, "is_reserved": 0, "fusion_lat": 0.0, "lat": 38.89540733333333, "fusion_lon": 0.0, "rental_uris": {"ios": "https://dc.lft.to/lastmile_qr_scan", "android": "https://dc.lft.to/lastmile_qr_scan"}, "lon": -77.02820683333333, "bike_id": "07cf7fa86c1eaf4ecfb2052e1447dc90", "type": "electric_scooter", "name": "07cf7fa86c1eaf4ecfb2052e1447dc90"}, {"is_disabled": 0, "is_reserved": 0, "fusion_lat": 0.0, "lat": 38.9421605, "fusion_lon": 0.0, "rental_uris": {"ios": "https://dc.lft.to/lastmile_qr_scan", "android": "https://dc.lft.to/lastmile_qr_scan"}, "lon": -76.96129616666667, "bike_id": "fa30806e348409093cfd9feaca075b5a", "type": "electric_bike", "name": "fa30806e348409093cfd9feaca075b5a"}, {"is_disabled": 0, "is_reserved": 0, "fusion_lat": 0.0, "lat": 38.8981765, "fusion_lon": 0.0, "rental_uris": {"ios": "https://dc.lft.to/lastmile_qr_scan", "android": "https://dc.lft.to/lastmile_qr_scan"}, "lon": -76.930036, "bike_id": "25d6faadfbbc420dddac1581c234414d", "type": "electric_scooter", "name": "25d6faadfbbc420dddac1581c234414d"}, {"is_disabled": 0, "is_reserved": 0, "fusion_lat": 0.0, "lat": 38.90143166666667, "fusion_lon": 0.0, "rental_uris": {"ios": "https://dc.lft.to/lastmile_qr_scan", "android": "https://dc.lft.to/lastmile_qr_scan"}, "lon": -77.03506433333334, "bike_id": "264133c5997b5501250a880481e5abea", "type": "electric_scooter", "name": "264133c5997b5501250a880481e5abea"}, {"is_disabled": 0, "is_reserved": 0, "fusion_lat": 0.0, "lat": 38.921227333333334, "fusion_lon": 0.0, "rental_uris": {"ios": "https://dc.lft.to/lastmile_qr_scan", "android": "https://dc.lft.to/lastmile_qr_scan"}, "lon": -77.0121035, "bike_id": "8f981c40a75e8da81415138e41d31f21", "type": "electric_scooter", "name": "8f981c40a75e8da81415138e41d31f21"}, {"is_disabled": 0, "is_reserved": 0, "fusion_lat": 0.0, "lat": 38.911187, "fusion_lon": 0.0, "rental_uris": {"ios": "https://dc.lft.to/lastmile_qr_scan", "android": "https://dc.lft.to/lastmile_qr_scan"}, "lon": -77.03143283333333, "bike_id": "23008e645d7e95e430c7b53ae28e245e", "type": "electric_scooter", "name": "23008e645d7e95e430c7b53ae28e245e"}, {"is_disabled": 0, "is_reserved": 0, "fusion_lat": 0.0, "lat": 38.922144333333335, "fusion_lon": 0.0, "rental_uris": {"ios": "https://dc.lft.to/lastmile_qr_scan", "android": "https://dc.lft.to/lastmile_qr_scan"}, "lon": -77.043141, "bike_id": "52be14fa63e05b96fb2c109ae8f6faf4", "type": "electric_scooter", "name": "52be14fa63e05b96fb2c109ae8f6faf4"}, {"is_disabled": 0, "is_reserved": 0, "fusion_lat": 0.0, "lat": 38.89832233333333, "fusion_lon": 0.0, "rental_uris": {"ios": "https://dc.lft.to/lastmile_qr_scan", "android": "https://dc.lft.to/lastmile_qr_scan"}, "lon": -76.990157, "bike_id": "f4e5e5231c801ae706850413ed75aa6f", "type": "electric_scooter", "name": "f4e5e5231c801ae706850413ed75aa6f"}, {"is_disabled": 0, "is_reserved": 0, "fusion_lat": 0.0, "lat": 38.90450416666667, "fusion_lon": 0.0, "rental_uris": {"ios": "https://dc.lft.to/lastmile_qr_scan", "android": "https://dc.lft.to/lastmile_qr_scan"}, "lon": -76.93274, "bike_id": "7faf0d2b6f0d7272c7632d1dcb631adf", "type": "electric_scooter", "name": "7faf0d2b6f0d7272c7632d1dcb631adf"}, {"is_disabled": 0, "is_reserved": 0, "fusion_lat": 0.0, "lat": 38.87602116666667, "fusion_lon": 0.0, "rental_uris": {"ios": "https://dc.lft.to/lastmile_qr_scan", "android": "https://dc.lft.to/lastmile_qr_scan"}, "lon": -77.00579983333333, "bike_id": "f0a0a206f361647e649e020c9a212789", "type": "electric_scooter", "name": "f0a0a206f361647e649e020c9a212789"}, {"is_disabled": 0, "is_reserved": 0, "fusion_lat": 0.0, "lat": 38.905046666666664, "fusion_lon": 0.0, "rental_uris": {"ios": "https://dc.lft.to/lastmile_qr_scan", "android": "https://dc.lft.to/lastmile_qr_scan"}, "lon": -77.01980733333333, "bike_id": "28949784904e8cee026e06b2f26c67a1", "type": "electric_scooter", "name": "28949784904e8cee026e06b2f26c67a1"}, {"is_disabled": 0, "is_reserved": 0, "fusion_lat": 0.0, "lat": 38.92097183333333, "fusion_lon": 0.0, "rental_uris": {"ios": "https://dc.lft.to/lastmile_qr_scan", "android": "https://dc.lft.to/lastmile_qr_scan"}, "lon": -77.04125683333334, "bike_id": "f08305896a1a6087f8259d36aca1e0d6", "type": "electric_scooter", "name": "f08305896a1a6087f8259d36aca1e0d6"}, {"is_disabled": 0, "is_reserved": 0, "fusion_lat": 0.0, "lat": 38.84671733333333, "fusion_lon": 0.0, "rental_uris": {"ios": "https://dc.lft.to/lastmile_qr_scan", "android": "https://dc.lft.to/lastmile_qr_scan"}, "lon": -77.13932683333333, "bike_id": "1fd5cffce805fa9b232ea1b756e96d78", "type": "electric_bike", "name": "1fd5cffce805fa9b232ea1b756e96d78"}, {"is_disabled": 0, "is_reserved": 0, "fusion_lat": 0.0, "lat": 38.915475666666666, "fusion_lon": 0.0, "rental_uris": {"ios": "https://dc.lft.to/lastmile_qr_scan", "android": "https://dc.lft.to/lastmile_qr_scan"}, "lon": -77.05100383333334, "bike_id": "b553b01ead3793411c51d14fb1684dee", "type": "electric_scooter", "name": "b553b01ead3793411c51d14fb1684dee"}, {"is_disabled": 0, "is_reserved": 0, "fusion_lat": 0.0, "lat": 38.872895666666665, "fusion_lon": 0.0, "rental_uris": {"ios": "https://dc.lft.to/lastmile_qr_scan", "android": "https://dc.lft.to/lastmile_qr_scan"}, "lon": -77.00579183333333, "bike_id": "e4ab543bf6701f630971839d93e84f8c", "type": "electric_scooter", "name": "e4ab543bf6701f630971839d93e84f8c"}, {"is_disabled": 0, "is_reserved": 0, "fusion_lat": 0.0, "lat": 38.896067333333335, "fusion_lon": 0.0, "rental_uris": {"ios": "https://dc.lft.to/lastmile_qr_scan", "android": "https://dc.lft.to/lastmile_qr_scan"}, "lon": -77.0411735, "bike_id": "5ae8be9a852bf084928afe2f4ad7b0c9", "type": "electric_scooter", "name": "5ae8be9a852bf084928afe2f4ad7b0c9"}, {"is_disabled": 0, "is_reserved": 0, "fusion_lat": 0.0, "lat": 38.898486166666665, "fusion_lon": 0.0, "rental_uris": {"ios": "https://dc.lft.to/lastmile_qr_scan", "android": "https://dc.lft.to/lastmile_qr_scan"}, "lon": -77.022212, "bike_id": "994a4cabda6c690c84681b7dbe350f95", "type": "electric_scooter", "name": "994a4cabda6c690c84681b7dbe350f95"}, {"is_disabled": 0, "is_reserved": 0, "fusion_lat": 0.0, "lat": 38.95753416666667, "fusion_lon": 0.0, "rental_uris": {"ios": "https://dc.lft.to/lastmile_qr_scan", "android": "https://dc.lft.to/lastmile_qr_scan"}, "lon": -77.02206683333333, "bike_id": "daf23699d46143be45a7952ea44470eb", "type": "electric_scooter", "name": "daf23699d46143be45a7952ea44470eb"}, {"is_disabled": 0, "is_reserved": 0, "fusion_lat": 0.0, "lat": 38.901937, "fusion_lon": 0.0, "rental_uris": {"ios": "https://dc.lft.to/lastmile_qr_scan", "android": "https://dc.lft.to/lastmile_qr_scan"}, "lon": -77.0021335, "bike_id": "28678b0e7879d3fd62b7ee4a57411ae8", "type": "electric_scooter", "name": "28678b0e7879d3fd62b7ee4a57411ae8"}, {"is_disabled": 0, "is_reserved": 0, "fusion_lat": 0.0, "lat": 38.924087, "fusion_lon": 0.0, "rental_uris": {"ios": "https://dc.lft.to/lastmile_qr_scan", "android": "https://dc.lft.to/lastmile_qr_scan"}, "lon": -77.02004366666667, "bike_id": "0d83be7ec2ee2ff21d5a1c2d8c5a87a2", "type": "electric_scooter", "name": "0d83be7ec2ee2ff21d5a1c2d8c5a87a2"}, {"is_disabled": 0, "is_reserved": 0, "fusion_lat": 0.0, "lat": 38.90255283333333, "fusion_lon": 0.0, "rental_uris": {"ios": "https://dc.lft.to/lastmile_qr_scan", "android": "https://dc.lft.to/lastmile_qr_scan"}, "lon": -77.026889, "bike_id": "2da12ede06fb03f839687dfb79e7298a", "type": "electric_scooter", "name": "2da12ede06fb03f839687dfb79e7298a"}, {"is_disabled": 0, "is_reserved": 0, "fusion_lat": 0.0, "lat": 38.87473333333333, "fusion_lon": 0.0, "rental_uris": {"ios": "https://dc.lft.to/lastmile_qr_scan", "android": "https://dc.lft.to/lastmile_qr_scan"}, "lon": -77.00555366666667, "bike_id": "39d242010d4ccd419235dd34cb7a0598", "type": "electric_scooter", "name": "39d242010d4ccd419235dd34cb7a0598"}, {"is_disabled": 0, "is_reserved": 0, "fusion_lat": 0.0, "lat": 38.885424, "fusion_lon": 0.0, "rental_uris": {"ios": "https://dc.lft.to/lastmile_qr_scan", "android": "https://dc.lft.to/lastmile_qr_scan"}, "lon": -76.923688, "bike_id": "8a292c71abc9d5e54ef628590e95100c", "type": "electric_scooter", "name": "8a292c71abc9d5e54ef628590e95100c"}, {"is_disabled": 0, "is_reserved": 0, "fusion_lat": 0.0, "lat": 38.91648516666667, "fusion_lon": 0.0, "rental_uris": {"ios": "https://dc.lft.to/lastmile_qr_scan", "android": "https://dc.lft.to/lastmile_qr_scan"}, "lon": -77.047803, "bike_id": "8b08896c10e14ef7755d4e953789d04d", "type": "electric_scooter", "name": "8b08896c10e14ef7755d4e953789d04d"}, {"is_disabled": 0, "is_reserved": 0, "fusion_lat": 0.0, "lat": 38.885315, "fusion_lon": 0.0, "rental_uris": {"ios": "https://dc.lft.to/lastmile_qr_scan", "android": "https://dc.lft.to/lastmile_qr_scan"}, "lon": -76.9805185, "bike_id": "2f1e77df2bdeabccd5a8b7d2f5f227b3", "type": "electric_scooter", "name": "2f1e77df2bdeabccd5a8b7d2f5f227b3"}, {"is_disabled": 0, "is_reserved": 0, "fusion_lat": 0.0, "lat": 38.956869, "fusion_lon": 0.0, "rental_uris": {"ios": "https://dc.lft.to/lastmile_qr_scan", "android": "https://dc.lft.to/lastmile_qr_scan"}, "lon": -77.02236516666666, "bike_id": "7ce45d925e705b183548709c61630072", "type": "electric_scooter", "name": "7ce45d925e705b183548709c61630072"}, {"is_disabled": 0, "is_reserved": 0, "fusion_lat": 0.0, "lat": 38.896197666666666, "fusion_lon": 0.0, "rental_uris": {"ios": "https://dc.lft.to/lastmile_qr_scan", "android": "https://dc.lft.to/lastmile_qr_scan"}, "lon": -76.90749283333334, "bike_id": "16f0c33ac1e45f6611ab721517879c76", "type": "electric_bike", "name": "16f0c33ac1e45f6611ab721517879c76"}, {"is_disabled": 0, "is_reserved": 0, "fusion_lat": 0.0, "lat": 38.90517533333333, "fusion_lon": 0.0, "rental_uris": {"ios": "https://dc.lft.to/lastmile_qr_scan", "android": "https://dc.lft.to/lastmile_qr_scan"}, "lon": -77.06615583333334, "bike_id": "8999fa7396c919db5d0a28458c6b4558", "type": "electric_scooter", "name": "8999fa7396c919db5d0a28458c6b4558"}, {"is_disabled": 0, "is_reserved": 0, "fusion_lat": 0.0, "lat": 38.971521, "fusion_lon": 0.0, "rental_uris": {"ios": "https://dc.lft.to/lastmile_qr_scan", "android": "https://dc.lft.to/lastmile_qr_scan"}, "lon": -76.98363983333333, "bike_id": "b818273511c65fded543bbbbc111801d", "type": "electric_bike", "name": "b818273511c65fded543bbbbc111801d"}, {"is_disabled": 0, "is_reserved": 0, "fusion_lat": 0.0, "lat": 38.908335666666666, "fusion_lon": 0.0, "rental_uris": {"ios": "https://dc.lft.to/lastmile_qr_scan", "android": "https://dc.lft.to/lastmile_qr_scan"}, "lon": -76.99694033333333, "bike_id": "333ea5105811a2970887a045e92f81f3", "type": "electric_scooter", "name": "333ea5105811a2970887a045e92f81f3"}, {"is_disabled": 0, "is_reserved": 0, "fusion_lat": 0.0, "lat": 38.923675833333334, "fusion_lon": 0.0, "rental_uris": {"ios": "https://dc.lft.to/lastmile_qr_scan", "android": "https://dc.lft.to/lastmile_qr_scan"}, "lon": -77.029162, "bike_id": "c8e9eb63ca128b81e351a843d6fe5c44", "type": "electric_scooter", "name": "c8e9eb63ca128b81e351a843d6fe5c44"}, {"is_disabled": 0, "is_reserved": 0, "fusion_lat": 0.0, "lat": 38.894853833333336, "fusion_lon": 0.0, "rental_uris": {"ios": "https://dc.lft.to/lastmile_qr_scan", "android": "https://dc.lft.to/lastmile_qr_scan"}, "lon": -77.00155483333333, "bike_id": "958b7312a0ce8b75f43c31173c7c2c11", "type": "electric_scooter", "name": "958b7312a0ce8b75f43c31173c7c2c11"}, {"is_disabled": 0, "is_reserved": 0, "fusion_lat": 0.0, "lat": 38.91613866666667, "fusion_lon": 0.0, "rental_uris": {"ios": "https://dc.lft.to/lastmile_qr_scan", "android": "https://dc.lft.to/lastmile_qr_scan"}, "lon": -77.0049285, "bike_id": "22ac7bda8da5a2837102df9051cc3e3d", "type": "electric_scooter", "name": "22ac7bda8da5a2837102df9051cc3e3d"}, {"is_disabled": 0, "is_reserved": 0, "fusion_lat": 0.0, "lat": 38.939336, "fusion_lon": 0.0, "rental_uris": {"ios": "https://dc.lft.to/lastmile_qr_scan", "android": "https://dc.lft.to/lastmile_qr_scan"}, "lon": -77.02584216666666, "bike_id": "d166371dc9c80de998d4311cabbf620c", "type": "electric_scooter", "name": "d166371dc9c80de998d4311cabbf620c"}, {"is_disabled": 0, "is_reserved": 0, "fusion_lat": 0.0, "lat": 38.89630966666667, "fusion_lon": 0.0, "rental_uris": {"ios": "https://dc.lft.to/lastmile_qr_scan", "android": "https://dc.lft.to/lastmile_qr_scan"}, "lon": -77.03337316666666, "bike_id": "9070de2da9e1c36e9efeeb8f18251836", "type": "electric_scooter", "name": "9070de2da9e1c36e9efeeb8f18251836"}, {"is_disabled": 0, "is_reserved": 0, "fusion_lat": 0.0, "lat": 38.92336266666667, "fusion_lon": 0.0, "rental_uris": {"ios": "https://dc.lft.to/lastmile_qr_scan", "android": "https://dc.lft.to/lastmile_qr_scan"}, "lon": -77.02811266666667, "bike_id": "16f6dcb13abe2e9fc344d60735a2c105", "type": "electric_scooter", "name": "16f6dcb13abe2e9fc344d60735a2c105"}, {"is_disabled": 0, "is_reserved": 0, "fusion_lat": 0.0, "lat": 38.9034425, "fusion_lon": 0.0, "rental_uris": {"ios": "https://dc.lft.to/lastmile_qr_scan", "android": "https://dc.lft.to/lastmile_qr_scan"}, "lon": -76.9749065, "bike_id": "6bba0447d91bd00bfa7e3800dd459f29", "type": "electric_scooter", "name": "6bba0447d91bd00bfa7e3800dd459f29"}, {"is_disabled": 0, "is_reserved": 0, "fusion_lat": 0.0, "lat": 38.91669483333333, "fusion_lon": 0.0, "rental_uris": {"ios": "https://dc.lft.to/lastmile_qr_scan", "android": "https://dc.lft.to/lastmile_qr_scan"}, "lon": -77.0239115, "bike_id": "4f64ffcac5172aeec4eaa6e614c24c1f", "type": "electric_scooter", "name": "4f64ffcac5172aeec4eaa6e614c24c1f"}, {"is_disabled": 0, "is_reserved": 0, "fusion_lat": 0.0, "lat": 38.9265075, "fusion_lon": 0.0, "rental_uris": {"ios": "https://dc.lft.to/lastmile_qr_scan", "android": "https://dc.lft.to/lastmile_qr_scan"}, "lon": -77.090199, "bike_id": "196857eae41914ee7e414d6fe8f78e7b", "type": "electric_bike", "name": "196857eae41914ee7e414d6fe8f78e7b"}, {"is_disabled": 0, "is_reserved": 0, "fusion_lat": 0.0, "lat": 38.907212333333334, "fusion_lon": 0.0, "rental_uris": {"ios": "https://dc.lft.to/lastmile_qr_scan", "android": "https://dc.lft.to/lastmile_qr_scan"}, "lon": -77.0504435, "bike_id": "7e4e42bbb042887484cbde997d3bf311", "type": "electric_scooter", "name": "7e4e42bbb042887484cbde997d3bf311"}, {"is_disabled": 0, "is_reserved": 0, "fusion_lat": 0.0, "lat": 38.90560833333333, "fusion_lon": 0.0, "rental_uris": {"ios": "https://dc.lft.to/lastmile_qr_scan", "android": "https://dc.lft.to/lastmile_qr_scan"}, "lon": -77.0062185, "bike_id": "9e3c2115580c7406405f42987f6fcd6f", "type": "electric_scooter", "name": "9e3c2115580c7406405f42987f6fcd6f"}, {"is_disabled": 0, "is_reserved": 0, "fusion_lat": 0.0, "lat": 38.91509383333333, "fusion_lon": 0.0, "rental_uris": {"ios": "https://dc.lft.to/lastmile_qr_scan", "android": "https://dc.lft.to/lastmile_qr_scan"}, "lon": -77.02177583333334, "bike_id": "5c6aa0f56b58687e6e950b5b93826e62", "type": "electric_scooter", "name": "5c6aa0f56b58687e6e950b5b93826e62"}, {"is_disabled": 0, "is_reserved": 0, "fusion_lat": 0.0, "lat": 38.98146166666667, "fusion_lon": 0.0, "rental_uris": {"ios": "https://dc.lft.to/lastmile_qr_scan", "android": "https://dc.lft.to/lastmile_qr_scan"}, "lon": -77.00776133333333, "bike_id": "22c074e64bb1d7406d580fdd7ecbf887", "type": "electric_bike", "name": "22c074e64bb1d7406d580fdd7ecbf887"}, {"is_disabled": 0, "is_reserved": 0, "fusion_lat": 0.0, "lat": 38.911197333333334, "fusion_lon": 0.0, "rental_uris": {"ios": "https://dc.lft.to/lastmile_qr_scan", "android": "https://dc.lft.to/lastmile_qr_scan"}, "lon": -77.003381, "bike_id": "d27312a1d2667d0aa1dbec7bc956cfe9", "type": "electric_scooter", "name": "d27312a1d2667d0aa1dbec7bc956cfe9"}, {"is_disabled": 0, "is_reserved": 0, "fusion_lat": 0.0, "lat": 38.90152033333333, "fusion_lon": 0.0, "rental_uris": {"ios": "https://dc.lft.to/lastmile_qr_scan", "android": "https://dc.lft.to/lastmile_qr_scan"}, "lon": -76.9855905, "bike_id": "9ac4407b7b7fbff9e95b0c7e512636d1", "type": "electric_scooter", "name": "9ac4407b7b7fbff9e95b0c7e512636d1"}, {"is_disabled": 0, "is_reserved": 0, "fusion_lat": 0.0, "lat": 38.918014166666666, "fusion_lon": 0.0, "rental_uris": {"ios": "https://dc.lft.to/lastmile_qr_scan", "android": "https://dc.lft.to/lastmile_qr_scan"}, "lon": -77.02488616666666, "bike_id": "529ab0c52435dbb48a26d3b152734c4d", "type": "electric_scooter", "name": "529ab0c52435dbb48a26d3b152734c4d"}, {"is_disabled": 0, "is_reserved": 0, "fusion_lat": 0.0, "lat": 39.010630666666664, "fusion_lon": 0.0, "rental_uris": {"ios": "https://dc.lft.to/lastmile_qr_scan", "android": "https://dc.lft.to/lastmile_qr_scan"}, "lon": -76.92244683333334, "bike_id": "1f1888c5340cc64e84146a3ea04d8211", "type": "electric_bike", "name": "1f1888c5340cc64e84146a3ea04d8211"}, {"is_disabled": 0, "is_reserved": 0, "fusion_lat": 0.0, "lat": 38.87841133333333, "fusion_lon": 0.0, "rental_uris": {"ios": "https://dc.lft.to/lastmile_qr_scan", "android": "https://dc.lft.to/lastmile_qr_scan"}, "lon": -76.9313485, "bike_id": "88213a5f743f1b2e32e48722efce3f05", "type": "electric_scooter", "name": "88213a5f743f1b2e32e48722efce3f05"}, {"is_disabled": 0, "is_reserved": 0, "fusion_lat": 0.0, "lat": 38.91782666666667, "fusion_lon": 0.0, "rental_uris": {"ios": "https://dc.lft.to/lastmile_qr_scan", "android": "https://dc.lft.to/lastmile_qr_scan"}, "lon": -77.023773, "bike_id": "4b6e9ffaa8875e05ad36cf901b8f8973", "type": "electric_scooter", "name": "4b6e9ffaa8875e05ad36cf901b8f8973"}, {"is_disabled": 0, "is_reserved": 0, "fusion_lat": 0.0, "lat": 38.906458, "fusion_lon": 0.0, "rental_uris": {"ios": "https://dc.lft.to/lastmile_qr_scan", "android": "https://dc.lft.to/lastmile_qr_scan"}, "lon": -77.024795, "bike_id": "30346c7b1373e71cb6e574ecf3718fbc", "type": "electric_scooter", "name": "30346c7b1373e71cb6e574ecf3718fbc"}, {"is_disabled": 0, "is_reserved": 0, "fusion_lat": 0.0, "lat": 38.92725033333333, "fusion_lon": 0.0, "rental_uris": {"ios": "https://dc.lft.to/lastmile_qr_scan", "android": "https://dc.lft.to/lastmile_qr_scan"}, "lon": -77.022802, "bike_id": "fcacbe17ac9d27d549bdc6e42da37a8d", "type": "electric_scooter", "name": "fcacbe17ac9d27d549bdc6e42da37a8d"}, {"is_disabled": 0, "is_reserved": 0, "fusion_lat": 0.0, "lat": 38.920311833333336, "fusion_lon": 0.0, "rental_uris": {"ios": "https://dc.lft.to/lastmile_qr_scan", "android": "https://dc.lft.to/lastmile_qr_scan"}, "lon": -77.01743883333333, "bike_id": "b766fb59287b6438ac86c30027fc382c", "type": "electric_scooter", "name": "b766fb59287b6438ac86c30027fc382c"}, {"is_disabled": 0, "is_reserved": 0, "fusion_lat": 0.0, "lat": 38.911520333333335, "fusion_lon": 0.0, "rental_uris": {"ios": "https://dc.lft.to/lastmile_qr_scan", "android": "https://dc.lft.to/lastmile_qr_scan"}, "lon": -77.0199655, "bike_id": "b121718eda110a056f8a477e52939f25", "type": "electric_scooter", "name": "b121718eda110a056f8a477e52939f25"}, {"is_disabled": 0, "is_reserved": 0, "fusion_lat": 0.0, "lat": 38.92502533333333, "fusion_lon": 0.0, "rental_uris": {"ios": "https://dc.lft.to/lastmile_qr_scan", "android": "https://dc.lft.to/lastmile_qr_scan"}, "lon": -77.02447933333333, "bike_id": "49160ef6888582335d914d3c8b579207", "type": "electric_scooter", "name": "49160ef6888582335d914d3c8b579207"}, {"is_disabled": 0, "is_reserved": 0, "fusion_lat": 0.0, "lat": 38.921353833333335, "fusion_lon": 0.0, "rental_uris": {"ios": "https://dc.lft.to/lastmile_qr_scan", "android": "https://dc.lft.to/lastmile_qr_scan"},