{"data": {"bikes": [{"lat": 39.02622266666667, "is_disabled": 0, "fusion_lat": 0.0, "name": "212009ddf715da1fb3981a65f56364a3", "type": "electric_bike", "lon": -77.0387805, "rental_uris": {"ios": "https://dc.lft.to/lastmile_qr_scan", "android": "https://dc.lft.to/lastmile_qr_scan"}, "bike_id": "212009ddf715da1fb3981a65f56364a3", "is_reserved": 0, "fusion_lon": 0.0}, {"lat": 38.899269833333335, "is_disabled": 0, "fusion_lat": 0.0, "name": "0fc286075cf717fb52c484dfab9006dc", "type": "electric_scooter", "lon": -76.945765, "rental_uris": {"ios": "https://dc.lft.to/lastmile_qr_scan", "android": "https://dc.lft.to/lastmile_qr_scan"}, "bike_id": "0fc286075cf717fb52c484dfab9006dc", "is_reserved": 0, "fusion_lon": 0.0}, {"lat": 38.9563895, "is_disabled": 0, "fusion_lat": 0.0, "name": "caf9f27b48d0f4cf1f3d2302f2ac4945", "type": "electric_bike", "lon": -76.938733, "rental_uris": {"ios": "https://dc.lft.to/lastmile_qr_scan", "android": "https://dc.lft.to/lastmile_qr_scan"}, "bike_id": "caf9f27b48d0f4cf1f3d2302f2ac4945", "is_reserved": 0, "fusion_lon": 0.0}, {"lat": 38.9248835, "is_disabled": 0, "fusion_lat": 0.0, "name": "2c55c1119a6e3beaa2e296316878a0b3", "type": "electric_scooter", "lon": -77.03181383333333, "rental_uris": {"ios": "https://dc.lft.to/lastmile_qr_scan", "android": "https://dc.lft.to/lastmile_qr_scan"}, "bike_id": "2c55c1119a6e3beaa2e296316878a0b3", "is_reserved": 0, "fusion_lon": 0.0}, {"lat": 38.92716333333333, "is_disabled": 0, "fusion_lat": 0.0, "name": "15f809fbcc26a29ef5569997da0b2762", "type": "electric_scooter", "lon": -77.05989733333334, "rental_uris": {"ios": "https://dc.lft.to/lastmile_qr_scan", "android": "https://dc.lft.to/lastmile_qr_scan"}, "bike_id": "15f809fbcc26a29ef5569997da0b2762", "is_reserved": 0, "fusion_lon": 0.0}, {"lat": 38.90738116666667, "is_disabled": 0, "fusion_lat": 0.0, "name": "1dd3d21f1f064e89fd8daa116fc3dbea", "type": "electric_scooter", "lon": -77.00501183333333, "rental_uris": {"ios": "https://dc.lft.to/lastmile_qr_scan", "android": "https://dc.lft.to/lastmile_qr_scan"}, "bike_id": "1dd3d21f1f064e89fd8daa116fc3dbea", "is_reserved": 0, "fusion_lon": 0.0}, {"lat": 38.915447666666665, "is_disabled": 0, "fusion_lat": 0.0, "name": "1d53f4c2237bc8f3a898a2bbe9296949", "type": "electric_scooter", "lon": -77.044511, "rental_uris": {"ios": "https://dc.lft.to/lastmile_qr_scan", "android": "https://dc.lft.to/lastmile_qr_scan"}, "bike_id": "1d53f4c2237bc8f3a898a2bbe9296949", "is_reserved": 0, "fusion_lon": 0.0}, {"lat": 38.857845833333336, "is_disabled": 0, "fusion_lat": 0.0, "name": "da600eb264aaffafc2c4804cc04994a6", "type": "electric_bike", "lon": -76.987534, "rental_uris": {"ios": "https://dc.lft.to/lastmile_qr_scan", "android": "https://dc.lft.to/lastmile_qr_scan"}, "bike_id": "da600eb264aaffafc2c4804cc04994a6", "is_reserved": 0, "fusion_lon": 0.0}, {"lat": 38.91312933333333, "is_disabled": 0, "fusion_lat": 0.0, "name": "48da48bda7fb7d9fcda4a5820b6be044", "type": "electric_scooter", "lon": -77.02858333333333, "rental_uris": {"ios": "https://dc.lft.to/lastmile_qr_scan", "android": "https://dc.lft.to/lastmile_qr_scan"}, "bike_id": "48da48bda7fb7d9fcda4a5820b6be044", "is_reserved": 0, "fusion_lon": 0.0}, {"lat": 38.895982333333336, "is_disabled": 0, "fusion_lat": 0.0, "name": "9593cf8fd25770fd9a46c6979df203c9", "type": "electric_scooter", "lon": -77.0255265, "rental_uris": {"ios": "https://dc.lft.to/lastmile_qr_scan", "android": "https://dc.lft.to/lastmile_qr_scan"}, "bike_id": "9593cf8fd25770fd9a46c6979df203c9", "is_reserved": 0, "fusion_lon": 0.0}, {"lat": 38.910159666666665, "is_disabled": 0, "fusion_lat": 0.0, "name": "9f472b6ef9821e8bdf83b30395b7af35", "type": "electric_scooter", "lon": -76.99381266666667, "rental_uris": {"ios": "https://dc.lft.to/lastmile_qr_scan", "android": "https://dc.lft.to/lastmile_qr_scan"}, "bike_id": "9f472b6ef9821e8bdf83b30395b7af35", "is_reserved": 0, "fusion_lon": 0.0}, {"lat": 38.90320466666667, "is_disabled": 0, "fusion_lat": 0.0, "name": "5fc70445ae78e03e7f6403a7c4718653", "type": "electric_scooter", "lon": -77.021243, "rental_uris": {"ios": "https://dc.lft.to/lastmile_qr_scan", "android": "https://dc.lft.to/lastmile_qr_scan"}, "bike_id": "5fc70445ae78e03e7f6403a7c4718653", "is_reserved": 0, "fusion_lon": 0.0}, {"lat": 38.923606166666666, "is_disabled": 0, "fusion_lat": 0.0, "name": "2349bcc9373a3da5d22da3f80142ae7e", "type": "electric_scooter", "lon": -77.02056366666666, "rental_uris": {"ios": "https://dc.lft.to/lastmile_qr_scan", "android": "https://dc.lft.to/lastmile_qr_scan"}, "bike_id": "2349bcc9373a3da5d22da3f80142ae7e", "is_reserved": 0, "fusion_lon": 0.0}, {"lat": 38.900880666666666, "is_disabled": 0, "fusion_lat": 0.0, "name": "811bb6cdb5a14b109ef280dee26d5adb", "type": "electric_scooter", "lon": -77.026915, "rental_uris": {"ios": "https://dc.lft.to/lastmile_qr_scan", "android": "https://dc.lft.to/lastmile_qr_scan"}, "bike_id": "811bb6cdb5a14b109ef280dee26d5adb", "is_reserved": 0, "fusion_lon": 0.0}, {"lat": 38.93757633333333, "is_disabled": 0, "fusion_lat": 0.0, "name": "7bd2addbac898be743c00b6abfe4e9be", "type": "electric_scooter", "lon": -77.03263883333334, "rental_uris": {"ios": "https://dc.lft.to/lastmile_qr_scan", "android": "https://dc.lft.to/lastmile_qr_scan"}, "bike_id": "7bd2addbac898be743c00b6abfe4e9be", "is_reserved": 0, "fusion_lon": 0.0}, {"lat": 38.924103833333334, "is_disabled": 0, "fusion_lat": 0.0, "name": "9ff4b2918d3845a2701eca4302fec7c1", "type": "electric_scooter", "lon": -77.02707183333334, "rental_uris": {"ios": "https://dc.lft.to/lastmile_qr_scan", "android": "https://dc.lft.to/lastmile_qr_scan"}, "bike_id": "9ff4b2918d3845a2701eca4302fec7c1", "is_reserved": 0, "fusion_lon": 0.0}, {"lat": 38.90395, "is_disabled": 0, "fusion_lat": 0.0, "name": "17cb90959505567073a8c619f74dd7aa", "type": "electric_scooter", "lon": -77.03300716666666, "rental_uris": {"ios": "https://dc.lft.to/lastmile_qr_scan", "android": "https://dc.lft.to/lastmile_qr_scan"}, "bike_id": "17cb90959505567073a8c619f74dd7aa", "is_reserved": 0, "fusion_lon": 0.0}, {"lat": 38.898851666666665, "is_disabled": 0, "fusion_lat": 0.0, "name": "d2c40fd1b489b9be79066b8e0279d6b7", "type": "electric_scooter", "lon": -77.03319016666667, "rental_uris": {"ios": "https://dc.lft.to/lastmile_qr_scan", "android": "https://dc.lft.to/lastmile_qr_scan"}, "bike_id": "d2c40fd1b489b9be79066b8e0279d6b7", "is_reserved": 0, "fusion_lon": 0.0}, {"lat": 38.910746833333334, "is_disabled": 0, "fusion_lat": 0.0, "name": "dfaf0ac218a6da579b6fcaaeb925f70d", "type": "electric_scooter", "lon": -76.98777633333333, "rental_uris": {"ios": "https://dc.lft.to/lastmile_qr_scan", "android": "https://dc.lft.to/lastmile_qr_scan"}, "bike_id": "dfaf0ac218a6da579b6fcaaeb925f70d", "is_reserved": 0, "fusion_lon": 0.0}, {"lat": 38.90779716666667, "is_disabled": 0, "fusion_lat": 0.0, "name": "774688aee0c6032d646a0a740f1a90bc", "type": "electric_scooter", "lon": -77.0724625, "rental_uris": {"ios": "https://dc.lft.to/lastmile_qr_scan", "android": "https://dc.lft.to/lastmile_qr_scan"}, "bike_id": "774688aee0c6032d646a0a740f1a90bc", "is_reserved": 0, "fusion_lon": 0.0}, {"lat": 38.9002305, "is_disabled": 0, "fusion_lat": 0.0, "name": "775bcf0e1868711e2970c370e6263bb9", "type": "electric_scooter", "lon": -77.00188983333334, "rental_uris": {"ios": "https://dc.lft.to/lastmile_qr_scan", "android": "https://dc.lft.to/lastmile_qr_scan"}, "bike_id": "775bcf0e1868711e2970c370e6263bb9", "is_reserved": 0, "fusion_lon": 0.0}, {"lat": 38.919452166666666, "is_disabled": 0, "fusion_lat": 0.0, "name": "3e11e71fdb45e987bb1b19476670738d", "type": "electric_scooter", "lon": -77.01793816666667, "rental_uris": {"ios": "https://dc.lft.to/lastmile_qr_scan", "android": "https://dc.lft.to/lastmile_qr_scan"}, "bike_id": "3e11e71fdb45e987bb1b19476670738d", "is_reserved": 0, "fusion_lon": 0.0}, {"lat": 38.9036645, "is_disabled": 0, "fusion_lat": 0.0, "name": "8cfd4138af38c82c5c466b5d8f307f59", "type": "electric_scooter", "lon": -77.039427, "rental_uris": {"ios": "https://dc.lft.to/lastmile_qr_scan", "android": "https://dc.lft.to/lastmile_qr_scan"}, "bike_id": "8cfd4138af38c82c5c466b5d8f307f59", "is_reserved": 0, "fusion_lon": 0.0}, {"lat": 38.901574333333336, "is_disabled": 0, "fusion_lat": 0.0, "name": "2dc69a16b9f1be585d402aa32c258029", "type": "electric_scooter", "lon": -77.05919133333333, "rental_uris": {"ios": "https://dc.lft.to/lastmile_qr_scan", "android": "https://dc.lft.to/lastmile_qr_scan"}, "bike_id": "2dc69a16b9f1be585d402aa32c258029", "is_reserved": 0, "fusion_lon": 0.0}, {"lat": 38.87918533333333, "is_disabled": 0, "fusion_lat": 0.0, "name": "11a03be4d42ba3d7205039d2b9b4effa", "type": "electric_scooter", "lon": -77.023545, "rental_uris": {"ios": "https://dc.lft.to/lastmile_qr_scan", "android": "https://dc.lft.to/lastmile_qr_scan"}, "bike_id": "11a03be4d42ba3d7205039d2b9b4effa", "is_reserved": 0, "fusion_lon": 0.0}, {"lat": 38.9446125, "is_disabled": 0, "fusion_lat": 0.0, "name": "0babe65fe6e684b1f5f41d23f3824bc7", "type": "electric_scooter", "lon": -77.0065495, "rental_uris": {"ios": "https://dc.lft.to/lastmile_qr_scan", "android": "https://dc.lft.to/lastmile_qr_scan"}, "bike_id": "0babe65fe6e684b1f5f41d23f3824bc7", "is_reserved": 0, "fusion_lon": 0.0}, {"lat": 38.909009, "is_disabled": 0, "fusion_lat": 0.0, "name": "e033a884693f29ff818aa7c031aad53c", "type": "electric_scooter", "lon": -77.03144033333334, "rental_uris": {"ios": "https://dc.lft.to/lastmile_qr_scan", "android": "https://dc.lft.to/lastmile_qr_scan"}, "bike_id": "e033a884693f29ff818aa7c031aad53c", "is_reserved": 0, "fusion_lon": 0.0}, {"lat": 38.918090166666666, "is_disabled": 0, "fusion_lat": 0.0, "name": "d27210dcb5bf9c1b60fff882d3447173", "type": "electric_scooter", "lon": -77.02490233333333, "rental_uris": {"ios": "https://dc.lft.to/lastmile_qr_scan", "android": "https://dc.lft.to/lastmile_qr_scan"}, "bike_id": "d27210dcb5bf9c1b60fff882d3447173", "is_reserved": 0, "fusion_lon": 0.0}, {"lat": 38.9044605, "is_disabled": 0, "fusion_lat": 0.0, "name": "ddf99f3b40599aabd748293cbf9a50b5", "type": "electric_scooter", "lon": -76.98157016666667, "rental_uris": {"ios": "https://dc.lft.to/lastmile_qr_scan", "android": "https://dc.lft.to/lastmile_qr_scan"}, "bike_id": "ddf99f3b40599aabd748293cbf9a50b5", "is_reserved": 0, "fusion_lon": 0.0}, {"lat": 38.8917095, "is_disabled": 0, "fusion_lat": 0.0, "name": "0a58429b55c33c969d43620fe868710c", "type": "electric_scooter", "lon": -77.01546066666667, "rental_uris": {"ios": "https://dc.lft.to/lastmile_qr_scan", "android": "https://dc.lft.to/lastmile_qr_scan"}, "bike_id": "0a58429b55c33c969d43620fe868710c", "is_reserved": 0, "fusion_lon": 0.0}, {"lat": 38.876579666666665, "is_disabled": 0, "fusion_lat": 0.0, "name": "95a584335096a230d118791a1c9de01e", "type": "electric_scooter", "lon": -77.00313633333333, "rental_uris": {"ios": "https://dc.lft.to/lastmile_qr_scan", "android": "https://dc.lft.to/lastmile_qr_scan"}, "bike_id": "95a584335096a230d118791a1c9de01e", "is_reserved": 0, "fusion_lon": 0.0}, {"lat": 38.9386995, "is_disabled": 0, "fusion_lat": 0.0, "name": "f0fbe31196909783386f1478d9aebd76", "type": "electric_scooter", "lon": -77.07232033333334, "rental_uris": {"ios": "https://dc.lft.to/lastmile_qr_scan", "android": "https://dc.lft.to/lastmile_qr_scan"}, "bike_id": "f0fbe31196909783386f1478d9aebd76", "is_reserved": 0, "fusion_lon": 0.0}, {"lat": 38.92431233333333, "is_disabled": 0, "fusion_lat": 0.0, "name": "d7f3d40e1ff72e126426e8f8f52cc9e3", "type": "electric_scooter", "lon": -77.019424, "rental_uris": {"ios": "https://dc.lft.to/lastmile_qr_scan", "android": "https://dc.lft.to/lastmile_qr_scan"}, "bike_id": "d7f3d40e1ff72e126426e8f8f52cc9e3", "is_reserved": 0, "fusion_lon": 0.0}, {"lat": 38.873946, "is_disabled": 0, "fusion_lat": 0.0, "name": "e027f250d8bd07424bdf249207d63002", "type": "electric_scooter", "lon": -77.0001145, "rental_uris": {"ios": "https://dc.lft.to/lastmile_qr_scan", "android": "https://dc.lft.to/lastmile_qr_scan"}, "bike_id": "e027f250d8bd07424bdf249207d63002", "is_reserved": 0, "fusion_lon": 0.0}, {"lat": 38.906865833333335, "is_disabled": 0, "fusion_lat": 0.0, "name": "63b072461152a934ccdc39014b755c5b", "type": "electric_scooter", "lon": -77.0364625, "rental_uris": {"ios": "https://dc.lft.to/lastmile_qr_scan", "android": "https://dc.lft.to/lastmile_qr_scan"}, "bike_id": "63b072461152a934ccdc39014b755c5b", "is_reserved": 0, "fusion_lon": 0.0}, {"lat": 38.87532183333333, "is_disabled": 0, "fusion_lat": 0.0, "name": "27a8a4f4ea635e98afc80eea9afbb0f6", "type": "electric_scooter", "lon": -77.0089115, "rental_uris": {"ios": "https://dc.lft.to/lastmile_qr_scan", "android": "https://dc.lft.to/lastmile_qr_scan"}, "bike_id": "27a8a4f4ea635e98afc80eea9afbb0f6", "is_reserved": 0, "fusion_lon": 0.0}, {"lat": 38.92112516666667, "is_disabled": 0, "fusion_lat": 0.0, "name": "ae5a97617c991de203ecf331781f9e5d", "type": "electric_scooter", "lon": -77.03923383333333, "rental_uris": {"ios": "https://dc.lft.to/lastmile_qr_scan", "android": "https://dc.lft.to/lastmile_qr_scan"}, "bike_id": "ae5a97617c991de203ecf331781f9e5d", "is_reserved": 0, "fusion_lon": 0.0}, {"lat": 38.9245245, "is_disabled": 0, "fusion_lat": 0.0, "name": "49114292b306b5a6dcf81948b64b60c5", "type": "electric_scooter", "lon": -77.02028766666666, "rental_uris": {"ios": "https://dc.lft.to/lastmile_qr_scan", "android": "https://dc.lft.to/lastmile_qr_scan"}, "bike_id": "49114292b306b5a6dcf81948b64b60c5", "is_reserved": 0, "fusion_lon": 0.0}, {"lat": 38.93036083333333, "is_disabled": 0, "fusion_lat": 0.0, "name": "1f4414aa07ea06bb4f8acea38583a872", "type": "electric_scooter", "lon": -77.03805, "rental_uris": {"ios": "https://dc.lft.to/lastmile_qr_scan", "android": "https://dc.lft.to/lastmile_qr_scan"}, "bike_id": "1f4414aa07ea06bb4f8acea38583a872", "is_reserved": 0, "fusion_lon": 0.0}, {"lat": 38.915631, "is_disabled": 0, "fusion_lat": 0.0, "name": "d86d8ddc1b34286332e83276da45a420", "type": "electric_scooter", "lon": -77.00698866666667, "rental_uris": {"ios": "https://dc.lft.to/lastmile_qr_scan", "android": "https://dc.lft.to/lastmile_qr_scan"}, "bike_id": "d86d8ddc1b34286332e83276da45a420", "is_reserved": 0, "fusion_lon": 0.0}, {"lat": 38.92035633333333, "is_disabled": 0, "fusion_lat": 0.0, "name": "33a03069d65c1ad49efefb7d80118d8d", "type": "electric_bike", "lon": -76.97949666666666, "rental_uris": {"ios": "https://dc.lft.to/lastmile_qr_scan", "android": "https://dc.lft.to/lastmile_qr_scan"}, "bike_id": "33a03069d65c1ad49efefb7d80118d8d", "is_reserved": 0, "fusion_lon": 0.0}, {"lat": 38.84294283333333, "is_disabled": 0, "fusion_lat": 0.0, "name": "d17cff214bea4c7a3070561ee971b308", "type": "electric_bike", "lon": -77.063776, "rental_uris": {"ios": "https://dc.lft.to/lastmile_qr_scan", "android": "https://dc.lft.to/lastmile_qr_scan"}, "bike_id": "d17cff214bea4c7a3070561ee971b308", "is_reserved": 0, "fusion_lon": 0.0}, {"lat": 38.94370516666667, "is_disabled": 0, "fusion_lat": 0.0, "name": "e024da120d5118c5d6d48a9dad2f2602", "type": "electric_bike", "lon": -77.0774735, "rental_uris": {"ios": "https://dc.lft.to/lastmile_qr_scan", "android": "https://dc.lft.to/lastmile_qr_scan"}, "bike_id": "e024da120d5118c5d6d48a9dad2f2602", "is_reserved": 0, "fusion_lon": 0.0}, {"lat": 38.913665333333334, "is_disabled": 0, "fusion_lat": 0.0, "name": "e58f5edf460001598a8c8848636fd4e6", "type": "electric_scooter", "lon": -77.02194666666666, "rental_uris": {"ios": "https://dc.lft.to/lastmile_qr_scan", "android": "https://dc.lft.to/lastmile_qr_scan"}, "bike_id": "e58f5edf460001598a8c8848636fd4e6", "is_reserved": 0, "fusion_lon": 0.0}, {"lat": 38.8814445, "is_disabled": 0, "fusion_lat": 0.0, "name": "ba68c2404c216635bb9291f5d0e60a46", "type": "electric_bike", "lon": -77.027124, "rental_uris": {"ios": "https://dc.lft.to/lastmile_qr_scan", "android": "https://dc.lft.to/lastmile_qr_scan"}, "bike_id": "ba68c2404c216635bb9291f5d0e60a46", "is_reserved": 0, "fusion_lon": 0.0}, {"lat": 38.95248216666667, "is_disabled": 0, "fusion_lat": 0.0, "name": "f9264b5acfd78e66eb4010954555eaf3", "type": "electric_bike", "lon": -77.09623516666667, "rental_uris": {"ios": "https://dc.lft.to/lastmile_qr_scan", "android": "https://dc.lft.to/lastmile_qr_scan"}, "bike_id": "f9264b5acfd78e66eb4010954555eaf3", "is_reserved": 0, "fusion_lon": 0.0}, {"lat": 38.932259, "is_disabled": 0, "fusion_lat": 0.0, "name": "878d48d150933462fd845f09dcef4bfa", "type": "electric_bike", "lon": -76.9987345, "rental_uris": {"ios": "https://dc.lft.to/lastmile_qr_scan", "android": "https://dc.lft.to/lastmile_qr_scan"}, "bike_id": "878d48d150933462fd845f09dcef4bfa", "is_reserved": 0, "fusion_lon": 0.0}, {"lat": 38.9211185, "is_disabled": 0, "fusion_lat": 0.0, "name": "b4152e64e85cd56943d5ba185eb854ca", "type": "electric_scooter", "lon": -77.04204766666666, "rental_uris": {"ios": "https://dc.lft.to/lastmile_qr_scan", "android": "https://dc.lft.to/lastmile_qr_scan"}, "bike_id": "b4152e64e85cd56943d5ba185eb854ca", "is_reserved": 0, "fusion_lon": 0.0}, {"lat": 38.90779466666667, "is_disabled": 0, "fusion_lat": 0.0, "name": "ec626863163cf0b62081262748bd01c4", "type": "electric_scooter", "lon": -77.07165183333333, "rental_uris": {"ios": "https://dc.lft.to/lastmile_qr_scan", "android": "https://dc.lft.to/lastmile_qr_scan"}, "bike_id": "ec626863163cf0b62081262748bd01c4", "is_reserved": 0, "fusion_lon": 0.0}, {"lat": 38.9181705, "is_disabled": 0, "fusion_lat": 0.0, "name": "5ac40295eb2344ad88a0671e198843cf", "type": "electric_scooter", "lon": -77.02474766666667, "rental_uris": {"ios": "https://dc.lft.to/lastmile_qr_scan", "android": "https://dc.lft.to/lastmile_qr_scan"}, "bike_id": "5ac40295eb2344ad88a0671e198843cf", "is_reserved": 0, "fusion_lon": 0.0}, {"lat": 38.922035666666666, "is_disabled": 0, "fusion_lat": 0.0, "name": "8f958d9701ced60e113e5e04e03a63c7", "type": "electric_scooter", "lon": -77.01836816666666, "rental_uris": {"ios": "https://dc.lft.to/lastmile_qr_scan", "android": "https://dc.lft.to/lastmile_qr_scan"}, "bike_id": "8f958d9701ced60e113e5e04e03a63c7", "is_reserved": 0, "fusion_lon": 0.0}, {"lat": 38.91781566666667, "is_disabled": 0, "fusion_lat": 0.0, "name": "4a77e291f5b8bf669f8bfe1bbd5ab7a5", "type": "electric_scooter", "lon": -77.0433065, "rental_uris": {"ios": "https://dc.lft.to/lastmile_qr_scan", "android": "https://dc.lft.to/lastmile_qr_scan"}, "bike_id": "4a77e291f5b8bf669f8bfe1bbd5ab7a5", "is_reserved": 0, "fusion_lon": 0.0}, {"lat": 38.922223, "is_disabled": 0, "fusion_lat": 0.0, "name": "9c0eb9837ebc5865a091138e1b2b1965", "type": "electric_scooter", "lon": -77.0423625, "rental_uris": {"ios": "https://dc.lft.to/lastmile_qr_scan", "android": "https://dc.lft.to/lastmile_qr_scan"}, "bike_id": "9c0eb9837ebc5865a091138e1b2b1965", "is_reserved": 0, "fusion_lon": 0.0}, {"lat": 38.92972116666667, "is_disabled": 0, "fusion_lat": 0.0, "name": "d7530b83dc3a1d9fc8e1ea93a6ab5dfd", "type": "electric_scooter", "lon": -77.03153516666667, "rental_uris": {"ios": "https://dc.lft.to/lastmile_qr_scan", "android": "https://dc.lft.to/lastmile_qr_scan"}, "bike_id": "d7530b83dc3a1d9fc8e1ea93a6ab5dfd", "is_reserved": 0, "fusion_lon": 0.0}, {"lat": 38.922432, "is_disabled": 0, "fusion_lat": 0.0, "name": "8aad6dbbf6dc03eca925f6e4649e9a28", "type": "electric_scooter", "lon": -77.03665016666666, "rental_uris": {"ios": "https://dc.lft.to/lastmile_qr_scan", "android": "https://dc.lft.to/lastmile_qr_scan"}, "bike_id": "8aad6dbbf6dc03eca925f6e4649e9a28", "is_reserved": 0, "fusion_lon": 0.0}, {"lat": 38.92062683333333, "is_disabled": 0, "fusion_lat": 0.0, "name": "05ee8ed59f1e97a66b25917a6b0a8d99", "type": "electric_scooter", "lon": -77.04189116666667, "rental_uris": {"ios": "https://dc.lft.to/lastmile_qr_scan", "android": "https://dc.lft.to/lastmile_qr_scan"}, "bike_id": "05ee8ed59f1e97a66b25917a6b0a8d99", "is_reserved": 0, "fusion_lon": 0.0}, {"lat": 38.895103666666664, "is_disabled": 0, "fusion_lat": 0.0, "name": "1322b816b7d50bf08da045668c5f6b92", "type": "electric_scooter", "lon": -76.948831, "rental_uris": {"ios": "https://dc.lft.to/lastmile_qr_scan", "android": "https://dc.lft.to/lastmile_qr_scan"}, "bike_id": "1322b816b7d50bf08da045668c5f6b92", "is_reserved": 0, "fusion_lon": 0.0}, {"lat": 38.935232, "is_disabled": 0, "fusion_lat": 0.0, "name": "53f91323e0d1b76e42df11c688f04b70", "type": "electric_bike", "lon": -76.98345033333334, "rental_uris": {"ios": "https://dc.lft.to/lastmile_qr_scan", "android": "https://dc.lft.to/lastmile_qr_scan"}, "bike_id": "53f91323e0d1b76e42df11c688f04b70", "is_reserved": 0, "fusion_lon": 0.0}, {"lat": 38.92061433333333, "is_disabled": 0, "fusion_lat": 0.0, "name": "0fc850e30eda971db8b38f6917889226", "type": "electric_scooter", "lon": -77.02302066666667, "rental_uris": {"ios": "https://dc.lft.to/lastmile_qr_scan", "android": "https://dc.lft.to/lastmile_qr_scan"}, "bike_id": "0fc850e30eda971db8b38f6917889226", "is_reserved": 0, "fusion_lon": 0.0}, {"lat": 38.89008416666667, "is_disabled": 0, "fusion_lat": 0.0, "name": "b7151e4e8b8464fc69ccfd306c1a344c", "type": "electric_scooter", "lon": -76.9374775, "rental_uris": {"ios": "https://dc.lft.to/lastmile_qr_scan", "android": "https://dc.lft.to/lastmile_qr_scan"}, "bike_id": "b7151e4e8b8464fc69ccfd306c1a344c", "is_reserved": 0, "fusion_lon": 0.0}, {"lat": 38.994986833333336, "is_disabled": 0, "fusion_lat": 0.0, "name": "b04e8ecea02563bc873d43f84def325b", "type": "electric_bike", "lon": -77.0013115, "rental_uris": {"ios": "https://dc.lft.to/lastmile_qr_scan", "android": "https://dc.lft.to/lastmile_qr_scan"}, "bike_id": "b04e8ecea02563bc873d43f84def325b", "is_reserved": 0, "fusion_lon": 0.0}, {"lat": 38.9187255, "is_disabled": 0, "fusion_lat": 0.0, "name": "8fc2477b54654903155839d63bcb703b", "type": "electric_scooter", "lon": -77.04489133333334, "rental_uris": {"ios": "https://dc.lft.to/lastmile_qr_scan", "android": "https://dc.lft.to/lastmile_qr_scan"}, "bike_id": "8fc2477b54654903155839d63bcb703b", "is_reserved": 0, "fusion_lon": 0.0}, {"lat": 38.90787433333333, "is_disabled": 0, "fusion_lat": 0.0, "name": "0ab10b0aa6a06b2ead715e66cfe9dde0", "type": "electric_scooter", "lon": -77.0107925, "rental_uris": {"ios": "https://dc.lft.to/lastmile_qr_scan", "android": "https://dc.lft.to/lastmile_qr_scan"}, "bike_id": "0ab10b0aa6a06b2ead715e66cfe9dde0", "is_reserved": 0, "fusion_lon": 0.0}, {"lat": 38.88388366666667, "is_disabled": 0, "fusion_lat": 0.0, "name": "16820e0e9c9024bd132a9d28aa9f91f9", "type": "electric_scooter", "lon": -76.9950285, "rental_uris": {"ios": "https://dc.lft.to/lastmile_qr_scan", "android": "https://dc.lft.to/lastmile_qr_scan"}, "bike_id": "16820e0e9c9024bd132a9d28aa9f91f9", "is_reserved": 0, "fusion_lon": 0.0}, {"lat": 38.963866333333335, "is_disabled": 0, "fusion_lat": 0.0, "name": "796cdbc9a772e10bdec62a746ffe7a04", "type": "electric_scooter", "lon": -77.02765433333333, "rental_uris": {"ios": "https://dc.lft.to/lastmile_qr_scan", "android": "https://dc.lft.to/lastmile_qr_scan"}, "bike_id": "796cdbc9a772e10bdec62a746ffe7a04", "is_reserved": 0, "fusion_lon": 0.0}, {"lat": 38.8360725, "is_disabled": 0, "fusion_lat": 0.0, "name": "7ded336e20811c8a9d9c7bf6f405d2d2", "type": "electric_bike", "lon": -77.00377283333333, "rental_uris": {"ios": "https://dc.lft.to/lastmile_qr_scan", "android": "https://dc.lft.to/lastmile_qr_scan"}, "bike_id": "7ded336e20811c8a9d9c7bf6f405d2d2", "is_reserved": 0, "fusion_lon": 0.0}, {"lat": 38.937528666666665, "is_disabled": 0, "fusion_lat": 0.0, "name": "cd034844a0758df7bb2453b5239a36b7", "type": "electric_scooter", "lon": -77.03263283333334, "rental_uris": {"ios": "https://dc.lft.to/lastmile_qr_scan", "android": "https://dc.lft.to/lastmile_qr_scan"}, "bike_id": "cd034844a0758df7bb2453b5239a36b7", "is_reserved": 0, "fusion_lon": 0.0}, {"lat": 38.91193533333333, "is_disabled": 0, "fusion_lat": 0.0, "name": "08573cd39ca40db014403ccf2bb50c01", "type": "electric_scooter", "lon": -77.01812383333333, "rental_uris": {"ios": "https://dc.lft.to/lastmile_qr_scan", "android": "https://dc.lft.to/lastmile_qr_scan"}, "bike_id": "08573cd39ca40db014403ccf2bb50c01", "is_reserved": 0, "fusion_lon": 0.0}, {"lat": 38.894768166666665, "is_disabled": 0, "fusion_lat": 0.0, "name": "dd9dbd754838730acaea520f1c30c4f5", "type": "electric_scooter", "lon": -77.045317, "rental_uris": {"ios": "https://dc.lft.to/lastmile_qr_scan", "android": "https://dc.lft.to/lastmile_qr_scan"}, "bike_id": "dd9dbd754838730acaea520f1c30c4f5", "is_reserved": 0, "fusion_lon": 0.0}, {"lat": 38.8337975, "is_disabled": 0, "fusion_lat": 0.0, "name": "15ab8a90a758bcff74c559c9f86c032b", "type": "electric_scooter", "lon": -77.003028, "rental_uris": {"ios": "https://dc.lft.to/lastmile_qr_scan", "android": "https://dc.lft.to/lastmile_qr_scan"}, "bike_id": "15ab8a90a758bcff74c559c9f86c032b", "is_reserved": 0, "fusion_lon": 0.0}, {"lat": 38.95638983333333, "is_disabled": 0, "fusion_lat": 0.0, "name": "77af1de83ba5bf90cc02b7d0cedb9094", "type": "electric_scooter", "lon": -77.0243375, "rental_uris": {"ios": "https://dc.lft.to/lastmile_qr_scan", "android": "https://dc.lft.to/lastmile_qr_scan"}, "bike_id": "77af1de83ba5bf90cc02b7d0cedb9094", "is_reserved": 0, "fusion_lon": 0.0}, {"lat": 38.91491883333333, "is_disabled": 0, "fusion_lat": 0.0, "name": "eccd07ff22e342e5814037dd68f588dc", "type": "electric_scooter", "lon": -77.01780566666666, "rental_uris": {"ios": "https://dc.lft.to/lastmile_qr_scan", "android": "https://dc.lft.to/lastmile_qr_scan"}, "bike_id": "eccd07ff22e342e5814037dd68f588dc", "is_reserved": 0, "fusion_lon": 0.0}, {"lat": 38.909761833333334, "is_disabled": 0, "fusion_lat": 0.0, "name": "9c705891c1a327740c258eed6d96efc4", "type": "electric_scooter", "lon": -77.048195, "rental_uris": {"ios": "https://dc.lft.to/lastmile_qr_scan", "android": "https://dc.lft.to/lastmile_qr_scan"}, "bike_id": "9c705891c1a327740c258eed6d96efc4", "is_reserved": 0, "fusion_lon": 0.0}, {"lat": 38.9470715, "is_disabled": 0, "fusion_lat": 0.0, "name": "d680d2e73d0e36361f5a2f055b1d6739", "type": "electric_scooter", "lon": -77.01934433333334, "rental_uris": {"ios": "https://dc.lft.to/lastmile_qr_scan", "android": "https://dc.lft.to/lastmile_qr_scan"}, "bike_id": "d680d2e73d0e36361f5a2f055b1d6739", "is_reserved": 0, "fusion_lon": 0.0}, {"lat": 38.91281716666667, "is_disabled": 0, "fusion_lat": 0.0, "name": "0603e7ac5b94f352e8e2a70a91738584", "type": "electric_scooter", "lon": -77.06794366666666, "rental_uris": {"ios": "https://dc.lft.to/lastmile_qr_scan", "android": "https://dc.lft.to/lastmile_qr_scan"}, "bike_id": "0603e7ac5b94f352e8e2a70a91738584", "is_reserved": 0, "fusion_lon": 0.0}, {"lat": 38.9243315, "is_disabled": 0, "fusion_lat": 0.0, "name": "038d813bec20e5e86aff80cba55de619", "type": "electric_scooter", "lon": -77.0194315, "rental_uris": {"ios": "https://dc.lft.to/lastmile_qr_scan", "android": "https://dc.lft.to/lastmile_qr_scan"}, "bike_id": "038d813bec20e5e86aff80cba55de619", "is_reserved": 0, "fusion_lon": 0.0}, {"lat": 38.90054583333333, "is_disabled": 0, "fusion_lat": 0.0, "name": "17c6f85d6d2ae9a5d9fd42b6aa9c79d2", "type": "electric_scooter", "lon": -77.04743866666666, "rental_uris": {"ios": "https://dc.lft.to/lastmile_qr_scan", "android": "https://dc.lft.to/lastmile_qr_scan"}, "bike_id": "17c6f85d6d2ae9a5d9fd42b6aa9c79d2", "is_reserved": 0, "fusion_lon": 0.0}, {"lat": 38.92863883333333, "is_disabled": 0, "fusion_lat": 0.0, "name": "cce8b8f0ea9586d00440051fad0ab8cd", "type": "electric_scooter", "lon": -77.0373845, "rental_uris": {"ios": "https://dc.lft.to/lastmile_qr_scan", "android": "https://dc.lft.to/lastmile_qr_scan"}, "bike_id": "cce8b8f0ea9586d00440051fad0ab8cd", "is_reserved": 0, "fusion_lon": 0.0}, {"lat": 38.884770833333334, "is_disabled": 0, "fusion_lat": 0.0, "name": "352315ef740467ca0007de69db4cb963", "type": "electric_scooter", "lon": -77.033443, "rental_uris": {"ios": "https://dc.lft.to/lastmile_qr_scan", "android": "https://dc.lft.to/lastmile_qr_scan"}, "bike_id": "352315ef740467ca0007de69db4cb963", "is_reserved": 0, "fusion_lon": 0.0}, {"lat": 38.871659, "is_disabled": 0, "fusion_lat": 0.0, "name": "38b47b701af30505e84d0b9cbff52769", "type": "electric_scooter", "lon": -77.00634183333334, "rental_uris": {"ios": "https://dc.lft.to/lastmile_qr_scan", "android": "https://dc.lft.to/lastmile_qr_scan"}, "bike_id": "38b47b701af30505e84d0b9cbff52769", "is_reserved": 0, "fusion_lon": 0.0}, {"lat": 38.90172666666667, "is_disabled": 0, "fusion_lat": 0.0, "name": "2f83c7f259be3d48350eb771f0a81e92", "type": "electric_scooter", "lon": -77.02199466666667, "rental_uris": {"ios": "https://dc.lft.to/lastmile_qr_scan", "android": "https://dc.lft.to/lastmile_qr_scan"}, "bike_id": "2f83c7f259be3d48350eb771f0a81e92", "is_reserved": 0, "fusion_lon": 0.0}, {"lat": 38.88768533333333, "is_disabled": 0, "fusion_lat": 0.0, "name": "367744f692a4037835b1b598aac159d8", "type": "electric_scooter", "lon": -76.9772975, "rental_uris": {"ios": "https://dc.lft.to/lastmile_qr_scan", "android": "https://dc.lft.to/lastmile_qr_scan"}, "bike_id": "367744f692a4037835b1b598aac159d8", "is_reserved": 0, "fusion_lon": 0.0}, {"lat": 38.91980266666667, "is_disabled": 0, "fusion_lat": 0.0, "name": "df15ae66c69f5b7e8376ff608756974d", "type": "electric_scooter", "lon": -77.03783416666667, "rental_uris": {"ios": "https://dc.lft.to/lastmile_qr_scan", "android": "https://dc.lft.to/lastmile_qr_scan"}, "bike_id": "df15ae66c69f5b7e8376ff608756974d", "is_reserved": 0, "fusion_lon": 0.0}, {"lat": 38.8877065, "is_disabled": 0, "fusion_lat": 0.0, "name": "d588b21dbf9dbfc0381d3caefcfde7b0", "type": "electric_scooter", "lon": -76.97733316666667, "rental_uris": {"ios": "https://dc.lft.to/lastmile_qr_scan", "android": "https://dc.lft.to/lastmile_qr_scan"}, "bike_id": "d588b21dbf9dbfc0381d3caefcfde7b0", "is_reserved": 0, "fusion_lon": 0.0}, {"lat": 38.8986825, "is_disabled": 0, "fusion_lat": 0.0, "name": "7b3fb8c096203809075868fca1c20d7a", "type": "electric_scooter", "lon": -76.946638, "rental_uris": {"ios": "https://dc.lft.to/lastmile_qr_scan", "android": "https://dc.lft.to/lastmile_qr_scan"}, "bike_id": "7b3fb8c096203809075868fca1c20d7a", "is_reserved": 0, "fusion_lon": 0.0}, {"lat": 38.87626933333333, "is_disabled": 0, "fusion_lat": 0.0, "name": "bb8d13172b6de76e31e714f06d2aa8ab", "type": "electric_scooter", "lon": -77.00212316666666, "rental_uris": {"ios": "https://dc.lft.to/lastmile_qr_scan", "android": "https://dc.lft.to/lastmile_qr_scan"}, "bike_id": "bb8d13172b6de76e31e714f06d2aa8ab", "is_reserved": 0, "fusion_lon": 0.0}, {"lat": 38.912628833333336, "is_disabled": 0, "fusion_lat": 0.0, "name": "b7bedb461269fa928462dbb26c1be191", "type": "electric_scooter", "lon": -77.04761816666667, "rental_uris": {"ios": "https://dc.lft.to/lastmile_qr_scan", "android": "https://dc.lft.to/lastmile_qr_scan"}, "bike_id": "b7bedb461269fa928462dbb26c1be191", "is_reserved": 0, "fusion_lon": 0.0}, {"lat": 38.917963, "is_disabled": 0, "fusion_lat": 0.0, "name": "e5fc80407bd4c9a257f6725a791ec465", "type": "electric_scooter", "lon": -77.023341, "rental_uris": {"ios": "https://dc.lft.to/lastmile_qr_scan", "android": "https://dc.lft.to/lastmile_qr_scan"}, "bike_id": "e5fc80407bd4c9a257f6725a791ec465", "is_reserved": 0, "fusion_lon": 0.0}, {"lat": 38.90386566666667, "is_disabled": 0, "fusion_lat": 0.0, "name": "239f792feb1f8f18b243e687b86bad7b", "type": "electric_scooter", "lon": -77.06111383333334, "rental_uris": {"ios": "https://dc.lft.to/lastmile_qr_scan", "android": "https://dc.lft.to/lastmile_qr_scan"}, "bike_id": "239f792feb1f8f18b243e687b86bad7b", "is_reserved": 0, "fusion_lon": 0.0}, {"lat": 38.915719333333335, "is_disabled": 0, "fusion_lat": 0.0, "name": "e05675c54a36d4ba79993f89164e431f", "type": "electric_scooter", "lon": -77.01991216666667, "rental_uris": {"ios": "https://dc.lft.to/lastmile_qr_scan", "android": "https://dc.lft.to/lastmile_qr_scan"}, "bike_id": "e05675c54a36d4ba79993f89164e431f", "is_reserved": 0, "fusion_lon": 0.0}, {"lat": 38.89743716666667, "is_disabled": 0, "fusion_lat": 0.0, "name": "f777b4516e4ff3347951a012e51a0db3", "type": "electric_scooter", "lon": -77.02455733333333, "rental_uris": {"ios": "https://dc.lft.to/lastmile_qr_scan", "android": "https://dc.lft.to/lastmile_qr_scan"}, "bike_id": "f777b4516e4ff3347951a012e51a0db3", "is_reserved": 0, "fusion_lon": 0.0}, {"lat": 38.89056033333333, "is_disabled": 0, "fusion_lat": 0.0, "name": "d72e96bbb63eea7eae4e5ace4ccd6edf", "type": "electric_scooter", "lon": -77.01501733333333, "rental_uris": {"ios": "https://dc.lft.to/lastmile_qr_scan", "android": "https://dc.lft.to/lastmile_qr_scan"}, "bike_id": "d72e96bbb63eea7eae4e5ace4ccd6edf", "is_reserved": 0, "fusion_lon": 0.0}, {"lat": 38.902613333333335, "is_disabled": 0, "fusion_lat": 0.0, "name": "34163544c9a438dbd34e7e94fbd06b55", "type": "electric_scooter", "lon": -77.0172065, "rental_uris": {"ios": "https://dc.lft.to/lastmile_qr_scan", "android": "https://dc.lft.to/lastmile_qr_scan"}, "bike_id": "34163544c9a438dbd34e7e94fbd06b55", "is_reserved": 0, "fusion_lon": 0.0}, {"lat": 38.914129833333334, "is_disabled": 0, "fusion_lat": 0.0, "name": "735eac7eb5917ba1faaace882a929501", "type": "electric_scooter", "lon": -77.022135, "rental_uris": {"ios": "https://dc.lft.to/lastmile_qr_scan", "android": "https://dc.lft.to/lastmile_qr_scan"}, "bike_id": "735eac7eb5917ba1faaace882a929501", "is_reserved": 0, "fusion_lon": 0.0}, {"lat": 38.90721033333333, "is_disabled": 0, "fusion_lat": 0.0, "name": "6f3f2209834280a226c96126224882b2", "type": "electric_scooter", "lon": -77.051336, "rental_uris": {"ios": "https://dc.lft.to/lastmile_qr_scan", "android": "https://dc.lft.to/lastmile_qr_scan"}, "bike_id": "6f3f2209834280a226c96126224882b2", "is_reserved": 0, "fusion_lon": 0.0}, {"lat": 38.89742233333333, "is_disabled": 0, "fusion_lat": 0.0, "name": "a110fbc8dd24018d4cd76d3219ccbc38", "type": "electric_scooter", "lon": -76.992112, "rental_uris": {"ios": "https://dc.lft.to/lastmile_qr_scan", "android": "https://dc.lft.to/lastmile_qr_scan"}, "bike_id": "a110fbc8dd24018d4cd76d3219ccbc38", "is_reserved": 0, "fusion_lon": 0.0}, {"lat": 38.9092585, "is_disabled": 0, "fusion_lat": 0.0, "name": "88bfd82805f173c0a37458813e97fe98", "type": "electric_scooter", "lon": -77.04496683333333, "rental_uris": {"ios": "https://dc.lft.to/lastmile_qr_scan", "android": "https://dc.lft.to/lastmile_qr_scan"}, "bike_id": "88bfd82805f173c0a37458813e97fe98", "is_reserved": 0, "fusion_lon": 0.0}, {"lat": 38.899659666666665, "is_disabled": 0, "fusion_lat": 0.0, "name": "a02d2be9218d87442c70187f457fe705", "type": "electric_scooter", "lon": -77.015027, "rental_uris": {"ios": "https://dc.lft.to/lastmile_qr_scan", "android": "https://dc.lft.to/lastmile_qr_scan"}, "bike_id": "a02d2be9218d87442c70187f457fe705", "is_reserved": 0, "fusion_lon": 0.0}, {"lat": 38.89932983333333, "is_disabled": 0, "fusion_lat": 0.0, "name": "de7e6002fc2647f90df466b22953157c", "type": "electric_scooter", "lon": -77.0278225, "rental_uris": {"ios": "https://dc.lft.to/lastmile_qr_scan", "android": "https://dc.lft.to/lastmile_qr_scan"}, "bike_id": "de7e6002fc2647f90df466b22953157c", "is_reserved": 0, "fusion_lon": 0.0}, {"lat": 38.90237716666667, "is_disabled": 0, "fusion_lat": 0.0, "name": "f87015b4a01fa74dcf75b62a974af3cf", "type": "electric_scooter", "lon": -77.03271283333333, "rental_uris": {"ios": "https://dc.lft.to/lastmile_qr_scan", "android": "https://dc.lft.to/lastmile_qr_scan"}, "bike_id": "f87015b4a01fa74dcf75b62a974af3cf", "is_reserved": 0, "fusion_lon": 0.0}, {"lat": 38.915500333333334, "is_disabled": 0, "fusion_lat": 0.0, "name": "dc8558fccc8cf53785027491ec255b8d", "type": "electric_scooter", "lon": -76.98364783333334, "rental_uris": {"ios": "https://dc.lft.to/lastmile_qr_scan", "android": "https://dc.lft.to/lastmile_qr_scan"}, "bike_id": "dc8558fccc8cf53785027491ec255b8d", "is_reserved": 0, "fusion_lon": 0.0}, {"lat": 38.914209, "is_disabled": 0, "fusion_lat": 0.0, "name": "d8e913ff1b1de5dd9d78b0f31f460504", "type": "electric_scooter", "lon": -77.01802383333333, "rental_uris": {"ios": "https://dc.lft.to/lastmile_qr_scan", "android": "https://dc.lft.to/lastmile_qr_scan"}, "bike_id": "d8e913ff1b1de5dd9d78b0f31f460504", "is_reserved": 0, "fusion_lon": 0.0}, {"lat": 38.875801833333334, "is_disabled": 0, "fusion_lat": 0.0, "name": "bace71dc641c2795828be311584ae3f4", "type": "electric_bike", "lon": -77.234095, "rental_uris": {"ios": "https://dc.lft.to/lastmile_qr_scan", "android": "https://dc.lft.to/lastmile_qr_scan"}, "bike_id": "bace71dc641c2795828be311584ae3f4", "is_reserved": 0, "fusion_lon": 0.0}, {"lat": 38.893289833333334, "is_disabled": 0, "fusion_lat": 0.0, "name": "f7159f3a44a0cc5e59b83b8fe3a1e937", "type": "electric_scooter", "lon": -76.93928416666667, "rental_uris": {"ios": "https://dc.lft.to/lastmile_qr_scan", "android": "https://dc.lft.to/lastmile_qr_scan"}, "bike_id": "f7159f3a44a0cc5e59b83b8fe3a1e937", "is_reserved": 0, "fusion_lon": 0.0}, {"lat": 38.902160333333335, "is_disabled": 0, "fusion_lat": 0.0, "name": "e5fb471e458eada976e9499491ed4fbc", "type": "electric_scooter", "lon": -77.02366116666667, "rental_uris": {"ios": "https://dc.lft.to/lastmile_qr_scan", "android": "https://dc.lft.to/lastmile_qr_scan"}, "bike_id": "e5fb471e458eada976e9499491ed4fbc", "is_reserved": 0, "fusion_lon": 0.0}, {"lat": 38.878829333333336, "is_disabled": 0, "fusion_lat": 0.0, "name": "77c5f344756621949b05d587632aa97c", "type": "electric_scooter", "lon": -77.02316866666666, "rental_uris": {"ios": "https://dc.lft.to/lastmile_qr_scan", "android": "https://dc.lft.to/lastmile_qr_scan"}, "bike_id": "77c5f344756621949b05d587632aa97c", "is_reserved": 0, "fusion_lon": 0.0}, {"lat": 38.923981166666664, "is_disabled": 0, "fusion_lat": 0.0, "name": "3d25657565306a919397b6b82d6694df", "type": "electric_scooter", "lon": -77.04304916666666, "rental_uris": {"ios": "https://dc.lft.to/lastmile_qr_scan", "android": "https://dc.lft.to/lastmile_qr_scan"}, "bike_id": "3d25657565306a919397b6b82d6694df", "is_reserved": 0, "fusion_lon": 0.0}, {"lat": 38.8962935, "is_disabled": 0, "fusion_lat": 0.0, "name": "9ff0bf70d1580ae55061ddeb1abab408", "type": "electric_scooter", "lon": -77.02618066666666, "rental_uris": {"ios": "https://dc.lft.to/lastmile_qr_scan", "android": "https://dc.lft.to/lastmile_qr_scan"}, "bike_id": "9ff0bf70d1580ae55061ddeb1abab408", "is_reserved": 0, "fusion_lon": 0.0}, {"lat": 38.92443033333333, "is_disabled": 0, "fusion_lat": 0.0, "name": "6c0c1fc2409f6c97e878cfc302d95451", "type": "electric_scooter", "lon": -77.042438, "rental_uris": {"ios": "https://dc.lft.to/lastmile_qr_scan", "android": "https://dc.lft.to/lastmile_qr_scan"}, "bike_id": "6c0c1fc2409f6c97e878cfc302d95451", "is_reserved": 0, "fusion_lon": 0.0}, {"lat": 38.87546416666667, "is_disabled": 0, "fusion_lat": 0.0, "name": "fa733c5cbeeea984a510b2469f08185b", "type": "electric_scooter", "lon": -77.005361, "rental_uris": {"ios": "https://dc.lft.to/lastmile_qr_scan", "android": "https://dc.lft.to/lastmile_qr_scan"}, "bike_id": "fa733c5cbeeea984a510b2469f08185b", "is_reserved": 0, "fusion_lon": 0.0}, {"lat": 38.8998895, "is_disabled": 0, "fusion_lat": 0.0, "name": "2177f0ed694bf0f19ab302ffb21a3ee6", "type": "electric_scooter", "lon": -77.02163533333334, "rental_uris": {"ios": "https://dc.lft.to/lastmile_qr_scan", "android": "https://dc.lft.to/lastmile_qr_scan"}, "bike_id": "2177f0ed694bf0f19ab302ffb21a3ee6", "is_reserved": 0, "fusion_lon": 0.0}, {"lat": 38.87658016666666, "is_disabled": 0, "fusion_lat": 0.0, "name": "fa179713be7b9b3e3691cee3fe68db49", "type": "electric_scooter", "lon": -77.000612, "rental_uris": {"ios": "https://dc.lft.to/lastmile_qr_scan", "android": "https://dc.lft.to/lastmile_qr_scan"}, "bike_id": "fa179713be7b9b3e3691cee3fe68db49", "is_reserved": 0, "fusion_lon": 0.0}, {"lat": 38.924856166666665, "is_disabled": 0, "fusion_lat": 0.0, "name": "4ec463640ab12acbf257140e97b4ac3f", "type": "electric_scooter", "lon": -77.0222065, "rental_uris": {"ios": "https://dc.lft.to/lastmile_qr_scan", "android": "https://dc.lft.to/lastmile_qr_scan"}, "bike_id": "4ec463640ab12acbf257140e97b4ac3f", "is_reserved": 0, "fusion_lon": 0.0}, {"lat": 38.867507, "is_disabled": 0, "fusion_lat": 0.0, "name": "619d377ae57978500591fcda922cbac2", "type": "electric_scooter", "lon": -77.0014535, "rental_uris": {"ios": "https://dc.lft.to/lastmile_qr_scan", "android": "https://dc.lft.to/lastmile_qr_scan"}, "bike_id": "619d377ae57978500591fcda922cbac2", "is_reserved": 0, "fusion_lon": 0.0}, {"lat": 38.89682633333334, "is_disabled": 0, "fusion_lat": 0.0, "name": "4851db97f19e4c9db8b2cee91fe4d823", "type": "electric_scooter", "lon": -77.01202066666667, "rental_uris": {"ios": "https://dc.lft.to/lastmile_qr_scan", "android": "https://dc.lft.to/lastmile_qr_scan"}, "bike_id": "4851db97f19e4c9db8b2cee91fe4d823", "is_reserved": 0, "fusion_lon": 0.0}, {"lat": 38.8948525, "is_disabled": 0, "fusion_lat": 0.0, "name": "8adb460409b913b417047cb5562fc16a", "type": "electric_scooter", "lon": -76.995135, "rental_uris": {"ios": "https://dc.lft.to/lastmile_qr_scan", "android": "https://dc.lft.to/lastmile_qr_scan"}, "bike_id": "8adb460409b913b417047cb5562fc16a", "is_reserved": 0, "fusion_lon": 0.0}, {"lat": 38.9258065, "is_disabled": 0, "fusion_lat": 0.0, "name": "f4b88689bcab575f7c7046613657bbc7", "type": "electric_scooter", "lon": -77.028082, "rental_uris": {"ios": "https://dc.lft.to/lastmile_qr_scan", "android": "https://dc.lft.to/lastmile_qr_scan"}, "bike_id": "f4b88689bcab575f7c7046613657bbc7", "is_reserved": 0, "fusion_lon": 0.0}, {"lat": 38.866671333333336, "is_disabled": 0, "fusion_lat": 0.0, "name": "312f0691f9d9ae717cd05325fdaa5ef8", "type": "electric_scooter", "lon": -76.98510233333333, "rental_uris": {"ios": "https://dc.lft.to/lastmile_qr_scan", "android": "https://dc.lft.to/lastmile_qr_scan"}, "bike_id": "312f0691f9d9ae717cd05325fdaa5ef8", "is_reserved": 0, "fusion_lon": 0.0}, {"lat": 38.8985585, "is_disabled": 0, "fusion_lat": 0.0, "name": "6db22c8c459b63dcd3c916f6bfa97c5b", "type": "electric_scooter", "lon": -77.0318845, "rental_uris": {"ios": "https://dc.lft.to/lastmile_qr_scan", "android": "https://dc.lft.to/lastmile_qr_scan"}, "bike_id": "6db22c8c459b63dcd3c916f6bfa97c5b", "is_reserved": 0, "fusion_lon": 0.0}, {"lat": 39.0251955, "is_disabled": 0, "fusion_lat": 0.0, "name": "259fed353355c219d7090eea45d3feb2", "type": "electric_bike", "lon": -77.01965783333333, "rental_uris": {"ios": "https://dc.lft.to/lastmile_qr_scan", "android": "https://dc.lft.to/lastmile_qr_scan"}, "bike_id": "259fed353355c219d7090eea45d3feb2", "is_reserved": 0, "fusion_lon": 0.0}, {"lat": 38.88743216666667, "is_disabled": 0, "fusion_lat": 0.0, "name": "924b3411a07ba8286c31a62d8f5992fc", "type": "electric_scooter", "lon": -77.00321333333333, "rental_uris": {"ios": "https://dc.lft.to/lastmile_qr_scan", "android": "https://dc.lft.to/lastmile_qr_scan"}, "bike_id": "924b3411a07ba8286c31a62d8f5992fc", "is_reserved": 0, "fusion_lon": 0.0}, {"lat": 38.921152, "is_disabled": 0, "fusion_lat": 0.0, "name": "adfd47d3552d2645b3121facb8ab5366", "type": "electric_scooter", "lon": -77.0420455, "rental_uris": {"ios": "https://dc.lft.to/lastmile_qr_scan", "android": "https://dc.lft.to/lastmile_qr_scan"}, "bike_id": "adfd47d3552d2645b3121facb8ab5366", "is_reserved": 0, "fusion_lon": 0.0}, {"lat": 38.8878285, "is_disabled": 0, "fusion_lat": 0.0, "name": "f4b0a5de5bb0e103a99cd4bc7c470709", "type": "electric_scooter", "lon": -76.955224, "rental_uris": {"ios": "https://dc.lft.to/lastmile_qr_scan", "android": "https://dc.lft.to/lastmile_qr_scan"}, "bike_id": "f4b0a5de5bb0e103a99cd4bc7c470709", "is_reserved": 0, "fusion_lon": 0.0}, {"lat": 39.08511083333333, "is_disabled": 0, "fusion_lat": 0.0, "name": "e494074a6e080d96a9c53b010323c23e", "type": "electric_bike", "lon": -76.95056416666667, "rental_uris": {"ios": "https://dc.lft.to/lastmile_qr_scan", "android": "https://dc.lft.to/lastmile_qr_scan"}, "bike_id": "e494074a6e080d96a9c53b010323c23e", "is_reserved": 0, "fusion_lon": 0.0}, {"lat": 38.892444166666664, "is_disabled": 0, "fusion_lat": 0.0, "name": "377c0005041b9ce791e099a62b915ed9", "type": "electric_scooter", "lon": -77.03181516666666, "rental_uris": {"ios": "https://dc.lft.to/lastmile_qr_scan", "android": "https://dc.lft.to/lastmile_qr_scan"}, "bike_id": "377c0005041b9ce791e099a62b915ed9", "is_reserved": 0, "fusion_lon": 0.0}, {"lat": 38.891759666666665, "is_disabled": 0, "fusion_lat": 0.0, "name": "589c43b1a01287af2842cc5fcf1a5467", "type": "electric_scooter", "lon": -77.01559283333333, "rental_uris": {"ios": "https://dc.lft.to/lastmile_qr_scan", "android": "https://dc.lft.to/lastmile_qr_scan"}, "bike_id": "589c43b1a01287af2842cc5fcf1a5467", "is_reserved": 0, "fusion_lon": 0.0}, {"lat": 38.930998833333334, "is_disabled": 0, "fusion_lat": 0.0, "name": "1df6696c605b2004af701766563d5cf9", "type": "electric_scooter", "lon": -77.024678, "rental_uris": {"ios": "https://dc.lft.to/lastmile_qr_scan", "android": "https://dc.lft.to/lastmile_qr_scan"}, "bike_id": "1df6696c605b2004af701766563d5cf9", "is_reserved": 0, "fusion_lon": 0.0}, {"lat": 38.905621833333335, "is_disabled": 0, "fusion_lat": 0.0, "name": "4937bce6a03f956201341cac91cec17d", "type": "electric_scooter", "lon": -77.05012, "rental_uris": {"ios": "https://dc.lft.to/lastmile_qr_scan", "android": "https://dc.lft.to/lastmile_qr_scan"}, "bike_id": "4937bce6a03f956201341cac91cec17d", "is_reserved": 0, "fusion_lon": 0.0}, {"lat": 38.89772966666666, "is_disabled": 0, "fusion_lat": 0.0, "name": "dd9a1c72b2a08ed623ede1d54d674307", "type": "electric_scooter", "lon": -77.0316195, "rental_uris": {"ios": "https://dc.lft.to/lastmile_qr_scan", "android": "https://dc.lft.to/lastmile_qr_scan"}, "bike_id": "dd9a1c72b2a08ed623ede1d54d674307", "is_reserved": 0, "fusion_lon": 0.0}, {"lat": 38.909673166666664, "is_disabled": 0, "fusion_lat": 0.0, "name": "c5b8a0642a23c121baa5fb2244f835c1", "type": "electric_scooter", "lon": -77.03341483333334, "rental_uris": {"ios": "https://dc.lft.to/lastmile_qr_scan", "android": "https://dc.lft.to/lastmile_qr_scan"}, "bike_id": "c5b8a0642a23c121baa5fb2244f835c1", "is_reserved": 0, "fusion_lon": 0.0}, {"lat": 38.921029833333336, "is_disabled": 0, "fusion_lat": 0.0, "name": "a563c91177904c4501af708276073811", "type": "electric_scooter", "lon": -77.04700383333333, "rental_uris": {"ios": "https://dc.lft.to/lastmile_qr_scan", "android": "https://dc.lft.to/lastmile_qr_scan"}, "bike_id": "a563c91177904c4501af708276073811", "is_reserved": 0, "fusion_lon": 0.0}, {"lat": 38.8785985, "is_disabled": 0, "fusion_lat": 0.0, "name": "30552a08942510e0036d8695ad32e07b", "type": "electric_scooter", "lon": -77.006849, "rental_uris": {"ios": "https://dc.lft.to/lastmile_qr_scan", "android": "https://dc.lft.to/lastmile_qr_scan"}, "bike_id": "30552a08942510e0036d8695ad32e07b", "is_reserved": 0, "fusion_lon": 0.0}, {"lat": 38.86441466666667, "is_disabled": 0, "fusion_lat": 0.0, "name": "ff87663e50eb832e26214af99e84f116", "type": "electric_bike", "lon": -76.96986933333334, "rental_uris": {"ios": "https://dc.lft.to/lastmile_qr_scan", "android": "https://dc.lft.to/lastmile_qr_scan"}, "bike_id": "ff87663e50eb832e26214af99e84f116", "is_reserved": 0, "fusion_lon": 0.0}, {"lat": 38.923694833333336, "is_disabled": 0, "fusion_lat": 0.0, "name": "ad22450abb5b12ec8521c57c39ab2806", "type": "electric_scooter", "lon": -77.01956633333333, "rental_uris": {"ios": "https://dc.lft.to/lastmile_qr_scan", "android": "https://dc.lft.to/lastmile_qr_scan"}, "bike_id": "ad22450abb5b12ec8521c57c39ab2806", "is_reserved": 0, "fusion_lon": 0.0}, {"lat": 38.90510333333334, "is_disabled": 0, "fusion_lat": 0.0, "name": "5f2591ab11516d09893009f041c0e524", "type": "electric_scooter", "lon": -76.984843, "rental_uris": {"ios": "https://dc.lft.to/lastmile_qr_scan", "android": "https://dc.lft.to/lastmile_qr_scan"}, "bike_id": "5f2591ab11516d09893009f041c0e524", "is_reserved": 0, "fusion_lon": 0.0}, {"lat": 38.9183095, "is_disabled": 0, "fusion_lat": 0.0, "name": "12ea7d2fd106378b1f8900b809e8e85a", "type": "electric_scooter", "lon": -77.04519666666667, "rental_uris": {"ios": "https://dc.lft.to/lastmile_qr_scan", "android": "https://dc.lft.to/lastmile_qr_scan"}, "bike_id": "12ea7d2fd106378b1f8900b809e8e85a", "is_reserved": 0, "fusion_lon": 0.0}, {"lat": 38.93274133333333, "is_disabled": 0, "fusion_lat": 0.0, "name": "424133e362dce0eaa833292559369452", "type": "electric_scooter", "lon": -77.03948333333334, "rental_uris": {"ios": "https://dc.lft.to/lastmile_qr_scan", "android": "https://dc.lft.to/lastmile_qr_scan"}, "bike_id": "424133e362dce0eaa833292559369452", "is_reserved": 0, "fusion_lon": 0.0}, {"lat": 38.930671833333335, "is_disabled": 0, "fusion_lat": 0.0, "name": "571a672a84c30f7469f54adfc3664972", "type": "electric_scooter", "lon": -77.03215666666667, "rental_uris": {"ios": "https://dc.lft.to/lastmile_qr_scan", "android": "https://dc.lft.to/lastmile_qr_scan"}, "bike_id": "571a672a84c30f7469f54adfc3664972", "is_reserved": 0, "fusion_lon": 0.0}, {"lat": 38.8747115, "is_disabled": 0, "fusion_lat": 0.0, "name": "e2b77d42bb0b56be09b297d1ead8c4ef", "type": "electric_scooter", "lon": -77.0053095, "rental_uris": {"ios": "https://dc.lft.to/lastmile_qr_scan", "android": "https://dc.lft.to/lastmile_qr_scan"}, "bike_id": "e2b77d42bb0b56be09b297d1ead8c4ef", "is_reserved": 0, "fusion_lon": 0.0}, {"lat": 38.90264666666667, "is_disabled": 0, "fusion_lat": 0.0, "name": "4ee4fa5d7cc029854db449c57d764798", "type": "electric_scooter", "lon": -77.0516295, "rental_uris": {"ios": "https://dc.lft.to/lastmile_qr_scan", "android": "https://dc.lft.to/lastmile_qr_scan"}, "bike_id": "4ee4fa5d7cc029854db449c57d764798", "is_reserved": 0, "fusion_lon": 0.0}, {"lat": 38.923388, "is_disabled": 0, "fusion_lat": 0.0, "name": "91214f42e47e3c44ef7030e51055a0bc", "type": "electric_scooter", "lon": -77.00914983333334, "rental_uris": {"ios": "https://dc.lft.to/lastmile_qr_scan", "android": "https://dc.lft.to/lastmile_qr_scan"}, "bike_id": "91214f42e47e3c44ef7030e51055a0bc", "is_reserved": 0, "fusion_lon": 0.0}, {"lat": 38.88429516666667, "is_disabled": 0, "fusion_lat": 0.0, "name": "4627c13bfc0cf7d6ef5c9e9e239bd275", "type": "electric_scooter", "lon": -77.03018083333333, "rental_uris": {"ios": "https://dc.lft.to/lastmile_qr_scan", "android": "https://dc.lft.to/lastmile_qr_scan"}, "bike_id": "4627c13bfc0cf7d6ef5c9e9e239bd275", "is_reserved": 0, "fusion_lon": 0.0}, {"lat": 38.9403445, "is_disabled": 0, "fusion_lat": 0.0, "name": "5497ee94115bc0408dcecc838078e3b8", "type": "electric_scooter", "lon": -77.08389966666667, "rental_uris": {"ios": "https://dc.lft.to/lastmile_qr_scan", "android": "https://dc.lft.to/lastmile_qr_scan"}, "bike_id": "5497ee94115bc0408dcecc838078e3b8", "is_reserved": 0, "fusion_lon": 0.0}, {"lat": 38.900432, "is_disabled": 0, "fusion_lat": 0.0, "name": "d63206fcc04fcdfbacdecf17a865ef1c", "type": "electric_scooter", "lon": -77.03472583333334, "rental_uris": {"ios": "https://dc.lft.to/lastmile_qr_scan", "android": "https://dc.lft.to/lastmile_qr_scan"}, "bike_id": "d63206fcc04fcdfbacdecf17a865ef1c", "is_reserved": 0, "fusion_lon": 0.0}, {"lat": 38.9074215, "is_disabled": 0, "fusion_lat": 0.0, "name": "b3f6f91533586c01e9a6a42771941b76", "type": "electric_scooter", "lon": -77.04172083333333, "rental_uris": {"ios": "https://dc.lft.to/lastmile_qr_scan", "android": "https://dc.lft.to/lastmile_qr_scan"}, "bike_id": "b3f6f91533586c01e9a6a42771941b76", "is_reserved": 0, "fusion_lon": 0.0}, {"lat": 38.927912666666664, "is_disabled": 0, "fusion_lat": 0.0, "name": "65e0ce1602e42836aca01768723d0fd6", "type": "electric_scooter", "lon": -77.036196, "rental_uris": {"ios": "https://dc.lft.to/lastmile_qr_scan", "android": "https://dc.lft.to/lastmile_qr_scan"}, "bike_id": "65e0ce1602e42836aca01768723d0fd6", "is_reserved": 0, "fusion_lon": 0.0}, {"lat": 38.83914716666666, "is_disabled": 0, "fusion_lat": 0.0, "name": "ab857e66d6eab96527f3aa27d73a0976", "type": "electric_bike", "lon": -76.9983605, "rental_uris": {"ios": "https://dc.lft.to/lastmile_qr_scan", "android": "https://dc.lft.to/lastmile_qr_scan"}, "bike_id": "ab857e66d6eab96527f3aa27d73a0976", "is_reserved": 0, "fusion_lon": 0.0}, {"lat": 38.94367733333333, "is_disabled": 0, "fusion_lat": 0.0, "name": "85fc0974390b7e049f8a804f09982dd4", "type": "electric_scooter", "lon": -77.02588233333333, "rental_uris": {"ios": "https://dc.lft.to/lastmile_qr_scan", "android": "https://dc.lft.to/lastmile_qr_scan"}, "bike_id": "85fc0974390b7e049f8a804f09982dd4", "is_reserved": 0, "fusion_lon": 0.0}, {"lat": 38.906062166666665, "is_disabled": 0, "fusion_lat": 0.0, "name": "f26281ec03b6043a801ef353c224ccdd", "type": "electric_scooter", "lon": -77.03244283333333, "rental_uris": {"ios": "https://dc.lft.to/lastmile_qr_scan", "android": "https://dc.lft.to/lastmile_qr_scan"}, "bike_id": "f26281ec03b6043a801ef353c224ccdd", "is_reserved": 0, "fusion_lon": 0.0}, {"lat": 38.88620266666667, "is_disabled": 0, "fusion_lat": 0.0, "name": "e8404838eed72180035d366b29706fe0", "type": "electric_bike", "lon": -77.00571066666667, "rental_uris": {"ios": "https://dc.lft.to/lastmile_qr_scan", "android": "https://dc.lft.to/lastmile_qr_scan"}, "bike_id": "e8404838eed72180035d366b29706fe0", "is_reserved": 0, "fusion_lon": 0.0}, {"lat": 38.924214166666665, "is_disabled": 0, "fusion_lat": 0.0, "name": "ab14a368a0551db63fc5aee54a4be209", "type": "electric_scooter", "lon": -77.0192755, "rental_uris": {"ios": "https://dc.lft.to/lastmile_qr_scan", "android": "https://dc.lft.to/lastmile_qr_scan"}, "bike_id": "ab14a368a0551db63fc5aee54a4be209", "is_reserved": 0, "fusion_lon": 0.0}, {"lat": 38.91141266666666, "is_disabled": 0, "fusion_lat": 0.0, "name": "d398e1a5ebd2dbb8d01cfd33347754ff", "type": "electric_scooter", "lon": -77.02798983333334, "rental_uris": {"ios": "https://dc.lft.to/lastmile_qr_scan", "android": "https://dc.lft.to/lastmile_qr_scan"}, "bike_id": "d398e1a5ebd2dbb8d01cfd33347754ff", "is_reserved": 0, "fusion_lon": 0.0}, {"lat": 38.898845333333334, "is_disabled": 0, "fusion_lat": 0.0, "name": "a5a25a4f3f11598817ef24ce6b6159fc", "type": "electric_scooter", "lon": -76.93175166666667, "rental_uris": {"ios": "https://dc.lft.to/lastmile_qr_scan", "android": "https://dc.lft.to/lastmile_qr_scan"}, "bike_id": "a5a25a4f3f11598817ef24ce6b6159fc", "is_reserved": 0, "fusion_lon": 0.0}, {"lat": 38.90642, "is_disabled": 0, "fusion_lat": 0.0, "name": "25d68496f2c57d1f769dc1ee6a64e1f2", "type": "electric_scooter", "lon": -77.03447833333334, "rental_uris": {"ios": "https://dc.lft.to/lastmile_qr_scan", "android": "https://dc.lft.to/lastmile_qr_scan"}, "bike_id": "25d68496f2c57d1f769dc1ee6a64e1f2", "is_reserved": 0, "fusion_lon": 0.0}, {"lat": 38.8655215, "is_disabled": 0, "fusion_lat": 0.0, "name": "9696b292a569c38d687d95dcf2a1ff96", "type": "electric_bike", "lon": -76.94150716666667, "rental_uris": {"ios": "https://dc.lft.to/lastmile_qr_scan", "android": "https://dc.lft.to/lastmile_qr_scan"}, "bike_id": "9696b292a569c38d687d95dcf2a1ff96", "is_reserved": 0, "fusion_lon": 0.0}, {"lat": 38.9063295, "is_disabled": 0, "fusion_lat": 0.0, "name": "7aac9439a656eff6759a35aef5c1fbba", "type": "electric_scooter", "lon": -77.06897483333333, "rental_uris": {"ios": "https://dc.lft.to/lastmile_qr_scan", "android": "https://dc.lft.to/lastmile_qr_scan"}, "bike_id": "7aac9439a656eff6759a35aef5c1fbba", "is_reserved": 0, "fusion_lon": 0.0}, {"lat": 38.910768166666664, "is_disabled": 0, "fusion_lat": 0.0, "name": "462c64ff2659da05e88fa6e491427841", "type": "electric_scooter", "lon": -77.016032, "rental_uris": {"ios": "https://dc.lft.to/lastmile_qr_scan", "android": "https://dc.lft.to/lastmile_qr_scan"}, "bike_id": "462c64ff2659da05e88fa6e491427841", "is_reserved": 0, "fusion_lon": 0.0}, {"lat": 38.918903, "is_disabled": 0, "fusion_lat": 0.0, "name": "a8560b185a91397dfdd6a574bf0ef5c9", "type": "electric_scooter", "lon": -77.04128216666666, "rental_uris": {"ios": "https://dc.lft.to/lastmile_qr_scan", "android": "https://dc.lft.to/lastmile_qr_scan"}, "bike_id": "a8560b185a91397dfdd6a574bf0ef5c9", "is_reserved": 0, "fusion_lon": 0.0}, {"lat": 38.89901116666667, "is_disabled": 0, "fusion_lat": 0.0, "name": "b39fc79346e732846c691164c166e68e", "type": "electric_scooter", "lon": -77.02975766666667, "rental_uris": {"ios": "https://dc.lft.to/lastmile_qr_scan", "android": "https://dc.lft.to/lastmile_qr_scan"}, "bike_id": "b39fc79346e732846c691164c166e68e", "is_reserved": 0, "fusion_lon": 0.0}, {"lat": 38.91348816666667, "is_disabled": 0, "fusion_lat": 0.0, "name": "25804adb05d0c4bcd2f2e439da2d28b7", "type": "electric_scooter", "lon": -77.01223416666667, "rental_uris": {"ios": "https://dc.lft.to/lastmile_qr_scan", "android": "https://dc.lft.to/lastmile_qr_scan"}, "bike_id": "25804adb05d0c4bcd2f2e439da2d28b7", "is_reserved": 0, "fusion_lon": 0.0}, {"lat": 38.96616, "is_disabled": 0, "fusion_lat": 0.0, "name": "6456b54c092814dd3d2c278ca8ad9547", "type": "electric_scooter", "lon": -77.01997416666667, "rental_uris": {"ios": "https://dc.lft.to/lastmile_qr_scan", "android": "https://dc.lft.to/lastmile_qr_scan"}, "bike_id": "6456b54c092814dd3d2c278ca8ad9547", "is_reserved": 0, "fusion_lon": 0.0}, {"lat": 38.9069385, "is_disabled": 0, "fusion_lat": 0.0, "name": "06d1d05f033daab3f6d45bb6db4b3525", "type": "electric_bike", "lon": -76.95252416666666, "rental_uris": {"ios": "https://dc.lft.to/lastmile_qr_scan", "android": "https://dc.lft.to/lastmile_qr_scan"}, "bike_id": "06d1d05f033daab3f6d45bb6db4b3525", "is_reserved": 0, "fusion_lon": 0.0}, {"lat": 38.93058666666667, "is_disabled": 0, "fusion_lat": 0.0, "name": "26316ce7ad91d3075b9c5091d0940813", "type": "electric_scooter", "lon": -77.02980633333334, "rental_uris": {"ios": "https://dc.lft.to/lastmile_qr_scan", "android": "https://dc.lft.to/lastmile_qr_scan"}, "bike_id": "26316ce7ad91d3075b9c5091d0940813", "is_reserved": 0, "fusion_lon": 0.0}, {"lat": 38.907414333333335, "is_disabled": 0, "fusion_lat": 0.0, "name": "f2cf786c664a959890be13a28f6fcf1a", "type": "electric_scooter", "lon": -77.04383066666666, "rental_uris": {"ios": "https://dc.lft.to/lastmile_qr_scan", "android": "https://dc.lft.to/lastmile_qr_scan"}, "bike_id": "f2cf786c664a959890be13a28f6fcf1a", "is_reserved": 0, "fusion_lon": 0.0}, {"lat": 38.92437066666667, "is_disabled": 0, "fusion_lat": 0.0, "name": "401c77aec158e082ca8ba8efb5a8c845", "type": "electric_scooter", "lon": -77.0202345, "rental_uris": {"ios": "https://dc.lft.to/lastmile_qr_scan", "android": "https://dc.lft.to/lastmile_qr_scan"}, "bike_id": "401c77aec158e082ca8ba8efb5a8c845", "is_reserved": 0, "fusion_lon": 0.0}, {"lat": 38.90736166666667, "is_disabled": 0, "fusion_lat": 0.0, "name": "c8673ccb05760f97f917a2d60cabad87", "type": "electric_scooter", "lon": -77.0386485, "rental_uris": {"ios": "https://dc.lft.to/lastmile_qr_scan", "android": "https://dc.lft.to/lastmile_qr_scan"}, "bike_id": "c8673ccb05760f97f917a2d60cabad87", "is_reserved": 0, "fusion_lon": 0.0}, {"lat": 38.92004433333334, "is_disabled": 0, "fusion_lat": 0.0, "name": "f86057f450d37891306b763943da4123", "type": "electric_scooter", "lon": -77.04167316666667, "rental_uris": {"ios": "https://dc.lft.to/lastmile_qr_scan", "android": "https://dc.lft.to/lastmile_qr_scan"}, "bike_id": "f86057f450d37891306b763943da4123", "is_reserved": 0, "fusion_lon": 0.0}, {"lat": 38.90904833333333, "is_disabled": 0, "fusion_lat": 0.0, "name": "333bda30acff5a877e49ee8ff3c615e5", "type": "electric_scooter", "lon": -77.04270866666667, "rental_uris": {"ios": "https://dc.lft.to/lastmile_qr_scan", "android": "https://dc.lft.to/lastmile_qr_scan"}, "bike_id": "333bda30acff5a877e49ee8ff3c615e5", "is_reserved": 0, "fusion_lon": 0.0}, {"lat": 38.804644333333336, "is_disabled": 0, "fusion_lat": 0.0, "name": "40640f59467695bfd770699cdad4486b", "type": "electric_bike", "lon": -77.060826, "rental_uris": {"ios": "https://dc.lft.to/lastmile_qr_scan", "android": "https://dc.lft.to/lastmile_qr_scan"}, "bike_id": "40640f59467695bfd770699cdad4486b", "is_reserved": 0, "fusion_lon": 0.0}, {"lat": 38.924732166666665, "is_disabled": 0, "fusion_lat": 0.0, "name": "55943a01bae1c746690323469adcf027", "type": "electric_scooter", "lon": -77.02078416666667, "rental_uris": {"ios": "https://dc.lft.to/lastmile_qr_scan", "android": "https://dc.lft.to/lastmile_qr_scan"}, "bike_id": "55943a01bae1c746690323469adcf027", "is_reserved": 0, "fusion_lon": 0.0}, {"lat": 38.89252116666667, "is_disabled": 0, "fusion_lat": 0.0, "name": "89ed8843bcebffab4f0f79aa6afdc7a3", "type": "electric_scooter", "lon": -77.04503116666666, "rental_uris": {"ios": "https://dc.lft.to/lastmile_qr_scan", "android": "https://dc.lft.to/lastmile_qr_scan"}, "bike_id": "89ed8843bcebffab4f0f79aa6afdc7a3", "is_reserved": 0, "fusion_lon": 0.0}, {"lat": 38.913694166666666, "is_disabled": 0, "fusion_lat": 0.0, "name": "bd67a67308a9cacf86a31f1606ab4f09", "type": "electric_scooter", "lon": -77.02053116666667, "rental_uris": {"ios": "https://dc.lft.to/lastmile_qr_scan", "android": "https://dc.lft.to/lastmile_qr_scan"}, "bike_id": "bd67a67308a9cacf86a31f1606ab4f09", "is_reserved": 0, "fusion_lon": 0.0}, {"lat": 38.899636, "is_disabled": 0, "fusion_lat": 0.0, "name": "4f2ebd59a8fbed205b7a149c47442bf1", "type": "electric_scooter", "lon": -77.04499383333334, "rental_uris": {"ios": "https://dc.lft.to/lastmile_qr_scan", "android": "https://dc.lft.to/lastmile_qr_scan"}, "bike_id": "4f2ebd59a8fbed205b7a149c47442bf1", "is_reserved": 0, "fusion_lon": 0.0}, {"lat": 38.923703833333335, "is_disabled": 0, "fusion_lat": 0.0, "name": "8a77a198174f078f3ac211acb812d277", "type": "electric_scooter", "lon": -77.019505, "rental_uris": {"ios": "https://dc.lft.to/lastmile_qr_scan", "android": "https://dc.lft.to/lastmile_qr_scan"}, "bike_id": "8a77a198174f078f3ac211acb812d277", "is_reserved": 0, "fusion_lon": 0.0}, {"lat": 38.9111085, "is_disabled": 0, "fusion_lat": 0.0, "name": "98cdda8b6e4edaaa373f50f9001d330b", "type": "electric_scooter", "lon": -77.02232066666667, "rental_uris": {"ios": "https://dc.lft.to/lastmile_qr_scan", "android": "https://dc.lft.to/lastmile_qr_scan"}, "bike_id": "98cdda8b6e4edaaa373f50f9001d330b", "is_reserved": 0, "fusion_lon": 0.0}, {"lat": 38.919258666666664, "is_disabled": 0, "fusion_lat": 0.0, "name": "c18e82b062b685925511520fa9a44d11", "type": "electric_scooter", "lon": -77.03419666666667, "rental_uris": {"ios": "https://dc.lft.to/lastmile_qr_scan", "android": "https://dc.lft.to/lastmile_qr_scan"}, "bike_id": "c18e82b062b685925511520fa9a44d11", "is_reserved": 0, "fusion_lon": 0.0}, {"lat": 38.92337716666667, "is_disabled": 0, "fusion_lat": 0.0, "name": "78c3a10ec406af1402bb7f32730c0430", "type": "electric_scooter", "lon": -77.02131716666666, "rental_uris": {"ios": "https://dc.lft.to/lastmile_qr_scan", "android": "https://dc.lft.to/lastmile_qr_scan"}, "bike_id": "78c3a10ec406af1402bb7f32730c0430", "is_reserved": 0, "fusion_lon": 0.0}, {"lat": 38.917727, "is_disabled": 0, "fusion_lat": 0.0, "name": "6f2da594d52794496622bfb7f4ac38a1", "type": "electric_scooter", "lon": -77.04746966666667, "rental_uris": {"ios": "https://dc.lft.to/lastmile_qr_scan", "android": "https://dc.lft.to/lastmile_qr_scan"}, "bike_id": "6f2da594d52794496622bfb7f4ac38a1", "is_reserved": 0, "fusion_lon": 0.0}, {"lat": 38.92413466666667, "is_disabled": 0, "fusion_lat": 0.0, "name": "79463d6308682e2b97ace86d6599caf9", "type": "electric_scooter", "lon": -77.02032, "rental_uris": {"ios": "https://dc.lft.to/lastmile_qr_scan", "android": "https://dc.lft.to/lastmile_qr_scan"}, "bike_id": "79463d6308682e2b97ace86d6599caf9", "is_reserved": 0, "fusion_lon": 0.0}, {"lat": 38.919281, "is_disabled": 0, "fusion_lat": 0.0, "name": "04c34e556a9d3925435ccf6fb5a8e31d", "type": "electric_scooter", "lon": -77.0178635, "rental_uris": {"ios": "https://dc.lft.to/lastmile_qr_scan", "android": "https://dc.lft.to/lastmile_qr_scan"}, "bike_id": "04c34e556a9d3925435ccf6fb5a8e31d", "is_reserved": 0, "fusion_lon": 0.0}, {"lat": 38.92996633333333, "is_disabled": 0, "fusion_lat": 0.0, "name": "cebf29d9b4bbe04111aa5abd21b2b615", "type": "electric_scooter", "lon": -77.03231433333333, "rental_uris": {"ios": "https://dc.lft.to/lastmile_qr_scan", "android": "https://dc.lft.to/lastmile_qr_scan"}, "bike_id": "cebf29d9b4bbe04111aa5abd21b2b615", "is_reserved": 0, "fusion_lon": 0.0}, {"lat": 38.88710666666667, "is_disabled": 0, "fusion_lat": 0.0, "name": "31887b1a590872435c01c2ff6159353e", "type": "electric_scooter", "lon": -76.98381266666667, "rental_uris": {"ios": "https://dc.lft.to/lastmile_qr_scan", "android": "https://dc.lft.to/lastmile_qr_scan"}, "bike_id": "31887b1a590872435c01c2ff6159353e", "is_reserved": 0, "fusion_lon": 0.0}, {"lat": 38.92291083333333, "is_disabled": 0, "fusion_lat": 0.0, "name": "f8acfe8be4e7072970379ea55d78ada3", "type": "electric_scooter", "lon": -77.02242, "rental_uris": {"ios": "https://dc.lft.to/lastmile_qr_scan", "android": "https://dc.lft.to/lastmile_qr_scan"}, "bike_id": "f8acfe8be4e7072970379ea55d78ada3", "is_reserved": 0, "fusion_lon": 0.0}, {"lat": 38.901601666666664, "is_disabled": 0, "fusion_lat": 0.0, "name": "0f0f90dc5dbf5fd5818f5830ebe91870", "type": "electric_scooter", "lon": -77.04146866666666, "rental_uris": {"ios": "https://dc.lft.to/lastmile_qr_scan", "android": "https://dc.lft.to/lastmile_qr_scan"}, "bike_id": "0f0f90dc5dbf5fd5818f5830ebe91870", "is_reserved": 0, "fusion_lon": 0.0}, {"lat": 38.892902, "is_disabled": 0, "fusion_lat": 0.0, "name": "24a2f3201081005ef8670408e66b61a2", "type": "electric_scooter", "lon": -77.01234133333334, "rental_uris": {"ios": "https://dc.lft.to/lastmile_qr_scan", "android": "https://dc.lft.to/lastmile_qr_scan"}, "bike_id": "24a2f3201081005ef8670408e66b61a2", "is_reserved": 0, "fusion_lon": 0.0}, {"lat": 38.92473966666667, "is_disabled": 0, "fusion_lat": 0.0, "name": "c08a194eb5614497b03d20076b53e38d", "type": "electric_scooter", "lon": -77.02211216666667, "rental_uris": {"ios": "https://dc.lft.to/lastmile_qr_scan", "android": "https://dc.lft.to/lastmile_qr_scan"}, "bike_id": "c08a194eb5614497b03d20076b53e38d", "is_reserved": 0, "fusion_lon": 0.0}, {"lat": 38.913793166666665, "is_disabled": 0, "fusion_lat": 0.0, "name": "c52e174f75027278428e4598b2020031", "type": "electric_scooter", "lon": -77.04460383333333, "rental_uris": {"ios": "https://dc.lft.to/lastmile_qr_scan", "android": "https://dc.lft.to/lastmile_qr_scan"}, "bike_id": "c52e174f75027278428e4598b2020031", "is_reserved": 0, "fusion_lon": 0.0}, {"lat": 38.92824433333333, "is_disabled": 0, "fusion_lat": 0.0, "name": "c786858ce9bb0b486f1bdc2ffb121166", "type": "electric_scooter", "lon": -77.02256633333333, "rental_uris": {"ios": "https://dc.lft.to/lastmile_qr_scan", "android": "https://dc.lft.to/lastmile_qr_scan"}, "bike_id": "c786858ce9bb0b486f1bdc2ffb121166", "is_reserved": 0, "fusion_lon": 0.0}, {"lat": 38.900305833333334, "is_disabled": 0, "fusion_lat": 0.0, "name": "bdd9916cb8d07cb1e8e06882e45923ec", "type": "electric_scooter", "lon": -76.998664, "rental_uris": {"ios": "https://dc.lft.to/lastmile_qr_scan", "android": "https://dc.lft.to/lastmile_qr_scan"}, "bike_id": "bdd9916cb8d07cb1e8e06882e45923ec", "is_reserved": 0, "fusion_lon": 0.0}, {"lat": 38.9357305, "is_disabled": 0, "fusion_lat": 0.0, "name": "8879c4f29a2773f824aaf6aa8c7ffe8e", "type": "electric_scooter", "lon": -77.03257166666667, "rental_uris": {"ios": "https://dc.lft.to/lastmile_qr_scan", "android": "https://dc.lft.to/lastmile_qr_scan"}, "bike_id": "8879c4f29a2773f824aaf6aa8c7ffe8e", "is_reserved": 0, "fusion_lon": 0.0}, {"lat": 38.89962366666666, "is_disabled": 0, "fusion_lat": 0.0, "name": "d997a2a5e7e1d34d40dbee3415d6ce6c", "type": "electric_scooter", "lon": -77.04718116666666, "rental_uris": {"ios": "https://dc.lft.to/lastmile_qr_scan", "android": "https://dc.lft.to/lastmile_qr_scan"}, "bike_id": "d997a2a5e7e1d34d40dbee3415d6ce6c", "is_reserved": 0, "fusion_lon": 0.0}, {"lat": 38.896959333333335, "is_disabled": 0, "fusion_lat": 0.0, "name": "ad6c71f124e81850ad1352518d6bcb25", "type": "electric_scooter", "lon": -77.0048615, "rental_uris": {"ios": "https://dc.lft.to/lastmile_qr_scan", "android": "https://dc.lft.to/lastmile_qr_scan"}, "bike_id": "ad6c71f124e81850ad1352518d6bcb25", "is_reserved": 0, "fusion_lon": 0.0}, {"lat": 38.876617333333336, "is_disabled": 0, "fusion_lat": 0.0, "name": "a01724085097bcc60a3912ce18249df5", "type": "electric_scooter", "lon": -77.00313, "rental_uris": {"ios": "https://dc.lft.to/lastmile_qr_scan", "android": "https://dc.lft.to/lastmile_qr_scan"}, "bike_id": "a01724085097bcc60a3912ce18249df5", "is_reserved": 0, "fusion_lon": 0.0}, {"lat": 38.92015633333333, "is_disabled": 0, "fusion_lat": 0.0, "name": "3682c90b0cf3438c781e60f56068a849", "type": "electric_scooter", "lon": -77.07119983333334, "rental_uris": {"ios": "https://dc.lft.to/lastmile_qr_scan", "android": "https://dc.lft.to/lastmile_qr_scan"}, "bike_id": "3682c90b0cf3438c781e60f56068a849", "is_reserved": 0, "fusion_lon": 0.0}, {"lat": 38.90244216666667, "is_disabled": 0, "fusion_lat": 0.0, "name": "31de28b41a3e84e7fb56c7114ef24a4f", "type": "electric_scooter", "lon": -77.02692583333334, "rental_uris": {"ios": "https://dc.lft.to/lastmile_qr_scan", "android": "https://dc.lft.to/lastmile_qr_scan"}, "bike_id": "31de28b41a3e84e7fb56c7114ef24a4f", "is_reserved": 0, "fusion_lon": 0.0}, {"lat": 38.88754983333333, "is_disabled": 0, "fusion_lat": 0.0, "name": "5c87c8b7feb5f07cf22e796e08c5102c", "type": "electric_scooter", "lon": -77.0285535, "rental_uris": {"ios": "https://dc.lft.to/lastmile_qr_scan", "android": "https://dc.lft.to/lastmile_qr_scan"}, "bike_id": "5c87c8b7feb5f07cf22e796e08c5102c", "is_reserved": 0, "fusion_lon": 0.0}, {"lat": 38.91109266666667, "is_disabled": 0, "fusion_lat": 0.0, "name": "1ab8d9fcb8edf91bf98b72886103a475", "type": "electric_scooter", "lon": -77.0180095, "rental_uris": {"ios": "https://dc.lft.to/lastmile_qr_scan", "android": "https://dc.lft.to/lastmile_qr_scan"}, "bike_id": "1ab8d9fcb8edf91bf98b72886103a475", "is_reserved": 0, "fusion_lon": 0.0}, {"lat": 38.9446305, "is_disabled": 0, "fusion_lat": 0.0, "name": "eb393ed87c87866f2e27bbb6b4465a78", "type": "electric_scooter", "lon": -77.0263135, "rental_uris": {"ios": "https://dc.lft.to/lastmile_qr_scan", "android": "https://dc.lft.to/lastmile_qr_scan"}, "bike_id": "eb393ed87c87866f2e27bbb6b4465a78", "is_reserved": 0, "fusion_lon": 0.0}, {"lat": 38.92862983333333, "is_disabled": 0, "fusion_lat": 0.0, "name": "042fb2cf36b0a37acf00fa9cf899bb44", "type": "electric_scooter", "lon": -77.03363683333333, "rental_uris": {"ios": "https://dc.lft.to/lastmile_qr_scan", "android": "https://dc.lft.to/lastmile_qr_scan"}, "bike_id": "042fb2cf36b0a37acf00fa9cf899bb44", "is_reserved": 0, "fusion_lon": 0.0}, {"lat": 38.902218500000004, "is_disabled": 0, "fusion_lat": 0.0, "name": "7d518ccff633eb1d6c490af79f950569", "type": "electric_scooter", "lon": -77.02275133333333, "rental_uris": {"ios": "https://dc.lft.to/lastmile_qr_scan", "android": "https://dc.lft.to/lastmile_qr_scan"}, "bike_id": "7d518ccff633eb1d6c490af79f950569", "is_reserved": 0, "fusion_lon": 0.0}, {"lat": 38.9217825, "is_disabled": 0, "fusion_lat": 0.0, "name": "ded1afeb01bbc1a1d25872abecbc1d9b", "type": "electric_scooter", "lon": -77.04018416666666, "rental_uris": {"ios": "https://dc.lft.to/lastmile_qr_scan", "android": "https://dc.lft.to/lastmile_qr_scan"}, "bike_id": "ded1afeb01bbc1a1d25872abecbc1d9b", "is_reserved": 0, "fusion_lon": 0.0}, {"lat": 38.926159, "is_disabled": 0, "fusion_lat": 0.0, "name": "61e18b4d0b32a98d8c5c9c1a60d1d028", "type": "electric_scooter", "lon": -76.99052133333333, "rental_uris": {"ios": "https://dc.lft.to/lastmile_qr_scan", "android": "https://dc.lft.to/lastmile_qr_scan"}, "bike_id": "61e18b4d0b32a98d8c5c9c1a60d1d028", "is_reserved": 0, "fusion_lon": 0.0}, {"lat": 38.9003575, "is_disabled": 0, "fusion_lat": 0.0, "name": "9f9549a2eaabdfaf3813823534c39bdf", "type": "electric_scooter", "lon": -76.99155166666667, "rental_uris": {"ios": "https://dc.lft.to/lastmile_qr_scan", "android": "https://dc.lft.to/lastmile_qr_scan"}, "bike_id": "9f9549a2eaabdfaf3813823534c39bdf", "is_reserved": 0, "fusion_lon": 0.0}, {"lat": 38.92034983333333, "is_disabled": 0, "fusion_lat": 0.0, "name": "a075d801f7d5c9d61a90b3bfd08f1cdf", "type": "electric_scooter", "lon": -76.97803333333333, "rental_uris": {"ios": "https://dc.lft.to/lastmile_qr_scan", "android": "https://dc.lft.to/lastmile_qr_scan"}, "bike_id": "a075d801f7d5c9d61a90b3bfd08f1cdf", "is_reserved": 0, "fusion_lon": 0.0}, {"lat": 38.87469316666667, "is_disabled": 0, "fusion_lat": 0.0, "name": "d08b5db308fa4e1b6f04603ed832118f", "type": "electric_scooter", "lon": -77.00534383333333, "rental_uris": {"ios": "https://dc.lft.to/lastmile_qr_scan", "android": "https://dc.lft.to/lastmile_qr_scan"}, "bike_id": "d08b5db308fa4e1b6f04603ed832118f", "is_reserved": 0, "fusion_lon": 0.0}, {"lat": 38.956876, "is_disabled": 0, "fusion_lat": 0.0, "name": "cc92ab344207e75f71b3a2bcc10a903f", "type": "electric_scooter", "lon": -77.01148566666667, "rental_uris": {"ios": "https://dc.lft.to/lastmile_qr_scan", "android": "https://dc.lft.to/lastmile_qr_scan"}, "bike_id": "cc92ab344207e75f71b3a2bcc10a903f", "is_reserved": 0, "fusion_lon": 0.0}, {"lat": 38.9415255, "is_disabled": 0, "fusion_lat": 0.0, "name": "4f2822edf83ff1119f6cfdf6ff0b93e0", "type": "electric_bike", "lon": -77.00195233333334, "rental_uris": {"ios": "https://dc.lft.to/lastmile_qr_scan", "android": "https://dc.lft.to/lastmile_qr_scan"}, "bike_id": "4f2822edf83ff1119f6cfdf6ff0b93e0", "is_reserved": 0, "fusion_lon": 0.0}, {"lat": 38.904053166666664, "is_disabled": 0, "fusion_lat": 0.0, "name": "9c182d1a71f7ac567c0641443fcd7016", "type": "electric_scooter", "lon": -77.0089225, "rental_uris": {"ios": "https://dc.lft.to/lastmile_qr_scan", "android": "https://dc.lft.to/lastmile_qr_scan"}, "bike_id": "9c182d1a71f7ac567c0641443fcd7016", "is_reserved": 0, "fusion_lon": 0.0}, {"lat": 38.90037216666666, "is_disabled": 0, "fusion_lat": 0.0, "name": "af680d375cf1747cf8efd466fd50b79a", "type": "electric_bike", "lon": -76.972275, "rental_uris": {"ios": "https://dc.lft.to/lastmile_qr_scan", "android": "https://dc.lft.to/lastmile_qr_scan"}, "bike_id": "af680d375cf1747cf8efd466fd50b79a", "is_reserved": 0, "fusion_lon": 0.0}, {"lat": 38.9988175, "is_disabled": 0, "fusion_lat": 0.0, "name": "067168992bde870cdc53d62653a70cbd", "type": "electric_bike", "lon": -76.91076183333334, "rental_uris": {"ios": "https://dc.lft.to/lastmile_qr_scan", "android": "https://dc.lft.to/lastmile_qr_scan"}, "bike_id": "067168992bde870cdc53d62653a70cbd", "is_reserved": 0, "fusion_lon": 0.0}, {"lat": 38.866260833333335, "is_disabled": 0, "fusion_lat": 0.0, "name": "98ddf42970f177994aa3a6331f8d7d9a", "type": "electric_bike", "lon": -76.94568366666667, "rental_uris": {"ios": "https://dc.lft.to/lastmile_qr_scan", "android": "https://dc.lft.to/lastmile_qr_scan"}, "bike_id": "98ddf42970f177994aa3a6331f8d7d9a", "is_reserved": 0, "fusion_lon": 0.0}, {"lat": 38.91556516666667, "is_disabled": 0, "fusion_lat": 0.0, "name": "d64ec18c1276f80976e4e2bc53584855", "type": "electric_scooter", "lon": -77.06755983333333, "rental_uris": {"ios": "https://dc.lft.to/lastmile_qr_scan", "android": "https://dc.lft.to/lastmile_qr_scan"}, "bike_id": "d64ec18c1276f80976e4e2bc53584855", "is_reserved": 0, "fusion_lon": 0.0}, {"lat": 38.920793333333336, "is_disabled": 0, "fusion_lat": 0.0, "name": "89fbd1ce431e62dcf2e1204729ee11cb", "type": "electric_bike", "lon": -77.027497, "rental_uris": {"ios": "https://dc.lft.to/lastmile_qr_scan", "android": "https://dc.lft.to/lastmile_qr_scan"}, "bike_id": "89fbd1ce431e62dcf2e1204729ee11cb", "is_reserved": 0, "fusion_lon": 0.0}, {"lat": 38.91191083333333, "is_disabled": 0, "fusion_lat": 0.0, "name": "2e3db03cb973c390dda8c0d1279abc04", "type": "electric_scooter", "lon": -77.06616083333333, "rental_uris": {"ios": "https://dc.lft.to/lastmile_qr_scan", "android": "https://dc.lft.to/lastmile_qr_scan"}, "bike_id": "2e3db03cb973c390dda8c0d1279abc04", "is_reserved": 0, "fusion_lon": 0.0}, {"lat": 38.90590566666667, "is_disabled": 0, "fusion_lat": 0.0, "name": "20b7df7cc448e7846aab402a1dd2f2cc", "type": "electric_scooter", "lon": -76.99091483333333, "rental_uris": {"ios": "https://dc.lft.to/lastmile_qr_scan", "android": "https://dc.lft.to/lastmile_qr_scan"}, "bike_id": "20b7df7cc448e7846aab402a1dd2f2cc", "is_reserved": 0, "fusion_lon": 0.0}, {"lat": 38.88566083333333, "is_disabled": 0, "fusion_lat": 0.0, "name": "ca75c0a6130e5d090578bff82f333fbe", "type": "electric_scooter", "lon": -77.01976733333333, "rental_uris": {"ios": "https://dc.lft.to/lastmile_qr_scan", "android": "https://dc.lft.to/lastmile_qr_scan"}, "bike_id": "ca75c0a6130e5d090578bff82f333fbe", "is_reserved": 0, "fusion_lon": 0.0}, {"lat": 38.928329833333336, "is_disabled": 0, "fusion_lat": 0.0, "name": "53500b54c88f55aa8e4b08658fec06af", "type": "electric_scooter", "lon": -77.02293333333333, "rental_uris": {"ios": "https://dc.lft.to/lastmile_qr_scan", "android": "https://dc.lft.to/lastmile_qr_scan"}, "bike_id": "53500b54c88f55aa8e4b08658fec06af", "is_reserved": 0, "fusion_lon": 0.0}, {"lat": 38.912633, "is_disabled": 0, "fusion_lat": 0.0, "name": "88e6ed3e1a015cdbbf479f2e8d8f3592", "type": "electric_scooter", "lon": -77.04793033333333, "rental_uris": {"ios": "https://dc.lft.to/lastmile_qr_scan", "android": "https://dc.lft.to/lastmile_qr_scan"}, "bike_id": "88e6ed3e1a015cdbbf479f2e8d8f3592", "is_reserved": 0, "fusion_lon": 0.0}, {"lat": 38.9153695, "is_disabled": 0, "fusion_lat": 0.0, "name": "aa6dd6c8b9f13d74c6efd36fb21de5c5", "type": "electric_scooter", "lon": -77.075401, "rental_uris": {"ios": "https://dc.lft.to/lastmile_qr_scan", "android": "https://dc.lft.to/lastmile_qr_scan"}, "bike_id": "aa6dd6c8b9f13d74c6efd36fb21de5c5", "is_reserved": 0, "fusion_lon": 0.0}, {"lat": 38.89372, "is_disabled": 0, "fusion_lat": 0.0, "name": "17def579f25a46e0c400fef4daf6d6a8", "type": "electric_scooter", "lon": -77.01553283333334, "rental_uris": {"ios": "https://dc.lft.to/lastmile_qr_scan", "android": "https://dc.lft.to/lastmile_qr_scan"}, "bike_id": "17def579f25a46e0c400fef4daf6d6a8", "is_reserved": 0, "fusion_lon": 0.0}, {"lat": 38.90134466666667, "is_disabled": 0, "fusion_lat": 0.0, "name": "9fa08888bca091b962dd11d7b6ef6d72", "type": "electric_scooter", "lon": -77.03141316666667, "rental_uris": {"ios": "https://dc.lft.to/lastmile_qr_scan", "android": "https://dc.lft.to/lastmile_qr_scan"}, "bike_id": "9fa08888bca091b962dd11d7b6ef6d72", "is_reserved": 0, "fusion_lon": 0.0}, {"lat": 38.9155075, "is_disabled": 0, "fusion_lat": 0.0, "name": "537502780a513806ba1ae2ba8132271e", "type": "electric_scooter", "lon": -76.98353883333333, "rental_uris": {"ios": "https://dc.lft.to/lastmile_qr_scan", "android": "https://dc.lft.to/lastmile_qr_scan"}, "bike_id": "537502780a513806ba1ae2ba8132271e", "is_reserved": 0, "fusion_lon": 0.0}, {"lat": 38.91716233333333, "is_disabled": 0, "fusion_lat": 0.0, "name": "9795f4d7f9fa1a10b2e4904a166e1d85", "type": "electric_scooter", "lon": -77.02303816666667, "rental_uris": {"ios": "https://dc.lft.to/lastmile_qr_scan", "android": "https://dc.lft.to/lastmile_qr_scan"}, "bike_id": "9795f4d7f9fa1a10b2e4904a166e1d85", "is_reserved": 0, "fusion_lon": 0.0}, {"lat": 38.9198455, "is_disabled": 0, "fusion_lat": 0.0, "name": "abdad412ea6c7e23a8325b62371bec58", "type": "electric_scooter", "lon": -77.0409615, "rental_uris": {"ios": "https://dc.lft.to/lastmile_qr_scan", "android": "https://dc.lft.to/lastmile_qr_scan"}, "bike_id": "abdad412ea6c7e23a8325b62371bec58", "is_reserved": 0, "fusion_lon": 0.0}, {"lat": 38.96725083333333, "is_disabled": 0, "fusion_lat": 0.0, "name": "61f7450ae4460f220d730f96390e5b34", "type": "electric_scooter", "lon": -77.02589716666667, "rental_uris": {"ios": "https://dc.lft.to/lastmile_qr_scan", "android": "https://dc.lft.to/lastmile_qr_scan"}, "bike_id": "61f7450ae4460f220d730f96390e5b34", "is_reserved": 0, "fusion_lon": 0.0}, {"lat": 38.886289166666664, "is_disabled": 0, "fusion_lat": 0.0, "name": "b029befebe141e895f7d36d518ec5dbd", "type": "electric_scooter", "lon": -76.98179916666666, "rental_uris": {"ios": "https://dc.lft.to/lastmile_qr_scan", "android": "https://dc.lft.to/lastmile_qr_scan"}, "bike_id": "b029befebe141e895f7d36d518ec5dbd", "is_reserved": 0, "fusion_lon": 0.0}, {"lat": 38.876334, "is_disabled": 0, "fusion_lat": 0.0, "name": "733ebfb1886e673530eba1a74dd53367", "type": "electric_scooter", "lon": -77.0095145, "rental_uris": {"ios": "https://dc.lft.to/lastmile_qr_scan", "android": "https://dc.lft.to/lastmile_qr_scan"}, "bike_id": "733ebfb1886e673530eba1a74dd53367", "is_reserved": 0, "fusion_lon": 0.0}, {"lat": 38.8910285, "is_disabled": 0, "fusion_lat": 0.0, "name": "4d4fe1f151a9fba5a3fe11ef975111eb", "type": "electric_scooter", "lon": -76.98817966666667, "rental_uris": {"ios": "https://dc.lft.to/lastmile_qr_scan", "android": "https://dc.lft.to/lastmile_qr_scan"}, "bike_id": "4d4fe1f151a9fba5a3fe11ef975111eb", "is_reserved": 0, "fusion_lon": 0.0}, {"lat": 38.918302, "is_disabled": 0, "fusion_lat": 0.0, "name": "4ea01b4a30b8812a823e663a00fb1539", "type": "electric_scooter", "lon": -77.03713416666666, "rental_uris": {"ios": "https://dc.lft.to/lastmile_qr_scan", "android": "https://dc.lft.to/lastmile_qr_scan"}, "bike_id": "4ea01b4a30b8812a823e663a00fb1539", "is_reserved": 0, "fusion_lon": 0.0}, {"lat": 38.84674116666667, "is_disabled": 0, "fusion_lat": 0.0, "name": "b0cb7e1a095b2b965ad64c4a74e1b09e", "type": "electric_bike", "lon": -77.13933533333334, "rental_uris": {"ios": "https://dc.lft.to/lastmile_qr_scan", "android": "https://dc.lft.to/lastmile_qr_scan"}, "bike_id": "b0cb7e1a095b2b965ad64c4a74e1b09e", "is_reserved": 0, "fusion_lon": 0.0}, {"lat": 38.90039, "is_disabled": 0, "fusion_lat": 0.0, "name": "235ead08f96eaa5782d84846014e2581", "type": "electric_scooter", "lon": -77.00193316666666, "rental_uris": {"ios": "https://dc.lft.to/lastmile_qr_scan", "android": "https://dc.lft.to/lastmile_qr_scan"}, "bike_id": "235ead08f96eaa5782d84846014e2581", "is_reserved": 0, "fusion_lon": 0.0}, {"lat": 38.88431383333333, "is_disabled": 0, "fusion_lat": 0.0, "name": "52e2bc300438b84ad7c500e614f3e494", "type": "electric_scooter", "lon": -77.03044433333334, "rental_uris": {"ios": "https://dc.lft.to/lastmile_qr_scan", "android": "https://dc.lft.to/lastmile_qr_scan"}, "bike_id": "52e2bc300438b84ad7c500e614f3e494", "is_reserved": 0, "fusion_lon": 0.0}, {"lat": 38.85457066666667, "is_disabled": 0, "fusion_lat": 0.0, "name": "8089fd9c069bbf6d567546bb11e883ff", "type": "electric_scooter", "lon": -76.986046, "rental_uris": {"ios": "https://dc.lft.to/lastmile_qr_scan", "android": "https://dc.lft.to/lastmile_qr_scan"}, "bike_id": "8089fd9c069bbf6d567546bb11e883ff", "is_reserved": 0, "fusion_lon": 0.0}, {"lat": 38.9329195, "is_disabled": 0, "fusion_lat": 0.0, "name": "047719b4fb2f42cfb52ab71118491476", "type": "electric_scooter", "lon": -76.98642883333333, "rental_uris": {"ios": "https://dc.lft.to/lastmile_qr_scan", "android": "https://dc.lft.to/lastmile_qr_scan"}, "bike_id": "047719b4fb2f42cfb52ab71118491476", "is_reserved": 0, "fusion_lon": 0.0}, {"lat": 38.90212416666667, "is_disabled": 0, "fusion_lat": 0.0, "name": "93804d9653f02bf42f0d0491087f5b91", "type": "electric_scooter", "lon": -77.02358166666667, "rental_uris": {"ios": "https://dc.lft.to/lastmile_qr_scan", "android": "https://dc.lft.to/lastmile_qr_scan"}, "bike_id": "93804d9653f02bf42f0d0491087f5b91", "is_reserved": 0, "fusion_lon": 0.0}, {"lat": 38.919252, "is_disabled": 0, "fusion_lat": 0.0, "name": "9335139835affa16372126ad6fa7c157", "type": "electric_scooter", "lon": -77.03418166666667, "rental_uris": {"ios": "https://dc.lft.to/lastmile_qr_scan", "android": "https://dc.lft.to/lastmile_qr_scan"}, "bike_id": "9335139835affa16372126ad6fa7c157", "is_reserved": 0, "fusion_lon": 0.0}, {"lat": 38.97444766666667, "is_disabled": 0, "fusion_lat": 0.0, "name": "070bfee6b6c6f0372fcd957738cdcb28", "type": "electric_bike", "lon": -77.09614633333334, "rental_uris": {"ios": "https://dc.lft.to/lastmile_qr_scan", "android": "https://dc.lft.to/lastmile_qr_scan"}, "bike_id": "070bfee6b6c6f0372fcd957738cdcb28", "is_reserved": 0, "fusion_lon": 0.0}, {"lat": 38.924135666666665, "is_disabled": 0, "fusion_lat": 0.0, "name": "8e6881da0dd51943e778632d601d3ac6", "type": "electric_scooter", "lon": -77.02007116666667, "rental_uris": {"ios": "https://dc.lft.to/lastmile_qr_scan", "android": "https://dc.lft.to/lastmile_qr_scan"}, "bike_id": "8e6881da0dd51943e778632d601d3ac6", "is_reserved": 0, "fusion_lon": 0.0}, {"lat": 38.92484066666667, "is_disabled": 0, "fusion_lat": 0.0, "name": "18bfae2723c7b2d919a8de128824e163", "type": "electric_scooter", "lon": -77.0349835, "rental_uris": {"ios": "https://dc.lft.to/lastmile_qr_scan", "android": "https://dc.lft.to/lastmile_qr_scan"}, "bike_id": "18bfae2723c7b2d919a8de128824e163", "is_reserved": 0, "fusion_lon": 0.0}, {"lat": 38.898909, "is_disabled": 0, "fusion_lat": 0.0, "name": "bfc12279a0aa3ab33fef6cd5479743b6", "type": "electric_scooter", "lon": -77.0258235, "rental_uris": {"ios": "https://dc.lft.to/lastmile_qr_scan", "android": "https://dc.lft.to/lastmile_qr_scan"}, "bike_id": "bfc12279a0aa3ab33fef6cd5479743b6", "is_reserved": 0, "fusion_lon": 0.0}, {"lat": 38.9282635, "is_disabled": 0, "fusion_lat": 0.0, "name": "5f00b853aa45e16705c4afa6bb4cea8c", "type": "electric_scooter", "lon": -77.02164233333333, "rental_uris": {"ios": "https://dc.lft.to/lastmile_qr_scan", "android": "https://dc.lft.to/lastmile_qr_scan"}, "bike_id": "5f00b853aa45e16705c4afa6bb4cea8c", "is_reserved": 0, "fusion_lon": 0.0}, {"lat": 38.919749333333336, "is_disabled": 0, "fusion_lat": 0.0, "name": "91280e0bc3615a3133a1d9db9270f282", "type": "electric_scooter", "lon": -77.0711265, "rental_uris": {"ios": "https://dc.lft.to/lastmile_qr_scan", "android": "https://dc.lft.to/lastmile_qr_scan"}, "bike_id": "91280e0bc3615a3133a1d9db9270f282", "is_reserved": 0, "fusion_lon": 0.0}, {"lat": 38.90132, "is_disabled": 0, "fusion_lat": 0.0, "name": "9329378eec491f10cac1fd94e3bb0f55", "type": "electric_scooter", "lon": -77.04337933333333, "rental_uris": {"ios": "https://dc.lft.to/lastmile_qr_scan", "android": "https://dc.lft.to/lastmile_qr_scan"}, "bike_id": "9329378eec491f10cac1fd94e3bb0f55", "is_reserved": 0, "fusion_lon": 0.0}, {"lat": 38.89016316666667, "is_disabled": 0, "fusion_lat": 0.0, "name": "85b1d90f531a03528ab018cb671b2f54", "type": "electric_scooter", "lon": -76.93738883333333, "rental_uris": {"ios": "https://dc.lft.to/lastmile_qr_scan", "android": "https://dc.lft.to/lastmile_qr_scan"}, "bike_id": "85b1d90f531a03528ab018cb671b2f54", "is_reserved": 0, "fusion_lon": 0.0}, {"lat": 38.904874666666664, "is_disabled": 0, "fusion_lat": 0.0, "name": "af395ab22a53be4be29a2f093f37e1c9", "type": "electric_scooter", "lon": -77.06013333333334, "rental_uris": {"ios": "https://dc.lft.to/lastmile_qr_scan", "android": "https://dc.lft.to/lastmile_qr_scan"}, "bike_id": "af395ab22a53be4be29a2f093f37e1c9", "is_reserved": 0, "fusion_lon": 0.0}, {"lat": 38.91725433333333, "is_disabled": 0, "fusion_lat": 0.0, "name": "8b486b22ddb10694f049bbbf850b6c48", "type": "electric_scooter", "lon": -77.0190795, "rental_uris": {"ios": "https://dc.lft.to/lastmile_qr_scan", "android": "https://dc.lft.to/lastmile_qr_scan"}, "bike_id": "8b486b22ddb10694f049bbbf850b6c48", "is_reserved": 0, "fusion_lon": 0.0}, {"lat": 38.93351766666667, "is_disabled": 0, "fusion_lat": 0.0, "name": "5c9015934f24057f82fbc17d03c0edd7", "type": "electric_scooter", "lon": -77.02465083333334, "rental_uris": {"ios": "https://dc.lft.to/lastmile_qr_scan", "android": "https://dc.lft.to/lastmile_qr_scan"}, "bike_id": "5c9015934f24057f82fbc17d03c0edd7", "is_reserved": 0, "fusion_lon": 0.0}, {"lat": 38.91099833333333, "is_disabled": 0, "fusion_lat": 0.0, "name": "90a0b88bc4c35ef8531e7514211b342a", "type": "electric_scooter", "lon": -77.04489683333334, "rental_uris": {"ios": "https://dc.lft.to/lastmile_qr_scan", "android": "https://dc.lft.to/lastmile_qr_scan"}, "bike_id": "90a0b88bc4c35ef8531e7514211b342a", "is_reserved": 0, "fusion_lon": 0.0}, {"lat": 38.91190483333333, "is_disabled": 0, "fusion_lat": 0.0, "name": "eeb175e7d3bb2f98c5685920e1aa0e99", "type": "electric_scooter", "lon": -77.00781933333333, "rental_uris": {"ios": "https://dc.lft.to/lastmile_qr_scan", "android": "https://dc.lft.to/lastmile_qr_scan"}, "bike_id": "eeb175e7d3bb2f98c5685920e1aa0e99", "is_reserved": 0, "fusion_lon": 0.0}, {"lat": 38.9279335, "is_disabled": 0, "fusion_lat": 0.0, "name": "1010473d34377c91e4125e3bb2fd0038", "type": "electric_scooter", "lon": -77.03600466666667, "rental_uris": {"ios": "https://dc.lft.to/lastmile_qr_scan", "android": "https://dc.lft.to/lastmile_qr_scan"}, "bike_id": "1010473d34377c91e4125e3bb2fd0038", "is_reserved": 0, "fusion_lon": 0.0}, {"lat": 38.89825916666667, "is_disabled": 0, "fusion_lat": 0.0, "name": "e28e1fcad299787778b0379ace02f2c6", "type": "electric_scooter", "lon": -77.0313945, "rental_uris": {"ios": "https://dc.lft.to/lastmile_qr_scan", "android": "https://dc.lft.to/lastmile_qr_scan"}, "bike_id": "e28e1fcad299787778b0379ace02f2c6", "is_reserved": 0, "fusion_lon": 0.0}, {"lat": 38.9354805, "is_disabled": 0, "fusion_lat": 0.0, "name": "888cdd6ae38fd2cc2eec7e5c974215da", "type": "electric_scooter", "lon": -77.02505, "rental_uris": {"ios": "https://dc.lft.to/lastmile_qr_scan", "android": "https://dc.lft.to/lastmile_qr_scan"}, "bike_id": "888cdd6ae38fd2cc2eec7e5c974215da", "is_reserved": 0, "fusion_lon": 0.0}, {"lat": 38.91674416666667, "is_disabled": 0, "fusion_lat": 0.0, "name": "989828b0c72cec3058b0d05f6793ed63", "type": "electric_scooter", "lon": -77.02179866666667, "rental_uris": {"ios": "https://dc.lft.to/lastmile_qr_scan", "android": "https://dc.lft.to/lastmile_qr_scan"}, "bike_id": "989828b0c72cec3058b0d05f6793ed63", "is_reserved": 0, "fusion_lon": 0.0}, {"lat": 39.022993166666666, "is_disabled": 0, "fusion_lat": 0.0, "name": "0c707a05eb663b60ef6d41ec52065d5f", "type": "electric_bike", "lon": -77.02103516666666, "rental_uris": {"ios": "https://dc.lft.to/lastmile_qr_scan", "android": "https://dc.lft.to/lastmile_qr_scan"}, "bike_id": "0c707a05eb663b60ef6d41ec52065d5f", "is_reserved": 0, "fusion_lon": 0.0}, {"lat": 38.97477383333333, "is_disabled": 0, "fusion_lat": 0.0, "name": "55f164e7076e065dba8ff2e1b1238980", "type": "electric_bike", "lon": -76.98668983333333, "rental_uris": {"ios": "https://dc.lft.to/lastmile_qr_scan", "android": "https://dc.lft.to/lastmile_qr_scan"}, "bike_id": "55f164e7076e065dba8ff2e1b1238980", "is_reserved": 0, "fusion_lon": 0.0}, {"lat": 38.913314, "is_disabled": 0, "fusion_lat": 0.0, "name": "465bb2b3e5f6f98a2e31fbe888f2e66e", "type": "electric_scooter", "lon": -77.02190066666667, "rental_uris": {"ios": "https://dc.lft.to/lastmile_qr_scan", "android": "https://dc.lft.to/lastmile_qr_scan"}, "bike_id": "465bb2b3e5f6f98a2e31fbe888f2e66e", "is_reserved": 0, "fusion_lon": 0.0}, {"lat": 38.929503, "is_disabled": 0, "fusion_lat": 0.0, "name": "410251dcd37e047123623f2c4742fc90", "type": "electric_scooter", "lon": -77.0551015, "rental_uris": {"ios": "https://dc.lft.to/lastmile_qr_scan", "android": "https://dc.lft.to/lastmile_qr_scan"}, "bike_id": "410251dcd37e047123623f2c4742fc90", "is_reserved": 0, "fusion_lon": 0.0}, {"lat": 38.89424, "is_disabled": 0, "fusion_lat": 0.0, "name": "433bc75daa8266f5be5895bd8fa5d05c", "type": "electric_bike", "lon": -77.09442083333333, "rental_uris": {"ios": "https://dc.lft.to/lastmile_qr_scan", "android": "https://dc.lft.to/lastmile_qr_scan"}, "bike_id": "433bc75daa8266f5be5895bd8fa5d05c", "is_reserved": 0, "fusion_lon": 0.0}, {"lat": 38.90209816666667, "is_disabled": 0, "fusion_lat": 0.0, "name": "2e56bfdd66371b85c6a141cc5b66a689", "type": "electric_scooter", "lon": -77.02348266666667, "rental_uris": {"ios": "https://dc.lft.to/lastmile_qr_scan", "android": "https://dc.lft.to/lastmile_qr_scan"}, "bike_id": "2e56bfdd66371b85c6a141cc5b66a689", "is_reserved": 0, "fusion_lon": 0.0}, {"lat": 38.92151466666667, "is_disabled": 0, "fusion_lat": 0.0, "name": "1b6fa7be7a5f459df043b56e7cdc6da3", "type": "electric_scooter", "lon": -77.0205075, "rental_uris": {"ios": "https://dc.lft.to/lastmile_qr_scan", "android": "https://dc.lft.to/lastmile_qr_scan"}, "bike_id": "1b6fa7be7a5f459df043b56e7cdc6da3", "is_reserved": 0, "fusion_lon": 0.0}, {"lat": 38.902532, "is_disabled": 0, "fusion_lat": 0.0, "name": "a92debdd8bde923a49af813b85678892", "type": "electric_scooter", "lon": -77.03881516666667, "rental_uris": {"ios": "https://dc.lft.to/lastmile_qr_scan", "android": "https://dc.lft.to/lastmile_qr_scan"}, "bike_id": "a92debdd8bde923a49af813b85678892", "is_reserved": 0, "fusion_lon": 0.0}, {"lat": 38.90296416666666, "is_disabled": 0, "fusion_lat": 0.0, "name": "ea730770b390a9f9000a0a90de4bb71e", "type": "electric_scooter", "lon": -77.0317155, "rental_uris": {"ios": "https://dc.lft.to/lastmile_qr_scan", "android": "https://dc.lft.to/lastmile_qr_scan"}, "bike_id": "ea730770b390a9f9000a0a90de4bb71e", "is_reserved": 0, "fusion_lon": 0.0}, {"lat": 38.896286833333335, "is_disabled": 0, "fusion_lat": 0.0, "name": "7968c0c66da79f13e124ca3f8fb3e167", "type": "electric_scooter", "lon": -77.0034435, "rental_uris": {"ios": "https://dc.lft.to/lastmile_qr_scan", "android": "https://dc.lft.to/lastmile_qr_scan"}, "bike_id": "7968c0c66da79f13e124ca3f8fb3e167", "is_reserved": 0, "fusion_lon": 0.0}, {"lat": 38.89391466666667, "is_disabled": 0, "fusion_lat": 0.0, "name": "110bc0c02fbbd5d39529c9f71a0dfd65", "type": "electric_scooter", "lon": -77.02455866666666, "rental_uris": {"ios": "https://dc.lft.to/lastmile_qr_scan", "android": "https://dc.lft.to/lastmile_qr_scan"}, "bike_id": "110bc0c02fbbd5d39529c9f71a0dfd65", "is_reserved": 0, "fusion_lon": 0.0}, {"lat": 38.896960666666665, "is_disabled": 0, "fusion_lat": 0.0, "name": "b6c0ef0737d3e9befae1313c760ef3a0", "type": "electric_scooter", "lon": -77.0049255, "rental_uris": {"ios": "https://dc.lft.to/lastmile_qr_scan", "android": "https://dc.lft.to/lastmile_qr_scan"}, "bike_id": "b6c0ef0737d3e9befae1313c760ef3a0", "is_reserved": 0, "fusion_lon": 0.0}, {"lat": 38.87289166666667, "is_disabled": 0, "fusion_lat": 0.0, "name": "a67ba52977b69c7c4ba85871d5a94458", "type": "electric_scooter", "lon": -77.00989383333334, "rental_uris": {"ios": "https://dc.lft.to/lastmile_qr_scan", "android": "https://dc.lft.to/lastmile_qr_scan"}, "bike_id": "a67ba52977b69c7c4ba85871d5a94458", "is_reserved": 0, "fusion_lon": 0.0}, {"lat": 38.90181416666667, "is_disabled": 0, "fusion_lat": 0.0, "name": "b4132ea738c7fb5e1b0cbe2e3aaff43d", "type": "electric_scooter", "lon": -76.976672, "rental_uris": {"ios": "https://dc.lft.to/lastmile_qr_scan", "android": "https://dc.lft.to/lastmile_qr_scan"}, "bike_id": "b4132ea738c7fb5e1b0cbe2e3aaff43d", "is_reserved": 0, "fusion_lon": 0.0}, {"lat": 38.909986833333335, "is_disabled": 0, "fusion_lat": 0.0, "name": "e57ae6dd75ee789625280d6c19fccc05", "type": "electric_scooter", "lon": -77.03846483333334, "rental_uris": {"ios": "https://dc.lft.to/lastmile_qr_scan", "android": "https://dc.lft.to/lastmile_qr_scan"}, "bike_id": "e57ae6dd75ee789625280d6c19fccc05", "is_reserved": 0, "fusion_lon": 0.0}, {"lat": 38.90301483333333, "is_disabled": 0, "fusion_lat": 0.0, "name": "69ae952c7cbb167e4b2050a30f962b40", "type": "electric_scooter", "lon": -76.99836283333333, "rental_uris": {"ios": "https://dc.lft.to/lastmile_qr_scan", "android": "https://dc.lft.to/lastmile_qr_scan"}, "bike_id": "69ae952c7cbb167e4b2050a30f962b40", "is_reserved": 0, "fusion_lon": 0.0}, {"lat": 38.92739866666667, "is_disabled": 0, "fusion_lat": 0.0, "name": "d405b960fa5d5f85ae1395e33fe60675", "type": "electric_scooter", "lon": -77.03556933333333, "rental_uris": {"ios": "https://dc.lft.to/lastmile_qr_scan", "android": "https://dc.lft.to/lastmile_qr_scan"}, "bike_id": "d405b960fa5d5f85ae1395e33fe60675", "is_reserved": 0, "fusion_lon": 0.0}, {"lat": 38.9267435, "is_disabled": 0, "fusion_lat": 0.0, "name": "4b9ff33f4841f4e0840343de6f89feab", "type": "electric_scooter", "lon": -77.01508616666666, "rental_uris": {"ios": "https://dc.lft.to/lastmile_qr_scan", "android": "https://dc.lft.to/lastmile_qr_scan"}, "bike_id": "4b9ff33f4841f4e0840343de6f89feab", "is_reserved": 0, "fusion_lon": 0.0}, {"lat": 38.93331283333333, "is_disabled": 0, "fusion_lat": 0.0, "name": "e2acd0b46c4f73c89f2e73f305e177fd", "type": "electric_bike", "lon": -77.061869, "rental_uris": {"ios": "https://dc.lft.to/lastmile_qr_scan", "android": "https://dc.lft.to/lastmile_qr_scan"}, "bike_id": "e2acd0b46c4f73c89f2e73f305e177fd", "is_reserved": 0, "fusion_lon": 0.0}, {"lat": 38.928534, "is_disabled": 0, "fusion_lat": 0.0, "name": "897c79c7aebc96aef8dba67165d9e645", "type": "electric_scooter", "lon": -77.01399116666667, "rental_uris": {"ios": "https://dc.lft.to/lastmile_qr_scan", "android": "https://dc.lft.to/lastmile_qr_scan"}, "bike_id": "897c79c7aebc96aef8dba67165d9e645", "is_reserved": 0, "fusion_lon": 0.0}, {"lat": 39.03474416666667, "is_disabled": 0, "fusion_lat": 0.0, "name": "9185dd2e51129358c4b927ce2010cd03", "type": "electric_bike", "lon": -77.0409875, "rental_uris": {"ios": "https://dc.lft.to/lastmile_qr_scan", "android": "https://dc.lft.to/lastmile_qr_scan"}, "bike_id": "9185dd2e51129358c4b927ce2010cd03", "is_reserved": 0, "fusion_lon": 0.0}, {"lat": 38.93340083333333, "is_disabled": 0, "fusion_lat": 0.0, "name": "c649bbb39cd04b8ae3e254974b44b33b", "type": "electric_scooter", "lon": -77.057134, "rental_uris": {"ios": "https://dc.lft.to/lastmile_qr_scan", "android": "https://dc.lft.to/lastmile_qr_scan"}, "bike_id": "c649bbb39cd04b8ae3e254974b44b33b", "is_reserved": 0, "fusion_lon": 0.0}, {"lat": 38.89509433333333, "is_disabled": 0, "fusion_lat": 0.0, "name": "65ba379d2e42f5c0e117ac3bddd754d0", "type": "electric_scooter", "lon": -76.94886166666667, "rental_uris": {"ios": "https://dc.lft.to/lastmile_qr_scan", "android": "https://dc.lft.to/lastmile_qr_scan"}, "bike_id": "65ba379d2e42f5c0e117ac3bddd754d0", "is_reserved": 0, "fusion_lon": 0.0}, {"lat": 38.9321755, "is_disabled": 0, "fusion_lat": 0.0, "name": "55665617b98ae6679b601e926318ca20", "type": "electric_scooter", "lon": -77.03851783333333, "rental_uris": {"ios": "https://dc.lft.to/lastmile_qr_scan", "android": "https://dc.lft.to/lastmile_qr_scan"}, "bike_id": "55665617b98ae6679b601e926318ca20", "is_reserved": 0, "fusion_lon": 0.0}, {"lat": 38.90026866666667, "is_disabled": 0, "fusion_lat": 0.0, "name": "403f635f148a2912e72b56f92489d158", "type": "electric_scooter", "lon": -76.98844216666667, "rental_uris": {"ios": "https://dc.lft.to/lastmile_qr_scan", "android": "https://dc.lft.to/lastmile_qr_scan"}, "bike_id": "403f635f148a2912e72b56f92489d158", "is_reserved": 0, "fusion_lon": 0.0}, {"lat": 38.901316666666666, "is_disabled": 0, "fusion_lat": 0.0, "name": "809cfa16b3d31b3ecb1cf580b71106e6", "type": "electric_scooter", "lon": -77.03836033333333, "rental_uris": {"ios": "https://dc.lft.to/lastmile_qr_scan", "android": "https://dc.lft.to/lastmile_qr_scan"}, "bike_id": "809cfa16b3d31b3ecb1cf580b71106e6", "is_reserved": 0, "fusion_lon": 0.0}, {"lat": 38.92359666666667, "is_disabled": 0, "fusion_lat": 0.0, "name": "8b1d74d714c69b3dc6a9f9ae4fb1e481", "type": "electric_scooter", "lon": -77.02132116666667, "rental_uris": {"ios": "https://dc.lft.to/lastmile_qr_scan", "android": "https://dc.lft.to/lastmile_qr_scan"}, "bike_id": "8b1d74d714c69b3dc6a9f9ae4fb1e481", "is_reserved": 0, "fusion_lon": 0.0}, {"lat": 38.93386683333333, "is_disabled": 0, "fusion_lat": 0.0, "name": "1288fe3bd4e01bc79c5c6036ccf049a6", "type": "electric_scooter", "lon": -77.05763383333333, "rental_uris": {"ios": "https://dc.lft.to/lastmile_qr_scan", "android": "https://dc.lft.to/lastmile_qr_scan"}, "bike_id": "1288fe3bd4e01bc79c5c6036ccf049a6", "is_reserved": 0, "fusion_lon": 0.0}, {"lat": 38.8800735, "is_disabled": 0, "fusion_lat": 0.0, "name": "bdc7e6a64b1ae139d865ce0ac17ecbff", "type": "electric_scooter", "lon": -76.99834383333334, "rental_uris": {"ios": "https://dc.lft.to/lastmile_qr_scan", "android": "https://dc.lft.to/lastmile_qr_scan"}, "bike_id": "bdc7e6a64b1ae139d865ce0ac17ecbff", "is_reserved": 0, "fusion_lon": 0.0},