{"data": {"bikes": [{"bike_id": "3c64586b494561e319c771134fc2eb95", "name": "3c64586b494561e319c771134fc2eb95", "is_reserved": 0, "lat": 38.92009683333333, "fusion_lon": 0.0, "is_disabled": 0, "lon": -77.07168733333333, "rental_uris": {"ios": "https://dc.lft.to/lastmile_qr_scan", "android": "https://dc.lft.to/lastmile_qr_scan"}, "fusion_lat": 0.0, "type": "electric_scooter"}, {"bike_id": "92bc74cff46f052975d04cacbaec3f52", "name": "92bc74cff46f052975d04cacbaec3f52", "is_reserved": 0, "lat": 38.92373516666667, "fusion_lon": 0.0, "is_disabled": 0, "lon": -77.01946283333334, "rental_uris": {"ios": "https://dc.lft.to/lastmile_qr_scan", "android": "https://dc.lft.to/lastmile_qr_scan"}, "fusion_lat": 0.0, "type": "electric_scooter"}, {"bike_id": "0a8876bccc233bfae9ea7b391aa6f22a", "name": "0a8876bccc233bfae9ea7b391aa6f22a", "is_reserved": 0, "lat": 38.92177783333333, "fusion_lon": 0.0, "is_disabled": 0, "lon": -77.02051533333334, "rental_uris": {"ios": "https://dc.lft.to/lastmile_qr_scan", "android": "https://dc.lft.to/lastmile_qr_scan"}, "fusion_lat": 0.0, "type": "electric_scooter"}, {"bike_id": "bfa7f0ba4c2646896eb265f3713596e0", "name": "bfa7f0ba4c2646896eb265f3713596e0", "is_reserved": 0, "lat": 38.91139916666667, "fusion_lon": 0.0, "is_disabled": 0, "lon": -77.0281055, "rental_uris": {"ios": "https://dc.lft.to/lastmile_qr_scan", "android": "https://dc.lft.to/lastmile_qr_scan"}, "fusion_lat": 0.0, "type": "electric_scooter"}, {"bike_id": "a42c9db162a108024be04005370a7065", "name": "a42c9db162a108024be04005370a7065", "is_reserved": 0, "lat": 38.9189075, "fusion_lon": 0.0, "is_disabled": 0, "lon": -77.0413055, "rental_uris": {"ios": "https://dc.lft.to/lastmile_qr_scan", "android": "https://dc.lft.to/lastmile_qr_scan"}, "fusion_lat": 0.0, "type": "electric_scooter"}, {"bike_id": "8c3d5822da53c3b9acef306becc608cb", "name": "8c3d5822da53c3b9acef306becc608cb", "is_reserved": 0, "lat": 38.924125833333335, "fusion_lon": 0.0, "is_disabled": 0, "lon": -77.03641283333333, "rental_uris": {"ios": "https://dc.lft.to/lastmile_qr_scan", "android": "https://dc.lft.to/lastmile_qr_scan"}, "fusion_lat": 0.0, "type": "electric_scooter"}, {"bike_id": "ccc7427779d4607859739eab374f3882", "name": "ccc7427779d4607859739eab374f3882", "is_reserved": 0, "lat": 38.899553, "fusion_lon": 0.0, "is_disabled": 0, "lon": -77.029853, "rental_uris": {"ios": "https://dc.lft.to/lastmile_qr_scan", "android": "https://dc.lft.to/lastmile_qr_scan"}, "fusion_lat": 0.0, "type": "electric_scooter"}, {"bike_id": "de53c8d0ea4e924e1207273c127abb8a", "name": "de53c8d0ea4e924e1207273c127abb8a", "is_reserved": 0, "lat": 38.91074716666667, "fusion_lon": 0.0, "is_disabled": 0, "lon": -77.0161375, "rental_uris": {"ios": "https://dc.lft.to/lastmile_qr_scan", "android": "https://dc.lft.to/lastmile_qr_scan"}, "fusion_lat": 0.0, "type": "electric_scooter"}, {"bike_id": "f7f00a455df08b1a53da838cc5746dcf", "name": "f7f00a455df08b1a53da838cc5746dcf", "is_reserved": 0, "lat": 38.92602333333333, "fusion_lon": 0.0, "is_disabled": 0, "lon": -77.021583, "rental_uris": {"ios": "https://dc.lft.to/lastmile_qr_scan", "android": "https://dc.lft.to/lastmile_qr_scan"}, "fusion_lat": 0.0, "type": "electric_scooter"}, {"bike_id": "fc279fe6619809d13c30c277b3cb6a5d", "name": "fc279fe6619809d13c30c277b3cb6a5d", "is_reserved": 0, "lat": 38.82034066666667, "fusion_lon": 0.0, "is_disabled": 0, "lon": -77.05368316666667, "rental_uris": {"ios": "https://dc.lft.to/lastmile_qr_scan", "android": "https://dc.lft.to/lastmile_qr_scan"}, "fusion_lat": 0.0, "type": "electric_bike"}, {"bike_id": "3d4de4c008dac4503f5c8886734a6f92", "name": "3d4de4c008dac4503f5c8886734a6f92", "is_reserved": 0, "lat": 38.8655205, "fusion_lon": 0.0, "is_disabled": 0, "lon": -76.9415375, "rental_uris": {"ios": "https://dc.lft.to/lastmile_qr_scan", "android": "https://dc.lft.to/lastmile_qr_scan"}, "fusion_lat": 0.0, "type": "electric_bike"}, {"bike_id": "1e50baf25438e763615800a831241261", "name": "1e50baf25438e763615800a831241261", "is_reserved": 0, "lat": 38.91855133333333, "fusion_lon": 0.0, "is_disabled": 0, "lon": -77.02603166666667, "rental_uris": {"ios": "https://dc.lft.to/lastmile_qr_scan", "android": "https://dc.lft.to/lastmile_qr_scan"}, "fusion_lat": 0.0, "type": "electric_scooter"}, {"bike_id": "bf09ac83533ab17ca2186655eeb38535", "name": "bf09ac83533ab17ca2186655eeb38535", "is_reserved": 0, "lat": 38.92355766666667, "fusion_lon": 0.0, "is_disabled": 0, "lon": -77.02058966666667, "rental_uris": {"ios": "https://dc.lft.to/lastmile_qr_scan", "android": "https://dc.lft.to/lastmile_qr_scan"}, "fusion_lat": 0.0, "type": "electric_scooter"}, {"bike_id": "d07c995e3240992f27bd021f821a6837", "name": "d07c995e3240992f27bd021f821a6837", "is_reserved": 0, "lat": 38.822076, "fusion_lon": 0.0, "is_disabled": 0, "lon": -76.97709933333333, "rental_uris": {"ios": "https://dc.lft.to/lastmile_qr_scan", "android": "https://dc.lft.to/lastmile_qr_scan"}, "fusion_lat": 0.0, "type": "electric_bike"}, {"bike_id": "acf4272528847ffabc3d5e7295e63e98", "name": "acf4272528847ffabc3d5e7295e63e98", "is_reserved": 0, "lat": 38.96730383333333, "fusion_lon": 0.0, "is_disabled": 0, "lon": -77.02535383333333, "rental_uris": {"ios": "https://dc.lft.to/lastmile_qr_scan", "android": "https://dc.lft.to/lastmile_qr_scan"}, "fusion_lat": 0.0, "type": "electric_scooter"}, {"bike_id": "c42fd97595383d15d1e14b72f2415ab0", "name": "c42fd97595383d15d1e14b72f2415ab0", "is_reserved": 0, "lat": 38.91924983333333, "fusion_lon": 0.0, "is_disabled": 0, "lon": -77.04180483333333, "rental_uris": {"ios": "https://dc.lft.to/lastmile_qr_scan", "android": "https://dc.lft.to/lastmile_qr_scan"}, "fusion_lat": 0.0, "type": "electric_scooter"}, {"bike_id": "d5c32400d87e87c5436b38809ad45b02", "name": "d5c32400d87e87c5436b38809ad45b02", "is_reserved": 0, "lat": 38.854351, "fusion_lon": 0.0, "is_disabled": 0, "lon": -77.08320283333333, "rental_uris": {"ios": "https://dc.lft.to/lastmile_qr_scan", "android": "https://dc.lft.to/lastmile_qr_scan"}, "fusion_lat": 0.0, "type": "electric_bike"}, {"bike_id": "d8fbc5fc33982008aa8ad85a913692b9", "name": "d8fbc5fc33982008aa8ad85a913692b9", "is_reserved": 0, "lat": 38.88179816666667, "fusion_lon": 0.0, "is_disabled": 0, "lon": -77.02200583333334, "rental_uris": {"ios": "https://dc.lft.to/lastmile_qr_scan", "android": "https://dc.lft.to/lastmile_qr_scan"}, "fusion_lat": 0.0, "type": "electric_scooter"}, {"bike_id": "d4ef3f8fc6314ad9b21d8d3e24c7a3f3", "name": "d4ef3f8fc6314ad9b21d8d3e24c7a3f3", "is_reserved": 0, "lat": 38.95168616666667, "fusion_lon": 0.0, "is_disabled": 0, "lon": -77.03163916666666, "rental_uris": {"ios": "https://dc.lft.to/lastmile_qr_scan", "android": "https://dc.lft.to/lastmile_qr_scan"}, "fusion_lat": 0.0, "type": "electric_bike"}, {"bike_id": "6a669080a2a0011ba4973249796c375a", "name": "6a669080a2a0011ba4973249796c375a", "is_reserved": 0, "lat": 38.944514166666664, "fusion_lon": 0.0, "is_disabled": 0, "lon": -77.06353433333334, "rental_uris": {"ios": "https://dc.lft.to/lastmile_qr_scan", "android": "https://dc.lft.to/lastmile_qr_scan"}, "fusion_lat": 0.0, "type": "electric_scooter"}, {"bike_id": "01239c87ee3c5850589ca4a77549f111", "name": "01239c87ee3c5850589ca4a77549f111", "is_reserved": 0, "lat": 38.908183, "fusion_lon": 0.0, "is_disabled": 0, "lon": -77.03591933333334, "rental_uris": {"ios": "https://dc.lft.to/lastmile_qr_scan", "android": "https://dc.lft.to/lastmile_qr_scan"}, "fusion_lat": 0.0, "type": "electric_scooter"}, {"bike_id": "de9f43b24e5fa032a81043d53b6ac1ae", "name": "de9f43b24e5fa032a81043d53b6ac1ae", "is_reserved": 0, "lat": 38.90512666666667, "fusion_lon": 0.0, "is_disabled": 0, "lon": -76.98399183333333, "rental_uris": {"ios": "https://dc.lft.to/lastmile_qr_scan", "android": "https://dc.lft.to/lastmile_qr_scan"}, "fusion_lat": 0.0, "type": "electric_scooter"}, {"bike_id": "578dcbb98f242070d2588e0b81796f71", "name": "578dcbb98f242070d2588e0b81796f71", "is_reserved": 0, "lat": 38.878969, "fusion_lon": 0.0, "is_disabled": 0, "lon": -76.93530383333334, "rental_uris": {"ios": "https://dc.lft.to/lastmile_qr_scan", "android": "https://dc.lft.to/lastmile_qr_scan"}, "fusion_lat": 0.0, "type": "electric_scooter"}, {"bike_id": "05624a5eb00a4f3bb93260f3e980f173", "name": "05624a5eb00a4f3bb93260f3e980f173", "is_reserved": 0, "lat": 38.89231266666667, "fusion_lon": 0.0, "is_disabled": 0, "lon": -77.03171883333333, "rental_uris": {"ios": "https://dc.lft.to/lastmile_qr_scan", "android": "https://dc.lft.to/lastmile_qr_scan"}, "fusion_lat": 0.0, "type": "electric_scooter"}, {"bike_id": "5fb77fbe10162c32058f28c3aafe42a2", "name": "5fb77fbe10162c32058f28c3aafe42a2", "is_reserved": 0, "lat": 38.94608133333333, "fusion_lon": 0.0, "is_disabled": 0, "lon": -77.03287433333334, "rental_uris": {"ios": "https://dc.lft.to/lastmile_qr_scan", "android": "https://dc.lft.to/lastmile_qr_scan"}, "fusion_lat": 0.0, "type": "electric_scooter"}, {"bike_id": "302fd6f1e4899ba6b4ef2c0235a50376", "name": "302fd6f1e4899ba6b4ef2c0235a50376", "is_reserved": 0, "lat": 38.92353383333333, "fusion_lon": 0.0, "is_disabled": 0, "lon": -77.043839, "rental_uris": {"ios": "https://dc.lft.to/lastmile_qr_scan", "android": "https://dc.lft.to/lastmile_qr_scan"}, "fusion_lat": 0.0, "type": "electric_scooter"}, {"bike_id": "3b6bd133853a50e524492919a0948aa1", "name": "3b6bd133853a50e524492919a0948aa1", "is_reserved": 0, "lat": 38.915668333333336, "fusion_lon": 0.0, "is_disabled": 0, "lon": -77.02798433333334, "rental_uris": {"ios": "https://dc.lft.to/lastmile_qr_scan", "android": "https://dc.lft.to/lastmile_qr_scan"}, "fusion_lat": 0.0, "type": "electric_scooter"}, {"bike_id": "b86663c079574babf2e73df754a4116d", "name": "b86663c079574babf2e73df754a4116d", "is_reserved": 0, "lat": 38.92271483333333, "fusion_lon": 0.0, "is_disabled": 0, "lon": -77.0182665, "rental_uris": {"ios": "https://dc.lft.to/lastmile_qr_scan", "android": "https://dc.lft.to/lastmile_qr_scan"}, "fusion_lat": 0.0, "type": "electric_scooter"}, {"bike_id": "cd5966a895380c2d2d17830b61c84575", "name": "cd5966a895380c2d2d17830b61c84575", "is_reserved": 0, "lat": 38.8839405, "fusion_lon": 0.0, "is_disabled": 0, "lon": -77.044583, "rental_uris": {"ios": "https://dc.lft.to/lastmile_qr_scan", "android": "https://dc.lft.to/lastmile_qr_scan"}, "fusion_lat": 0.0, "type": "electric_scooter"}, {"bike_id": "d2f485ecf08b8a5bd1b995eb2a7b83ef", "name": "d2f485ecf08b8a5bd1b995eb2a7b83ef", "is_reserved": 0, "lat": 38.9339985, "fusion_lon": 0.0, "is_disabled": 0, "lon": -77.05747766666667, "rental_uris": {"ios": "https://dc.lft.to/lastmile_qr_scan", "android": "https://dc.lft.to/lastmile_qr_scan"}, "fusion_lat": 0.0, "type": "electric_scooter"}, {"bike_id": "b27606f782b11f9810b5cc36f38f0d4f", "name": "b27606f782b11f9810b5cc36f38f0d4f", "is_reserved": 0, "lat": 38.92798533333333, "fusion_lon": 0.0, "is_disabled": 0, "lon": -77.229438, "rental_uris": {"ios": "https://dc.lft.to/lastmile_qr_scan", "android": "https://dc.lft.to/lastmile_qr_scan"}, "fusion_lat": 0.0, "type": "electric_bike"}, {"bike_id": "62f294cd5c986b5d5f35139f46eaf833", "name": "62f294cd5c986b5d5f35139f46eaf833", "is_reserved": 0, "lat": 38.90032883333333, "fusion_lon": 0.0, "is_disabled": 0, "lon": -77.03714133333334, "rental_uris": {"ios": "https://dc.lft.to/lastmile_qr_scan", "android": "https://dc.lft.to/lastmile_qr_scan"}, "fusion_lat": 0.0, "type": "electric_scooter"}, {"bike_id": "b9f3ff59130c9d51eda809e5804e2182", "name": "b9f3ff59130c9d51eda809e5804e2182", "is_reserved": 0, "lat": 38.9227145, "fusion_lon": 0.0, "is_disabled": 0, "lon": -77.02441316666666, "rental_uris": {"ios": "https://dc.lft.to/lastmile_qr_scan", "android": "https://dc.lft.to/lastmile_qr_scan"}, "fusion_lat": 0.0, "type": "electric_scooter"}, {"bike_id": "ec93f06db9dca5e5c720cca5680f6596", "name": "ec93f06db9dca5e5c720cca5680f6596", "is_reserved": 0, "lat": 38.81331616666667, "fusion_lon": 0.0, "is_disabled": 0, "lon": -77.050873, "rental_uris": {"ios": "https://dc.lft.to/lastmile_qr_scan", "android": "https://dc.lft.to/lastmile_qr_scan"}, "fusion_lat": 0.0, "type": "electric_bike"}, {"bike_id": "f3c0678550e117f16f5ef1b7357a9288", "name": "f3c0678550e117f16f5ef1b7357a9288", "is_reserved": 0, "lat": 38.9275445, "fusion_lon": 0.0, "is_disabled": 0, "lon": -77.03260666666667, "rental_uris": {"ios": "https://dc.lft.to/lastmile_qr_scan", "android": "https://dc.lft.to/lastmile_qr_scan"}, "fusion_lat": 0.0, "type": "electric_scooter"}, {"bike_id": "ce7018fd62ae8b51d86f49f8b284ec8d", "name": "ce7018fd62ae8b51d86f49f8b284ec8d", "is_reserved": 0, "lat": 38.907522666666665, "fusion_lon": 0.0, "is_disabled": 0, "lon": -77.04161866666666, "rental_uris": {"ios": "https://dc.lft.to/lastmile_qr_scan", "android": "https://dc.lft.to/lastmile_qr_scan"}, "fusion_lat": 0.0, "type": "electric_scooter"}, {"bike_id": "1e6968c459f1d21002871c4e9fb6c671", "name": "1e6968c459f1d21002871c4e9fb6c671", "is_reserved": 0, "lat": 38.909943, "fusion_lon": 0.0, "is_disabled": 0, "lon": -77.004604, "rental_uris": {"ios": "https://dc.lft.to/lastmile_qr_scan", "android": "https://dc.lft.to/lastmile_qr_scan"}, "fusion_lat": 0.0, "type": "electric_scooter"}, {"bike_id": "b24177abaf95da3baa85cc44b5888451", "name": "b24177abaf95da3baa85cc44b5888451", "is_reserved": 0, "lat": 38.91817283333334, "fusion_lon": 0.0, "is_disabled": 0, "lon": -77.0369715, "rental_uris": {"ios": "https://dc.lft.to/lastmile_qr_scan", "android": "https://dc.lft.to/lastmile_qr_scan"}, "fusion_lat": 0.0, "type": "electric_scooter"}, {"bike_id": "c5e3a784db5cf7f582f8129ec72cc6dc", "name": "c5e3a784db5cf7f582f8129ec72cc6dc", "is_reserved": 0, "lat": 38.907276333333336, "fusion_lon": 0.0, "is_disabled": 0, "lon": -76.9984305, "rental_uris": {"ios": "https://dc.lft.to/lastmile_qr_scan", "android": "https://dc.lft.to/lastmile_qr_scan"}, "fusion_lat": 0.0, "type": "electric_scooter"}, {"bike_id": "9f180fe7057c90a1aaa0a924445e20d1", "name": "9f180fe7057c90a1aaa0a924445e20d1", "is_reserved": 0, "lat": 38.92331083333333, "fusion_lon": 0.0, "is_disabled": 0, "lon": -77.00892366666666, "rental_uris": {"ios": "https://dc.lft.to/lastmile_qr_scan", "android": "https://dc.lft.to/lastmile_qr_scan"}, "fusion_lat": 0.0, "type": "electric_scooter"}, {"bike_id": "9a2117989c2c629888599b686f518d6e", "name": "9a2117989c2c629888599b686f518d6e", "is_reserved": 0, "lat": 38.901013666666664, "fusion_lon": 0.0, "is_disabled": 0, "lon": -76.92933266666667, "rental_uris": {"ios": "https://dc.lft.to/lastmile_qr_scan", "android": "https://dc.lft.to/lastmile_qr_scan"}, "fusion_lat": 0.0, "type": "electric_scooter"}, {"bike_id": "df2f7f9ab9c66c90788a0635545bdc67", "name": "df2f7f9ab9c66c90788a0635545bdc67", "is_reserved": 0, "lat": 38.9225095, "fusion_lon": 0.0, "is_disabled": 0, "lon": -77.03372216666666, "rental_uris": {"ios": "https://dc.lft.to/lastmile_qr_scan", "android": "https://dc.lft.to/lastmile_qr_scan"}, "fusion_lat": 0.0, "type": "electric_scooter"}, {"bike_id": "6e2283117b84ba8b7a1782afeea60f64", "name": "6e2283117b84ba8b7a1782afeea60f64", "is_reserved": 0, "lat": 38.9223265, "fusion_lon": 0.0, "is_disabled": 0, "lon": -77.03734883333334, "rental_uris": {"ios": "https://dc.lft.to/lastmile_qr_scan", "android": "https://dc.lft.to/lastmile_qr_scan"}, "fusion_lat": 0.0, "type": "electric_scooter"}, {"bike_id": "e6d394c0b5a0ed91ea95701f72685644", "name": "e6d394c0b5a0ed91ea95701f72685644", "is_reserved": 0, "lat": 38.90205016666667, "fusion_lon": 0.0, "is_disabled": 0, "lon": -77.02139983333333, "rental_uris": {"ios": "https://dc.lft.to/lastmile_qr_scan", "android": "https://dc.lft.to/lastmile_qr_scan"}, "fusion_lat": 0.0, "type": "electric_scooter"}, {"bike_id": "b00d42263bd07724e8d212ced0075b49", "name": "b00d42263bd07724e8d212ced0075b49", "is_reserved": 0, "lat": 38.8994665, "fusion_lon": 0.0, "is_disabled": 0, "lon": -77.04493933333333, "rental_uris": {"ios": "https://dc.lft.to/lastmile_qr_scan", "android": "https://dc.lft.to/lastmile_qr_scan"}, "fusion_lat": 0.0, "type": "electric_scooter"}, {"bike_id": "1ef3b964d79f34834597c3b72828d5bd", "name": "1ef3b964d79f34834597c3b72828d5bd", "is_reserved": 0, "lat": 38.90745366666667, "fusion_lon": 0.0, "is_disabled": 0, "lon": -77.04198216666667, "rental_uris": {"ios": "https://dc.lft.to/lastmile_qr_scan", "android": "https://dc.lft.to/lastmile_qr_scan"}, "fusion_lat": 0.0, "type": "electric_scooter"}, {"bike_id": "9787cd55507f1b6aef1b15e9853e42d0", "name": "9787cd55507f1b6aef1b15e9853e42d0", "is_reserved": 0, "lat": 38.8767815, "fusion_lon": 0.0, "is_disabled": 0, "lon": -77.00734833333334, "rental_uris": {"ios": "https://dc.lft.to/lastmile_qr_scan", "android": "https://dc.lft.to/lastmile_qr_scan"}, "fusion_lat": 0.0, "type": "electric_scooter"}, {"bike_id": "d1556067573abb68c2bdef90396bf834", "name": "d1556067573abb68c2bdef90396bf834", "is_reserved": 0, "lat": 38.89565066666667, "fusion_lon": 0.0, "is_disabled": 0, "lon": -77.12737016666667, "rental_uris": {"ios": "https://dc.lft.to/lastmile_qr_scan", "android": "https://dc.lft.to/lastmile_qr_scan"}, "fusion_lat": 0.0, "type": "electric_bike"}, {"bike_id": "371f16f7a2d644354cecb54b84dc226e", "name": "371f16f7a2d644354cecb54b84dc226e", "is_reserved": 0, "lat": 38.919454, "fusion_lon": 0.0, "is_disabled": 0, "lon": -77.04504783333333, "rental_uris": {"ios": "https://dc.lft.to/lastmile_qr_scan", "android": "https://dc.lft.to/lastmile_qr_scan"}, "fusion_lat": 0.0, "type": "electric_scooter"}, {"bike_id": "5b46fd850f7680dc7aea4ca9689354ca", "name": "5b46fd850f7680dc7aea4ca9689354ca", "is_reserved": 0, "lat": 38.89920816666667, "fusion_lon": 0.0, "is_disabled": 0, "lon": -77.00359716666667, "rental_uris": {"ios": "https://dc.lft.to/lastmile_qr_scan", "android": "https://dc.lft.to/lastmile_qr_scan"}, "fusion_lat": 0.0, "type": "electric_scooter"}, {"bike_id": "19b17e10e0d3232ba8cda3ca853e533a", "name": "19b17e10e0d3232ba8cda3ca853e533a", "is_reserved": 0, "lat": 38.913130833333334, "fusion_lon": 0.0, "is_disabled": 0, "lon": -77.0286465, "rental_uris": {"ios": "https://dc.lft.to/lastmile_qr_scan", "android": "https://dc.lft.to/lastmile_qr_scan"}, "fusion_lat": 0.0, "type": "electric_scooter"}, {"bike_id": "b9773ed8f08ec8c7b0008ef98c410227", "name": "b9773ed8f08ec8c7b0008ef98c410227", "is_reserved": 0, "lat": 38.956389, "fusion_lon": 0.0, "is_disabled": 0, "lon": -76.93871333333334, "rental_uris": {"ios": "https://dc.lft.to/lastmile_qr_scan", "android": "https://dc.lft.to/lastmile_qr_scan"}, "fusion_lat": 0.0, "type": "electric_bike"}, {"bike_id": "2b16eb8c58ddfba859215c75dbe68d3d", "name": "2b16eb8c58ddfba859215c75dbe68d3d", "is_reserved": 0, "lat": 38.89924416666667, "fusion_lon": 0.0, "is_disabled": 0, "lon": -76.94577716666667, "rental_uris": {"ios": "https://dc.lft.to/lastmile_qr_scan", "android": "https://dc.lft.to/lastmile_qr_scan"}, "fusion_lat": 0.0, "type": "electric_scooter"}, {"bike_id": "b0c4665fcc2c03db9734d9e4737046da", "name": "b0c4665fcc2c03db9734d9e4737046da", "is_reserved": 0, "lat": 39.026231, "fusion_lon": 0.0, "is_disabled": 0, "lon": -77.03882666666667, "rental_uris": {"ios": "https://dc.lft.to/lastmile_qr_scan", "android": "https://dc.lft.to/lastmile_qr_scan"}, "fusion_lat": 0.0, "type": "electric_bike"}, {"bike_id": "8ca0fd8d94de7412ad97b19828c9f9b8", "name": "8ca0fd8d94de7412ad97b19828c9f9b8", "is_reserved": 0, "lat": 38.907391, "fusion_lon": 0.0, "is_disabled": 0, "lon": -77.005155, "rental_uris": {"ios": "https://dc.lft.to/lastmile_qr_scan", "android": "https://dc.lft.to/lastmile_qr_scan"}, "fusion_lat": 0.0, "type": "electric_scooter"}, {"bike_id": "65c5d29ad7833926101940fc3798753a", "name": "65c5d29ad7833926101940fc3798753a", "is_reserved": 0, "lat": 38.8859985, "fusion_lon": 0.0, "is_disabled": 0, "lon": -76.9250175, "rental_uris": {"ios": "https://dc.lft.to/lastmile_qr_scan", "android": "https://dc.lft.to/lastmile_qr_scan"}, "fusion_lat": 0.0, "type": "electric_scooter"}, {"bike_id": "24457a259997e97e06630de131b7d713", "name": "24457a259997e97e06630de131b7d713", "is_reserved": 0, "lat": 38.9170635, "fusion_lon": 0.0, "is_disabled": 0, "lon": -77.03146083333333, "rental_uris": {"ios": "https://dc.lft.to/lastmile_qr_scan", "android": "https://dc.lft.to/lastmile_qr_scan"}, "fusion_lat": 0.0, "type": "electric_scooter"}, {"bike_id": "c4d470194cc1f9c013094ce6d7dbdd73", "name": "c4d470194cc1f9c013094ce6d7dbdd73", "is_reserved": 0, "lat": 38.9005315, "fusion_lon": 0.0, "is_disabled": 0, "lon": -76.99343683333333, "rental_uris": {"ios": "https://dc.lft.to/lastmile_qr_scan", "android": "https://dc.lft.to/lastmile_qr_scan"}, "fusion_lat": 0.0, "type": "electric_scooter"}, {"bike_id": "bd5d338aa3a8672e6bb2f0a6517f778d", "name": "bd5d338aa3a8672e6bb2f0a6517f778d", "is_reserved": 0, "lat": 38.90111366666667, "fusion_lon": 0.0, "is_disabled": 0, "lon": -77.03392783333334, "rental_uris": {"ios": "https://dc.lft.to/lastmile_qr_scan", "android": "https://dc.lft.to/lastmile_qr_scan"}, "fusion_lat": 0.0, "type": "electric_scooter"}, {"bike_id": "61b61d7026a39e21fa707a59fe023bae", "name": "61b61d7026a39e21fa707a59fe023bae", "is_reserved": 0, "lat": 38.893915666666665, "fusion_lon": 0.0, "is_disabled": 0, "lon": -77.0547575, "rental_uris": {"ios": "https://dc.lft.to/lastmile_qr_scan", "android": "https://dc.lft.to/lastmile_qr_scan"}, "fusion_lat": 0.0, "type": "electric_scooter"}, {"bike_id": "b12d828bfbef237064b2b5b74b68826f", "name": "b12d828bfbef237064b2b5b74b68826f", "is_reserved": 0, "lat": 38.96386183333333, "fusion_lon": 0.0, "is_disabled": 0, "lon": -77.02768616666667, "rental_uris": {"ios": "https://dc.lft.to/lastmile_qr_scan", "android": "https://dc.lft.to/lastmile_qr_scan"}, "fusion_lat": 0.0, "type": "electric_scooter"}, {"bike_id": "2c7b97e697e6ee236e4069bcd5de1307", "name": "2c7b97e697e6ee236e4069bcd5de1307", "is_reserved": 0, "lat": 38.9565515, "fusion_lon": 0.0, "is_disabled": 0, "lon": -77.0128525, "rental_uris": {"ios": "https://dc.lft.to/lastmile_qr_scan", "android": "https://dc.lft.to/lastmile_qr_scan"}, "fusion_lat": 0.0, "type": "electric_scooter"}, {"bike_id": "eefb6245bd2c7cb52b74cb7ea091d62b", "name": "eefb6245bd2c7cb52b74cb7ea091d62b", "is_reserved": 0, "lat": 38.92361116666667, "fusion_lon": 0.0, "is_disabled": 0, "lon": -77.0211995, "rental_uris": {"ios": "https://dc.lft.to/lastmile_qr_scan", "android": "https://dc.lft.to/lastmile_qr_scan"}, "fusion_lat": 0.0, "type": "electric_scooter"}, {"bike_id": "3ff7e3859a3573831e102133462be51b", "name": "3ff7e3859a3573831e102133462be51b", "is_reserved": 0, "lat": 38.902511833333335, "fusion_lon": 0.0, "is_disabled": 0, "lon": -76.98081316666666, "rental_uris": {"ios": "https://dc.lft.to/lastmile_qr_scan", "android": "https://dc.lft.to/lastmile_qr_scan"}, "fusion_lat": 0.0, "type": "electric_scooter"}, {"bike_id": "81b17492209208c2349fd1c927da7cc6", "name": "81b17492209208c2349fd1c927da7cc6", "is_reserved": 0, "lat": 38.910038, "fusion_lon": 0.0, "is_disabled": 0, "lon": -76.99394516666666, "rental_uris": {"ios": "https://dc.lft.to/lastmile_qr_scan", "android": "https://dc.lft.to/lastmile_qr_scan"}, "fusion_lat": 0.0, "type": "electric_scooter"}, {"bike_id": "e67d1f6f4f9bd52bf20f4aacf9237098", "name": "e67d1f6f4f9bd52bf20f4aacf9237098", "is_reserved": 0, "lat": 38.894705333333334, "fusion_lon": 0.0, "is_disabled": 0, "lon": -77.04660933333334, "rental_uris": {"ios": "https://dc.lft.to/lastmile_qr_scan", "android": "https://dc.lft.to/lastmile_qr_scan"}, "fusion_lat": 0.0, "type": "electric_scooter"}, {"bike_id": "30357bd470fc822d4cb8c4f7765f1f63", "name": "30357bd470fc822d4cb8c4f7765f1f63", "is_reserved": 0, "lat": 38.899614666666665, "fusion_lon": 0.0, "is_disabled": 0, "lon": -77.0449805, "rental_uris": {"ios": "https://dc.lft.to/lastmile_qr_scan", "android": "https://dc.lft.to/lastmile_qr_scan"}, "fusion_lat": 0.0, "type": "electric_scooter"}, {"bike_id": "26bac04eb84d50031ddf1eb912623002", "name": "26bac04eb84d50031ddf1eb912623002", "is_reserved": 0, "lat": 38.89369033333333, "fusion_lon": 0.0, "is_disabled": 0, "lon": -77.01555883333333, "rental_uris": {"ios": "https://dc.lft.to/lastmile_qr_scan", "android": "https://dc.lft.to/lastmile_qr_scan"}, "fusion_lat": 0.0, "type": "electric_scooter"}, {"bike_id": "ebe7cf0e46336353ae7d451d95024df9", "name": "ebe7cf0e46336353ae7d451d95024df9", "is_reserved": 0, "lat": 38.92420766666667, "fusion_lon": 0.0, "is_disabled": 0, "lon": -77.021357, "rental_uris": {"ios": "https://dc.lft.to/lastmile_qr_scan", "android": "https://dc.lft.to/lastmile_qr_scan"}, "fusion_lat": 0.0, "type": "electric_scooter"}, {"bike_id": "0b4b6a3741d3507884ba262aaa15415f", "name": "0b4b6a3741d3507884ba262aaa15415f", "is_reserved": 0, "lat": 38.89370366666667, "fusion_lon": 0.0, "is_disabled": 0, "lon": -77.03960133333334, "rental_uris": {"ios": "https://dc.lft.to/lastmile_qr_scan", "android": "https://dc.lft.to/lastmile_qr_scan"}, "fusion_lat": 0.0, "type": "electric_scooter"}, {"bike_id": "5244ce08fd1d89ba7d0fabdd16493fa1", "name": "5244ce08fd1d89ba7d0fabdd16493fa1", "is_reserved": 0, "lat": 38.91470533333333, "fusion_lon": 0.0, "is_disabled": 0, "lon": -76.98113966666666, "rental_uris": {"ios": "https://dc.lft.to/lastmile_qr_scan", "android": "https://dc.lft.to/lastmile_qr_scan"}, "fusion_lat": 0.0, "type": "electric_scooter"}, {"bike_id": "e9d1044fbb77be65b4737575d9a22244", "name": "e9d1044fbb77be65b4737575d9a22244", "is_reserved": 0, "lat": 38.91270033333333, "fusion_lon": 0.0, "is_disabled": 0, "lon": -77.0222785, "rental_uris": {"ios": "https://dc.lft.to/lastmile_qr_scan", "android": "https://dc.lft.to/lastmile_qr_scan"}, "fusion_lat": 0.0, "type": "electric_scooter"}, {"bike_id": "a4d879d7584c3a421f01f714ffe4dfe6", "name": "a4d879d7584c3a421f01f714ffe4dfe6", "is_reserved": 0, "lat": 38.886443166666666, "fusion_lon": 0.0, "is_disabled": 0, "lon": -76.98208883333334, "rental_uris": {"ios": "https://dc.lft.to/lastmile_qr_scan", "android": "https://dc.lft.to/lastmile_qr_scan"}, "fusion_lat": 0.0, "type": "electric_scooter"}, {"bike_id": "d9ebfcd715fb6e2a2e19bebd10bc6c62", "name": "d9ebfcd715fb6e2a2e19bebd10bc6c62", "is_reserved": 0, "lat": 38.89100033333333, "fusion_lon": 0.0, "is_disabled": 0, "lon": -76.98826183333334, "rental_uris": {"ios": "https://dc.lft.to/lastmile_qr_scan", "android": "https://dc.lft.to/lastmile_qr_scan"}, "fusion_lat": 0.0, "type": "electric_scooter"}, {"bike_id": "d5bf90705880ff4b8201da5b506aa489", "name": "d5bf90705880ff4b8201da5b506aa489", "is_reserved": 0, "lat": 38.91429766666667, "fusion_lon": 0.0, "is_disabled": 0, "lon": -77.0180545, "rental_uris": {"ios": "https://dc.lft.to/lastmile_qr_scan", "android": "https://dc.lft.to/lastmile_qr_scan"}, "fusion_lat": 0.0, "type": "electric_scooter"}, {"bike_id": "4c493c7f82052bd99339fb05df9bb69d", "name": "4c493c7f82052bd99339fb05df9bb69d", "is_reserved": 0, "lat": 38.906757166666665, "fusion_lon": 0.0, "is_disabled": 0, "lon": -77.0240785, "rental_uris": {"ios": "https://dc.lft.to/lastmile_qr_scan", "android": "https://dc.lft.to/lastmile_qr_scan"}, "fusion_lat": 0.0, "type": "electric_scooter"}, {"bike_id": "f4fa75413e2c25a334d58c222262f46b", "name": "f4fa75413e2c25a334d58c222262f46b", "is_reserved": 0, "lat": 38.892305666666665, "fusion_lon": 0.0, "is_disabled": 0, "lon": -77.05002866666666, "rental_uris": {"ios": "https://dc.lft.to/lastmile_qr_scan", "android": "https://dc.lft.to/lastmile_qr_scan"}, "fusion_lat": 0.0, "type": "electric_scooter"}, {"bike_id": "1fa1233a95e5d8cdfa7c01988ab1bba8", "name": "1fa1233a95e5d8cdfa7c01988ab1bba8", "is_reserved": 0, "lat": 38.95148733333333, "fusion_lon": 0.0, "is_disabled": 0, "lon": -77.0186865, "rental_uris": {"ios": "https://dc.lft.to/lastmile_qr_scan", "android": "https://dc.lft.to/lastmile_qr_scan"}, "fusion_lat": 0.0, "type": "electric_scooter"}, {"bike_id": "2f5921a4f811496730825c35a0cb165d", "name": "2f5921a4f811496730825c35a0cb165d", "is_reserved": 0, "lat": 38.915666, "fusion_lon": 0.0, "is_disabled": 0, "lon": -77.03269533333334, "rental_uris": {"ios": "https://dc.lft.to/lastmile_qr_scan", "android": "https://dc.lft.to/lastmile_qr_scan"}, "fusion_lat": 0.0, "type": "electric_scooter"}, {"bike_id": "f20564291bc317be7ed4651905678a52", "name": "f20564291bc317be7ed4651905678a52", "is_reserved": 0, "lat": 38.9240395, "fusion_lon": 0.0, "is_disabled": 0, "lon": -76.99746833333333, "rental_uris": {"ios": "https://dc.lft.to/lastmile_qr_scan", "android": "https://dc.lft.to/lastmile_qr_scan"}, "fusion_lat": 0.0, "type": "electric_scooter"}, {"bike_id": "854b608150dfa01a1a86e14687cd6207", "name": "854b608150dfa01a1a86e14687cd6207", "is_reserved": 0, "lat": 38.9247845, "fusion_lon": 0.0, "is_disabled": 0, "lon": -77.057625, "rental_uris": {"ios": "https://dc.lft.to/lastmile_qr_scan", "android": "https://dc.lft.to/lastmile_qr_scan"}, "fusion_lat": 0.0, "type": "electric_scooter"}, {"bike_id": "6157d2ed69eaef7dd2894673b3cfdaef", "name": "6157d2ed69eaef7dd2894673b3cfdaef", "is_reserved": 0, "lat": 38.920544, "fusion_lon": 0.0, "is_disabled": 0, "lon": -77.04184133333334, "rental_uris": {"ios": "https://dc.lft.to/lastmile_qr_scan", "android": "https://dc.lft.to/lastmile_qr_scan"}, "fusion_lat": 0.0, "type": "electric_scooter"}, {"bike_id": "3b78e257949cc6bbc0fcc5a891e65c81", "name": "3b78e257949cc6bbc0fcc5a891e65c81", "is_reserved": 0, "lat": 38.91958533333333, "fusion_lon": 0.0, "is_disabled": 0, "lon": -77.02595866666667, "rental_uris": {"ios": "https://dc.lft.to/lastmile_qr_scan", "android": "https://dc.lft.to/lastmile_qr_scan"}, "fusion_lat": 0.0, "type": "electric_scooter"}, {"bike_id": "5f63dfe3361d29b499c575d4594be336", "name": "5f63dfe3361d29b499c575d4594be336", "is_reserved": 0, "lat": 38.90581616666667, "fusion_lon": 0.0, "is_disabled": 0, "lon": -77.02185233333333, "rental_uris": {"ios": "https://dc.lft.to/lastmile_qr_scan", "android": "https://dc.lft.to/lastmile_qr_scan"}, "fusion_lat": 0.0, "type": "electric_scooter"}, {"bike_id": "c377b8fbb95b3c30f179ea4703f5c388", "name": "c377b8fbb95b3c30f179ea4703f5c388", "is_reserved": 0, "lat": 38.8977345, "fusion_lon": 0.0, "is_disabled": 0, "lon": -77.01225433333333, "rental_uris": {"ios": "https://dc.lft.to/lastmile_qr_scan", "android": "https://dc.lft.to/lastmile_qr_scan"}, "fusion_lat": 0.0, "type": "electric_scooter"}, {"bike_id": "38bfb844e0598acae7ff9a35e26f025f", "name": "38bfb844e0598acae7ff9a35e26f025f", "is_reserved": 0, "lat": 38.8948055, "fusion_lon": 0.0, "is_disabled": 0, "lon": -77.02248383333334, "rental_uris": {"ios": "https://dc.lft.to/lastmile_qr_scan", "android": "https://dc.lft.to/lastmile_qr_scan"}, "fusion_lat": 0.0, "type": "electric_scooter"}, {"bike_id": "cd9b1ad66028ab9ac02c33d7a5dd5fde", "name": "cd9b1ad66028ab9ac02c33d7a5dd5fde", "is_reserved": 0, "lat": 38.91692916666667, "fusion_lon": 0.0, "is_disabled": 0, "lon": -77.04601966666667, "rental_uris": {"ios": "https://dc.lft.to/lastmile_qr_scan", "android": "https://dc.lft.to/lastmile_qr_scan"}, "fusion_lat": 0.0, "type": "electric_scooter"}, {"bike_id": "369f27378622e6c2bb925d3f537253f6", "name": "369f27378622e6c2bb925d3f537253f6", "is_reserved": 0, "lat": 38.9056055, "fusion_lon": 0.0, "is_disabled": 0, "lon": -76.99791983333333, "rental_uris": {"ios": "https://dc.lft.to/lastmile_qr_scan", "android": "https://dc.lft.to/lastmile_qr_scan"}, "fusion_lat": 0.0, "type": "electric_scooter"}, {"bike_id": "eb90aac35c4055e8309823dde9eaae86", "name": "eb90aac35c4055e8309823dde9eaae86", "is_reserved": 0, "lat": 38.92609566666667, "fusion_lon": 0.0, "is_disabled": 0, "lon": -77.05708616666666, "rental_uris": {"ios": "https://dc.lft.to/lastmile_qr_scan", "android": "https://dc.lft.to/lastmile_qr_scan"}, "fusion_lat": 0.0, "type": "electric_scooter"}, {"bike_id": "90ea374c7c550c1b1aee00703b7667be", "name": "90ea374c7c550c1b1aee00703b7667be", "is_reserved": 0, "lat": 38.916909833333335, "fusion_lon": 0.0, "is_disabled": 0, "lon": -77.03767633333334, "rental_uris": {"ios": "https://dc.lft.to/lastmile_qr_scan", "android": "https://dc.lft.to/lastmile_qr_scan"}, "fusion_lat": 0.0, "type": "electric_scooter"}, {"bike_id": "57b788d23a577ab69779e65cc95bc346", "name": "57b788d23a577ab69779e65cc95bc346", "is_reserved": 0, "lat": 38.89949, "fusion_lon": 0.0, "is_disabled": 0, "lon": -77.02362983333333, "rental_uris": {"ios": "https://dc.lft.to/lastmile_qr_scan", "android": "https://dc.lft.to/lastmile_qr_scan"}, "fusion_lat": 0.0, "type": "electric_scooter"}, {"bike_id": "5751d2b43e537c82d5f6be753d93cf61", "name": "5751d2b43e537c82d5f6be753d93cf61", "is_reserved": 0, "lat": 38.93248233333333, "fusion_lon": 0.0, "is_disabled": 0, "lon": -77.02850266666667, "rental_uris": {"ios": "https://dc.lft.to/lastmile_qr_scan", "android": "https://dc.lft.to/lastmile_qr_scan"}, "fusion_lat": 0.0, "type": "electric_scooter"}, {"bike_id": "b173eec2be38d3d5bae71d12f1848f50", "name": "b173eec2be38d3d5bae71d12f1848f50", "is_reserved": 0, "lat": 38.92461133333333, "fusion_lon": 0.0, "is_disabled": 0, "lon": -77.02242683333333, "rental_uris": {"ios": "https://dc.lft.to/lastmile_qr_scan", "android": "https://dc.lft.to/lastmile_qr_scan"}, "fusion_lat": 0.0, "type": "electric_scooter"}, {"bike_id": "279c6ef5baa00c22a97603cc42de9a53", "name": "279c6ef5baa00c22a97603cc42de9a53", "is_reserved": 0, "lat": 38.93527866666667, "fusion_lon": 0.0, "is_disabled": 0, "lon": -77.02357216666667, "rental_uris": {"ios": "https://dc.lft.to/lastmile_qr_scan", "android": "https://dc.lft.to/lastmile_qr_scan"}, "fusion_lat": 0.0, "type": "electric_scooter"}, {"bike_id": "66a0d612f3227334536e0f2917bc90d9", "name": "66a0d612f3227334536e0f2917bc90d9", "is_reserved": 0, "lat": 38.90372216666667, "fusion_lon": 0.0, "is_disabled": 0, "lon": -77.00592816666666, "rental_uris": {"ios": "https://dc.lft.to/lastmile_qr_scan", "android": "https://dc.lft.to/lastmile_qr_scan"}, "fusion_lat": 0.0, "type": "electric_scooter"}, {"bike_id": "57e25083df83290f20feb0ef37d213f3", "name": "57e25083df83290f20feb0ef37d213f3", "is_reserved": 0, "lat": 38.87651066666667, "fusion_lon": 0.0, "is_disabled": 0, "lon": -77.00679233333334, "rental_uris": {"ios": "https://dc.lft.to/lastmile_qr_scan", "android": "https://dc.lft.to/lastmile_qr_scan"}, "fusion_lat": 0.0, "type": "electric_scooter"}, {"bike_id": "c6331f64559239988ef87bb78d404cb8", "name": "c6331f64559239988ef87bb78d404cb8", "is_reserved": 0, "lat": 38.85242683333333, "fusion_lon": 0.0, "is_disabled": 0, "lon": -77.11411616666666, "rental_uris": {"ios": "https://dc.lft.to/lastmile_qr_scan", "android": "https://dc.lft.to/lastmile_qr_scan"}, "fusion_lat": 0.0, "type": "electric_bike"}, {"bike_id": "79fd9f5ac885216874131532ce4b2e16", "name": "79fd9f5ac885216874131532ce4b2e16", "is_reserved": 0, "lat": 38.908342833333336, "fusion_lon": 0.0, "is_disabled": 0, "lon": -76.9347315, "rental_uris": {"ios": "https://dc.lft.to/lastmile_qr_scan", "android": "https://dc.lft.to/lastmile_qr_scan"}, "fusion_lat": 0.0, "type": "electric_scooter"}, {"bike_id": "dc2ce46aae84e71a90c91bcfef84095b", "name": "dc2ce46aae84e71a90c91bcfef84095b", "is_reserved": 0, "lat": 38.9222395, "fusion_lon": 0.0, "is_disabled": 0, "lon": -77.01804966666667, "rental_uris": {"ios": "https://dc.lft.to/lastmile_qr_scan", "android": "https://dc.lft.to/lastmile_qr_scan"}, "fusion_lat": 0.0, "type": "electric_scooter"}, {"bike_id": "9ffd3a967a8954271ef401f1c0f56fec", "name": "9ffd3a967a8954271ef401f1c0f56fec", "is_reserved": 0, "lat": 38.911084333333335, "fusion_lon": 0.0, "is_disabled": 0, "lon": -77.0382515, "rental_uris": {"ios": "https://dc.lft.to/lastmile_qr_scan", "android": "https://dc.lft.to/lastmile_qr_scan"}, "fusion_lat": 0.0, "type": "electric_scooter"}, {"bike_id": "b24e96cc601262cee16829c6423ac217", "name": "b24e96cc601262cee16829c6423ac217", "is_reserved": 0, "lat": 39.00646583333333, "fusion_lon": 0.0, "is_disabled": 0, "lon": -76.900226, "rental_uris": {"ios": "https://dc.lft.to/lastmile_qr_scan", "android": "https://dc.lft.to/lastmile_qr_scan"}, "fusion_lat": 0.0, "type": "electric_bike"}, {"bike_id": "c0a55a888c1f223dafad048357a66962", "name": "c0a55a888c1f223dafad048357a66962", "is_reserved": 0, "lat": 38.9040135, "fusion_lon": 0.0, "is_disabled": 0, "lon": -77.00430383333334, "rental_uris": {"ios": "https://dc.lft.to/lastmile_qr_scan", "android": "https://dc.lft.to/lastmile_qr_scan"}, "fusion_lat": 0.0, "type": "electric_scooter"}, {"bike_id": "3630cafa5ac14700bfc9bdeefb410911", "name": "3630cafa5ac14700bfc9bdeefb410911", "is_reserved": 0, "lat": 38.917516166666665, "fusion_lon": 0.0, "is_disabled": 0, "lon": -77.041519, "rental_uris": {"ios": "https://dc.lft.to/lastmile_qr_scan", "android": "https://dc.lft.to/lastmile_qr_scan"}, "fusion_lat": 0.0, "type": "electric_scooter"}, {"bike_id": "ff761bc5e8ee0e48c2469dd909bc736c", "name": "ff761bc5e8ee0e48c2469dd909bc736c", "is_reserved": 0, "lat": 38.880301833333334, "fusion_lon": 0.0, "is_disabled": 0, "lon": -76.984884, "rental_uris": {"ios": "https://dc.lft.to/lastmile_qr_scan", "android": "https://dc.lft.to/lastmile_qr_scan"}, "fusion_lat": 0.0, "type": "electric_scooter"}, {"bike_id": "2471c516fa4d41b305c52d1540db5fb8", "name": "2471c516fa4d41b305c52d1540db5fb8", "is_reserved": 0, "lat": 38.924707166666664, "fusion_lon": 0.0, "is_disabled": 0, "lon": -77.022165, "rental_uris": {"ios": "https://dc.lft.to/lastmile_qr_scan", "android": "https://dc.lft.to/lastmile_qr_scan"}, "fusion_lat": 0.0, "type": "electric_scooter"}, {"bike_id": "7b77abe4d4f4e9623ddf6916c779e5d7", "name": "7b77abe4d4f4e9623ddf6916c779e5d7", "is_reserved": 0, "lat": 38.892228333333335, "fusion_lon": 0.0, "is_disabled": 0, "lon": -77.04871566666667, "rental_uris": {"ios": "https://dc.lft.to/lastmile_qr_scan", "android": "https://dc.lft.to/lastmile_qr_scan"}, "fusion_lat": 0.0, "type": "electric_scooter"}, {"bike_id": "e298a08eafd3759ecda5165f8c8ab0f2", "name": "e298a08eafd3759ecda5165f8c8ab0f2", "is_reserved": 0, "lat": 38.9527575, "fusion_lon": 0.0, "is_disabled": 0, "lon": -77.02382666666666, "rental_uris": {"ios": "https://dc.lft.to/lastmile_qr_scan", "android": "https://dc.lft.to/lastmile_qr_scan"}, "fusion_lat": 0.0, "type": "electric_scooter"}, {"bike_id": "d01807345ddec62fbad83ff09738b915", "name": "d01807345ddec62fbad83ff09738b915", "is_reserved": 0, "lat": 38.905704, "fusion_lon": 0.0, "is_disabled": 0, "lon": -77.062753, "rental_uris": {"ios": "https://dc.lft.to/lastmile_qr_scan", "android": "https://dc.lft.to/lastmile_qr_scan"}, "fusion_lat": 0.0, "type": "electric_scooter"}, {"bike_id": "3b4933edd17a0f529cd17b06aaba3d50", "name": "3b4933edd17a0f529cd17b06aaba3d50", "is_reserved": 0, "lat": 38.91930883333333, "fusion_lon": 0.0, "is_disabled": 0, "lon": -77.0178825, "rental_uris": {"ios": "https://dc.lft.to/lastmile_qr_scan", "android": "https://dc.lft.to/lastmile_qr_scan"}, "fusion_lat": 0.0, "type": "electric_scooter"}, {"bike_id": "aa7209a48deacc07891b03602b254e6f", "name": "aa7209a48deacc07891b03602b254e6f", "is_reserved": 0, "lat": 38.923874833333336, "fusion_lon": 0.0, "is_disabled": 0, "lon": -77.06489716666667, "rental_uris": {"ios": "https://dc.lft.to/lastmile_qr_scan", "android": "https://dc.lft.to/lastmile_qr_scan"}, "fusion_lat": 0.0, "type": "electric_scooter"}, {"bike_id": "5091862274416d9b53e70072e41720bd", "name": "5091862274416d9b53e70072e41720bd", "is_reserved": 0, "lat": 38.921557666666665, "fusion_lon": 0.0, "is_disabled": 0, "lon": -77.03383933333333, "rental_uris": {"ios": "https://dc.lft.to/lastmile_qr_scan", "android": "https://dc.lft.to/lastmile_qr_scan"}, "fusion_lat": 0.0, "type": "electric_scooter"}, {"bike_id": "c64f27c00042f44c5e6cfeccb88fc62a", "name": "c64f27c00042f44c5e6cfeccb88fc62a", "is_reserved": 0, "lat": 38.924139333333336, "fusion_lon": 0.0, "is_disabled": 0, "lon": -77.02041883333334, "rental_uris": {"ios": "https://dc.lft.to/lastmile_qr_scan", "android": "https://dc.lft.to/lastmile_qr_scan"}, "fusion_lat": 0.0, "type": "electric_scooter"}, {"bike_id": "2e193202d8de3f646f0318fb90edb834", "name": "2e193202d8de3f646f0318fb90edb834", "is_reserved": 0, "lat": 38.919307833333335, "fusion_lon": 0.0, "is_disabled": 0, "lon": -77.0178585, "rental_uris": {"ios": "https://dc.lft.to/lastmile_qr_scan", "android": "https://dc.lft.to/lastmile_qr_scan"}, "fusion_lat": 0.0, "type": "electric_scooter"}, {"bike_id": "22d49f1285aada8dba96ca0396133b3b", "name": "22d49f1285aada8dba96ca0396133b3b", "is_reserved": 0, "lat": 38.92022816666667, "fusion_lon": 0.0, "is_disabled": 0, "lon": -77.03129083333333, "rental_uris": {"ios": "https://dc.lft.to/lastmile_qr_scan", "android": "https://dc.lft.to/lastmile_qr_scan"}, "fusion_lat": 0.0, "type": "electric_scooter"}, {"bike_id": "f4701cf7e85c0aa41236fb26a347afd4", "name": "f4701cf7e85c0aa41236fb26a347afd4", "is_reserved": 0, "lat": 38.89956933333333, "fusion_lon": 0.0, "is_disabled": 0, "lon": -77.032033, "rental_uris": {"ios": "https://dc.lft.to/lastmile_qr_scan", "android": "https://dc.lft.to/lastmile_qr_scan"}, "fusion_lat": 0.0, "type": "electric_scooter"}, {"bike_id": "80051fe2c47ada4e8f901e58a76de373", "name": "80051fe2c47ada4e8f901e58a76de373", "is_reserved": 0, "lat": 38.9432795, "fusion_lon": 0.0, "is_disabled": 0, "lon": -77.01259116666667, "rental_uris": {"ios": "https://dc.lft.to/lastmile_qr_scan", "android": "https://dc.lft.to/lastmile_qr_scan"}, "fusion_lat": 0.0, "type": "electric_scooter"}, {"bike_id": "ff7da68d610d577b7cfda3f8320afeb5", "name": "ff7da68d610d577b7cfda3f8320afeb5", "is_reserved": 0, "lat": 38.914043166666666, "fusion_lon": 0.0, "is_disabled": 0, "lon": -77.0098615, "rental_uris": {"ios": "https://dc.lft.to/lastmile_qr_scan", "android": "https://dc.lft.to/lastmile_qr_scan"}, "fusion_lat": 0.0, "type": "electric_scooter"}, {"bike_id": "0d7352ecc762017be3de7c92afce9a5e", "name": "0d7352ecc762017be3de7c92afce9a5e", "is_reserved": 0, "lat": 38.942032166666664, "fusion_lon": 0.0, "is_disabled": 0, "lon": -77.0133145, "rental_uris": {"ios": "https://dc.lft.to/lastmile_qr_scan", "android": "https://dc.lft.to/lastmile_qr_scan"}, "fusion_lat": 0.0, "type": "electric_scooter"}, {"bike_id": "a5f562a85843bc5af4b73f00ae2bf189", "name": "a5f562a85843bc5af4b73f00ae2bf189", "is_reserved": 0, "lat": 38.902936, "fusion_lon": 0.0, "is_disabled": 0, "lon": -77.03260666666667, "rental_uris": {"ios": "https://dc.lft.to/lastmile_qr_scan", "android": "https://dc.lft.to/lastmile_qr_scan"}, "fusion_lat": 0.0, "type": "electric_scooter"}, {"bike_id": "fe3c2f2c9f37b3c7e5d9a08fb969dd5f", "name": "fe3c2f2c9f37b3c7e5d9a08fb969dd5f", "is_reserved": 0, "lat": 38.927077833333335, "fusion_lon": 0.0, "is_disabled": 0, "lon": -77.06008933333334, "rental_uris": {"ios": "https://dc.lft.to/lastmile_qr_scan", "android": "https://dc.lft.to/lastmile_qr_scan"}, "fusion_lat": 0.0, "type": "electric_scooter"}, {"bike_id": "ce7f93fa303ee2f5fb08af129ce344fd", "name": "ce7f93fa303ee2f5fb08af129ce344fd", "is_reserved": 0, "lat": 38.8839105, "fusion_lon": 0.0, "is_disabled": 0, "lon": -77.03166783333333, "rental_uris": {"ios": "https://dc.lft.to/lastmile_qr_scan", "android": "https://dc.lft.to/lastmile_qr_scan"}, "fusion_lat": 0.0, "type": "electric_scooter"}, {"bike_id": "560ebf719a6da29b2bb40fd779ecb851", "name": "560ebf719a6da29b2bb40fd779ecb851", "is_reserved": 0, "lat": 38.94775116666667, "fusion_lon": 0.0, "is_disabled": 0, "lon": -76.99489466666667, "rental_uris": {"ios": "https://dc.lft.to/lastmile_qr_scan", "android": "https://dc.lft.to/lastmile_qr_scan"}, "fusion_lat": 0.0, "type": "electric_scooter"}, {"bike_id": "0aee49c3381dff9b9a98994c2c63a953", "name": "0aee49c3381dff9b9a98994c2c63a953", "is_reserved": 0, "lat": 38.901257333333334, "fusion_lon": 0.0, "is_disabled": 0, "lon": -76.99847916666667, "rental_uris": {"ios": "https://dc.lft.to/lastmile_qr_scan", "android": "https://dc.lft.to/lastmile_qr_scan"}, "fusion_lat": 0.0, "type": "electric_scooter"}, {"bike_id": "6743d157d5c733dbfbbe786a4e2ff880", "name": "6743d157d5c733dbfbbe786a4e2ff880", "is_reserved": 0, "lat": 38.917868, "fusion_lon": 0.0, "is_disabled": 0, "lon": -77.02495083333334, "rental_uris": {"ios": "https://dc.lft.to/lastmile_qr_scan", "android": "https://dc.lft.to/lastmile_qr_scan"}, "fusion_lat": 0.0, "type": "electric_scooter"}, {"bike_id": "0c3d1bdcbe46ab224197b8ec4f0a8189", "name": "0c3d1bdcbe46ab224197b8ec4f0a8189", "is_reserved": 0, "lat": 39.02648383333333, "fusion_lon": 0.0, "is_disabled": 0, "lon": -77.03688233333334, "rental_uris": {"ios": "https://dc.lft.to/lastmile_qr_scan", "android": "https://dc.lft.to/lastmile_qr_scan"}, "fusion_lat": 0.0, "type": "electric_bike"}, {"bike_id": "806ad3832ad47fa1bf20bb3f516ce840", "name": "806ad3832ad47fa1bf20bb3f516ce840", "is_reserved": 0, "lat": 38.886185833333336, "fusion_lon": 0.0, "is_disabled": 0, "lon": -76.92636666666667, "rental_uris": {"ios": "https://dc.lft.to/lastmile_qr_scan", "android": "https://dc.lft.to/lastmile_qr_scan"}, "fusion_lat": 0.0, "type": "electric_scooter"}, {"bike_id": "0a792fd150f4cbc8677306f2008ba14f", "name": "0a792fd150f4cbc8677306f2008ba14f", "is_reserved": 0, "lat": 38.9104205, "fusion_lon": 0.0, "is_disabled": 0, "lon": -77.038428, "rental_uris": {"ios": "https://dc.lft.to/lastmile_qr_scan", "android": "https://dc.lft.to/lastmile_qr_scan"}, "fusion_lat": 0.0, "type": "electric_scooter"}, {"bike_id": "ea346065d0f22d253834ef5adbd2fb76", "name": "ea346065d0f22d253834ef5adbd2fb76", "is_reserved": 0, "lat": 38.89196316666666, "fusion_lon": 0.0, "is_disabled": 0, "lon": -77.0029505, "rental_uris": {"ios": "https://dc.lft.to/lastmile_qr_scan", "android": "https://dc.lft.to/lastmile_qr_scan"}, "fusion_lat": 0.0, "type": "electric_scooter"}, {"bike_id": "e516e0b2a0b327feb50f5757c9393c2a", "name": "e516e0b2a0b327feb50f5757c9393c2a", "is_reserved": 0, "lat": 38.89898216666667, "fusion_lon": 0.0, "is_disabled": 0, "lon": -77.03958866666666, "rental_uris": {"ios": "https://dc.lft.to/lastmile_qr_scan", "android": "https://dc.lft.to/lastmile_qr_scan"}, "fusion_lat": 0.0, "type": "electric_scooter"}, {"bike_id": "7a2b73c376f45c7a45d35555eb3cbb70", "name": "7a2b73c376f45c7a45d35555eb3cbb70", "is_reserved": 0, "lat": 38.92737616666667, "fusion_lon": 0.0, "is_disabled": 0, "lon": -77.0329955, "rental_uris": {"ios": "https://dc.lft.to/lastmile_qr_scan", "android": "https://dc.lft.to/lastmile_qr_scan"}, "fusion_lat": 0.0, "type": "electric_scooter"}, {"bike_id": "a08607b02252a3c77c314dad309d5ae5", "name": "a08607b02252a3c77c314dad309d5ae5", "is_reserved": 0, "lat": 38.897309666666665, "fusion_lon": 0.0, "is_disabled": 0, "lon": -77.05475083333333, "rental_uris": {"ios": "https://dc.lft.to/lastmile_qr_scan", "android": "https://dc.lft.to/lastmile_qr_scan"}, "fusion_lat": 0.0, "type": "electric_scooter"}, {"bike_id": "9935d3183886da410686ed77296a3035", "name": "9935d3183886da410686ed77296a3035", "is_reserved": 0, "lat": 38.9279385, "fusion_lon": 0.0, "is_disabled": 0, "lon": -77.0315205, "rental_uris": {"ios": "https://dc.lft.to/lastmile_qr_scan", "android": "https://dc.lft.to/lastmile_qr_scan"}, "fusion_lat": 0.0, "type": "electric_scooter"}, {"bike_id": "89f2bba0aec63b980ee7f0f0ec036c6c", "name": "89f2bba0aec63b980ee7f0f0ec036c6c", "is_reserved": 0, "lat": 38.92320633333333, "fusion_lon": 0.0, "is_disabled": 0, "lon": -77.04375583333334, "rental_uris": {"ios": "https://dc.lft.to/lastmile_qr_scan", "android": "https://dc.lft.to/lastmile_qr_scan"}, "fusion_lat": 0.0, "type": "electric_scooter"}, {"bike_id": "1db408aeb2a1baec3d07dd73251b97dc", "name": "1db408aeb2a1baec3d07dd73251b97dc", "is_reserved": 0, "lat": 38.903712, "fusion_lon": 0.0, "is_disabled": 0, "lon": -77.038536, "rental_uris": {"ios": "https://dc.lft.to/lastmile_qr_scan", "android": "https://dc.lft.to/lastmile_qr_scan"}, "fusion_lat": 0.0, "type": "electric_scooter"}, {"bike_id": "0206062bc63b9c97ea3e8bfe116439c2", "name": "0206062bc63b9c97ea3e8bfe116439c2", "is_reserved": 0, "lat": 38.907851, "fusion_lon": 0.0, "is_disabled": 0, "lon": -77.0319605, "rental_uris": {"ios": "https://dc.lft.to/lastmile_qr_scan", "android": "https://dc.lft.to/lastmile_qr_scan"}, "fusion_lat": 0.0, "type": "electric_scooter"}, {"bike_id": "6e6567a409e77334836387e336e7c987", "name": "6e6567a409e77334836387e336e7c987", "is_reserved": 0, "lat": 38.9073245, "fusion_lon": 0.0, "is_disabled": 0, "lon": -77.01720583333334, "rental_uris": {"ios": "https://dc.lft.to/lastmile_qr_scan", "android": "https://dc.lft.to/lastmile_qr_scan"}, "fusion_lat": 0.0, "type": "electric_scooter"}, {"bike_id": "bac9b687acf9892e5f57eb502de2e6c1", "name": "bac9b687acf9892e5f57eb502de2e6c1", "is_reserved": 0, "lat": 38.898742166666665, "fusion_lon": 0.0, "is_disabled": 0, "lon": -77.04662733333333, "rental_uris": {"ios": "https://dc.lft.to/lastmile_qr_scan", "android": "https://dc.lft.to/lastmile_qr_scan"}, "fusion_lat": 0.0, "type": "electric_scooter"}, {"bike_id": "8231a892e310688be0fe3bf58d6db46b", "name": "8231a892e310688be0fe3bf58d6db46b", "is_reserved": 0, "lat": 38.89424266666666, "fusion_lon": 0.0, "is_disabled": 0, "lon": -77.04472783333334, "rental_uris": {"ios": "https://dc.lft.to/lastmile_qr_scan", "android": "https://dc.lft.to/lastmile_qr_scan"}, "fusion_lat": 0.0, "type": "electric_scooter"}, {"bike_id": "ffccc108363898c5bc09eae5dca6fc3b", "name": "ffccc108363898c5bc09eae5dca6fc3b", "is_reserved": 0, "lat": 38.9419595, "fusion_lon": 0.0, "is_disabled": 0, "lon": -77.028534, "rental_uris": {"ios": "https://dc.lft.to/lastmile_qr_scan", "android": "https://dc.lft.to/lastmile_qr_scan"}, "fusion_lat": 0.0, "type": "electric_scooter"}, {"bike_id": "22ad0418238123895378e4e5e66e60ca", "name": "22ad0418238123895378e4e5e66e60ca", "is_reserved": 0, "lat": 38.900146666666664, "fusion_lon": 0.0, "is_disabled": 0, "lon": -76.99381783333334, "rental_uris": {"ios": "https://dc.lft.to/lastmile_qr_scan", "android": "https://dc.lft.to/lastmile_qr_scan"}, "fusion_lat": 0.0, "type": "electric_scooter"}, {"bike_id": "efca361d67714907296ab1c28d17abd9", "name": "efca361d67714907296ab1c28d17abd9", "is_reserved": 0, "lat": 38.90264333333333, "fusion_lon": 0.0, "is_disabled": 0, "lon": -76.99517266666666, "rental_uris": {"ios": "https://dc.lft.to/lastmile_qr_scan", "android": "https://dc.lft.to/lastmile_qr_scan"}, "fusion_lat": 0.0, "type": "electric_scooter"}, {"bike_id": "e0d030a3be6d48da19b63b51e4dc9a74", "name": "e0d030a3be6d48da19b63b51e4dc9a74", "is_reserved": 0, "lat": 38.844584166666664, "fusion_lon": 0.0, "is_disabled": 0, "lon": -77.06826916666667, "rental_uris": {"ios": "https://dc.lft.to/lastmile_qr_scan", "android": "https://dc.lft.to/lastmile_qr_scan"}, "fusion_lat": 0.0, "type": "electric_bike"}, {"bike_id": "f87ca9a836c7ed0f61581b875f04021b", "name": "f87ca9a836c7ed0f61581b875f04021b", "is_reserved": 0, "lat": 38.897471, "fusion_lon": 0.0, "is_disabled": 0, "lon": -77.00922083333333, "rental_uris": {"ios": "https://dc.lft.to/lastmile_qr_scan", "android": "https://dc.lft.to/lastmile_qr_scan"}, "fusion_lat": 0.0, "type": "electric_scooter"}, {"bike_id": "8586805b3ef0764944c11dfab44f3774", "name": "8586805b3ef0764944c11dfab44f3774", "is_reserved": 0, "lat": 38.898197833333334, "fusion_lon": 0.0, "is_disabled": 0, "lon": -77.04810316666666, "rental_uris": {"ios": "https://dc.lft.to/lastmile_qr_scan", "android": "https://dc.lft.to/lastmile_qr_scan"}, "fusion_lat": 0.0, "type": "electric_scooter"}, {"bike_id": "f351cef736ab5a14d078752c66ebef46", "name": "f351cef736ab5a14d078752c66ebef46", "is_reserved": 0, "lat": 38.89843233333333, "fusion_lon": 0.0, "is_disabled": 0, "lon": -77.04806333333333, "rental_uris": {"ios": "https://dc.lft.to/lastmile_qr_scan", "android": "https://dc.lft.to/lastmile_qr_scan"}, "fusion_lat": 0.0, "type": "electric_scooter"}, {"bike_id": "72ffdc646f3dd180522d957da19aa2f7", "name": "72ffdc646f3dd180522d957da19aa2f7", "is_reserved": 0, "lat": 38.91428616666666, "fusion_lon": 0.0, "is_disabled": 0, "lon": -77.01804416666667, "rental_uris": {"ios": "https://dc.lft.to/lastmile_qr_scan", "android": "https://dc.lft.to/lastmile_qr_scan"}, "fusion_lat": 0.0, "type": "electric_scooter"}, {"bike_id": "92f830d047ec39f5198660ad6cf47602", "name": "92f830d047ec39f5198660ad6cf47602", "is_reserved": 0, "lat": 38.895737833333335, "fusion_lon": 0.0, "is_disabled": 0, "lon": -77.04158133333334, "rental_uris": {"ios": "https://dc.lft.to/lastmile_qr_scan", "android": "https://dc.lft.to/lastmile_qr_scan"}, "fusion_lat": 0.0, "type": "electric_scooter"}, {"bike_id": "48248c73bb16532ccafb8af02713d2c6", "name": "48248c73bb16532ccafb8af02713d2c6", "is_reserved": 0, "lat": 38.915593333333334, "fusion_lon": 0.0, "is_disabled": 0, "lon": -77.03217033333334, "rental_uris": {"ios": "https://dc.lft.to/lastmile_qr_scan", "android": "https://dc.lft.to/lastmile_qr_scan"}, "fusion_lat": 0.0, "type": "electric_scooter"}, {"bike_id": "01c37ed373c74da675790a96b762628a", "name": "01c37ed373c74da675790a96b762628a", "is_reserved": 0, "lat": 38.8763425, "fusion_lon": 0.0, "is_disabled": 0, "lon": -77.003695, "rental_uris": {"ios": "https://dc.lft.to/lastmile_qr_scan", "android": "https://dc.lft.to/lastmile_qr_scan"}, "fusion_lat": 0.0, "type": "electric_bike"}, {"bike_id": "92b86da2abde22f30f0eff550256eaa5", "name": "92b86da2abde22f30f0eff550256eaa5", "is_reserved": 0, "lat": 38.9171, "fusion_lon": 0.0, "is_disabled": 0, "lon": -77.03869933333333, "rental_uris": {"ios": "https://dc.lft.to/lastmile_qr_scan", "android": "https://dc.lft.to/lastmile_qr_scan"}, "fusion_lat": 0.0, "type": "electric_scooter"}, {"bike_id": "ae8bc4aeb3294935e4c705b40c1e2c97", "name": "ae8bc4aeb3294935e4c705b40c1e2c97", "is_reserved": 0, "lat": 38.92161766666667, "fusion_lon": 0.0, "is_disabled": 0, "lon": -77.02519966666667, "rental_uris": {"ios": "https://dc.lft.to/lastmile_qr_scan", "android": "https://dc.lft.to/lastmile_qr_scan"}, "fusion_lat": 0.0, "type": "electric_scooter"}, {"bike_id": "2369a7de0a9adcd0798a07be99c77d4d", "name": "2369a7de0a9adcd0798a07be99c77d4d", "is_reserved": 0, "lat": 38.95310716666667, "fusion_lon": 0.0, "is_disabled": 0, "lon": -77.0191915, "rental_uris": {"ios": "https://dc.lft.to/lastmile_qr_scan", "android": "https://dc.lft.to/lastmile_qr_scan"}, "fusion_lat": 0.0, "type": "electric_bike"}, {"bike_id": "f795006f980cfbc5a7ff58a03fb20535", "name": "f795006f980cfbc5a7ff58a03fb20535", "is_reserved": 0, "lat": 38.92337766666667, "fusion_lon": 0.0, "is_disabled": 0, "lon": -77.05273583333333, "rental_uris": {"ios": "https://dc.lft.to/lastmile_qr_scan", "android": "https://dc.lft.to/lastmile_qr_scan"}, "fusion_lat": 0.0, "type": "electric_scooter"}, {"bike_id": "b88c5cc626823a296112ce5c40220fc4", "name": "b88c5cc626823a296112ce5c40220fc4", "is_reserved": 0, "lat": 38.925021, "fusion_lon": 0.0, "is_disabled": 0, "lon": -77.02388883333333, "rental_uris": {"ios": "https://dc.lft.to/lastmile_qr_scan", "android": "https://dc.lft.to/lastmile_qr_scan"}, "fusion_lat": 0.0, "type": "electric_scooter"}, {"bike_id": "75403c0bca801905ee8ac7babe1fb891", "name": "75403c0bca801905ee8ac7babe1fb891", "is_reserved": 0, "lat": 38.88964566666667, "fusion_lon": 0.0, "is_disabled": 0, "lon": -76.927417, "rental_uris": {"ios": "https://dc.lft.to/lastmile_qr_scan", "android": "https://dc.lft.to/lastmile_qr_scan"}, "fusion_lat": 0.0, "type": "electric_scooter"}, {"bike_id": "6adb92925f45ebf099094aa7e617ecb6", "name": "6adb92925f45ebf099094aa7e617ecb6", "is_reserved": 0, "lat": 38.903546166666665, "fusion_lon": 0.0, "is_disabled": 0, "lon": -77.01107566666667, "rental_uris": {"ios": "https://dc.lft.to/lastmile_qr_scan", "android": "https://dc.lft.to/lastmile_qr_scan"}, "fusion_lat": 0.0, "type": "electric_scooter"}, {"bike_id": "12093c514a63d1fc451b7a87f8ca4bf3", "name": "12093c514a63d1fc451b7a87f8ca4bf3", "is_reserved": 0, "lat": 38.830097333333335, "fusion_lon": 0.0, "is_disabled": 0, "lon": -77.00822116666667, "rental_uris": {"ios": "https://dc.lft.to/lastmile_qr_scan", "android": "https://dc.lft.to/lastmile_qr_scan"}, "fusion_lat": 0.0, "type": "electric_bike"}, {"bike_id": "c9c305f663c52e7a00b6a3b64fee6c70", "name": "c9c305f663c52e7a00b6a3b64fee6c70", "is_reserved": 0, "lat": 38.91983183333333, "fusion_lon": 0.0, "is_disabled": 0, "lon": -77.0415655, "rental_uris": {"ios": "https://dc.lft.to/lastmile_qr_scan", "android": "https://dc.lft.to/lastmile_qr_scan"}, "fusion_lat": 0.0, "type": "electric_scooter"}, {"bike_id": "e4165e8d96852799d615c66975700b51", "name": "e4165e8d96852799d615c66975700b51", "is_reserved": 0, "lat": 38.897322333333335, "fusion_lon": 0.0, "is_disabled": 0, "lon": -77.04682766666667, "rental_uris": {"ios": "https://dc.lft.to/lastmile_qr_scan", "android": "https://dc.lft.to/lastmile_qr_scan"}, "fusion_lat": 0.0, "type": "electric_scooter"}, {"bike_id": "a425535c1ebe4931cae490214eb4a646", "name": "a425535c1ebe4931cae490214eb4a646", "is_reserved": 0, "lat": 38.90912383333333, "fusion_lon": 0.0, "is_disabled": 0, "lon": -77.01886883333333, "rental_uris": {"ios": "https://dc.lft.to/lastmile_qr_scan", "android": "https://dc.lft.to/lastmile_qr_scan"}, "fusion_lat": 0.0, "type": "electric_scooter"}, {"bike_id": "13e17b4073be05aaaf47b687a641eece", "name": "13e17b4073be05aaaf47b687a641eece", "is_reserved": 0, "lat": 38.90248066666667, "fusion_lon": 0.0, "is_disabled": 0, "lon": -77.0516895, "rental_uris": {"ios": "https://dc.lft.to/lastmile_qr_scan", "android": "https://dc.lft.to/lastmile_qr_scan"}, "fusion_lat": 0.0, "type": "electric_scooter"}, {"bike_id": "b5d755bba8d05c42996860e3a48de2cc", "name": "b5d755bba8d05c42996860e3a48de2cc", "is_reserved": 0, "lat": 38.905609166666665, "fusion_lon": 0.0, "is_disabled": 0, "lon": -77.04605666666667, "rental_uris": {"ios": "https://dc.lft.to/lastmile_qr_scan", "android": "https://dc.lft.to/lastmile_qr_scan"}, "fusion_lat": 0.0, "type": "electric_scooter"}, {"bike_id": "7c4653b2011fbdecf16d5592454a2817", "name": "7c4653b2011fbdecf16d5592454a2817", "is_reserved": 0, "lat": 38.903742333333334, "fusion_lon": 0.0, "is_disabled": 0, "lon": -77.03833566666667, "rental_uris": {"ios": "https://dc.lft.to/lastmile_qr_scan", "android": "https://dc.lft.to/lastmile_qr_scan"}, "fusion_lat": 0.0, "type": "electric_scooter"}, {"bike_id": "38753b457443d1faa4d7664d38038706", "name": "38753b457443d1faa4d7664d38038706", "is_reserved": 0, "lat": 38.96688366666667, "fusion_lon": 0.0, "is_disabled": 0, "lon": -77.03413183333333, "rental_uris": {"ios": "https://dc.lft.to/lastmile_qr_scan", "android": "https://dc.lft.to/lastmile_qr_scan"}, "fusion_lat": 0.0, "type": "electric_scooter"}, {"bike_id": "66c42cd6b8199ff04d06713d665a8a9d", "name": "66c42cd6b8199ff04d06713d665a8a9d", "is_reserved": 0, "lat": 38.96778233333333, "fusion_lon": 0.0, "is_disabled": 0, "lon": -76.99643783333333, "rental_uris": {"ios": "https://dc.lft.to/lastmile_qr_scan", "android": "https://dc.lft.to/lastmile_qr_scan"}, "fusion_lat": 0.0, "type": "electric_bike"}, {"bike_id": "be94b750d25012c95be40b1056b61711", "name": "be94b750d25012c95be40b1056b61711", "is_reserved": 0, "lat": 38.905689, "fusion_lon": 0.0, "is_disabled": 0, "lon": -77.01425116666667, "rental_uris": {"ios": "https://dc.lft.to/lastmile_qr_scan", "android": "https://dc.lft.to/lastmile_qr_scan"}, "fusion_lat": 0.0, "type": "electric_scooter"}, {"bike_id": "33e7afecb0cb6e79f518a88fea5f2ea3", "name": "33e7afecb0cb6e79f518a88fea5f2ea3", "is_reserved": 0, "lat": 38.88574416666667, "fusion_lon": 0.0, "is_disabled": 0, "lon": -76.99609166666667, "rental_uris": {"ios": "https://dc.lft.to/lastmile_qr_scan", "android": "https://dc.lft.to/lastmile_qr_scan"}, "fusion_lat": 0.0, "type": "electric_scooter"}, {"bike_id": "54c44ffa335bb1276d22df7e25d213d6", "name": "54c44ffa335bb1276d22df7e25d213d6", "is_reserved": 0, "lat": 38.907236166666664, "fusion_lon": 0.0, "is_disabled": 0, "lon": -77.03264833333333, "rental_uris": {"ios": "https://dc.lft.to/lastmile_qr_scan", "android": "https://dc.lft.to/lastmile_qr_scan"}, "fusion_lat": 0.0, "type": "electric_scooter"}, {"bike_id": "3a7ad2ce2e430abb258caef0e833a8e2", "name": "3a7ad2ce2e430abb258caef0e833a8e2", "is_reserved": 0, "lat": 38.89220733333333, "fusion_lon": 0.0, "is_disabled": 0, "lon": -77.0257825, "rental_uris": {"ios": "https://dc.lft.to/lastmile_qr_scan", "android": "https://dc.lft.to/lastmile_qr_scan"}, "fusion_lat": 0.0, "type": "electric_scooter"}, {"bike_id": "d29525c5e6b68bef1f342d51010767d9", "name": "d29525c5e6b68bef1f342d51010767d9", "is_reserved": 0, "lat": 38.916919, "fusion_lon": 0.0, "is_disabled": 0, "lon": -77.038283, "rental_uris": {"ios": "https://dc.lft.to/lastmile_qr_scan", "android": "https://dc.lft.to/lastmile_qr_scan"}, "fusion_lat": 0.0, "type": "electric_scooter"}, {"bike_id": "1aee00ca04ac36f17d245c097530d123", "name": "1aee00ca04ac36f17d245c097530d123", "is_reserved": 0, "lat": 38.90019183333333, "fusion_lon": 0.0, "is_disabled": 0, "lon": -77.02176883333334, "rental_uris": {"ios": "https://dc.lft.to/lastmile_qr_scan", "android": "https://dc.lft.to/lastmile_qr_scan"}, "fusion_lat": 0.0, "type": "electric_scooter"}, {"bike_id": "fab7fc62b1f878704b417106590bfb60", "name": "fab7fc62b1f878704b417106590bfb60", "is_reserved": 0, "lat": 38.897301, "fusion_lon": 0.0, "is_disabled": 0, "lon": -77.01914233333333, "rental_uris": {"ios": "https://dc.lft.to/lastmile_qr_scan", "android": "https://dc.lft.to/lastmile_qr_scan"}, "fusion_lat": 0.0, "type": "electric_scooter"}, {"bike_id": "49489f14ff5dae9edc01c12423cc57c5", "name": "49489f14ff5dae9edc01c12423cc57c5", "is_reserved": 0, "lat": 38.90160733333333, "fusion_lon": 0.0, "is_disabled": 0, "lon": -77.051151, "rental_uris": {"ios": "https://dc.lft.to/lastmile_qr_scan", "android": "https://dc.lft.to/lastmile_qr_scan"}, "fusion_lat": 0.0, "type": "electric_scooter"}, {"bike_id": "7b82721cf29cca03bd0c11cee2b6ccf2", "name": "7b82721cf29cca03bd0c11cee2b6ccf2", "is_reserved": 0, "lat": 38.899619666666666, "fusion_lon": 0.0, "is_disabled": 0, "lon": -77.04530516666667, "rental_uris": {"ios": "https://dc.lft.to/lastmile_qr_scan", "android": "https://dc.lft.to/lastmile_qr_scan"}, "fusion_lat": 0.0, "type": "electric_scooter"}, {"bike_id": "b4131b169e7b13628afe36a199056ff5", "name": "b4131b169e7b13628afe36a199056ff5", "is_reserved": 0, "lat": 38.89913583333333, "fusion_lon": 0.0, "is_disabled": 0, "lon": -77.0542725, "rental_uris": {"ios": "https://dc.lft.to/lastmile_qr_scan", "android": "https://dc.lft.to/lastmile_qr_scan"}, "fusion_lat": 0.0, "type": "electric_scooter"}, {"bike_id": "b3f6a19bec6a68dd3ed1d24cfc3e8e28", "name": "b3f6a19bec6a68dd3ed1d24cfc3e8e28", "is_reserved": 0, "lat": 38.91814266666667, "fusion_lon": 0.0, "is_disabled": 0, "lon": -77.03449916666666, "rental_uris": {"ios": "https://dc.lft.to/lastmile_qr_scan", "android": "https://dc.lft.to/lastmile_qr_scan"}, "fusion_lat": 0.0, "type": "electric_scooter"}, {"bike_id": "e72d5ddc4fcde15fce414cc88702aeef", "name": "e72d5ddc4fcde15fce414cc88702aeef", "is_reserved": 0, "lat": 38.920023666666665, "fusion_lon": 0.0, "is_disabled": 0, "lon": -77.03168983333333, "rental_uris": {"ios": "https://dc.lft.to/lastmile_qr_scan", "android": "https://dc.lft.to/lastmile_qr_scan"}, "fusion_lat": 0.0, "type": "electric_scooter"}, {"bike_id": "0ed058fa390f070699e7f2ccdcd079b4", "name": "0ed058fa390f070699e7f2ccdcd079b4", "is_reserved": 0, "lat": 38.8682325, "fusion_lon": 0.0, "is_disabled": 0, "lon": -76.98027733333333, "rental_uris": {"ios": "https://dc.lft.to/lastmile_qr_scan", "android": "https://dc.lft.to/lastmile_qr_scan"}, "fusion_lat": 0.0, "type": "electric_bike"}, {"bike_id": "38def7b4bfc69df7250dcb5d3ef13f52", "name": "38def7b4bfc69df7250dcb5d3ef13f52", "is_reserved": 0, "lat": 38.98528733333333, "fusion_lon": 0.0, "is_disabled": 0, "lon": -77.00409883333333, "rental_uris": {"ios": "https://dc.lft.to/lastmile_qr_scan", "android": "https://dc.lft.to/lastmile_qr_scan"}, "fusion_lat": 0.0, "type": "electric_bike"}, {"bike_id": "e302206ce120d32dce60c38c15a85d4b", "name": "e302206ce120d32dce60c38c15a85d4b", "is_reserved": 0, "lat": 38.914148, "fusion_lon": 0.0, "is_disabled": 0, "lon": -77.0222815, "rental_uris": {"ios": "https://dc.lft.to/lastmile_qr_scan", "android": "https://dc.lft.to/lastmile_qr_scan"}, "fusion_lat": 0.0, "type": "electric_scooter"}, {"bike_id": "a7669ac7dd300caaa7e9c36c67b86f04", "name": "a7669ac7dd300caaa7e9c36c67b86f04", "is_reserved": 0, "lat": 38.898272, "fusion_lon": 0.0, "is_disabled": 0, "lon": -77.0494345, "rental_uris": {"ios": "https://dc.lft.to/lastmile_qr_scan", "android": "https://dc.lft.to/lastmile_qr_scan"}, "fusion_lat": 0.0, "type": "electric_scooter"}, {"bike_id": "0c0b362d96b39e8038483ba0cae0a590", "name": "0c0b362d96b39e8038483ba0cae0a590", "is_reserved": 0, "lat": 38.92058316666667, "fusion_lon": 0.0, "is_disabled": 0, "lon": -77.04195583333333, "rental_uris": {"ios": "https://dc.lft.to/lastmile_qr_scan", "android": "https://dc.lft.to/lastmile_qr_scan"}, "fusion_lat": 0.0, "type": "electric_scooter"}, {"bike_id": "622599aa2c3507deb96092a80fe7d766", "name": "622599aa2c3507deb96092a80fe7d766", "is_reserved": 0, "lat": 38.91838116666667, "fusion_lon": 0.0, "is_disabled": 0, "lon": -77.0418005, "rental_uris": {"ios": "https://dc.lft.to/lastmile_qr_scan", "android": "https://dc.lft.to/lastmile_qr_scan"}, "fusion_lat": 0.0, "type": "electric_scooter"}, {"bike_id": "af1d4c64e0a0ea4d393a748534a0a901", "name": "af1d4c64e0a0ea4d393a748534a0a901", "is_reserved": 0, "lat": 38.9268745, "fusion_lon": 0.0, "is_disabled": 0, "lon": -77.0323515, "rental_uris": {"ios": "https://dc.lft.to/lastmile_qr_scan", "android": "https://dc.lft.to/lastmile_qr_scan"}, "fusion_lat": 0.0, "type": "electric_scooter"}, {"bike_id": "4e1534441d28f7218acd97d7b3ff5324", "name": "4e1534441d28f7218acd97d7b3ff5324", "is_reserved": 0, "lat": 38.89670366666667, "fusion_lon": 0.0, "is_disabled": 0, "lon": -76.93214666666667, "rental_uris": {"ios": "https://dc.lft.to/lastmile_qr_scan", "android": "https://dc.lft.to/lastmile_qr_scan"}, "fusion_lat": 0.0, "type": "electric_scooter"}, {"bike_id": "c34eb934bb294db054044da42b11843a", "name": "c34eb934bb294db054044da42b11843a", "is_reserved": 0, "lat": 38.9202015, "fusion_lon": 0.0, "is_disabled": 0, "lon": -77.07135233333334, "rental_uris": {"ios": "https://dc.lft.to/lastmile_qr_scan", "android": "https://dc.lft.to/lastmile_qr_scan"}, "fusion_lat": 0.0, "type": "electric_scooter"}, {"bike_id": "8afc158dd3d06abd044e672ada39f0aa", "name": "8afc158dd3d06abd044e672ada39f0aa", "is_reserved": 0, "lat": 38.87985916666667, "fusion_lon": 0.0, "is_disabled": 0, "lon": -76.9950705, "rental_uris": {"ios": "https://dc.lft.to/lastmile_qr_scan", "android": "https://dc.lft.to/lastmile_qr_scan"}, "fusion_lat": 0.0, "type": "electric_bike"}, {"bike_id": "2366091dcef1e8433a8613f3d3876257", "name": "2366091dcef1e8433a8613f3d3876257", "is_reserved": 0, "lat": 38.90277116666667, "fusion_lon": 0.0, "is_disabled": 0, "lon": -77.03231866666667, "rental_uris": {"ios": "https://dc.lft.to/lastmile_qr_scan", "android": "https://dc.lft.to/lastmile_qr_scan"}, "fusion_lat": 0.0, "type": "electric_scooter"}, {"bike_id": "10c383c284cd32e4db6038fbb6daf00f", "name": "10c383c284cd32e4db6038fbb6daf00f", "is_reserved": 0, "lat": 38.947507333333334, "fusion_lon": 0.0, "is_disabled": 0, "lon": -77.03287633333333, "rental_uris": {"ios": "https://dc.lft.to/lastmile_qr_scan", "android": "https://dc.lft.to/lastmile_qr_scan"}, "fusion_lat": 0.0, "type": "electric_scooter"}, {"bike_id": "a756325eca2f3fe35858941f8356d76d", "name": "a756325eca2f3fe35858941f8356d76d", "is_reserved": 0, "lat": 38.900158166666664, "fusion_lon": 0.0, "is_disabled": 0, "lon": -77.04489916666667, "rental_uris": {"ios": "https://dc.lft.to/lastmile_qr_scan", "android": "https://dc.lft.to/lastmile_qr_scan"}, "fusion_lat": 0.0, "type": "electric_scooter"}, {"bike_id": "2eea5c8bb36fe19e686e50225c50613c", "name": "2eea5c8bb36fe19e686e50225c50613c", "is_reserved": 0, "lat": 38.9090485, "fusion_lon": 0.0, "is_disabled": 0, "lon": -77.09000733333333, "rental_uris": {"ios": "https://dc.lft.to/lastmile_qr_scan", "android": "https://dc.lft.to/lastmile_qr_scan"}, "fusion_lat": 0.0, "type": "electric_bike"}, {"bike_id": "8d6e3fd233204ca675aae3b026ccde66", "name": "8d6e3fd233204ca675aae3b026ccde66", "is_reserved": 0, "lat": 38.9227595, "fusion_lon": 0.0, "is_disabled": 0, "lon": -77.0212875, "rental_uris": {"ios": "https://dc.lft.to/lastmile_qr_scan", "android": "https://dc.lft.to/lastmile_qr_scan"}, "fusion_lat": 0.0, "type": "electric_scooter"}, {"bike_id": "521565358e1098f432dbb7130dddfae3", "name": "521565358e1098f432dbb7130dddfae3", "is_reserved": 0, "lat": 38.92136583333333, "fusion_lon": 0.0, "is_disabled": 0, "lon": -77.01878066666667, "rental_uris": {"ios": "https://dc.lft.to/lastmile_qr_scan", "android": "https://dc.lft.to/lastmile_qr_scan"}, "fusion_lat": 0.0, "type": "electric_scooter"}, {"bike_id": "5901e41c516c4708b11837c367db48ee", "name": "5901e41c516c4708b11837c367db48ee", "is_reserved": 0, "lat": 38.926474666666664, "fusion_lon": 0.0, "is_disabled": 0, "lon": -77.090198, "rental_uris": {"ios": "https://dc.lft.to/lastmile_qr_scan", "android": "https://dc.lft.to/lastmile_qr_scan"}, "fusion_lat": 0.0, "type": "electric_bike"}, {"bike_id": "353ae8f78290c31665c75c0316dcee5c", "name": "353ae8f78290c31665c75c0316dcee5c", "is_reserved": 0, "lat": 38.8985405, "fusion_lon": 0.0, "is_disabled": 0, "lon": -77.04671533333334, "rental_uris": {"ios": "https://dc.lft.to/lastmile_qr_scan", "android": "https://dc.lft.to/lastmile_qr_scan"}, "fusion_lat": 0.0, "type": "electric_scooter"}, {"bike_id": "6016c6750f6dd52aa830934b943142da", "name": "6016c6750f6dd52aa830934b943142da", "is_reserved": 0, "lat": 38.943081, "fusion_lon": 0.0, "is_disabled": 0, "lon": -77.0295275, "rental_uris": {"ios": "https://dc.lft.to/lastmile_qr_scan", "android": "https://dc.lft.to/lastmile_qr_scan"}, "fusion_lat": 0.0, "type": "electric_scooter"}, {"bike_id": "e6d47ba0a1eea9eedb39c1f182693d56", "name": "e6d47ba0a1eea9eedb39c1f182693d56", "is_reserved": 0, "lat": 38.924712166666666, "fusion_lon": 0.0, "is_disabled": 0, "lon": -77.0220495, "rental_uris": {"ios": "https://dc.lft.to/lastmile_qr_scan", "android": "https://dc.lft.to/lastmile_qr_scan"}, "fusion_lat": 0.0, "type": "electric_scooter"}, {"bike_id": "e98d1e44b53571422db393b9eb921b6b", "name": "e98d1e44b53571422db393b9eb921b6b", "is_reserved": 0, "lat": 38.90720533333333, "fusion_lon": 0.0, "is_disabled": 0, "lon": -76.998192, "rental_uris": {"ios": "https://dc.lft.to/lastmile_qr_scan", "android": "https://dc.lft.to/lastmile_qr_scan"}, "fusion_lat": 0.0, "type": "electric_scooter"}, {"bike_id": "5f54354255045cfef3e74820de855314", "name": "5f54354255045cfef3e74820de855314", "is_reserved": 0, "lat": 38.97413783333333, "fusion_lon": 0.0, "is_disabled": 0, "lon": -76.98415116666666, "rental_uris": {"ios": "https://dc.lft.to/lastmile_qr_scan", "android": "https://dc.lft.to/lastmile_qr_scan"}, "fusion_lat": 0.0, "type": "electric_bike"}, {"bike_id": "f636d9773876781afa45311875e77381", "name": "f636d9773876781afa45311875e77381", "is_reserved": 0, "lat": 38.9162485, "fusion_lon": 0.0, "is_disabled": 0, "lon": -77.00496883333334, "rental_uris": {"ios": "https://dc.lft.to/lastmile_qr_scan", "android": "https://dc.lft.to/lastmile_qr_scan"}, "fusion_lat": 0.0, "type": "electric_scooter"}, {"bike_id": "78e2e8f9a0709cbb9e5f421fb0fedb81", "name": "78e2e8f9a0709cbb9e5f421fb0fedb81", "is_reserved": 0, "lat": 38.91939833333333, "fusion_lon": 0.0, "is_disabled": 0, "lon": -77.02495583333334, "rental_uris": {"ios": "https://dc.lft.to/lastmile_qr_scan", "android": "https://dc.lft.to/lastmile_qr_scan"}, "fusion_lat": 0.0, "type": "electric_scooter"}, {"bike_id": "b7f30d2e981513844a30c08fd6b091e9", "name": "b7f30d2e981513844a30c08fd6b091e9", "is_reserved": 0, "lat": 38.90372633333333, "fusion_lon": 0.0, "is_disabled": 0, "lon": -77.02206766666667, "rental_uris": {"ios": "https://dc.lft.to/lastmile_qr_scan", "android": "https://dc.lft.to/lastmile_qr_scan"}, "fusion_lat": 0.0, "type": "electric_scooter"}, {"bike_id": "2590513b923623e14413fc4ce09f93b7", "name": "2590513b923623e14413fc4ce09f93b7", "is_reserved": 0, "lat": 38.899307, "fusion_lon": 0.0, "is_disabled": 0, "lon": -76.99745316666667, "rental_uris": {"ios": "https://dc.lft.to/lastmile_qr_scan", "android": "https://dc.lft.to/lastmile_qr_scan"}, "fusion_lat": 0.0, "type": "electric_scooter"}, {"bike_id": "1f5f4a724f8cea5d2c174f292de5c868", "name": "1f5f4a724f8cea5d2c174f292de5c868", "is_reserved": 0, "lat": 38.880328, "fusion_lon": 0.0, "is_disabled": 0, "lon": -77.025096, "rental_uris": {"ios": "https://dc.lft.to/lastmile_qr_scan", "android": "https://dc.lft.to/lastmile_qr_scan"}, "fusion_lat": 0.0, "type": "electric_scooter"}, {"bike_id": "98bc8132ba42564be02cc8678f96fafa", "name": "98bc8132ba42564be02cc8678f96fafa", "is_reserved": 0, "lat": 38.89562333333333, "fusion_lon": 0.0, "is_disabled": 0, "lon": -76.930623, "rental_uris": {"ios": "https://dc.lft.to/lastmile_qr_scan", "android": "https://dc.lft.to/lastmile_qr_scan"}, "fusion_lat": 0.0, "type": "electric_scooter"}, {"bike_id": "b940d40241e525a70bb45d7f924b809c", "name": "b940d40241e525a70bb45d7f924b809c", "is_reserved": 0, "lat": 38.9127, "fusion_lon": 0.0, "is_disabled": 0, "lon": -77.022292, "rental_uris": {"ios": "https://dc.lft.to/lastmile_qr_scan", "android": "https://dc.lft.to/lastmile_qr_scan"}, "fusion_lat": 0.0, "type": "electric_scooter"}, {"bike_id": "a8bacf182b033850d53f2222c799f9be", "name": "a8bacf182b033850d53f2222c799f9be", "is_reserved": 0, "lat": 38.89955366666667, "fusion_lon": 0.0, "is_disabled": 0, "lon": -77.0160545, "rental_uris": {"ios": "https://dc.lft.to/lastmile_qr_scan", "android": "https://dc.lft.to/lastmile_qr_scan"}, "fusion_lat": 0.0, "type": "electric_scooter"}, {"bike_id": "294f4d232d68274cf93e0009ba1fd8e9", "name": "294f4d232d68274cf93e0009ba1fd8e9", "is_reserved": 0, "lat": 38.90011583333333, "fusion_lon": 0.0, "is_disabled": 0, "lon": -77.00680183333333, "rental_uris": {"ios": "https://dc.lft.to/lastmile_qr_scan", "android": "https://dc.lft.to/lastmile_qr_scan"}, "fusion_lat": 0.0, "type": "electric_scooter"}, {"bike_id": "b78b394739c66d0930ef29d39f9a74e3", "name": "b78b394739c66d0930ef29d39f9a74e3", "is_reserved": 0, "lat": 38.90211383333333, "fusion_lon": 0.0, "is_disabled": 0, "lon": -77.05029716666667, "rental_uris": {"ios": "https://dc.lft.to/lastmile_qr_scan", "android": "https://dc.lft.to/lastmile_qr_scan"}, "fusion_lat": 0.0, "type": "electric_scooter"}, {"bike_id": "1f921da98b8e1828a8c51812dfad7bec", "name": "1f921da98b8e1828a8c51812dfad7bec", "is_reserved": 0, "lat": 38.8850665, "fusion_lon": 0.0, "is_disabled": 0, "lon": -77.00223916666667, "rental_uris": {"ios": "https://dc.lft.to/lastmile_qr_scan", "android": "https://dc.lft.to/lastmile_qr_scan"}, "fusion_lat": 0.0, "type": "electric_scooter"}, {"bike_id": "4c2f6bfb031bcc4fe2d725553396d90a", "name": "4c2f6bfb031bcc4fe2d725553396d90a", "is_reserved": 0, "lat": 38.921609333333336, "fusion_lon": 0.0, "is_disabled": 0, "lon": -77.04224566666667, "rental_uris": {"ios": "https://dc.lft.to/lastmile_qr_scan", "android": "https://dc.lft.to/lastmile_qr_scan"}, "fusion_lat": 0.0, "type": "electric_scooter"}, {"bike_id": "452f2b30e5015448ea359ed4968d0533", "name": "452f2b30e5015448ea359ed4968d0533", "is_reserved": 0, "lat": 38.90518733333333, "fusion_lon": 0.0, "is_disabled": 0, "lon": -77.06228966666667, "rental_uris": {"ios": "https://dc.lft.to/lastmile_qr_scan", "android": "https://dc.lft.to/lastmile_qr_scan"}, "fusion_lat": 0.0, "type": "electric_scooter"}, {"bike_id": "cf71fa2b542fdc71874fc07da63ca380", "name": "cf71fa2b542fdc71874fc07da63ca380", "is_reserved": 0, "lat": 38.92038483333333, "fusion_lon": 0.0, "is_disabled": 0, "lon": -77.01715883333334, "rental_uris": {"ios": "https://dc.lft.to/lastmile_qr_scan", "android": "https://dc.lft.to/lastmile_qr_scan"}, "fusion_lat": 0.0, "type": "electric_scooter"}, {"bike_id": "f860a3710933de81bb0bebfc9bbc5347", "name": "f860a3710933de81bb0bebfc9bbc5347", "is_reserved": 0, "lat": 38.905641, "fusion_lon": 0.0, "is_disabled": 0, "lon": -77.0219715, "rental_uris": {"ios": "https://dc.lft.to/lastmile_qr_scan", "android": "https://dc.lft.to/lastmile_qr_scan"}, "fusion_lat": 0.0, "type": "electric_scooter"}, {"bike_id": "3bf6c0a126a29b0ee4d6c777528167bb", "name": "3bf6c0a126a29b0ee4d6c777528167bb", "is_reserved": 0, "lat": 38.926627, "fusion_lon": 0.0, "is_disabled": 0, "lon": -77.037278, "rental_uris": {"ios": "https://dc.lft.to/lastmile_qr_scan", "android": "https://dc.lft.to/lastmile_qr_scan"}, "fusion_lat": 0.0, "type": "electric_scooter"}, {"bike_id": "ccfbe9b2933dffbea04f93a6fa81bfec", "name": "ccfbe9b2933dffbea04f93a6fa81bfec", "is_reserved": 0, "lat": 38.89862383333333, "fusion_lon": 0.0, "is_disabled": 0, "lon": -77.02209583333334, "rental_uris": {"ios": "https://dc.lft.to/lastmile_qr_scan", "android": "https://dc.lft.to/lastmile_qr_scan"}, "fusion_lat": 0.0, "type": "electric_scooter"}, {"bike_id": "4c1497d70e2398a09ad2f54f9679edcf", "name": "4c1497d70e2398a09ad2f54f9679edcf", "is_reserved": 0, "lat": 38.90112883333333, "fusion_lon": 0.0, "is_disabled": 0, "lon": -77.04031883333333, "rental_uris": {"ios": "https://dc.lft.to/lastmile_qr_scan", "android": "https://dc.lft.to/lastmile_qr_scan"}, "fusion_lat": 0.0, "type": "electric_scooter"}, {"bike_id": "4b8e11a80ca4bfc8c013ae1d8476a5b9", "name": "4b8e11a80ca4bfc8c013ae1d8476a5b9", "is_reserved": 0, "lat": 38.924332666666665, "fusion_lon": 0.0, "is_disabled": 0, "lon": -77.0202305, "rental_uris": {"ios": "https://dc.lft.to/lastmile_qr_scan", "android": "https://dc.lft.to/lastmile_qr_scan"}, "fusion_lat": 0.0, "type": "electric_scooter"}, {"bike_id": "519af09dfbb70e22b82a2e7e52b1b347", "name": "519af09dfbb70e22b82a2e7e52b1b347", "is_reserved": 0, "lat": 38.91820516666667, "fusion_lon": 0.0, "is_disabled": 0, "lon": -77.02529233333334, "rental_uris": {"ios": "https://dc.lft.to/lastmile_qr_scan", "android": "https://dc.lft.to/lastmile_qr_scan"}, "fusion_lat": 0.0, "type": "electric_scooter"}, {"bike_id": "cdf330d2a734ff4b7d9b7392346320ee", "name": "cdf330d2a734ff4b7d9b7392346320ee", "is_reserved": 0, "lat": 38.897312, "fusion_lon": 0.0, "is_disabled": 0, "lon": -76.9258795, "rental_uris": {"ios": "https://dc.lft.to/lastmile_qr_scan", "android": "https://dc.lft.to/lastmile_qr_scan"}, "fusion_lat": 0.0, "type": "electric_scooter"}, {"bike_id": "42a4a7792215103994bd4e68710c357c", "name": "42a4a7792215103994bd4e68710c357c", "is_reserved": 0, "lat": 38.91180883333333, "fusion_lon": 0.0, "is_disabled": 0, "lon": -77.02169033333334, "rental_uris": {"ios": "https://dc.lft.to/lastmile_qr_scan", "android": "https://dc.lft.to/lastmile_qr_scan"}, "fusion_lat": 0.0, "type": "electric_scooter"}, {"bike_id": "858a704146cd2ced5400ca240bd0ef03", "name": "858a704146cd2ced5400ca240bd0ef03", "is_reserved": 0, "lat": 38.876874, "fusion_lon": 0.0, "is_disabled": 0, "lon": -77.0040585, "rental_uris": {"ios": "https://dc.lft.to/lastmile_qr_scan", "android": "https://dc.lft.to/lastmile_qr_scan"}, "fusion_lat": 0.0, "type": "electric_scooter"}, {"bike_id": "7114d7eb386be5bce7559eafbdaa38fc", "name": "7114d7eb386be5bce7559eafbdaa38fc", "is_reserved": 0, "lat": 38.926843, "fusion_lon": 0.0, "is_disabled": 0, "lon": -77.03261316666666, "rental_uris": {"ios": "https://dc.lft.to/lastmile_qr_scan", "android": "https://dc.lft.to/lastmile_qr_scan"}, "fusion_lat": 0.0, "type": "electric_scooter"}, {"bike_id": "ff8ee83e10e90b176ce023260e8c0426", "name": "ff8ee83e10e90b176ce023260e8c0426", "is_reserved": 0, "lat": 38.92612283333333, "fusion_lon": 0.0, "is_disabled": 0, "lon": -77.02166383333333, "rental_uris": {"ios": "https://dc.lft.to/lastmile_qr_scan", "android": "https://dc.lft.to/lastmile_qr_scan"}, "fusion_lat": 0.0, "type": "electric_scooter"}, {"bike_id": "98151852b174b60aeb0dd4ae09ed8798", "name": "98151852b174b60aeb0dd4ae09ed8798", "is_reserved": 0, "lat": 38.906348666666666, "fusion_lon": 0.0, "is_disabled": 0, "lon": -77.011708, "rental_uris": {"ios": "https://dc.lft.to/lastmile_qr_scan", "android": "https://dc.lft.to/lastmile_qr_scan"}, "fusion_lat": 0.0, "type": "electric_scooter"}, {"bike_id": "fd476a420fb5299f7df3b7cb4aa8664f", "name": "fd476a420fb5299f7df3b7cb4aa8664f", "is_reserved": 0, "lat": 38.9242525, "fusion_lon": 0.0, "is_disabled": 0, "lon": -77.04047366666667, "rental_uris": {"ios": "https://dc.lft.to/lastmile_qr_scan", "android": "https://dc.lft.to/lastmile_qr_scan"}, "fusion_lat": 0.0, "type": "electric_scooter"}, {"bike_id": "86545b94e721b473621731e51dc9194f", "name": "86545b94e721b473621731e51dc9194f", "is_reserved": 0, "lat": 38.92387733333333, "fusion_lon": 0.0, "is_disabled": 0, "lon": -77.0212585, "rental_uris": {"ios": "https://dc.lft.to/lastmile_qr_scan", "android": "https://dc.lft.to/lastmile_qr_scan"}, "fusion_lat": 0.0, "type": "electric_scooter"}, {"bike_id": "3bea824ad5aa3ec6e61cff9e1b430248", "name": "3bea824ad5aa3ec6e61cff9e1b430248", "is_reserved": 0, "lat": 38.918405166666666, "fusion_lon": 0.0, "is_disabled": 0, "lon": -77.02306683333333, "rental_uris": {"ios": "https://dc.lft.to/lastmile_qr_scan", "android": "https://dc.lft.to/lastmile_qr_scan"}, "fusion_lat": 0.0, "type": "electric_scooter"}, {"bike_id": "4db8f3add6e56d11951e4896fc70b163", "name": "4db8f3add6e56d11951e4896fc70b163", "is_reserved": 0, "lat": 39.010767, "fusion_lon": 0.0, "is_disabled": 0, "lon": -76.91064633333333, "rental_uris": {"ios": "https://dc.lft.to/lastmile_qr_scan", "android": "https://dc.lft.to/lastmile_qr_scan"}, "fusion_lat": 0.0, "type": "electric_bike"}, {"bike_id": "b2f11dd99de509b4c3eecf1cc3cf5091", "name": "b2f11dd99de509b4c3eecf1cc3cf5091", "is_reserved": 0, "lat": 38.892523, "fusion_lon": 0.0, "is_disabled": 0, "lon": -77.046574, "rental_uris": {"ios": "https://dc.lft.to/lastmile_qr_scan", "android": "https://dc.lft.to/lastmile_qr_scan"}, "fusion_lat": 0.0, "type": "electric_scooter"}, {"bike_id": "6acb3843616dac6d9a7170820daf9ac5", "name": "6acb3843616dac6d9a7170820daf9ac5", "is_reserved": 0, "lat": 38.89966016666666, "fusion_lon": 0.0, "is_disabled": 0, "lon": -77.04719633333333, "rental_uris": {"ios": "https://dc.lft.to/lastmile_qr_scan", "android": "https://dc.lft.to/lastmile_qr_scan"}, "fusion_lat": 0.0, "type": "electric_scooter"}, {"bike_id": "dd6cafbb6b27dbdc23a353ae645c124e", "name": "dd6cafbb6b27dbdc23a353ae645c124e", "is_reserved": 0, "lat": 38.908417166666666, "fusion_lon": 0.0, "is_disabled": 0, "lon": -77.06339316666667, "rental_uris": {"ios": "https://dc.lft.to/lastmile_qr_scan", "android": "https://dc.lft.to/lastmile_qr_scan"}, "fusion_lat": 0.0, "type": "electric_scooter"}, {"bike_id": "00c7b77f6359f5c9cc1ed493c74ba13a", "name": "00c7b77f6359f5c9cc1ed493c74ba13a", "is_reserved": 0, "lat": 38.903613, "fusion_lon": 0.0, "is_disabled": 0, "lon": -76.98095333333333, "rental_uris": {"ios": "https://dc.lft.to/lastmile_qr_scan", "android": "https://dc.lft.to/lastmile_qr_scan"}, "fusion_lat": 0.0, "type": "electric_bike"}, {"bike_id": "96abbdb234172d6307972604cfd1a8aa", "name": "96abbdb234172d6307972604cfd1a8aa", "is_reserved": 0, "lat": 38.9103275, "fusion_lon": 0.0, "is_disabled": 0, "lon": -76.993407, "rental_uris": {"ios": "https://dc.lft.to/lastmile_qr_scan", "android": "https://dc.lft.to/lastmile_qr_scan"}, "fusion_lat": 0.0, "type": "electric_scooter"}, {"bike_id": "13054be0d62c776c41872ccf4e3f378b", "name": "13054be0d62c776c41872ccf4e3f378b", "is_reserved": 0, "lat": 38.878418333333336, "fusion_lon": 0.0, "is_disabled": 0, "lon": -76.93127683333333, "rental_uris": {"ios": "https://dc.lft.to/lastmile_qr_scan", "android": "https://dc.lft.to/lastmile_qr_scan"}, "fusion_lat": 0.0, "type": "electric_scooter"}, {"bike_id": "7ea89fa2988775b285f22bc4a152fe4a", "name": "7ea89fa2988775b285f22bc4a152fe4a", "is_reserved": 0, "lat": 38.926326333333336, "fusion_lon": 0.0, "is_disabled": 0, "lon": -77.0216585, "rental_uris": {"ios": "https://dc.lft.to/lastmile_qr_scan", "android": "https://dc.lft.to/lastmile_qr_scan"}, "fusion_lat": 0.0, "type": "electric_scooter"}, {"bike_id": "3aecccdaded1fac6fcf27ffdd17fa2d1", "name": "3aecccdaded1fac6fcf27ffdd17fa2d1", "is_reserved": 0, "lat": 38.91923333333333, "fusion_lon": 0.0, "is_disabled": 0, "lon": -77.04509866666666, "rental_uris": {"ios": "https://dc.lft.to/lastmile_qr_scan", "android": "https://dc.lft.to/lastmile_qr_scan"}, "fusion_lat": 0.0, "type": "electric_scooter"}, {"bike_id": "3e8907c3e7ab6e321f20e1c34df059f0", "name": "3e8907c3e7ab6e321f20e1c34df059f0", "is_reserved": 0, "lat": 38.90906, "fusion_lon": 0.0, "is_disabled": 0, "lon": -77.00307433333333, "rental_uris": {"ios": "https://dc.lft.to/lastmile_qr_scan", "android": "https://dc.lft.to/lastmile_qr_scan"}, "fusion_lat": 0.0, "type": "electric_scooter"}, {"bike_id": "74aea8ab91af164c8c97aa956ea2ce0c", "name": "74aea8ab91af164c8c97aa956ea2ce0c", "is_reserved": 0, "lat": 38.9102115, "fusion_lon": 0.0, "is_disabled": 0, "lon": -77.04447216666667, "rental_uris": {"ios": "https://dc.lft.to/lastmile_qr_scan", "android": "https://dc.lft.to/lastmile_qr_scan"}, "fusion_lat": 0.0, "type": "electric_scooter"}, {"bike_id": "7592cde6b483106604d66f2f9a9dcaf9", "name": "7592cde6b483106604d66f2f9a9dcaf9", "is_reserved": 0, "lat": 38.92060816666667, "fusion_lon": 0.0, "is_disabled": 0, "lon": -77.02563533333333, "rental_uris": {"ios": "https://dc.lft.to/lastmile_qr_scan", "android": "https://dc.lft.to/lastmile_qr_scan"}, "fusion_lat": 0.0, "type": "electric_scooter"}, {"bike_id": "622055b2b47b0f7a5ffc6d47a95ab13a", "name": "622055b2b47b0f7a5ffc6d47a95ab13a", "is_reserved": 0, "lat": 38.895201, "fusion_lon": 0.0, "is_disabled": 0, "lon": -77.21665116666667, "rental_uris": {"ios": "https://dc.lft.to/lastmile_qr_scan", "android": "https://dc.lft.to/lastmile_qr_scan"}, "fusion_lat": 0.0, "type": "electric_bike"}, {"bike_id": "33880344cad2c9f55b3a4ceb06cb426a", "name": "33880344cad2c9f55b3a4ceb06cb426a", "is_reserved": 0, "lat": 38.9215605, "fusion_lon": 0.0, "is_disabled": 0, "lon": -77.03315783333333, "rental_uris": {"ios": "https://dc.lft.to/lastmile_qr_scan", "android": "https://dc.lft.to/lastmile_qr_scan"}, "fusion_lat": 0.0, "type": "electric_scooter"}, {"bike_id": "263b47929748cc914e4d04f81cfa9618", "name": "263b47929748cc914e4d04f81cfa9618", "is_reserved": 0, "lat": 38.8848155, "fusion_lon": 0.0, "is_disabled": 0, "lon": -77.03356066666667, "rental_uris": {"ios": "https://dc.lft.to/lastmile_qr_scan", "android": "https://dc.lft.to/lastmile_qr_scan"}, "fusion_lat": 0.0, "type": "electric_scooter"}, {"bike_id": "1c9c4ba836b3361072c8f450ddc83bab", "name": "1c9c4ba836b3361072c8f450ddc83bab", "is_reserved": 0, "lat": 38.91626316666667, "fusion_lon": 0.0, "is_disabled": 0, "lon": -77.025687, "rental_uris": {"ios": "https://dc.lft.to/lastmile_qr_scan", "android": "https://dc.lft.to/lastmile_qr_scan"}, "fusion_lat": 0.0, "type": "electric_scooter"}, {"bike_id": "6968dfad8040a5069673ff3db6f4a2bf", "name": "6968dfad8040a5069673ff3db6f4a2bf", "is_reserved": 0, "lat": 38.895479333333334, "fusion_lon": 0.0, "is_disabled": 0, "lon": -77.00911816666667, "rental_uris": {"ios": "https://dc.lft.to/lastmile_qr_scan", "android": "https://dc.lft.to/lastmile_qr_scan"}, "fusion_lat": 0.0, "type": "electric_scooter"}, {"bike_id": "0a5637f2fba7c25bcc0b94b6ca0ce2b1", "name": "0a5637f2fba7c25bcc0b94b6ca0ce2b1", "is_reserved": 0, "lat": 38.90587433333334, "fusion_lon": 0.0, "is_disabled": 0, "lon": -77.03428683333334, "rental_uris": {"ios": "https://dc.lft.to/lastmile_qr_scan", "android": "https://dc.lft.to/lastmile_qr_scan"}, "fusion_lat": 0.0, "type": "electric_scooter"}, {"bike_id": "d804c7d6608ec405e371a9e1260507f6", "name": "d804c7d6608ec405e371a9e1260507f6", "is_reserved": 0, "lat": 38.916078, "fusion_lon": 0.0, "is_disabled": 0, "lon": -77.04587916666667, "rental_uris": {"ios": "https://dc.lft.to/lastmile_qr_scan", "android": "https://dc.lft.to/lastmile_qr_scan"}, "fusion_lat": 0.0, "type": "electric_scooter"}, {"bike_id": "f18a884319d972ec607e5b19005568a4", "name": "f18a884319d972ec607e5b19005568a4", "is_reserved": 0, "lat": 38.927702, "fusion_lon": 0.0, "is_disabled": 0, "lon": -77.02710316666666, "rental_uris": {"ios": "https://dc.lft.to/lastmile_qr_scan", "android": "https://dc.lft.to/lastmile_qr_scan"}, "fusion_lat": 0.0, "type": "electric_scooter"}, {"bike_id": "1cc1556236526513fa86d20a203128e7", "name": "1cc1556236526513fa86d20a203128e7", "is_reserved": 0, "lat": 38.935869333333336, "fusion_lon": 0.0, "is_disabled": 0, "lon": -77.0351195, "rental_uris": {"ios": "https://dc.lft.to/lastmile_qr_scan", "android": "https://dc.lft.to/lastmile_qr_scan"}, "fusion_lat": 0.0, "type": "electric_scooter"}, {"bike_id": "f095cf7d892bf360f98f5322e3e95b63", "name": "f095cf7d892bf360f98f5322e3e95b63", "is_reserved": 0, "lat": 38.932452166666664, "fusion_lon": 0.0, "is_disabled": 0, "lon": -77.03278966666667, "rental_uris": {"ios": "https://dc.lft.to/lastmile_qr_scan", "android": "https://dc.lft.to/lastmile_qr_scan"}, "fusion_lat": 0.0, "type": "electric_scooter"}, {"bike_id": "b5e2c65c7d9c48b47d823b7ddfe7b1c0", "name": "b5e2c65c7d9c48b47d823b7ddfe7b1c0", "is_reserved": 0, "lat": 38.94182266666667, "fusion_lon": 0.0, "is_disabled": 0, "lon": -77.02410716666667, "rental_uris": {"ios": "https://dc.lft.to/lastmile_qr_scan", "android": "https://dc.lft.to/lastmile_qr_scan"}, "fusion_lat": 0.0, "type": "electric_scooter"}, {"bike_id": "d5c5abf6e059038b7043f4b3c7e091b3", "name": "d5c5abf6e059038b7043f4b3c7e091b3", "is_reserved": 0, "lat": 38.908380333333334, "fusion_lon": 0.0, "is_disabled": 0, "lon": -76.99188883333333, "rental_uris": {"ios": "https://dc.lft.to/lastmile_qr_scan", "android": "https://dc.lft.to/lastmile_qr_scan"}, "fusion_lat": 0.0, "type": "electric_scooter"}, {"bike_id": "7573a2293cbd12db4aba504665bc9d35", "name": "7573a2293cbd12db4aba504665bc9d35", "is_reserved": 0, "lat": 38.95071216666667, "fusion_lon": 0.0, "is_disabled": 0, "lon": -77.012039, "rental_uris": {"ios": "https://dc.lft.to/lastmile_qr_scan", "android": "https://dc.lft.to/lastmile_qr_scan"}, "fusion_lat": 0.0, "type": "electric_bike"}, {"bike_id": "8a25e6bf80576e3d082785ec6b3b5bba", "name": "8a25e6bf80576e3d082785ec6b3b5bba", "is_reserved": 0, "lat": 39.005340833333335, "fusion_lon": 0.0, "is_disabled": 0, "lon": -77.10401633333333, "rental_uris": {"ios": "https://dc.lft.to/lastmile_qr_scan", "android": "https://dc.lft.to/lastmile_qr_scan"}, "fusion_lat": 0.0, "type": "electric_bike"}, {"bike_id": "8b2bb1e590143146e617dff3bd090899", "name": "8b2bb1e590143146e617dff3bd090899", "is_reserved": 0, "lat": 38.865166, "fusion_lon": 0.0, "is_disabled": 0, "lon": -76.973363, "rental_uris": {"ios": "https://dc.lft.to/lastmile_qr_scan", "android": "https://dc.lft.to/lastmile_qr_scan"}, "fusion_lat": 0.0, "type": "electric_bike"}, {"bike_id": "b50971826c73d547296d7b2fb6f76a42", "name": "b50971826c73d547296d7b2fb6f76a42", "is_reserved": 0, "lat": 38.8773995, "fusion_lon": 0.0, "is_disabled": 0, "lon": -77.14875783333333, "rental_uris": {"ios": "https://dc.lft.to/lastmile_qr_scan", "android": "https://dc.lft.to/lastmile_qr_scan"}, "fusion_lat": 0.0, "type": "electric_bike"}, {"bike_id": "27d15810e1d7ec871a7099b1e2a5fd23", "name": "27d15810e1d7ec871a7099b1e2a5fd23", "is_reserved": 0, "lat": 38.912097333333335, "fusion_lon": 0.0, "is_disabled": 0, "lon": -77.0749925, "rental_uris": {"ios": "https://dc.lft.to/lastmile_qr_scan", "android": "https://dc.lft.to/lastmile_qr_scan"}, "fusion_lat": 0.0, "type": "electric_scooter"}, {"bike_id": "f8ee1bbf841fe39e4433a8d2171e4f08", "name": "f8ee1bbf841fe39e4433a8d2171e4f08", "is_reserved": 0, "lat": 38.91281333333333, "fusion_lon": 0.0, "is_disabled": 0, "lon": -77.01754916666667, "rental_uris": {"ios": "https://dc.lft.to/lastmile_qr_scan", "android": "https://dc.lft.to/lastmile_qr_scan"}, "fusion_lat": 0.0, "type": "electric_scooter"}, {"bike_id": "3431c56d3c1fa8555a1938062274eee1", "name": "3431c56d3c1fa8555a1938062274eee1", "is_reserved": 0, "lat": 38.9037835, "fusion_lon": 0.0, "is_disabled": 0, "lon": -77.0176035, "rental_uris": {"ios": "https://dc.lft.to/lastmile_qr_scan", "android": "https://dc.lft.to/lastmile_qr_scan"}, "fusion_lat": 0.0, "type": "electric_scooter"}, {"bike_id": "6b4f4353e19bdbacdfed9f9ac018f40e", "name": "6b4f4353e19bdbacdfed9f9ac018f40e", "is_reserved": 0, "lat": 38.92796583333333, "fusion_lon": 0.0, "is_disabled": 0, "lon": -77.02131866666667, "rental_uris": {"ios": "https://dc.lft.to/lastmile_qr_scan", "android": "https://dc.lft.to/lastmile_qr_scan"}, "fusion_lat": 0.0, "type": "electric_scooter"}, {"bike_id": "a82a090f1a935c9274206b3ff541f418", "name": "a82a090f1a935c9274206b3ff541f418", "is_reserved": 0, "lat": 38.91814766666667, "fusion_lon": 0.0, "is_disabled": 0, "lon": -77.049829, "rental_uris": {"ios": "https://dc.lft.to/lastmile_qr_scan", "android": "https://dc.lft.to/lastmile_qr_scan"}, "fusion_lat": 0.0, "type": "electric_scooter"}, {"bike_id": "a42682daa8220c45161f391ea7846075", "name": "a42682daa8220c45161f391ea7846075", "is_reserved": 0, "lat": 38.917120833333335, "fusion_lon": 0.0, "is_disabled": 0, "lon": -77.03852783333333, "rental_uris": {"ios": "https://dc.lft.to/lastmile_qr_scan", "android": "https://dc.lft.to/lastmile_qr_scan"}, "fusion_lat": 0.0, "type": "electric_scooter"}, {"bike_id": "d9025830f3b874ede64a152d8a45db09", "name": "d9025830f3b874ede64a152d8a45db09", "is_reserved": 0, "lat": 38.91695816666667, "fusion_lon": 0.0, "is_disabled": 0, "lon": -77.03776016666667, "rental_uris": {"ios": "https://dc.lft.to/lastmile_qr_scan", "android": "https://dc.lft.to/lastmile_qr_scan"}, "fusion_lat": 0.0, "type": "electric_scooter"}, {"bike_id": "d5f5e9620035934fb3ed397b7e6e9988", "name": "d5f5e9620035934fb3ed397b7e6e9988", "is_reserved": 0, "lat": 38.874552666666666, "fusion_lon": 0.0, "is_disabled": 0, "lon": -77.000793, "rental_uris": {"ios": "https://dc.lft.to/lastmile_qr_scan", "android": "https://dc.lft.to/lastmile_qr_scan"}, "fusion_lat": 0.0, "type": "electric_scooter"}, {"bike_id": "f8a6464e0422c68cc092c4267b3804fb", "name": "f8a6464e0422c68cc092c4267b3804fb", "is_reserved": 0, "lat": 38.91193166666667, "fusion_lon": 0.0, "is_disabled": 0, "lon": -77.032133, "rental_uris": {"ios": "https://dc.lft.to/lastmile_qr_scan", "android": "https://dc.lft.to/lastmile_qr_scan"}, "fusion_lat": 0.0, "type": "electric_scooter"}, {"bike_id": "6af47c1f5f5e308d6896fccad64f0806", "name": "6af47c1f5f5e308d6896fccad64f0806", "is_reserved": 0, "lat": 38.867247666666664, "fusion_lon": 0.0, "is_disabled": 0, "lon": -76.98958066666667, "rental_uris": {"ios": "https://dc.lft.to/lastmile_qr_scan", "android": "https://dc.lft.to/lastmile_qr_scan"}, "fusion_lat": 0.0, "type": "electric_bike"}, {"bike_id": "8a6792460c1d1967a4ab878c96b8d8ea", "name": "8a6792460c1d1967a4ab878c96b8d8ea", "is_reserved": 0, "lat": 38.89205783333333, "fusion_lon": 0.0, "is_disabled": 0, "lon": -76.96109166666666, "rental_uris": {"ios": "https://dc.lft.to/lastmile_qr_scan", "android": "https://dc.lft.to/lastmile_qr_scan"}, "fusion_lat": 0.0, "type": "electric_scooter"}, {"bike_id": "657da2edcacfd243ffd4ea0d94d432fe", "name": "657da2edcacfd243ffd4ea0d94d432fe", "is_reserved": 0, "lat": 38.916932833333334, "fusion_lon": 0.0, "is_disabled": 0, "lon": -77.03774283333334, "rental_uris": {"ios": "https://dc.lft.to/lastmile_qr_scan", "android": "https://dc.lft.to/lastmile_qr_scan"}, "fusion_lat": 0.0, "type": "electric_scooter"}, {"bike_id": "f51e38e52725808dc9f7bdc07259153c", "name": "f51e38e52725808dc9f7bdc07259153c", "is_reserved": 0, "lat": 38.90704516666667, "fusion_lon": 0.0, "is_disabled": 0, "lon": -77.0282265, "rental_uris": {"ios": "https://dc.lft.to/lastmile_qr_scan", "android": "https://dc.lft.to/lastmile_qr_scan"}, "fusion_lat": 0.0, "type": "electric_scooter"}, {"bike_id": "444802ce6bfa70047bb8f66388b96ff4", "name": "444802ce6bfa70047bb8f66388b96ff4", "is_reserved": 0, "lat": 38.856315, "fusion_lon": 0.0, "is_disabled": 0, "lon": -76.99066916666666, "rental_uris": {"ios": "https://dc.lft.to/lastmile_qr_scan", "android": "https://dc.lft.to/lastmile_qr_scan"}, "fusion_lat": 0.0, "type": "electric_scooter"}, {"bike_id": "56cd2285ca88bb081b8fb6b1b5ba20fc", "name": "56cd2285ca88bb081b8fb6b1b5ba20fc", "is_reserved": 0, "lat": 38.907348166666665, "fusion_lon": 0.0, "is_disabled": 0, "lon": -76.9990435, "rental_uris": {"ios": "https://dc.lft.to/lastmile_qr_scan", "android": "https://dc.lft.to/lastmile_qr_scan"}, "fusion_lat": 0.0, "type": "electric_scooter"}, {"bike_id": "c719213629a4d76d66fe420e2c683a38", "name": "c719213629a4d76d66fe420e2c683a38", "is_reserved": 0, "lat": 38.92256866666666, "fusion_lon": 0.0, "is_disabled": 0, "lon": -77.02550283333333, "rental_uris": {"ios": "https://dc.lft.to/lastmile_qr_scan", "android": "https://dc.lft.to/lastmile_qr_scan"}, "fusion_lat": 0.0, "type": "electric_scooter"}, {"bike_id": "8c3561f716eb7fef9bc78f8000267b60", "name": "8c3561f716eb7fef9bc78f8000267b60", "is_reserved": 0, "lat": 38.9180855, "fusion_lon": 0.0, "is_disabled": 0, "lon": -77.0400265, "rental_uris": {"ios": "https://dc.lft.to/lastmile_qr_scan", "android": "https://dc.lft.to/lastmile_qr_scan"}, "fusion_lat": 0.0, "type": "electric_scooter"}, {"bike_id": "cd1508c0ae43c84ef558cf5fcca0d9c5", "name": "cd1508c0ae43c84ef558cf5fcca0d9c5", "is_reserved": 0, "lat": 38.90662666666667, "fusion_lon": 0.0, "is_disabled": 0, "lon": -76.9860205, "rental_uris": {"ios": "https://dc.lft.to/lastmile_qr_scan", "android": "https://dc.lft.to/lastmile_qr_scan"}, "fusion_lat": 0.0, "type": "electric_scooter"}, {"bike_id": "3a5285684f1578017b21d6d7629f24af", "name": "3a5285684f1578017b21d6d7629f24af", "is_reserved": 0, "lat": 38.874725, "fusion_lon": 0.0, "is_disabled": 0, "lon": -77.01894766666666, "rental_uris": {"ios": "https://dc.lft.to/lastmile_qr_scan", "android": "https://dc.lft.to/lastmile_qr_scan"}, "fusion_lat": 0.0, "type": "electric_scooter"}, {"bike_id": "1f13433e59b97b7fa6852da051ef29b9", "name": "1f13433e59b97b7fa6852da051ef29b9", "is_reserved": 0, "lat": 38.99798916666667, "fusion_lon": 0.0, "is_disabled": 0, "lon": -76.99786316666666, "rental_uris": {"ios": "https://dc.lft.to/lastmile_qr_scan", "android": "https://dc.lft.to/lastmile_qr_scan"}, "fusion_lat": 0.0, "type": "electric_bike"}, {"bike_id": "5bb22378b65b143187cab17ffcd6697e", "name": "5bb22378b65b143187cab17ffcd6697e", "is_reserved": 0, "lat": 38.9278615, "fusion_lon": 0.0, "is_disabled": 0, "lon": -77.0212515, "rental_uris": {"ios": "https://dc.lft.to/lastmile_qr_scan", "android": "https://dc.lft.to/lastmile_qr_scan"}, "fusion_lat": 0.0, "type": "electric_scooter"}, {"bike_id": "895f594c8681b773023d72ca49aac898", "name": "895f594c8681b773023d72ca49aac898", "is_reserved": 0, "lat": 38.93576233333334, "fusion_lon": 0.0, "is_disabled": 0, "lon": -77.02248, "rental_uris": {"ios": "https://dc.lft.to/lastmile_qr_scan", "android": "https://dc.lft.to/lastmile_qr_scan"}, "fusion_lat": 0.0, "type": "electric_scooter"}, {"bike_id": "e623d701cf6d40d2240a15dafac3aacb", "name": "e623d701cf6d40d2240a15dafac3aacb", "is_reserved": 0, "lat": 38.91635633333333, "fusion_lon": 0.0, "is_disabled": 0, "lon": -77.02289633333334, "rental_uris": {"ios": "https://dc.lft.to/lastmile_qr_scan", "android": "https://dc.lft.to/lastmile_qr_scan"}, "fusion_lat": 0.0, "type": "electric_bike"}, {"bike_id": "ef1a6499f89d06cdc4a26e7a0d58e0ba", "name": "ef1a6499f89d06cdc4a26e7a0d58e0ba", "is_reserved": 0, "lat": 38.872158666666664, "fusion_lon": 0.0, "is_disabled": 0, "lon": -77.0057505, "rental_uris": {"ios": "https://dc.lft.to/lastmile_qr_scan", "android": "https://dc.lft.to/lastmile_qr_scan"}, "fusion_lat": 0.0, "type": "electric_scooter"}, {"bike_id": "9945558d8cf107d47080598588100a11", "name": "9945558d8cf107d47080598588100a11", "is_reserved": 0, "lat": 38.88334533333333, "fusion_lon": 0.0, "is_disabled": 0, "lon": -77.01528733333333, "rental_uris": {"ios": "https://dc.lft.to/lastmile_qr_scan", "android": "https://dc.lft.to/lastmile_qr_scan"}, "fusion_lat": 0.0, "type": "electric_scooter"}, {"bike_id": "380fe6904b042785c7acda1e6b99a190", "name": "380fe6904b042785c7acda1e6b99a190", "is_reserved": 0, "lat": 38.93692266666667, "fusion_lon": 0.0, "is_disabled": 0, "lon": -77.08436166666667, "rental_uris": {"ios": "https://dc.lft.to/lastmile_qr_scan", "android": "https://dc.lft.to/lastmile_qr_scan"}, "fusion_lat": 0.0, "type": "electric_scooter"},