{"data": {"bikes": [{"lon": -77.02672133333333, "bike_id": "0d01c3907508fbb9ab89c2ff3443b591", "lat": 38.921813666666665, "fusion_lon": 0.0, "fusion_lat": 0.0, "type": "electric_scooter", "name": "0d01c3907508fbb9ab89c2ff3443b591", "is_disabled": 0, "rental_uris": {"ios": "https://dc.lft.to/lastmile_qr_scan", "android": "https://dc.lft.to/lastmile_qr_scan"}, "is_reserved": 0}, {"lon": -77.043483, "bike_id": "f01b5d889febd24763a0679fdd844baf", "lat": 38.921746, "fusion_lon": 0.0, "fusion_lat": 0.0, "type": "electric_scooter", "name": "f01b5d889febd24763a0679fdd844baf", "is_disabled": 0, "rental_uris": {"ios": "https://dc.lft.to/lastmile_qr_scan", "android": "https://dc.lft.to/lastmile_qr_scan"}, "is_reserved": 0}, {"lon": -77.0033455, "bike_id": "6377c75f21c16a3d5c544e7c27a5d430", "lat": 38.899277166666664, "fusion_lon": 0.0, "fusion_lat": 0.0, "type": "electric_scooter", "name": "6377c75f21c16a3d5c544e7c27a5d430", "is_disabled": 0, "rental_uris": {"ios": "https://dc.lft.to/lastmile_qr_scan", "android": "https://dc.lft.to/lastmile_qr_scan"}, "is_reserved": 0}, {"lon": -77.031805, "bike_id": "2dde927cdd5df9c780ce0493f52e5ace", "lat": 38.892021166666666, "fusion_lon": 0.0, "fusion_lat": 0.0, "type": "electric_scooter", "name": "2dde927cdd5df9c780ce0493f52e5ace", "is_disabled": 0, "rental_uris": {"ios": "https://dc.lft.to/lastmile_qr_scan", "android": "https://dc.lft.to/lastmile_qr_scan"}, "is_reserved": 0}, {"lon": -77.02260283333334, "bike_id": "e7ba2ed57d8914c0297d1a9a8726b87e", "lat": 38.937703, "fusion_lon": 0.0, "fusion_lat": 0.0, "type": "electric_scooter", "name": "e7ba2ed57d8914c0297d1a9a8726b87e", "is_disabled": 0, "rental_uris": {"ios": "https://dc.lft.to/lastmile_qr_scan", "android": "https://dc.lft.to/lastmile_qr_scan"}, "is_reserved": 0}, {"lon": -77.02714416666667, "bike_id": "b324960d57cdbf6feaa2f6a7cf839456", "lat": 38.92665066666667, "fusion_lon": 0.0, "fusion_lat": 0.0, "type": "electric_scooter", "name": "b324960d57cdbf6feaa2f6a7cf839456", "is_disabled": 0, "rental_uris": {"ios": "https://dc.lft.to/lastmile_qr_scan", "android": "https://dc.lft.to/lastmile_qr_scan"}, "is_reserved": 0}, {"lon": -77.0448415, "bike_id": "f1b4f5b8d91f5e06ad2116787e33ba97", "lat": 38.892377333333336, "fusion_lon": 0.0, "fusion_lat": 0.0, "type": "electric_scooter", "name": "f1b4f5b8d91f5e06ad2116787e33ba97", "is_disabled": 0, "rental_uris": {"ios": "https://dc.lft.to/lastmile_qr_scan", "android": "https://dc.lft.to/lastmile_qr_scan"}, "is_reserved": 0}, {"lon": -77.01274066666667, "bike_id": "5a9032c70dd342c638c29b433dadfe7f", "lat": 38.915683, "fusion_lon": 0.0, "fusion_lat": 0.0, "type": "electric_scooter", "name": "5a9032c70dd342c638c29b433dadfe7f", "is_disabled": 0, "rental_uris": {"ios": "https://dc.lft.to/lastmile_qr_scan", "android": "https://dc.lft.to/lastmile_qr_scan"}, "is_reserved": 0}, {"lon": -77.0053525, "bike_id": "3ee45783a95eeb0aadbb3b7cf102096f", "lat": 38.929771333333335, "fusion_lon": 0.0, "fusion_lat": 0.0, "type": "electric_scooter", "name": "3ee45783a95eeb0aadbb3b7cf102096f", "is_disabled": 0, "rental_uris": {"ios": "https://dc.lft.to/lastmile_qr_scan", "android": "https://dc.lft.to/lastmile_qr_scan"}, "is_reserved": 0}, {"lon": -77.05270766666666, "bike_id": "9ad61542e059f25126a0fb1f6cba60d5", "lat": 38.925637333333334, "fusion_lon": 0.0, "fusion_lat": 0.0, "type": "electric_scooter", "name": "9ad61542e059f25126a0fb1f6cba60d5", "is_disabled": 0, "rental_uris": {"ios": "https://dc.lft.to/lastmile_qr_scan", "android": "https://dc.lft.to/lastmile_qr_scan"}, "is_reserved": 0}, {"lon": -77.020619, "bike_id": "01258b663e25dafbe0f65b2706fc7c19", "lat": 38.89991116666667, "fusion_lon": 0.0, "fusion_lat": 0.0, "type": "electric_scooter", "name": "01258b663e25dafbe0f65b2706fc7c19", "is_disabled": 0, "rental_uris": {"ios": "https://dc.lft.to/lastmile_qr_scan", "android": "https://dc.lft.to/lastmile_qr_scan"}, "is_reserved": 0}, {"lon": -76.9852395, "bike_id": "07915f373efdc916d7de782136eac838", "lat": 38.866853666666664, "fusion_lon": 0.0, "fusion_lat": 0.0, "type": "electric_scooter", "name": "07915f373efdc916d7de782136eac838", "is_disabled": 0, "rental_uris": {"ios": "https://dc.lft.to/lastmile_qr_scan", "android": "https://dc.lft.to/lastmile_qr_scan"}, "is_reserved": 0}, {"lon": -77.02037483333334, "bike_id": "58059bf774f80e71c16b4529166e591a", "lat": 38.90867766666667, "fusion_lon": 0.0, "fusion_lat": 0.0, "type": "electric_scooter", "name": "58059bf774f80e71c16b4529166e591a", "is_disabled": 0, "rental_uris": {"ios": "https://dc.lft.to/lastmile_qr_scan", "android": "https://dc.lft.to/lastmile_qr_scan"}, "is_reserved": 0}, {"lon": -77.02227683333334, "bike_id": "c1aa07256ebce8d54f52f1076aa25c7c", "lat": 38.9124705, "fusion_lon": 0.0, "fusion_lat": 0.0, "type": "electric_scooter", "name": "c1aa07256ebce8d54f52f1076aa25c7c", "is_disabled": 0, "rental_uris": {"ios": "https://dc.lft.to/lastmile_qr_scan", "android": "https://dc.lft.to/lastmile_qr_scan"}, "is_reserved": 0}, {"lon": -77.0148025, "bike_id": "be479e1370ef289094dc51c8582b8dc4", "lat": 38.940612333333334, "fusion_lon": 0.0, "fusion_lat": 0.0, "type": "electric_bike", "name": "be479e1370ef289094dc51c8582b8dc4", "is_disabled": 0, "rental_uris": {"ios": "https://dc.lft.to/lastmile_qr_scan", "android": "https://dc.lft.to/lastmile_qr_scan"}, "is_reserved": 0}, {"lon": -76.930593, "bike_id": "0a699b33aeab6e75913d53a6f218c8f7", "lat": 38.8839415, "fusion_lon": 0.0, "fusion_lat": 0.0, "type": "electric_scooter", "name": "0a699b33aeab6e75913d53a6f218c8f7", "is_disabled": 0, "rental_uris": {"ios": "https://dc.lft.to/lastmile_qr_scan", "android": "https://dc.lft.to/lastmile_qr_scan"}, "is_reserved": 0}, {"lon": -77.02656033333334, "bike_id": "8b26707ac053a2e5c3a8b803f282d721", "lat": 38.91692316666666, "fusion_lon": 0.0, "fusion_lat": 0.0, "type": "electric_scooter", "name": "8b26707ac053a2e5c3a8b803f282d721", "is_disabled": 0, "rental_uris": {"ios": "https://dc.lft.to/lastmile_qr_scan", "android": "https://dc.lft.to/lastmile_qr_scan"}, "is_reserved": 0}, {"lon": -77.03801683333333, "bike_id": "36f391c9b72caeb1ec48f870d2653f67", "lat": 38.915407333333334, "fusion_lon": 0.0, "fusion_lat": 0.0, "type": "electric_scooter", "name": "36f391c9b72caeb1ec48f870d2653f67", "is_disabled": 0, "rental_uris": {"ios": "https://dc.lft.to/lastmile_qr_scan", "android": "https://dc.lft.to/lastmile_qr_scan"}, "is_reserved": 0}, {"lon": -76.98189816666667, "bike_id": "37d818f49a55ce59feb82ca5b3d4de02", "lat": 38.925965166666664, "fusion_lon": 0.0, "fusion_lat": 0.0, "type": "electric_scooter", "name": "37d818f49a55ce59feb82ca5b3d4de02", "is_disabled": 0, "rental_uris": {"ios": "https://dc.lft.to/lastmile_qr_scan", "android": "https://dc.lft.to/lastmile_qr_scan"}, "is_reserved": 0}, {"lon": -77.04150516666667, "bike_id": "7b4b7ccd98ccb67ac766af6db912aa6b", "lat": 38.9055625, "fusion_lon": 0.0, "fusion_lat": 0.0, "type": "electric_scooter", "name": "7b4b7ccd98ccb67ac766af6db912aa6b", "is_disabled": 0, "rental_uris": {"ios": "https://dc.lft.to/lastmile_qr_scan", "android": "https://dc.lft.to/lastmile_qr_scan"}, "is_reserved": 0}, {"lon": -76.93351966666667, "bike_id": "ed70c6c3b38f2451e43f35321f5ca209", "lat": 38.8991145, "fusion_lon": 0.0, "fusion_lat": 0.0, "type": "electric_scooter", "name": "ed70c6c3b38f2451e43f35321f5ca209", "is_disabled": 0, "rental_uris": {"ios": "https://dc.lft.to/lastmile_qr_scan", "android": "https://dc.lft.to/lastmile_qr_scan"}, "is_reserved": 0}, {"lon": -76.98556483333333, "bike_id": "6fe1c35861ec258bc2a614f31396b2bf", "lat": 38.89957583333333, "fusion_lon": 0.0, "fusion_lat": 0.0, "type": "electric_scooter", "name": "6fe1c35861ec258bc2a614f31396b2bf", "is_disabled": 0, "rental_uris": {"ios": "https://dc.lft.to/lastmile_qr_scan", "android": "https://dc.lft.to/lastmile_qr_scan"}, "is_reserved": 0}, {"lon": -76.99105883333333, "bike_id": "7edc35e450f8479797d78dfe457befec", "lat": 38.903201833333334, "fusion_lon": 0.0, "fusion_lat": 0.0, "type": "electric_scooter", "name": "7edc35e450f8479797d78dfe457befec", "is_disabled": 0, "rental_uris": {"ios": "https://dc.lft.to/lastmile_qr_scan", "android": "https://dc.lft.to/lastmile_qr_scan"}, "is_reserved": 0}, {"lon": -77.02716883333333, "bike_id": "d1e2240e34a9cdc81ee23ee1ef6533ce", "lat": 38.9167115, "fusion_lon": 0.0, "fusion_lat": 0.0, "type": "electric_scooter", "name": "d1e2240e34a9cdc81ee23ee1ef6533ce", "is_disabled": 0, "rental_uris": {"ios": "https://dc.lft.to/lastmile_qr_scan", "android": "https://dc.lft.to/lastmile_qr_scan"}, "is_reserved": 0}, {"lon": -77.07106816666666, "bike_id": "fd332c95c324c0788892a1e32c10456e", "lat": 38.91224183333333, "fusion_lon": 0.0, "fusion_lat": 0.0, "type": "electric_scooter", "name": "fd332c95c324c0788892a1e32c10456e", "is_disabled": 0, "rental_uris": {"ios": "https://dc.lft.to/lastmile_qr_scan", "android": "https://dc.lft.to/lastmile_qr_scan"}, "is_reserved": 0}, {"lon": -77.026796, "bike_id": "688e35910efb49452ccb963e0ad0dbfe", "lat": 38.94327933333334, "fusion_lon": 0.0, "fusion_lat": 0.0, "type": "electric_scooter", "name": "688e35910efb49452ccb963e0ad0dbfe", "is_disabled": 0, "rental_uris": {"ios": "https://dc.lft.to/lastmile_qr_scan", "android": "https://dc.lft.to/lastmile_qr_scan"}, "is_reserved": 0}, {"lon": -76.93378, "bike_id": "81a93a216fc8dd30bfabe2cd86403c64", "lat": 38.9103145, "fusion_lon": 0.0, "fusion_lat": 0.0, "type": "electric_scooter", "name": "81a93a216fc8dd30bfabe2cd86403c64", "is_disabled": 0, "rental_uris": {"ios": "https://dc.lft.to/lastmile_qr_scan", "android": "https://dc.lft.to/lastmile_qr_scan"}, "is_reserved": 0}, {"lon": -77.1267765, "bike_id": "d5329a890c0cbddba63f21c81c7c57f1", "lat": 38.81515733333333, "fusion_lon": 0.0, "fusion_lat": 0.0, "type": "electric_bike", "name": "d5329a890c0cbddba63f21c81c7c57f1", "is_disabled": 0, "rental_uris": {"ios": "https://dc.lft.to/lastmile_qr_scan", "android": "https://dc.lft.to/lastmile_qr_scan"}, "is_reserved": 0}, {"lon": -77.0108425, "bike_id": "4728f6daac8e8be3db8488af54e040d4", "lat": 38.90658083333334, "fusion_lon": 0.0, "fusion_lat": 0.0, "type": "electric_bike", "name": "4728f6daac8e8be3db8488af54e040d4", "is_disabled": 0, "rental_uris": {"ios": "https://dc.lft.to/lastmile_qr_scan", "android": "https://dc.lft.to/lastmile_qr_scan"}, "is_reserved": 0}, {"lon": -77.04129783333333, "bike_id": "1f7e809efb9ec23d89916d59bf61d782", "lat": 38.926493, "fusion_lon": 0.0, "fusion_lat": 0.0, "type": "electric_scooter", "name": "1f7e809efb9ec23d89916d59bf61d782", "is_disabled": 0, "rental_uris": {"ios": "https://dc.lft.to/lastmile_qr_scan", "android": "https://dc.lft.to/lastmile_qr_scan"}, "is_reserved": 0}, {"lon": -76.94919316666666, "bike_id": "2cc419c666143b1f596554bf20c22345", "lat": 38.89354466666666, "fusion_lon": 0.0, "fusion_lat": 0.0, "type": "electric_scooter", "name": "2cc419c666143b1f596554bf20c22345", "is_disabled": 0, "rental_uris": {"ios": "https://dc.lft.to/lastmile_qr_scan", "android": "https://dc.lft.to/lastmile_qr_scan"}, "is_reserved": 0}, {"lon": -76.989371, "bike_id": "5d1763babc9290888ba826eb6ea4d73d", "lat": 38.90396033333333, "fusion_lon": 0.0, "fusion_lat": 0.0, "type": "electric_scooter", "name": "5d1763babc9290888ba826eb6ea4d73d", "is_disabled": 0, "rental_uris": {"ios": "https://dc.lft.to/lastmile_qr_scan", "android": "https://dc.lft.to/lastmile_qr_scan"}, "is_reserved": 0}, {"lon": -77.05860433333334, "bike_id": "d2f3e56493591b10e08657e8dd8fd7e5", "lat": 38.9361, "fusion_lon": 0.0, "fusion_lat": 0.0, "type": "electric_scooter", "name": "d2f3e56493591b10e08657e8dd8fd7e5", "is_disabled": 0, "rental_uris": {"ios": "https://dc.lft.to/lastmile_qr_scan", "android": "https://dc.lft.to/lastmile_qr_scan"}, "is_reserved": 0}, {"lon": -77.06398183333333, "bike_id": "47a28d041db4b53ef942013513a3cdf9", "lat": 38.90780483333333, "fusion_lon": 0.0, "fusion_lat": 0.0, "type": "electric_scooter", "name": "47a28d041db4b53ef942013513a3cdf9", "is_disabled": 0, "rental_uris": {"ios": "https://dc.lft.to/lastmile_qr_scan", "android": "https://dc.lft.to/lastmile_qr_scan"}, "is_reserved": 0}, {"lon": -77.009731, "bike_id": "84ac60cb8ef7b70c7e494e1621c42641", "lat": 38.89484216666666, "fusion_lon": 0.0, "fusion_lat": 0.0, "type": "electric_scooter", "name": "84ac60cb8ef7b70c7e494e1621c42641", "is_disabled": 0, "rental_uris": {"ios": "https://dc.lft.to/lastmile_qr_scan", "android": "https://dc.lft.to/lastmile_qr_scan"}, "is_reserved": 0}, {"lon": -77.0475885, "bike_id": "2976054a27651f946d134161985c4c85", "lat": 38.909742666666666, "fusion_lon": 0.0, "fusion_lat": 0.0, "type": "electric_scooter", "name": "2976054a27651f946d134161985c4c85", "is_disabled": 0, "rental_uris": {"ios": "https://dc.lft.to/lastmile_qr_scan", "android": "https://dc.lft.to/lastmile_qr_scan"}, "is_reserved": 0}, {"lon": -77.07432016666667, "bike_id": "0632870964b03577bc0611c37cd9e298", "lat": 38.999446, "fusion_lon": 0.0, "fusion_lat": 0.0, "type": "electric_bike", "name": "0632870964b03577bc0611c37cd9e298", "is_disabled": 0, "rental_uris": {"ios": "https://dc.lft.to/lastmile_qr_scan", "android": "https://dc.lft.to/lastmile_qr_scan"}, "is_reserved": 0}, {"lon": -76.98710966666667, "bike_id": "23a79de11e04611ebdbcacc274ed220e", "lat": 38.866249, "fusion_lon": 0.0, "fusion_lat": 0.0, "type": "electric_scooter", "name": "23a79de11e04611ebdbcacc274ed220e", "is_disabled": 0, "rental_uris": {"ios": "https://dc.lft.to/lastmile_qr_scan", "android": "https://dc.lft.to/lastmile_qr_scan"}, "is_reserved": 0}, {"lon": -77.02432366666666, "bike_id": "de2695529ed5d4d02dae1780535fbbf8", "lat": 38.92051816666667, "fusion_lon": 0.0, "fusion_lat": 0.0, "type": "electric_scooter", "name": "de2695529ed5d4d02dae1780535fbbf8", "is_disabled": 0, "rental_uris": {"ios": "https://dc.lft.to/lastmile_qr_scan", "android": "https://dc.lft.to/lastmile_qr_scan"}, "is_reserved": 0}, {"lon": -77.05805016666666, "bike_id": "ce8f868e5563cbff27e9db27a87d00fb", "lat": 38.82389766666667, "fusion_lon": 0.0, "fusion_lat": 0.0, "type": "electric_bike", "name": "ce8f868e5563cbff27e9db27a87d00fb", "is_disabled": 0, "rental_uris": {"ios": "https://dc.lft.to/lastmile_qr_scan", "android": "https://dc.lft.to/lastmile_qr_scan"}, "is_reserved": 0}, {"lon": -77.05207066666667, "bike_id": "3d19f359f3e90003fb8ca7514ddb24e8", "lat": 38.92484833333334, "fusion_lon": 0.0, "fusion_lat": 0.0, "type": "electric_scooter", "name": "3d19f359f3e90003fb8ca7514ddb24e8", "is_disabled": 0, "rental_uris": {"ios": "https://dc.lft.to/lastmile_qr_scan", "android": "https://dc.lft.to/lastmile_qr_scan"}, "is_reserved": 0}, {"lon": -77.02442666666667, "bike_id": "a20ab95c76bf2aa9e9b6acb1cd8ffb9c", "lat": 38.920504666666666, "fusion_lon": 0.0, "fusion_lat": 0.0, "type": "electric_scooter", "name": "a20ab95c76bf2aa9e9b6acb1cd8ffb9c", "is_disabled": 0, "rental_uris": {"ios": "https://dc.lft.to/lastmile_qr_scan", "android": "https://dc.lft.to/lastmile_qr_scan"}, "is_reserved": 0}, {"lon": -77.0448865, "bike_id": "3b12f0830e3696137281e69aef113a23", "lat": 38.89753983333333, "fusion_lon": 0.0, "fusion_lat": 0.0, "type": "electric_scooter", "name": "3b12f0830e3696137281e69aef113a23", "is_disabled": 0, "rental_uris": {"ios": "https://dc.lft.to/lastmile_qr_scan", "android": "https://dc.lft.to/lastmile_qr_scan"}, "is_reserved": 0}, {"lon": -77.00247233333333, "bike_id": "fd6d6648ae6ae61688b2335ee525f598", "lat": 38.911139666666664, "fusion_lon": 0.0, "fusion_lat": 0.0, "type": "electric_scooter", "name": "fd6d6648ae6ae61688b2335ee525f598", "is_disabled": 0, "rental_uris": {"ios": "https://dc.lft.to/lastmile_qr_scan", "android": "https://dc.lft.to/lastmile_qr_scan"}, "is_reserved": 0}, {"lon": -77.0184895, "bike_id": "9329cf87f587af6511a89ae1cfd5a65a", "lat": 38.9400145, "fusion_lon": 0.0, "fusion_lat": 0.0, "type": "electric_scooter", "name": "9329cf87f587af6511a89ae1cfd5a65a", "is_disabled": 0, "rental_uris": {"ios": "https://dc.lft.to/lastmile_qr_scan", "android": "https://dc.lft.to/lastmile_qr_scan"}, "is_reserved": 0}, {"lon": -77.07343166666666, "bike_id": "4a0807f2e8034e5b8e4a6efdb5b3b46a", "lat": 38.910010666666665, "fusion_lon": 0.0, "fusion_lat": 0.0, "type": "electric_scooter", "name": "4a0807f2e8034e5b8e4a6efdb5b3b46a", "is_disabled": 0, "rental_uris": {"ios": "https://dc.lft.to/lastmile_qr_scan", "android": "https://dc.lft.to/lastmile_qr_scan"}, "is_reserved": 0}, {"lon": -77.0011965, "bike_id": "f6c1936eacdfc112f96a3f787e2e0530", "lat": 38.874881333333335, "fusion_lon": 0.0, "fusion_lat": 0.0, "type": "electric_scooter", "name": "f6c1936eacdfc112f96a3f787e2e0530", "is_disabled": 0, "rental_uris": {"ios": "https://dc.lft.to/lastmile_qr_scan", "android": "https://dc.lft.to/lastmile_qr_scan"}, "is_reserved": 0}, {"lon": -76.95575433333333, "bike_id": "faf06cf4f90dffa5aff26f167f9449d2", "lat": 38.887661333333334, "fusion_lon": 0.0, "fusion_lat": 0.0, "type": "electric_scooter", "name": "faf06cf4f90dffa5aff26f167f9449d2", "is_disabled": 0, "rental_uris": {"ios": "https://dc.lft.to/lastmile_qr_scan", "android": "https://dc.lft.to/lastmile_qr_scan"}, "is_reserved": 0}, {"lon": -77.02842033333333, "bike_id": "b3ffd62616ab306b7e463bcae18785d1", "lat": 38.925719, "fusion_lon": 0.0, "fusion_lat": 0.0, "type": "electric_scooter", "name": "b3ffd62616ab306b7e463bcae18785d1", "is_disabled": 0, "rental_uris": {"ios": "https://dc.lft.to/lastmile_qr_scan", "android": "https://dc.lft.to/lastmile_qr_scan"}, "is_reserved": 0}, {"lon": -77.02508733333333, "bike_id": "cb6158f8083ede2f78157fd3523b02f0", "lat": 38.92086583333333, "fusion_lon": 0.0, "fusion_lat": 0.0, "type": "electric_scooter", "name": "cb6158f8083ede2f78157fd3523b02f0", "is_disabled": 0, "rental_uris": {"ios": "https://dc.lft.to/lastmile_qr_scan", "android": "https://dc.lft.to/lastmile_qr_scan"}, "is_reserved": 0}, {"lon": -77.022258, "bike_id": "7c0e942b4913530c5bcba4b316168dbb", "lat": 38.92618916666667, "fusion_lon": 0.0, "fusion_lat": 0.0, "type": "electric_scooter", "name": "7c0e942b4913530c5bcba4b316168dbb", "is_disabled": 0, "rental_uris": {"ios": "https://dc.lft.to/lastmile_qr_scan", "android": "https://dc.lft.to/lastmile_qr_scan"}, "is_reserved": 0}, {"lon": -76.98924583333333, "bike_id": "7779a45c0ab979078f2b2cf4e90f78cc", "lat": 38.858096333333336, "fusion_lon": 0.0, "fusion_lat": 0.0, "type": "electric_scooter", "name": "7779a45c0ab979078f2b2cf4e90f78cc", "is_disabled": 0, "rental_uris": {"ios": "https://dc.lft.to/lastmile_qr_scan", "android": "https://dc.lft.to/lastmile_qr_scan"}, "is_reserved": 0}, {"lon": -76.9854365, "bike_id": "e7fb6d7922320e50ee74d79b9000c778", "lat": 38.920152, "fusion_lon": 0.0, "fusion_lat": 0.0, "type": "electric_scooter", "name": "e7fb6d7922320e50ee74d79b9000c778", "is_disabled": 0, "rental_uris": {"ios": "https://dc.lft.to/lastmile_qr_scan", "android": "https://dc.lft.to/lastmile_qr_scan"}, "is_reserved": 0}, {"lon": -77.03204183333334, "bike_id": "c804b6c78cb32f997b40626ea576d6a0", "lat": 38.9125085, "fusion_lon": 0.0, "fusion_lat": 0.0, "type": "electric_scooter", "name": "c804b6c78cb32f997b40626ea576d6a0", "is_disabled": 0, "rental_uris": {"ios": "https://dc.lft.to/lastmile_qr_scan", "android": "https://dc.lft.to/lastmile_qr_scan"}, "is_reserved": 0}, {"lon": -77.046582, "bike_id": "55a09b637bd96510b152555a55563907", "lat": 38.898257666666666, "fusion_lon": 0.0, "fusion_lat": 0.0, "type": "electric_scooter", "name": "55a09b637bd96510b152555a55563907", "is_disabled": 0, "rental_uris": {"ios": "https://dc.lft.to/lastmile_qr_scan", "android": "https://dc.lft.to/lastmile_qr_scan"}, "is_reserved": 0}, {"lon": -77.022315, "bike_id": "6c0079260a84e231fd7244f31e8946bb", "lat": 38.96214, "fusion_lon": 0.0, "fusion_lat": 0.0, "type": "electric_bike", "name": "6c0079260a84e231fd7244f31e8946bb", "is_disabled": 0, "rental_uris": {"ios": "https://dc.lft.to/lastmile_qr_scan", "android": "https://dc.lft.to/lastmile_qr_scan"}, "is_reserved": 0}, {"lon": -77.04389733333333, "bike_id": "c4afabe8321c8aff6469170a782bd0af", "lat": 39.047186333333336, "fusion_lon": 0.0, "fusion_lat": 0.0, "type": "electric_bike", "name": "c4afabe8321c8aff6469170a782bd0af", "is_disabled": 0, "rental_uris": {"ios": "https://dc.lft.to/lastmile_qr_scan", "android": "https://dc.lft.to/lastmile_qr_scan"}, "is_reserved": 0}, {"lon": -77.0317965, "bike_id": "d100db99e34c3cdc7cace71d9096932d", "lat": 38.92868933333333, "fusion_lon": 0.0, "fusion_lat": 0.0, "type": "electric_scooter", "name": "d100db99e34c3cdc7cace71d9096932d", "is_disabled": 0, "rental_uris": {"ios": "https://dc.lft.to/lastmile_qr_scan", "android": "https://dc.lft.to/lastmile_qr_scan"}, "is_reserved": 0}, {"lon": -77.01695566666666, "bike_id": "7de285ec970e94e6a10f3d0faa7083f1", "lat": 38.8792175, "fusion_lon": 0.0, "fusion_lat": 0.0, "type": "electric_scooter", "name": "7de285ec970e94e6a10f3d0faa7083f1", "is_disabled": 0, "rental_uris": {"ios": "https://dc.lft.to/lastmile_qr_scan", "android": "https://dc.lft.to/lastmile_qr_scan"}, "is_reserved": 0}, {"lon": -77.07077283333334, "bike_id": "3bb3306b1688f0c9806e4ee14ac82733", "lat": 38.9326415, "fusion_lon": 0.0, "fusion_lat": 0.0, "type": "electric_scooter", "name": "3bb3306b1688f0c9806e4ee14ac82733", "is_disabled": 0, "rental_uris": {"ios": "https://dc.lft.to/lastmile_qr_scan", "android": "https://dc.lft.to/lastmile_qr_scan"}, "is_reserved": 0}, {"lon": -77.028989, "bike_id": "6772745dc50ebb17aac46f53bdc58dc4", "lat": 38.91681116666667, "fusion_lon": 0.0, "fusion_lat": 0.0, "type": "electric_scooter", "name": "6772745dc50ebb17aac46f53bdc58dc4", "is_disabled": 0, "rental_uris": {"ios": "https://dc.lft.to/lastmile_qr_scan", "android": "https://dc.lft.to/lastmile_qr_scan"}, "is_reserved": 0}, {"lon": -77.03077783333333, "bike_id": "84d73c0fe177af3fe3cc12b750619441", "lat": 38.9169135, "fusion_lon": 0.0, "fusion_lat": 0.0, "type": "electric_scooter", "name": "84d73c0fe177af3fe3cc12b750619441", "is_disabled": 0, "rental_uris": {"ios": "https://dc.lft.to/lastmile_qr_scan", "android": "https://dc.lft.to/lastmile_qr_scan"}, "is_reserved": 0}, {"lon": -77.03358133333333, "bike_id": "4a866e8225d9d5d5f628d7f42dc33fcd", "lat": 38.898969, "fusion_lon": 0.0, "fusion_lat": 0.0, "type": "electric_scooter", "name": "4a866e8225d9d5d5f628d7f42dc33fcd", "is_disabled": 0, "rental_uris": {"ios": "https://dc.lft.to/lastmile_qr_scan", "android": "https://dc.lft.to/lastmile_qr_scan"}, "is_reserved": 0}, {"lon": -77.03507466666667, "bike_id": "a08c24f127e77a28647d7e1fab438734", "lat": 38.921391, "fusion_lon": 0.0, "fusion_lat": 0.0, "type": "electric_scooter", "name": "a08c24f127e77a28647d7e1fab438734", "is_disabled": 0, "rental_uris": {"ios": "https://dc.lft.to/lastmile_qr_scan", "android": "https://dc.lft.to/lastmile_qr_scan"}, "is_reserved": 0}, {"lon": -76.97328733333333, "bike_id": "55d6baf605056ca869ea84cb34e51b0d", "lat": 38.86517833333333, "fusion_lon": 0.0, "fusion_lat": 0.0, "type": "electric_bike", "name": "55d6baf605056ca869ea84cb34e51b0d", "is_disabled": 0, "rental_uris": {"ios": "https://dc.lft.to/lastmile_qr_scan", "android": "https://dc.lft.to/lastmile_qr_scan"}, "is_reserved": 0}, {"lon": -77.0058395, "bike_id": "9540c236bce6a5f9d0d9325183224de0", "lat": 38.905664333333334, "fusion_lon": 0.0, "fusion_lat": 0.0, "type": "electric_scooter", "name": "9540c236bce6a5f9d0d9325183224de0", "is_disabled": 0, "rental_uris": {"ios": "https://dc.lft.to/lastmile_qr_scan", "android": "https://dc.lft.to/lastmile_qr_scan"}, "is_reserved": 0}, {"lon": -76.980813, "bike_id": "d477f513d8013ec5e05d0fa6915095c1", "lat": 38.88425266666667, "fusion_lon": 0.0, "fusion_lat": 0.0, "type": "electric_scooter", "name": "d477f513d8013ec5e05d0fa6915095c1", "is_disabled": 0, "rental_uris": {"ios": "https://dc.lft.to/lastmile_qr_scan", "android": "https://dc.lft.to/lastmile_qr_scan"}, "is_reserved": 0}, {"lon": -77.034948, "bike_id": "99e51b133e9464f185f3457d55d13551", "lat": 38.921472666666666, "fusion_lon": 0.0, "fusion_lat": 0.0, "type": "electric_scooter", "name": "99e51b133e9464f185f3457d55d13551", "is_disabled": 0, "rental_uris": {"ios": "https://dc.lft.to/lastmile_qr_scan", "android": "https://dc.lft.to/lastmile_qr_scan"}, "is_reserved": 0}, {"lon": -77.04265383333333, "bike_id": "7cf9b627397dfa6970acbc7e58a13c06", "lat": 38.9164245, "fusion_lon": 0.0, "fusion_lat": 0.0, "type": "electric_scooter", "name": "7cf9b627397dfa6970acbc7e58a13c06", "is_disabled": 0, "rental_uris": {"ios": "https://dc.lft.to/lastmile_qr_scan", "android": "https://dc.lft.to/lastmile_qr_scan"}, "is_reserved": 0}, {"lon": -76.98558933333334, "bike_id": "36d463e1a4534cc6b94fca338b91950d", "lat": 38.90916983333334, "fusion_lon": 0.0, "fusion_lat": 0.0, "type": "electric_scooter", "name": "36d463e1a4534cc6b94fca338b91950d", "is_disabled": 0, "rental_uris": {"ios": "https://dc.lft.to/lastmile_qr_scan", "android": "https://dc.lft.to/lastmile_qr_scan"}, "is_reserved": 0}, {"lon": -77.03375183333333, "bike_id": "1ada6531baf81838c836e415a5bfca3b", "lat": 38.920485166666666, "fusion_lon": 0.0, "fusion_lat": 0.0, "type": "electric_scooter", "name": "1ada6531baf81838c836e415a5bfca3b", "is_disabled": 0, "rental_uris": {"ios": "https://dc.lft.to/lastmile_qr_scan", "android": "https://dc.lft.to/lastmile_qr_scan"}, "is_reserved": 0}, {"lon": -76.94978116666667, "bike_id": "920e8f22eae914b47f2ec9c8ca33d24a", "lat": 38.89373166666667, "fusion_lon": 0.0, "fusion_lat": 0.0, "type": "electric_scooter", "name": "920e8f22eae914b47f2ec9c8ca33d24a", "is_disabled": 0, "rental_uris": {"ios": "https://dc.lft.to/lastmile_qr_scan", "android": "https://dc.lft.to/lastmile_qr_scan"}, "is_reserved": 0}, {"lon": -77.03820866666666, "bike_id": "3141361da6c5793e1f9a59ed5aaeefe4", "lat": 38.910339, "fusion_lon": 0.0, "fusion_lat": 0.0, "type": "electric_scooter", "name": "3141361da6c5793e1f9a59ed5aaeefe4", "is_disabled": 0, "rental_uris": {"ios": "https://dc.lft.to/lastmile_qr_scan", "android": "https://dc.lft.to/lastmile_qr_scan"}, "is_reserved": 0}, {"lon": -77.00063983333334, "bike_id": "4f6caa56a04ec7894c15c21acd8ce13a", "lat": 38.89989333333333, "fusion_lon": 0.0, "fusion_lat": 0.0, "type": "electric_scooter", "name": "4f6caa56a04ec7894c15c21acd8ce13a", "is_disabled": 0, "rental_uris": {"ios": "https://dc.lft.to/lastmile_qr_scan", "android": "https://dc.lft.to/lastmile_qr_scan"}, "is_reserved": 0}, {"lon": -77.04336, "bike_id": "76cc53027b93e152ccbe5ebd375c8d29", "lat": 38.907074333333334, "fusion_lon": 0.0, "fusion_lat": 0.0, "type": "electric_scooter", "name": "76cc53027b93e152ccbe5ebd375c8d29", "is_disabled": 0, "rental_uris": {"ios": "https://dc.lft.to/lastmile_qr_scan", "android": "https://dc.lft.to/lastmile_qr_scan"}, "is_reserved": 0}, {"lon": -77.02362966666666, "bike_id": "de035e7317e7e2c05d300d704ac42459", "lat": 38.9073165, "fusion_lon": 0.0, "fusion_lat": 0.0, "type": "electric_scooter", "name": "de035e7317e7e2c05d300d704ac42459", "is_disabled": 0, "rental_uris": {"ios": "https://dc.lft.to/lastmile_qr_scan", "android": "https://dc.lft.to/lastmile_qr_scan"}, "is_reserved": 0}, {"lon": -77.04380683333333, "bike_id": "43ea5099513f4b18a04a419e8bbcf473", "lat": 38.91872333333333, "fusion_lon": 0.0, "fusion_lat": 0.0, "type": "electric_scooter", "name": "43ea5099513f4b18a04a419e8bbcf473", "is_disabled": 0, "rental_uris": {"ios": "https://dc.lft.to/lastmile_qr_scan", "android": "https://dc.lft.to/lastmile_qr_scan"}, "is_reserved": 0}, {"lon": -77.048612, "bike_id": "a40b24a1941fc54cdf973cce56284e04", "lat": 38.916207166666666, "fusion_lon": 0.0, "fusion_lat": 0.0, "type": "electric_scooter", "name": "a40b24a1941fc54cdf973cce56284e04", "is_disabled": 0, "rental_uris": {"ios": "https://dc.lft.to/lastmile_qr_scan", "android": "https://dc.lft.to/lastmile_qr_scan"}, "is_reserved": 0}, {"lon": -77.05043416666666, "bike_id": "bbdf7f98ae2a04f0726c3ef75f01f61e", "lat": 38.923613833333334, "fusion_lon": 0.0, "fusion_lat": 0.0, "type": "electric_scooter", "name": "bbdf7f98ae2a04f0726c3ef75f01f61e", "is_disabled": 0, "rental_uris": {"ios": "https://dc.lft.to/lastmile_qr_scan", "android": "https://dc.lft.to/lastmile_qr_scan"}, "is_reserved": 0}, {"lon": -77.0379695, "bike_id": "480fb5d4f5fef537c066f933193f29d9", "lat": 38.91037383333333, "fusion_lon": 0.0, "fusion_lat": 0.0, "type": "electric_scooter", "name": "480fb5d4f5fef537c066f933193f29d9", "is_disabled": 0, "rental_uris": {"ios": "https://dc.lft.to/lastmile_qr_scan", "android": "https://dc.lft.to/lastmile_qr_scan"}, "is_reserved": 0}, {"lon": -77.03307366666667, "bike_id": "3ae2442f3f7dcb218c441e2d3f48a378", "lat": 38.901316, "fusion_lon": 0.0, "fusion_lat": 0.0, "type": "electric_scooter", "name": "3ae2442f3f7dcb218c441e2d3f48a378", "is_disabled": 0, "rental_uris": {"ios": "https://dc.lft.to/lastmile_qr_scan", "android": "https://dc.lft.to/lastmile_qr_scan"}, "is_reserved": 0}, {"lon": -77.03268116666666, "bike_id": "30417b42ec680d753aa48642881eebaa", "lat": 38.928642333333336, "fusion_lon": 0.0, "fusion_lat": 0.0, "type": "electric_scooter", "name": "30417b42ec680d753aa48642881eebaa", "is_disabled": 0, "rental_uris": {"ios": "https://dc.lft.to/lastmile_qr_scan", "android": "https://dc.lft.to/lastmile_qr_scan"}, "is_reserved": 0}, {"lon": -77.026475, "bike_id": "9ce45de41fbe1ded7e483674917c9d97", "lat": 38.927765666666666, "fusion_lon": 0.0, "fusion_lat": 0.0, "type": "electric_scooter", "name": "9ce45de41fbe1ded7e483674917c9d97", "is_disabled": 0, "rental_uris": {"ios": "https://dc.lft.to/lastmile_qr_scan", "android": "https://dc.lft.to/lastmile_qr_scan"}, "is_reserved": 0}, {"lon": -77.05042016666667, "bike_id": "2b38726a73fd173cf96457d8ed84dfad", "lat": 38.9005265, "fusion_lon": 0.0, "fusion_lat": 0.0, "type": "electric_scooter", "name": "2b38726a73fd173cf96457d8ed84dfad", "is_disabled": 0, "rental_uris": {"ios": "https://dc.lft.to/lastmile_qr_scan", "android": "https://dc.lft.to/lastmile_qr_scan"}, "is_reserved": 0}, {"lon": -77.00196633333333, "bike_id": "3dbee17134c4cdec2d39336ad081b144", "lat": 38.90240383333333, "fusion_lon": 0.0, "fusion_lat": 0.0, "type": "electric_scooter", "name": "3dbee17134c4cdec2d39336ad081b144", "is_disabled": 0, "rental_uris": {"ios": "https://dc.lft.to/lastmile_qr_scan", "android": "https://dc.lft.to/lastmile_qr_scan"}, "is_reserved": 0}, {"lon": -77.03662616666666, "bike_id": "76b9ab6c3ca1f6b3bef071dc1c40cc81", "lat": 38.921402666666665, "fusion_lon": 0.0, "fusion_lat": 0.0, "type": "electric_scooter", "name": "76b9ab6c3ca1f6b3bef071dc1c40cc81", "is_disabled": 0, "rental_uris": {"ios": "https://dc.lft.to/lastmile_qr_scan", "android": "https://dc.lft.to/lastmile_qr_scan"}, "is_reserved": 0}, {"lon": -77.03880683333334, "bike_id": "40367a1fcb626ee43753080000b94acb", "lat": 38.92965, "fusion_lon": 0.0, "fusion_lat": 0.0, "type": "electric_scooter", "name": "40367a1fcb626ee43753080000b94acb", "is_disabled": 0, "rental_uris": {"ios": "https://dc.lft.to/lastmile_qr_scan", "android": "https://dc.lft.to/lastmile_qr_scan"}, "is_reserved": 0}, {"lon": -77.05435766666666, "bike_id": "dd0b41fc297287f1de3ee62ad21feff1", "lat": 38.83682316666667, "fusion_lon": 0.0, "fusion_lat": 0.0, "type": "electric_bike", "name": "dd0b41fc297287f1de3ee62ad21feff1", "is_disabled": 0, "rental_uris": {"ios": "https://dc.lft.to/lastmile_qr_scan", "android": "https://dc.lft.to/lastmile_qr_scan"}, "is_reserved": 0}, {"lon": -77.03204116666667, "bike_id": "21bed85c17a5a7c19d68bcccbb07c253", "lat": 38.9440685, "fusion_lon": 0.0, "fusion_lat": 0.0, "type": "electric_scooter", "name": "21bed85c17a5a7c19d68bcccbb07c253", "is_disabled": 0, "rental_uris": {"ios": "https://dc.lft.to/lastmile_qr_scan", "android": "https://dc.lft.to/lastmile_qr_scan"}, "is_reserved": 0}, {"lon": -77.00028683333333, "bike_id": "96f4fae6c1552dae041844d02ec1cadc", "lat": 38.967935833333335, "fusion_lon": 0.0, "fusion_lat": 0.0, "type": "electric_bike", "name": "96f4fae6c1552dae041844d02ec1cadc", "is_disabled": 0, "rental_uris": {"ios": "https://dc.lft.to/lastmile_qr_scan", "android": "https://dc.lft.to/lastmile_qr_scan"}, "is_reserved": 0}, {"lon": -77.0456505, "bike_id": "4bf447f2c105f2d465394a1bc26747f3", "lat": 38.89608583333333, "fusion_lon": 0.0, "fusion_lat": 0.0, "type": "electric_scooter", "name": "4bf447f2c105f2d465394a1bc26747f3", "is_disabled": 0, "rental_uris": {"ios": "https://dc.lft.to/lastmile_qr_scan", "android": "https://dc.lft.to/lastmile_qr_scan"}, "is_reserved": 0}, {"lon": -77.03188333333334, "bike_id": "43b8dc34f781a5c0a766f166b2e085f1", "lat": 38.91743616666667, "fusion_lon": 0.0, "fusion_lat": 0.0, "type": "electric_scooter", "name": "43b8dc34f781a5c0a766f166b2e085f1", "is_disabled": 0, "rental_uris": {"ios": "https://dc.lft.to/lastmile_qr_scan", "android": "https://dc.lft.to/lastmile_qr_scan"}, "is_reserved": 0}, {"lon": -76.94566083333333, "bike_id": "5b7f2036d93123be57315854605dbb63", "lat": 38.866209166666664, "fusion_lon": 0.0, "fusion_lat": 0.0, "type": "electric_bike", "name": "5b7f2036d93123be57315854605dbb63", "is_disabled": 0, "rental_uris": {"ios": "https://dc.lft.to/lastmile_qr_scan", "android": "https://dc.lft.to/lastmile_qr_scan"}, "is_reserved": 0}, {"lon": -77.03335966666667, "bike_id": "7851e497df9d4ee95d21486d130585d0", "lat": 38.936407333333335, "fusion_lon": 0.0, "fusion_lat": 0.0, "type": "electric_scooter", "name": "7851e497df9d4ee95d21486d130585d0", "is_disabled": 0, "rental_uris": {"ios": "https://dc.lft.to/lastmile_qr_scan", "android": "https://dc.lft.to/lastmile_qr_scan"}, "is_reserved": 0}, {"lon": -77.03185816666667, "bike_id": "098c3c8edeed25f91b79f6288a6663d0", "lat": 38.918435, "fusion_lon": 0.0, "fusion_lat": 0.0, "type": "electric_scooter", "name": "098c3c8edeed25f91b79f6288a6663d0", "is_disabled": 0, "rental_uris": {"ios": "https://dc.lft.to/lastmile_qr_scan", "android": "https://dc.lft.to/lastmile_qr_scan"}, "is_reserved": 0}, {"lon": -77.039591, "bike_id": "1e6ce6e6d91bcf1d12a24cfdb4b27dac", "lat": 38.91358683333333, "fusion_lon": 0.0, "fusion_lat": 0.0, "type": "electric_scooter", "name": "1e6ce6e6d91bcf1d12a24cfdb4b27dac", "is_disabled": 0, "rental_uris": {"ios": "https://dc.lft.to/lastmile_qr_scan", "android": "https://dc.lft.to/lastmile_qr_scan"}, "is_reserved": 0}, {"lon": -77.055738, "bike_id": "357680c58ab165904d9aa1caf543038b", "lat": 38.91596366666667, "fusion_lon": 0.0, "fusion_lat": 0.0, "type": "electric_scooter", "name": "357680c58ab165904d9aa1caf543038b", "is_disabled": 0, "rental_uris": {"ios": "https://dc.lft.to/lastmile_qr_scan", "android": "https://dc.lft.to/lastmile_qr_scan"}, "is_reserved": 0}, {"lon": -77.02569666666666, "bike_id": "4879496551f626f623935f4e65002322", "lat": 38.8972825, "fusion_lon": 0.0, "fusion_lat": 0.0, "type": "electric_scooter", "name": "4879496551f626f623935f4e65002322", "is_disabled": 0, "rental_uris": {"ios": "https://dc.lft.to/lastmile_qr_scan", "android": "https://dc.lft.to/lastmile_qr_scan"}, "is_reserved": 0}, {"lon": -77.03918383333334, "bike_id": "e78bf940df5d035441c2512cfbd02c23", "lat": 38.9262035, "fusion_lon": 0.0, "fusion_lat": 0.0, "type": "electric_scooter", "name": "e78bf940df5d035441c2512cfbd02c23", "is_disabled": 0, "rental_uris": {"ios": "https://dc.lft.to/lastmile_qr_scan", "android": "https://dc.lft.to/lastmile_qr_scan"}, "is_reserved": 0}, {"lon": -76.99002766666666, "bike_id": "832125132c8d32cef1a96f64d43a825b", "lat": 38.86504716666666, "fusion_lon": 0.0, "fusion_lat": 0.0, "type": "electric_scooter", "name": "832125132c8d32cef1a96f64d43a825b", "is_disabled": 0, "rental_uris": {"ios": "https://dc.lft.to/lastmile_qr_scan", "android": "https://dc.lft.to/lastmile_qr_scan"}, "is_reserved": 0}, {"lon": -77.02484616666666, "bike_id": "6313d2087bce0f1e7fa5a69f00538a7a", "lat": 38.880213499999996, "fusion_lon": 0.0, "fusion_lat": 0.0, "type": "electric_scooter", "name": "6313d2087bce0f1e7fa5a69f00538a7a", "is_disabled": 0, "rental_uris": {"ios": "https://dc.lft.to/lastmile_qr_scan", "android": "https://dc.lft.to/lastmile_qr_scan"}, "is_reserved": 0}, {"lon": -77.03307416666667, "bike_id": "48ad4d8f8f1fbf5754b1717ed271680c", "lat": 38.903781333333335, "fusion_lon": 0.0, "fusion_lat": 0.0, "type": "electric_scooter", "name": "48ad4d8f8f1fbf5754b1717ed271680c", "is_disabled": 0, "rental_uris": {"ios": "https://dc.lft.to/lastmile_qr_scan", "android": "https://dc.lft.to/lastmile_qr_scan"}, "is_reserved": 0}, {"lon": -77.03205516666667, "bike_id": "05dc4caff304ddc08997fed3e0158605", "lat": 38.91814516666667, "fusion_lon": 0.0, "fusion_lat": 0.0, "type": "electric_scooter", "name": "05dc4caff304ddc08997fed3e0158605", "is_disabled": 0, "rental_uris": {"ios": "https://dc.lft.to/lastmile_qr_scan", "android": "https://dc.lft.to/lastmile_qr_scan"}, "is_reserved": 0}, {"lon": -76.9871875, "bike_id": "af18f594a4233f42a06d9f4b40d6a072", "lat": 38.867064666666664, "fusion_lon": 0.0, "fusion_lat": 0.0, "type": "electric_scooter", "name": "af18f594a4233f42a06d9f4b40d6a072", "is_disabled": 0, "rental_uris": {"ios": "https://dc.lft.to/lastmile_qr_scan", "android": "https://dc.lft.to/lastmile_qr_scan"}, "is_reserved": 0}, {"lon": -77.04419833333333, "bike_id": "99e871abf50bd928e90d77688f3ec6af", "lat": 38.9113215, "fusion_lon": 0.0, "fusion_lat": 0.0, "type": "electric_scooter", "name": "99e871abf50bd928e90d77688f3ec6af", "is_disabled": 0, "rental_uris": {"ios": "https://dc.lft.to/lastmile_qr_scan", "android": "https://dc.lft.to/lastmile_qr_scan"}, "is_reserved": 0}, {"lon": -77.02083266666666, "bike_id": "d652b1ca4c918180de49537fe68d2a5e", "lat": 38.9574805, "fusion_lon": 0.0, "fusion_lat": 0.0, "type": "electric_scooter", "name": "d652b1ca4c918180de49537fe68d2a5e", "is_disabled": 0, "rental_uris": {"ios": "https://dc.lft.to/lastmile_qr_scan", "android": "https://dc.lft.to/lastmile_qr_scan"}, "is_reserved": 0}, {"lon": -77.0143555, "bike_id": "b29acc7a957055aee6edc7411a0725b2", "lat": 38.879341, "fusion_lon": 0.0, "fusion_lat": 0.0, "type": "electric_bike", "name": "b29acc7a957055aee6edc7411a0725b2", "is_disabled": 0, "rental_uris": {"ios": "https://dc.lft.to/lastmile_qr_scan", "android": "https://dc.lft.to/lastmile_qr_scan"}, "is_reserved": 0}, {"lon": -77.02385833333334, "bike_id": "6ccabdb459d1c4c3f2b3deb08ea22cce", "lat": 38.93424916666667, "fusion_lon": 0.0, "fusion_lat": 0.0, "type": "electric_bike", "name": "6ccabdb459d1c4c3f2b3deb08ea22cce", "is_disabled": 0, "rental_uris": {"ios": "https://dc.lft.to/lastmile_qr_scan", "android": "https://dc.lft.to/lastmile_qr_scan"}, "is_reserved": 0}, {"lon": -76.9753405, "bike_id": "59985b0f503b63703bffbfa7ebbd2b59", "lat": 38.903309, "fusion_lon": 0.0, "fusion_lat": 0.0, "type": "electric_bike", "name": "59985b0f503b63703bffbfa7ebbd2b59", "is_disabled": 0, "rental_uris": {"ios": "https://dc.lft.to/lastmile_qr_scan", "android": "https://dc.lft.to/lastmile_qr_scan"}, "is_reserved": 0}, {"lon": -77.04265933333333, "bike_id": "ce67032e8c43477f7ea441bb244ac0d8", "lat": 38.92231833333334, "fusion_lon": 0.0, "fusion_lat": 0.0, "type": "electric_scooter", "name": "ce67032e8c43477f7ea441bb244ac0d8", "is_disabled": 0, "rental_uris": {"ios": "https://dc.lft.to/lastmile_qr_scan", "android": "https://dc.lft.to/lastmile_qr_scan"}, "is_reserved": 0}, {"lon": -77.01666833333333, "bike_id": "18ca16a58559755ec538a2971df26347", "lat": 38.91738466666666, "fusion_lon": 0.0, "fusion_lat": 0.0, "type": "electric_scooter", "name": "18ca16a58559755ec538a2971df26347", "is_disabled": 0, "rental_uris": {"ios": "https://dc.lft.to/lastmile_qr_scan", "android": "https://dc.lft.to/lastmile_qr_scan"}, "is_reserved": 0}, {"lon": -77.117838, "bike_id": "8ed7c15995e9f6ba113a7c06a5b17136", "lat": 39.0549435, "fusion_lon": 0.0, "fusion_lat": 0.0, "type": "electric_bike", "name": "8ed7c15995e9f6ba113a7c06a5b17136", "is_disabled": 0, "rental_uris": {"ios": "https://dc.lft.to/lastmile_qr_scan", "android": "https://dc.lft.to/lastmile_qr_scan"}, "is_reserved": 0}, {"lon": -77.03611166666667, "bike_id": "a3096171dc18b947913877e3cdecafd5", "lat": 38.9232725, "fusion_lon": 0.0, "fusion_lat": 0.0, "type": "electric_scooter", "name": "a3096171dc18b947913877e3cdecafd5", "is_disabled": 0, "rental_uris": {"ios": "https://dc.lft.to/lastmile_qr_scan", "android": "https://dc.lft.to/lastmile_qr_scan"}, "is_reserved": 0}, {"lon": -77.041649, "bike_id": "18a9e8ef882387c56d81b50aac022c2a", "lat": 38.919774, "fusion_lon": 0.0, "fusion_lat": 0.0, "type": "electric_scooter", "name": "18a9e8ef882387c56d81b50aac022c2a", "is_disabled": 0, "rental_uris": {"ios": "https://dc.lft.to/lastmile_qr_scan", "android": "https://dc.lft.to/lastmile_qr_scan"}, "is_reserved": 0}, {"lon": -77.04867433333334, "bike_id": "a889d63267443520c50637d26ffdaad6", "lat": 38.904812666666665, "fusion_lon": 0.0, "fusion_lat": 0.0, "type": "electric_bike", "name": "a889d63267443520c50637d26ffdaad6", "is_disabled": 0, "rental_uris": {"ios": "https://dc.lft.to/lastmile_qr_scan", "android": "https://dc.lft.to/lastmile_qr_scan"}, "is_reserved": 0}, {"lon": -77.04484716666667, "bike_id": "5b378076f53448372aaa1bc691a98cd1", "lat": 38.8924005, "fusion_lon": 0.0, "fusion_lat": 0.0, "type": "electric_scooter", "name": "5b378076f53448372aaa1bc691a98cd1", "is_disabled": 0, "rental_uris": {"ios": "https://dc.lft.to/lastmile_qr_scan", "android": "https://dc.lft.to/lastmile_qr_scan"}, "is_reserved": 0}, {"lon": -77.03273016666667, "bike_id": "01bdae72892322ac997d807573acc40f", "lat": 38.94155683333334, "fusion_lon": 0.0, "fusion_lat": 0.0, "type": "electric_scooter", "name": "01bdae72892322ac997d807573acc40f", "is_disabled": 0, "rental_uris": {"ios": "https://dc.lft.to/lastmile_qr_scan", "android": "https://dc.lft.to/lastmile_qr_scan"}, "is_reserved": 0}, {"lon": -77.02455616666667, "bike_id": "25bdecd58f62091a5762018c91b11c0a", "lat": 38.93860333333333, "fusion_lon": 0.0, "fusion_lat": 0.0, "type": "electric_scooter", "name": "25bdecd58f62091a5762018c91b11c0a", "is_disabled": 0, "rental_uris": {"ios": "https://dc.lft.to/lastmile_qr_scan", "android": "https://dc.lft.to/lastmile_qr_scan"}, "is_reserved": 0}, {"lon": -77.034684, "bike_id": "cde95235544a1b6a223cdc6221d47df9", "lat": 38.90727833333333, "fusion_lon": 0.0, "fusion_lat": 0.0, "type": "electric_scooter", "name": "cde95235544a1b6a223cdc6221d47df9", "is_disabled": 0, "rental_uris": {"ios": "https://dc.lft.to/lastmile_qr_scan", "android": "https://dc.lft.to/lastmile_qr_scan"}, "is_reserved": 0}, {"lon": -77.03366266666667, "bike_id": "74fbbe461c531f520947c2297a699966", "lat": 38.928875166666664, "fusion_lon": 0.0, "fusion_lat": 0.0, "type": "electric_scooter", "name": "74fbbe461c531f520947c2297a699966", "is_disabled": 0, "rental_uris": {"ios": "https://dc.lft.to/lastmile_qr_scan", "android": "https://dc.lft.to/lastmile_qr_scan"}, "is_reserved": 0}, {"lon": -76.97327766666666, "bike_id": "480f8ec659b40d7f0b35f5fda0411f50", "lat": 38.90413783333333, "fusion_lon": 0.0, "fusion_lat": 0.0, "type": "electric_scooter", "name": "480f8ec659b40d7f0b35f5fda0411f50", "is_disabled": 0, "rental_uris": {"ios": "https://dc.lft.to/lastmile_qr_scan", "android": "https://dc.lft.to/lastmile_qr_scan"}, "is_reserved": 0}, {"lon": -77.03293383333333, "bike_id": "f2da18625b800a6a862a51355597b270", "lat": 38.92628283333333, "fusion_lon": 0.0, "fusion_lat": 0.0, "type": "electric_bike", "name": "f2da18625b800a6a862a51355597b270", "is_disabled": 0, "rental_uris": {"ios": "https://dc.lft.to/lastmile_qr_scan", "android": "https://dc.lft.to/lastmile_qr_scan"}, "is_reserved": 0}, {"lon": -77.03273983333334, "bike_id": "a055cfc97d100f4638f506b261f4c968", "lat": 38.91404966666666, "fusion_lon": 0.0, "fusion_lat": 0.0, "type": "electric_scooter", "name": "a055cfc97d100f4638f506b261f4c968", "is_disabled": 0, "rental_uris": {"ios": "https://dc.lft.to/lastmile_qr_scan", "android": "https://dc.lft.to/lastmile_qr_scan"}, "is_reserved": 0}, {"lon": -77.03872966666667, "bike_id": "75eb376f5484760481db95f11ef50fa0", "lat": 38.912668333333336, "fusion_lon": 0.0, "fusion_lat": 0.0, "type": "electric_scooter", "name": "75eb376f5484760481db95f11ef50fa0", "is_disabled": 0, "rental_uris": {"ios": "https://dc.lft.to/lastmile_qr_scan", "android": "https://dc.lft.to/lastmile_qr_scan"}, "is_reserved": 0}, {"lon": -77.06859316666667, "bike_id": "a6767fdba7a74b98e3ba12ada68e6aca", "lat": 38.93815383333333, "fusion_lon": 0.0, "fusion_lat": 0.0, "type": "electric_bike", "name": "a6767fdba7a74b98e3ba12ada68e6aca", "is_disabled": 0, "rental_uris": {"ios": "https://dc.lft.to/lastmile_qr_scan", "android": "https://dc.lft.to/lastmile_qr_scan"}, "is_reserved": 0}, {"lon": -77.0088715, "bike_id": "326f9d68987fcc4d6bae820e1a0c0238", "lat": 38.9162975, "fusion_lon": 0.0, "fusion_lat": 0.0, "type": "electric_bike", "name": "326f9d68987fcc4d6bae820e1a0c0238", "is_disabled": 0, "rental_uris": {"ios": "https://dc.lft.to/lastmile_qr_scan", "android": "https://dc.lft.to/lastmile_qr_scan"}, "is_reserved": 0}, {"lon": -77.01328316666667, "bike_id": "c9af05b6b72c6b77320ec808fe02ca19", "lat": 38.899903333333334, "fusion_lon": 0.0, "fusion_lat": 0.0, "type": "electric_scooter", "name": "c9af05b6b72c6b77320ec808fe02ca19", "is_disabled": 0, "rental_uris": {"ios": "https://dc.lft.to/lastmile_qr_scan", "android": "https://dc.lft.to/lastmile_qr_scan"}, "is_reserved": 0}, {"lon": -76.98526833333334, "bike_id": "5f3576caf284631b2a3096dac903348b", "lat": 38.866867, "fusion_lon": 0.0, "fusion_lat": 0.0, "type": "electric_scooter", "name": "5f3576caf284631b2a3096dac903348b", "is_disabled": 0, "rental_uris": {"ios": "https://dc.lft.to/lastmile_qr_scan", "android": "https://dc.lft.to/lastmile_qr_scan"}, "is_reserved": 0}, {"lon": -76.94202816666666, "bike_id": "5177ddcd8706be7d20ed53c7689657e0", "lat": 38.89312866666667, "fusion_lon": 0.0, "fusion_lat": 0.0, "type": "electric_bike", "name": "5177ddcd8706be7d20ed53c7689657e0", "is_disabled": 0, "rental_uris": {"ios": "https://dc.lft.to/lastmile_qr_scan", "android": "https://dc.lft.to/lastmile_qr_scan"}, "is_reserved": 0}, {"lon": -77.03514533333333, "bike_id": "520798504eb82d073665f850851da67d", "lat": 38.9233085, "fusion_lon": 0.0, "fusion_lat": 0.0, "type": "electric_scooter", "name": "520798504eb82d073665f850851da67d", "is_disabled": 0, "rental_uris": {"ios": "https://dc.lft.to/lastmile_qr_scan", "android": "https://dc.lft.to/lastmile_qr_scan"}, "is_reserved": 0}, {"lon": -77.022252, "bike_id": "1a4bed1570920276b88729ec7f9ab7f9", "lat": 38.91249633333334, "fusion_lon": 0.0, "fusion_lat": 0.0, "type": "electric_scooter", "name": "1a4bed1570920276b88729ec7f9ab7f9", "is_disabled": 0, "rental_uris": {"ios": "https://dc.lft.to/lastmile_qr_scan", "android": "https://dc.lft.to/lastmile_qr_scan"}, "is_reserved": 0}, {"lon": -76.97734083333333, "bike_id": "8dee0e44c68c9097db9881da3387f555", "lat": 38.86488266666667, "fusion_lon": 0.0, "fusion_lat": 0.0, "type": "electric_bike", "name": "8dee0e44c68c9097db9881da3387f555", "is_disabled": 0, "rental_uris": {"ios": "https://dc.lft.to/lastmile_qr_scan", "android": "https://dc.lft.to/lastmile_qr_scan"}, "is_reserved": 0}, {"lon": -76.989979, "bike_id": "7b82f0af11142eb2c4598d49f4c4bdbf", "lat": 38.903903, "fusion_lon": 0.0, "fusion_lat": 0.0, "type": "electric_scooter", "name": "7b82f0af11142eb2c4598d49f4c4bdbf", "is_disabled": 0, "rental_uris": {"ios": "https://dc.lft.to/lastmile_qr_scan", "android": "https://dc.lft.to/lastmile_qr_scan"}, "is_reserved": 0}, {"lon": -77.185628, "bike_id": "599ed58e2eb30d3755a4c3156e2dba0e", "lat": 39.099751499999996, "fusion_lon": 0.0, "fusion_lat": 0.0, "type": "electric_bike", "name": "599ed58e2eb30d3755a4c3156e2dba0e", "is_disabled": 0, "rental_uris": {"ios": "https://dc.lft.to/lastmile_qr_scan", "android": "https://dc.lft.to/lastmile_qr_scan"}, "is_reserved": 0}, {"lon": -76.96259783333333, "bike_id": "b35e4482eb8323543b0e00f0b21e11b6", "lat": 38.88245833333333, "fusion_lon": 0.0, "fusion_lat": 0.0, "type": "electric_bike", "name": "b35e4482eb8323543b0e00f0b21e11b6", "is_disabled": 0, "rental_uris": {"ios": "https://dc.lft.to/lastmile_qr_scan", "android": "https://dc.lft.to/lastmile_qr_scan"}, "is_reserved": 0}, {"lon": -76.98357416666667, "bike_id": "7851cbbdac66d59a7594230ab5dd46f7", "lat": 38.892051333333335, "fusion_lon": 0.0, "fusion_lat": 0.0, "type": "electric_bike", "name": "7851cbbdac66d59a7594230ab5dd46f7", "is_disabled": 0, "rental_uris": {"ios": "https://dc.lft.to/lastmile_qr_scan", "android": "https://dc.lft.to/lastmile_qr_scan"}, "is_reserved": 0}, {"lon": -77.00713116666667, "bike_id": "377fb124b8ea9cb88c7537a2ba31058f", "lat": 38.9459925, "fusion_lon": 0.0, "fusion_lat": 0.0, "type": "electric_bike", "name": "377fb124b8ea9cb88c7537a2ba31058f", "is_disabled": 0, "rental_uris": {"ios": "https://dc.lft.to/lastmile_qr_scan", "android": "https://dc.lft.to/lastmile_qr_scan"}, "is_reserved": 0}, {"lon": -77.02346833333333, "bike_id": "e0d16b175931faf8e1c27473d02b4d81", "lat": 38.93545233333333, "fusion_lon": 0.0, "fusion_lat": 0.0, "type": "electric_scooter", "name": "e0d16b175931faf8e1c27473d02b4d81", "is_disabled": 0, "rental_uris": {"ios": "https://dc.lft.to/lastmile_qr_scan", "android": "https://dc.lft.to/lastmile_qr_scan"}, "is_reserved": 0}, {"lon": -77.0317015, "bike_id": "fa47ac9c0430a6df6caa00a469719677", "lat": 38.93594516666667, "fusion_lon": 0.0, "fusion_lat": 0.0, "type": "electric_scooter", "name": "fa47ac9c0430a6df6caa00a469719677", "is_disabled": 0, "rental_uris": {"ios": "https://dc.lft.to/lastmile_qr_scan", "android": "https://dc.lft.to/lastmile_qr_scan"}, "is_reserved": 0}, {"lon": -77.03401133333334, "bike_id": "a776cfce48908fdc23845192bcce33fc", "lat": 38.9204405, "fusion_lon": 0.0, "fusion_lat": 0.0, "type": "electric_scooter", "name": "a776cfce48908fdc23845192bcce33fc", "is_disabled": 0, "rental_uris": {"ios": "https://dc.lft.to/lastmile_qr_scan", "android": "https://dc.lft.to/lastmile_qr_scan"}, "is_reserved": 0}, {"lon": -77.04126216666667, "bike_id": "b04c65ed4794c496cc9c123806153ff6", "lat": 38.927206, "fusion_lon": 0.0, "fusion_lat": 0.0, "type": "electric_scooter", "name": "b04c65ed4794c496cc9c123806153ff6", "is_disabled": 0, "rental_uris": {"ios": "https://dc.lft.to/lastmile_qr_scan", "android": "https://dc.lft.to/lastmile_qr_scan"}, "is_reserved": 0}, {"lon": -77.04555383333333, "bike_id": "b41bad0a2842c5866a87423672f12d09", "lat": 38.915971, "fusion_lon": 0.0, "fusion_lat": 0.0, "type": "electric_scooter", "name": "b41bad0a2842c5866a87423672f12d09", "is_disabled": 0, "rental_uris": {"ios": "https://dc.lft.to/lastmile_qr_scan", "android": "https://dc.lft.to/lastmile_qr_scan"}, "is_reserved": 0}, {"lon": -77.006559, "bike_id": "d97c67592a1b8022ae33a288539cb7da", "lat": 38.94464466666667, "fusion_lon": 0.0, "fusion_lat": 0.0, "type": "electric_scooter", "name": "d97c67592a1b8022ae33a288539cb7da", "is_disabled": 0, "rental_uris": {"ios": "https://dc.lft.to/lastmile_qr_scan", "android": "https://dc.lft.to/lastmile_qr_scan"}, "is_reserved": 0}, {"lon": -77.04689516666667, "bike_id": "b84cd1b3801fc564c1d4efff01201264", "lat": 38.89223833333333, "fusion_lon": 0.0, "fusion_lat": 0.0, "type": "electric_scooter", "name": "b84cd1b3801fc564c1d4efff01201264", "is_disabled": 0, "rental_uris": {"ios": "https://dc.lft.to/lastmile_qr_scan", "android": "https://dc.lft.to/lastmile_qr_scan"}, "is_reserved": 0}, {"lon": -77.02985083333333, "bike_id": "8f9a75a2c555a5e1b6aeec1793757648", "lat": 38.90661583333333, "fusion_lon": 0.0, "fusion_lat": 0.0, "type": "electric_scooter", "name": "8f9a75a2c555a5e1b6aeec1793757648", "is_disabled": 0, "rental_uris": {"ios": "https://dc.lft.to/lastmile_qr_scan", "android": "https://dc.lft.to/lastmile_qr_scan"}, "is_reserved": 0}, {"lon": -76.958994, "bike_id": "619cfa937af63ce08007314cc489a092", "lat": 38.8900395, "fusion_lon": 0.0, "fusion_lat": 0.0, "type": "electric_scooter", "name": "619cfa937af63ce08007314cc489a092", "is_disabled": 0, "rental_uris": {"ios": "https://dc.lft.to/lastmile_qr_scan", "android": "https://dc.lft.to/lastmile_qr_scan"}, "is_reserved": 0}, {"lon": -77.02424783333333, "bike_id": "e012580f1771c0767cf6aa19c5c29350", "lat": 38.90408466666667, "fusion_lon": 0.0, "fusion_lat": 0.0, "type": "electric_scooter", "name": "e012580f1771c0767cf6aa19c5c29350", "is_disabled": 0, "rental_uris": {"ios": "https://dc.lft.to/lastmile_qr_scan", "android": "https://dc.lft.to/lastmile_qr_scan"}, "is_reserved": 0}, {"lon": -76.96360266666667, "bike_id": "741cbf84d6bfcfc22a41d62242c69e6e", "lat": 38.93501, "fusion_lon": 0.0, "fusion_lat": 0.0, "type": "electric_scooter", "name": "741cbf84d6bfcfc22a41d62242c69e6e", "is_disabled": 0, "rental_uris": {"ios": "https://dc.lft.to/lastmile_qr_scan", "android": "https://dc.lft.to/lastmile_qr_scan"}, "is_reserved": 0}, {"lon": -77.0384705, "bike_id": "1074f515c756d263e1055fee60acded5", "lat": 38.915467666666665, "fusion_lon": 0.0, "fusion_lat": 0.0, "type": "electric_scooter", "name": "1074f515c756d263e1055fee60acded5", "is_disabled": 0, "rental_uris": {"ios": "https://dc.lft.to/lastmile_qr_scan", "android": "https://dc.lft.to/lastmile_qr_scan"}, "is_reserved": 0}, {"lon": -77.038066, "bike_id": "da7e6874310cfe3ce04615d7656dea42", "lat": 38.93095116666667, "fusion_lon": 0.0, "fusion_lat": 0.0, "type": "electric_scooter", "name": "da7e6874310cfe3ce04615d7656dea42", "is_disabled": 0, "rental_uris": {"ios": "https://dc.lft.to/lastmile_qr_scan", "android": "https://dc.lft.to/lastmile_qr_scan"}, "is_reserved": 0}, {"lon": -77.03510566666667, "bike_id": "4b8b348218e0960fbd2c924f3d10e9d1", "lat": 38.92139233333333, "fusion_lon": 0.0, "fusion_lat": 0.0, "type": "electric_scooter", "name": "4b8b348218e0960fbd2c924f3d10e9d1", "is_disabled": 0, "rental_uris": {"ios": "https://dc.lft.to/lastmile_qr_scan", "android": "https://dc.lft.to/lastmile_qr_scan"}, "is_reserved": 0}, {"lon": -77.02115766666667, "bike_id": "f1384ea90178ff33eec5af0a3e619cae", "lat": 38.93699183333333, "fusion_lon": 0.0, "fusion_lat": 0.0, "type": "electric_scooter", "name": "f1384ea90178ff33eec5af0a3e619cae", "is_disabled": 0, "rental_uris": {"ios": "https://dc.lft.to/lastmile_qr_scan", "android": "https://dc.lft.to/lastmile_qr_scan"}, "is_reserved": 0}, {"lon": -77.00918033333333, "bike_id": "f029403a1b2c3237d4207e70a0ef73c3", "lat": 38.8278525, "fusion_lon": 0.0, "fusion_lat": 0.0, "type": "electric_bike", "name": "f029403a1b2c3237d4207e70a0ef73c3", "is_disabled": 0, "rental_uris": {"ios": "https://dc.lft.to/lastmile_qr_scan", "android": "https://dc.lft.to/lastmile_qr_scan"}, "is_reserved": 0}, {"lon": -77.04687383333334, "bike_id": "2fcfb1c30be84c45c030a57b088e65b3", "lat": 38.89221366666666, "fusion_lon": 0.0, "fusion_lat": 0.0, "type": "electric_scooter", "name": "2fcfb1c30be84c45c030a57b088e65b3", "is_disabled": 0, "rental_uris": {"ios": "https://dc.lft.to/lastmile_qr_scan", "android": "https://dc.lft.to/lastmile_qr_scan"}, "is_reserved": 0}, {"lon": -77.06761966666667, "bike_id": "f361d7be93d20cb417cf06d14de679a7", "lat": 38.90366016666667, "fusion_lon": 0.0, "fusion_lat": 0.0, "type": "electric_scooter", "name": "f361d7be93d20cb417cf06d14de679a7", "is_disabled": 0, "rental_uris": {"ios": "https://dc.lft.to/lastmile_qr_scan", "android": "https://dc.lft.to/lastmile_qr_scan"}, "is_reserved": 0}, {"lon": -77.0466385, "bike_id": "f6e54877c06affad91d8416b39e7f04c", "lat": 38.89664883333333, "fusion_lon": 0.0, "fusion_lat": 0.0, "type": "electric_scooter", "name": "f6e54877c06affad91d8416b39e7f04c", "is_disabled": 0, "rental_uris": {"ios": "https://dc.lft.to/lastmile_qr_scan", "android": "https://dc.lft.to/lastmile_qr_scan"}, "is_reserved": 0}, {"lon": -76.96766566666666, "bike_id": "0b82119597c5c2aa71152c126936b5f7", "lat": 38.86852, "fusion_lon": 0.0, "fusion_lat": 0.0, "type": "electric_scooter", "name": "0b82119597c5c2aa71152c126936b5f7", "is_disabled": 0, "rental_uris": {"ios": "https://dc.lft.to/lastmile_qr_scan", "android": "https://dc.lft.to/lastmile_qr_scan"}, "is_reserved": 0}, {"lon": -77.0393715, "bike_id": "3533f172c595c092a2ae0a74592da6da", "lat": 38.917090333333334, "fusion_lon": 0.0, "fusion_lat": 0.0, "type": "electric_scooter", "name": "3533f172c595c092a2ae0a74592da6da", "is_disabled": 0, "rental_uris": {"ios": "https://dc.lft.to/lastmile_qr_scan", "android": "https://dc.lft.to/lastmile_qr_scan"}, "is_reserved": 0}, {"lon": -77.04598183333333, "bike_id": "fafa631a71b22a8929fd45f706d363e4", "lat": 38.91618066666667, "fusion_lon": 0.0, "fusion_lat": 0.0, "type": "electric_scooter", "name": "fafa631a71b22a8929fd45f706d363e4", "is_disabled": 0, "rental_uris": {"ios": "https://dc.lft.to/lastmile_qr_scan", "android": "https://dc.lft.to/lastmile_qr_scan"}, "is_reserved": 0}, {"lon": -77.03304383333334, "bike_id": "58a711dee7c4bec1a4e95f3fc7b735d5", "lat": 38.9012955, "fusion_lon": 0.0, "fusion_lat": 0.0, "type": "electric_scooter", "name": "58a711dee7c4bec1a4e95f3fc7b735d5", "is_disabled": 0, "rental_uris": {"ios": "https://dc.lft.to/lastmile_qr_scan", "android": "https://dc.lft.to/lastmile_qr_scan"}, "is_reserved": 0}, {"lon": -77.0363275, "bike_id": "0e0e95d211c8f7264023102d07c98cf4", "lat": 38.91306816666667, "fusion_lon": 0.0, "fusion_lat": 0.0, "type": "electric_scooter", "name": "0e0e95d211c8f7264023102d07c98cf4", "is_disabled": 0, "rental_uris": {"ios": "https://dc.lft.to/lastmile_qr_scan", "android": "https://dc.lft.to/lastmile_qr_scan"}, "is_reserved": 0}, {"lon": -76.9690805, "bike_id": "1a14aa53b91a74384936334641c24304", "lat": 38.846146833333336, "fusion_lon": 0.0, "fusion_lat": 0.0, "type": "electric_bike", "name": "1a14aa53b91a74384936334641c24304", "is_disabled": 0, "rental_uris": {"ios": "https://dc.lft.to/lastmile_qr_scan", "android": "https://dc.lft.to/lastmile_qr_scan"}, "is_reserved": 0}, {"lon": -76.96154166666666, "bike_id": "7faf5e57a80e9627a453a69b66d4894a", "lat": 38.88359, "fusion_lon": 0.0, "fusion_lat": 0.0, "type": "electric_scooter", "name": "7faf5e57a80e9627a453a69b66d4894a", "is_disabled": 0, "rental_uris": {"ios": "https://dc.lft.to/lastmile_qr_scan", "android": "https://dc.lft.to/lastmile_qr_scan"}, "is_reserved": 0}, {"lon": -76.98337, "bike_id": "ce232fec63ba7d052f0bde1d6d6bac65", "lat": 38.895453, "fusion_lon": 0.0, "fusion_lat": 0.0, "type": "electric_scooter", "name": "ce232fec63ba7d052f0bde1d6d6bac65", "is_disabled": 0, "rental_uris": {"ios": "https://dc.lft.to/lastmile_qr_scan", "android": "https://dc.lft.to/lastmile_qr_scan"}, "is_reserved": 0}, {"lon": -77.03188016666667, "bike_id": "87db5d97b20bc014af3842cbea4f9566", "lat": 38.91583116666666, "fusion_lon": 0.0, "fusion_lat": 0.0, "type": "electric_scooter", "name": "87db5d97b20bc014af3842cbea4f9566", "is_disabled": 0, "rental_uris": {"ios": "https://dc.lft.to/lastmile_qr_scan", "android": "https://dc.lft.to/lastmile_qr_scan"}, "is_reserved": 0}, {"lon": -77.02410866666666, "bike_id": "6e8da270468dfed14bb69687d74521cb", "lat": 38.916849, "fusion_lon": 0.0, "fusion_lat": 0.0, "type": "electric_scooter", "name": "6e8da270468dfed14bb69687d74521cb", "is_disabled": 0, "rental_uris": {"ios": "https://dc.lft.to/lastmile_qr_scan", "android": "https://dc.lft.to/lastmile_qr_scan"}, "is_reserved": 0}, {"lon": -76.93279166666667, "bike_id": "30e404639825825b89c4f29ef79533aa", "lat": 38.95423266666667, "fusion_lon": 0.0, "fusion_lat": 0.0, "type": "electric_bike", "name": "30e404639825825b89c4f29ef79533aa", "is_disabled": 0, "rental_uris": {"ios": "https://dc.lft.to/lastmile_qr_scan", "android": "https://dc.lft.to/lastmile_qr_scan"}, "is_reserved": 0}, {"lon": -77.017507, "bike_id": "352e9256241fd968b14086c05f680798", "lat": 38.87669316666667, "fusion_lon": 0.0, "fusion_lat": 0.0, "type": "electric_scooter", "name": "352e9256241fd968b14086c05f680798", "is_disabled": 0, "rental_uris": {"ios": "https://dc.lft.to/lastmile_qr_scan", "android": "https://dc.lft.to/lastmile_qr_scan"}, "is_reserved": 0}, {"lon": -77.02951083333333, "bike_id": "1371e254dc41a336e87d012305674bbf", "lat": 38.896624, "fusion_lon": 0.0, "fusion_lat": 0.0, "type": "electric_scooter", "name": "1371e254dc41a336e87d012305674bbf", "is_disabled": 0, "rental_uris": {"ios": "https://dc.lft.to/lastmile_qr_scan", "android": "https://dc.lft.to/lastmile_qr_scan"}, "is_reserved": 0}, {"lon": -77.03198266666666, "bike_id": "76cc199648ca19f0cfedc970cdca62d3", "lat": 38.92777383333333, "fusion_lon": 0.0, "fusion_lat": 0.0, "type": "electric_scooter", "name": "76cc199648ca19f0cfedc970cdca62d3", "is_disabled": 0, "rental_uris": {"ios": "https://dc.lft.to/lastmile_qr_scan", "android": "https://dc.lft.to/lastmile_qr_scan"}, "is_reserved": 0}, {"lon": -77.055965, "bike_id": "40f8ba25214442f8a0a7417f647f1b4e", "lat": 38.936985166666666, "fusion_lon": 0.0, "fusion_lat": 0.0, "type": "electric_scooter", "name": "40f8ba25214442f8a0a7417f647f1b4e", "is_disabled": 0, "rental_uris": {"ios": "https://dc.lft.to/lastmile_qr_scan", "android": "https://dc.lft.to/lastmile_qr_scan"}, "is_reserved": 0}, {"lon": -77.03627383333334, "bike_id": "3bfddee8f42da0479264acf9d41e5416", "lat": 38.9155895, "fusion_lon": 0.0, "fusion_lat": 0.0, "type": "electric_scooter", "name": "3bfddee8f42da0479264acf9d41e5416", "is_disabled": 0, "rental_uris": {"ios": "https://dc.lft.to/lastmile_qr_scan", "android": "https://dc.lft.to/lastmile_qr_scan"}, "is_reserved": 0}, {"lon": -77.06119116666666, "bike_id": "cd706bf2ea7c58bef3a1c87f9255a919", "lat": 38.9052595, "fusion_lon": 0.0, "fusion_lat": 0.0, "type": "electric_scooter", "name": "cd706bf2ea7c58bef3a1c87f9255a919", "is_disabled": 0, "rental_uris": {"ios": "https://dc.lft.to/lastmile_qr_scan", "android": "https://dc.lft.to/lastmile_qr_scan"}, "is_reserved": 0}, {"lon": -76.9461505, "bike_id": "5a14b13ec62fd1ecc77e891ec3e6c5f9", "lat": 38.832301666666666, "fusion_lon": 0.0, "fusion_lat": 0.0, "type": "electric_bike", "name": "5a14b13ec62fd1ecc77e891ec3e6c5f9", "is_disabled": 0, "rental_uris": {"ios": "https://dc.lft.to/lastmile_qr_scan", "android": "https://dc.lft.to/lastmile_qr_scan"}, "is_reserved": 0}, {"lon": -77.035046, "bike_id": "d843d885958e591967c0f1793f3ca4ef", "lat": 38.911857166666664, "fusion_lon": 0.0, "fusion_lat": 0.0, "type": "electric_scooter", "name": "d843d885958e591967c0f1793f3ca4ef", "is_disabled": 0, "rental_uris": {"ios": "https://dc.lft.to/lastmile_qr_scan", "android": "https://dc.lft.to/lastmile_qr_scan"}, "is_reserved": 0}, {"lon": -77.01459483333333, "bike_id": "c3fb0c1e6300d577d869ded2f13c8672", "lat": 38.879379166666666, "fusion_lon": 0.0, "fusion_lat": 0.0, "type": "electric_scooter", "name": "c3fb0c1e6300d577d869ded2f13c8672", "is_disabled": 0, "rental_uris": {"ios": "https://dc.lft.to/lastmile_qr_scan", "android": "https://dc.lft.to/lastmile_qr_scan"}, "is_reserved": 0}, {"lon": -77.0199455, "bike_id": "3a5ca81365a1f07cf263335ed61f2b8a", "lat": 38.911634, "fusion_lon": 0.0, "fusion_lat": 0.0, "type": "electric_scooter", "name": "3a5ca81365a1f07cf263335ed61f2b8a", "is_disabled": 0, "rental_uris": {"ios": "https://dc.lft.to/lastmile_qr_scan", "android": "https://dc.lft.to/lastmile_qr_scan"}, "is_reserved": 0}, {"lon": -77.0012725, "bike_id": "3eddeba1409118f8a7c925937b0a1123", "lat": 38.878237, "fusion_lon": 0.0, "fusion_lat": 0.0, "type": "electric_scooter", "name": "3eddeba1409118f8a7c925937b0a1123", "is_disabled": 0, "rental_uris": {"ios": "https://dc.lft.to/lastmile_qr_scan", "android": "https://dc.lft.to/lastmile_qr_scan"}, "is_reserved": 0}, {"lon": -77.017844, "bike_id": "6644cf1d9396f1842b24f1437f16c07e", "lat": 38.9204625, "fusion_lon": 0.0, "fusion_lat": 0.0, "type": "electric_scooter", "name": "6644cf1d9396f1842b24f1437f16c07e", "is_disabled": 0, "rental_uris": {"ios": "https://dc.lft.to/lastmile_qr_scan", "android": "https://dc.lft.to/lastmile_qr_scan"}, "is_reserved": 0}, {"lon": -77.04471666666667, "bike_id": "975b84a8bc1a8b9efca922eed7ab0231", "lat": 38.908515, "fusion_lon": 0.0, "fusion_lat": 0.0, "type": "electric_scooter", "name": "975b84a8bc1a8b9efca922eed7ab0231", "is_disabled": 0, "rental_uris": {"ios": "https://dc.lft.to/lastmile_qr_scan", "android": "https://dc.lft.to/lastmile_qr_scan"}, "is_reserved": 0}, {"lon": -77.02966416666666, "bike_id": "97cc38063a002fe68c609c38113067c9", "lat": 38.924938833333336, "fusion_lon": 0.0, "fusion_lat": 0.0, "type": "electric_scooter", "name": "97cc38063a002fe68c609c38113067c9", "is_disabled": 0, "rental_uris": {"ios": "https://dc.lft.to/lastmile_qr_scan", "android": "https://dc.lft.to/lastmile_qr_scan"}, "is_reserved": 0}, {"lon": -77.0276435, "bike_id": "9fabcf523673cd4282b62892f7fa446b", "lat": 38.93461283333333, "fusion_lon": 0.0, "fusion_lat": 0.0, "type": "electric_scooter", "name": "9fabcf523673cd4282b62892f7fa446b", "is_disabled": 0, "rental_uris": {"ios": "https://dc.lft.to/lastmile_qr_scan", "android": "https://dc.lft.to/lastmile_qr_scan"}, "is_reserved": 0}, {"lon": -77.03516533333334, "bike_id": "6cccbf8a3fa9b4c9bde21599855af0ce", "lat": 38.921947833333334, "fusion_lon": 0.0, "fusion_lat": 0.0, "type": "electric_scooter", "name": "6cccbf8a3fa9b4c9bde21599855af0ce", "is_disabled": 0, "rental_uris": {"ios": "https://dc.lft.to/lastmile_qr_scan", "android": "https://dc.lft.to/lastmile_qr_scan"}, "is_reserved": 0}, {"lon": -77.0320815, "bike_id": "57f8ac920e532d7ca63fe3de055156e1", "lat": 38.90443633333334, "fusion_lon": 0.0, "fusion_lat": 0.0, "type": "electric_scooter", "name": "57f8ac920e532d7ca63fe3de055156e1", "is_disabled": 0, "rental_uris": {"ios": "https://dc.lft.to/lastmile_qr_scan", "android": "https://dc.lft.to/lastmile_qr_scan"}, "is_reserved": 0}, {"lon": -77.03910166666667, "bike_id": "ae4676f1ffddfe201fc0495dcf61ab5b", "lat": 38.925779666666664, "fusion_lon": 0.0, "fusion_lat": 0.0, "type": "electric_scooter", "name": "ae4676f1ffddfe201fc0495dcf61ab5b", "is_disabled": 0, "rental_uris": {"ios": "https://dc.lft.to/lastmile_qr_scan", "android": "https://dc.lft.to/lastmile_qr_scan"}, "is_reserved": 0}, {"lon": -77.08679566666666, "bike_id": "2584092cf920d0c45bd675606a184220", "lat": 38.873957833333336, "fusion_lon": 0.0, "fusion_lat": 0.0, "type": "electric_bike", "name": "2584092cf920d0c45bd675606a184220", "is_disabled": 0, "rental_uris": {"ios": "https://dc.lft.to/lastmile_qr_scan", "android": "https://dc.lft.to/lastmile_qr_scan"}, "is_reserved": 0}, {"lon": -77.03437766666667, "bike_id": "9e49a98221707a817cbfb79c7495f889", "lat": 38.91814766666667, "fusion_lon": 0.0, "fusion_lat": 0.0, "type": "electric_scooter", "name": "9e49a98221707a817cbfb79c7495f889", "is_disabled": 0, "rental_uris": {"ios": "https://dc.lft.to/lastmile_qr_scan", "android": "https://dc.lft.to/lastmile_qr_scan"}, "is_reserved": 0}, {"lon": -77.033819, "bike_id": "51224d03df19a25e32f48bf48293a3cd", "lat": 38.9384385, "fusion_lon": 0.0, "fusion_lat": 0.0, "type": "electric_scooter", "name": "51224d03df19a25e32f48bf48293a3cd", "is_disabled": 0, "rental_uris": {"ios": "https://dc.lft.to/lastmile_qr_scan", "android": "https://dc.lft.to/lastmile_qr_scan"}, "is_reserved": 0}, {"lon": -76.957466, "bike_id": "78f2ef2592929826b6078298e8c9cdad", "lat": 38.884327666666664, "fusion_lon": 0.0, "fusion_lat": 0.0, "type": "electric_scooter", "name": "78f2ef2592929826b6078298e8c9cdad", "is_disabled": 0, "rental_uris": {"ios": "https://dc.lft.to/lastmile_qr_scan", "android": "https://dc.lft.to/lastmile_qr_scan"}, "is_reserved": 0}, {"lon": -77.09964733333334, "bike_id": "3cafa0bc44d94d533fbfe54094619538", "lat": 38.85791966666667, "fusion_lon": 0.0, "fusion_lat": 0.0, "type": "electric_bike", "name": "3cafa0bc44d94d533fbfe54094619538", "is_disabled": 0, "rental_uris": {"ios": "https://dc.lft.to/lastmile_qr_scan", "android": "https://dc.lft.to/lastmile_qr_scan"}, "is_reserved": 0}, {"lon": -77.02505366666666, "bike_id": "e5d12d08b357fee12b83dc97a4c866f4", "lat": 38.92643183333333, "fusion_lon": 0.0, "fusion_lat": 0.0, "type": "electric_scooter", "name": "e5d12d08b357fee12b83dc97a4c866f4", "is_disabled": 0, "rental_uris": {"ios": "https://dc.lft.to/lastmile_qr_scan", "android": "https://dc.lft.to/lastmile_qr_scan"}, "is_reserved": 0}, {"lon": -77.04473866666666, "bike_id": "aae1040757b9b6f601ef91129c05fcd1", "lat": 38.90850416666667, "fusion_lon": 0.0, "fusion_lat": 0.0, "type": "electric_scooter", "name": "aae1040757b9b6f601ef91129c05fcd1", "is_disabled": 0, "rental_uris": {"ios": "https://dc.lft.to/lastmile_qr_scan", "android": "https://dc.lft.to/lastmile_qr_scan"}, "is_reserved": 0}, {"lon": -77.03658583333333, "bike_id": "a29dd72f1ab4abf90053bcdacef56303", "lat": 38.92283533333333, "fusion_lon": 0.0, "fusion_lat": 0.0, "type": "electric_scooter", "name": "a29dd72f1ab4abf90053bcdacef56303", "is_disabled": 0, "rental_uris": {"ios": "https://dc.lft.to/lastmile_qr_scan", "android": "https://dc.lft.to/lastmile_qr_scan"}, "is_reserved": 0}, {"lon": -76.95749416666666, "bike_id": "1a793c1175fa0a10078bc381f2c9257c", "lat": 38.884248166666666, "fusion_lon": 0.0, "fusion_lat": 0.0, "type": "electric_scooter", "name": "1a793c1175fa0a10078bc381f2c9257c", "is_disabled": 0, "rental_uris": {"ios": "https://dc.lft.to/lastmile_qr_scan", "android": "https://dc.lft.to/lastmile_qr_scan"}, "is_reserved": 0}, {"lon": -77.03049633333333, "bike_id": "31d738759ed73c469ed890b8fc928429", "lat": 38.884273666666665, "fusion_lon": 0.0, "fusion_lat": 0.0, "type": "electric_scooter", "name": "31d738759ed73c469ed890b8fc928429", "is_disabled": 0, "rental_uris": {"ios": "https://dc.lft.to/lastmile_qr_scan", "android": "https://dc.lft.to/lastmile_qr_scan"}, "is_reserved": 0}, {"lon": -77.0635385, "bike_id": "72ff74082cec4f616dac1934ce0368a5", "lat": 38.943945666666664, "fusion_lon": 0.0, "fusion_lat": 0.0, "type": "electric_bike", "name": "72ff74082cec4f616dac1934ce0368a5", "is_disabled": 0, "rental_uris": {"ios": "https://dc.lft.to/lastmile_qr_scan", "android": "https://dc.lft.to/lastmile_qr_scan"}, "is_reserved": 0}, {"lon": -77.06104266666667, "bike_id": "5d7132e69d1ecd27f7fcf8446e4a8a00", "lat": 38.905185833333334, "fusion_lon": 0.0, "fusion_lat": 0.0, "type": "electric_scooter", "name": "5d7132e69d1ecd27f7fcf8446e4a8a00", "is_disabled": 0, "rental_uris": {"ios": "https://dc.lft.to/lastmile_qr_scan", "android": "https://dc.lft.to/lastmile_qr_scan"}, "is_reserved": 0}, {"lon": -77.0237855, "bike_id": "3e1d24c18587baee6996999da3752888", "lat": 38.900291333333335, "fusion_lon": 0.0, "fusion_lat": 0.0, "type": "electric_scooter", "name": "3e1d24c18587baee6996999da3752888", "is_disabled": 0, "rental_uris": {"ios": "https://dc.lft.to/lastmile_qr_scan", "android": "https://dc.lft.to/lastmile_qr_scan"}, "is_reserved": 0}, {"lon": -77.0688555, "bike_id": "ecbdc182b862f6d20078b57c11703d0a", "lat": 38.90417733333334, "fusion_lon": 0.0, "fusion_lat": 0.0, "type": "electric_bike", "name": "ecbdc182b862f6d20078b57c11703d0a", "is_disabled": 0, "rental_uris": {"ios": "https://dc.lft.to/lastmile_qr_scan", "android": "https://dc.lft.to/lastmile_qr_scan"}, "is_reserved": 0}, {"lon": -77.04482683333333, "bike_id": "b5a43fea87c2154db10c140dd54bf9d1", "lat": 38.9146105, "fusion_lon": 0.0, "fusion_lat": 0.0, "type": "electric_scooter", "name": "b5a43fea87c2154db10c140dd54bf9d1", "is_disabled": 0, "rental_uris": {"ios": "https://dc.lft.to/lastmile_qr_scan", "android": "https://dc.lft.to/lastmile_qr_scan"}, "is_reserved": 0}, {"lon": -77.02971033333333, "bike_id": "da56fb4cb0fe9d0eb10262f1267dfcb7", "lat": 38.912438, "fusion_lon": 0.0, "fusion_lat": 0.0, "type": "electric_scooter", "name": "da56fb4cb0fe9d0eb10262f1267dfcb7", "is_disabled": 0, "rental_uris": {"ios": "https://dc.lft.to/lastmile_qr_scan", "android": "https://dc.lft.to/lastmile_qr_scan"}, "is_reserved": 0}, {"lon": -76.989298, "bike_id": "d22e6e0eac83e8d179d96033327b4f67", "lat": 38.901911, "fusion_lon": 0.0, "fusion_lat": 0.0, "type": "electric_scooter", "name": "d22e6e0eac83e8d179d96033327b4f67", "is_disabled": 0, "rental_uris": {"ios": "https://dc.lft.to/lastmile_qr_scan", "android": "https://dc.lft.to/lastmile_qr_scan"}, "is_reserved": 0}, {"lon": -76.97427916666666, "bike_id": "bb8bfdfd62a23f90ad3a6b08f1af6448", "lat": 38.86413966666667, "fusion_lon": 0.0, "fusion_lat": 0.0, "type": "electric_scooter", "name": "bb8bfdfd62a23f90ad3a6b08f1af6448", "is_disabled": 0, "rental_uris": {"ios": "https://dc.lft.to/lastmile_qr_scan", "android": "https://dc.lft.to/lastmile_qr_scan"}, "is_reserved": 0}, {"lon": -77.05022833333334, "bike_id": "86d8846d155245408459e8f31b979744", "lat": 38.90160483333333, "fusion_lon": 0.0, "fusion_lat": 0.0, "type": "electric_scooter", "name": "86d8846d155245408459e8f31b979744", "is_disabled": 0, "rental_uris": {"ios": "https://dc.lft.to/lastmile_qr_scan", "android": "https://dc.lft.to/lastmile_qr_scan"}, "is_reserved": 0}, {"lon": -77.0410765, "bike_id": "a5ef314ccfa4fa81961fe3add4b9377d", "lat": 38.923087333333335, "fusion_lon": 0.0, "fusion_lat": 0.0, "type": "electric_scooter", "name": "a5ef314ccfa4fa81961fe3add4b9377d", "is_disabled": 0, "rental_uris": {"ios": "https://dc.lft.to/lastmile_qr_scan", "android": "https://dc.lft.to/lastmile_qr_scan"}, "is_reserved": 0}, {"lon": -77.03196283333334, "bike_id": "7893bdb97dba514783b3092fdf582ec7", "lat": 38.912575, "fusion_lon": 0.0, "fusion_lat": 0.0, "type": "electric_scooter", "name": "7893bdb97dba514783b3092fdf582ec7", "is_disabled": 0, "rental_uris": {"ios": "https://dc.lft.to/lastmile_qr_scan", "android": "https://dc.lft.to/lastmile_qr_scan"}, "is_reserved": 0}, {"lon": -77.030958, "bike_id": "0f67fef033316e32c38d9a8dcf9e7988", "lat": 38.9099795, "fusion_lon": 0.0, "fusion_lat": 0.0, "type": "electric_scooter", "name": "0f67fef033316e32c38d9a8dcf9e7988", "is_disabled": 0, "rental_uris": {"ios": "https://dc.lft.to/lastmile_qr_scan", "android": "https://dc.lft.to/lastmile_qr_scan"}, "is_reserved": 0}, {"lon": -77.0297065, "bike_id": "383608a032f86c27bcbc884f3304db47", "lat": 38.9228565, "fusion_lon": 0.0, "fusion_lat": 0.0, "type": "electric_scooter", "name": "383608a032f86c27bcbc884f3304db47", "is_disabled": 0, "rental_uris": {"ios": "https://dc.lft.to/lastmile_qr_scan", "android": "https://dc.lft.to/lastmile_qr_scan"}, "is_reserved": 0}, {"lon": -76.93549033333333, "bike_id": "a3b8ac1390de6b7fc4ea142b83cd325b", "lat": 38.89029516666667, "fusion_lon": 0.0, "fusion_lat": 0.0, "type": "electric_scooter", "name": "a3b8ac1390de6b7fc4ea142b83cd325b", "is_disabled": 0, "rental_uris": {"ios": "https://dc.lft.to/lastmile_qr_scan", "android": "https://dc.lft.to/lastmile_qr_scan"}, "is_reserved": 0}, {"lon": -76.97843416666667, "bike_id": "78e751691a5e7ea3902e17e59ae4e2d9", "lat": 38.865671666666664, "fusion_lon": 0.0, "fusion_lat": 0.0, "type": "electric_scooter", "name": "78e751691a5e7ea3902e17e59ae4e2d9", "is_disabled": 0, "rental_uris": {"ios": "https://dc.lft.to/lastmile_qr_scan", "android": "https://dc.lft.to/lastmile_qr_scan"}, "is_reserved": 0}, {"lon": -77.03840633333333, "bike_id": "84d6d7f42a7c95573667dfaf10ae182c", "lat": 38.912153333333336, "fusion_lon": 0.0, "fusion_lat": 0.0, "type": "electric_scooter", "name": "84d6d7f42a7c95573667dfaf10ae182c", "is_disabled": 0, "rental_uris": {"ios": "https://dc.lft.to/lastmile_qr_scan", "android": "https://dc.lft.to/lastmile_qr_scan"}, "is_reserved": 0}, {"lon": -77.02600433333333, "bike_id": "7de3d3045c9c796bde2f465d24ee8c8f", "lat": 38.91839916666667, "fusion_lon": 0.0, "fusion_lat": 0.0, "type": "electric_scooter", "name": "7de3d3045c9c796bde2f465d24ee8c8f", "is_disabled": 0, "rental_uris": {"ios": "https://dc.lft.to/lastmile_qr_scan", "android": "https://dc.lft.to/lastmile_qr_scan"}, "is_reserved": 0}, {"lon": -77.04872216666666, "bike_id": "f246b0f11249a943836aa4e046ef751a", "lat": 38.892320833333336, "fusion_lon": 0.0, "fusion_lat": 0.0, "type": "electric_scooter", "name": "f246b0f11249a943836aa4e046ef751a", "is_disabled": 0, "rental_uris": {"ios": "https://dc.lft.to/lastmile_qr_scan", "android": "https://dc.lft.to/lastmile_qr_scan"}, "is_reserved": 0}, {"lon": -76.94874116666666, "bike_id": "3bf810f5113892b3f24b627c172648fb", "lat": 38.8950465, "fusion_lon": 0.0, "fusion_lat": 0.0, "type": "electric_scooter", "name": "3bf810f5113892b3f24b627c172648fb", "is_disabled": 0, "rental_uris": {"ios": "https://dc.lft.to/lastmile_qr_scan", "android": "https://dc.lft.to/lastmile_qr_scan"}, "is_reserved": 0}, {"lon": -77.03461383333334, "bike_id": "60d2a74f094c3ac0e00d3c63596f5055", "lat": 38.9176165, "fusion_lon": 0.0, "fusion_lat": 0.0, "type": "electric_scooter", "name": "60d2a74f094c3ac0e00d3c63596f5055", "is_disabled": 0, "rental_uris": {"ios": "https://dc.lft.to/lastmile_qr_scan", "android": "https://dc.lft.to/lastmile_qr_scan"}, "is_reserved": 0}, {"lon": -77.04358866666666, "bike_id": "cdf16c3470de5443518fa1d98e080635", "lat": 39.015399, "fusion_lon": 0.0, "fusion_lat": 0.0, "type": "electric_bike", "name": "cdf16c3470de5443518fa1d98e080635", "is_disabled": 0, "rental_uris": {"ios": "https://dc.lft.to/lastmile_qr_scan", "android": "https://dc.lft.to/lastmile_qr_scan"}, "is_reserved": 0}, {"lon": -77.03130433333334, "bike_id": "c4454d3e81ac23d58ff795451d890574", "lat": 38.915547, "fusion_lon": 0.0, "fusion_lat": 0.0, "type": "electric_scooter", "name": "c4454d3e81ac23d58ff795451d890574", "is_disabled": 0, "rental_uris": {"ios": "https://dc.lft.to/lastmile_qr_scan", "android": "https://dc.lft.to/lastmile_qr_scan"}, "is_reserved": 0}, {"lon": -77.031991, "bike_id": "395a168d26e794e9977d25a0f1b3b3cb", "lat": 38.909911, "fusion_lon": 0.0, "fusion_lat": 0.0, "type": "electric_scooter", "name": "395a168d26e794e9977d25a0f1b3b3cb", "is_disabled": 0, "rental_uris": {"ios": "https://dc.lft.to/lastmile_qr_scan", "android": "https://dc.lft.to/lastmile_qr_scan"}, "is_reserved": 0}, {"lon": -77.03871466666666, "bike_id": "ee61609a6f42d38e00ecd8c3a4ca38dd", "lat": 38.912623833333335, "fusion_lon": 0.0, "fusion_lat": 0.0, "type": "electric_scooter", "name": "ee61609a6f42d38e00ecd8c3a4ca38dd", "is_disabled": 0, "rental_uris": {"ios": "https://dc.lft.to/lastmile_qr_scan", "android": "https://dc.lft.to/lastmile_qr_scan"}, "is_reserved": 0}, {"lon": -77.04233, "bike_id": "d3329dd34e20c5bc567e71098cdbf72f", "lat": 38.92188183333333, "fusion_lon": 0.0, "fusion_lat": 0.0, "type": "electric_scooter", "name": "d3329dd34e20c5bc567e71098cdbf72f", "is_disabled": 0, "rental_uris": {"ios": "https://dc.lft.to/lastmile_qr_scan", "android": "https://dc.lft.to/lastmile_qr_scan"}, "is_reserved": 0}, {"lon": -77.00102516666666, "bike_id": "98b6bafb96545443fbf87d6c686b413d", "lat": 38.912487666666664, "fusion_lon": 0.0, "fusion_lat": 0.0, "type": "electric_scooter", "name": "98b6bafb96545443fbf87d6c686b413d", "is_disabled": 0, "rental_uris": {"ios": "https://dc.lft.to/lastmile_qr_scan", "android": "https://dc.lft.to/lastmile_qr_scan"}, "is_reserved": 0}, {"lon": -77.1115595, "bike_id": "0157555b25ca2de2270619cc2cb32271", "lat": 38.85517216666667, "fusion_lon": 0.0, "fusion_lat": 0.0, "type": "electric_bike", "name": "0157555b25ca2de2270619cc2cb32271", "is_disabled": 0, "rental_uris": {"ios": "https://dc.lft.to/lastmile_qr_scan", "android": "https://dc.lft.to/lastmile_qr_scan"}, "is_reserved": 0}, {"lon": -77.0375585, "bike_id": "23f6a634dae087d82e6c91d0aec50597", "lat": 38.907805333333336, "fusion_lon": 0.0, "fusion_lat": 0.0, "type": "electric_scooter", "name": "23f6a634dae087d82e6c91d0aec50597", "is_disabled": 0, "rental_uris": {"ios": "https://dc.lft.to/lastmile_qr_scan", "android": "https://dc.lft.to/lastmile_qr_scan"}, "is_reserved": 0}, {"lon": -77.02839733333333, "bike_id": "f34970af91371227f74899f6b412293d", "lat": 38.93415016666667, "fusion_lon": 0.0, "fusion_lat": 0.0, "type": "electric_scooter", "name": "f34970af91371227f74899f6b412293d", "is_disabled": 0, "rental_uris": {"ios": "https://dc.lft.to/lastmile_qr_scan", "android": "https://dc.lft.to/lastmile_qr_scan"}, "is_reserved": 0}, {"lon": -76.99829483333333, "bike_id": "da6d29a069b10096e001d0034daf3df7", "lat": 38.89455933333333, "fusion_lon": 0.0, "fusion_lat": 0.0, "type": "electric_scooter", "name": "da6d29a069b10096e001d0034daf3df7", "is_disabled": 0, "rental_uris": {"ios": "https://dc.lft.to/lastmile_qr_scan", "android": "https://dc.lft.to/lastmile_qr_scan"}, "is_reserved": 0}, {"lon": -77.06641266666666, "bike_id": "ae8179c51c8dc58534a7ab530981d9e1", "lat": 38.90591766666667, "fusion_lon": 0.0, "fusion_lat": 0.0, "type": "electric_scooter", "name": "ae8179c51c8dc58534a7ab530981d9e1", "is_disabled": 0, "rental_uris": {"ios": "https://dc.lft.to/lastmile_qr_scan", "android": "https://dc.lft.to/lastmile_qr_scan"}, "is_reserved": 0}, {"lon": -77.00199033333334, "bike_id": "e72cfcef4a04f846dcefdaee6e8cafa4", "lat": 38.902433, "fusion_lon": 0.0, "fusion_lat": 0.0, "type": "electric_scooter", "name": "e72cfcef4a04f846dcefdaee6e8cafa4", "is_disabled": 0, "rental_uris": {"ios": "https://dc.lft.to/lastmile_qr_scan", "android": "https://dc.lft.to/lastmile_qr_scan"}, "is_reserved": 0}, {"lon": -77.01342833333334, "bike_id": "de0355ffb141f2c90f7766d556c4406b", "lat": 38.87812916666667, "fusion_lon": 0.0, "fusion_lat": 0.0, "type": "electric_scooter", "name": "de0355ffb141f2c90f7766d556c4406b", "is_disabled": 0, "rental_uris": {"ios": "https://dc.lft.to/lastmile_qr_scan", "android": "https://dc.lft.to/lastmile_qr_scan"}, "is_reserved": 0}, {"lon": -77.02082833333333, "bike_id": "6547d0bfbd06cb9742e6caaa9160ca80", "lat": 38.881899, "fusion_lon": 0.0, "fusion_lat": 0.0, "type": "electric_scooter", "name": "6547d0bfbd06cb9742e6caaa9160ca80", "is_disabled": 0, "rental_uris": {"ios": "https://dc.lft.to/lastmile_qr_scan", "android": "https://dc.lft.to/lastmile_qr_scan"}, "is_reserved": 0}, {"lon": -77.04928216666667, "bike_id": "a8f0766568c72a76eac2bcd7e0a45606", "lat": 38.90217233333333, "fusion_lon": 0.0, "fusion_lat": 0.0, "type": "electric_scooter", "name": "a8f0766568c72a76eac2bcd7e0a45606", "is_disabled": 0, "rental_uris": {"ios": "https://dc.lft.to/lastmile_qr_scan", "android": "https://dc.lft.to/lastmile_qr_scan"}, "is_reserved": 0}, {"lon": -77.03499, "bike_id": "39b130563e5cee82a0ea3c98cdb80d32", "lat": 38.932750666666664, "fusion_lon": 0.0, "fusion_lat": 0.0, "type": "electric_scooter", "name": "39b130563e5cee82a0ea3c98cdb80d32", "is_disabled": 0, "rental_uris": {"ios": "https://dc.lft.to/lastmile_qr_scan", "android": "https://dc.lft.to/lastmile_qr_scan"}, "is_reserved": 0}, {"lon": -77.02283866666667, "bike_id": "21985ee327ffec6fe135bc25a36c24cf", "lat": 38.90783583333333, "fusion_lon": 0.0, "fusion_lat": 0.0, "type": "electric_scooter", "name": "21985ee327ffec6fe135bc25a36c24cf", "is_disabled": 0, "rental_uris": {"ios": "https://dc.lft.to/lastmile_qr_scan", "android": "https://dc.lft.to/lastmile_qr_scan"}, "is_reserved": 0}, {"lon": -77.02971983333333, "bike_id": "724b24ca33f7bada8ae022aacd47a360", "lat": 38.914530666666664, "fusion_lon": 0.0, "fusion_lat": 0.0, "type": "electric_scooter", "name": "724b24ca33f7bada8ae022aacd47a360", "is_disabled": 0, "rental_uris": {"ios": "https://dc.lft.to/lastmile_qr_scan", "android": "https://dc.lft.to/lastmile_qr_scan"}, "is_reserved": 0}, {"lon": -76.981901, "bike_id": "7be62645a0d96c057d32e51a080fd471", "lat": 38.96745216666667, "fusion_lon": 0.0, "fusion_lat": 0.0, "type": "electric_bike", "name": "7be62645a0d96c057d32e51a080fd471", "is_disabled": 0, "rental_uris": {"ios": "https://dc.lft.to/lastmile_qr_scan", "android": "https://dc.lft.to/lastmile_qr_scan"}, "is_reserved": 0}, {"lon": -77.02867916666666, "bike_id": "4943bea402aa97f6be9cad39a1697c0b", "lat": 38.916946833333334, "fusion_lon": 0.0, "fusion_lat": 0.0, "type": "electric_scooter", "name": "4943bea402aa97f6be9cad39a1697c0b", "is_disabled": 0, "rental_uris": {"ios": "https://dc.lft.to/lastmile_qr_scan", "android": "https://dc.lft.to/lastmile_qr_scan"}, "is_reserved": 0}, {"lon": -77.02474633333334, "bike_id": "93bf770ad5ece1dff02d6509964a0710", "lat": 38.91889466666667, "fusion_lon": 0.0, "fusion_lat": 0.0, "type": "electric_scooter", "name": "93bf770ad5ece1dff02d6509964a0710", "is_disabled": 0, "rental_uris": {"ios": "https://dc.lft.to/lastmile_qr_scan", "android": "https://dc.lft.to/lastmile_qr_scan"}, "is_reserved": 0}, {"lon": -77.02096666666667, "bike_id": "5b152dd22eea7b42abb4354659b308d2", "lat": 38.9112205, "fusion_lon": 0.0, "fusion_lat": 0.0, "type": "electric_scooter", "name": "5b152dd22eea7b42abb4354659b308d2", "is_disabled": 0, "rental_uris": {"ios": "https://dc.lft.to/lastmile_qr_scan", "android": "https://dc.lft.to/lastmile_qr_scan"}, "is_reserved": 0}, {"lon": -77.03663033333333, "bike_id": "c6580e88cc29366d97ff5af99258a91a", "lat": 38.9334015, "fusion_lon": 0.0, "fusion_lat": 0.0, "type": "electric_scooter", "name": "c6580e88cc29366d97ff5af99258a91a", "is_disabled": 0, "rental_uris": {"ios": "https://dc.lft.to/lastmile_qr_scan", "android": "https://dc.lft.to/lastmile_qr_scan"}, "is_reserved": 0}, {"lon": -77.00961783333334, "bike_id": "a259373c9499d1a5065458856bc1ae36", "lat": 38.92135783333333, "fusion_lon": 0.0, "fusion_lat": 0.0, "type": "electric_scooter", "name": "a259373c9499d1a5065458856bc1ae36", "is_disabled": 0, "rental_uris": {"ios": "https://dc.lft.to/lastmile_qr_scan", "android": "https://dc.lft.to/lastmile_qr_scan"}, "is_reserved": 0}, {"lon": -77.04840916666667, "bike_id": "7fab974b0ef40358fa90b13782ed329a", "lat": 38.8896565, "fusion_lon": 0.0, "fusion_lat": 0.0, "type": "electric_scooter", "name": "7fab974b0ef40358fa90b13782ed329a", "is_disabled": 0, "rental_uris": {"ios": "https://dc.lft.to/lastmile_qr_scan", "android": "https://dc.lft.to/lastmile_qr_scan"}, "is_reserved": 0}, {"lon": -77.03231283333334, "bike_id": "2da518fa778b187d32c4cb7536d75842", "lat": 38.9298625, "fusion_lon": 0.0, "fusion_lat": 0.0, "type": "electric_scooter", "name": "2da518fa778b187d32c4cb7536d75842", "is_disabled": 0, "rental_uris": {"ios": "https://dc.lft.to/lastmile_qr_scan", "android": "https://dc.lft.to/lastmile_qr_scan"}, "is_reserved": 0}, {"lon": -76.99920083333333, "bike_id": "40bfc419fa04bca37d91a87666e3f990", "lat": 38.88975, "fusion_lon": 0.0, "fusion_lat": 0.0, "type": "electric_scooter", "name": "40bfc419fa04bca37d91a87666e3f990", "is_disabled": 0, "rental_uris": {"ios": "https://dc.lft.to/lastmile_qr_scan", "android": "https://dc.lft.to/lastmile_qr_scan"}, "is_reserved": 0}, {"lon": -77.03108333333333, "bike_id": "308e4920df05c4b41a4a76641c2c743c", "lat": 38.897177, "fusion_lon": 0.0, "fusion_lat": 0.0, "type": "electric_scooter", "name": "308e4920df05c4b41a4a76641c2c743c", "is_disabled": 0, "rental_uris": {"ios": "https://dc.lft.to/lastmile_qr_scan", "android": "https://dc.lft.to/lastmile_qr_scan"}, "is_reserved": 0}, {"lon": -77.02310066666666, "bike_id": "302bdac381fa8a86910dd43c26fac20b", "lat": 38.9185445, "fusion_lon": 0.0, "fusion_lat": 0.0, "type": "electric_scooter", "name": "302bdac381fa8a86910dd43c26fac20b", "is_disabled": 0, "rental_uris": {"ios": "https://dc.lft.to/lastmile_qr_scan", "android": "https://dc.lft.to/lastmile_qr_scan"}, "is_reserved": 0}, {"lon": -77.03317033333333, "bike_id": "9d14e5a947b4661a6638dd52b2d22a18", "lat": 38.926552666666666, "fusion_lon": 0.0, "fusion_lat": 0.0, "type": "electric_scooter", "name": "9d14e5a947b4661a6638dd52b2d22a18", "is_disabled": 0, "rental_uris": {"ios": "https://dc.lft.to/lastmile_qr_scan", "android": "https://dc.lft.to/lastmile_qr_scan"}, "is_reserved": 0}, {"lon": -77.03858283333334, "bike_id": "77e3e6a170221fa478703dc4829d5c8c", "lat": 38.917166333333334, "fusion_lon": 0.0, "fusion_lat": 0.0, "type": "electric_scooter", "name": "77e3e6a170221fa478703dc4829d5c8c", "is_disabled": 0, "rental_uris": {"ios": "https://dc.lft.to/lastmile_qr_scan", "android": "https://dc.lft.to/lastmile_qr_scan"}, "is_reserved": 0}, {"lon": -76.98109083333334, "bike_id": "cfe6cab4196a76a07b258f8ef4db25a5", "lat": 38.877298, "fusion_lon": 0.0, "fusion_lat": 0.0, "type": "electric_bike", "name": "cfe6cab4196a76a07b258f8ef4db25a5", "is_disabled": 0, "rental_uris": {"ios": "https://dc.lft.to/lastmile_qr_scan", "android": "https://dc.lft.to/lastmile_qr_scan"}, "is_reserved": 0}, {"lon": -77.03306433333333, "bike_id": "853a2d46248d04c432fe9152d62d1b36", "lat": 38.930271, "fusion_lon": 0.0, "fusion_lat": 0.0, "type": "electric_scooter", "name": "853a2d46248d04c432fe9152d62d1b36", "is_disabled": 0, "rental_uris": {"ios": "https://dc.lft.to/lastmile_qr_scan", "android": "https://dc.lft.to/lastmile_qr_scan"}, "is_reserved": 0}, {"lon": -77.00066566666666, "bike_id": "fa344517b8528563164dea590acbac3a", "lat": 38.88677366666667, "fusion_lon": 0.0, "fusion_lat": 0.0, "type": "electric_scooter", "name": "fa344517b8528563164dea590acbac3a", "is_disabled": 0, "rental_uris": {"ios": "https://dc.lft.to/lastmile_qr_scan", "android": "https://dc.lft.to/lastmile_qr_scan"}, "is_reserved": 0}, {"lon": -77.04999466666666, "bike_id": "2768864b740efb0ea81f94bcbd515e93", "lat": 38.89193366666667, "fusion_lon": 0.0, "fusion_lat": 0.0, "type": "electric_scooter", "name": "2768864b740efb0ea81f94bcbd515e93", "is_disabled": 0, "rental_uris": {"ios": "https://dc.lft.to/lastmile_qr_scan", "android": "https://dc.lft.to/lastmile_qr_scan"}, "is_reserved": 0}, {"lon": -76.98246066666667, "bike_id": "2f0b848880022598abb1bb8dc751d77c", "lat": 38.8646085, "fusion_lon": 0.0, "fusion_lat": 0.0, "type": "electric_scooter", "name": "2f0b848880022598abb1bb8dc751d77c", "is_disabled": 0, "rental_uris": {"ios": "https://dc.lft.to/lastmile_qr_scan", "android": "https://dc.lft.to/lastmile_qr_scan"}, "is_reserved": 0}, {"lon": -77.050043, "bike_id": "4852e46ad961665b88f83ea1b5ec2148", "lat": 38.891951, "fusion_lon": 0.0, "fusion_lat": 0.0, "type": "electric_scooter", "name": "4852e46ad961665b88f83ea1b5ec2148", "is_disabled": 0, "rental_uris": {"ios": "https://dc.lft.to/lastmile_qr_scan", "android": "https://dc.lft.to/lastmile_qr_scan"}, "is_reserved": 0}, {"lon": -77.020045, "bike_id": "a29908ab150a90bb1444d084b7666743", "lat": 38.902709333333334, "fusion_lon": 0.0, "fusion_lat": 0.0, "type": "electric_scooter", "name": "a29908ab150a90bb1444d084b7666743", "is_disabled": 0, "rental_uris": {"ios": "https://dc.lft.to/lastmile_qr_scan", "android": "https://dc.lft.to/lastmile_qr_scan"}, "is_reserved": 0}, {"lon": -77.03907066666666, "bike_id": "3f680c313107a597fb96296c4bafff5e", "lat": 38.914259333333334, "fusion_lon": 0.0, "fusion_lat": 0.0, "type": "electric_scooter", "name": "3f680c313107a597fb96296c4bafff5e", "is_disabled": 0, "rental_uris": {"ios": "https://dc.lft.to/lastmile_qr_scan", "android": "https://dc.lft.to/lastmile_qr_scan"}, "is_reserved": 0}, {"lon": -77.04340383333333, "bike_id": "785acd088267867f89f7de084436d925", "lat": 38.921423, "fusion_lon": 0.0, "fusion_lat": 0.0, "type": "electric_scooter", "name": "785acd088267867f89f7de084436d925", "is_disabled": 0, "rental_uris": {"ios": "https://dc.lft.to/lastmile_qr_scan", "android": "https://dc.lft.to/lastmile_qr_scan"}, "is_reserved": 0}, {"lon": -76.99853666666667, "bike_id": "9850a30d428eb6cab50ba59e9c87e1d2", "lat": 38.84161533333334, "fusion_lon": 0.0, "fusion_lat": 0.0, "type": "electric_scooter", "name": "9850a30d428eb6cab50ba59e9c87e1d2", "is_disabled": 0, "rental_uris": {"ios": "https://dc.lft.to/lastmile_qr_scan", "android": "https://dc.lft.to/lastmile_qr_scan"}, "is_reserved": 0}, {"lon": -76.99701633333333, "bike_id": "baea9bc6bd4b586810d65831d427ca12", "lat": 38.911118333333334, "fusion_lon": 0.0, "fusion_lat": 0.0, "type": "electric_scooter", "name": "baea9bc6bd4b586810d65831d427ca12", "is_disabled": 0, "rental_uris": {"ios": "https://dc.lft.to/lastmile_qr_scan", "android": "https://dc.lft.to/lastmile_qr_scan"}, "is_reserved": 0}, {"lon": -76.98560033333334, "bike_id": "c358fec37949864443b43444d7a3f892", "lat": 38.8995585, "fusion_lon": 0.0, "fusion_lat": 0.0, "type": "electric_scooter", "name": "c358fec37949864443b43444d7a3f892", "is_disabled": 0, "rental_uris": {"ios": "https://dc.lft.to/lastmile_qr_scan", "android": "https://dc.lft.to/lastmile_qr_scan"}, "is_reserved": 0}, {"lon": -77.03400766666667, "bike_id": "c31402b99982d54b694a0fd7c4dc0985", "lat": 38.96027316666667, "fusion_lon": 0.0, "fusion_lat": 0.0, "type": "electric_bike", "name": "c31402b99982d54b694a0fd7c4dc0985", "is_disabled": 0, "rental_uris": {"ios": "https://dc.lft.to/lastmile_qr_scan", "android": "https://dc.lft.to/lastmile_qr_scan"}, "is_reserved": 0}, {"lon": -77.02713833333334, "bike_id": "f5b7dc1541ea9afad9e51313298a7bb9", "lat": 38.93472533333333, "fusion_lon": 0.0, "fusion_lat": 0.0, "type": "electric_scooter", "name": "f5b7dc1541ea9afad9e51313298a7bb9", "is_disabled": 0, "rental_uris": {"ios": "https://dc.lft.to/lastmile_qr_scan", "android": "https://dc.lft.to/lastmile_qr_scan"}, "is_reserved": 0}, {"lon": -77.048272, "bike_id": "00a32bc9810fb43f4b64567de7c24788", "lat": 38.909465, "fusion_lon": 0.0, "fusion_lat": 0.0, "type": "electric_scooter", "name": "00a32bc9810fb43f4b64567de7c24788", "is_disabled": 0, "rental_uris": {"ios": "https://dc.lft.to/lastmile_qr_scan", "android": "https://dc.lft.to/lastmile_qr_scan"}, "is_reserved": 0}, {"lon": -77.08122416666667, "bike_id": "6c450bf49ef28168e2f99ebe5085d5f2", "lat": 38.9107805, "fusion_lon": 0.0, "fusion_lat": 0.0, "type": "electric_scooter", "name": "6c450bf49ef28168e2f99ebe5085d5f2", "is_disabled": 0, "rental_uris": {"ios": "https://dc.lft.to/lastmile_qr_scan", "android": "https://dc.lft.to/lastmile_qr_scan"}, "is_reserved": 0}, {"lon": -77.0297545, "bike_id": "fd1701c05ba43d5620c7b96d224fbe8b", "lat": 38.930643333333336, "fusion_lon": 0.0, "fusion_lat": 0.0, "type": "electric_scooter", "name": "fd1701c05ba43d5620c7b96d224fbe8b", "is_disabled": 0, "rental_uris": {"ios": "https://dc.lft.to/lastmile_qr_scan", "android": "https://dc.lft.to/lastmile_qr_scan"}, "is_reserved": 0}, {"lon": -77.1249125, "bike_id": "4a7c95237357aa29708441eb9b9f8888", "lat": 38.827845333333336, "fusion_lon": 0.0, "fusion_lat": 0.0, "type": "electric_bike", "name": "4a7c95237357aa29708441eb9b9f8888", "is_disabled": 0, "rental_uris": {"ios": "https://dc.lft.to/lastmile_qr_scan", "android": "https://dc.lft.to/lastmile_qr_scan"}, "is_reserved": 0}, {"lon": -77.00276933333333, "bike_id": "72e7080a0fe36b60ed1354de38f25d04", "lat": 38.957132333333334, "fusion_lon": 0.0, "fusion_lat": 0.0, "type": "electric_bike", "name": "72e7080a0fe36b60ed1354de38f25d04", "is_disabled": 0, "rental_uris": {"ios": "https://dc.lft.to/lastmile_qr_scan", "android": "https://dc.lft.to/lastmile_qr_scan"}, "is_reserved": 0}, {"lon": -77.0325005, "bike_id": "0fda4e4acce00f0ea9a321c6ed7d4ff6", "lat": 38.92990133333333, "fusion_lon": 0.0, "fusion_lat": 0.0, "type": "electric_scooter", "name": "0fda4e4acce00f0ea9a321c6ed7d4ff6", "is_disabled": 0, "rental_uris": {"ios": "https://dc.lft.to/lastmile_qr_scan", "android": "https://dc.lft.to/lastmile_qr_scan"}, "is_reserved": 0}, {"lon": -77.04674933333334, "bike_id": "cf16da0b5e57eec75508e19c69d83fbc", "lat": 38.892339166666666, "fusion_lon": 0.0, "fusion_lat": 0.0, "type": "electric_scooter", "name": "cf16da0b5e57eec75508e19c69d83fbc", "is_disabled": 0, "rental_uris": {"ios": "https://dc.lft.to/lastmile_qr_scan", "android": "https://dc.lft.to/lastmile_qr_scan"}, "is_reserved": 0}, {"lon": -76.978576, "bike_id": "a5c199174e455be94df545291ae0f936", "lat": 38.90723166666667, "fusion_lon": 0.0, "fusion_lat": 0.0, "type": "electric_scooter", "name": "a5c199174e455be94df545291ae0f936", "is_disabled": 0, "rental_uris": {"ios": "https://dc.lft.to/lastmile_qr_scan", "android": "https://dc.lft.to/lastmile_qr_scan"}, "is_reserved": 0}, {"lon": -77.03263533333333, "bike_id": "00063ecc6aca352367c055afd8d1c506", "lat": 38.9377685, "fusion_lon": 0.0, "fusion_lat": 0.0, "type": "electric_scooter", "name": "00063ecc6aca352367c055afd8d1c506", "is_disabled": 0, "rental_uris": {"ios": "https://dc.lft.to/lastmile_qr_scan", "android": "https://dc.lft.to/lastmile_qr_scan"}, "is_reserved": 0}, {"lon": -77.044816, "bike_id": "8fae9d53a100b1fcec972059f8ccefc0", "lat": 38.90542633333333, "fusion_lon": 0.0, "fusion_lat": 0.0, "type": "electric_scooter", "name": "8fae9d53a100b1fcec972059f8ccefc0", "is_disabled": 0, "rental_uris": {"ios": "https://dc.lft.to/lastmile_qr_scan", "android": "https://dc.lft.to/lastmile_qr_scan"}, "is_reserved": 0}, {"lon": -77.01538666666667, "bike_id": "25edf2bed936736d666b6eb69ac346cb", "lat": 38.8831305, "fusion_lon": 0.0, "fusion_lat": 0.0, "type": "electric_scooter", "name": "25edf2bed936736d666b6eb69ac346cb", "is_disabled": 0, "rental_uris": {"ios": "https://dc.lft.to/lastmile_qr_scan", "android": "https://dc.lft.to/lastmile_qr_scan"}, "is_reserved": 0}, {"lon": -77.03850566666667, "bike_id": "9ca392c5ed5380a350b02f497951835e", "lat": 38.9324215, "fusion_lon": 0.0, "fusion_lat": 0.0, "type": "electric_scooter", "name": "9ca392c5ed5380a350b02f497951835e", "is_disabled": 0, "rental_uris": {"ios": "https://dc.lft.to/lastmile_qr_scan", "android": "https://dc.lft.to/lastmile_qr_scan"}, "is_reserved": 0}, {"lon": -77.050389, "bike_id": "c4ed463a11f7e4aa7d99f7034ecc55f3", "lat": 38.923644833333334, "fusion_lon": 0.0, "fusion_lat": 0.0, "type": "electric_scooter", "name": "c4ed463a11f7e4aa7d99f7034ecc55f3", "is_disabled": 0, "rental_uris": {"ios": "https://dc.lft.to/lastmile_qr_scan", "android": "https://dc.lft.to/lastmile_qr_scan"}, "is_reserved": 0}, {"lon": -77.03289933333333, "bike_id": "6e9ccf813046a3fb74887ea2e1ae90fb", "lat": 38.91040783333333, "fusion_lon": 0.0, "fusion_lat": 0.0, "type": "electric_scooter", "name": "6e9ccf813046a3fb74887ea2e1ae90fb", "is_disabled": 0, "rental_uris": {"ios": "https://dc.lft.to/lastmile_qr_scan", "android": "https://dc.lft.to/lastmile_qr_scan"}, "is_reserved": 0}, {"lon": -76.99596283333334, "bike_id": "49f3d6f2c02b8e2dc2b128a785c2e85b", "lat": 38.950736, "fusion_lon": 0.0, "fusion_lat": 0.0, "type": "electric_bike", "name": "49f3d6f2c02b8e2dc2b128a785c2e85b", "is_disabled": 0, "rental_uris": {"ios": "https://dc.lft.to/lastmile_qr_scan", "android": "https://dc.lft.to/lastmile_qr_scan"}, "is_reserved": 0}, {"lon": -76.97561383333333, "bike_id": "4f8e5e7d5740ee35b1fc934fa8a68c5e", "lat": 38.92459933333333, "fusion_lon": 0.0, "fusion_lat": 0.0, "type": "electric_bike", "name": "4f8e5e7d5740ee35b1fc934fa8a68c5e", "is_disabled": 0, "rental_uris": {"ios": "https://dc.lft.to/lastmile_qr_scan", "android": "https://dc.lft.to/lastmile_qr_scan"}, "is_reserved": 0}, {"lon": -77.03549416666667, "bike_id": "fabb8d88d1c82d2765163722739ae733", "lat": 38.9338515, "fusion_lon": 0.0, "fusion_lat": 0.0, "type": "electric_scooter", "name": "fabb8d88d1c82d2765163722739ae733", "is_disabled": 0, "rental_uris": {"ios": "https://dc.lft.to/lastmile_qr_scan", "android": "https://dc.lft.to/lastmile_qr_scan"}, "is_reserved": 0}, {"lon": -76.94991583333334, "bike_id": "74cbbfffb1ed64aff9bcfe54c4e48cb4", "lat": 38.893828, "fusion_lon": 0.0, "fusion_lat": 0.0, "type": "electric_scooter", "name": "74cbbfffb1ed64aff9bcfe54c4e48cb4", "is_disabled": 0, "rental_uris": {"ios": "https://dc.lft.to/lastmile_qr_scan", "android": "https://dc.lft.to/lastmile_qr_scan"}, "is_reserved": 0}, {"lon": -77.02091466666667, "bike_id": "b70c171a315259b94a6aa0255895c29a", "lat": 38.929161, "fusion_lon": 0.0, "fusion_lat": 0.0, "type": "electric_scooter", "name": "b70c171a315259b94a6aa0255895c29a", "is_disabled": 0, "rental_uris": {"ios": "https://dc.lft.to/lastmile_qr_scan", "android": "https://dc.lft.to/lastmile_qr_scan"}, "is_reserved": 0}, {"lon": -77.05000916666667, "bike_id": "3694a01ac8944900ad539b7fafaf40de", "lat": 38.89197883333333, "fusion_lon": 0.0, "fusion_lat": 0.0, "type": "electric_scooter", "name": "3694a01ac8944900ad539b7fafaf40de", "is_disabled": 0, "rental_uris": {"ios": "https://dc.lft.to/lastmile_qr_scan", "android": "https://dc.lft.to/lastmile_qr_scan"}, "is_reserved": 0}, {"lon": -77.0272675, "bike_id": "3e0a8cd8c4a13923a0345f48f14fccfa", "lat": 38.951332666666666, "fusion_lon": 0.0, "fusion_lat": 0.0, "type": "electric_scooter", "name": "3e0a8cd8c4a13923a0345f48f14fccfa", "is_disabled": 0, "rental_uris": {"ios": "https://dc.lft.to/lastmile_qr_scan", "android": "https://dc.lft.to/lastmile_qr_scan"}, "is_reserved": 0}, {"lon": -77.04781466666667, "bike_id": "2b18c282b009c86c78442d4edfb8564f", "lat": 38.829510166666665, "fusion_lon": 0.0, "fusion_lat": 0.0, "type": "electric_bike", "name": "2b18c282b009c86c78442d4edfb8564f", "is_disabled": 0, "rental_uris": {"ios": "https://dc.lft.to/lastmile_qr_scan", "android": "https://dc.lft.to/lastmile_qr_scan"}, "is_reserved": 0},