{"data": {"bikes": [{"bike_id": "2ed0d7d13bb2f6fa913f249c12caf465", "name": "2ed0d7d13bb2f6fa913f249c12caf465", "lat": 38.956931166666664, "fusion_lat": 0.0, "type": "electric_bike", "lon": -77.022282, "is_disabled": 0, "fusion_lon": 0.0, "rental_uris": {"android": "https://dc.lft.to/lastmile_qr_scan", "ios": "https://dc.lft.to/lastmile_qr_scan"}, "is_reserved": 0}, {"bike_id": "50ba2ef2f6feb987f61d72181e16c492", "name": "50ba2ef2f6feb987f61d72181e16c492", "lat": 38.934308333333334, "fusion_lat": 0.0, "type": "electric_bike", "lon": -77.03996883333333, "is_disabled": 0, "fusion_lon": 0.0, "rental_uris": {"android": "https://dc.lft.to/lastmile_qr_scan", "ios": "https://dc.lft.to/lastmile_qr_scan"}, "is_reserved": 0}, {"bike_id": "d30f0cc15b264d450ac003ad75542049", "name": "d30f0cc15b264d450ac003ad75542049", "lat": 38.90188883333333, "fusion_lat": 0.0, "type": "electric_scooter", "lon": -77.02106316666666, "is_disabled": 0, "fusion_lon": 0.0, "rental_uris": {"android": "https://dc.lft.to/lastmile_qr_scan", "ios": "https://dc.lft.to/lastmile_qr_scan"}, "is_reserved": 0}, {"bike_id": "483d17ba4d892d3800a2289a92c7917f", "name": "483d17ba4d892d3800a2289a92c7917f", "lat": 38.928693833333334, "fusion_lat": 0.0, "type": "electric_scooter", "lon": -77.03759616666666, "is_disabled": 0, "fusion_lon": 0.0, "rental_uris": {"android": "https://dc.lft.to/lastmile_qr_scan", "ios": "https://dc.lft.to/lastmile_qr_scan"}, "is_reserved": 0}, {"bike_id": "9c825fd40951e1a15fd0cbfbfa454b64", "name": "9c825fd40951e1a15fd0cbfbfa454b64", "lat": 38.918072333333335, "fusion_lat": 0.0, "type": "electric_scooter", "lon": -77.034433, "is_disabled": 0, "fusion_lon": 0.0, "rental_uris": {"android": "https://dc.lft.to/lastmile_qr_scan", "ios": "https://dc.lft.to/lastmile_qr_scan"}, "is_reserved": 0}, {"bike_id": "dcbf192513a67e1ad39f296bfae80260", "name": "dcbf192513a67e1ad39f296bfae80260", "lat": 38.9026115, "fusion_lat": 0.0, "type": "electric_scooter", "lon": -77.01810333333333, "is_disabled": 0, "fusion_lon": 0.0, "rental_uris": {"android": "https://dc.lft.to/lastmile_qr_scan", "ios": "https://dc.lft.to/lastmile_qr_scan"}, "is_reserved": 0}, {"bike_id": "c7d760ff33692bab2fb3ab1e6d99f94b", "name": "c7d760ff33692bab2fb3ab1e6d99f94b", "lat": 38.8765295, "fusion_lat": 0.0, "type": "electric_scooter", "lon": -77.020793, "is_disabled": 0, "fusion_lon": 0.0, "rental_uris": {"android": "https://dc.lft.to/lastmile_qr_scan", "ios": "https://dc.lft.to/lastmile_qr_scan"}, "is_reserved": 0}, {"bike_id": "f1338495c0bfbdaa6830787353d0c0c9", "name": "f1338495c0bfbdaa6830787353d0c0c9", "lat": 38.886729, "fusion_lat": 0.0, "type": "electric_scooter", "lon": -77.00198783333333, "is_disabled": 0, "fusion_lon": 0.0, "rental_uris": {"android": "https://dc.lft.to/lastmile_qr_scan", "ios": "https://dc.lft.to/lastmile_qr_scan"}, "is_reserved": 0}, {"bike_id": "267a281e1da34df9ef55958f66c66347", "name": "267a281e1da34df9ef55958f66c66347", "lat": 38.885397, "fusion_lat": 0.0, "type": "electric_scooter", "lon": -76.980524, "is_disabled": 0, "fusion_lon": 0.0, "rental_uris": {"android": "https://dc.lft.to/lastmile_qr_scan", "ios": "https://dc.lft.to/lastmile_qr_scan"}, "is_reserved": 0}, {"bike_id": "c9851452b45c1a25d0ca301c81582217", "name": "c9851452b45c1a25d0ca301c81582217", "lat": 38.900435333333334, "fusion_lat": 0.0, "type": "electric_scooter", "lon": -77.03415233333334, "is_disabled": 0, "fusion_lon": 0.0, "rental_uris": {"android": "https://dc.lft.to/lastmile_qr_scan", "ios": "https://dc.lft.to/lastmile_qr_scan"}, "is_reserved": 0}, {"bike_id": "bde67b22dcd902f177993c817077b7ba", "name": "bde67b22dcd902f177993c817077b7ba", "lat": 38.867210166666666, "fusion_lat": 0.0, "type": "electric_scooter", "lon": -76.98072766666667, "is_disabled": 0, "fusion_lon": 0.0, "rental_uris": {"android": "https://dc.lft.to/lastmile_qr_scan", "ios": "https://dc.lft.to/lastmile_qr_scan"}, "is_reserved": 0}, {"bike_id": "576a32bcaa7d54f2b0db0714c7980c40", "name": "576a32bcaa7d54f2b0db0714c7980c40", "lat": 38.9366245, "fusion_lat": 0.0, "type": "electric_scooter", "lon": -77.02139533333333, "is_disabled": 0, "fusion_lon": 0.0, "rental_uris": {"android": "https://dc.lft.to/lastmile_qr_scan", "ios": "https://dc.lft.to/lastmile_qr_scan"}, "is_reserved": 0}, {"bike_id": "39b82e4ae8742e0be09ba77af48fde82", "name": "39b82e4ae8742e0be09ba77af48fde82", "lat": 38.91291316666667, "fusion_lat": 0.0, "type": "electric_scooter", "lon": -77.03864216666666, "is_disabled": 0, "fusion_lon": 0.0, "rental_uris": {"android": "https://dc.lft.to/lastmile_qr_scan", "ios": "https://dc.lft.to/lastmile_qr_scan"}, "is_reserved": 0}, {"bike_id": "c2d14d6db07ea5c5a1b0932e84ca8fc8", "name": "c2d14d6db07ea5c5a1b0932e84ca8fc8", "lat": 38.931872166666665, "fusion_lat": 0.0, "type": "electric_bike", "lon": -77.02352, "is_disabled": 0, "fusion_lon": 0.0, "rental_uris": {"android": "https://dc.lft.to/lastmile_qr_scan", "ios": "https://dc.lft.to/lastmile_qr_scan"}, "is_reserved": 0}, {"bike_id": "ca90b1b30c8350c058d379cdc1f2fa28", "name": "ca90b1b30c8350c058d379cdc1f2fa28", "lat": 38.86579366666667, "fusion_lat": 0.0, "type": "electric_scooter", "lon": -76.99034216666666, "is_disabled": 0, "fusion_lon": 0.0, "rental_uris": {"android": "https://dc.lft.to/lastmile_qr_scan", "ios": "https://dc.lft.to/lastmile_qr_scan"}, "is_reserved": 0}, {"bike_id": "0225b96dbed1c78f7be4b1e9ae496558", "name": "0225b96dbed1c78f7be4b1e9ae496558", "lat": 38.91661833333333, "fusion_lat": 0.0, "type": "electric_scooter", "lon": -77.02468683333333, "is_disabled": 0, "fusion_lon": 0.0, "rental_uris": {"android": "https://dc.lft.to/lastmile_qr_scan", "ios": "https://dc.lft.to/lastmile_qr_scan"}, "is_reserved": 0}, {"bike_id": "1640c4b1d3699c2f6b778cc27e938593", "name": "1640c4b1d3699c2f6b778cc27e938593", "lat": 38.90053666666667, "fusion_lat": 0.0, "type": "electric_scooter", "lon": -76.98850716666666, "is_disabled": 0, "fusion_lon": 0.0, "rental_uris": {"android": "https://dc.lft.to/lastmile_qr_scan", "ios": "https://dc.lft.to/lastmile_qr_scan"}, "is_reserved": 0}, {"bike_id": "b511cc776117e006359737f77d5a6e1b", "name": "b511cc776117e006359737f77d5a6e1b", "lat": 38.92335833333333, "fusion_lat": 0.0, "type": "electric_scooter", "lon": -77.0366055, "is_disabled": 0, "fusion_lon": 0.0, "rental_uris": {"android": "https://dc.lft.to/lastmile_qr_scan", "ios": "https://dc.lft.to/lastmile_qr_scan"}, "is_reserved": 0}, {"bike_id": "e063b508cfe7475fc314b576eeaf2073", "name": "e063b508cfe7475fc314b576eeaf2073", "lat": 38.9052155, "fusion_lat": 0.0, "type": "electric_scooter", "lon": -77.04186616666667, "is_disabled": 0, "fusion_lon": 0.0, "rental_uris": {"android": "https://dc.lft.to/lastmile_qr_scan", "ios": "https://dc.lft.to/lastmile_qr_scan"}, "is_reserved": 0}, {"bike_id": "e0902031604677af6cb1c6a53065d134", "name": "e0902031604677af6cb1c6a53065d134", "lat": 38.919887333333335, "fusion_lat": 0.0, "type": "electric_scooter", "lon": -77.03305866666666, "is_disabled": 0, "fusion_lon": 0.0, "rental_uris": {"android": "https://dc.lft.to/lastmile_qr_scan", "ios": "https://dc.lft.to/lastmile_qr_scan"}, "is_reserved": 0}, {"bike_id": "71318eea449ea41762380b61a5868fee", "name": "71318eea449ea41762380b61a5868fee", "lat": 38.9040675, "fusion_lat": 0.0, "type": "electric_scooter", "lon": -77.02498316666667, "is_disabled": 0, "fusion_lon": 0.0, "rental_uris": {"android": "https://dc.lft.to/lastmile_qr_scan", "ios": "https://dc.lft.to/lastmile_qr_scan"}, "is_reserved": 0}, {"bike_id": "4dc7a3b597ed205fea3f5705c5034420", "name": "4dc7a3b597ed205fea3f5705c5034420", "lat": 38.92058766666667, "fusion_lat": 0.0, "type": "electric_scooter", "lon": -77.03145583333334, "is_disabled": 0, "fusion_lon": 0.0, "rental_uris": {"android": "https://dc.lft.to/lastmile_qr_scan", "ios": "https://dc.lft.to/lastmile_qr_scan"}, "is_reserved": 0}, {"bike_id": "4247702b9d21764afd49d62ae82e652f", "name": "4247702b9d21764afd49d62ae82e652f", "lat": 38.900385166666666, "fusion_lat": 0.0, "type": "electric_scooter", "lon": -77.001891, "is_disabled": 0, "fusion_lon": 0.0, "rental_uris": {"android": "https://dc.lft.to/lastmile_qr_scan", "ios": "https://dc.lft.to/lastmile_qr_scan"}, "is_reserved": 0}, {"bike_id": "65440f2b5dcb07ab9c3e92543727c1cb", "name": "65440f2b5dcb07ab9c3e92543727c1cb", "lat": 38.863835333333334, "fusion_lat": 0.0, "type": "electric_scooter", "lon": -76.9905915, "is_disabled": 0, "fusion_lon": 0.0, "rental_uris": {"android": "https://dc.lft.to/lastmile_qr_scan", "ios": "https://dc.lft.to/lastmile_qr_scan"}, "is_reserved": 0}, {"bike_id": "e1cf8f03f4b78e145e36515b7e348e19", "name": "e1cf8f03f4b78e145e36515b7e348e19", "lat": 38.920097, "fusion_lat": 0.0, "type": "electric_scooter", "lon": -77.07135883333333, "is_disabled": 0, "fusion_lon": 0.0, "rental_uris": {"android": "https://dc.lft.to/lastmile_qr_scan", "ios": "https://dc.lft.to/lastmile_qr_scan"}, "is_reserved": 0}, {"bike_id": "c8a184305c76f5f11bf756be3e0e0733", "name": "c8a184305c76f5f11bf756be3e0e0733", "lat": 38.89941, "fusion_lat": 0.0, "type": "electric_scooter", "lon": -76.9770605, "is_disabled": 0, "fusion_lon": 0.0, "rental_uris": {"android": "https://dc.lft.to/lastmile_qr_scan", "ios": "https://dc.lft.to/lastmile_qr_scan"}, "is_reserved": 0}, {"bike_id": "a5d082f8c80550356844b265ac3b6a20", "name": "a5d082f8c80550356844b265ac3b6a20", "lat": 38.92029816666667, "fusion_lat": 0.0, "type": "electric_scooter", "lon": -77.03120833333334, "is_disabled": 0, "fusion_lon": 0.0, "rental_uris": {"android": "https://dc.lft.to/lastmile_qr_scan", "ios": "https://dc.lft.to/lastmile_qr_scan"}, "is_reserved": 0}, {"bike_id": "4464982e5d29b2ee09b122a0c3cc28ac", "name": "4464982e5d29b2ee09b122a0c3cc28ac", "lat": 38.919286666666665, "fusion_lat": 0.0, "type": "electric_scooter", "lon": -77.03336133333333, "is_disabled": 0, "fusion_lon": 0.0, "rental_uris": {"android": "https://dc.lft.to/lastmile_qr_scan", "ios": "https://dc.lft.to/lastmile_qr_scan"}, "is_reserved": 0}, {"bike_id": "4e58b5a8888feb775e70472533d09550", "name": "4e58b5a8888feb775e70472533d09550", "lat": 38.995235, "fusion_lat": 0.0, "type": "electric_bike", "lon": -77.03783933333334, "is_disabled": 0, "fusion_lon": 0.0, "rental_uris": {"android": "https://dc.lft.to/lastmile_qr_scan", "ios": "https://dc.lft.to/lastmile_qr_scan"}, "is_reserved": 0}, {"bike_id": "2e34071c81c30ffa89a4a187c748a95c", "name": "2e34071c81c30ffa89a4a187c748a95c", "lat": 38.915284, "fusion_lat": 0.0, "type": "electric_scooter", "lon": -77.0218865, "is_disabled": 0, "fusion_lon": 0.0, "rental_uris": {"android": "https://dc.lft.to/lastmile_qr_scan", "ios": "https://dc.lft.to/lastmile_qr_scan"}, "is_reserved": 0}, {"bike_id": "554f7877278f4982581d2a3fedeead1b", "name": "554f7877278f4982581d2a3fedeead1b", "lat": 38.924216333333334, "fusion_lat": 0.0, "type": "electric_scooter", "lon": -77.019485, "is_disabled": 0, "fusion_lon": 0.0, "rental_uris": {"android": "https://dc.lft.to/lastmile_qr_scan", "ios": "https://dc.lft.to/lastmile_qr_scan"}, "is_reserved": 0}, {"bike_id": "876d673bde47bd283dd98d7e1686a840", "name": "876d673bde47bd283dd98d7e1686a840", "lat": 38.945564166666664, "fusion_lat": 0.0, "type": "electric_bike", "lon": -76.97094416666667, "is_disabled": 0, "fusion_lon": 0.0, "rental_uris": {"android": "https://dc.lft.to/lastmile_qr_scan", "ios": "https://dc.lft.to/lastmile_qr_scan"}, "is_reserved": 0}, {"bike_id": "78562e2c2e208db6c8c7f62c114f5ee7", "name": "78562e2c2e208db6c8c7f62c114f5ee7", "lat": 38.9081975, "fusion_lat": 0.0, "type": "electric_bike", "lon": -76.99718616666667, "is_disabled": 0, "fusion_lon": 0.0, "rental_uris": {"android": "https://dc.lft.to/lastmile_qr_scan", "ios": "https://dc.lft.to/lastmile_qr_scan"}, "is_reserved": 0}, {"bike_id": "8f65279aeb333bda02a81b0f96310597", "name": "8f65279aeb333bda02a81b0f96310597", "lat": 38.87042533333333, "fusion_lat": 0.0, "type": "electric_bike", "lon": -77.22916866666667, "is_disabled": 0, "fusion_lon": 0.0, "rental_uris": {"android": "https://dc.lft.to/lastmile_qr_scan", "ios": "https://dc.lft.to/lastmile_qr_scan"}, "is_reserved": 0}, {"bike_id": "a23fec8da27f1fa8991249985fd64be6", "name": "a23fec8da27f1fa8991249985fd64be6", "lat": 38.9422445, "fusion_lat": 0.0, "type": "electric_scooter", "lon": -77.02958483333333, "is_disabled": 0, "fusion_lon": 0.0, "rental_uris": {"android": "https://dc.lft.to/lastmile_qr_scan", "ios": "https://dc.lft.to/lastmile_qr_scan"}, "is_reserved": 0}, {"bike_id": "71163ff7b863adb1fa0b894b7ca38e47", "name": "71163ff7b863adb1fa0b894b7ca38e47", "lat": 38.924545333333334, "fusion_lat": 0.0, "type": "electric_scooter", "lon": -77.02032183333333, "is_disabled": 0, "fusion_lon": 0.0, "rental_uris": {"android": "https://dc.lft.to/lastmile_qr_scan", "ios": "https://dc.lft.to/lastmile_qr_scan"}, "is_reserved": 0}, {"bike_id": "b617155888d7228ff576c0f1889a5aed", "name": "b617155888d7228ff576c0f1889a5aed", "lat": 38.90111433333333, "fusion_lat": 0.0, "type": "electric_scooter", "lon": -77.0123725, "is_disabled": 0, "fusion_lon": 0.0, "rental_uris": {"android": "https://dc.lft.to/lastmile_qr_scan", "ios": "https://dc.lft.to/lastmile_qr_scan"}, "is_reserved": 0}, {"bike_id": "ca121edc2aed90b29de6d4d6fac5c3d1", "name": "ca121edc2aed90b29de6d4d6fac5c3d1", "lat": 38.91490683333333, "fusion_lat": 0.0, "type": "electric_scooter", "lon": -77.03296116666667, "is_disabled": 0, "fusion_lon": 0.0, "rental_uris": {"android": "https://dc.lft.to/lastmile_qr_scan", "ios": "https://dc.lft.to/lastmile_qr_scan"}, "is_reserved": 0}, {"bike_id": "dddc83102272131d080f417102883024", "name": "dddc83102272131d080f417102883024", "lat": 38.8543855, "fusion_lat": 0.0, "type": "electric_bike", "lon": -77.083192, "is_disabled": 0, "fusion_lon": 0.0, "rental_uris": {"android": "https://dc.lft.to/lastmile_qr_scan", "ios": "https://dc.lft.to/lastmile_qr_scan"}, "is_reserved": 0}, {"bike_id": "49772329e70a7302b7c76e1c11bd04f8", "name": "49772329e70a7302b7c76e1c11bd04f8", "lat": 38.89713966666667, "fusion_lat": 0.0, "type": "electric_scooter", "lon": -76.99116633333334, "is_disabled": 0, "fusion_lon": 0.0, "rental_uris": {"android": "https://dc.lft.to/lastmile_qr_scan", "ios": "https://dc.lft.to/lastmile_qr_scan"}, "is_reserved": 0}, {"bike_id": "a9e7ff74886d27719e5eaac1a4a592a1", "name": "a9e7ff74886d27719e5eaac1a4a592a1", "lat": 38.92328083333334, "fusion_lat": 0.0, "type": "electric_scooter", "lon": -77.01948883333333, "is_disabled": 0, "fusion_lon": 0.0, "rental_uris": {"android": "https://dc.lft.to/lastmile_qr_scan", "ios": "https://dc.lft.to/lastmile_qr_scan"}, "is_reserved": 0}, {"bike_id": "a4d8daf9e606ec953f18a27f423e94a6", "name": "a4d8daf9e606ec953f18a27f423e94a6", "lat": 38.92398333333333, "fusion_lat": 0.0, "type": "electric_scooter", "lon": -77.0297715, "is_disabled": 0, "fusion_lon": 0.0, "rental_uris": {"android": "https://dc.lft.to/lastmile_qr_scan", "ios": "https://dc.lft.to/lastmile_qr_scan"}, "is_reserved": 0}, {"bike_id": "f63e58ae90a37dc34af23f86855c255d", "name": "f63e58ae90a37dc34af23f86855c255d", "lat": 38.922389333333335, "fusion_lat": 0.0, "type": "electric_scooter", "lon": -77.0438265, "is_disabled": 0, "fusion_lon": 0.0, "rental_uris": {"android": "https://dc.lft.to/lastmile_qr_scan", "ios": "https://dc.lft.to/lastmile_qr_scan"}, "is_reserved": 0}, {"bike_id": "de2d248474698afe6fa9439aa117e820", "name": "de2d248474698afe6fa9439aa117e820", "lat": 38.90700366666667, "fusion_lat": 0.0, "type": "electric_scooter", "lon": -77.02384683333334, "is_disabled": 0, "fusion_lon": 0.0, "rental_uris": {"android": "https://dc.lft.to/lastmile_qr_scan", "ios": "https://dc.lft.to/lastmile_qr_scan"}, "is_reserved": 0}, {"bike_id": "ab5afbd42238106af2e3fe564551b5e7", "name": "ab5afbd42238106af2e3fe564551b5e7", "lat": 38.91401616666667, "fusion_lat": 0.0, "type": "electric_scooter", "lon": -77.017942, "is_disabled": 0, "fusion_lon": 0.0, "rental_uris": {"android": "https://dc.lft.to/lastmile_qr_scan", "ios": "https://dc.lft.to/lastmile_qr_scan"}, "is_reserved": 0}, {"bike_id": "5d5a366e23e97a9882b19a006ee7fdee", "name": "5d5a366e23e97a9882b19a006ee7fdee", "lat": 38.920489333333336, "fusion_lat": 0.0, "type": "electric_scooter", "lon": -77.01669866666667, "is_disabled": 0, "fusion_lon": 0.0, "rental_uris": {"android": "https://dc.lft.to/lastmile_qr_scan", "ios": "https://dc.lft.to/lastmile_qr_scan"}, "is_reserved": 0}, {"bike_id": "2ec9df9fcf50b23c99cdaaadaf21336f", "name": "2ec9df9fcf50b23c99cdaaadaf21336f", "lat": 38.99887716666667, "fusion_lat": 0.0, "type": "electric_bike", "lon": -76.90856683333334, "is_disabled": 0, "fusion_lon": 0.0, "rental_uris": {"android": "https://dc.lft.to/lastmile_qr_scan", "ios": "https://dc.lft.to/lastmile_qr_scan"}, "is_reserved": 0}, {"bike_id": "e6cb76204ecda4b6a99756fd22758459", "name": "e6cb76204ecda4b6a99756fd22758459", "lat": 38.92128866666667, "fusion_lat": 0.0, "type": "electric_scooter", "lon": -77.036659, "is_disabled": 0, "fusion_lon": 0.0, "rental_uris": {"android": "https://dc.lft.to/lastmile_qr_scan", "ios": "https://dc.lft.to/lastmile_qr_scan"}, "is_reserved": 0}, {"bike_id": "942fc7852ca7aa9a6676128c0462fea8", "name": "942fc7852ca7aa9a6676128c0462fea8", "lat": 38.959174833333336, "fusion_lat": 0.0, "type": "electric_scooter", "lon": -77.00026166666666, "is_disabled": 0, "fusion_lon": 0.0, "rental_uris": {"android": "https://dc.lft.to/lastmile_qr_scan", "ios": "https://dc.lft.to/lastmile_qr_scan"}, "is_reserved": 0}, {"bike_id": "7ed24248c5534210585a6205978eb809", "name": "7ed24248c5534210585a6205978eb809", "lat": 38.8992035, "fusion_lat": 0.0, "type": "electric_scooter", "lon": -77.00356233333333, "is_disabled": 0, "fusion_lon": 0.0, "rental_uris": {"android": "https://dc.lft.to/lastmile_qr_scan", "ios": "https://dc.lft.to/lastmile_qr_scan"}, "is_reserved": 0}, {"bike_id": "0d52dc71d84d3b5c6606c3c0c82c06a0", "name": "0d52dc71d84d3b5c6606c3c0c82c06a0", "lat": 38.88740466666667, "fusion_lat": 0.0, "type": "electric_scooter", "lon": -77.00346883333333, "is_disabled": 0, "fusion_lon": 0.0, "rental_uris": {"android": "https://dc.lft.to/lastmile_qr_scan", "ios": "https://dc.lft.to/lastmile_qr_scan"}, "is_reserved": 0}, {"bike_id": "b45bdd440dc732d48e900cad79317bdf", "name": "b45bdd440dc732d48e900cad79317bdf", "lat": 38.942661, "fusion_lat": 0.0, "type": "electric_bike", "lon": -76.99072666666666, "is_disabled": 0, "fusion_lon": 0.0, "rental_uris": {"android": "https://dc.lft.to/lastmile_qr_scan", "ios": "https://dc.lft.to/lastmile_qr_scan"}, "is_reserved": 0}, {"bike_id": "3939306f2f38eeda12bfc917c6fa8dc7", "name": "3939306f2f38eeda12bfc917c6fa8dc7", "lat": 38.9485215, "fusion_lat": 0.0, "type": "electric_scooter", "lon": -77.026829, "is_disabled": 0, "fusion_lon": 0.0, "rental_uris": {"android": "https://dc.lft.to/lastmile_qr_scan", "ios": "https://dc.lft.to/lastmile_qr_scan"}, "is_reserved": 0}, {"bike_id": "deb76ab8493b80641894d82884a1d3d5", "name": "deb76ab8493b80641894d82884a1d3d5", "lat": 38.89598816666667, "fusion_lat": 0.0, "type": "electric_scooter", "lon": -77.03006583333334, "is_disabled": 0, "fusion_lon": 0.0, "rental_uris": {"android": "https://dc.lft.to/lastmile_qr_scan", "ios": "https://dc.lft.to/lastmile_qr_scan"}, "is_reserved": 0}, {"bike_id": "ac65c13387c16bea29171a52bd704206", "name": "ac65c13387c16bea29171a52bd704206", "lat": 38.903159, "fusion_lat": 0.0, "type": "electric_scooter", "lon": -76.97796583333333, "is_disabled": 0, "fusion_lon": 0.0, "rental_uris": {"android": "https://dc.lft.to/lastmile_qr_scan", "ios": "https://dc.lft.to/lastmile_qr_scan"}, "is_reserved": 0}, {"bike_id": "4b5d19149d1857a821191c51169d3008", "name": "4b5d19149d1857a821191c51169d3008", "lat": 38.90169, "fusion_lat": 0.0, "type": "electric_scooter", "lon": -77.02479466666666, "is_disabled": 0, "fusion_lon": 0.0, "rental_uris": {"android": "https://dc.lft.to/lastmile_qr_scan", "ios": "https://dc.lft.to/lastmile_qr_scan"}, "is_reserved": 0}, {"bike_id": "bc9c81e558745b2aa65b01a4209ce820", "name": "bc9c81e558745b2aa65b01a4209ce820", "lat": 38.92495866666667, "fusion_lat": 0.0, "type": "electric_scooter", "lon": -77.03933533333333, "is_disabled": 0, "fusion_lon": 0.0, "rental_uris": {"android": "https://dc.lft.to/lastmile_qr_scan", "ios": "https://dc.lft.to/lastmile_qr_scan"}, "is_reserved": 0}, {"bike_id": "7ae790ac7af5227e6d30eb424df18e48", "name": "7ae790ac7af5227e6d30eb424df18e48", "lat": 38.90137716666667, "fusion_lat": 0.0, "type": "electric_scooter", "lon": -77.041754, "is_disabled": 0, "fusion_lon": 0.0, "rental_uris": {"android": "https://dc.lft.to/lastmile_qr_scan", "ios": "https://dc.lft.to/lastmile_qr_scan"}, "is_reserved": 0}, {"bike_id": "1c8a8fddecd455635fddffe6e11d4c2b", "name": "1c8a8fddecd455635fddffe6e11d4c2b", "lat": 38.894715833333336, "fusion_lat": 0.0, "type": "electric_scooter", "lon": -76.99711816666667, "is_disabled": 0, "fusion_lon": 0.0, "rental_uris": {"android": "https://dc.lft.to/lastmile_qr_scan", "ios": "https://dc.lft.to/lastmile_qr_scan"}, "is_reserved": 0}, {"bike_id": "fa5e543170d4bf65e4c647bd2c53a97a", "name": "fa5e543170d4bf65e4c647bd2c53a97a", "lat": 38.89647633333333, "fusion_lat": 0.0, "type": "electric_scooter", "lon": -77.0485875, "is_disabled": 0, "fusion_lon": 0.0, "rental_uris": {"android": "https://dc.lft.to/lastmile_qr_scan", "ios": "https://dc.lft.to/lastmile_qr_scan"}, "is_reserved": 0}, {"bike_id": "31e711de739e714cda48d650d2bcc00e", "name": "31e711de739e714cda48d650d2bcc00e", "lat": 38.887305, "fusion_lat": 0.0, "type": "electric_scooter", "lon": -76.98380816666666, "is_disabled": 0, "fusion_lon": 0.0, "rental_uris": {"android": "https://dc.lft.to/lastmile_qr_scan", "ios": "https://dc.lft.to/lastmile_qr_scan"}, "is_reserved": 0}, {"bike_id": "790612ac7966efb092625ad5d3372b49", "name": "790612ac7966efb092625ad5d3372b49", "lat": 38.927543666666665, "fusion_lat": 0.0, "type": "electric_scooter", "lon": -77.021083, "is_disabled": 0, "fusion_lon": 0.0, "rental_uris": {"android": "https://dc.lft.to/lastmile_qr_scan", "ios": "https://dc.lft.to/lastmile_qr_scan"}, "is_reserved": 0}, {"bike_id": "60d71789218db73e1d292a36c94188a1", "name": "60d71789218db73e1d292a36c94188a1", "lat": 38.89585116666667, "fusion_lat": 0.0, "type": "electric_scooter", "lon": -77.0415065, "is_disabled": 0, "fusion_lon": 0.0, "rental_uris": {"android": "https://dc.lft.to/lastmile_qr_scan", "ios": "https://dc.lft.to/lastmile_qr_scan"}, "is_reserved": 0}, {"bike_id": "bc8511e79673c02574aac85696774dd6", "name": "bc8511e79673c02574aac85696774dd6", "lat": 38.911258, "fusion_lat": 0.0, "type": "electric_scooter", "lon": -77.0219995, "is_disabled": 0, "fusion_lon": 0.0, "rental_uris": {"android": "https://dc.lft.to/lastmile_qr_scan", "ios": "https://dc.lft.to/lastmile_qr_scan"}, "is_reserved": 0}, {"bike_id": "2906c6904b15960ded1bca728a9a3453", "name": "2906c6904b15960ded1bca728a9a3453", "lat": 38.89447333333333, "fusion_lat": 0.0, "type": "electric_scooter", "lon": -77.04529266666667, "is_disabled": 0, "fusion_lon": 0.0, "rental_uris": {"android": "https://dc.lft.to/lastmile_qr_scan", "ios": "https://dc.lft.to/lastmile_qr_scan"}, "is_reserved": 0}, {"bike_id": "bd5dede40dc5906d19ba9f04fd6b1e60", "name": "bd5dede40dc5906d19ba9f04fd6b1e60", "lat": 38.918738166666664, "fusion_lat": 0.0, "type": "electric_scooter", "lon": -77.03574616666667, "is_disabled": 0, "fusion_lon": 0.0, "rental_uris": {"android": "https://dc.lft.to/lastmile_qr_scan", "ios": "https://dc.lft.to/lastmile_qr_scan"}, "is_reserved": 0}, {"bike_id": "dfe1258b4419f3616770e5f4127c6686", "name": "dfe1258b4419f3616770e5f4127c6686", "lat": 38.90576516666667, "fusion_lat": 0.0, "type": "electric_scooter", "lon": -77.04179083333334, "is_disabled": 0, "fusion_lon": 0.0, "rental_uris": {"android": "https://dc.lft.to/lastmile_qr_scan", "ios": "https://dc.lft.to/lastmile_qr_scan"}, "is_reserved": 0}, {"bike_id": "7b7de2cf6af62c464371d2c3c00844a6", "name": "7b7de2cf6af62c464371d2c3c00844a6", "lat": 38.9192315, "fusion_lat": 0.0, "type": "electric_scooter", "lon": -77.04493833333333, "is_disabled": 0, "fusion_lon": 0.0, "rental_uris": {"android": "https://dc.lft.to/lastmile_qr_scan", "ios": "https://dc.lft.to/lastmile_qr_scan"}, "is_reserved": 0}, {"bike_id": "1c78ce5ed4afbb93730a5ca7686eb6b4", "name": "1c78ce5ed4afbb93730a5ca7686eb6b4", "lat": 38.905371833333334, "fusion_lat": 0.0, "type": "electric_bike", "lon": -77.06535016666666, "is_disabled": 0, "fusion_lon": 0.0, "rental_uris": {"android": "https://dc.lft.to/lastmile_qr_scan", "ios": "https://dc.lft.to/lastmile_qr_scan"}, "is_reserved": 0}, {"bike_id": "c29eb1c48205ddf55d24454003ab48d0", "name": "c29eb1c48205ddf55d24454003ab48d0", "lat": 38.90078966666667, "fusion_lat": 0.0, "type": "electric_scooter", "lon": -77.01325283333334, "is_disabled": 0, "fusion_lon": 0.0, "rental_uris": {"android": "https://dc.lft.to/lastmile_qr_scan", "ios": "https://dc.lft.to/lastmile_qr_scan"}, "is_reserved": 0}, {"bike_id": "e6609ac8c70302d143f55b0e1bc22978", "name": "e6609ac8c70302d143f55b0e1bc22978", "lat": 38.878916833333335, "fusion_lat": 0.0, "type": "electric_scooter", "lon": -77.0228495, "is_disabled": 0, "fusion_lon": 0.0, "rental_uris": {"android": "https://dc.lft.to/lastmile_qr_scan", "ios": "https://dc.lft.to/lastmile_qr_scan"}, "is_reserved": 0}, {"bike_id": "30ed24c712d98a5372d59b4497f3483f", "name": "30ed24c712d98a5372d59b4497f3483f", "lat": 38.89428366666667, "fusion_lat": 0.0, "type": "electric_scooter", "lon": -77.02091933333334, "is_disabled": 0, "fusion_lon": 0.0, "rental_uris": {"android": "https://dc.lft.to/lastmile_qr_scan", "ios": "https://dc.lft.to/lastmile_qr_scan"}, "is_reserved": 0}, {"bike_id": "38be3bf9448673a099cdc99dfd4aef96", "name": "38be3bf9448673a099cdc99dfd4aef96", "lat": 38.8923285, "fusion_lat": 0.0, "type": "electric_scooter", "lon": -77.05003, "is_disabled": 0, "fusion_lon": 0.0, "rental_uris": {"android": "https://dc.lft.to/lastmile_qr_scan", "ios": "https://dc.lft.to/lastmile_qr_scan"}, "is_reserved": 0}, {"bike_id": "0a6db949ece3a27e41ea012b7d27740c", "name": "0a6db949ece3a27e41ea012b7d27740c", "lat": 38.904438666666664, "fusion_lat": 0.0, "type": "electric_scooter", "lon": -77.02598983333333, "is_disabled": 0, "fusion_lon": 0.0, "rental_uris": {"android": "https://dc.lft.to/lastmile_qr_scan", "ios": "https://dc.lft.to/lastmile_qr_scan"}, "is_reserved": 0}, {"bike_id": "88519cf0ea2b8a1e1bb2efedf0d16dfa", "name": "88519cf0ea2b8a1e1bb2efedf0d16dfa", "lat": 38.923513, "fusion_lat": 0.0, "type": "electric_scooter", "lon": -77.04947916666667, "is_disabled": 0, "fusion_lon": 0.0, "rental_uris": {"android": "https://dc.lft.to/lastmile_qr_scan", "ios": "https://dc.lft.to/lastmile_qr_scan"}, "is_reserved": 0}, {"bike_id": "1f7ddaf201e1a5071bbfc296689cf48d", "name": "1f7ddaf201e1a5071bbfc296689cf48d", "lat": 38.892422833333335, "fusion_lat": 0.0, "type": "electric_scooter", "lon": -77.04891716666667, "is_disabled": 0, "fusion_lon": 0.0, "rental_uris": {"android": "https://dc.lft.to/lastmile_qr_scan", "ios": "https://dc.lft.to/lastmile_qr_scan"}, "is_reserved": 0}, {"bike_id": "c8fc656b3f28672a546482f5b6b6b735", "name": "c8fc656b3f28672a546482f5b6b6b735", "lat": 38.873450166666665, "fusion_lat": 0.0, "type": "electric_scooter", "lon": -76.99171083333333, "is_disabled": 0, "fusion_lon": 0.0, "rental_uris": {"android": "https://dc.lft.to/lastmile_qr_scan", "ios": "https://dc.lft.to/lastmile_qr_scan"}, "is_reserved": 0}, {"bike_id": "4fc43f50ce302e30e48dc76f88b13be1", "name": "4fc43f50ce302e30e48dc76f88b13be1", "lat": 38.9045315, "fusion_lat": 0.0, "type": "electric_scooter", "lon": -77.05848183333333, "is_disabled": 0, "fusion_lon": 0.0, "rental_uris": {"android": "https://dc.lft.to/lastmile_qr_scan", "ios": "https://dc.lft.to/lastmile_qr_scan"}, "is_reserved": 0}, {"bike_id": "ea48d1daabae7ea404b05476bbe36f18", "name": "ea48d1daabae7ea404b05476bbe36f18", "lat": 38.900958833333334, "fusion_lat": 0.0, "type": "electric_scooter", "lon": -77.02711716666667, "is_disabled": 0, "fusion_lon": 0.0, "rental_uris": {"android": "https://dc.lft.to/lastmile_qr_scan", "ios": "https://dc.lft.to/lastmile_qr_scan"}, "is_reserved": 0}, {"bike_id": "1b030313c4581a91c95601ca549db644", "name": "1b030313c4581a91c95601ca549db644", "lat": 38.90709733333333, "fusion_lat": 0.0, "type": "electric_scooter", "lon": -77.02384133333334, "is_disabled": 0, "fusion_lon": 0.0, "rental_uris": {"android": "https://dc.lft.to/lastmile_qr_scan", "ios": "https://dc.lft.to/lastmile_qr_scan"}, "is_reserved": 0}, {"bike_id": "80505f29edd5654c88e187c2e2bfd937", "name": "80505f29edd5654c88e187c2e2bfd937", "lat": 38.90472616666667, "fusion_lat": 0.0, "type": "electric_scooter", "lon": -77.025939, "is_disabled": 0, "fusion_lon": 0.0, "rental_uris": {"android": "https://dc.lft.to/lastmile_qr_scan", "ios": "https://dc.lft.to/lastmile_qr_scan"}, "is_reserved": 0}, {"bike_id": "4aded7a470b15caf3176a63eea94934e", "name": "4aded7a470b15caf3176a63eea94934e", "lat": 38.9244145, "fusion_lat": 0.0, "type": "electric_scooter", "lon": -77.0203315, "is_disabled": 0, "fusion_lon": 0.0, "rental_uris": {"android": "https://dc.lft.to/lastmile_qr_scan", "ios": "https://dc.lft.to/lastmile_qr_scan"}, "is_reserved": 0}, {"bike_id": "640f8e459bebb6e72cef1d8ad2ee8f8d", "name": "640f8e459bebb6e72cef1d8ad2ee8f8d", "lat": 38.90902783333333, "fusion_lat": 0.0, "type": "electric_scooter", "lon": -76.998704, "is_disabled": 0, "fusion_lon": 0.0, "rental_uris": {"android": "https://dc.lft.to/lastmile_qr_scan", "ios": "https://dc.lft.to/lastmile_qr_scan"}, "is_reserved": 0}, {"bike_id": "3528bf5b83464ab2b4542010cbac825a", "name": "3528bf5b83464ab2b4542010cbac825a", "lat": 38.90406316666667, "fusion_lat": 0.0, "type": "electric_scooter", "lon": -76.97349666666666, "is_disabled": 0, "fusion_lon": 0.0, "rental_uris": {"android": "https://dc.lft.to/lastmile_qr_scan", "ios": "https://dc.lft.to/lastmile_qr_scan"}, "is_reserved": 0}, {"bike_id": "1c2a1958faa65948ff7bc7a259d9ccdd", "name": "1c2a1958faa65948ff7bc7a259d9ccdd", "lat": 38.907135333333336, "fusion_lat": 0.0, "type": "electric_scooter", "lon": -77.0238525, "is_disabled": 0, "fusion_lon": 0.0, "rental_uris": {"android": "https://dc.lft.to/lastmile_qr_scan", "ios": "https://dc.lft.to/lastmile_qr_scan"}, "is_reserved": 0}, {"bike_id": "d318138ed274a668f448fd6e50f33d37", "name": "d318138ed274a668f448fd6e50f33d37", "lat": 38.911411333333334, "fusion_lat": 0.0, "type": "electric_scooter", "lon": -77.0384675, "is_disabled": 0, "fusion_lon": 0.0, "rental_uris": {"android": "https://dc.lft.to/lastmile_qr_scan", "ios": "https://dc.lft.to/lastmile_qr_scan"}, "is_reserved": 0}, {"bike_id": "adfa758505faf4428e05c56e1535be08", "name": "adfa758505faf4428e05c56e1535be08", "lat": 38.860188666666666, "fusion_lat": 0.0, "type": "electric_scooter", "lon": -76.97001433333334, "is_disabled": 0, "fusion_lon": 0.0, "rental_uris": {"android": "https://dc.lft.to/lastmile_qr_scan", "ios": "https://dc.lft.to/lastmile_qr_scan"}, "is_reserved": 0}, {"bike_id": "7c6625c111da35e951cad99039ce3fd8", "name": "7c6625c111da35e951cad99039ce3fd8", "lat": 38.96677416666667, "fusion_lat": 0.0, "type": "electric_scooter", "lon": -77.03610183333333, "is_disabled": 0, "fusion_lon": 0.0, "rental_uris": {"android": "https://dc.lft.to/lastmile_qr_scan", "ios": "https://dc.lft.to/lastmile_qr_scan"}, "is_reserved": 0}, {"bike_id": "e420e45f4ddbaad477ba4f381988f61d", "name": "e420e45f4ddbaad477ba4f381988f61d", "lat": 38.9024635, "fusion_lat": 0.0, "type": "electric_scooter", "lon": -77.02361683333334, "is_disabled": 0, "fusion_lon": 0.0, "rental_uris": {"android": "https://dc.lft.to/lastmile_qr_scan", "ios": "https://dc.lft.to/lastmile_qr_scan"}, "is_reserved": 0}, {"bike_id": "9d9f962b8b0bdb4698306636b16521ab", "name": "9d9f962b8b0bdb4698306636b16521ab", "lat": 38.91129766666667, "fusion_lat": 0.0, "type": "electric_scooter", "lon": -77.02203083333333, "is_disabled": 0, "fusion_lon": 0.0, "rental_uris": {"android": "https://dc.lft.to/lastmile_qr_scan", "ios": "https://dc.lft.to/lastmile_qr_scan"}, "is_reserved": 0}, {"bike_id": "9f18268e420b1ba7f375b5bdfc237b25", "name": "9f18268e420b1ba7f375b5bdfc237b25", "lat": 38.91636316666666, "fusion_lat": 0.0, "type": "electric_scooter", "lon": -77.0254925, "is_disabled": 0, "fusion_lon": 0.0, "rental_uris": {"android": "https://dc.lft.to/lastmile_qr_scan", "ios": "https://dc.lft.to/lastmile_qr_scan"}, "is_reserved": 0}, {"bike_id": "d192a3df56f9f7a70bd96b78716d9f78", "name": "d192a3df56f9f7a70bd96b78716d9f78", "lat": 38.89542483333334, "fusion_lat": 0.0, "type": "electric_scooter", "lon": -76.92775733333333, "is_disabled": 0, "fusion_lon": 0.0, "rental_uris": {"android": "https://dc.lft.to/lastmile_qr_scan", "ios": "https://dc.lft.to/lastmile_qr_scan"}, "is_reserved": 0}, {"bike_id": "4c9e41f8c8323e8146fea3f9a4fcafbf", "name": "4c9e41f8c8323e8146fea3f9a4fcafbf", "lat": 38.924208166666666, "fusion_lat": 0.0, "type": "electric_scooter", "lon": -77.01953866666666, "is_disabled": 0, "fusion_lon": 0.0, "rental_uris": {"android": "https://dc.lft.to/lastmile_qr_scan", "ios": "https://dc.lft.to/lastmile_qr_scan"}, "is_reserved": 0}, {"bike_id": "bdd9cd018a2238bea4293e7eed6d46c4", "name": "bdd9cd018a2238bea4293e7eed6d46c4", "lat": 38.951861666666666, "fusion_lat": 0.0, "type": "electric_scooter", "lon": -77.012616, "is_disabled": 0, "fusion_lon": 0.0, "rental_uris": {"android": "https://dc.lft.to/lastmile_qr_scan", "ios": "https://dc.lft.to/lastmile_qr_scan"}, "is_reserved": 0}, {"bike_id": "b4fa4588519b8aba1e936e692cf54bcc", "name": "b4fa4588519b8aba1e936e692cf54bcc", "lat": 38.89548883333333, "fusion_lat": 0.0, "type": "electric_scooter", "lon": -76.98335483333334, "is_disabled": 0, "fusion_lon": 0.0, "rental_uris": {"android": "https://dc.lft.to/lastmile_qr_scan", "ios": "https://dc.lft.to/lastmile_qr_scan"}, "is_reserved": 0}, {"bike_id": "198e4cdea9b6f5643a48ee7865e1e676", "name": "198e4cdea9b6f5643a48ee7865e1e676", "lat": 38.91800833333333, "fusion_lat": 0.0, "type": "electric_scooter", "lon": -77.0320335, "is_disabled": 0, "fusion_lon": 0.0, "rental_uris": {"android": "https://dc.lft.to/lastmile_qr_scan", "ios": "https://dc.lft.to/lastmile_qr_scan"}, "is_reserved": 0}, {"bike_id": "b76b52d1935acb7598db2d423a4cb7a6", "name": "b76b52d1935acb7598db2d423a4cb7a6", "lat": 38.899601, "fusion_lat": 0.0, "type": "electric_scooter", "lon": -77.04479466666666, "is_disabled": 0, "fusion_lon": 0.0, "rental_uris": {"android": "https://dc.lft.to/lastmile_qr_scan", "ios": "https://dc.lft.to/lastmile_qr_scan"}, "is_reserved": 0}, {"bike_id": "ffafad4004fafd3ca046eea41d3f4a34", "name": "ffafad4004fafd3ca046eea41d3f4a34", "lat": 38.859581666666664, "fusion_lat": 0.0, "type": "electric_scooter", "lon": -76.991524, "is_disabled": 0, "fusion_lon": 0.0, "rental_uris": {"android": "https://dc.lft.to/lastmile_qr_scan", "ios": "https://dc.lft.to/lastmile_qr_scan"}, "is_reserved": 0}, {"bike_id": "ed689cbb400374b38af689fa80c9f2e6", "name": "ed689cbb400374b38af689fa80c9f2e6", "lat": 38.90021616666667, "fusion_lat": 0.0, "type": "electric_bike", "lon": -76.98040466666667, "is_disabled": 0, "fusion_lon": 0.0, "rental_uris": {"android": "https://dc.lft.to/lastmile_qr_scan", "ios": "https://dc.lft.to/lastmile_qr_scan"}, "is_reserved": 0}, {"bike_id": "b938c6d1f827c62d517d446ec6f7a71a", "name": "b938c6d1f827c62d517d446ec6f7a71a", "lat": 38.885249333333334, "fusion_lat": 0.0, "type": "electric_scooter", "lon": -76.977093, "is_disabled": 0, "fusion_lon": 0.0, "rental_uris": {"android": "https://dc.lft.to/lastmile_qr_scan", "ios": "https://dc.lft.to/lastmile_qr_scan"}, "is_reserved": 0}, {"bike_id": "7bf99942a48c9940328ac0e61e8fb2f9", "name": "7bf99942a48c9940328ac0e61e8fb2f9", "lat": 38.934982166666664, "fusion_lat": 0.0, "type": "electric_scooter", "lon": -77.02726616666666, "is_disabled": 0, "fusion_lon": 0.0, "rental_uris": {"android": "https://dc.lft.to/lastmile_qr_scan", "ios": "https://dc.lft.to/lastmile_qr_scan"}, "is_reserved": 0}, {"bike_id": "dded4f31a5d56e387ae818d9452237be", "name": "dded4f31a5d56e387ae818d9452237be", "lat": 38.96035, "fusion_lat": 0.0, "type": "electric_scooter", "lon": -77.02427516666667, "is_disabled": 0, "fusion_lon": 0.0, "rental_uris": {"android": "https://dc.lft.to/lastmile_qr_scan", "ios": "https://dc.lft.to/lastmile_qr_scan"}, "is_reserved": 0}, {"bike_id": "53f207c27efb170108ae6e6a7b6286ed", "name": "53f207c27efb170108ae6e6a7b6286ed", "lat": 38.925872, "fusion_lat": 0.0, "type": "electric_scooter", "lon": -77.02258466666666, "is_disabled": 0, "fusion_lon": 0.0, "rental_uris": {"android": "https://dc.lft.to/lastmile_qr_scan", "ios": "https://dc.lft.to/lastmile_qr_scan"}, "is_reserved": 0}, {"bike_id": "9909c3b7a4014424de2eb5a067cb47a2", "name": "9909c3b7a4014424de2eb5a067cb47a2", "lat": 38.90715183333333, "fusion_lat": 0.0, "type": "electric_scooter", "lon": -77.03389583333333, "is_disabled": 0, "fusion_lon": 0.0, "rental_uris": {"android": "https://dc.lft.to/lastmile_qr_scan", "ios": "https://dc.lft.to/lastmile_qr_scan"}, "is_reserved": 0}, {"bike_id": "d8cb393810f735ae400ad1a2206c79db", "name": "d8cb393810f735ae400ad1a2206c79db", "lat": 38.908970333333336, "fusion_lat": 0.0, "type": "electric_scooter", "lon": -77.0240375, "is_disabled": 0, "fusion_lon": 0.0, "rental_uris": {"android": "https://dc.lft.to/lastmile_qr_scan", "ios": "https://dc.lft.to/lastmile_qr_scan"}, "is_reserved": 0}, {"bike_id": "913b989700c0efd3f559c481e606c068", "name": "913b989700c0efd3f559c481e606c068", "lat": 38.881677, "fusion_lat": 0.0, "type": "electric_scooter", "lon": -77.00075616666666, "is_disabled": 0, "fusion_lon": 0.0, "rental_uris": {"android": "https://dc.lft.to/lastmile_qr_scan", "ios": "https://dc.lft.to/lastmile_qr_scan"}, "is_reserved": 0}, {"bike_id": "cf5a26e92c5aeaddabb580c749d2b5c2", "name": "cf5a26e92c5aeaddabb580c749d2b5c2", "lat": 38.941342, "fusion_lat": 0.0, "type": "electric_scooter", "lon": -77.061742, "is_disabled": 0, "fusion_lon": 0.0, "rental_uris": {"android": "https://dc.lft.to/lastmile_qr_scan", "ios": "https://dc.lft.to/lastmile_qr_scan"}, "is_reserved": 0}, {"bike_id": "1d15fc7a634dd279c116bb137f114dcf", "name": "1d15fc7a634dd279c116bb137f114dcf", "lat": 38.9140325, "fusion_lat": 0.0, "type": "electric_scooter", "lon": -77.02691983333334, "is_disabled": 0, "fusion_lon": 0.0, "rental_uris": {"android": "https://dc.lft.to/lastmile_qr_scan", "ios": "https://dc.lft.to/lastmile_qr_scan"}, "is_reserved": 0}, {"bike_id": "cdab4ddcd77d4e9e1fdc48a3d54f9943", "name": "cdab4ddcd77d4e9e1fdc48a3d54f9943", "lat": 38.917128166666664, "fusion_lat": 0.0, "type": "electric_scooter", "lon": -77.03434766666666, "is_disabled": 0, "fusion_lon": 0.0, "rental_uris": {"android": "https://dc.lft.to/lastmile_qr_scan", "ios": "https://dc.lft.to/lastmile_qr_scan"}, "is_reserved": 0}, {"bike_id": "7ed34e0c77f76f1c7f5dbb2e784e1004", "name": "7ed34e0c77f76f1c7f5dbb2e784e1004", "lat": 38.91578783333333, "fusion_lat": 0.0, "type": "electric_scooter", "lon": -77.032044, "is_disabled": 0, "fusion_lon": 0.0, "rental_uris": {"android": "https://dc.lft.to/lastmile_qr_scan", "ios": "https://dc.lft.to/lastmile_qr_scan"}, "is_reserved": 0}, {"bike_id": "92a147292a527fc6f4d6eb51712da0ad", "name": "92a147292a527fc6f4d6eb51712da0ad", "lat": 38.92208516666667, "fusion_lat": 0.0, "type": "electric_scooter", "lon": -77.02032766666666, "is_disabled": 0, "fusion_lon": 0.0, "rental_uris": {"android": "https://dc.lft.to/lastmile_qr_scan", "ios": "https://dc.lft.to/lastmile_qr_scan"}, "is_reserved": 0}, {"bike_id": "f5d2189105435177356faf6b6b1d902d", "name": "f5d2189105435177356faf6b6b1d902d", "lat": 38.91021333333333, "fusion_lat": 0.0, "type": "electric_scooter", "lon": -76.99371866666667, "is_disabled": 0, "fusion_lon": 0.0, "rental_uris": {"android": "https://dc.lft.to/lastmile_qr_scan", "ios": "https://dc.lft.to/lastmile_qr_scan"}, "is_reserved": 0}, {"bike_id": "d6d276b10e78907145a415695c099d8e", "name": "d6d276b10e78907145a415695c099d8e", "lat": 38.9027135, "fusion_lat": 0.0, "type": "electric_scooter", "lon": -77.02724433333333, "is_disabled": 0, "fusion_lon": 0.0, "rental_uris": {"android": "https://dc.lft.to/lastmile_qr_scan", "ios": "https://dc.lft.to/lastmile_qr_scan"}, "is_reserved": 0}, {"bike_id": "4da51b6fbbcbff3be66241325181a665", "name": "4da51b6fbbcbff3be66241325181a665", "lat": 38.924138666666664, "fusion_lat": 0.0, "type": "electric_scooter", "lon": -77.0200885, "is_disabled": 0, "fusion_lon": 0.0, "rental_uris": {"android": "https://dc.lft.to/lastmile_qr_scan", "ios": "https://dc.lft.to/lastmile_qr_scan"}, "is_reserved": 0}, {"bike_id": "2799ff8c5a9b66065012e3d3c75f506e", "name": "2799ff8c5a9b66065012e3d3c75f506e", "lat": 38.91410033333333, "fusion_lat": 0.0, "type": "electric_scooter", "lon": -77.0321545, "is_disabled": 0, "fusion_lon": 0.0, "rental_uris": {"android": "https://dc.lft.to/lastmile_qr_scan", "ios": "https://dc.lft.to/lastmile_qr_scan"}, "is_reserved": 0}, {"bike_id": "5592d59346b57f1bd620b19428a6b5c7", "name": "5592d59346b57f1bd620b19428a6b5c7", "lat": 38.932472833333335, "fusion_lat": 0.0, "type": "electric_scooter", "lon": -77.03254766666667, "is_disabled": 0, "fusion_lon": 0.0, "rental_uris": {"android": "https://dc.lft.to/lastmile_qr_scan", "ios": "https://dc.lft.to/lastmile_qr_scan"}, "is_reserved": 0}, {"bike_id": "23eff9accbb8007773dec0628b8235ab", "name": "23eff9accbb8007773dec0628b8235ab", "lat": 38.881347, "fusion_lat": 0.0, "type": "electric_scooter", "lon": -76.996402, "is_disabled": 0, "fusion_lon": 0.0, "rental_uris": {"android": "https://dc.lft.to/lastmile_qr_scan", "ios": "https://dc.lft.to/lastmile_qr_scan"}, "is_reserved": 0}, {"bike_id": "b2c998ab6de7ccefee1834ad6451f262", "name": "b2c998ab6de7ccefee1834ad6451f262", "lat": 38.9482455, "fusion_lat": 0.0, "type": "electric_scooter", "lon": -77.026133, "is_disabled": 0, "fusion_lon": 0.0, "rental_uris": {"android": "https://dc.lft.to/lastmile_qr_scan", "ios": "https://dc.lft.to/lastmile_qr_scan"}, "is_reserved": 0}, {"bike_id": "25f59934df324c1b9c32a51316b5a9e8", "name": "25f59934df324c1b9c32a51316b5a9e8", "lat": 38.926101833333334, "fusion_lat": 0.0, "type": "electric_scooter", "lon": -77.02161466666666, "is_disabled": 0, "fusion_lon": 0.0, "rental_uris": {"android": "https://dc.lft.to/lastmile_qr_scan", "ios": "https://dc.lft.to/lastmile_qr_scan"}, "is_reserved": 0}, {"bike_id": "df1321b3b1505a24b3c69d53bb46799a", "name": "df1321b3b1505a24b3c69d53bb46799a", "lat": 38.89352266666667, "fusion_lat": 0.0, "type": "electric_scooter", "lon": -77.011718, "is_disabled": 0, "fusion_lon": 0.0, "rental_uris": {"android": "https://dc.lft.to/lastmile_qr_scan", "ios": "https://dc.lft.to/lastmile_qr_scan"}, "is_reserved": 0}, {"bike_id": "b9cbbd7428ea7c1723af59ed8d3dd82e", "name": "b9cbbd7428ea7c1723af59ed8d3dd82e", "lat": 38.89655716666667, "fusion_lat": 0.0, "type": "electric_scooter", "lon": -77.05022266666667, "is_disabled": 0, "fusion_lon": 0.0, "rental_uris": {"android": "https://dc.lft.to/lastmile_qr_scan", "ios": "https://dc.lft.to/lastmile_qr_scan"}, "is_reserved": 0}, {"bike_id": "987d784138c8b08473fed21a0d069207", "name": "987d784138c8b08473fed21a0d069207", "lat": 38.89924766666667, "fusion_lat": 0.0, "type": "electric_scooter", "lon": -76.978355, "is_disabled": 0, "fusion_lon": 0.0, "rental_uris": {"android": "https://dc.lft.to/lastmile_qr_scan", "ios": "https://dc.lft.to/lastmile_qr_scan"}, "is_reserved": 0}, {"bike_id": "bb6422816ab6f61f999b0ce97b12034c", "name": "bb6422816ab6f61f999b0ce97b12034c", "lat": 38.91709316666667, "fusion_lat": 0.0, "type": "electric_scooter", "lon": -77.0107255, "is_disabled": 0, "fusion_lon": 0.0, "rental_uris": {"android": "https://dc.lft.to/lastmile_qr_scan", "ios": "https://dc.lft.to/lastmile_qr_scan"}, "is_reserved": 0}, {"bike_id": "71c8c3a005aabdabd0adac09d402f57e", "name": "71c8c3a005aabdabd0adac09d402f57e", "lat": 38.91713266666667, "fusion_lat": 0.0, "type": "electric_scooter", "lon": -77.03724083333333, "is_disabled": 0, "fusion_lon": 0.0, "rental_uris": {"android": "https://dc.lft.to/lastmile_qr_scan", "ios": "https://dc.lft.to/lastmile_qr_scan"}, "is_reserved": 0}, {"bike_id": "af58371b576dd9fc058fc409fc45f266", "name": "af58371b576dd9fc058fc409fc45f266", "lat": 38.90155516666667, "fusion_lat": 0.0, "type": "electric_scooter", "lon": -77.02858483333333, "is_disabled": 0, "fusion_lon": 0.0, "rental_uris": {"android": "https://dc.lft.to/lastmile_qr_scan", "ios": "https://dc.lft.to/lastmile_qr_scan"}, "is_reserved": 0}, {"bike_id": "f675b841526101b3207dca21899a5904", "name": "f675b841526101b3207dca21899a5904", "lat": 38.917576333333336, "fusion_lat": 0.0, "type": "electric_scooter", "lon": -77.03859216666666, "is_disabled": 0, "fusion_lon": 0.0, "rental_uris": {"android": "https://dc.lft.to/lastmile_qr_scan", "ios": "https://dc.lft.to/lastmile_qr_scan"}, "is_reserved": 0}, {"bike_id": "2b8f0207a3fd9a74b682b320c9144fdd", "name": "2b8f0207a3fd9a74b682b320c9144fdd", "lat": 38.895459833333334, "fusion_lat": 0.0, "type": "electric_scooter", "lon": -77.01133766666666, "is_disabled": 0, "fusion_lon": 0.0, "rental_uris": {"android": "https://dc.lft.to/lastmile_qr_scan", "ios": "https://dc.lft.to/lastmile_qr_scan"}, "is_reserved": 0}, {"bike_id": "9f2d95f5846cea80965ac16c44d6e310", "name": "9f2d95f5846cea80965ac16c44d6e310", "lat": 38.91851783333333, "fusion_lat": 0.0, "type": "electric_scooter", "lon": -77.0411245, "is_disabled": 0, "fusion_lon": 0.0, "rental_uris": {"android": "https://dc.lft.to/lastmile_qr_scan", "ios": "https://dc.lft.to/lastmile_qr_scan"}, "is_reserved": 0}, {"bike_id": "251f1e9be000dcfc63dd4d55b4f086ee", "name": "251f1e9be000dcfc63dd4d55b4f086ee", "lat": 38.8939345, "fusion_lat": 0.0, "type": "electric_bike", "lon": -76.8684735, "is_disabled": 0, "fusion_lon": 0.0, "rental_uris": {"android": "https://dc.lft.to/lastmile_qr_scan", "ios": "https://dc.lft.to/lastmile_qr_scan"}, "is_reserved": 0}, {"bike_id": "f2784ab3486d09557964c9337e0f3dc4", "name": "f2784ab3486d09557964c9337e0f3dc4", "lat": 38.90586733333333, "fusion_lat": 0.0, "type": "electric_scooter", "lon": -76.98414533333333, "is_disabled": 0, "fusion_lon": 0.0, "rental_uris": {"android": "https://dc.lft.to/lastmile_qr_scan", "ios": "https://dc.lft.to/lastmile_qr_scan"}, "is_reserved": 0}, {"bike_id": "818de5545e3870ea168eb80bfa6dd89c", "name": "818de5545e3870ea168eb80bfa6dd89c", "lat": 38.9577275, "fusion_lat": 0.0, "type": "electric_scooter", "lon": -77.01490833333334, "is_disabled": 0, "fusion_lon": 0.0, "rental_uris": {"android": "https://dc.lft.to/lastmile_qr_scan", "ios": "https://dc.lft.to/lastmile_qr_scan"}, "is_reserved": 0}, {"bike_id": "f4966cb86d381a87cd3549a8d2182c24", "name": "f4966cb86d381a87cd3549a8d2182c24", "lat": 38.914743333333334, "fusion_lat": 0.0, "type": "electric_scooter", "lon": -77.03210383333334, "is_disabled": 0, "fusion_lon": 0.0, "rental_uris": {"android": "https://dc.lft.to/lastmile_qr_scan", "ios": "https://dc.lft.to/lastmile_qr_scan"}, "is_reserved": 0}, {"bike_id": "d5ff1549272a233c63e28207122573bc", "name": "d5ff1549272a233c63e28207122573bc", "lat": 38.8936325, "fusion_lat": 0.0, "type": "electric_scooter", "lon": -77.003349, "is_disabled": 0, "fusion_lon": 0.0, "rental_uris": {"android": "https://dc.lft.to/lastmile_qr_scan", "ios": "https://dc.lft.to/lastmile_qr_scan"}, "is_reserved": 0}, {"bike_id": "54b8d50bd49e2b878ad02913df73951d", "name": "54b8d50bd49e2b878ad02913df73951d", "lat": 38.93631383333334, "fusion_lat": 0.0, "type": "electric_scooter", "lon": -77.06486766666667, "is_disabled": 0, "fusion_lon": 0.0, "rental_uris": {"android": "https://dc.lft.to/lastmile_qr_scan", "ios": "https://dc.lft.to/lastmile_qr_scan"}, "is_reserved": 0}, {"bike_id": "411b6e87aaf10ad69400f775f264a02b", "name": "411b6e87aaf10ad69400f775f264a02b", "lat": 38.898318333333336, "fusion_lat": 0.0, "type": "electric_scooter", "lon": -77.04824716666667, "is_disabled": 0, "fusion_lon": 0.0, "rental_uris": {"android": "https://dc.lft.to/lastmile_qr_scan", "ios": "https://dc.lft.to/lastmile_qr_scan"}, "is_reserved": 0}, {"bike_id": "d81418d76e77140209790e42bed64421", "name": "d81418d76e77140209790e42bed64421", "lat": 38.896090666666666, "fusion_lat": 0.0, "type": "electric_scooter", "lon": -77.00525933333333, "is_disabled": 0, "fusion_lon": 0.0, "rental_uris": {"android": "https://dc.lft.to/lastmile_qr_scan", "ios": "https://dc.lft.to/lastmile_qr_scan"}, "is_reserved": 0}, {"bike_id": "434030e4a6a4e1c5ff5a4e82aac26c7e", "name": "434030e4a6a4e1c5ff5a4e82aac26c7e", "lat": 38.90833333333333, "fusion_lat": 0.0, "type": "electric_scooter", "lon": -77.03181033333334, "is_disabled": 0, "fusion_lon": 0.0, "rental_uris": {"android": "https://dc.lft.to/lastmile_qr_scan", "ios": "https://dc.lft.to/lastmile_qr_scan"}, "is_reserved": 0}, {"bike_id": "9fc51fb0d0f579f48cf01557120d043d", "name": "9fc51fb0d0f579f48cf01557120d043d", "lat": 38.975026166666666, "fusion_lat": 0.0, "type": "electric_scooter", "lon": -77.016924, "is_disabled": 0, "fusion_lon": 0.0, "rental_uris": {"android": "https://dc.lft.to/lastmile_qr_scan", "ios": "https://dc.lft.to/lastmile_qr_scan"}, "is_reserved": 0}, {"bike_id": "9f4ed5d5136c9148c11902576951eef0", "name": "9f4ed5d5136c9148c11902576951eef0", "lat": 38.906929, "fusion_lat": 0.0, "type": "electric_scooter", "lon": -77.06255316666666, "is_disabled": 0, "fusion_lon": 0.0, "rental_uris": {"android": "https://dc.lft.to/lastmile_qr_scan", "ios": "https://dc.lft.to/lastmile_qr_scan"}, "is_reserved": 0}, {"bike_id": "05a9c92af21cfc1b3a045075af6c87bc", "name": "05a9c92af21cfc1b3a045075af6c87bc", "lat": 38.945666833333334, "fusion_lat": 0.0, "type": "electric_bike", "lon": -76.95840633333333, "is_disabled": 0, "fusion_lon": 0.0, "rental_uris": {"android": "https://dc.lft.to/lastmile_qr_scan", "ios": "https://dc.lft.to/lastmile_qr_scan"}, "is_reserved": 0}, {"bike_id": "bd4179067cb068a8f7c7a70309a18ba2", "name": "bd4179067cb068a8f7c7a70309a18ba2", "lat": 38.9587385, "fusion_lat": 0.0, "type": "electric_bike", "lon": -76.9705265, "is_disabled": 0, "fusion_lon": 0.0, "rental_uris": {"android": "https://dc.lft.to/lastmile_qr_scan", "ios": "https://dc.lft.to/lastmile_qr_scan"}, "is_reserved": 0}, {"bike_id": "3b7c6c6c0a82b1fe95609abd37e64df2", "name": "3b7c6c6c0a82b1fe95609abd37e64df2", "lat": 38.92136383333333, "fusion_lat": 0.0, "type": "electric_scooter", "lon": -77.01906583333333, "is_disabled": 0, "fusion_lon": 0.0, "rental_uris": {"android": "https://dc.lft.to/lastmile_qr_scan", "ios": "https://dc.lft.to/lastmile_qr_scan"}, "is_reserved": 0}, {"bike_id": "caafc32cdfcbbe5cfc964cff7a500a01", "name": "caafc32cdfcbbe5cfc964cff7a500a01", "lat": 39.03563416666667, "fusion_lat": 0.0, "type": "electric_bike", "lon": -77.03914166666667, "is_disabled": 0, "fusion_lon": 0.0, "rental_uris": {"android": "https://dc.lft.to/lastmile_qr_scan", "ios": "https://dc.lft.to/lastmile_qr_scan"}, "is_reserved": 0}, {"bike_id": "56ca784842a798c702cbe2eea165349c", "name": "56ca784842a798c702cbe2eea165349c", "lat": 38.899393, "fusion_lat": 0.0, "type": "electric_scooter", "lon": -76.94646433333334, "is_disabled": 0, "fusion_lon": 0.0, "rental_uris": {"android": "https://dc.lft.to/lastmile_qr_scan", "ios": "https://dc.lft.to/lastmile_qr_scan"}, "is_reserved": 0}, {"bike_id": "282ea84185778aa88652b75ba4e26f2d", "name": "282ea84185778aa88652b75ba4e26f2d", "lat": 38.90714916666667, "fusion_lat": 0.0, "type": "electric_scooter", "lon": -77.00800716666667, "is_disabled": 0, "fusion_lon": 0.0, "rental_uris": {"android": "https://dc.lft.to/lastmile_qr_scan", "ios": "https://dc.lft.to/lastmile_qr_scan"}, "is_reserved": 0}, {"bike_id": "8f7960110f534141e0a0cb310d26c5d7", "name": "8f7960110f534141e0a0cb310d26c5d7", "lat": 38.893356833333335, "fusion_lat": 0.0, "type": "electric_scooter", "lon": -77.03169083333333, "is_disabled": 0, "fusion_lon": 0.0, "rental_uris": {"android": "https://dc.lft.to/lastmile_qr_scan", "ios": "https://dc.lft.to/lastmile_qr_scan"}, "is_reserved": 0}, {"bike_id": "4e5199dd6b4461a1d71c8ea117313b11", "name": "4e5199dd6b4461a1d71c8ea117313b11", "lat": 38.9006265, "fusion_lat": 0.0, "type": "electric_scooter", "lon": -77.03360966666666, "is_disabled": 0, "fusion_lon": 0.0, "rental_uris": {"android": "https://dc.lft.to/lastmile_qr_scan", "ios": "https://dc.lft.to/lastmile_qr_scan"}, "is_reserved": 0}, {"bike_id": "8019b1c820e5a907116987ec7e599214", "name": "8019b1c820e5a907116987ec7e599214", "lat": 38.8962335, "fusion_lat": 0.0, "type": "electric_scooter", "lon": -76.99732083333333, "is_disabled": 0, "fusion_lon": 0.0, "rental_uris": {"android": "https://dc.lft.to/lastmile_qr_scan", "ios": "https://dc.lft.to/lastmile_qr_scan"}, "is_reserved": 0}, {"bike_id": "72136fa84e8116cb24a93ce89591081d", "name": "72136fa84e8116cb24a93ce89591081d", "lat": 38.90037933333333, "fusion_lat": 0.0, "type": "electric_scooter", "lon": -76.998527, "is_disabled": 0, "fusion_lon": 0.0, "rental_uris": {"android": "https://dc.lft.to/lastmile_qr_scan", "ios": "https://dc.lft.to/lastmile_qr_scan"}, "is_reserved": 0}, {"bike_id": "6da00e50e6705b169bfd3ec3be98baa3", "name": "6da00e50e6705b169bfd3ec3be98baa3", "lat": 38.920667333333334, "fusion_lat": 0.0, "type": "electric_scooter", "lon": -77.0320605, "is_disabled": 0, "fusion_lon": 0.0, "rental_uris": {"android": "https://dc.lft.to/lastmile_qr_scan", "ios": "https://dc.lft.to/lastmile_qr_scan"}, "is_reserved": 0}, {"bike_id": "521497271ac36d3704f857b8015e11fd", "name": "521497271ac36d3704f857b8015e11fd", "lat": 38.875781833333335, "fusion_lat": 0.0, "type": "electric_scooter", "lon": -77.005779, "is_disabled": 0, "fusion_lon": 0.0, "rental_uris": {"android": "https://dc.lft.to/lastmile_qr_scan", "ios": "https://dc.lft.to/lastmile_qr_scan"}, "is_reserved": 0}, {"bike_id": "d0505008c8f05cb8e5f854cb12e65186", "name": "d0505008c8f05cb8e5f854cb12e65186", "lat": 38.9297795, "fusion_lat": 0.0, "type": "electric_scooter", "lon": -77.02795783333333, "is_disabled": 0, "fusion_lon": 0.0, "rental_uris": {"android": "https://dc.lft.to/lastmile_qr_scan", "ios": "https://dc.lft.to/lastmile_qr_scan"}, "is_reserved": 0}, {"bike_id": "8ae1913688e17d6cb6892185455af2e8", "name": "8ae1913688e17d6cb6892185455af2e8", "lat": 38.901726333333336, "fusion_lat": 0.0, "type": "electric_scooter", "lon": -76.93023533333333, "is_disabled": 0, "fusion_lon": 0.0, "rental_uris": {"android": "https://dc.lft.to/lastmile_qr_scan", "ios": "https://dc.lft.to/lastmile_qr_scan"}, "is_reserved": 0}, {"bike_id": "8af0108c02e87a7d996421fafa41c1d1", "name": "8af0108c02e87a7d996421fafa41c1d1", "lat": 38.9161455, "fusion_lat": 0.0, "type": "electric_scooter", "lon": -77.0229455, "is_disabled": 0, "fusion_lon": 0.0, "rental_uris": {"android": "https://dc.lft.to/lastmile_qr_scan", "ios": "https://dc.lft.to/lastmile_qr_scan"}, "is_reserved": 0}, {"bike_id": "f5762a7f6542cd5ffe9aa9596cf7a913", "name": "f5762a7f6542cd5ffe9aa9596cf7a913", "lat": 38.91307966666667, "fusion_lat": 0.0, "type": "electric_scooter", "lon": -77.02701566666667, "is_disabled": 0, "fusion_lon": 0.0, "rental_uris": {"android": "https://dc.lft.to/lastmile_qr_scan", "ios": "https://dc.lft.to/lastmile_qr_scan"}, "is_reserved": 0}, {"bike_id": "b7e7f13a4bc5d5d9baef2a4e96acf5d4", "name": "b7e7f13a4bc5d5d9baef2a4e96acf5d4", "lat": 38.902658333333335, "fusion_lat": 0.0, "type": "electric_scooter", "lon": -77.00219066666666, "is_disabled": 0, "fusion_lon": 0.0, "rental_uris": {"android": "https://dc.lft.to/lastmile_qr_scan", "ios": "https://dc.lft.to/lastmile_qr_scan"}, "is_reserved": 0}, {"bike_id": "1c86fc7a279f3d01028556f9a578680a", "name": "1c86fc7a279f3d01028556f9a578680a", "lat": 38.90994216666667, "fusion_lat": 0.0, "type": "electric_scooter", "lon": -77.03210783333333, "is_disabled": 0, "fusion_lon": 0.0, "rental_uris": {"android": "https://dc.lft.to/lastmile_qr_scan", "ios": "https://dc.lft.to/lastmile_qr_scan"}, "is_reserved": 0}, {"bike_id": "5777297ed71081c728504d8c7d037b69", "name": "5777297ed71081c728504d8c7d037b69", "lat": 38.918894333333334, "fusion_lat": 0.0, "type": "electric_scooter", "lon": -77.02713916666667, "is_disabled": 0, "fusion_lon": 0.0, "rental_uris": {"android": "https://dc.lft.to/lastmile_qr_scan", "ios": "https://dc.lft.to/lastmile_qr_scan"}, "is_reserved": 0}, {"bike_id": "db6c974c9b555702e6e6069f4135445d", "name": "db6c974c9b555702e6e6069f4135445d", "lat": 38.93609283333333, "fusion_lat": 0.0, "type": "electric_scooter", "lon": -77.05860583333333, "is_disabled": 0, "fusion_lon": 0.0, "rental_uris": {"android": "https://dc.lft.to/lastmile_qr_scan", "ios": "https://dc.lft.to/lastmile_qr_scan"}, "is_reserved": 0}, {"bike_id": "c5f5fb6fb4102170a86e8a298981ed28", "name": "c5f5fb6fb4102170a86e8a298981ed28", "lat": 38.807350666666665, "fusion_lat": 0.0, "type": "electric_bike", "lon": -76.99256, "is_disabled": 0, "fusion_lon": 0.0, "rental_uris": {"android": "https://dc.lft.to/lastmile_qr_scan", "ios": "https://dc.lft.to/lastmile_qr_scan"}, "is_reserved": 0}, {"bike_id": "40cab92eb9ff081943f64b0026dfb091", "name": "40cab92eb9ff081943f64b0026dfb091", "lat": 38.888382666666665, "fusion_lat": 0.0, "type": "electric_bike", "lon": -76.95749616666667, "is_disabled": 0, "fusion_lon": 0.0, "rental_uris": {"android": "https://dc.lft.to/lastmile_qr_scan", "ios": "https://dc.lft.to/lastmile_qr_scan"}, "is_reserved": 0}, {"bike_id": "e81c010b5b80e91b887ca00029c239a8", "name": "e81c010b5b80e91b887ca00029c239a8", "lat": 38.90936683333334, "fusion_lat": 0.0, "type": "electric_scooter", "lon": -77.0061115, "is_disabled": 0, "fusion_lon": 0.0, "rental_uris": {"android": "https://dc.lft.to/lastmile_qr_scan", "ios": "https://dc.lft.to/lastmile_qr_scan"}, "is_reserved": 0}, {"bike_id": "f794b58a2962bec66a307b8ebdd97405", "name": "f794b58a2962bec66a307b8ebdd97405", "lat": 38.9419055, "fusion_lat": 0.0, "type": "electric_scooter", "lon": -77.02347233333333, "is_disabled": 0, "fusion_lon": 0.0, "rental_uris": {"android": "https://dc.lft.to/lastmile_qr_scan", "ios": "https://dc.lft.to/lastmile_qr_scan"}, "is_reserved": 0}, {"bike_id": "67ae8ddc6e4dd89f66023880bdb4f605", "name": "67ae8ddc6e4dd89f66023880bdb4f605", "lat": 38.928437, "fusion_lat": 0.0, "type": "electric_scooter", "lon": -76.99904983333333, "is_disabled": 0, "fusion_lon": 0.0, "rental_uris": {"android": "https://dc.lft.to/lastmile_qr_scan", "ios": "https://dc.lft.to/lastmile_qr_scan"}, "is_reserved": 0}, {"bike_id": "63c5ed6399fdfafc23e3bbc5ca8a9d06", "name": "63c5ed6399fdfafc23e3bbc5ca8a9d06", "lat": 38.921671333333336, "fusion_lat": 0.0, "type": "electric_scooter", "lon": -77.03844916666667, "is_disabled": 0, "fusion_lon": 0.0, "rental_uris": {"android": "https://dc.lft.to/lastmile_qr_scan", "ios": "https://dc.lft.to/lastmile_qr_scan"}, "is_reserved": 0}, {"bike_id": "3937246e616a2a335052f087deb8b466", "name": "3937246e616a2a335052f087deb8b466", "lat": 38.92357966666667, "fusion_lat": 0.0, "type": "electric_scooter", "lon": -76.999479, "is_disabled": 0, "fusion_lon": 0.0, "rental_uris": {"android": "https://dc.lft.to/lastmile_qr_scan", "ios": "https://dc.lft.to/lastmile_qr_scan"}, "is_reserved": 0}, {"bike_id": "d6b3873e02f8beb1c383d36dd28abc28", "name": "d6b3873e02f8beb1c383d36dd28abc28", "lat": 38.915560666666664, "fusion_lat": 0.0, "type": "electric_scooter", "lon": -77.02422716666666, "is_disabled": 0, "fusion_lon": 0.0, "rental_uris": {"android": "https://dc.lft.to/lastmile_qr_scan", "ios": "https://dc.lft.to/lastmile_qr_scan"}, "is_reserved": 0}, {"bike_id": "b84ead33d88eeb5ce7ac969013560051", "name": "b84ead33d88eeb5ce7ac969013560051", "lat": 38.899475, "fusion_lat": 0.0, "type": "electric_scooter", "lon": -77.0316455, "is_disabled": 0, "fusion_lon": 0.0, "rental_uris": {"android": "https://dc.lft.to/lastmile_qr_scan", "ios": "https://dc.lft.to/lastmile_qr_scan"}, "is_reserved": 0}, {"bike_id": "15f0d35159bb46e0bf975e67f968e982", "name": "15f0d35159bb46e0bf975e67f968e982", "lat": 38.89349383333333, "fusion_lat": 0.0, "type": "electric_scooter", "lon": -77.0117335, "is_disabled": 0, "fusion_lon": 0.0, "rental_uris": {"android": "https://dc.lft.to/lastmile_qr_scan", "ios": "https://dc.lft.to/lastmile_qr_scan"}, "is_reserved": 0}, {"bike_id": "315a3b10821dd73a24730bdb04b945b5", "name": "315a3b10821dd73a24730bdb04b945b5", "lat": 38.921414666666664, "fusion_lat": 0.0, "type": "electric_scooter", "lon": -77.01789933333333, "is_disabled": 0, "fusion_lon": 0.0, "rental_uris": {"android": "https://dc.lft.to/lastmile_qr_scan", "ios": "https://dc.lft.to/lastmile_qr_scan"}, "is_reserved": 0}, {"bike_id": "8270b8022d23e0beecc29250cbdfccea", "name": "8270b8022d23e0beecc29250cbdfccea", "lat": 38.917031, "fusion_lat": 0.0, "type": "electric_scooter", "lon": -77.03160466666667, "is_disabled": 0, "fusion_lon": 0.0, "rental_uris": {"android": "https://dc.lft.to/lastmile_qr_scan", "ios": "https://dc.lft.to/lastmile_qr_scan"}, "is_reserved": 0}, {"bike_id": "e6d5f659fa0c3e2a8f9a9f10307e068a", "name": "e6d5f659fa0c3e2a8f9a9f10307e068a", "lat": 38.9576785, "fusion_lat": 0.0, "type": "electric_scooter", "lon": -77.01487683333333, "is_disabled": 0, "fusion_lon": 0.0, "rental_uris": {"android": "https://dc.lft.to/lastmile_qr_scan", "ios": "https://dc.lft.to/lastmile_qr_scan"}, "is_reserved": 0}, {"bike_id": "d95f8b1865ca9be2e394cc628d4774e5", "name": "d95f8b1865ca9be2e394cc628d4774e5", "lat": 38.856101833333334, "fusion_lat": 0.0, "type": "electric_bike", "lon": -76.97450433333333, "is_disabled": 0, "fusion_lon": 0.0, "rental_uris": {"android": "https://dc.lft.to/lastmile_qr_scan", "ios": "https://dc.lft.to/lastmile_qr_scan"}, "is_reserved": 0}, {"bike_id": "7644a3275614d31b8630ee3905fb30f1", "name": "7644a3275614d31b8630ee3905fb30f1", "lat": 38.913553, "fusion_lat": 0.0, "type": "electric_scooter", "lon": -77.027703, "is_disabled": 0, "fusion_lon": 0.0, "rental_uris": {"android": "https://dc.lft.to/lastmile_qr_scan", "ios": "https://dc.lft.to/lastmile_qr_scan"}, "is_reserved": 0}, {"bike_id": "71968ec5df7e07892359856052bad3b5", "name": "71968ec5df7e07892359856052bad3b5", "lat": 38.909257, "fusion_lat": 0.0, "type": "electric_scooter", "lon": -77.03214916666667, "is_disabled": 0, "fusion_lon": 0.0, "rental_uris": {"android": "https://dc.lft.to/lastmile_qr_scan", "ios": "https://dc.lft.to/lastmile_qr_scan"}, "is_reserved": 0}, {"bike_id": "58548caea073b3cfb330a87a0fa30a9f", "name": "58548caea073b3cfb330a87a0fa30a9f", "lat": 38.806794, "fusion_lat": 0.0, "type": "electric_bike", "lon": -77.08757533333333, "is_disabled": 0, "fusion_lon": 0.0, "rental_uris": {"android": "https://dc.lft.to/lastmile_qr_scan", "ios": "https://dc.lft.to/lastmile_qr_scan"}, "is_reserved": 0}, {"bike_id": "bbed561591e029ce77fc5954052b2c4d", "name": "bbed561591e029ce77fc5954052b2c4d", "lat": 38.8978445, "fusion_lat": 0.0, "type": "electric_scooter", "lon": -77.0092355, "is_disabled": 0, "fusion_lon": 0.0, "rental_uris": {"android": "https://dc.lft.to/lastmile_qr_scan", "ios": "https://dc.lft.to/lastmile_qr_scan"}, "is_reserved": 0}, {"bike_id": "084f6aba59eebee5c7b60bb9ad6db68a", "name": "084f6aba59eebee5c7b60bb9ad6db68a", "lat": 38.919662833333334, "fusion_lat": 0.0, "type": "electric_scooter", "lon": -77.01436733333334, "is_disabled": 0, "fusion_lon": 0.0, "rental_uris": {"android": "https://dc.lft.to/lastmile_qr_scan", "ios": "https://dc.lft.to/lastmile_qr_scan"}, "is_reserved": 0}, {"bike_id": "ed7a997a1b5e8b503c3da0dc4d59b864", "name": "ed7a997a1b5e8b503c3da0dc4d59b864", "lat": 38.90594766666667, "fusion_lat": 0.0, "type": "electric_scooter", "lon": -77.03637866666666, "is_disabled": 0, "fusion_lon": 0.0, "rental_uris": {"android": "https://dc.lft.to/lastmile_qr_scan", "ios": "https://dc.lft.to/lastmile_qr_scan"}, "is_reserved": 0}, {"bike_id": "a817a259f3d1ebcc7f8670d40d49aabb", "name": "a817a259f3d1ebcc7f8670d40d49aabb", "lat": 38.91563283333333, "fusion_lat": 0.0, "type": "electric_scooter", "lon": -77.04469433333334, "is_disabled": 0, "fusion_lon": 0.0, "rental_uris": {"android": "https://dc.lft.to/lastmile_qr_scan", "ios": "https://dc.lft.to/lastmile_qr_scan"}, "is_reserved": 0}, {"bike_id": "36607316f2bbbead343314c06bb7403e", "name": "36607316f2bbbead343314c06bb7403e", "lat": 38.923676, "fusion_lat": 0.0, "type": "electric_scooter", "lon": -77.0503185, "is_disabled": 0, "fusion_lon": 0.0, "rental_uris": {"android": "https://dc.lft.to/lastmile_qr_scan", "ios": "https://dc.lft.to/lastmile_qr_scan"}, "is_reserved": 0}, {"bike_id": "1114d4ab2294902a590567d98206f5ea", "name": "1114d4ab2294902a590567d98206f5ea", "lat": 38.8721125, "fusion_lat": 0.0, "type": "electric_bike", "lon": -77.11742416666667, "is_disabled": 0, "fusion_lon": 0.0, "rental_uris": {"android": "https://dc.lft.to/lastmile_qr_scan", "ios": "https://dc.lft.to/lastmile_qr_scan"}, "is_reserved": 0}, {"bike_id": "cc66f9927489019d225558abe01da8fb", "name": "cc66f9927489019d225558abe01da8fb", "lat": 38.94319633333333, "fusion_lat": 0.0, "type": "electric_bike", "lon": -76.9901575, "is_disabled": 0, "fusion_lon": 0.0, "rental_uris": {"android": "https://dc.lft.to/lastmile_qr_scan", "ios": "https://dc.lft.to/lastmile_qr_scan"}, "is_reserved": 0}, {"bike_id": "9ae82ed08149366a3c985334b5dd9b03", "name": "9ae82ed08149366a3c985334b5dd9b03", "lat": 38.907058666666664, "fusion_lat": 0.0, "type": "electric_scooter", "lon": -76.9869435, "is_disabled": 0, "fusion_lon": 0.0, "rental_uris": {"android": "https://dc.lft.to/lastmile_qr_scan", "ios": "https://dc.lft.to/lastmile_qr_scan"}, "is_reserved": 0}, {"bike_id": "e2f38b958e77cc8260e9a40d1ced55fd", "name": "e2f38b958e77cc8260e9a40d1ced55fd", "lat": 38.925094666666666, "fusion_lat": 0.0, "type": "electric_scooter", "lon": -77.02275116666667, "is_disabled": 0, "fusion_lon": 0.0, "rental_uris": {"android": "https://dc.lft.to/lastmile_qr_scan", "ios": "https://dc.lft.to/lastmile_qr_scan"}, "is_reserved": 0}, {"bike_id": "a550b4c3fcb89dec8ca723787efcdc1b", "name": "a550b4c3fcb89dec8ca723787efcdc1b", "lat": 38.9167945, "fusion_lat": 0.0, "type": "electric_scooter", "lon": -77.02979933333333, "is_disabled": 0, "fusion_lon": 0.0, "rental_uris": {"android": "https://dc.lft.to/lastmile_qr_scan", "ios": "https://dc.lft.to/lastmile_qr_scan"}, "is_reserved": 0}, {"bike_id": "60be2fbc50794bf88e674f1b065a4b49", "name": "60be2fbc50794bf88e674f1b065a4b49", "lat": 38.90049883333333, "fusion_lat": 0.0, "type": "electric_scooter", "lon": -77.04339233333333, "is_disabled": 0, "fusion_lon": 0.0, "rental_uris": {"android": "https://dc.lft.to/lastmile_qr_scan", "ios": "https://dc.lft.to/lastmile_qr_scan"}, "is_reserved": 0}, {"bike_id": "bdfec3113af46596b236d90aba8bfba4", "name": "bdfec3113af46596b236d90aba8bfba4", "lat": 38.914168, "fusion_lat": 0.0, "type": "electric_scooter", "lon": -77.03140483333334, "is_disabled": 0, "fusion_lon": 0.0, "rental_uris": {"android": "https://dc.lft.to/lastmile_qr_scan", "ios": "https://dc.lft.to/lastmile_qr_scan"}, "is_reserved": 0}, {"bike_id": "18f5fd280674483147ee768b46295811", "name": "18f5fd280674483147ee768b46295811", "lat": 38.938953, "fusion_lat": 0.0, "type": "electric_scooter", "lon": -77.01764633333333, "is_disabled": 0, "fusion_lon": 0.0, "rental_uris": {"android": "https://dc.lft.to/lastmile_qr_scan", "ios": "https://dc.lft.to/lastmile_qr_scan"}, "is_reserved": 0}, {"bike_id": "9d805dd2c48b12ffcac29794ad7d5a0f", "name": "9d805dd2c48b12ffcac29794ad7d5a0f", "lat": 38.90281816666667, "fusion_lat": 0.0, "type": "electric_scooter", "lon": -77.04700033333333, "is_disabled": 0, "fusion_lon": 0.0, "rental_uris": {"android": "https://dc.lft.to/lastmile_qr_scan", "ios": "https://dc.lft.to/lastmile_qr_scan"}, "is_reserved": 0}, {"bike_id": "225bb68ff8e265dcc224410cbb731154", "name": "225bb68ff8e265dcc224410cbb731154", "lat": 38.897533, "fusion_lat": 0.0, "type": "electric_scooter", "lon": -76.9769545, "is_disabled": 0, "fusion_lon": 0.0, "rental_uris": {"android": "https://dc.lft.to/lastmile_qr_scan", "ios": "https://dc.lft.to/lastmile_qr_scan"}, "is_reserved": 0}, {"bike_id": "19c792bd749e9c9f5acd632872553eb4", "name": "19c792bd749e9c9f5acd632872553eb4", "lat": 38.899274166666665, "fusion_lat": 0.0, "type": "electric_scooter", "lon": -77.033626, "is_disabled": 0, "fusion_lon": 0.0, "rental_uris": {"android": "https://dc.lft.to/lastmile_qr_scan", "ios": "https://dc.lft.to/lastmile_qr_scan"}, "is_reserved": 0}, {"bike_id": "e088d2ddb80e391deb0abdec0a4db945", "name": "e088d2ddb80e391deb0abdec0a4db945", "lat": 38.866335666666664, "fusion_lat": 0.0, "type": "electric_scooter", "lon": -76.98288983333333, "is_disabled": 0, "fusion_lon": 0.0, "rental_uris": {"android": "https://dc.lft.to/lastmile_qr_scan", "ios": "https://dc.lft.to/lastmile_qr_scan"}, "is_reserved": 0}, {"bike_id": "741e6acd0f505b8f22d49e9ed98f8b2f", "name": "741e6acd0f505b8f22d49e9ed98f8b2f", "lat": 38.916491, "fusion_lat": 0.0, "type": "electric_scooter", "lon": -77.03203233333333, "is_disabled": 0, "fusion_lon": 0.0, "rental_uris": {"android": "https://dc.lft.to/lastmile_qr_scan", "ios": "https://dc.lft.to/lastmile_qr_scan"}, "is_reserved": 0}, {"bike_id": "e815e44dfb262d5bc3f00d839fa38db4", "name": "e815e44dfb262d5bc3f00d839fa38db4", "lat": 38.91345333333334, "fusion_lat": 0.0, "type": "electric_scooter", "lon": -77.02761133333334, "is_disabled": 0, "fusion_lon": 0.0, "rental_uris": {"android": "https://dc.lft.to/lastmile_qr_scan", "ios": "https://dc.lft.to/lastmile_qr_scan"}, "is_reserved": 0}, {"bike_id": "7e2e616d58dc6e36628cf3f208515ee6", "name": "7e2e616d58dc6e36628cf3f208515ee6", "lat": 38.8814365, "fusion_lat": 0.0, "type": "electric_scooter", "lon": -76.996212, "is_disabled": 0, "fusion_lon": 0.0, "rental_uris": {"android": "https://dc.lft.to/lastmile_qr_scan", "ios": "https://dc.lft.to/lastmile_qr_scan"}, "is_reserved": 0}, {"bike_id": "70ad68c2b0773c69866e4f17823d9447", "name": "70ad68c2b0773c69866e4f17823d9447", "lat": 38.922421666666665, "fusion_lat": 0.0, "type": "electric_scooter", "lon": -77.02094183333334, "is_disabled": 0, "fusion_lon": 0.0, "rental_uris": {"android": "https://dc.lft.to/lastmile_qr_scan", "ios": "https://dc.lft.to/lastmile_qr_scan"}, "is_reserved": 0}, {"bike_id": "b729b974eb64f5bee7c63ee7e4fe7c61", "name": "b729b974eb64f5bee7c63ee7e4fe7c61", "lat": 38.94718483333333, "fusion_lat": 0.0, "type": "electric_scooter", "lon": -77.04152133333334, "is_disabled": 0, "fusion_lon": 0.0, "rental_uris": {"android": "https://dc.lft.to/lastmile_qr_scan", "ios": "https://dc.lft.to/lastmile_qr_scan"}, "is_reserved": 0}, {"bike_id": "b676573aca9556f6243af7b382c197db", "name": "b676573aca9556f6243af7b382c197db", "lat": 38.91860716666667, "fusion_lat": 0.0, "type": "electric_scooter", "lon": -77.04173516666667, "is_disabled": 0, "fusion_lon": 0.0, "rental_uris": {"android": "https://dc.lft.to/lastmile_qr_scan", "ios": "https://dc.lft.to/lastmile_qr_scan"}, "is_reserved": 0}, {"bike_id": "220037a631d1632af1e6dc70c2fd1264", "name": "220037a631d1632af1e6dc70c2fd1264", "lat": 38.93758833333333, "fusion_lat": 0.0, "type": "electric_scooter", "lon": -77.03249683333334, "is_disabled": 0, "fusion_lon": 0.0, "rental_uris": {"android": "https://dc.lft.to/lastmile_qr_scan", "ios": "https://dc.lft.to/lastmile_qr_scan"}, "is_reserved": 0}, {"bike_id": "2a4318d49bcf1dbd5f9a7680c1405cc2", "name": "2a4318d49bcf1dbd5f9a7680c1405cc2", "lat": 38.89360633333333, "fusion_lat": 0.0, "type": "electric_scooter", "lon": -77.0033075, "is_disabled": 0, "fusion_lon": 0.0, "rental_uris": {"android": "https://dc.lft.to/lastmile_qr_scan", "ios": "https://dc.lft.to/lastmile_qr_scan"}, "is_reserved": 0}, {"bike_id": "adfbd3ec1d3e80547788b70725b11f0a", "name": "adfbd3ec1d3e80547788b70725b11f0a", "lat": 38.85437916666667, "fusion_lat": 0.0, "type": "electric_bike", "lon": -77.08320016666667, "is_disabled": 0, "fusion_lon": 0.0, "rental_uris": {"android": "https://dc.lft.to/lastmile_qr_scan", "ios": "https://dc.lft.to/lastmile_qr_scan"}, "is_reserved": 0}, {"bike_id": "23d79564ac1b50e74e99148a1e351b6c", "name": "23d79564ac1b50e74e99148a1e351b6c", "lat": 38.91703433333333, "fusion_lat": 0.0, "type": "electric_scooter", "lon": -77.026679, "is_disabled": 0, "fusion_lon": 0.0, "rental_uris": {"android": "https://dc.lft.to/lastmile_qr_scan", "ios": "https://dc.lft.to/lastmile_qr_scan"}, "is_reserved": 0}, {"bike_id": "328a0fed57e4fb8ba3184abc8cd7e97a", "name": "328a0fed57e4fb8ba3184abc8cd7e97a", "lat": 38.92871783333333, "fusion_lat": 0.0, "type": "electric_scooter", "lon": -77.036671, "is_disabled": 0, "fusion_lon": 0.0, "rental_uris": {"android": "https://dc.lft.to/lastmile_qr_scan", "ios": "https://dc.lft.to/lastmile_qr_scan"}, "is_reserved": 0}, {"bike_id": "9e4d1f04fa981935d09640fc677963d1", "name": "9e4d1f04fa981935d09640fc677963d1", "lat": 38.917433, "fusion_lat": 0.0, "type": "electric_scooter", "lon": -77.03193783333333, "is_disabled": 0, "fusion_lon": 0.0, "rental_uris": {"android": "https://dc.lft.to/lastmile_qr_scan", "ios": "https://dc.lft.to/lastmile_qr_scan"}, "is_reserved": 0}, {"bike_id": "5d4398b223df39c2fd3a936433166075", "name": "5d4398b223df39c2fd3a936433166075", "lat": 38.92522566666667, "fusion_lat": 0.0, "type": "electric_scooter", "lon": -77.05059783333333, "is_disabled": 0, "fusion_lon": 0.0, "rental_uris": {"android": "https://dc.lft.to/lastmile_qr_scan", "ios": "https://dc.lft.to/lastmile_qr_scan"}, "is_reserved": 0}, {"bike_id": "b57f50d2dabce6d27e4d283f00a9c8ac", "name": "b57f50d2dabce6d27e4d283f00a9c8ac", "lat": 38.912234833333336, "fusion_lat": 0.0, "type": "electric_scooter", "lon": -77.06405466666666, "is_disabled": 0, "fusion_lon": 0.0, "rental_uris": {"android": "https://dc.lft.to/lastmile_qr_scan", "ios": "https://dc.lft.to/lastmile_qr_scan"}, "is_reserved": 0}, {"bike_id": "df69979b6ac8da26f11f1073a8abed78", "name": "df69979b6ac8da26f11f1073a8abed78", "lat": 38.905750833333336, "fusion_lat": 0.0, "type": "electric_scooter", "lon": -77.00789233333333, "is_disabled": 0, "fusion_lon": 0.0, "rental_uris": {"android": "https://dc.lft.to/lastmile_qr_scan", "ios": "https://dc.lft.to/lastmile_qr_scan"}, "is_reserved": 0}, {"bike_id": "c2eba886d710e24af9b5fe47650b74ea", "name": "c2eba886d710e24af9b5fe47650b74ea", "lat": 38.903692666666664, "fusion_lat": 0.0, "type": "electric_scooter", "lon": -76.9849275, "is_disabled": 0, "fusion_lon": 0.0, "rental_uris": {"android": "https://dc.lft.to/lastmile_qr_scan", "ios": "https://dc.lft.to/lastmile_qr_scan"}, "is_reserved": 0}, {"bike_id": "bff7235c14cb90dfe3fb5a40c93686f1", "name": "bff7235c14cb90dfe3fb5a40c93686f1", "lat": 38.89924383333334, "fusion_lat": 0.0, "type": "electric_scooter", "lon": -77.03982533333334, "is_disabled": 0, "fusion_lon": 0.0, "rental_uris": {"android": "https://dc.lft.to/lastmile_qr_scan", "ios": "https://dc.lft.to/lastmile_qr_scan"}, "is_reserved": 0}, {"bike_id": "31c7470063e9871647c64fb0f4b2662a", "name": "31c7470063e9871647c64fb0f4b2662a", "lat": 38.90824666666666, "fusion_lat": 0.0, "type": "electric_scooter", "lon": -77.03357983333333, "is_disabled": 0, "fusion_lon": 0.0, "rental_uris": {"android": "https://dc.lft.to/lastmile_qr_scan", "ios": "https://dc.lft.to/lastmile_qr_scan"}, "is_reserved": 0}, {"bike_id": "02485969119301a8218c3ce01825b741", "name": "02485969119301a8218c3ce01825b741", "lat": 38.919930666666666, "fusion_lat": 0.0, "type": "electric_scooter", "lon": -77.03312816666667, "is_disabled": 0, "fusion_lon": 0.0, "rental_uris": {"android": "https://dc.lft.to/lastmile_qr_scan", "ios": "https://dc.lft.to/lastmile_qr_scan"}, "is_reserved": 0}, {"bike_id": "5e83597c1f965830a4353b2d28bd5b5b", "name": "5e83597c1f965830a4353b2d28bd5b5b", "lat": 38.9269355, "fusion_lat": 0.0, "type": "electric_scooter", "lon": -77.02579, "is_disabled": 0, "fusion_lon": 0.0, "rental_uris": {"android": "https://dc.lft.to/lastmile_qr_scan", "ios": "https://dc.lft.to/lastmile_qr_scan"}, "is_reserved": 0}, {"bike_id": "6e20659c0bcd9642cca6955dc5abc2bb", "name": "6e20659c0bcd9642cca6955dc5abc2bb", "lat": 38.9044535, "fusion_lat": 0.0, "type": "electric_scooter", "lon": -77.0259545, "is_disabled": 0, "fusion_lon": 0.0, "rental_uris": {"android": "https://dc.lft.to/lastmile_qr_scan", "ios": "https://dc.lft.to/lastmile_qr_scan"}, "is_reserved": 0}, {"bike_id": "7c94e863d01f3005d7f85dfb83400a12", "name": "7c94e863d01f3005d7f85dfb83400a12", "lat": 38.937772333333335, "fusion_lat": 0.0, "type": "electric_scooter", "lon": -77.02468783333333, "is_disabled": 0, "fusion_lon": 0.0, "rental_uris": {"android": "https://dc.lft.to/lastmile_qr_scan", "ios": "https://dc.lft.to/lastmile_qr_scan"}, "is_reserved": 0}, {"bike_id": "748d526a249c39d601ad41a3423ce4de", "name": "748d526a249c39d601ad41a3423ce4de", "lat": 38.8951045, "fusion_lat": 0.0, "type": "electric_scooter", "lon": -77.02133266666667, "is_disabled": 0, "fusion_lon": 0.0, "rental_uris": {"android": "https://dc.lft.to/lastmile_qr_scan", "ios": "https://dc.lft.to/lastmile_qr_scan"}, "is_reserved": 0}, {"bike_id": "6cfd83739e98d997a435f40e48ae9cc7", "name": "6cfd83739e98d997a435f40e48ae9cc7", "lat": 38.937643666666666, "fusion_lat": 0.0, "type": "electric_scooter", "lon": -77.02835916666666, "is_disabled": 0, "fusion_lon": 0.0, "rental_uris": {"android": "https://dc.lft.to/lastmile_qr_scan", "ios": "https://dc.lft.to/lastmile_qr_scan"}, "is_reserved": 0}, {"bike_id": "b0e1028040b8a7b98d7e2eb515169373", "name": "b0e1028040b8a7b98d7e2eb515169373", "lat": 38.91200666666667, "fusion_lat": 0.0, "type": "electric_scooter", "lon": -77.03829333333333, "is_disabled": 0, "fusion_lon": 0.0, "rental_uris": {"android": "https://dc.lft.to/lastmile_qr_scan", "ios": "https://dc.lft.to/lastmile_qr_scan"}, "is_reserved": 0}, {"bike_id": "1cc0da66f4ddb03f966cbc830d7c3e83", "name": "1cc0da66f4ddb03f966cbc830d7c3e83", "lat": 38.9168615, "fusion_lat": 0.0, "type": "electric_scooter", "lon": -77.02286, "is_disabled": 0, "fusion_lon": 0.0, "rental_uris": {"android": "https://dc.lft.to/lastmile_qr_scan", "ios": "https://dc.lft.to/lastmile_qr_scan"}, "is_reserved": 0}, {"bike_id": "cbd7b826b40a11a30bbd15d19ef51576", "name": "cbd7b826b40a11a30bbd15d19ef51576", "lat": 38.90388816666667, "fusion_lat": 0.0, "type": "electric_scooter", "lon": -77.01223933333333, "is_disabled": 0, "fusion_lon": 0.0, "rental_uris": {"android": "https://dc.lft.to/lastmile_qr_scan", "ios": "https://dc.lft.to/lastmile_qr_scan"}, "is_reserved": 0}, {"bike_id": "fa8a50ebb682b529c1686505e368d96b", "name": "fa8a50ebb682b529c1686505e368d96b", "lat": 38.9419205, "fusion_lat": 0.0, "type": "electric_scooter", "lon": -77.0234895, "is_disabled": 0, "fusion_lon": 0.0, "rental_uris": {"android": "https://dc.lft.to/lastmile_qr_scan", "ios": "https://dc.lft.to/lastmile_qr_scan"}, "is_reserved": 0}, {"bike_id": "ff4b63c8605b4a94d8f4886e59db9dea", "name": "ff4b63c8605b4a94d8f4886e59db9dea", "lat": 38.90742566666667, "fusion_lat": 0.0, "type": "electric_scooter", "lon": -76.9347765, "is_disabled": 0, "fusion_lon": 0.0, "rental_uris": {"android": "https://dc.lft.to/lastmile_qr_scan", "ios": "https://dc.lft.to/lastmile_qr_scan"}, "is_reserved": 0}, {"bike_id": "71fe8783249781934bc35210c871df64", "name": "71fe8783249781934bc35210c871df64", "lat": 38.924171, "fusion_lat": 0.0, "type": "electric_scooter", "lon": -77.03524516666667, "is_disabled": 0, "fusion_lon": 0.0, "rental_uris": {"android": "https://dc.lft.to/lastmile_qr_scan", "ios": "https://dc.lft.to/lastmile_qr_scan"}, "is_reserved": 0}, {"bike_id": "8bd37fe6babd5db314499ac2dfe277d6", "name": "8bd37fe6babd5db314499ac2dfe277d6", "lat": 38.940954, "fusion_lat": 0.0, "type": "electric_scooter", "lon": -77.029784, "is_disabled": 0, "fusion_lon": 0.0, "rental_uris": {"android": "https://dc.lft.to/lastmile_qr_scan", "ios": "https://dc.lft.to/lastmile_qr_scan"}, "is_reserved": 0}, {"bike_id": "3defc57088a8efe0098389d4d6b7941d", "name": "3defc57088a8efe0098389d4d6b7941d", "lat": 38.901757833333335, "fusion_lat": 0.0, "type": "electric_scooter", "lon": -77.04668533333333, "is_disabled": 0, "fusion_lon": 0.0, "rental_uris": {"android": "https://dc.lft.to/lastmile_qr_scan", "ios": "https://dc.lft.to/lastmile_qr_scan"}, "is_reserved": 0}, {"bike_id": "1b34e38b376a0da989cacbcad52e8595", "name": "1b34e38b376a0da989cacbcad52e8595", "lat": 38.9366975, "fusion_lat": 0.0, "type": "electric_scooter", "lon": -77.0363375, "is_disabled": 0, "fusion_lon": 0.0, "rental_uris": {"android": "https://dc.lft.to/lastmile_qr_scan", "ios": "https://dc.lft.to/lastmile_qr_scan"}, "is_reserved": 0}, {"bike_id": "eb418adfacb757b821927ded7a4e6b39", "name": "eb418adfacb757b821927ded7a4e6b39", "lat": 38.932542833333336, "fusion_lat": 0.0, "type": "electric_scooter", "lon": -77.03202583333334, "is_disabled": 0, "fusion_lon": 0.0, "rental_uris": {"android": "https://dc.lft.to/lastmile_qr_scan", "ios": "https://dc.lft.to/lastmile_qr_scan"}, "is_reserved": 0}, {"bike_id": "41fb6be77a5151227fb5fbe77da28dc9", "name": "41fb6be77a5151227fb5fbe77da28dc9", "lat": 38.90400133333333, "fusion_lat": 0.0, "type": "electric_scooter", "lon": -77.044129, "is_disabled": 0, "fusion_lon": 0.0, "rental_uris": {"android": "https://dc.lft.to/lastmile_qr_scan", "ios": "https://dc.lft.to/lastmile_qr_scan"}, "is_reserved": 0}, {"bike_id": "dbc19031da086f14894d46af476407b2", "name": "dbc19031da086f14894d46af476407b2", "lat": 38.8946205, "fusion_lat": 0.0, "type": "electric_bike", "lon": -77.191332, "is_disabled": 0, "fusion_lon": 0.0, "rental_uris": {"android": "https://dc.lft.to/lastmile_qr_scan", "ios": "https://dc.lft.to/lastmile_qr_scan"}, "is_reserved": 0}, {"bike_id": "3b807161df30802f94ba7f36dbfbb6f5", "name": "3b807161df30802f94ba7f36dbfbb6f5", "lat": 38.92661066666667, "fusion_lat": 0.0, "type": "electric_scooter", "lon": -77.0371615, "is_disabled": 0, "fusion_lon": 0.0, "rental_uris": {"android": "https://dc.lft.to/lastmile_qr_scan", "ios": "https://dc.lft.to/lastmile_qr_scan"}, "is_reserved": 0}, {"bike_id": "6ff4f119d6eaf22908341656f94ab350", "name": "6ff4f119d6eaf22908341656f94ab350", "lat": 38.917190833333336, "fusion_lat": 0.0, "type": "electric_scooter", "lon": -77.03469316666667, "is_disabled": 0, "fusion_lon": 0.0, "rental_uris": {"android": "https://dc.lft.to/lastmile_qr_scan", "ios": "https://dc.lft.to/lastmile_qr_scan"}, "is_reserved": 0}, {"bike_id": "eee0d0bbd403d015a804ad04b5dd198b", "name": "eee0d0bbd403d015a804ad04b5dd198b", "lat": 38.925527833333334, "fusion_lat": 0.0, "type": "electric_scooter", "lon": -77.034124, "is_disabled": 0, "fusion_lon": 0.0, "rental_uris": {"android": "https://dc.lft.to/lastmile_qr_scan", "ios": "https://dc.lft.to/lastmile_qr_scan"}, "is_reserved": 0}, {"bike_id": "668486fff6cfdb89e025853ef41de807", "name": "668486fff6cfdb89e025853ef41de807", "lat": 38.8980965, "fusion_lat": 0.0, "type": "electric_scooter", "lon": -77.0335725, "is_disabled": 0, "fusion_lon": 0.0, "rental_uris": {"android": "https://dc.lft.to/lastmile_qr_scan", "ios": "https://dc.lft.to/lastmile_qr_scan"}, "is_reserved": 0}, {"bike_id": "0cab43f9fdb30f0676393e1efd6d7dde", "name": "0cab43f9fdb30f0676393e1efd6d7dde", "lat": 38.88376, "fusion_lat": 0.0, "type": "electric_scooter", "lon": -76.93039166666667, "is_disabled": 0, "fusion_lon": 0.0, "rental_uris": {"android": "https://dc.lft.to/lastmile_qr_scan", "ios": "https://dc.lft.to/lastmile_qr_scan"}, "is_reserved": 0}, {"bike_id": "57a9b4596c1e70a1e2db5df854fcab5b", "name": "57a9b4596c1e70a1e2db5df854fcab5b", "lat": 38.896984333333336, "fusion_lat": 0.0, "type": "electric_scooter", "lon": -76.94742516666666, "is_disabled": 0, "fusion_lon": 0.0, "rental_uris": {"android": "https://dc.lft.to/lastmile_qr_scan", "ios": "https://dc.lft.to/lastmile_qr_scan"}, "is_reserved": 0}, {"bike_id": "4dc268af4f0bb1956c8222b6710bc959", "name": "4dc268af4f0bb1956c8222b6710bc959", "lat": 38.906159833333334, "fusion_lat": 0.0, "type": "electric_scooter", "lon": -76.95019516666666, "is_disabled": 0, "fusion_lon": 0.0, "rental_uris": {"android": "https://dc.lft.to/lastmile_qr_scan", "ios": "https://dc.lft.to/lastmile_qr_scan"}, "is_reserved": 0}, {"bike_id": "821a72a538c0f12aa3730faddd205a74", "name": "821a72a538c0f12aa3730faddd205a74", "lat": 38.915765, "fusion_lat": 0.0, "type": "electric_scooter", "lon": -77.03662233333333, "is_disabled": 0, "fusion_lon": 0.0, "rental_uris": {"android": "https://dc.lft.to/lastmile_qr_scan", "ios": "https://dc.lft.to/lastmile_qr_scan"}, "is_reserved": 0}, {"bike_id": "f1cf613bf51d381c7b28acc3b99a1ccf", "name": "f1cf613bf51d381c7b28acc3b99a1ccf", "lat": 38.91138216666667, "fusion_lat": 0.0, "type": "electric_scooter", "lon": -77.0321085, "is_disabled": 0, "fusion_lon": 0.0, "rental_uris": {"android": "https://dc.lft.to/lastmile_qr_scan", "ios": "https://dc.lft.to/lastmile_qr_scan"}, "is_reserved": 0}, {"bike_id": "590748f8b28d066a7db3b581224c2fec", "name": "590748f8b28d066a7db3b581224c2fec", "lat": 38.9293435, "fusion_lat": 0.0, "type": "electric_scooter", "lon": -77.03766433333334, "is_disabled": 0, "fusion_lon": 0.0, "rental_uris": {"android": "https://dc.lft.to/lastmile_qr_scan", "ios": "https://dc.lft.to/lastmile_qr_scan"}, "is_reserved": 0}, {"bike_id": "80beda148d333a6c6dd8b631f9c9eda5", "name": "80beda148d333a6c6dd8b631f9c9eda5", "lat": 38.9017465, "fusion_lat": 0.0, "type": "electric_scooter", "lon": -77.05112183333334, "is_disabled": 0, "fusion_lon": 0.0, "rental_uris": {"android": "https://dc.lft.to/lastmile_qr_scan", "ios": "https://dc.lft.to/lastmile_qr_scan"}, "is_reserved": 0}, {"bike_id": "95f96566225ce163d926debee0b43fe4", "name": "95f96566225ce163d926debee0b43fe4", "lat": 38.88787883333333, "fusion_lat": 0.0, "type": "electric_scooter", "lon": -76.97717616666667, "is_disabled": 0, "fusion_lon": 0.0, "rental_uris": {"android": "https://dc.lft.to/lastmile_qr_scan", "ios": "https://dc.lft.to/lastmile_qr_scan"}, "is_reserved": 0}, {"bike_id": "e70e1aa7b56d111ad34f74c1caf5aa75", "name": "e70e1aa7b56d111ad34f74c1caf5aa75", "lat": 38.9180435, "fusion_lat": 0.0, "type": "electric_scooter", "lon": -77.03456716666666, "is_disabled": 0, "fusion_lon": 0.0, "rental_uris": {"android": "https://dc.lft.to/lastmile_qr_scan", "ios": "https://dc.lft.to/lastmile_qr_scan"}, "is_reserved": 0}, {"bike_id": "c934f8f2e3effcdf3eb1b2eeeeeeed03", "name": "c934f8f2e3effcdf3eb1b2eeeeeeed03", "lat": 38.882844666666664, "fusion_lat": 0.0, "type": "electric_bike", "lon": -77.11186633333334, "is_disabled": 0, "fusion_lon": 0.0, "rental_uris": {"android": "https://dc.lft.to/lastmile_qr_scan", "ios": "https://dc.lft.to/lastmile_qr_scan"}, "is_reserved": 0}, {"bike_id": "97f50b8837ce1e4ace8258da9459a085", "name": "97f50b8837ce1e4ace8258da9459a085", "lat": 38.8730015, "fusion_lat": 0.0, "type": "electric_scooter", "lon": -77.01560316666666, "is_disabled": 0, "fusion_lon": 0.0, "rental_uris": {"android": "https://dc.lft.to/lastmile_qr_scan", "ios": "https://dc.lft.to/lastmile_qr_scan"}, "is_reserved": 0}, {"bike_id": "4607ca941b4ba6ef4be9547802fbfcb5", "name": "4607ca941b4ba6ef4be9547802fbfcb5", "lat": 38.924221, "fusion_lat": 0.0, "type": "electric_scooter", "lon": -77.01946666666667, "is_disabled": 0, "fusion_lon": 0.0, "rental_uris": {"android": "https://dc.lft.to/lastmile_qr_scan", "ios": "https://dc.lft.to/lastmile_qr_scan"}, "is_reserved": 0}, {"bike_id": "30a75511bb71711918316fabc308490a", "name": "30a75511bb71711918316fabc308490a", "lat": 38.906298666666665, "fusion_lat": 0.0, "type": "electric_scooter", "lon": -77.050324, "is_disabled": 0, "fusion_lon": 0.0, "rental_uris": {"android": "https://dc.lft.to/lastmile_qr_scan", "ios": "https://dc.lft.to/lastmile_qr_scan"}, "is_reserved": 0}, {"bike_id": "795fac50c0cd3ea7fa6d2d3fce732973", "name": "795fac50c0cd3ea7fa6d2d3fce732973", "lat": 38.90596716666667, "fusion_lat": 0.0, "type": "electric_scooter", "lon": -77.016196, "is_disabled": 0, "fusion_lon": 0.0, "rental_uris": {"android": "https://dc.lft.to/lastmile_qr_scan", "ios": "https://dc.lft.to/lastmile_qr_scan"}, "is_reserved": 0}, {"bike_id": "1dc177a91c576601ec2418c83fdaf5fd", "name": "1dc177a91c576601ec2418c83fdaf5fd", "lat": 38.90844583333333, "fusion_lat": 0.0, "type": "electric_scooter", "lon": -76.99982833333334, "is_disabled": 0, "fusion_lon": 0.0, "rental_uris": {"android": "https://dc.lft.to/lastmile_qr_scan", "ios": "https://dc.lft.to/lastmile_qr_scan"}, "is_reserved": 0}, {"bike_id": "4e808c96db2a68660622d35d3fa7578b", "name": "4e808c96db2a68660622d35d3fa7578b", "lat": 38.916649166666666, "fusion_lat": 0.0, "type": "electric_scooter", "lon": -77.02400666666666, "is_disabled": 0, "fusion_lon": 0.0, "rental_uris": {"android": "https://dc.lft.to/lastmile_qr_scan", "ios": "https://dc.lft.to/lastmile_qr_scan"}, "is_reserved": 0}, {"bike_id": "29d1db735c412cdb777d98279c6f618b", "name": "29d1db735c412cdb777d98279c6f618b", "lat": 38.91771416666667, "fusion_lat": 0.0, "type": "electric_scooter", "lon": -77.009255, "is_disabled": 0, "fusion_lon": 0.0, "rental_uris": {"android": "https://dc.lft.to/lastmile_qr_scan", "ios": "https://dc.lft.to/lastmile_qr_scan"}, "is_reserved": 0}, {"bike_id": "e53da6496ed1471c1d83ed74fb522988", "name": "e53da6496ed1471c1d83ed74fb522988", "lat": 38.8762545, "fusion_lat": 0.0, "type": "electric_scooter", "lon": -77.00754266666667, "is_disabled": 0, "fusion_lon": 0.0, "rental_uris": {"android": "https://dc.lft.to/lastmile_qr_scan", "ios": "https://dc.lft.to/lastmile_qr_scan"}, "is_reserved": 0}, {"bike_id": "e8d9bb879f4810576b07932537e84173", "name": "e8d9bb879f4810576b07932537e84173", "lat": 38.926092833333335, "fusion_lat": 0.0, "type": "electric_scooter", "lon": -77.02416233333334, "is_disabled": 0, "fusion_lon": 0.0, "rental_uris": {"android": "https://dc.lft.to/lastmile_qr_scan", "ios": "https://dc.lft.to/lastmile_qr_scan"}, "is_reserved": 0}, {"bike_id": "c7158c30f9635e4eccf6073c6ee111ea", "name": "c7158c30f9635e4eccf6073c6ee111ea", "lat": 38.8823305, "fusion_lat": 0.0, "type": "electric_bike", "lon": -76.99510433333333, "is_disabled": 0, "fusion_lon": 0.0, "rental_uris": {"android": "https://dc.lft.to/lastmile_qr_scan", "ios": "https://dc.lft.to/lastmile_qr_scan"}, "is_reserved": 0}, {"bike_id": "43371a680b85e79553b2dfdf237a009c", "name": "43371a680b85e79553b2dfdf237a009c", "lat": 38.88075766666667, "fusion_lat": 0.0, "type": "electric_scooter", "lon": -76.9916325, "is_disabled": 0, "fusion_lon": 0.0, "rental_uris": {"android": "https://dc.lft.to/lastmile_qr_scan", "ios": "https://dc.lft.to/lastmile_qr_scan"}, "is_reserved": 0}, {"bike_id": "132074d970afd02904bbc4b3ae283a29", "name": "132074d970afd02904bbc4b3ae283a29", "lat": 38.918618, "fusion_lat": 0.0, "type": "electric_scooter", "lon": -77.04184683333334, "is_disabled": 0, "fusion_lon": 0.0, "rental_uris": {"android": "https://dc.lft.to/lastmile_qr_scan", "ios": "https://dc.lft.to/lastmile_qr_scan"}, "is_reserved": 0}, {"bike_id": "319a8f2cd40e53b6f1380bf25609450f", "name": "319a8f2cd40e53b6f1380bf25609450f", "lat": 38.91476, "fusion_lat": 0.0, "type": "electric_scooter", "lon": -77.03209083333333, "is_disabled": 0, "fusion_lon": 0.0, "rental_uris": {"android": "https://dc.lft.to/lastmile_qr_scan", "ios": "https://dc.lft.to/lastmile_qr_scan"}, "is_reserved": 0}, {"bike_id": "0b58192da50a50f7af6140c752a64c8a", "name": "0b58192da50a50f7af6140c752a64c8a", "lat": 38.95184233333333, "fusion_lat": 0.0, "type": "electric_scooter", "lon": -77.029307, "is_disabled": 0, "fusion_lon": 0.0, "rental_uris": {"android": "https://dc.lft.to/lastmile_qr_scan", "ios": "https://dc.lft.to/lastmile_qr_scan"}, "is_reserved": 0}, {"bike_id": "e8bd58c8b5d5c0c85e9eed311faeb43b", "name": "e8bd58c8b5d5c0c85e9eed311faeb43b", "lat": 38.905583, "fusion_lat": 0.0, "type": "electric_scooter", "lon": -77.0059865, "is_disabled": 0, "fusion_lon": 0.0, "rental_uris": {"android": "https://dc.lft.to/lastmile_qr_scan", "ios": "https://dc.lft.to/lastmile_qr_scan"}, "is_reserved": 0}, {"bike_id": "5ffe15d44432a7946cf90937193fa265", "name": "5ffe15d44432a7946cf90937193fa265", "lat": 38.898409, "fusion_lat": 0.0, "type": "electric_scooter", "lon": -77.02965483333334, "is_disabled": 0, "fusion_lon": 0.0, "rental_uris": {"android": "https://dc.lft.to/lastmile_qr_scan", "ios": "https://dc.lft.to/lastmile_qr_scan"}, "is_reserved": 0}, {"bike_id": "ee54be074ee4c44198cb39a641030874", "name": "ee54be074ee4c44198cb39a641030874", "lat": 38.91616616666667, "fusion_lat": 0.0, "type": "electric_scooter", "lon": -77.023034, "is_disabled": 0, "fusion_lon": 0.0, "rental_uris": {"android": "https://dc.lft.to/lastmile_qr_scan", "ios": "https://dc.lft.to/lastmile_qr_scan"}, "is_reserved": 0}, {"bike_id": "adb49a5380281ac1e54dbbc4f7656d53", "name": "adb49a5380281ac1e54dbbc4f7656d53", "lat": 38.930216, "fusion_lat": 0.0, "type": "electric_scooter", "lon": -77.023272, "is_disabled": 0, "fusion_lon": 0.0, "rental_uris": {"android": "https://dc.lft.to/lastmile_qr_scan", "ios": "https://dc.lft.to/lastmile_qr_scan"}, "is_reserved": 0}, {"bike_id": "b85788575a94aee582d765f47d9e2c3c", "name": "b85788575a94aee582d765f47d9e2c3c", "lat": 38.921348, "fusion_lat": 0.0, "type": "electric_scooter", "lon": -77.01792, "is_disabled": 0, "fusion_lon": 0.0, "rental_uris": {"android": "https://dc.lft.to/lastmile_qr_scan", "ios": "https://dc.lft.to/lastmile_qr_scan"}, "is_reserved": 0}, {"bike_id": "3d3ac13e720ee74daf3af0749aef7831", "name": "3d3ac13e720ee74daf3af0749aef7831", "lat": 38.921233, "fusion_lat": 0.0, "type": "electric_scooter", "lon": -77.04229, "is_disabled": 0, "fusion_lon": 0.0, "rental_uris": {"android": "https://dc.lft.to/lastmile_qr_scan", "ios": "https://dc.lft.to/lastmile_qr_scan"}, "is_reserved": 0}, {"bike_id": "26962af7079dc0f2b3c6da8a3b30be82", "name": "26962af7079dc0f2b3c6da8a3b30be82", "lat": 38.916286666666664, "fusion_lat": 0.0, "type": "electric_scooter", "lon": -77.03165483333333, "is_disabled": 0, "fusion_lon": 0.0, "rental_uris": {"android": "https://dc.lft.to/lastmile_qr_scan", "ios": "https://dc.lft.to/lastmile_qr_scan"}, "is_reserved": 0}, {"bike_id": "3de3336fba213f66b44aa7b9fb28e417", "name": "3de3336fba213f66b44aa7b9fb28e417", "lat": 38.90123, "fusion_lat": 0.0, "type": "electric_scooter", "lon": -77.04618483333333, "is_disabled": 0, "fusion_lon": 0.0, "rental_uris": {"android": "https://dc.lft.to/lastmile_qr_scan", "ios": "https://dc.lft.to/lastmile_qr_scan"}, "is_reserved": 0}, {"bike_id": "8c1ea87cffa435f7daa490868d2f0eda", "name": "8c1ea87cffa435f7daa490868d2f0eda", "lat": 38.945144166666665, "fusion_lat": 0.0, "type": "electric_scooter", "lon": -77.03361533333333, "is_disabled": 0, "fusion_lon": 0.0, "rental_uris": {"android": "https://dc.lft.to/lastmile_qr_scan", "ios": "https://dc.lft.to/lastmile_qr_scan"}, "is_reserved": 0}, {"bike_id": "9b52a7bbfb26eb1700b1dcdfe1636764", "name": "9b52a7bbfb26eb1700b1dcdfe1636764", "lat": 38.921368333333334, "fusion_lat": 0.0, "type": "electric_scooter", "lon": -77.01796166666666, "is_disabled": 0, "fusion_lon": 0.0, "rental_uris": {"android": "https://dc.lft.to/lastmile_qr_scan", "ios": "https://dc.lft.to/lastmile_qr_scan"}, "is_reserved": 0}, {"bike_id": "59cf8f4ff31909d81cad9c6f9747f75c", "name": "59cf8f4ff31909d81cad9c6f9747f75c", "lat": 38.9306645, "fusion_lat": 0.0, "type": "electric_scooter", "lon": -77.03939783333334, "is_disabled": 0, "fusion_lon": 0.0, "rental_uris": {"android": "https://dc.lft.to/lastmile_qr_scan", "ios": "https://dc.lft.to/lastmile_qr_scan"}, "is_reserved": 0}, {"bike_id": "ae7bf2e934c2ec0cf71165b245a61257", "name": "ae7bf2e934c2ec0cf71165b245a61257", "lat": 38.905273666666666, "fusion_lat": 0.0, "type": "electric_scooter", "lon": -77.0435645, "is_disabled": 0, "fusion_lon": 0.0, "rental_uris": {"android": "https://dc.lft.to/lastmile_qr_scan", "ios": "https://dc.lft.to/lastmile_qr_scan"}, "is_reserved": 0}, {"bike_id": "0d8186766e37fee0bdd31eed3791b0bc", "name": "0d8186766e37fee0bdd31eed3791b0bc", "lat": 38.94307883333333, "fusion_lat": 0.0, "type": "electric_scooter", "lon": -77.0593005, "is_disabled": 0, "fusion_lon": 0.0, "rental_uris": {"android": "https://dc.lft.to/lastmile_qr_scan", "ios": "https://dc.lft.to/lastmile_qr_scan"}, "is_reserved": 0}, {"bike_id": "5c5591a7fb52ed2cda3efe6e55946e4d", "name": "5c5591a7fb52ed2cda3efe6e55946e4d", "lat": 38.897373333333334, "fusion_lat": 0.0, "type": "electric_scooter", "lon": -77.04708733333334, "is_disabled": 0, "fusion_lon": 0.0, "rental_uris": {"android": "https://dc.lft.to/lastmile_qr_scan", "ios": "https://dc.lft.to/lastmile_qr_scan"}, "is_reserved": 0}, {"bike_id": "32c4bddbf1f3e8fe1d6f122fc914647f", "name": "32c4bddbf1f3e8fe1d6f122fc914647f", "lat": 38.88742333333333, "fusion_lat": 0.0, "type": "electric_scooter", "lon": -77.02814683333334, "is_disabled": 0, "fusion_lon": 0.0, "rental_uris": {"android": "https://dc.lft.to/lastmile_qr_scan", "ios": "https://dc.lft.to/lastmile_qr_scan"}, "is_reserved": 0}, {"bike_id": "9bba0316c925aca649d76b111b0bd05d", "name": "9bba0316c925aca649d76b111b0bd05d", "lat": 38.90298166666667, "fusion_lat": 0.0, "type": "electric_scooter", "lon": -76.93414283333334, "is_disabled": 0, "fusion_lon": 0.0, "rental_uris": {"android": "https://dc.lft.to/lastmile_qr_scan", "ios": "https://dc.lft.to/lastmile_qr_scan"}, "is_reserved": 0}, {"bike_id": "d0d2aeb688bd14ca97edbc24b3ca1879", "name": "d0d2aeb688bd14ca97edbc24b3ca1879", "lat": 38.9565275, "fusion_lat": 0.0, "type": "electric_scooter", "lon": -77.012833, "is_disabled": 0, "fusion_lon": 0.0, "rental_uris": {"android": "https://dc.lft.to/lastmile_qr_scan", "ios": "https://dc.lft.to/lastmile_qr_scan"}, "is_reserved": 0}, {"bike_id": "d5c110e9da3950d32559c647bcc8f80f", "name": "d5c110e9da3950d32559c647bcc8f80f", "lat": 38.90740866666667, "fusion_lat": 0.0, "type": "electric_scooter", "lon": -77.002398, "is_disabled": 0, "fusion_lon": 0.0, "rental_uris": {"android": "https://dc.lft.to/lastmile_qr_scan", "ios": "https://dc.lft.to/lastmile_qr_scan"}, "is_reserved": 0}, {"bike_id": "2d4c93425a3c6c38a4edca293094769a", "name": "2d4c93425a3c6c38a4edca293094769a", "lat": 38.88128733333333, "fusion_lat": 0.0, "type": "electric_scooter", "lon": -77.0169545, "is_disabled": 0, "fusion_lon": 0.0, "rental_uris": {"android": "https://dc.lft.to/lastmile_qr_scan", "ios": "https://dc.lft.to/lastmile_qr_scan"}, "is_reserved": 0}, {"bike_id": "e5a83dfb85b11f436ee8688d14853f93", "name": "e5a83dfb85b11f436ee8688d14853f93", "lat": 38.819502, "fusion_lat": 0.0, "type": "electric_bike", "lon": -77.0022675, "is_disabled": 0, "fusion_lon": 0.0, "rental_uris": {"android": "https://dc.lft.to/lastmile_qr_scan", "ios": "https://dc.lft.to/lastmile_qr_scan"}, "is_reserved": 0}, {"bike_id": "93ab37fff2e7f9a2bf8927fea7a410c9", "name": "93ab37fff2e7f9a2bf8927fea7a410c9", "lat": 38.9218415, "fusion_lat": 0.0, "type": "electric_scooter", "lon": -77.042235, "is_disabled": 0, "fusion_lon": 0.0, "rental_uris": {"android": "https://dc.lft.to/lastmile_qr_scan", "ios": "https://dc.lft.to/lastmile_qr_scan"}, "is_reserved": 0}, {"bike_id": "b91d59ebcee9fe29612f13a14986c23a", "name": "b91d59ebcee9fe29612f13a14986c23a", "lat": 38.89796616666667, "fusion_lat": 0.0, "type": "electric_scooter", "lon": -77.01192833333333, "is_disabled": 0, "fusion_lon": 0.0, "rental_uris": {"android": "https://dc.lft.to/lastmile_qr_scan", "ios": "https://dc.lft.to/lastmile_qr_scan"}, "is_reserved": 0}, {"bike_id": "af5e2a249a9b5b2425a5cfac3dff8bc7", "name": "af5e2a249a9b5b2425a5cfac3dff8bc7", "lat": 38.902659, "fusion_lat": 0.0, "type": "electric_scooter", "lon": -77.03860283333333, "is_disabled": 0, "fusion_lon": 0.0, "rental_uris": {"android": "https://dc.lft.to/lastmile_qr_scan", "ios": "https://dc.lft.to/lastmile_qr_scan"}, "is_reserved": 0}, {"bike_id": "3de7d21376bf1ce27b8a3c06e21483cc", "name": "3de7d21376bf1ce27b8a3c06e21483cc", "lat": 38.90582916666666, "fusion_lat": 0.0, "type": "electric_scooter", "lon": -77.03067683333333, "is_disabled": 0, "fusion_lon": 0.0, "rental_uris": {"android": "https://dc.lft.to/lastmile_qr_scan", "ios": "https://dc.lft.to/lastmile_qr_scan"}, "is_reserved": 0}, {"bike_id": "1d9062ccb9c834a2c732d89abd52abfc", "name": "1d9062ccb9c834a2c732d89abd52abfc", "lat": 38.881266333333336, "fusion_lat": 0.0, "type": "electric_scooter", "lon": -77.00096366666666, "is_disabled": 0, "fusion_lon": 0.0, "rental_uris": {"android": "https://dc.lft.to/lastmile_qr_scan", "ios": "https://dc.lft.to/lastmile_qr_scan"}, "is_reserved": 0},