{"data": {"bikes": [{"rental_uris": {"android": "https://dc.lft.to/lastmile_qr_scan", "ios": "https://dc.lft.to/lastmile_qr_scan"}, "is_reserved": 0, "is_disabled": 0, "bike_id": "9f1aaf70dafbeeca727b9ef8cd93480f", "lat": 38.89885616666667, "name": "9f1aaf70dafbeeca727b9ef8cd93480f", "fusion_lon": 0.0, "fusion_lat": 0.0, "type": "electric_scooter", "lon": -76.93173933333334}, {"rental_uris": {"android": "https://dc.lft.to/lastmile_qr_scan", "ios": "https://dc.lft.to/lastmile_qr_scan"}, "is_reserved": 0, "is_disabled": 0, "bike_id": "bb310803a70fe32197abdd504dbeb7ac", "lat": 38.903254833333335, "name": "bb310803a70fe32197abdd504dbeb7ac", "fusion_lon": 0.0, "fusion_lat": 0.0, "type": "electric_scooter", "lon": -76.97546316666667}, {"rental_uris": {"android": "https://dc.lft.to/lastmile_qr_scan", "ios": "https://dc.lft.to/lastmile_qr_scan"}, "is_reserved": 0, "is_disabled": 0, "bike_id": "66d80552543faa28a4d089ecd1cf3fb9", "lat": 38.93249016666667, "name": "66d80552543faa28a4d089ecd1cf3fb9", "fusion_lon": 0.0, "fusion_lat": 0.0, "type": "electric_scooter", "lon": -77.03414433333333}, {"rental_uris": {"android": "https://dc.lft.to/lastmile_qr_scan", "ios": "https://dc.lft.to/lastmile_qr_scan"}, "is_reserved": 0, "is_disabled": 0, "bike_id": "269a2d409a4b8d99270a15e07f1e45a3", "lat": 38.918264666666666, "name": "269a2d409a4b8d99270a15e07f1e45a3", "fusion_lon": 0.0, "fusion_lat": 0.0, "type": "electric_scooter", "lon": -77.03442883333334}, {"rental_uris": {"android": "https://dc.lft.to/lastmile_qr_scan", "ios": "https://dc.lft.to/lastmile_qr_scan"}, "is_reserved": 0, "is_disabled": 0, "bike_id": "cec1ba6c30d2728c08b1adcfaaf0f310", "lat": 38.89919366666667, "name": "cec1ba6c30d2728c08b1adcfaaf0f310", "fusion_lon": 0.0, "fusion_lat": 0.0, "type": "electric_scooter", "lon": -76.9337675}, {"rental_uris": {"android": "https://dc.lft.to/lastmile_qr_scan", "ios": "https://dc.lft.to/lastmile_qr_scan"}, "is_reserved": 0, "is_disabled": 0, "bike_id": "a3084a1b7ef602ab83607a8993b6cd4d", "lat": 38.911105, "name": "a3084a1b7ef602ab83607a8993b6cd4d", "fusion_lon": 0.0, "fusion_lat": 0.0, "type": "electric_scooter", "lon": -77.01199433333333}, {"rental_uris": {"android": "https://dc.lft.to/lastmile_qr_scan", "ios": "https://dc.lft.to/lastmile_qr_scan"}, "is_reserved": 0, "is_disabled": 0, "bike_id": "b448da37a8a0c01fbbec7099b12df959", "lat": 38.905595, "name": "b448da37a8a0c01fbbec7099b12df959", "fusion_lon": 0.0, "fusion_lat": 0.0, "type": "electric_scooter", "lon": -76.9738935}, {"rental_uris": {"android": "https://dc.lft.to/lastmile_qr_scan", "ios": "https://dc.lft.to/lastmile_qr_scan"}, "is_reserved": 0, "is_disabled": 0, "bike_id": "52f581551251827f8d11c416069fa73f", "lat": 38.850325, "name": "52f581551251827f8d11c416069fa73f", "fusion_lon": 0.0, "fusion_lat": 0.0, "type": "electric_bike", "lon": -77.10183966666666}, {"rental_uris": {"android": "https://dc.lft.to/lastmile_qr_scan", "ios": "https://dc.lft.to/lastmile_qr_scan"}, "is_reserved": 0, "is_disabled": 0, "bike_id": "0c50268415d24da931d225a8d5fe530e", "lat": 38.91178016666667, "name": "0c50268415d24da931d225a8d5fe530e", "fusion_lon": 0.0, "fusion_lat": 0.0, "type": "electric_scooter", "lon": -77.04916116666666}, {"rental_uris": {"android": "https://dc.lft.to/lastmile_qr_scan", "ios": "https://dc.lft.to/lastmile_qr_scan"}, "is_reserved": 0, "is_disabled": 0, "bike_id": "7d2b9051726363980448c9521e093bb3", "lat": 38.8922745, "name": "7d2b9051726363980448c9521e093bb3", "fusion_lon": 0.0, "fusion_lat": 0.0, "type": "electric_scooter", "lon": -77.02353533333333}, {"rental_uris": {"android": "https://dc.lft.to/lastmile_qr_scan", "ios": "https://dc.lft.to/lastmile_qr_scan"}, "is_reserved": 0, "is_disabled": 0, "bike_id": "c9c5c3d36b334977f4697db3e16913a6", "lat": 38.9171495, "name": "c9c5c3d36b334977f4697db3e16913a6", "fusion_lon": 0.0, "fusion_lat": 0.0, "type": "electric_scooter", "lon": -77.03830166666667}, {"rental_uris": {"android": "https://dc.lft.to/lastmile_qr_scan", "ios": "https://dc.lft.to/lastmile_qr_scan"}, "is_reserved": 0, "is_disabled": 0, "bike_id": "c81d9c3565c8f1f5727e6a6bf84911b8", "lat": 38.88739316666667, "name": "c81d9c3565c8f1f5727e6a6bf84911b8", "fusion_lon": 0.0, "fusion_lat": 0.0, "type": "electric_scooter", "lon": -77.02817266666666}, {"rental_uris": {"android": "https://dc.lft.to/lastmile_qr_scan", "ios": "https://dc.lft.to/lastmile_qr_scan"}, "is_reserved": 0, "is_disabled": 0, "bike_id": "e149f14cb60140e59a5dbbcac16b7a67", "lat": 38.901676333333334, "name": "e149f14cb60140e59a5dbbcac16b7a67", "fusion_lon": 0.0, "fusion_lat": 0.0, "type": "electric_scooter", "lon": -77.03171583333334}, {"rental_uris": {"android": "https://dc.lft.to/lastmile_qr_scan", "ios": "https://dc.lft.to/lastmile_qr_scan"}, "is_reserved": 0, "is_disabled": 0, "bike_id": "0a60959f218122ac242a385a10d8f743", "lat": 38.90740916666667, "name": "0a60959f218122ac242a385a10d8f743", "fusion_lon": 0.0, "fusion_lat": 0.0, "type": "electric_scooter", "lon": -77.043835}, {"rental_uris": {"android": "https://dc.lft.to/lastmile_qr_scan", "ios": "https://dc.lft.to/lastmile_qr_scan"}, "is_reserved": 0, "is_disabled": 0, "bike_id": "7cc565438ff541108930242ca1446687", "lat": 38.893531, "name": "7cc565438ff541108930242ca1446687", "fusion_lon": 0.0, "fusion_lat": 0.0, "type": "electric_bike", "lon": -77.18735283333334}, {"rental_uris": {"android": "https://dc.lft.to/lastmile_qr_scan", "ios": "https://dc.lft.to/lastmile_qr_scan"}, "is_reserved": 0, "is_disabled": 0, "bike_id": "9d2350637e6f031d22ab3ece1b3ba7c5", "lat": 38.92365983333333, "name": "9d2350637e6f031d22ab3ece1b3ba7c5", "fusion_lon": 0.0, "fusion_lat": 0.0, "type": "electric_scooter", "lon": -77.05045783333334}, {"rental_uris": {"android": "https://dc.lft.to/lastmile_qr_scan", "ios": "https://dc.lft.to/lastmile_qr_scan"}, "is_reserved": 0, "is_disabled": 0, "bike_id": "549d90f8528605f22110d0ec47158030", "lat": 38.89835683333333, "name": "549d90f8528605f22110d0ec47158030", "fusion_lon": 0.0, "fusion_lat": 0.0, "type": "electric_scooter", "lon": -76.9463155}, {"rental_uris": {"android": "https://dc.lft.to/lastmile_qr_scan", "ios": "https://dc.lft.to/lastmile_qr_scan"}, "is_reserved": 0, "is_disabled": 0, "bike_id": "9828ba3924014a99bbde9b77379c36b9", "lat": 38.940936666666666, "name": "9828ba3924014a99bbde9b77379c36b9", "fusion_lon": 0.0, "fusion_lat": 0.0, "type": "electric_scooter", "lon": -77.02304983333333}, {"rental_uris": {"android": "https://dc.lft.to/lastmile_qr_scan", "ios": "https://dc.lft.to/lastmile_qr_scan"}, "is_reserved": 0, "is_disabled": 0, "bike_id": "b22e203fe1846a03cd8f0d96348f1d20", "lat": 38.928473, "name": "b22e203fe1846a03cd8f0d96348f1d20", "fusion_lon": 0.0, "fusion_lat": 0.0, "type": "electric_scooter", "lon": -77.05412766666667}, {"rental_uris": {"android": "https://dc.lft.to/lastmile_qr_scan", "ios": "https://dc.lft.to/lastmile_qr_scan"}, "is_reserved": 0, "is_disabled": 0, "bike_id": "39aa35fe6779c06f27d46db789e1d25a", "lat": 38.92442333333334, "name": "39aa35fe6779c06f27d46db789e1d25a", "fusion_lon": 0.0, "fusion_lat": 0.0, "type": "electric_scooter", "lon": -77.01949083333334}, {"rental_uris": {"android": "https://dc.lft.to/lastmile_qr_scan", "ios": "https://dc.lft.to/lastmile_qr_scan"}, "is_reserved": 0, "is_disabled": 0, "bike_id": "4364cc0d09f65b2571eeaf0bc5170cb8", "lat": 38.9007885, "name": "4364cc0d09f65b2571eeaf0bc5170cb8", "fusion_lon": 0.0, "fusion_lat": 0.0, "type": "electric_scooter", "lon": -77.02710816666666}, {"rental_uris": {"android": "https://dc.lft.to/lastmile_qr_scan", "ios": "https://dc.lft.to/lastmile_qr_scan"}, "is_reserved": 0, "is_disabled": 0, "bike_id": "7eedc92d5a78e5cf1109038154720170", "lat": 38.92633433333334, "name": "7eedc92d5a78e5cf1109038154720170", "fusion_lon": 0.0, "fusion_lat": 0.0, "type": "electric_scooter", "lon": -77.03553566666666}, {"rental_uris": {"android": "https://dc.lft.to/lastmile_qr_scan", "ios": "https://dc.lft.to/lastmile_qr_scan"}, "is_reserved": 0, "is_disabled": 0, "bike_id": "bbf303aaa2ef3d32d600ee6d0027f47f", "lat": 38.90846066666667, "name": "bbf303aaa2ef3d32d600ee6d0027f47f", "fusion_lon": 0.0, "fusion_lat": 0.0, "type": "electric_scooter", "lon": -77.036313}, {"rental_uris": {"android": "https://dc.lft.to/lastmile_qr_scan", "ios": "https://dc.lft.to/lastmile_qr_scan"}, "is_reserved": 0, "is_disabled": 0, "bike_id": "cf052d44a951b71cb158056f2989b484", "lat": 38.90112416666667, "name": "cf052d44a951b71cb158056f2989b484", "fusion_lon": 0.0, "fusion_lat": 0.0, "type": "electric_scooter", "lon": -77.03160933333334}, {"rental_uris": {"android": "https://dc.lft.to/lastmile_qr_scan", "ios": "https://dc.lft.to/lastmile_qr_scan"}, "is_reserved": 0, "is_disabled": 0, "bike_id": "5743fdd383eb076ebd35e089d0773b02", "lat": 38.923223, "name": "5743fdd383eb076ebd35e089d0773b02", "fusion_lon": 0.0, "fusion_lat": 0.0, "type": "electric_scooter", "lon": -77.033998}, {"rental_uris": {"android": "https://dc.lft.to/lastmile_qr_scan", "ios": "https://dc.lft.to/lastmile_qr_scan"}, "is_reserved": 0, "is_disabled": 0, "bike_id": "f2494c559ec5c1af693e5837583d0e6d", "lat": 38.90889266666667, "name": "f2494c559ec5c1af693e5837583d0e6d", "fusion_lon": 0.0, "fusion_lat": 0.0, "type": "electric_scooter", "lon": -77.00237083333333}, {"rental_uris": {"android": "https://dc.lft.to/lastmile_qr_scan", "ios": "https://dc.lft.to/lastmile_qr_scan"}, "is_reserved": 0, "is_disabled": 0, "bike_id": "d7d9862f25d17394b4c23cee4f2da272", "lat": 38.885236666666664, "name": "d7d9862f25d17394b4c23cee4f2da272", "fusion_lon": 0.0, "fusion_lat": 0.0, "type": "electric_scooter", "lon": -77.005771}, {"rental_uris": {"android": "https://dc.lft.to/lastmile_qr_scan", "ios": "https://dc.lft.to/lastmile_qr_scan"}, "is_reserved": 0, "is_disabled": 0, "bike_id": "9fd1aee6c30959b3beaa299d1334fbe4", "lat": 38.90718733333333, "name": "9fd1aee6c30959b3beaa299d1334fbe4", "fusion_lon": 0.0, "fusion_lat": 0.0, "type": "electric_scooter", "lon": -77.023876}, {"rental_uris": {"android": "https://dc.lft.to/lastmile_qr_scan", "ios": "https://dc.lft.to/lastmile_qr_scan"}, "is_reserved": 0, "is_disabled": 0, "bike_id": "3f19567b3626644a73391fbf09468291", "lat": 38.92751416666667, "name": "3f19567b3626644a73391fbf09468291", "fusion_lon": 0.0, "fusion_lat": 0.0, "type": "electric_scooter", "lon": -77.03429766666666}, {"rental_uris": {"android": "https://dc.lft.to/lastmile_qr_scan", "ios": "https://dc.lft.to/lastmile_qr_scan"}, "is_reserved": 0, "is_disabled": 0, "bike_id": "eb3146f917956f7a1f1c8b1de9362b48", "lat": 38.918773, "name": "eb3146f917956f7a1f1c8b1de9362b48", "fusion_lon": 0.0, "fusion_lat": 0.0, "type": "electric_scooter", "lon": -77.02305466666667}, {"rental_uris": {"android": "https://dc.lft.to/lastmile_qr_scan", "ios": "https://dc.lft.to/lastmile_qr_scan"}, "is_reserved": 0, "is_disabled": 0, "bike_id": "235ed24214cd2d9d8366c97c53115d08", "lat": 38.887213333333335, "name": "235ed24214cd2d9d8366c97c53115d08", "fusion_lon": 0.0, "fusion_lat": 0.0, "type": "electric_bike", "lon": -77.133031}, {"rental_uris": {"android": "https://dc.lft.to/lastmile_qr_scan", "ios": "https://dc.lft.to/lastmile_qr_scan"}, "is_reserved": 0, "is_disabled": 0, "bike_id": "a2c676bae4601c37882ddfee70854fde", "lat": 38.936166, "name": "a2c676bae4601c37882ddfee70854fde", "fusion_lon": 0.0, "fusion_lat": 0.0, "type": "electric_scooter", "lon": -77.05890066666667}, {"rental_uris": {"android": "https://dc.lft.to/lastmile_qr_scan", "ios": "https://dc.lft.to/lastmile_qr_scan"}, "is_reserved": 0, "is_disabled": 0, "bike_id": "5ef22b266e1e489ac5d69269b79d683b", "lat": 38.92480333333334, "name": "5ef22b266e1e489ac5d69269b79d683b", "fusion_lon": 0.0, "fusion_lat": 0.0, "type": "electric_scooter", "lon": -77.02680933333333}, {"rental_uris": {"android": "https://dc.lft.to/lastmile_qr_scan", "ios": "https://dc.lft.to/lastmile_qr_scan"}, "is_reserved": 0, "is_disabled": 0, "bike_id": "cb8127ec5ad1de4c5c089490c19ff0ca", "lat": 38.880501, "name": "cb8127ec5ad1de4c5c089490c19ff0ca", "fusion_lon": 0.0, "fusion_lat": 0.0, "type": "electric_scooter", "lon": -77.03061466666666}, {"rental_uris": {"android": "https://dc.lft.to/lastmile_qr_scan", "ios": "https://dc.lft.to/lastmile_qr_scan"}, "is_reserved": 0, "is_disabled": 0, "bike_id": "6722744c8121642a05c29e3b4d4ca56c", "lat": 38.90382566666667, "name": "6722744c8121642a05c29e3b4d4ca56c", "fusion_lon": 0.0, "fusion_lat": 0.0, "type": "electric_scooter", "lon": -77.03415883333334}, {"rental_uris": {"android": "https://dc.lft.to/lastmile_qr_scan", "ios": "https://dc.lft.to/lastmile_qr_scan"}, "is_reserved": 0, "is_disabled": 0, "bike_id": "f92c9484d172a1585d57ff5320332db5", "lat": 38.89227066666667, "name": "f92c9484d172a1585d57ff5320332db5", "fusion_lon": 0.0, "fusion_lat": 0.0, "type": "electric_scooter", "lon": -77.026274}, {"rental_uris": {"android": "https://dc.lft.to/lastmile_qr_scan", "ios": "https://dc.lft.to/lastmile_qr_scan"}, "is_reserved": 0, "is_disabled": 0, "bike_id": "a041f4d5a33cad19b84f4d76320464b6", "lat": 38.880259333333335, "name": "a041f4d5a33cad19b84f4d76320464b6", "fusion_lon": 0.0, "fusion_lat": 0.0, "type": "electric_scooter", "lon": -77.0265775}, {"rental_uris": {"android": "https://dc.lft.to/lastmile_qr_scan", "ios": "https://dc.lft.to/lastmile_qr_scan"}, "is_reserved": 0, "is_disabled": 0, "bike_id": "b6f715a2e649e9d569790177b21d881a", "lat": 38.88783933333333, "name": "b6f715a2e649e9d569790177b21d881a", "fusion_lon": 0.0, "fusion_lat": 0.0, "type": "electric_scooter", "lon": -77.01501783333333}, {"rental_uris": {"android": "https://dc.lft.to/lastmile_qr_scan", "ios": "https://dc.lft.to/lastmile_qr_scan"}, "is_reserved": 0, "is_disabled": 0, "bike_id": "0d6649ede3d8a45459ee220771793314", "lat": 38.93051583333333, "name": "0d6649ede3d8a45459ee220771793314", "fusion_lon": 0.0, "fusion_lat": 0.0, "type": "electric_scooter", "lon": -77.03794366666666}, {"rental_uris": {"android": "https://dc.lft.to/lastmile_qr_scan", "ios": "https://dc.lft.to/lastmile_qr_scan"}, "is_reserved": 0, "is_disabled": 0, "bike_id": "2fd4087baa76a06c70d38b2a5159f86f", "lat": 38.900523666666665, "name": "2fd4087baa76a06c70d38b2a5159f86f", "fusion_lon": 0.0, "fusion_lat": 0.0, "type": "electric_scooter", "lon": -76.98820333333333}, {"rental_uris": {"android": "https://dc.lft.to/lastmile_qr_scan", "ios": "https://dc.lft.to/lastmile_qr_scan"}, "is_reserved": 0, "is_disabled": 0, "bike_id": "022818f3a8532d864231ef59f58cc778", "lat": 38.917125166666665, "name": "022818f3a8532d864231ef59f58cc778", "fusion_lon": 0.0, "fusion_lat": 0.0, "type": "electric_scooter", "lon": -77.04587783333334}, {"rental_uris": {"android": "https://dc.lft.to/lastmile_qr_scan", "ios": "https://dc.lft.to/lastmile_qr_scan"}, "is_reserved": 0, "is_disabled": 0, "bike_id": "088e1bb012df069b0d3b2216c79c4700", "lat": 38.8928205, "name": "088e1bb012df069b0d3b2216c79c4700", "fusion_lon": 0.0, "fusion_lat": 0.0, "type": "electric_scooter", "lon": -77.05030616666667}, {"rental_uris": {"android": "https://dc.lft.to/lastmile_qr_scan", "ios": "https://dc.lft.to/lastmile_qr_scan"}, "is_reserved": 0, "is_disabled": 0, "bike_id": "20d13fd2b3845748b1d48c8829bd1d70", "lat": 38.897555, "name": "20d13fd2b3845748b1d48c8829bd1d70", "fusion_lon": 0.0, "fusion_lat": 0.0, "type": "electric_scooter", "lon": -77.02731333333334}, {"rental_uris": {"android": "https://dc.lft.to/lastmile_qr_scan", "ios": "https://dc.lft.to/lastmile_qr_scan"}, "is_reserved": 0, "is_disabled": 0, "bike_id": "f9b60925ab249fa5a739f751696af1cb", "lat": 38.8997205, "name": "f9b60925ab249fa5a739f751696af1cb", "fusion_lon": 0.0, "fusion_lat": 0.0, "type": "electric_scooter", "lon": -77.03331266666666}, {"rental_uris": {"android": "https://dc.lft.to/lastmile_qr_scan", "ios": "https://dc.lft.to/lastmile_qr_scan"}, "is_reserved": 0, "is_disabled": 0, "bike_id": "60ae2e18392fffc3f8c7dc2347cbca02", "lat": 38.903503666666666, "name": "60ae2e18392fffc3f8c7dc2347cbca02", "fusion_lon": 0.0, "fusion_lat": 0.0, "type": "electric_scooter", "lon": -76.98271633333333}, {"rental_uris": {"android": "https://dc.lft.to/lastmile_qr_scan", "ios": "https://dc.lft.to/lastmile_qr_scan"}, "is_reserved": 0, "is_disabled": 0, "bike_id": "3c688a4d943d213c12b1275494739aac", "lat": 38.903796166666666, "name": "3c688a4d943d213c12b1275494739aac", "fusion_lon": 0.0, "fusion_lat": 0.0, "type": "electric_scooter", "lon": -77.04497933333333}, {"rental_uris": {"android": "https://dc.lft.to/lastmile_qr_scan", "ios": "https://dc.lft.to/lastmile_qr_scan"}, "is_reserved": 0, "is_disabled": 0, "bike_id": "437848a4dae9aeb4d5e7203e2bfdcfa7", "lat": 38.89645566666667, "name": "437848a4dae9aeb4d5e7203e2bfdcfa7", "fusion_lon": 0.0, "fusion_lat": 0.0, "type": "electric_scooter", "lon": -76.99941366666667}, {"rental_uris": {"android": "https://dc.lft.to/lastmile_qr_scan", "ios": "https://dc.lft.to/lastmile_qr_scan"}, "is_reserved": 0, "is_disabled": 0, "bike_id": "f631c63cf9fd9262d16f0416b8f18962", "lat": 38.936397666666664, "name": "f631c63cf9fd9262d16f0416b8f18962", "fusion_lon": 0.0, "fusion_lat": 0.0, "type": "electric_scooter", "lon": -77.03264083333333}, {"rental_uris": {"android": "https://dc.lft.to/lastmile_qr_scan", "ios": "https://dc.lft.to/lastmile_qr_scan"}, "is_reserved": 0, "is_disabled": 0, "bike_id": "8bc4a66a36c2b7f6d593a01b980a9703", "lat": 38.92848133333333, "name": "8bc4a66a36c2b7f6d593a01b980a9703", "fusion_lon": 0.0, "fusion_lat": 0.0, "type": "electric_scooter", "lon": -77.03256833333333}, {"rental_uris": {"android": "https://dc.lft.to/lastmile_qr_scan", "ios": "https://dc.lft.to/lastmile_qr_scan"}, "is_reserved": 0, "is_disabled": 0, "bike_id": "e014a80a9bf2fbdf22f1a3d65c7d49b2", "lat": 38.915594, "name": "e014a80a9bf2fbdf22f1a3d65c7d49b2", "fusion_lon": 0.0, "fusion_lat": 0.0, "type": "electric_scooter", "lon": -77.02428116666667}, {"rental_uris": {"android": "https://dc.lft.to/lastmile_qr_scan", "ios": "https://dc.lft.to/lastmile_qr_scan"}, "is_reserved": 0, "is_disabled": 0, "bike_id": "417323f59063e0fff7fefc3cbd3226fd", "lat": 38.9262045, "name": "417323f59063e0fff7fefc3cbd3226fd", "fusion_lon": 0.0, "fusion_lat": 0.0, "type": "electric_scooter", "lon": -77.04328466666666}, {"rental_uris": {"android": "https://dc.lft.to/lastmile_qr_scan", "ios": "https://dc.lft.to/lastmile_qr_scan"}, "is_reserved": 0, "is_disabled": 0, "bike_id": "f9d3dab07e0a8d5815cc82b1d0bf3814", "lat": 38.89913, "name": "f9d3dab07e0a8d5815cc82b1d0bf3814", "fusion_lon": 0.0, "fusion_lat": 0.0, "type": "electric_scooter", "lon": -77.04059583333333}, {"rental_uris": {"android": "https://dc.lft.to/lastmile_qr_scan", "ios": "https://dc.lft.to/lastmile_qr_scan"}, "is_reserved": 0, "is_disabled": 0, "bike_id": "5276f2f0c2558f23c7b4de78b9e60be9", "lat": 38.921510166666664, "name": "5276f2f0c2558f23c7b4de78b9e60be9", "fusion_lon": 0.0, "fusion_lat": 0.0, "type": "electric_scooter", "lon": -77.03504633333333}, {"rental_uris": {"android": "https://dc.lft.to/lastmile_qr_scan", "ios": "https://dc.lft.to/lastmile_qr_scan"}, "is_reserved": 0, "is_disabled": 0, "bike_id": "b9630c446f316f6c56ff777b667d0097", "lat": 38.9003525, "name": "b9630c446f316f6c56ff777b667d0097", "fusion_lon": 0.0, "fusion_lat": 0.0, "type": "electric_scooter", "lon": -77.033398}, {"rental_uris": {"android": "https://dc.lft.to/lastmile_qr_scan", "ios": "https://dc.lft.to/lastmile_qr_scan"}, "is_reserved": 0, "is_disabled": 0, "bike_id": "cda46ea33f1d1d4c762005231c0e48ed", "lat": 38.90750166666667, "name": "cda46ea33f1d1d4c762005231c0e48ed", "fusion_lon": 0.0, "fusion_lat": 0.0, "type": "electric_scooter", "lon": -77.04149066666666}, {"rental_uris": {"android": "https://dc.lft.to/lastmile_qr_scan", "ios": "https://dc.lft.to/lastmile_qr_scan"}, "is_reserved": 0, "is_disabled": 0, "bike_id": "8a1fa39ab46bb1afdb62ea14577e9f74", "lat": 38.923655, "name": "8a1fa39ab46bb1afdb62ea14577e9f74", "fusion_lon": 0.0, "fusion_lat": 0.0, "type": "electric_scooter", "lon": -77.05047566666667}, {"rental_uris": {"android": "https://dc.lft.to/lastmile_qr_scan", "ios": "https://dc.lft.to/lastmile_qr_scan"}, "is_reserved": 0, "is_disabled": 0, "bike_id": "1c9f333dee0720a9ee5d423b9a231331", "lat": 38.86571333333333, "name": "1c9f333dee0720a9ee5d423b9a231331", "fusion_lon": 0.0, "fusion_lat": 0.0, "type": "electric_scooter", "lon": -76.98928733333334}, {"rental_uris": {"android": "https://dc.lft.to/lastmile_qr_scan", "ios": "https://dc.lft.to/lastmile_qr_scan"}, "is_reserved": 0, "is_disabled": 0, "bike_id": "90b64a7f3aa37cb506aef19f483e1a7e", "lat": 38.812043, "name": "90b64a7f3aa37cb506aef19f483e1a7e", "fusion_lon": 0.0, "fusion_lat": 0.0, "type": "electric_bike", "lon": -77.10832383333333}, {"rental_uris": {"android": "https://dc.lft.to/lastmile_qr_scan", "ios": "https://dc.lft.to/lastmile_qr_scan"}, "is_reserved": 0, "is_disabled": 0, "bike_id": "81a2ec1ac0266bd402a7ebec0ac5943c", "lat": 38.890177333333334, "name": "81a2ec1ac0266bd402a7ebec0ac5943c", "fusion_lon": 0.0, "fusion_lat": 0.0, "type": "electric_scooter", "lon": -76.93729083333334}, {"rental_uris": {"android": "https://dc.lft.to/lastmile_qr_scan", "ios": "https://dc.lft.to/lastmile_qr_scan"}, "is_reserved": 0, "is_disabled": 0, "bike_id": "65a5e10f633e005c597a3a318dba5ffc", "lat": 38.9214375, "name": "65a5e10f633e005c597a3a318dba5ffc", "fusion_lon": 0.0, "fusion_lat": 0.0, "type": "electric_scooter", "lon": -77.02871866666666}, {"rental_uris": {"android": "https://dc.lft.to/lastmile_qr_scan", "ios": "https://dc.lft.to/lastmile_qr_scan"}, "is_reserved": 0, "is_disabled": 0, "bike_id": "ef5b10decaa267a0b4bab9572518e45b", "lat": 38.962280666666665, "name": "ef5b10decaa267a0b4bab9572518e45b", "fusion_lon": 0.0, "fusion_lat": 0.0, "type": "electric_bike", "lon": -77.02622583333333}, {"rental_uris": {"android": "https://dc.lft.to/lastmile_qr_scan", "ios": "https://dc.lft.to/lastmile_qr_scan"}, "is_reserved": 0, "is_disabled": 0, "bike_id": "2f3c05074c91fcac21a2f5714f6eda46", "lat": 38.927960666666664, "name": "2f3c05074c91fcac21a2f5714f6eda46", "fusion_lon": 0.0, "fusion_lat": 0.0, "type": "electric_scooter", "lon": -77.025015}, {"rental_uris": {"android": "https://dc.lft.to/lastmile_qr_scan", "ios": "https://dc.lft.to/lastmile_qr_scan"}, "is_reserved": 0, "is_disabled": 0, "bike_id": "fe6f25e0bf4285852cad1c0a9eccc9c4", "lat": 38.9295365, "name": "fe6f25e0bf4285852cad1c0a9eccc9c4", "fusion_lon": 0.0, "fusion_lat": 0.0, "type": "electric_scooter", "lon": -77.0377665}, {"rental_uris": {"android": "https://dc.lft.to/lastmile_qr_scan", "ios": "https://dc.lft.to/lastmile_qr_scan"}, "is_reserved": 0, "is_disabled": 0, "bike_id": "7c8bc1d3aa4a1afd0765fa32d2c361fb", "lat": 38.95961533333333, "name": "7c8bc1d3aa4a1afd0765fa32d2c361fb", "fusion_lon": 0.0, "fusion_lat": 0.0, "type": "electric_bike", "lon": -77.10084416666666}, {"rental_uris": {"android": "https://dc.lft.to/lastmile_qr_scan", "ios": "https://dc.lft.to/lastmile_qr_scan"}, "is_reserved": 0, "is_disabled": 0, "bike_id": "1225f0348408aa8bf0f51419fad3e988", "lat": 38.93063866666667, "name": "1225f0348408aa8bf0f51419fad3e988", "fusion_lon": 0.0, "fusion_lat": 0.0, "type": "electric_scooter", "lon": -77.02324666666667}, {"rental_uris": {"android": "https://dc.lft.to/lastmile_qr_scan", "ios": "https://dc.lft.to/lastmile_qr_scan"}, "is_reserved": 0, "is_disabled": 0, "bike_id": "e281d193a13a9f0f82547a16139dea19", "lat": 38.89695783333333, "name": "e281d193a13a9f0f82547a16139dea19", "fusion_lon": 0.0, "fusion_lat": 0.0, "type": "electric_scooter", "lon": -77.0465765}, {"rental_uris": {"android": "https://dc.lft.to/lastmile_qr_scan", "ios": "https://dc.lft.to/lastmile_qr_scan"}, "is_reserved": 0, "is_disabled": 0, "bike_id": "28ba94533df8ed769de1aff40c1d5ef3", "lat": 38.900445166666664, "name": "28ba94533df8ed769de1aff40c1d5ef3", "fusion_lon": 0.0, "fusion_lat": 0.0, "type": "electric_scooter", "lon": -77.03976966666667}, {"rental_uris": {"android": "https://dc.lft.to/lastmile_qr_scan", "ios": "https://dc.lft.to/lastmile_qr_scan"}, "is_reserved": 0, "is_disabled": 0, "bike_id": "cfe4aff0b23b56d7c973b1016e8ef719", "lat": 38.89358383333333, "name": "cfe4aff0b23b56d7c973b1016e8ef719", "fusion_lon": 0.0, "fusion_lat": 0.0, "type": "electric_scooter", "lon": -77.00333833333333}, {"rental_uris": {"android": "https://dc.lft.to/lastmile_qr_scan", "ios": "https://dc.lft.to/lastmile_qr_scan"}, "is_reserved": 0, "is_disabled": 0, "bike_id": "3565267b6583bd3b40c6f2b2ed8fe787", "lat": 38.93871383333333, "name": "3565267b6583bd3b40c6f2b2ed8fe787", "fusion_lon": 0.0, "fusion_lat": 0.0, "type": "electric_bike", "lon": -76.94289666666667}, {"rental_uris": {"android": "https://dc.lft.to/lastmile_qr_scan", "ios": "https://dc.lft.to/lastmile_qr_scan"}, "is_reserved": 0, "is_disabled": 0, "bike_id": "2d9d11d8122336e2e4490909e3cc87f4", "lat": 38.88715216666667, "name": "2d9d11d8122336e2e4490909e3cc87f4", "fusion_lon": 0.0, "fusion_lat": 0.0, "type": "electric_scooter", "lon": -77.0218005}, {"rental_uris": {"android": "https://dc.lft.to/lastmile_qr_scan", "ios": "https://dc.lft.to/lastmile_qr_scan"}, "is_reserved": 0, "is_disabled": 0, "bike_id": "0517d994ed978ab75c0a5209fdba2fda", "lat": 38.956156666666665, "name": "0517d994ed978ab75c0a5209fdba2fda", "fusion_lon": 0.0, "fusion_lat": 0.0, "type": "electric_scooter", "lon": -77.01349633333334}, {"rental_uris": {"android": "https://dc.lft.to/lastmile_qr_scan", "ios": "https://dc.lft.to/lastmile_qr_scan"}, "is_reserved": 0, "is_disabled": 0, "bike_id": "25f99297fcd49112af25a7d0c9d3f1c9", "lat": 38.897307833333336, "name": "25f99297fcd49112af25a7d0c9d3f1c9", "fusion_lon": 0.0, "fusion_lat": 0.0, "type": "electric_scooter", "lon": -77.04363}, {"rental_uris": {"android": "https://dc.lft.to/lastmile_qr_scan", "ios": "https://dc.lft.to/lastmile_qr_scan"}, "is_reserved": 0, "is_disabled": 0, "bike_id": "1812a313e56488615630a292bf390227", "lat": 38.831586333333334, "name": "1812a313e56488615630a292bf390227", "fusion_lon": 0.0, "fusion_lat": 0.0, "type": "electric_bike", "lon": -76.99542066666666}, {"rental_uris": {"android": "https://dc.lft.to/lastmile_qr_scan", "ios": "https://dc.lft.to/lastmile_qr_scan"}, "is_reserved": 0, "is_disabled": 0, "bike_id": "67718b0d740483816803819323141f08", "lat": 38.891807166666666, "name": "67718b0d740483816803819323141f08", "fusion_lon": 0.0, "fusion_lat": 0.0, "type": "electric_scooter", "lon": -76.99028883333334}, {"rental_uris": {"android": "https://dc.lft.to/lastmile_qr_scan", "ios": "https://dc.lft.to/lastmile_qr_scan"}, "is_reserved": 0, "is_disabled": 0, "bike_id": "2868685be708671c6b5aedb9549f6de8", "lat": 38.86477816666667, "name": "2868685be708671c6b5aedb9549f6de8", "fusion_lon": 0.0, "fusion_lat": 0.0, "type": "electric_scooter", "lon": -76.97735916666667}, {"rental_uris": {"android": "https://dc.lft.to/lastmile_qr_scan", "ios": "https://dc.lft.to/lastmile_qr_scan"}, "is_reserved": 0, "is_disabled": 0, "bike_id": "9d222938de6ec2f6f225c7966e20aab8", "lat": 38.902897333333335, "name": "9d222938de6ec2f6f225c7966e20aab8", "fusion_lon": 0.0, "fusion_lat": 0.0, "type": "electric_scooter", "lon": -77.03671383333334}, {"rental_uris": {"android": "https://dc.lft.to/lastmile_qr_scan", "ios": "https://dc.lft.to/lastmile_qr_scan"}, "is_reserved": 0, "is_disabled": 0, "bike_id": "201971e4ea96be5466c36c1f6765b1f2", "lat": 38.91668083333333, "name": "201971e4ea96be5466c36c1f6765b1f2", "fusion_lon": 0.0, "fusion_lat": 0.0, "type": "electric_scooter", "lon": -77.03700216666667}, {"rental_uris": {"android": "https://dc.lft.to/lastmile_qr_scan", "ios": "https://dc.lft.to/lastmile_qr_scan"}, "is_reserved": 0, "is_disabled": 0, "bike_id": "3be327c3b12034e4323a9ddb7b456c50", "lat": 38.932124, "name": "3be327c3b12034e4323a9ddb7b456c50", "fusion_lon": 0.0, "fusion_lat": 0.0, "type": "electric_scooter", "lon": -77.02826133333333}, {"rental_uris": {"android": "https://dc.lft.to/lastmile_qr_scan", "ios": "https://dc.lft.to/lastmile_qr_scan"}, "is_reserved": 0, "is_disabled": 0, "bike_id": "bfaff4e5b0bbe5f01607c2993af6b9f9", "lat": 38.902624833333334, "name": "bfaff4e5b0bbe5f01607c2993af6b9f9", "fusion_lon": 0.0, "fusion_lat": 0.0, "type": "electric_scooter", "lon": -77.001662}, {"rental_uris": {"android": "https://dc.lft.to/lastmile_qr_scan", "ios": "https://dc.lft.to/lastmile_qr_scan"}, "is_reserved": 0, "is_disabled": 0, "bike_id": "84bf38538a3983e496eb621c99d2a739", "lat": 38.903163666666664, "name": "84bf38538a3983e496eb621c99d2a739", "fusion_lon": 0.0, "fusion_lat": 0.0, "type": "electric_bike", "lon": -76.91210516666666}, {"rental_uris": {"android": "https://dc.lft.to/lastmile_qr_scan", "ios": "https://dc.lft.to/lastmile_qr_scan"}, "is_reserved": 0, "is_disabled": 0, "bike_id": "7afe25a581f2b400cb87101d83308306", "lat": 38.89233316666667, "name": "7afe25a581f2b400cb87101d83308306", "fusion_lon": 0.0, "fusion_lat": 0.0, "type": "electric_scooter", "lon": -77.05000533333333}, {"rental_uris": {"android": "https://dc.lft.to/lastmile_qr_scan", "ios": "https://dc.lft.to/lastmile_qr_scan"}, "is_reserved": 0, "is_disabled": 0, "bike_id": "3404bb8a0cecf01799566d8a0903a1ac", "lat": 38.917089, "name": "3404bb8a0cecf01799566d8a0903a1ac", "fusion_lon": 0.0, "fusion_lat": 0.0, "type": "electric_scooter", "lon": -77.0352765}, {"rental_uris": {"android": "https://dc.lft.to/lastmile_qr_scan", "ios": "https://dc.lft.to/lastmile_qr_scan"}, "is_reserved": 0, "is_disabled": 0, "bike_id": "e4c56df9cefd6228c0899926a66b97b8", "lat": 38.918808166666665, "name": "e4c56df9cefd6228c0899926a66b97b8", "fusion_lon": 0.0, "fusion_lat": 0.0, "type": "electric_scooter", "lon": -77.023028}, {"rental_uris": {"android": "https://dc.lft.to/lastmile_qr_scan", "ios": "https://dc.lft.to/lastmile_qr_scan"}, "is_reserved": 0, "is_disabled": 0, "bike_id": "d99012c0ff0de988c726fcbce244c818", "lat": 38.90783066666667, "name": "d99012c0ff0de988c726fcbce244c818", "fusion_lon": 0.0, "fusion_lat": 0.0, "type": "electric_bike", "lon": -77.07168066666667}, {"rental_uris": {"android": "https://dc.lft.to/lastmile_qr_scan", "ios": "https://dc.lft.to/lastmile_qr_scan"}, "is_reserved": 0, "is_disabled": 0, "bike_id": "0270828aed86c114fc41d1bcf5c9712a", "lat": 38.898127833333334, "name": "0270828aed86c114fc41d1bcf5c9712a", "fusion_lon": 0.0, "fusion_lat": 0.0, "type": "electric_bike", "lon": -76.99057116666667}, {"rental_uris": {"android": "https://dc.lft.to/lastmile_qr_scan", "ios": "https://dc.lft.to/lastmile_qr_scan"}, "is_reserved": 0, "is_disabled": 0, "bike_id": "86ea1ab170b672f32be5ca6736916948", "lat": 38.8670395, "name": "86ea1ab170b672f32be5ca6736916948", "fusion_lon": 0.0, "fusion_lat": 0.0, "type": "electric_scooter", "lon": -76.98710883333334}, {"rental_uris": {"android": "https://dc.lft.to/lastmile_qr_scan", "ios": "https://dc.lft.to/lastmile_qr_scan"}, "is_reserved": 0, "is_disabled": 0, "bike_id": "ad3bb6c3cee4c8d7f9a2bc0b091d56a4", "lat": 38.87882883333333, "name": "ad3bb6c3cee4c8d7f9a2bc0b091d56a4", "fusion_lon": 0.0, "fusion_lat": 0.0, "type": "electric_scooter", "lon": -77.0231725}, {"rental_uris": {"android": "https://dc.lft.to/lastmile_qr_scan", "ios": "https://dc.lft.to/lastmile_qr_scan"}, "is_reserved": 0, "is_disabled": 0, "bike_id": "afb21b9c5cd0fae52056d8d9736d37b4", "lat": 38.896977666666665, "name": "afb21b9c5cd0fae52056d8d9736d37b4", "fusion_lon": 0.0, "fusion_lat": 0.0, "type": "electric_scooter", "lon": -77.04478366666666}, {"rental_uris": {"android": "https://dc.lft.to/lastmile_qr_scan", "ios": "https://dc.lft.to/lastmile_qr_scan"}, "is_reserved": 0, "is_disabled": 0, "bike_id": "cf954ee4e059af46a895442a4cd33ae7", "lat": 38.91214266666667, "name": "cf954ee4e059af46a895442a4cd33ae7", "fusion_lon": 0.0, "fusion_lat": 0.0, "type": "electric_scooter", "lon": -77.02814166666667}, {"rental_uris": {"android": "https://dc.lft.to/lastmile_qr_scan", "ios": "https://dc.lft.to/lastmile_qr_scan"}, "is_reserved": 0, "is_disabled": 0, "bike_id": "85aa5f77ced1c74c565f9c308560812e", "lat": 38.93872066666667, "name": "85aa5f77ced1c74c565f9c308560812e", "fusion_lon": 0.0, "fusion_lat": 0.0, "type": "electric_bike", "lon": -77.02487616666667}, {"rental_uris": {"android": "https://dc.lft.to/lastmile_qr_scan", "ios": "https://dc.lft.to/lastmile_qr_scan"}, "is_reserved": 0, "is_disabled": 0, "bike_id": "d01e5b59c1c121f40f09da3fa8ae29ae", "lat": 38.8765145, "name": "d01e5b59c1c121f40f09da3fa8ae29ae", "fusion_lon": 0.0, "fusion_lat": 0.0, "type": "electric_scooter", "lon": -76.96506366666667}, {"rental_uris": {"android": "https://dc.lft.to/lastmile_qr_scan", "ios": "https://dc.lft.to/lastmile_qr_scan"}, "is_reserved": 0, "is_disabled": 0, "bike_id": "e0ced5c3f70201a3990e2d224c1d3da3", "lat": 38.946366166666664, "name": "e0ced5c3f70201a3990e2d224c1d3da3", "fusion_lon": 0.0, "fusion_lat": 0.0, "type": "electric_scooter", "lon": -77.01840566666667}, {"rental_uris": {"android": "https://dc.lft.to/lastmile_qr_scan", "ios": "https://dc.lft.to/lastmile_qr_scan"}, "is_reserved": 0, "is_disabled": 0, "bike_id": "369243a689db0627268c5464aa2e588b", "lat": 38.9296845, "name": "369243a689db0627268c5464aa2e588b", "fusion_lon": 0.0, "fusion_lat": 0.0, "type": "electric_bike", "lon": -77.1856365}, {"rental_uris": {"android": "https://dc.lft.to/lastmile_qr_scan", "ios": "https://dc.lft.to/lastmile_qr_scan"}, "is_reserved": 0, "is_disabled": 0, "bike_id": "c01d6f4865cd2e32f0ef1d12b4593d7d", "lat": 38.95329683333333, "name": "c01d6f4865cd2e32f0ef1d12b4593d7d", "fusion_lon": 0.0, "fusion_lat": 0.0, "type": "electric_bike", "lon": -76.98242133333333}, {"rental_uris": {"android": "https://dc.lft.to/lastmile_qr_scan", "ios": "https://dc.lft.to/lastmile_qr_scan"}, "is_reserved": 0, "is_disabled": 0, "bike_id": "9efee90f3508ae9cfd52826e349689af", "lat": 38.95440333333333, "name": "9efee90f3508ae9cfd52826e349689af", "fusion_lon": 0.0, "fusion_lat": 0.0, "type": "electric_bike", "lon": -76.989103}, {"rental_uris": {"android": "https://dc.lft.to/lastmile_qr_scan", "ios": "https://dc.lft.to/lastmile_qr_scan"}, "is_reserved": 0, "is_disabled": 0, "bike_id": "44ed8718d992b347ff89b4edf643832b", "lat": 39.055076166666666, "name": "44ed8718d992b347ff89b4edf643832b", "fusion_lon": 0.0, "fusion_lat": 0.0, "type": "electric_bike", "lon": -77.046548}, {"rental_uris": {"android": "https://dc.lft.to/lastmile_qr_scan", "ios": "https://dc.lft.to/lastmile_qr_scan"}, "is_reserved": 0, "is_disabled": 0, "bike_id": "d01c1634fb914a5159a9048640bf5c09", "lat": 38.93170033333333, "name": "d01c1634fb914a5159a9048640bf5c09", "fusion_lon": 0.0, "fusion_lat": 0.0, "type": "electric_bike", "lon": -76.88395933333334}, {"rental_uris": {"android": "https://dc.lft.to/lastmile_qr_scan", "ios": "https://dc.lft.to/lastmile_qr_scan"}, "is_reserved": 0, "is_disabled": 0, "bike_id": "6a563a0589d9154c18d18f15d41b8150", "lat": 38.927398833333335, "name": "6a563a0589d9154c18d18f15d41b8150", "fusion_lon": 0.0, "fusion_lat": 0.0, "type": "electric_scooter", "lon": -77.05252983333334}, {"rental_uris": {"android": "https://dc.lft.to/lastmile_qr_scan", "ios": "https://dc.lft.to/lastmile_qr_scan"}, "is_reserved": 0, "is_disabled": 0, "bike_id": "be9efba3402009596b734340aabbd6a5", "lat": 38.898939166666665, "name": "be9efba3402009596b734340aabbd6a5", "fusion_lon": 0.0, "fusion_lat": 0.0, "type": "electric_scooter", "lon": -77.03922766666666}, {"rental_uris": {"android": "https://dc.lft.to/lastmile_qr_scan", "ios": "https://dc.lft.to/lastmile_qr_scan"}, "is_reserved": 0, "is_disabled": 0, "bike_id": "b4e2af7385933c6b640d6889f3ad0a2a", "lat": 38.9187845, "name": "b4e2af7385933c6b640d6889f3ad0a2a", "fusion_lon": 0.0, "fusion_lat": 0.0, "type": "electric_bike", "lon": -77.03655133333334}, {"rental_uris": {"android": "https://dc.lft.to/lastmile_qr_scan", "ios": "https://dc.lft.to/lastmile_qr_scan"}, "is_reserved": 0, "is_disabled": 0, "bike_id": "aaeaea6b1a6b374ac2cd9176f8e02d85", "lat": 38.9003795, "name": "aaeaea6b1a6b374ac2cd9176f8e02d85", "fusion_lon": 0.0, "fusion_lat": 0.0, "type": "electric_scooter", "lon": -77.00536}, {"rental_uris": {"android": "https://dc.lft.to/lastmile_qr_scan", "ios": "https://dc.lft.to/lastmile_qr_scan"}, "is_reserved": 0, "is_disabled": 0, "bike_id": "96b3e0a9d181d324c225ea2b78a44db0", "lat": 38.938901, "name": "96b3e0a9d181d324c225ea2b78a44db0", "fusion_lon": 0.0, "fusion_lat": 0.0, "type": "electric_scooter", "lon": -77.02460083333334}, {"rental_uris": {"android": "https://dc.lft.to/lastmile_qr_scan", "ios": "https://dc.lft.to/lastmile_qr_scan"}, "is_reserved": 0, "is_disabled": 0, "bike_id": "d3b02a5dfed76363d6b1a13de030ee90", "lat": 38.90036966666667, "name": "d3b02a5dfed76363d6b1a13de030ee90", "fusion_lon": 0.0, "fusion_lat": 0.0, "type": "electric_scooter", "lon": -77.00727433333333}, {"rental_uris": {"android": "https://dc.lft.to/lastmile_qr_scan", "ios": "https://dc.lft.to/lastmile_qr_scan"}, "is_reserved": 0, "is_disabled": 0, "bike_id": "4c7d83b48ed3c2eaecf3aa0d5cfd95a5", "lat": 38.90127316666667, "name": "4c7d83b48ed3c2eaecf3aa0d5cfd95a5", "fusion_lon": 0.0, "fusion_lat": 0.0, "type": "electric_scooter", "lon": -77.04174766666667}, {"rental_uris": {"android": "https://dc.lft.to/lastmile_qr_scan", "ios": "https://dc.lft.to/lastmile_qr_scan"}, "is_reserved": 0, "is_disabled": 0, "bike_id": "0060ef550a8d1788c2db570c5faef1a9", "lat": 38.904143833333336, "name": "0060ef550a8d1788c2db570c5faef1a9", "fusion_lon": 0.0, "fusion_lat": 0.0, "type": "electric_scooter", "lon": -76.97325183333334}, {"rental_uris": {"android": "https://dc.lft.to/lastmile_qr_scan", "ios": "https://dc.lft.to/lastmile_qr_scan"}, "is_reserved": 0, "is_disabled": 0, "bike_id": "c12087fd6e03aa68093b3b19d03ac231", "lat": 38.969616333333335, "name": "c12087fd6e03aa68093b3b19d03ac231", "fusion_lon": 0.0, "fusion_lat": 0.0, "type": "electric_bike", "lon": -76.9575585}, {"rental_uris": {"android": "https://dc.lft.to/lastmile_qr_scan", "ios": "https://dc.lft.to/lastmile_qr_scan"}, "is_reserved": 0, "is_disabled": 0, "bike_id": "3e3909d2cfed5c41ff7c7bf75ff5753f", "lat": 38.894806333333335, "name": "3e3909d2cfed5c41ff7c7bf75ff5753f", "fusion_lon": 0.0, "fusion_lat": 0.0, "type": "electric_scooter", "lon": -77.00136483333333}, {"rental_uris": {"android": "https://dc.lft.to/lastmile_qr_scan", "ios": "https://dc.lft.to/lastmile_qr_scan"}, "is_reserved": 0, "is_disabled": 0, "bike_id": "a4a357f880bcfed3784468f6f6cdf362", "lat": 38.9184335, "name": "a4a357f880bcfed3784468f6f6cdf362", "fusion_lon": 0.0, "fusion_lat": 0.0, "type": "electric_scooter", "lon": -77.03923883333333}, {"rental_uris": {"android": "https://dc.lft.to/lastmile_qr_scan", "ios": "https://dc.lft.to/lastmile_qr_scan"}, "is_reserved": 0, "is_disabled": 0, "bike_id": "04b89460f2d09e46fb341e6da9cf09a6", "lat": 38.94200883333333, "name": "04b89460f2d09e46fb341e6da9cf09a6", "fusion_lon": 0.0, "fusion_lat": 0.0, "type": "electric_scooter", "lon": -77.02463816666666}, {"rental_uris": {"android": "https://dc.lft.to/lastmile_qr_scan", "ios": "https://dc.lft.to/lastmile_qr_scan"}, "is_reserved": 0, "is_disabled": 0, "bike_id": "452b68631351d17b5a0e9ec8dcb35864", "lat": 38.88248433333333, "name": "452b68631351d17b5a0e9ec8dcb35864", "fusion_lon": 0.0, "fusion_lat": 0.0, "type": "electric_bike", "lon": -76.96257416666667}, {"rental_uris": {"android": "https://dc.lft.to/lastmile_qr_scan", "ios": "https://dc.lft.to/lastmile_qr_scan"}, "is_reserved": 0, "is_disabled": 0, "bike_id": "213c4b49c9ded3f5ce6758b5289badde", "lat": 38.916092666666664, "name": "213c4b49c9ded3f5ce6758b5289badde", "fusion_lon": 0.0, "fusion_lat": 0.0, "type": "electric_scooter", "lon": -77.0229125}, {"rental_uris": {"android": "https://dc.lft.to/lastmile_qr_scan", "ios": "https://dc.lft.to/lastmile_qr_scan"}, "is_reserved": 0, "is_disabled": 0, "bike_id": "4f94bd399732c0b72e46e9085fc0c6f5", "lat": 38.94387366666667, "name": "4f94bd399732c0b72e46e9085fc0c6f5", "fusion_lon": 0.0, "fusion_lat": 0.0, "type": "electric_scooter", "lon": -77.02722883333334}, {"rental_uris": {"android": "https://dc.lft.to/lastmile_qr_scan", "ios": "https://dc.lft.to/lastmile_qr_scan"}, "is_reserved": 0, "is_disabled": 0, "bike_id": "1b8b5347db1776c44ed0d44f1a3eadc0", "lat": 38.90556433333333, "name": "1b8b5347db1776c44ed0d44f1a3eadc0", "fusion_lon": 0.0, "fusion_lat": 0.0, "type": "electric_scooter", "lon": -77.01998666666667}, {"rental_uris": {"android": "https://dc.lft.to/lastmile_qr_scan", "ios": "https://dc.lft.to/lastmile_qr_scan"}, "is_reserved": 0, "is_disabled": 0, "bike_id": "b3b9aeff2eee7914bde9b3b8609b1d08", "lat": 38.86014766666667, "name": "b3b9aeff2eee7914bde9b3b8609b1d08", "fusion_lon": 0.0, "fusion_lat": 0.0, "type": "electric_scooter", "lon": -76.9850605}, {"rental_uris": {"android": "https://dc.lft.to/lastmile_qr_scan", "ios": "https://dc.lft.to/lastmile_qr_scan"}, "is_reserved": 0, "is_disabled": 0, "bike_id": "85ae76b1e33712295dee8e9249929f66", "lat": 38.993468166666666, "name": "85ae76b1e33712295dee8e9249929f66", "fusion_lon": 0.0, "fusion_lat": 0.0, "type": "electric_bike", "lon": -77.11575316666666}, {"rental_uris": {"android": "https://dc.lft.to/lastmile_qr_scan", "ios": "https://dc.lft.to/lastmile_qr_scan"}, "is_reserved": 0, "is_disabled": 0, "bike_id": "abc181213620b3b5cdbb2c4fb4e38c8d", "lat": 38.92237766666667, "name": "abc181213620b3b5cdbb2c4fb4e38c8d", "fusion_lon": 0.0, "fusion_lat": 0.0, "type": "electric_scooter", "lon": -77.04242616666667}, {"rental_uris": {"android": "https://dc.lft.to/lastmile_qr_scan", "ios": "https://dc.lft.to/lastmile_qr_scan"}, "is_reserved": 0, "is_disabled": 0, "bike_id": "ab76d2cbb7fc7b6c17b2d6b3abbf10d9", "lat": 38.928900666666664, "name": "ab76d2cbb7fc7b6c17b2d6b3abbf10d9", "fusion_lon": 0.0, "fusion_lat": 0.0, "type": "electric_scooter", "lon": -77.03272866666667}, {"rental_uris": {"android": "https://dc.lft.to/lastmile_qr_scan", "ios": "https://dc.lft.to/lastmile_qr_scan"}, "is_reserved": 0, "is_disabled": 0, "bike_id": "99dec904dfe4a1ff9809f488b5a2d599", "lat": 38.866570333333335, "name": "99dec904dfe4a1ff9809f488b5a2d599", "fusion_lon": 0.0, "fusion_lat": 0.0, "type": "electric_scooter", "lon": -76.98511916666666}, {"rental_uris": {"android": "https://dc.lft.to/lastmile_qr_scan", "ios": "https://dc.lft.to/lastmile_qr_scan"}, "is_reserved": 0, "is_disabled": 0, "bike_id": "6500c36512592b3418dac5b1ee8580fa", "lat": 38.89237266666667, "name": "6500c36512592b3418dac5b1ee8580fa", "fusion_lon": 0.0, "fusion_lat": 0.0, "type": "electric_scooter", "lon": -77.01977266666667}, {"rental_uris": {"android": "https://dc.lft.to/lastmile_qr_scan", "ios": "https://dc.lft.to/lastmile_qr_scan"}, "is_reserved": 0, "is_disabled": 0, "bike_id": "e8129a33ca842ec6c759c3f53a546abe", "lat": 38.916403333333335, "name": "e8129a33ca842ec6c759c3f53a546abe", "fusion_lon": 0.0, "fusion_lat": 0.0, "type": "electric_scooter", "lon": -77.02550233333334}, {"rental_uris": {"android": "https://dc.lft.to/lastmile_qr_scan", "ios": "https://dc.lft.to/lastmile_qr_scan"}, "is_reserved": 0, "is_disabled": 0, "bike_id": "641b608ab36b628e0e1be4af200f1d91", "lat": 38.921532666666664, "name": "641b608ab36b628e0e1be4af200f1d91", "fusion_lon": 0.0, "fusion_lat": 0.0, "type": "electric_scooter", "lon": -77.03874316666666}, {"rental_uris": {"android": "https://dc.lft.to/lastmile_qr_scan", "ios": "https://dc.lft.to/lastmile_qr_scan"}, "is_reserved": 0, "is_disabled": 0, "bike_id": "d3e9233fad045442c9a33a37a5b1d8e4", "lat": 38.901575, "name": "d3e9233fad045442c9a33a37a5b1d8e4", "fusion_lon": 0.0, "fusion_lat": 0.0, "type": "electric_scooter", "lon": -77.04395916666667}, {"rental_uris": {"android": "https://dc.lft.to/lastmile_qr_scan", "ios": "https://dc.lft.to/lastmile_qr_scan"}, "is_reserved": 0, "is_disabled": 0, "bike_id": "bc7b0853e2340981b55b9bff28523956", "lat": 38.907117666666664, "name": "bc7b0853e2340981b55b9bff28523956", "fusion_lon": 0.0, "fusion_lat": 0.0, "type": "electric_scooter", "lon": -77.02692533333334}, {"rental_uris": {"android": "https://dc.lft.to/lastmile_qr_scan", "ios": "https://dc.lft.to/lastmile_qr_scan"}, "is_reserved": 0, "is_disabled": 0, "bike_id": "95e56816773ef4e8824ac9eba3aa9f53", "lat": 38.923672, "name": "95e56816773ef4e8824ac9eba3aa9f53", "fusion_lon": 0.0, "fusion_lat": 0.0, "type": "electric_scooter", "lon": -77.05031633333333}, {"rental_uris": {"android": "https://dc.lft.to/lastmile_qr_scan", "ios": "https://dc.lft.to/lastmile_qr_scan"}, "is_reserved": 0, "is_disabled": 0, "bike_id": "53b945a40c57d661f7ef74b6f91b4e3b", "lat": 38.92889483333333, "name": "53b945a40c57d661f7ef74b6f91b4e3b", "fusion_lon": 0.0, "fusion_lat": 0.0, "type": "electric_scooter", "lon": -77.03721016666667}, {"rental_uris": {"android": "https://dc.lft.to/lastmile_qr_scan", "ios": "https://dc.lft.to/lastmile_qr_scan"}, "is_reserved": 0, "is_disabled": 0, "bike_id": "88656c7a68d1b162ec92aea834a14fb8", "lat": 38.89230033333333, "name": "88656c7a68d1b162ec92aea834a14fb8", "fusion_lon": 0.0, "fusion_lat": 0.0, "type": "electric_scooter", "lon": -77.043338}, {"rental_uris": {"android": "https://dc.lft.to/lastmile_qr_scan", "ios": "https://dc.lft.to/lastmile_qr_scan"}, "is_reserved": 0, "is_disabled": 0, "bike_id": "ac28162ef4c463ccffec0b93c54ce3bf", "lat": 38.92227833333333, "name": "ac28162ef4c463ccffec0b93c54ce3bf", "fusion_lon": 0.0, "fusion_lat": 0.0, "type": "electric_scooter", "lon": -77.04235766666666}, {"rental_uris": {"android": "https://dc.lft.to/lastmile_qr_scan", "ios": "https://dc.lft.to/lastmile_qr_scan"}, "is_reserved": 0, "is_disabled": 0, "bike_id": "2e0b99093e7ea0f52b9701c86f21e930", "lat": 38.8961365, "name": "2e0b99093e7ea0f52b9701c86f21e930", "fusion_lon": 0.0, "fusion_lat": 0.0, "type": "electric_scooter", "lon": -77.04590666666667}, {"rental_uris": {"android": "https://dc.lft.to/lastmile_qr_scan", "ios": "https://dc.lft.to/lastmile_qr_scan"}, "is_reserved": 0, "is_disabled": 0, "bike_id": "dc4cc9a12648b3ecd3e72864af52aadb", "lat": 38.874509, "name": "dc4cc9a12648b3ecd3e72864af52aadb", "fusion_lon": 0.0, "fusion_lat": 0.0, "type": "electric_scooter", "lon": -77.00890233333334}, {"rental_uris": {"android": "https://dc.lft.to/lastmile_qr_scan", "ios": "https://dc.lft.to/lastmile_qr_scan"}, "is_reserved": 0, "is_disabled": 0, "bike_id": "cd3121801e4c6eff97ccf2c8d73bbb06", "lat": 38.9039055, "name": "cd3121801e4c6eff97ccf2c8d73bbb06", "fusion_lon": 0.0, "fusion_lat": 0.0, "type": "electric_scooter", "lon": -77.00762333333333}, {"rental_uris": {"android": "https://dc.lft.to/lastmile_qr_scan", "ios": "https://dc.lft.to/lastmile_qr_scan"}, "is_reserved": 0, "is_disabled": 0, "bike_id": "400a5bf63367ded37201fa43403f7b56", "lat": 38.883945, "name": "400a5bf63367ded37201fa43403f7b56", "fusion_lon": 0.0, "fusion_lat": 0.0, "type": "electric_scooter", "lon": -77.01971633333334}, {"rental_uris": {"android": "https://dc.lft.to/lastmile_qr_scan", "ios": "https://dc.lft.to/lastmile_qr_scan"}, "is_reserved": 0, "is_disabled": 0, "bike_id": "dd3cd7fbfe0ffb5836a6eb6e12a42d9c", "lat": 38.91871783333333, "name": "dd3cd7fbfe0ffb5836a6eb6e12a42d9c", "fusion_lon": 0.0, "fusion_lat": 0.0, "type": "electric_bike", "lon": -76.9608865}, {"rental_uris": {"android": "https://dc.lft.to/lastmile_qr_scan", "ios": "https://dc.lft.to/lastmile_qr_scan"}, "is_reserved": 0, "is_disabled": 0, "bike_id": "e7ff2551aeeb0a479d512562c5d6ebb4", "lat": 38.914584166666664, "name": "e7ff2551aeeb0a479d512562c5d6ebb4", "fusion_lon": 0.0, "fusion_lat": 0.0, "type": "electric_scooter", "lon": -77.0188875}, {"rental_uris": {"android": "https://dc.lft.to/lastmile_qr_scan", "ios": "https://dc.lft.to/lastmile_qr_scan"}, "is_reserved": 0, "is_disabled": 0, "bike_id": "95fc215c9d74c83c5406a65891ccbd23", "lat": 38.923645, "name": "95fc215c9d74c83c5406a65891ccbd23", "fusion_lon": 0.0, "fusion_lat": 0.0, "type": "electric_scooter", "lon": -77.05044183333334}, {"rental_uris": {"android": "https://dc.lft.to/lastmile_qr_scan", "ios": "https://dc.lft.to/lastmile_qr_scan"}, "is_reserved": 0, "is_disabled": 0, "bike_id": "64fca80e9b63e511a5abe36086939cea", "lat": 38.9681935, "name": "64fca80e9b63e511a5abe36086939cea", "fusion_lon": 0.0, "fusion_lat": 0.0, "type": "electric_bike", "lon": -77.07223483333334}, {"rental_uris": {"android": "https://dc.lft.to/lastmile_qr_scan", "ios": "https://dc.lft.to/lastmile_qr_scan"}, "is_reserved": 0, "is_disabled": 0, "bike_id": "822951685d24e8dac85bce66554d739a", "lat": 38.888486, "name": "822951685d24e8dac85bce66554d739a", "fusion_lon": 0.0, "fusion_lat": 0.0, "type": "electric_scooter", "lon": -77.01408283333333}, {"rental_uris": {"android": "https://dc.lft.to/lastmile_qr_scan", "ios": "https://dc.lft.to/lastmile_qr_scan"}, "is_reserved": 0, "is_disabled": 0, "bike_id": "cd755568f1e97dbb1b31e738fd51c7ba", "lat": 38.9054875, "name": "cd755568f1e97dbb1b31e738fd51c7ba", "fusion_lon": 0.0, "fusion_lat": 0.0, "type": "electric_scooter", "lon": -76.98462383333333}, {"rental_uris": {"android": "https://dc.lft.to/lastmile_qr_scan", "ios": "https://dc.lft.to/lastmile_qr_scan"}, "is_reserved": 0, "is_disabled": 0, "bike_id": "892e96fbc1492773d9bc4b4619a75c38", "lat": 38.902869, "name": "892e96fbc1492773d9bc4b4619a75c38", "fusion_lon": 0.0, "fusion_lat": 0.0, "type": "electric_bike", "lon": -77.0447475}, {"rental_uris": {"android": "https://dc.lft.to/lastmile_qr_scan", "ios": "https://dc.lft.to/lastmile_qr_scan"}, "is_reserved": 0, "is_disabled": 0, "bike_id": "3a166b24cd41c88d0a29fcf9cb6ef263", "lat": 38.90975616666667, "name": "3a166b24cd41c88d0a29fcf9cb6ef263", "fusion_lon": 0.0, "fusion_lat": 0.0, "type": "electric_scooter", "lon": -77.03214}, {"rental_uris": {"android": "https://dc.lft.to/lastmile_qr_scan", "ios": "https://dc.lft.to/lastmile_qr_scan"}, "is_reserved": 0, "is_disabled": 0, "bike_id": "8418a06575696d79d1b5ea21d3027ed6", "lat": 38.922020833333335, "name": "8418a06575696d79d1b5ea21d3027ed6", "fusion_lon": 0.0, "fusion_lat": 0.0, "type": "electric_scooter", "lon": -77.01840383333334}, {"rental_uris": {"android": "https://dc.lft.to/lastmile_qr_scan", "ios": "https://dc.lft.to/lastmile_qr_scan"}, "is_reserved": 0, "is_disabled": 0, "bike_id": "4c92ff118e65efcaa1be51b460837aff", "lat": 38.93612916666667, "name": "4c92ff118e65efcaa1be51b460837aff", "fusion_lon": 0.0, "fusion_lat": 0.0, "type": "electric_scooter", "lon": -77.05885116666667}, {"rental_uris": {"android": "https://dc.lft.to/lastmile_qr_scan", "ios": "https://dc.lft.to/lastmile_qr_scan"}, "is_reserved": 0, "is_disabled": 0, "bike_id": "504c0e8b2a33668ece15f86888af2698", "lat": 38.875151333333335, "name": "504c0e8b2a33668ece15f86888af2698", "fusion_lon": 0.0, "fusion_lat": 0.0, "type": "electric_scooter", "lon": -77.000468}, {"rental_uris": {"android": "https://dc.lft.to/lastmile_qr_scan", "ios": "https://dc.lft.to/lastmile_qr_scan"}, "is_reserved": 0, "is_disabled": 0, "bike_id": "ad2e1323a4d308513fddc66656ad07aa", "lat": 38.89850783333333, "name": "ad2e1323a4d308513fddc66656ad07aa", "fusion_lon": 0.0, "fusion_lat": 0.0, "type": "electric_scooter", "lon": -77.0436435}, {"rental_uris": {"android": "https://dc.lft.to/lastmile_qr_scan", "ios": "https://dc.lft.to/lastmile_qr_scan"}, "is_reserved": 0, "is_disabled": 0, "bike_id": "5a013002f0c8764e11fc749e394b84fe", "lat": 38.9398655, "name": "5a013002f0c8764e11fc749e394b84fe", "fusion_lon": 0.0, "fusion_lat": 0.0, "type": "electric_scooter", "lon": -77.030104}, {"rental_uris": {"android": "https://dc.lft.to/lastmile_qr_scan", "ios": "https://dc.lft.to/lastmile_qr_scan"}, "is_reserved": 0, "is_disabled": 0, "bike_id": "4d4acd3707961192afe3493be8f60c37", "lat": 38.9232275, "name": "4d4acd3707961192afe3493be8f60c37", "fusion_lon": 0.0, "fusion_lat": 0.0, "type": "electric_scooter", "lon": -77.038084}, {"rental_uris": {"android": "https://dc.lft.to/lastmile_qr_scan", "ios": "https://dc.lft.to/lastmile_qr_scan"}, "is_reserved": 0, "is_disabled": 0, "bike_id": "6284b0a948e5e4e05497d9d2c6ffc107", "lat": 38.914871833333336, "name": "6284b0a948e5e4e05497d9d2c6ffc107", "fusion_lon": 0.0, "fusion_lat": 0.0, "type": "electric_scooter", "lon": -77.02587316666667}, {"rental_uris": {"android": "https://dc.lft.to/lastmile_qr_scan", "ios": "https://dc.lft.to/lastmile_qr_scan"}, "is_reserved": 0, "is_disabled": 0, "bike_id": "01ec400bbda13a9cb8846e34aadd83b6", "lat": 38.92818066666667, "name": "01ec400bbda13a9cb8846e34aadd83b6", "fusion_lon": 0.0, "fusion_lat": 0.0, "type": "electric_scooter", "lon": -77.01399483333333}, {"rental_uris": {"android": "https://dc.lft.to/lastmile_qr_scan", "ios": "https://dc.lft.to/lastmile_qr_scan"}, "is_reserved": 0, "is_disabled": 0, "bike_id": "a8bd126120104133924cd79dc4faff46", "lat": 38.85809583333333, "name": "a8bd126120104133924cd79dc4faff46", "fusion_lon": 0.0, "fusion_lat": 0.0, "type": "electric_scooter", "lon": -76.99146016666667}, {"rental_uris": {"android": "https://dc.lft.to/lastmile_qr_scan", "ios": "https://dc.lft.to/lastmile_qr_scan"}, "is_reserved": 0, "is_disabled": 0, "bike_id": "3b542f6e4ebb97b88eff403389611abe", "lat": 38.897723166666665, "name": "3b542f6e4ebb97b88eff403389611abe", "fusion_lon": 0.0, "fusion_lat": 0.0, "type": "electric_bike", "lon": -77.00886633333333}, {"rental_uris": {"android": "https://dc.lft.to/lastmile_qr_scan", "ios": "https://dc.lft.to/lastmile_qr_scan"}, "is_reserved": 0, "is_disabled": 0, "bike_id": "17ca574cf517209a9a7702de8602c8d5", "lat": 38.89621866666667, "name": "17ca574cf517209a9a7702de8602c8d5", "fusion_lon": 0.0, "fusion_lat": 0.0, "type": "electric_scooter", "lon": -77.01204016666667}, {"rental_uris": {"android": "https://dc.lft.to/lastmile_qr_scan", "ios": "https://dc.lft.to/lastmile_qr_scan"}, "is_reserved": 0, "is_disabled": 0, "bike_id": "28bf4d83f0bc95f23a850b0705126e97", "lat": 38.892267, "name": "28bf4d83f0bc95f23a850b0705126e97", "fusion_lon": 0.0, "fusion_lat": 0.0, "type": "electric_scooter", "lon": -77.003127}, {"rental_uris": {"android": "https://dc.lft.to/lastmile_qr_scan", "ios": "https://dc.lft.to/lastmile_qr_scan"}, "is_reserved": 0, "is_disabled": 0, "bike_id": "9a5eade252d918971703aba01070310d", "lat": 38.8922545, "name": "9a5eade252d918971703aba01070310d", "fusion_lon": 0.0, "fusion_lat": 0.0, "type": "electric_scooter", "lon": -77.04331633333334}, {"rental_uris": {"android": "https://dc.lft.to/lastmile_qr_scan", "ios": "https://dc.lft.to/lastmile_qr_scan"}, "is_reserved": 0, "is_disabled": 0, "bike_id": "db7d74388802d9ac7c95b9543df55fde", "lat": 38.923634, "name": "db7d74388802d9ac7c95b9543df55fde", "fusion_lon": 0.0, "fusion_lat": 0.0, "type": "electric_scooter", "lon": -77.050637}, {"rental_uris": {"android": "https://dc.lft.to/lastmile_qr_scan", "ios": "https://dc.lft.to/lastmile_qr_scan"}, "is_reserved": 0, "is_disabled": 0, "bike_id": "8246c8c054997b9f70311296ed8a8417", "lat": 38.9177955, "name": "8246c8c054997b9f70311296ed8a8417", "fusion_lon": 0.0, "fusion_lat": 0.0, "type": "electric_scooter", "lon": -77.044004}, {"rental_uris": {"android": "https://dc.lft.to/lastmile_qr_scan", "ios": "https://dc.lft.to/lastmile_qr_scan"}, "is_reserved": 0, "is_disabled": 0, "bike_id": "5443e302b2687016387b88a94d684989", "lat": 38.92360433333333, "name": "5443e302b2687016387b88a94d684989", "fusion_lon": 0.0, "fusion_lat": 0.0, "type": "electric_scooter", "lon": -77.07299116666667}, {"rental_uris": {"android": "https://dc.lft.to/lastmile_qr_scan", "ios": "https://dc.lft.to/lastmile_qr_scan"}, "is_reserved": 0, "is_disabled": 0, "bike_id": "c071680308ea04a11f00209f72f035ca", "lat": 38.9192825, "name": "c071680308ea04a11f00209f72f035ca", "fusion_lon": 0.0, "fusion_lat": 0.0, "type": "electric_scooter", "lon": -77.03146}, {"rental_uris": {"android": "https://dc.lft.to/lastmile_qr_scan", "ios": "https://dc.lft.to/lastmile_qr_scan"}, "is_reserved": 0, "is_disabled": 0, "bike_id": "e0cf92be313f8cdaab1bae7ed636ca10", "lat": 38.90014766666667, "name": "e0cf92be313f8cdaab1bae7ed636ca10", "fusion_lon": 0.0, "fusion_lat": 0.0, "type": "electric_scooter", "lon": -76.93027083333334}, {"rental_uris": {"android": "https://dc.lft.to/lastmile_qr_scan", "ios": "https://dc.lft.to/lastmile_qr_scan"}, "is_reserved": 0, "is_disabled": 0, "bike_id": "1e756ccc7b0dbc9786e9361f76b8dc7b", "lat": 38.900098, "name": "1e756ccc7b0dbc9786e9361f76b8dc7b", "fusion_lon": 0.0, "fusion_lat": 0.0, "type": "electric_scooter", "lon": -77.01269116666667}, {"rental_uris": {"android": "https://dc.lft.to/lastmile_qr_scan", "ios": "https://dc.lft.to/lastmile_qr_scan"}, "is_reserved": 0, "is_disabled": 0, "bike_id": "4303f19cf806846aec0d416dcb433000", "lat": 38.92443516666667, "name": "4303f19cf806846aec0d416dcb433000", "fusion_lon": 0.0, "fusion_lat": 0.0, "type": "electric_scooter", "lon": -77.034049}, {"rental_uris": {"android": "https://dc.lft.to/lastmile_qr_scan", "ios": "https://dc.lft.to/lastmile_qr_scan"}, "is_reserved": 0, "is_disabled": 0, "bike_id": "d797822e59f0119b44a88db6d31f017f", "lat": 38.866534333333334, "name": "d797822e59f0119b44a88db6d31f017f", "fusion_lon": 0.0, "fusion_lat": 0.0, "type": "electric_scooter", "lon": -76.98515416666666}, {"rental_uris": {"android": "https://dc.lft.to/lastmile_qr_scan", "ios": "https://dc.lft.to/lastmile_qr_scan"}, "is_reserved": 0, "is_disabled": 0, "bike_id": "c205a306cf5976bbd740beafd4817f47", "lat": 38.91488783333333, "name": "c205a306cf5976bbd740beafd4817f47", "fusion_lon": 0.0, "fusion_lat": 0.0, "type": "electric_scooter", "lon": -77.02181933333334}, {"rental_uris": {"android": "https://dc.lft.to/lastmile_qr_scan", "ios": "https://dc.lft.to/lastmile_qr_scan"}, "is_reserved": 0, "is_disabled": 0, "bike_id": "66e5b2286dd3684ff6a3c4024e2d8947", "lat": 38.93103216666667, "name": "66e5b2286dd3684ff6a3c4024e2d8947", "fusion_lon": 0.0, "fusion_lat": 0.0, "type": "electric_scooter", "lon": -77.0266085}, {"rental_uris": {"android": "https://dc.lft.to/lastmile_qr_scan", "ios": "https://dc.lft.to/lastmile_qr_scan"}, "is_reserved": 0, "is_disabled": 0, "bike_id": "5b466db80430eec65fd429af88695838", "lat": 38.899671, "name": "5b466db80430eec65fd429af88695838", "fusion_lon": 0.0, "fusion_lat": 0.0, "type": "electric_scooter", "lon": -77.02722816666666}, {"rental_uris": {"android": "https://dc.lft.to/lastmile_qr_scan", "ios": "https://dc.lft.to/lastmile_qr_scan"}, "is_reserved": 0, "is_disabled": 0, "bike_id": "fb656c7a5e30a41cff3832f6576db405", "lat": 38.89729883333333, "name": "fb656c7a5e30a41cff3832f6576db405", "fusion_lon": 0.0, "fusion_lat": 0.0, "type": "electric_scooter", "lon": -77.02701}, {"rental_uris": {"android": "https://dc.lft.to/lastmile_qr_scan", "ios": "https://dc.lft.to/lastmile_qr_scan"}, "is_reserved": 0, "is_disabled": 0, "bike_id": "92704ab2fbeed2ec6c55c98a465e3fba", "lat": 38.8922395, "name": "92704ab2fbeed2ec6c55c98a465e3fba", "fusion_lon": 0.0, "fusion_lat": 0.0, "type": "electric_scooter", "lon": -77.01489133333334}, {"rental_uris": {"android": "https://dc.lft.to/lastmile_qr_scan", "ios": "https://dc.lft.to/lastmile_qr_scan"}, "is_reserved": 0, "is_disabled": 0, "bike_id": "3d99d40be6225c1fb9490b7bdca0a31b", "lat": 38.86700716666667, "name": "3d99d40be6225c1fb9490b7bdca0a31b", "fusion_lon": 0.0, "fusion_lat": 0.0, "type": "electric_scooter", "lon": -76.9859175}, {"rental_uris": {"android": "https://dc.lft.to/lastmile_qr_scan", "ios": "https://dc.lft.to/lastmile_qr_scan"}, "is_reserved": 0, "is_disabled": 0, "bike_id": "3b1395b79b9c77f4464d5bd7599563cc", "lat": 38.92189333333334, "name": "3b1395b79b9c77f4464d5bd7599563cc", "fusion_lon": 0.0, "fusion_lat": 0.0, "type": "electric_scooter", "lon": -77.043378}, {"rental_uris": {"android": "https://dc.lft.to/lastmile_qr_scan", "ios": "https://dc.lft.to/lastmile_qr_scan"}, "is_reserved": 0, "is_disabled": 0, "bike_id": "56a1d05f9df1d1463675cf971f8a7829", "lat": 38.9013705, "name": "56a1d05f9df1d1463675cf971f8a7829", "fusion_lon": 0.0, "fusion_lat": 0.0, "type": "electric_scooter", "lon": -77.0434325}, {"rental_uris": {"android": "https://dc.lft.to/lastmile_qr_scan", "ios": "https://dc.lft.to/lastmile_qr_scan"}, "is_reserved": 0, "is_disabled": 0, "bike_id": "8ec0923e2e9625011fcfc35af07f986f", "lat": 38.904824833333336, "name": "8ec0923e2e9625011fcfc35af07f986f", "fusion_lon": 0.0, "fusion_lat": 0.0, "type": "electric_bike", "lon": -76.97325916666667}, {"rental_uris": {"android": "https://dc.lft.to/lastmile_qr_scan", "ios": "https://dc.lft.to/lastmile_qr_scan"}, "is_reserved": 0, "is_disabled": 0, "bike_id": "36a7b02e8fafebb5d7028ec39988179a", "lat": 38.892323166666664, "name": "36a7b02e8fafebb5d7028ec39988179a", "fusion_lon": 0.0, "fusion_lat": 0.0, "type": "electric_scooter", "lon": -77.01342116666666}, {"rental_uris": {"android": "https://dc.lft.to/lastmile_qr_scan", "ios": "https://dc.lft.to/lastmile_qr_scan"}, "is_reserved": 0, "is_disabled": 0, "bike_id": "961fe86fc25dbc3b7b2e92a3e61da635", "lat": 38.967852, "name": "961fe86fc25dbc3b7b2e92a3e61da635", "fusion_lon": 0.0, "fusion_lat": 0.0, "type": "electric_scooter", "lon": -77.01507316666667}, {"rental_uris": {"android": "https://dc.lft.to/lastmile_qr_scan", "ios": "https://dc.lft.to/lastmile_qr_scan"}, "is_reserved": 0, "is_disabled": 0, "bike_id": "47c0ca9c44ac4ddd9c04b76fe865db81", "lat": 38.91909233333333, "name": "47c0ca9c44ac4ddd9c04b76fe865db81", "fusion_lon": 0.0, "fusion_lat": 0.0, "type": "electric_scooter", "lon": -77.0344065}, {"rental_uris": {"android": "https://dc.lft.to/lastmile_qr_scan", "ios": "https://dc.lft.to/lastmile_qr_scan"}, "is_reserved": 0, "is_disabled": 0, "bike_id": "732d60e1263d0dc18ffb3403f2ef39b1", "lat": 38.904029333333334, "name": "732d60e1263d0dc18ffb3403f2ef39b1", "fusion_lon": 0.0, "fusion_lat": 0.0, "type": "electric_scooter", "lon": -77.04455}, {"rental_uris": {"android": "https://dc.lft.to/lastmile_qr_scan", "ios": "https://dc.lft.to/lastmile_qr_scan"}, "is_reserved": 0, "is_disabled": 0, "bike_id": "98a9ceee9ead910bd45479d21be077a9", "lat": 38.90551716666667, "name": "98a9ceee9ead910bd45479d21be077a9", "fusion_lon": 0.0, "fusion_lat": 0.0, "type": "electric_scooter", "lon": -77.0338885}, {"rental_uris": {"android": "https://dc.lft.to/lastmile_qr_scan", "ios": "https://dc.lft.to/lastmile_qr_scan"}, "is_reserved": 0, "is_disabled": 0, "bike_id": "44db089939e630d843e61ba35c04755b", "lat": 38.90269633333333, "name": "44db089939e630d843e61ba35c04755b", "fusion_lon": 0.0, "fusion_lat": 0.0, "type": "electric_scooter", "lon": -77.03463166666667}, {"rental_uris": {"android": "https://dc.lft.to/lastmile_qr_scan", "ios": "https://dc.lft.to/lastmile_qr_scan"}, "is_reserved": 0, "is_disabled": 0, "bike_id": "fec58d12a027eb539bb5245bc982a5b3", "lat": 38.92044583333333, "name": "fec58d12a027eb539bb5245bc982a5b3", "fusion_lon": 0.0, "fusion_lat": 0.0, "type": "electric_scooter", "lon": -77.01675316666666}, {"rental_uris": {"android": "https://dc.lft.to/lastmile_qr_scan", "ios": "https://dc.lft.to/lastmile_qr_scan"}, "is_reserved": 0, "is_disabled": 0, "bike_id": "74a68e824bfb356d8e03594264b3e7b9", "lat": 38.8922645, "name": "74a68e824bfb356d8e03594264b3e7b9", "fusion_lon": 0.0, "fusion_lat": 0.0, "type": "electric_scooter", "lon": -77.0235425}, {"rental_uris": {"android": "https://dc.lft.to/lastmile_qr_scan", "ios": "https://dc.lft.to/lastmile_qr_scan"}, "is_reserved": 0, "is_disabled": 0, "bike_id": "5e530999a03abfded03fef28341042db", "lat": 38.91183733333333, "name": "5e530999a03abfded03fef28341042db", "fusion_lon": 0.0, "fusion_lat": 0.0, "type": "electric_scooter", "lon": -77.04166766666667}, {"rental_uris": {"android": "https://dc.lft.to/lastmile_qr_scan", "ios": "https://dc.lft.to/lastmile_qr_scan"}, "is_reserved": 0, "is_disabled": 0, "bike_id": "8fd3e17c4c21329ff827401aa5ea35b8", "lat": 38.9004145, "name": "8fd3e17c4c21329ff827401aa5ea35b8", "fusion_lon": 0.0, "fusion_lat": 0.0, "type": "electric_scooter", "lon": -76.98825066666667}, {"rental_uris": {"android": "https://dc.lft.to/lastmile_qr_scan", "ios": "https://dc.lft.to/lastmile_qr_scan"}, "is_reserved": 0, "is_disabled": 0, "bike_id": "946d2c3e010dec3f17cd81ce6026bfc8", "lat": 38.90740983333333, "name": "946d2c3e010dec3f17cd81ce6026bfc8", "fusion_lon": 0.0, "fusion_lat": 0.0, "type": "electric_scooter", "lon": -77.0420295}, {"rental_uris": {"android": "https://dc.lft.to/lastmile_qr_scan", "ios": "https://dc.lft.to/lastmile_qr_scan"}, "is_reserved": 0, "is_disabled": 0, "bike_id": "e165f9ef36a13bc2a68d0c43f2b46c29", "lat": 38.89223, "name": "e165f9ef36a13bc2a68d0c43f2b46c29", "fusion_lon": 0.0, "fusion_lat": 0.0, "type": "electric_scooter", "lon": -77.0321675}, {"rental_uris": {"android": "https://dc.lft.to/lastmile_qr_scan", "ios": "https://dc.lft.to/lastmile_qr_scan"}, "is_reserved": 0, "is_disabled": 0, "bike_id": "fe9141f247839a6c965e8548ae23a700", "lat": 38.91721966666667, "name": "fe9141f247839a6c965e8548ae23a700", "fusion_lon": 0.0, "fusion_lat": 0.0, "type": "electric_scooter", "lon": -77.03073166666667}, {"rental_uris": {"android": "https://dc.lft.to/lastmile_qr_scan", "ios": "https://dc.lft.to/lastmile_qr_scan"}, "is_reserved": 0, "is_disabled": 0, "bike_id": "46989d7864567c66121588c879e7bd10", "lat": 38.910448333333335, "name": "46989d7864567c66121588c879e7bd10", "fusion_lon": 0.0, "fusion_lat": 0.0, "type": "electric_scooter", "lon": -77.0221}, {"rental_uris": {"android": "https://dc.lft.to/lastmile_qr_scan", "ios": "https://dc.lft.to/lastmile_qr_scan"}, "is_reserved": 0, "is_disabled": 0, "bike_id": "947f4587c0b4ac88a98b84d8962b59e5", "lat": 38.8652485, "name": "947f4587c0b4ac88a98b84d8962b59e5", "fusion_lon": 0.0, "fusion_lat": 0.0, "type": "electric_bike", "lon": -76.97335533333333}, {"rental_uris": {"android": "https://dc.lft.to/lastmile_qr_scan", "ios": "https://dc.lft.to/lastmile_qr_scan"}, "is_reserved": 0, "is_disabled": 0, "bike_id": "c3febe8c86523369e5f9e038033e5b78", "lat": 38.8666805, "name": "c3febe8c86523369e5f9e038033e5b78", "fusion_lon": 0.0, "fusion_lat": 0.0, "type": "electric_scooter", "lon": -76.9850735}, {"rental_uris": {"android": "https://dc.lft.to/lastmile_qr_scan", "ios": "https://dc.lft.to/lastmile_qr_scan"}, "is_reserved": 0, "is_disabled": 0, "bike_id": "daae0a06ade9ba2d6b595e0747771e13", "lat": 38.97521733333333, "name": "daae0a06ade9ba2d6b595e0747771e13", "fusion_lon": 0.0, "fusion_lat": 0.0, "type": "electric_scooter", "lon": -77.01679866666667}, {"rental_uris": {"android": "https://dc.lft.to/lastmile_qr_scan", "ios": "https://dc.lft.to/lastmile_qr_scan"}, "is_reserved": 0, "is_disabled": 0, "bike_id": "366c6a49b1674867739fe132aa8a31ba", "lat": 38.892238, "name": "366c6a49b1674867739fe132aa8a31ba", "fusion_lon": 0.0, "fusion_lat": 0.0, "type": "electric_scooter", "lon": -77.0315815}, {"rental_uris": {"android": "https://dc.lft.to/lastmile_qr_scan", "ios": "https://dc.lft.to/lastmile_qr_scan"}, "is_reserved": 0, "is_disabled": 0, "bike_id": "ab8d2883f1086bdab3ae9734e064681b", "lat": 38.89751583333333, "name": "ab8d2883f1086bdab3ae9734e064681b", "fusion_lon": 0.0, "fusion_lat": 0.0, "type": "electric_scooter", "lon": -76.98978416666667}, {"rental_uris": {"android": "https://dc.lft.to/lastmile_qr_scan", "ios": "https://dc.lft.to/lastmile_qr_scan"}, "is_reserved": 0, "is_disabled": 0, "bike_id": "f6f5944eb30497035db4e721f34d90dd", "lat": 38.90627633333333, "name": "f6f5944eb30497035db4e721f34d90dd", "fusion_lon": 0.0, "fusion_lat": 0.0, "type": "electric_scooter", "lon": -77.00990883333333}, {"rental_uris": {"android": "https://dc.lft.to/lastmile_qr_scan", "ios": "https://dc.lft.to/lastmile_qr_scan"}, "is_reserved": 0, "is_disabled": 0, "bike_id": "f949a23c73ffcdbf099f0a8632acfe4f", "lat": 38.91714966666667, "name": "f949a23c73ffcdbf099f0a8632acfe4f", "fusion_lon": 0.0, "fusion_lat": 0.0, "type": "electric_scooter", "lon": -77.0323485}, {"rental_uris": {"android": "https://dc.lft.to/lastmile_qr_scan", "ios": "https://dc.lft.to/lastmile_qr_scan"}, "is_reserved": 0, "is_disabled": 0, "bike_id": "a593d003bb6f66ee81548b2495425502", "lat": 38.913568, "name": "a593d003bb6f66ee81548b2495425502", "fusion_lon": 0.0, "fusion_lat": 0.0, "type": "electric_scooter", "lon": -77.03190166666667}, {"rental_uris": {"android": "https://dc.lft.to/lastmile_qr_scan", "ios": "https://dc.lft.to/lastmile_qr_scan"}, "is_reserved": 0, "is_disabled": 0, "bike_id": "ea72ddfe0ea257bdb90ba04664fb21b5", "lat": 38.88726716666667, "name": "ea72ddfe0ea257bdb90ba04664fb21b5", "fusion_lon": 0.0, "fusion_lat": 0.0, "type": "electric_scooter", "lon": -77.02836033333334}, {"rental_uris": {"android": "https://dc.lft.to/lastmile_qr_scan", "ios": "https://dc.lft.to/lastmile_qr_scan"}, "is_reserved": 0, "is_disabled": 0, "bike_id": "070b25c37e461472f8a6b446547c832d", "lat": 38.89635533333333, "name": "070b25c37e461472f8a6b446547c832d", "fusion_lon": 0.0, "fusion_lat": 0.0, "type": "electric_scooter", "lon": -77.033336}, {"rental_uris": {"android": "https://dc.lft.to/lastmile_qr_scan", "ios": "https://dc.lft.to/lastmile_qr_scan"}, "is_reserved": 0, "is_disabled": 0, "bike_id": "0c40b707669b2c4be8ec3000b3242140", "lat": 38.90394883333333, "name": "0c40b707669b2c4be8ec3000b3242140", "fusion_lon": 0.0, "fusion_lat": 0.0, "type": "electric_scooter", "lon": -77.04472116666666}, {"rental_uris": {"android": "https://dc.lft.to/lastmile_qr_scan", "ios": "https://dc.lft.to/lastmile_qr_scan"}, "is_reserved": 0, "is_disabled": 0, "bike_id": "4ceb2c391e31571db934c9bd1d436f4a", "lat": 38.90835833333333, "name": "4ceb2c391e31571db934c9bd1d436f4a", "fusion_lon": 0.0, "fusion_lat": 0.0, "type": "electric_scooter", "lon": -76.99695316666667}, {"rental_uris": {"android": "https://dc.lft.to/lastmile_qr_scan", "ios": "https://dc.lft.to/lastmile_qr_scan"}, "is_reserved": 0, "is_disabled": 0, "bike_id": "a17a907126762f2cb672fa258b4cc3cb", "lat": 38.94185566666667, "name": "a17a907126762f2cb672fa258b4cc3cb", "fusion_lon": 0.0, "fusion_lat": 0.0, "type": "electric_scooter", "lon": -77.02491616666667}, {"rental_uris": {"android": "https://dc.lft.to/lastmile_qr_scan", "ios": "https://dc.lft.to/lastmile_qr_scan"}, "is_reserved": 0, "is_disabled": 0, "bike_id": "14f0e44958c0bd2eb5e4dec7d6bce9d9", "lat": 38.96799683333333, "name": "14f0e44958c0bd2eb5e4dec7d6bce9d9", "fusion_lon": 0.0, "fusion_lat": 0.0, "type": "electric_bike", "lon": -77.00041166666666}, {"rental_uris": {"android": "https://dc.lft.to/lastmile_qr_scan", "ios": "https://dc.lft.to/lastmile_qr_scan"}, "is_reserved": 0, "is_disabled": 0, "bike_id": "e46d5467cac1890564f9022e47557bfd", "lat": 38.8648915, "name": "e46d5467cac1890564f9022e47557bfd", "fusion_lon": 0.0, "fusion_lat": 0.0, "type": "electric_bike", "lon": -77.05685533333333}, {"rental_uris": {"android": "https://dc.lft.to/lastmile_qr_scan", "ios": "https://dc.lft.to/lastmile_qr_scan"}, "is_reserved": 0, "is_disabled": 0, "bike_id": "1e5c0888e4462ebafe6a2f472cc31892", "lat": 38.8936275, "name": "1e5c0888e4462ebafe6a2f472cc31892", "fusion_lon": 0.0, "fusion_lat": 0.0, "type": "electric_scooter", "lon": -77.01162766666667}, {"rental_uris": {"android": "https://dc.lft.to/lastmile_qr_scan", "ios": "https://dc.lft.to/lastmile_qr_scan"}, "is_reserved": 0, "is_disabled": 0, "bike_id": "99637ce688af2360ce8c2f2da12ab535", "lat": 38.905714833333334, "name": "99637ce688af2360ce8c2f2da12ab535", "fusion_lon": 0.0, "fusion_lat": 0.0, "type": "electric_scooter", "lon": -77.00573116666666}, {"rental_uris": {"android": "https://dc.lft.to/lastmile_qr_scan", "ios": "https://dc.lft.to/lastmile_qr_scan"}, "is_reserved": 0, "is_disabled": 0, "bike_id": "07c24cf6590a9d334f543bc6d41e37ea", "lat": 38.910874166666666, "name": "07c24cf6590a9d334f543bc6d41e37ea", "fusion_lon": 0.0, "fusion_lat": 0.0, "type": "electric_scooter", "lon": -77.0371635}, {"rental_uris": {"android": "https://dc.lft.to/lastmile_qr_scan", "ios": "https://dc.lft.to/lastmile_qr_scan"}, "is_reserved": 0, "is_disabled": 0, "bike_id": "d98624b9bffdc85d1bbc4afd812d7967", "lat": 38.9050735, "name": "d98624b9bffdc85d1bbc4afd812d7967", "fusion_lon": 0.0, "fusion_lat": 0.0, "type": "electric_scooter", "lon": -77.03859133333333}, {"rental_uris": {"android": "https://dc.lft.to/lastmile_qr_scan", "ios": "https://dc.lft.to/lastmile_qr_scan"}, "is_reserved": 0, "is_disabled": 0, "bike_id": "9b7390d1aad1bb356f74a6bdc0f98e6d", "lat": 38.911263166666664, "name": "9b7390d1aad1bb356f74a6bdc0f98e6d", "fusion_lon": 0.0, "fusion_lat": 0.0, "type": "electric_scooter", "lon": -77.04209566666667}, {"rental_uris": {"android": "https://dc.lft.to/lastmile_qr_scan", "ios": "https://dc.lft.to/lastmile_qr_scan"}, "is_reserved": 0, "is_disabled": 0, "bike_id": "2f9a3505eaaf538a9380b64eec5c0556", "lat": 38.90339566666667, "name": "2f9a3505eaaf538a9380b64eec5c0556", "fusion_lon": 0.0, "fusion_lat": 0.0, "type": "electric_bike", "lon": -76.97535816666667}, {"rental_uris": {"android": "https://dc.lft.to/lastmile_qr_scan", "ios": "https://dc.lft.to/lastmile_qr_scan"}, "is_reserved": 0, "is_disabled": 0, "bike_id": "46fedac60fb399d8cf2260f08cf4b454", "lat": 38.950608, "name": "46fedac60fb399d8cf2260f08cf4b454", "fusion_lon": 0.0, "fusion_lat": 0.0, "type": "electric_scooter", "lon": -77.08027766666666}, {"rental_uris": {"android": "https://dc.lft.to/lastmile_qr_scan", "ios": "https://dc.lft.to/lastmile_qr_scan"}, "is_reserved": 0, "is_disabled": 0, "bike_id": "3de3ecd659c7f7a0edd4bfe7053ddf68", "lat": 38.90288966666667, "name": "3de3ecd659c7f7a0edd4bfe7053ddf68", "fusion_lon": 0.0, "fusion_lat": 0.0, "type": "electric_scooter", "lon": -77.036598}, {"rental_uris": {"android": "https://dc.lft.to/lastmile_qr_scan", "ios": "https://dc.lft.to/lastmile_qr_scan"}, "is_reserved": 0, "is_disabled": 0, "bike_id": "df2b2ba8e79f7fab9d424031006627fe", "lat": 38.978435166666664, "name": "df2b2ba8e79f7fab9d424031006627fe", "fusion_lon": 0.0, "fusion_lat": 0.0, "type": "electric_bike", "lon": -76.92882183333333}, {"rental_uris": {"android": "https://dc.lft.to/lastmile_qr_scan", "ios": "https://dc.lft.to/lastmile_qr_scan"}, "is_reserved": 0, "is_disabled": 0, "bike_id": "78bdce26bb60c5f87c8464373e471a27", "lat": 38.90337266666667, "name": "78bdce26bb60c5f87c8464373e471a27", "fusion_lon": 0.0, "fusion_lat": 0.0, "type": "electric_scooter", "lon": -77.0416705}, {"rental_uris": {"android": "https://dc.lft.to/lastmile_qr_scan", "ios": "https://dc.lft.to/lastmile_qr_scan"}, "is_reserved": 0, "is_disabled": 0, "bike_id": "8b22d263368f30ebde557d0cf7038427", "lat": 38.9195305, "name": "8b22d263368f30ebde557d0cf7038427", "fusion_lon": 0.0, "fusion_lat": 0.0, "type": "electric_scooter", "lon": -76.98077483333333}, {"rental_uris": {"android": "https://dc.lft.to/lastmile_qr_scan", "ios": "https://dc.lft.to/lastmile_qr_scan"}, "is_reserved": 0, "is_disabled": 0, "bike_id": "c5a4b0e5bc31fead5fb8ca6ae67d5871", "lat": 38.94152183333333, "name": "c5a4b0e5bc31fead5fb8ca6ae67d5871", "fusion_lon": 0.0, "fusion_lat": 0.0, "type": "electric_scooter", "lon": -77.09097266666667}, {"rental_uris": {"android": "https://dc.lft.to/lastmile_qr_scan", "ios": "https://dc.lft.to/lastmile_qr_scan"}, "is_reserved": 0, "is_disabled": 0, "bike_id": "32ebcf50265e35be471e8d4f90a4d99b", "lat": 38.89654016666667, "name": "32ebcf50265e35be471e8d4f90a4d99b", "fusion_lon": 0.0, "fusion_lat": 0.0, "type": "electric_bike", "lon": -76.93009833333333}, {"rental_uris": {"android": "https://dc.lft.to/lastmile_qr_scan", "ios": "https://dc.lft.to/lastmile_qr_scan"}, "is_reserved": 0, "is_disabled": 0, "bike_id": "8502568d9572087c4c832fa13b823eb6", "lat": 38.92366633333334, "name": "8502568d9572087c4c832fa13b823eb6", "fusion_lon": 0.0, "fusion_lat": 0.0, "type": "electric_scooter", "lon": -77.051315}, {"rental_uris": {"android": "https://dc.lft.to/lastmile_qr_scan", "ios": "https://dc.lft.to/lastmile_qr_scan"}, "is_reserved": 0, "is_disabled": 0, "bike_id": "33424021ec281400c09776c9dee01d48", "lat": 38.90167016666667, "name": "33424021ec281400c09776c9dee01d48", "fusion_lon": 0.0, "fusion_lat": 0.0, "type": "electric_scooter", "lon": -76.930239}, {"rental_uris": {"android": "https://dc.lft.to/lastmile_qr_scan", "ios": "https://dc.lft.to/lastmile_qr_scan"}, "is_reserved": 0, "is_disabled": 0, "bike_id": "1ed7a6dab63b0655e95b9b9bb0e4116e", "lat": 38.90555783333333, "name": "1ed7a6dab63b0655e95b9b9bb0e4116e", "fusion_lon": 0.0, "fusion_lat": 0.0, "type": "electric_scooter", "lon": -77.05923566666667}, {"rental_uris": {"android": "https://dc.lft.to/lastmile_qr_scan", "ios": "https://dc.lft.to/lastmile_qr_scan"}, "is_reserved": 0, "is_disabled": 0, "bike_id": "b114a717d3be60c6c8dc0770ff3ee031", "lat": 38.918295666666666, "name": "b114a717d3be60c6c8dc0770ff3ee031", "fusion_lon": 0.0, "fusion_lat": 0.0, "type": "electric_scooter", "lon": -77.03442716666666}, {"rental_uris": {"android": "https://dc.lft.to/lastmile_qr_scan", "ios": "https://dc.lft.to/lastmile_qr_scan"}, "is_reserved": 0, "is_disabled": 0, "bike_id": "e5364bab4601b547d85d3198f01e0823", "lat": 38.92735183333333, "name": "e5364bab4601b547d85d3198f01e0823", "fusion_lon": 0.0, "fusion_lat": 0.0, "type": "electric_scooter", "lon": -77.03517533333333}, {"rental_uris": {"android": "https://dc.lft.to/lastmile_qr_scan", "ios": "https://dc.lft.to/lastmile_qr_scan"}, "is_reserved": 0, "is_disabled": 0, "bike_id": "281a4056db21c38c29f4bedb47ad505a", "lat": 38.92448866666667, "name": "281a4056db21c38c29f4bedb47ad505a", "fusion_lon": 0.0, "fusion_lat": 0.0, "type": "electric_scooter", "lon": -77.02148533333333}, {"rental_uris": {"android": "https://dc.lft.to/lastmile_qr_scan", "ios": "https://dc.lft.to/lastmile_qr_scan"}, "is_reserved": 0, "is_disabled": 0, "bike_id": "a439e059382a8bd3e75af3d01e690072", "lat": 38.862442, "name": "a439e059382a8bd3e75af3d01e690072", "fusion_lon": 0.0, "fusion_lat": 0.0, "type": "electric_scooter", "lon": -76.9950035}, {"rental_uris": {"android": "https://dc.lft.to/lastmile_qr_scan", "ios": "https://dc.lft.to/lastmile_qr_scan"}, "is_reserved": 0, "is_disabled": 0, "bike_id": "52b3cfe3d904e19bc76bc976e19f5f1c", "lat": 38.90481883333333, "name": "52b3cfe3d904e19bc76bc976e19f5f1c", "fusion_lon": 0.0, "fusion_lat": 0.0, "type": "electric_scooter", "lon": -77.03910966666666}, {"rental_uris": {"android": "https://dc.lft.to/lastmile_qr_scan", "ios": "https://dc.lft.to/lastmile_qr_scan"}, "is_reserved": 0, "is_disabled": 0, "bike_id": "b9d63ebc104a6e70460e5419213e3a8c", "lat": 38.892314, "name": "b9d63ebc104a6e70460e5419213e3a8c", "fusion_lon": 0.0, "fusion_lat": 0.0, "type": "electric_scooter", "lon": -77.03179866666666}, {"rental_uris": {"android": "https://dc.lft.to/lastmile_qr_scan", "ios": "https://dc.lft.to/lastmile_qr_scan"}, "is_reserved": 0, "is_disabled": 0, "bike_id": "228b505b5c1dead94eda43e4d6033f43", "lat": 38.896530166666665, "name": "228b505b5c1dead94eda43e4d6033f43", "fusion_lon": 0.0, "fusion_lat": 0.0, "type": "electric_scooter", "lon": -77.0092915}, {"rental_uris": {"android": "https://dc.lft.to/lastmile_qr_scan", "ios": "https://dc.lft.to/lastmile_qr_scan"}, "is_reserved": 0, "is_disabled": 0, "bike_id": "897c98c73b036d003e625087ce310480", "lat": 38.93482383333333, "name": "897c98c73b036d003e625087ce310480", "fusion_lon": 0.0, "fusion_lat": 0.0, "type": "electric_scooter", "lon": -77.07265466666666}, {"rental_uris": {"android": "https://dc.lft.to/lastmile_qr_scan", "ios": "https://dc.lft.to/lastmile_qr_scan"}, "is_reserved": 0, "is_disabled": 0, "bike_id": "c2e05809bd864c71059ca75ed6b0a7aa", "lat": 38.89020433333334, "name": "c2e05809bd864c71059ca75ed6b0a7aa", "fusion_lon": 0.0, "fusion_lat": 0.0, "type": "electric_scooter", "lon": -76.93726866666667}, {"rental_uris": {"android": "https://dc.lft.to/lastmile_qr_scan", "ios": "https://dc.lft.to/lastmile_qr_scan"}, "is_reserved": 0, "is_disabled": 0, "bike_id": "f92300fd1c40df0e9b066270cac23838", "lat": 38.93183166666667, "name": "f92300fd1c40df0e9b066270cac23838", "fusion_lon": 0.0, "fusion_lat": 0.0, "type": "electric_scooter", "lon": -77.03838783333333}, {"rental_uris": {"android": "https://dc.lft.to/lastmile_qr_scan", "ios": "https://dc.lft.to/lastmile_qr_scan"}, "is_reserved": 0, "is_disabled": 0, "bike_id": "6066c3548a2723a851a7c5332fd14ae4", "lat": 38.867058166666666, "name": "6066c3548a2723a851a7c5332fd14ae4", "fusion_lon": 0.0, "fusion_lat": 0.0, "type": "electric_scooter", "lon": -76.98710966666667}, {"rental_uris": {"android": "https://dc.lft.to/lastmile_qr_scan", "ios": "https://dc.lft.to/lastmile_qr_scan"}, "is_reserved": 0, "is_disabled": 0, "bike_id": "e8b3ae3378e7c0aaafdd2d7cf31b5104", "lat": 38.9170525, "name": "e8b3ae3378e7c0aaafdd2d7cf31b5104", "fusion_lon": 0.0, "fusion_lat": 0.0, "type": "electric_scooter", "lon": -77.02489266666667}, {"rental_uris": {"android": "https://dc.lft.to/lastmile_qr_scan", "ios": "https://dc.lft.to/lastmile_qr_scan"}, "is_reserved": 0, "is_disabled": 0, "bike_id": "0052c505a1065dcae3a001340685cdcd", "lat": 38.8665925, "name": "0052c505a1065dcae3a001340685cdcd", "fusion_lon": 0.0, "fusion_lat": 0.0, "type": "electric_scooter", "lon": -76.98884733333334}, {"rental_uris": {"android": "https://dc.lft.to/lastmile_qr_scan", "ios": "https://dc.lft.to/lastmile_qr_scan"}, "is_reserved": 0, "is_disabled": 0, "bike_id": "b83f3964a86ff1e859992e7d9be4633f", "lat": 38.9168235, "name": "b83f3964a86ff1e859992e7d9be4633f", "fusion_lon": 0.0, "fusion_lat": 0.0, "type": "electric_scooter", "lon": -77.02977933333334}, {"rental_uris": {"android": "https://dc.lft.to/lastmile_qr_scan", "ios": "https://dc.lft.to/lastmile_qr_scan"}, "is_reserved": 0, "is_disabled": 0, "bike_id": "389a86ae299eb998d2b2ac00143d3b28", "lat": 38.908055166666664, "name": "389a86ae299eb998d2b2ac00143d3b28", "fusion_lon": 0.0, "fusion_lat": 0.0, "type": "electric_scooter", "lon": -77.04349766666667}, {"rental_uris": {"android": "https://dc.lft.to/lastmile_qr_scan", "ios": "https://dc.lft.to/lastmile_qr_scan"}, "is_reserved": 0, "is_disabled": 0, "bike_id": "4a109b1b62f8ef44e5bb1c9425998cd2", "lat": 38.8537835, "name": "4a109b1b62f8ef44e5bb1c9425998cd2", "fusion_lon": 0.0, "fusion_lat": 0.0, "type": "electric_bike", "lon": -77.12463783333334}, {"rental_uris": {"android": "https://dc.lft.to/lastmile_qr_scan", "ios": "https://dc.lft.to/lastmile_qr_scan"}, "is_reserved": 0, "is_disabled": 0, "bike_id": "05a7295f5a20f55ad45c0c525190aee8", "lat": 38.89785933333334, "name": "05a7295f5a20f55ad45c0c525190aee8", "fusion_lon": 0.0, "fusion_lat": 0.0, "type": "electric_scooter", "lon": -77.0320045}, {"rental_uris": {"android": "https://dc.lft.to/lastmile_qr_scan", "ios": "https://dc.lft.to/lastmile_qr_scan"}, "is_reserved": 0, "is_disabled": 0, "bike_id": "68d32e620b809dac9510736cb36a6799", "lat": 38.921548666666666, "name": "68d32e620b809dac9510736cb36a6799", "fusion_lon": 0.0, "fusion_lat": 0.0, "type": "electric_scooter", "lon": -77.04235983333334}, {"rental_uris": {"android": "https://dc.lft.to/lastmile_qr_scan", "ios": "https://dc.lft.to/lastmile_qr_scan"}, "is_reserved": 0, "is_disabled": 0, "bike_id": "6db622ea3ba505800ccc27f059647e9c", "lat": 38.910127, "name": "6db622ea3ba505800ccc27f059647e9c", "fusion_lon": 0.0, "fusion_lat": 0.0, "type": "electric_scooter", "lon": -77.03429}, {"rental_uris": {"android": "https://dc.lft.to/lastmile_qr_scan", "ios": "https://dc.lft.to/lastmile_qr_scan"}, "is_reserved": 0, "is_disabled": 0, "bike_id": "cf3ddaa4dc28f7f433373f0e42e9b367", "lat": 38.901866166666665, "name": "cf3ddaa4dc28f7f433373f0e42e9b367", "fusion_lon": 0.0, "fusion_lat": 0.0, "type": "electric_scooter", "lon": -77.04823633333334}, {"rental_uris": {"android": "https://dc.lft.to/lastmile_qr_scan", "ios": "https://dc.lft.to/lastmile_qr_scan"}, "is_reserved": 0, "is_disabled": 0, "bike_id": "2ec0cfc65c08aed403500d5406e28e1c", "lat": 38.90780516666667, "name": "2ec0cfc65c08aed403500d5406e28e1c", "fusion_lon": 0.0, "fusion_lat": 0.0, "type": "electric_scooter", "lon": -77.03178266666667}, {"rental_uris": {"android": "https://dc.lft.to/lastmile_qr_scan", "ios": "https://dc.lft.to/lastmile_qr_scan"}, "is_reserved": 0, "is_disabled": 0, "bike_id": "f6fada82eabbeca3f3914f56e641e84e", "lat": 38.873013666666665, "name": "f6fada82eabbeca3f3914f56e641e84e", "fusion_lon": 0.0, "fusion_lat": 0.0, "type": "electric_bike", "lon": -77.1393015}, {"rental_uris": {"android": "https://dc.lft.to/lastmile_qr_scan", "ios": "https://dc.lft.to/lastmile_qr_scan"}, "is_reserved": 0, "is_disabled": 0, "bike_id": "73f7f2dccfeee3e13af41c84f49d68df", "lat": 38.8961915, "name": "73f7f2dccfeee3e13af41c84f49d68df", "fusion_lon": 0.0, "fusion_lat": 0.0, "type": "electric_scooter", "lon": -76.99782933333333}, {"rental_uris": {"android": "https://dc.lft.to/lastmile_qr_scan", "ios": "https://dc.lft.to/lastmile_qr_scan"}, "is_reserved": 0, "is_disabled": 0, "bike_id": "96bedd6e33f770d6d4b370a0f00ced2d", "lat": 38.91333766666666, "name": "96bedd6e33f770d6d4b370a0f00ced2d", "fusion_lon": 0.0, "fusion_lat": 0.0, "type": "electric_scooter", "lon": -77.03186783333334}, {"rental_uris": {"android": "https://dc.lft.to/lastmile_qr_scan", "ios": "https://dc.lft.to/lastmile_qr_scan"}, "is_reserved": 0, "is_disabled": 0, "bike_id": "c32d14872175c814fbe62249c7aaa590", "lat": 38.92092183333333, "name": "c32d14872175c814fbe62249c7aaa590", "fusion_lon": 0.0, "fusion_lat": 0.0, "type": "electric_scooter", "lon": -77.03182966666667}, {"rental_uris": {"android": "https://dc.lft.to/lastmile_qr_scan", "ios": "https://dc.lft.to/lastmile_qr_scan"}, "is_reserved": 0, "is_disabled": 0, "bike_id": "8521f38075d24c59b0b7dd5d84a1b1c8", "lat": 38.901386333333335, "name": "8521f38075d24c59b0b7dd5d84a1b1c8", "fusion_lon": 0.0, "fusion_lat": 0.0, "type": "electric_scooter", "lon": -77.04344716666667}, {"rental_uris": {"android": "https://dc.lft.to/lastmile_qr_scan", "ios": "https://dc.lft.to/lastmile_qr_scan"}, "is_reserved": 0, "is_disabled": 0, "bike_id": "1d0e95e3c4986726135756c4ff5f4b6c", "lat": 38.903991, "name": "1d0e95e3c4986726135756c4ff5f4b6c", "fusion_lon": 0.0, "fusion_lat": 0.0, "type": "electric_scooter", "lon": -77.04456833333333}, {"rental_uris": {"android": "https://dc.lft.to/lastmile_qr_scan", "ios": "https://dc.lft.to/lastmile_qr_scan"}, "is_reserved": 0, "is_disabled": 0, "bike_id": "2cb528002451e663d1c58875e798a090", "lat": 38.884314833333335, "name": "2cb528002451e663d1c58875e798a090", "fusion_lon": 0.0, "fusion_lat": 0.0, "type": "electric_scooter", "lon": -76.95753933333333}, {"rental_uris": {"android": "https://dc.lft.to/lastmile_qr_scan", "ios": "https://dc.lft.to/lastmile_qr_scan"}, "is_reserved": 0, "is_disabled": 0, "bike_id": "af3268d562296db755132f509ecfd4a7", "lat": 38.894282833333335, "name": "af3268d562296db755132f509ecfd4a7", "fusion_lon": 0.0, "fusion_lat": 0.0, "type": "electric_scooter", "lon": -76.948801}, {"rental_uris": {"android": "https://dc.lft.to/lastmile_qr_scan", "ios": "https://dc.lft.to/lastmile_qr_scan"}, "is_reserved": 0, "is_disabled": 0, "bike_id": "dc5729e06632b97479b988e92ecc8dd2", "lat": 38.952635, "name": "dc5729e06632b97479b988e92ecc8dd2", "fusion_lon": 0.0, "fusion_lat": 0.0, "type": "electric_scooter", "lon": -77.0256365}, {"rental_uris": {"android": "https://dc.lft.to/lastmile_qr_scan", "ios": "https://dc.lft.to/lastmile_qr_scan"}, "is_reserved": 0, "is_disabled": 0, "bike_id": "58274e1649530994aee60f6afbe2bdcf", "lat": 38.9170925, "name": "58274e1649530994aee60f6afbe2bdcf", "fusion_lon": 0.0, "fusion_lat": 0.0, "type": "electric_scooter", "lon": -77.034848}, {"rental_uris": {"android": "https://dc.lft.to/lastmile_qr_scan", "ios": "https://dc.lft.to/lastmile_qr_scan"}, "is_reserved": 0, "is_disabled": 0, "bike_id": "2dc958b4011d46fc1cb4ff188b924370", "lat": 38.915691833333334, "name": "2dc958b4011d46fc1cb4ff188b924370", "fusion_lon": 0.0, "fusion_lat": 0.0, "type": "electric_scooter", "lon": -77.0400675}, {"rental_uris": {"android": "https://dc.lft.to/lastmile_qr_scan", "ios": "https://dc.lft.to/lastmile_qr_scan"}, "is_reserved": 0, "is_disabled": 0, "bike_id": "bf07ab24e205bf2e9f12caf10f98dd97", "lat": 38.914215, "name": "bf07ab24e205bf2e9f12caf10f98dd97", "fusion_lon": 0.0, "fusion_lat": 0.0, "type": "electric_scooter", "lon": -77.02111566666666}, {"rental_uris": {"android": "https://dc.lft.to/lastmile_qr_scan", "ios": "https://dc.lft.to/lastmile_qr_scan"}, "is_reserved": 0, "is_disabled": 0, "bike_id": "627bbc6e6e2d1deed321dd7cdd8da49d", "lat": 38.85183, "name": "627bbc6e6e2d1deed321dd7cdd8da49d", "fusion_lon": 0.0, "fusion_lat": 0.0, "type": "electric_bike", "lon": -76.99567833333333}, {"rental_uris": {"android": "https://dc.lft.to/lastmile_qr_scan", "ios": "https://dc.lft.to/lastmile_qr_scan"}, "is_reserved": 0, "is_disabled": 0, "bike_id": "a98061299c833e663fe766e8fde05870", "lat": 38.89369133333334, "name": "a98061299c833e663fe766e8fde05870", "fusion_lon": 0.0, "fusion_lat": 0.0, "type": "electric_scooter", "lon": -77.05493383333334}, {"rental_uris": {"android": "https://dc.lft.to/lastmile_qr_scan", "ios": "https://dc.lft.to/lastmile_qr_scan"}, "is_reserved": 0, "is_disabled": 0, "bike_id": "4130c6300e261c94c8d0d7cae24be7c6", "lat": 38.900504, "name": "4130c6300e261c94c8d0d7cae24be7c6", "fusion_lon": 0.0, "fusion_lat": 0.0, "type": "electric_scooter", "lon": -77.04315033333333}, {"rental_uris": {"android": "https://dc.lft.to/lastmile_qr_scan", "ios": "https://dc.lft.to/lastmile_qr_scan"}, "is_reserved": 0, "is_disabled": 0, "bike_id": "e1501afbcec2ec7fbd84a13a92c1c5b5", "lat": 38.90785616666667, "name": "e1501afbcec2ec7fbd84a13a92c1c5b5", "fusion_lon": 0.0, "fusion_lat": 0.0, "type": "electric_scooter", "lon": -77.04007133333333}, {"rental_uris": {"android": "https://dc.lft.to/lastmile_qr_scan", "ios": "https://dc.lft.to/lastmile_qr_scan"}, "is_reserved": 0, "is_disabled": 0, "bike_id": "7da735bf5ccf522cab655b5872494105", "lat": 38.884970333333335, "name": "7da735bf5ccf522cab655b5872494105", "fusion_lon": 0.0, "fusion_lat": 0.0, "type": "electric_scooter", "lon": -77.00726083333333}, {"rental_uris": {"android": "https://dc.lft.to/lastmile_qr_scan", "ios": "https://dc.lft.to/lastmile_qr_scan"}, "is_reserved": 0, "is_disabled": 0, "bike_id": "de41f3638ed1b13bb5f017c96f41232d", "lat": 38.887178, "name": "de41f3638ed1b13bb5f017c96f41232d", "fusion_lon": 0.0, "fusion_lat": 0.0, "type": "electric_scooter", "lon": -76.98352066666666}, {"rental_uris": {"android": "https://dc.lft.to/lastmile_qr_scan", "ios": "https://dc.lft.to/lastmile_qr_scan"}, "is_reserved": 0, "is_disabled": 0, "bike_id": "19ca587774137f4dcd45f8daee7608cf", "lat": 38.916737166666664, "name": "19ca587774137f4dcd45f8daee7608cf", "fusion_lon": 0.0, "fusion_lat": 0.0, "type": "electric_scooter", "lon": -77.02945233333334}, {"rental_uris": {"android": "https://dc.lft.to/lastmile_qr_scan", "ios": "https://dc.lft.to/lastmile_qr_scan"}, "is_reserved": 0, "is_disabled": 0, "bike_id": "d368703f09b27ecb3b04add9ba37c261", "lat": 38.887297333333336, "name": "d368703f09b27ecb3b04add9ba37c261", "fusion_lon": 0.0, "fusion_lat": 0.0, "type": "electric_scooter", "lon": -77.0283805}, {"rental_uris": {"android": "https://dc.lft.to/lastmile_qr_scan", "ios": "https://dc.lft.to/lastmile_qr_scan"}, "is_reserved": 0, "is_disabled": 0, "bike_id": "b181a3f4d2b2ae6b4e82878848ef9be3", "lat": 38.92475066666667, "name": "b181a3f4d2b2ae6b4e82878848ef9be3", "fusion_lon": 0.0, "fusion_lat": 0.0, "type": "electric_scooter", "lon": -77.02211216666667}, {"rental_uris": {"android": "https://dc.lft.to/lastmile_qr_scan", "ios": "https://dc.lft.to/lastmile_qr_scan"}, "is_reserved": 0, "is_disabled": 0, "bike_id": "4408f545921af4333419918ae1fcec00", "lat": 38.94089116666667, "name": "4408f545921af4333419918ae1fcec00", "fusion_lon": 0.0, "fusion_lat": 0.0, "type": "electric_scooter", "lon": -77.027167}, {"rental_uris": {"android": "https://dc.lft.to/lastmile_qr_scan", "ios": "https://dc.lft.to/lastmile_qr_scan"}, "is_reserved": 0, "is_disabled": 0, "bike_id": "0070ba6fcb5af5ff7f9f0342ae4fd37a", "lat": 38.92114433333333, "name": "0070ba6fcb5af5ff7f9f0342ae4fd37a", "fusion_lon": 0.0, "fusion_lat": 0.0, "type": "electric_scooter", "lon": -77.03250666666666}, {"rental_uris": {"android": "https://dc.lft.to/lastmile_qr_scan", "ios": "https://dc.lft.to/lastmile_qr_scan"}, "is_reserved": 0, "is_disabled": 0, "bike_id": "b9182eeca40faa61b9436fed1f926380", "lat": 38.91172183333333, "name": "b9182eeca40faa61b9436fed1f926380", "fusion_lon": 0.0, "fusion_lat": 0.0, "type": "electric_scooter", "lon": -77.04909416666666}, {"rental_uris": {"android": "https://dc.lft.to/lastmile_qr_scan", "ios": "https://dc.lft.to/lastmile_qr_scan"}, "is_reserved": 0, "is_disabled": 0, "bike_id": "efc510977bf3429f156d3a0b8caa94cc", "lat": 38.90053233333333, "name": "efc510977bf3429f156d3a0b8caa94cc", "fusion_lon": 0.0, "fusion_lat": 0.0, "type": "electric_scooter", "lon": -77.01524016666667}, {"rental_uris": {"android": "https://dc.lft.to/lastmile_qr_scan", "ios": "https://dc.lft.to/lastmile_qr_scan"}, "is_reserved": 0, "is_disabled": 0, "bike_id": "04e7cc154e34730ebff0b66d038cd225", "lat": 38.909665, "name": "04e7cc154e34730ebff0b66d038cd225", "fusion_lon": 0.0, "fusion_lat": 0.0, "type": "electric_scooter", "lon": -77.0325245}, {"rental_uris": {"android": "https://dc.lft.to/lastmile_qr_scan", "ios": "https://dc.lft.to/lastmile_qr_scan"}, "is_reserved": 0, "is_disabled": 0, "bike_id": "8dfe05a209040ec69fe6cd96de13c3af", "lat": 39.0243815, "name": "8dfe05a209040ec69fe6cd96de13c3af", "fusion_lon": 0.0, "fusion_lat": 0.0, "type": "electric_bike", "lon": -77.13094516666666}, {"rental_uris": {"android": "https://dc.lft.to/lastmile_qr_scan", "ios": "https://dc.lft.to/lastmile_qr_scan"}, "is_reserved": 0, "is_disabled": 0, "bike_id": "b8d4eb223d33b512f11bfaf9b68dbcce", "lat": 38.885987166666666, "name": "b8d4eb223d33b512f11bfaf9b68dbcce", "fusion_lon": 0.0, "fusion_lat": 0.0, "type": "electric_scooter", "lon": -76.99144183333334}, {"rental_uris": {"android": "https://dc.lft.to/lastmile_qr_scan", "ios": "https://dc.lft.to/lastmile_qr_scan"}, "is_reserved": 0, "is_disabled": 0, "bike_id": "87244b20cd0bea3c0111055b35e27726", "lat": 38.88246266666667, "name": "87244b20cd0bea3c0111055b35e27726", "fusion_lon": 0.0, "fusion_lat": 0.0, "type": "electric_bike", "lon": -77.245347}, {"rental_uris": {"android": "https://dc.lft.to/lastmile_qr_scan", "ios": "https://dc.lft.to/lastmile_qr_scan"}, "is_reserved": 0, "is_disabled": 0, "bike_id": "0087a1274bbf038cf472f8a9cebabfd7", "lat": 38.86218733333333, "name": "0087a1274bbf038cf472f8a9cebabfd7", "fusion_lon": 0.0, "fusion_lat": 0.0, "type": "electric_scooter", "lon": -76.99475683333333}, {"rental_uris": {"android": "https://dc.lft.to/lastmile_qr_scan", "ios": "https://dc.lft.to/lastmile_qr_scan"}, "is_reserved": 0, "is_disabled": 0, "bike_id": "59eece9900f4d1f4d2f11a700869cec3", "lat": 38.923676, "name": "59eece9900f4d1f4d2f11a700869cec3", "fusion_lon": 0.0, "fusion_lat": 0.0, "type": "electric_scooter", "lon": -77.05108783333333}, {"rental_uris": {"android": "https://dc.lft.to/lastmile_qr_scan", "ios": "https://dc.lft.to/lastmile_qr_scan"}, "is_reserved": 0, "is_disabled": 0, "bike_id": "650bf97a99e38c3dfb8e687fdf558a14", "lat": 38.938711166666664, "name": "650bf97a99e38c3dfb8e687fdf558a14", "fusion_lon": 0.0, "fusion_lat": 0.0, "type": "electric_scooter", "lon": -77.02564616666666}, {"rental_uris": {"android": "https://dc.lft.to/lastmile_qr_scan", "ios": "https://dc.lft.to/lastmile_qr_scan"}, "is_reserved": 0, "is_disabled": 0, "bike_id": "f48d440fe88e3e6b811f628142ae6d05", "lat": 38.9025395, "name": "f48d440fe88e3e6b811f628142ae6d05", "fusion_lon": 0.0, "fusion_lat": 0.0, "type": "electric_scooter", "lon": -77.04585333333333}, {"rental_uris": {"android": "https://dc.lft.to/lastmile_qr_scan", "ios": "https://dc.lft.to/lastmile_qr_scan"}, "is_reserved": 0, "is_disabled": 0, "bike_id": "27f09139277ea24c13d13f70b00625ab", "lat": 38.880401666666664, "name": "27f09139277ea24c13d13f70b00625ab", "fusion_lon": 0.0, "fusion_lat": 0.0, "type": "electric_scooter", "lon": -76.9983975}, {"rental_uris": {"android": "https://dc.lft.to/lastmile_qr_scan", "ios": "https://dc.lft.to/lastmile_qr_scan"}, "is_reserved": 0, "is_disabled": 0, "bike_id": "dc9b525b223abae460327d7be64e29a0", "lat": 38.860135, "name": "dc9b525b223abae460327d7be64e29a0", "fusion_lon": 0.0, "fusion_lat": 0.0, "type": "electric_scooter", "lon": -76.98517533333333}, {"rental_uris": {"android": "https://dc.lft.to/lastmile_qr_scan", "ios": "https://dc.lft.to/lastmile_qr_scan"}, "is_reserved": 0, "is_disabled": 0, "bike_id": "213c2a48cdcebe9a10938fe514a3fb2f", "lat": 38.920691, "name": "213c2a48cdcebe9a10938fe514a3fb2f", "fusion_lon": 0.0, "fusion_lat": 0.0, "type": "electric_scooter", "lon": -77.02354516666666}, {"rental_uris": {"android": "https://dc.lft.to/lastmile_qr_scan", "ios": "https://dc.lft.to/lastmile_qr_scan"}, "is_reserved": 0, "is_disabled": 0, "bike_id": "da253a2c362b1ff3ebea816946428baa", "lat": 38.87669733333333, "name": "da253a2c362b1ff3ebea816946428baa", "fusion_lon": 0.0, "fusion_lat": 0.0, "type": "electric_scooter", "lon": -77.00403583333333}, {"rental_uris": {"android": "https://dc.lft.to/lastmile_qr_scan", "ios": "https://dc.lft.to/lastmile_qr_scan"}, "is_reserved": 0, "is_disabled": 0, "bike_id": "23d89dfa3a72bc94ccf017f98d2650cc", "lat": 38.90320283333333, "name": "23d89dfa3a72bc94ccf017f98d2650cc", "fusion_lon": 0.0, "fusion_lat": 0.0, "type": "electric_scooter", "lon": -76.99105116666667}, {"rental_uris": {"android": "https://dc.lft.to/lastmile_qr_scan", "ios": "https://dc.lft.to/lastmile_qr_scan"}, "is_reserved": 0, "is_disabled": 0, "bike_id": "e1095c49b8a5e30fc75c1a4be48c1a36", "lat": 38.8752125, "name": "e1095c49b8a5e30fc75c1a4be48c1a36", "fusion_lon": 0.0, "fusion_lat": 0.0, "type": "electric_scooter", "lon": -77.00180783333333}, {"rental_uris": {"android": "https://dc.lft.to/lastmile_qr_scan", "ios": "https://dc.lft.to/lastmile_qr_scan"}, "is_reserved": 0, "is_disabled": 0, "bike_id": "a67b80ca41c2129e5e18a09f714e94ea", "lat": 38.898977333333335, "name": "a67b80ca41c2129e5e18a09f714e94ea", "fusion_lon": 0.0, "fusion_lat": 0.0, "type": "electric_scooter", "lon": -77.03283333333333}, {"rental_uris": {"android": "https://dc.lft.to/lastmile_qr_scan", "ios": "https://dc.lft.to/lastmile_qr_scan"}, "is_reserved": 0, "is_disabled": 0, "bike_id": "2247ebd0648f4c10d4d467d3889ed399", "lat": 38.901311, "name": "2247ebd0648f4c10d4d467d3889ed399", "fusion_lon": 0.0, "fusion_lat": 0.0, "type": "electric_scooter", "lon": -77.01800016666667}, {"rental_uris": {"android": "https://dc.lft.to/lastmile_qr_scan", "ios": "https://dc.lft.to/lastmile_qr_scan"}, "is_reserved": 0, "is_disabled": 0, "bike_id": "13a2f858b8f9fbfe6f86497a18868007", "lat": 38.92383383333333, "name": "13a2f858b8f9fbfe6f86497a18868007", "fusion_lon": 0.0, "fusion_lat": 0.0, "type": "electric_scooter", "lon": -77.02742716666667}, {"rental_uris": {"android": "https://dc.lft.to/lastmile_qr_scan", "ios": "https://dc.lft.to/lastmile_qr_scan"}, "is_reserved": 0, "is_disabled": 0, "bike_id": "c8f3ff203fd40332780021b1089b5624", "lat": 38.935776, "name": "c8f3ff203fd40332780021b1089b5624", "fusion_lon": 0.0, "fusion_lat": 0.0, "type": "electric_scooter", "lon": -77.03517766666667}, {"rental_uris": {"android": "https://dc.lft.to/lastmile_qr_scan", "ios": "https://dc.lft.to/lastmile_qr_scan"}, "is_reserved": 0, "is_disabled": 0, "bike_id": "9bc08fe492f3fb3425d61846f16a60d4", "lat": 38.943296833333335, "name": "9bc08fe492f3fb3425d61846f16a60d4", "fusion_lon": 0.0, "fusion_lat": 0.0, "type": "electric_scooter", "lon": -77.02681983333333}, {"rental_uris": {"android": "https://dc.lft.to/lastmile_qr_scan", "ios": "https://dc.lft.to/lastmile_qr_scan"}, "is_reserved": 0, "is_disabled": 0, "bike_id": "102076cd83d7a4ce40128ecc60c3c01a", "lat": 38.920562, "name": "102076cd83d7a4ce40128ecc60c3c01a", "fusion_lon": 0.0, "fusion_lat": 0.0, "type": "electric_scooter", "lon": -77.03467533333334}, {"rental_uris": {"android": "https://dc.lft.to/lastmile_qr_scan", "ios": "https://dc.lft.to/lastmile_qr_scan"}, "is_reserved": 0, "is_disabled": 0, "bike_id": "e2db25c1fc7a2e3b538fd53d8ac77dfc", "lat": 38.9529235, "name": "e2db25c1fc7a2e3b538fd53d8ac77dfc", "fusion_lon": 0.0, "fusion_lat": 0.0, "type": "electric_scooter", "lon": -77.06968833333333}, {"rental_uris": {"android": "https://dc.lft.to/lastmile_qr_scan", "ios": "https://dc.lft.to/lastmile_qr_scan"}, "is_reserved": 0, "is_disabled": 0, "bike_id": "9b767cb0cd3cd85ea89816619095d403", "lat": 38.92164866666667, "name": "9b767cb0cd3cd85ea89816619095d403", "fusion_lon": 0.0, "fusion_lat": 0.0, "type": "electric_scooter", "lon": -77.03261316666666},